{"last_updated":1718986156,"ttl":30,"version":"2.2","data":{"bikes":[{"bike_id":"30b8db6e-d467-4bb5-ae01-09c2476fb160","system_id":"levelo_inurba_marseille","lat":43.309076,"lon":5.368465,"is_reserved":false,"is_disabled":false,"rental_uris":{"android":"levelo://app?vid=30b8db6e-d467-4bb5-ae01-09c2476fb160","ios":"levelo://app?vid=30b8db6e-d467-4bb5-ae01-09c2476fb160"},"vehicle_type_id":"4","last_reported":1718986157,"current_range_meters":19600,"station_id":"ce4bgn92rcd13ifvqbvg","pricing_plan_id":"cebpf4jnsgd1na2vs0mg"},{"bike_id":"3aeddb1e-33d5-4ea0-8129-f0989d241716","system_id":"levelo_inurba_marseille","lat":43.309076,"lon":5.368465,"is_reserved":false,"is_disabled":false,"rental_uris":{"android":"levelo://app?vid=3aeddb1e-33d5-4ea0-8129-f0989d241716","ios":"levelo://app?vid=3aeddb1e-33d5-4ea0-8129-f0989d241716"},"vehicle_type_id":"4","last_reported":1718986157,"current_range_meters":28000,"station_id":"ce4bgn92rcd13ifvqbvg","pricing_plan_id":"cebpf4jnsgd1na2vs0mg"},{"bike_id":"0daef52a-97ae-4cdc-bf7e-dee986b714a1","system_id":"levelo_inurba_marseille","lat":43.309076,"lon":5.368465,"is_reserved":false,"is_disabled":false,"rental_uris":{"android":"levelo://app?vid=0daef52a-97ae-4cdc-bf7e-dee986b714a1","ios":"levelo://app?vid=0daef52a-97ae-4cdc-bf7e-dee986b714a1"},"vehicle_type_id":"4","last_reported":1718986157,"current_range_meters":2000,"station_id":"ce4bgn92rcd13ifvqbvg","pricing_plan_id":"cebpf4jnsgd1na2vs0mg"},{"bike_id":"b6a268e2-8770-41aa-933f-753a6e1d6182","system_id":"levelo_inurba_marseille","lat":43.314811,"lon":5.373103,"is_reserved":false,"is_disabled":false,"rental_uris":{"android":"levelo://app?vid=b6a268e2-8770-41aa-933f-753a6e1d6182","ios":"levelo://app?vid=b6a268e2-8770-41aa-933f-753a6e1d6182"},"vehicle_type_id":"4","last_reported":1718986157,"current_range_meters":0,"station_id":"ce4bgt12rcd13ifvqcd0","pricing_plan_id":"cebpf4jnsgd1na2vs0mg"},{"bike_id":"56e2d804-ae75-4cb2-b77f-ec43f7f09df2","system_id":"levelo_inurba_marseille","lat":43.314811,"lon":5.373104,"is_reserved":false,"is_disabled":false,"rental_uris":{"android":"levelo://app?vid=56e2d804-ae75-4cb2-b77f-ec43f7f09df2","ios":"levelo://app?vid=56e2d804-ae75-4cb2-b77f-ec43f7f09df2"},"vehicle_type_id":"4","last_reported":1718986157,"current_range_meters":12400,"station_id":"ce4bgt12rcd13ifvqcd0","pricing_plan_id":"cebpf4jnsgd1na2vs0mg"},{"bike_id":"39cf077f-dd2f-428d-8958-b2c0ff573b78","system_id":"levelo_inurba_marseille","lat":43.314811,"lon":5.373104,"is_reserved":false,"is_disabled":false,"rental_uris":{"android":"levelo://app?vid=39cf077f-dd2f-428d-8958-b2c0ff573b78","ios":"levelo://app?vid=39cf077f-dd2f-428d-8958-b2c0ff573b78"},"vehicle_type_id":"4","last_reported":1718986157,"current_range_meters":19600,"station_id":"ce4bgt12rcd13ifvqcd0","pricing_plan_id":"cebpf4jnsgd1na2vs0mg"},{"bike_id":"20f31c62-307b-4c16-93b6-6fcc5accd677","system_id":"levelo_inurba_marseille","lat":43.314602,"lon":5.373712,"is_reserved":false,"is_disabled":false,"rental_uris":{"android":"levelo://app?vid=20f31c62-307b-4c16-93b6-6fcc5accd677","ios":"levelo://app?vid=20f31c62-307b-4c16-93b6-6fcc5accd677"},"vehicle_type_id":"4","last_reported":1718986157,"current_range_meters":16400,"station_id":"","pricing_plan_id":"cebpf4jnsgd1na2vs0mg"},{"bike_id":"5b4044b7-636d-4067-806e-1954e20ba3bf","system_id":"levelo_inurba_marseille","lat":43.309039,"lon":5.371797,"is_reserved":false,"is_disabled":false,"rental_uris":{"android":"levelo://app?vid=5b4044b7-636d-4067-806e-1954e20ba3bf","ios":"levelo://app?vid=5b4044b7-636d-4067-806e-1954e20ba3bf"},"vehicle_type_id":"4","last_reported":1718986157,"current_range_meters":0,"station_id":"ce4bguh2rcd13ifvqckg","pricing_plan_id":"cebpf4jnsgd1na2vs0mg"},{"bike_id":"28581dc7-3f24-4b8a-8a03-343a3379a7f6","system_id":"levelo_inurba_marseille","lat":43.305368,"lon":5.367343,"is_reserved":false,"is_disabled":false,"rental_uris":{"android":"levelo://app?vid=28581dc7-3f24-4b8a-8a03-343a3379a7f6","ios":"levelo://app?vid=28581dc7-3f24-4b8a-8a03-343a3379a7f6"},"vehicle_type_id":"4","last_reported":1718986157,"current_range_meters":21600,"station_id":"ce4bgrp2rcd13ifvqc9g","pricing_plan_id":"cebpf4jnsgd1na2vs0mg"},{"bike_id":"7affcf1a-a7ee-4cbe-88c5-3286d7ac9058","system_id":"levelo_inurba_marseille","lat":43.311125,"lon":5.377624,"is_reserved":false,"is_disabled":false,"rental_uris":{"android":"levelo://app?vid=7affcf1a-a7ee-4cbe-88c5-3286d7ac9058","ios":"levelo://app?vid=7affcf1a-a7ee-4cbe-88c5-3286d7ac9058"},"vehicle_type_id":"4","last_reported":1718986157,"current_range_meters":16800,"station_id":"ce4bgt92rcd13ifvqcg0","pricing_plan_id":"cebpf4jnsgd1na2vs0mg"},{"bike_id":"1aa9382d-bd55-4aff-8971-b23615fccdae","system_id":"levelo_inurba_marseille","lat":43.310804,"lon":5.381403,"is_reserved":false,"is_disabled":false,"rental_uris":{"android":"levelo://app?vid=1aa9382d-bd55-4aff-8971-b23615fccdae","ios":"levelo://app?vid=1aa9382d-bd55-4aff-8971-b23615fccdae"},"vehicle_type_id":"4","last_reported":1718986157,"current_range_meters":4800,"station_id":"","pricing_plan_id":"cebpf4jnsgd1na2vs0mg"},{"bike_id":"68b0559f-1d02-47b6-8fda-aa90951f36e3","system_id":"levelo_inurba_marseille","lat":43.308012,"lon":5.381511,"is_reserved":false,"is_disabled":false,"rental_uris":{"android":"levelo://app?vid=68b0559f-1d02-47b6-8fda-aa90951f36e3","ios":"levelo://app?vid=68b0559f-1d02-47b6-8fda-aa90951f36e3"},"vehicle_type_id":"4","last_reported":1718986157,"current_range_meters":0,"station_id":"ce4bgt12rcd13ifvqce0","pricing_plan_id":"cebpf4jnsgd1na2vs0mg"},{"bike_id":"e5f141f9-e136-4c66-8a9f-b57a91310867","system_id":"levelo_inurba_marseille","lat":43.304606,"lon":5.379026,"is_reserved":false,"is_disabled":false,"rental_uris":{"android":"levelo://app?vid=e5f141f9-e136-4c66-8a9f-b57a91310867","ios":"levelo://app?vid=e5f141f9-e136-4c66-8a9f-b57a91310867"},"vehicle_type_id":"4","last_reported":1718986157,"current_range_meters":0,"station_id":"ce4bgup2rcd13ifvqcn0","pricing_plan_id":"cebpf4jnsgd1na2vs0mg"},{"bike_id":"dd9b0c99-99b4-404a-ab5c-46d31488737d","system_id":"levelo_inurba_marseille","lat":43.304606,"lon":5.379026,"is_reserved":false,"is_disabled":false,"rental_uris":{"android":"levelo://app?vid=dd9b0c99-99b4-404a-ab5c-46d31488737d","ios":"levelo://app?vid=dd9b0c99-99b4-404a-ab5c-46d31488737d"},"vehicle_type_id":"4","last_reported":1718986157,"current_range_meters":10400,"station_id":"ce4bgup2rcd13ifvqcn0","pricing_plan_id":"cebpf4jnsgd1na2vs0mg"},{"bike_id":"46a1f325-fc4a-4ecf-817c-c7ac7e1e127e","system_id":"levelo_inurba_marseille","lat":43.304606,"lon":5.379026,"is_reserved":false,"is_disabled":false,"rental_uris":{"android":"levelo://app?vid=46a1f325-fc4a-4ecf-817c-c7ac7e1e127e","ios":"levelo://app?vid=46a1f325-fc4a-4ecf-817c-c7ac7e1e127e"},"vehicle_type_id":"4","last_reported":1718986157,"current_range_meters":13600,"station_id":"ce4bgup2rcd13ifvqcn0","pricing_plan_id":"cebpf4jnsgd1na2vs0mg"},{"bike_id":"0cf4f2e2-150e-4567-bd04-06c956a4df89","system_id":"levelo_inurba_marseille","lat":43.32489,"lon":5.36554,"is_reserved":false,"is_disabled":false,"rental_uris":{"android":"levelo://app?vid=0cf4f2e2-150e-4567-bd04-06c956a4df89","ios":"levelo://app?vid=0cf4f2e2-150e-4567-bd04-06c956a4df89"},"vehicle_type_id":"4","last_reported":1718986157,"current_range_meters":0,"station_id":"ce4bhs12rcd13ifvqhvg","pricing_plan_id":"cebpf4jnsgd1na2vs0mg"},{"bike_id":"b1e9ef3c-3508-49f2-9ee0-355b1d40f69c","system_id":"levelo_inurba_marseille","lat":43.310804,"lon":5.38359,"is_reserved":false,"is_disabled":false,"rental_uris":{"android":"levelo://app?vid=b1e9ef3c-3508-49f2-9ee0-355b1d40f69c","ios":"levelo://app?vid=b1e9ef3c-3508-49f2-9ee0-355b1d40f69c"},"vehicle_type_id":"4","last_reported":1718986157,"current_range_meters":25600,"station_id":"ce4bgv92rcd13ifvqcr0","pricing_plan_id":"cebpf4jnsgd1na2vs0mg"},{"bike_id":"4b4c6786-0daf-4e00-8dd3-05483bb864c6","system_id":"levelo_inurba_marseille","lat":43.310804,"lon":5.38359,"is_reserved":false,"is_disabled":false,"rental_uris":{"android":"levelo://app?vid=4b4c6786-0daf-4e00-8dd3-05483bb864c6","ios":"levelo://app?vid=4b4c6786-0daf-4e00-8dd3-05483bb864c6"},"vehicle_type_id":"4","last_reported":1718986157,"current_range_meters":0,"station_id":"ce4bgv92rcd13ifvqcr0","pricing_plan_id":"cebpf4jnsgd1na2vs0mg"},{"bike_id":"4f17b089-79cb-4f2e-a7e1-b736df93b457","system_id":"levelo_inurba_marseille","lat":43.319922,"lon":5.381498,"is_reserved":false,"is_disabled":false,"rental_uris":{"android":"levelo://app?vid=4f17b089-79cb-4f2e-a7e1-b736df93b457","ios":"levelo://app?vid=4f17b089-79cb-4f2e-a7e1-b736df93b457"},"vehicle_type_id":"4","last_reported":1718986157,"current_range_meters":0,"station_id":"ce4bhr12rcd13ifvqhpg","pricing_plan_id":"cebpf4jnsgd1na2vs0mg"},{"bike_id":"32717c58-490e-4c7a-ab81-751d8c1c9195","system_id":"levelo_inurba_marseille","lat":43.319935,"lon":5.381699,"is_reserved":false,"is_disabled":false,"rental_uris":{"android":"levelo://app?vid=32717c58-490e-4c7a-ab81-751d8c1c9195","ios":"levelo://app?vid=32717c58-490e-4c7a-ab81-751d8c1c9195"},"vehicle_type_id":"4","last_reported":1718986157,"current_range_meters":21600,"station_id":"ce4bhr12rcd13ifvqhpg","pricing_plan_id":"cebpf4jnsgd1na2vs0mg"},{"bike_id":"56c6f20b-315d-486a-94e7-ef13d998d470","system_id":"levelo_inurba_marseille","lat":43.319935,"lon":5.381699,"is_reserved":false,"is_disabled":false,"rental_uris":{"android":"levelo://app?vid=56c6f20b-315d-486a-94e7-ef13d998d470","ios":"levelo://app?vid=56c6f20b-315d-486a-94e7-ef13d998d470"},"vehicle_type_id":"4","last_reported":1718986157,"current_range_meters":19200,"station_id":"ce4bhr12rcd13ifvqhpg","pricing_plan_id":"cebpf4jnsgd1na2vs0mg"},{"bike_id":"810528c4-d8b1-447e-94d1-95e5d7338230","system_id":"levelo_inurba_marseille","lat":43.299222,"lon":5.365554,"is_reserved":false,"is_disabled":false,"rental_uris":{"android":"levelo://app?vid=810528c4-d8b1-447e-94d1-95e5d7338230","ios":"levelo://app?vid=810528c4-d8b1-447e-94d1-95e5d7338230"},"vehicle_type_id":"4","last_reported":1718986157,"current_range_meters":19600,"station_id":"ce4bgm92rcd13ifvqbr0","pricing_plan_id":"cebpf4jnsgd1na2vs0mg"},{"bike_id":"4cd82919-1b4c-440c-8786-d1fa2600d4a5","system_id":"levelo_inurba_marseille","lat":43.299724,"lon":5.371829,"is_reserved":false,"is_disabled":false,"rental_uris":{"android":"levelo://app?vid=4cd82919-1b4c-440c-8786-d1fa2600d4a5","ios":"levelo://app?vid=4cd82919-1b4c-440c-8786-d1fa2600d4a5"},"vehicle_type_id":"4","last_reported":1718986157,"current_range_meters":0,"station_id":"ce4bgr92rcd13ifvqc7g","pricing_plan_id":"cebpf4jnsgd1na2vs0mg"},{"bike_id":"edca5f70-f8c3-46e8-8a95-ee187c4a54db","system_id":"levelo_inurba_marseille","lat":43.299724,"lon":5.371829,"is_reserved":false,"is_disabled":false,"rental_uris":{"android":"levelo://app?vid=edca5f70-f8c3-46e8-8a95-ee187c4a54db","ios":"levelo://app?vid=edca5f70-f8c3-46e8-8a95-ee187c4a54db"},"vehicle_type_id":"4","last_reported":1718986157,"current_range_meters":28400,"station_id":"ce4bgr92rcd13ifvqc7g","pricing_plan_id":"cebpf4jnsgd1na2vs0mg"},{"bike_id":"a3351bc9-57e5-40a8-a632-fb07b59c3abd","system_id":"levelo_inurba_marseille","lat":43.29852,"lon":5.36284,"is_reserved":false,"is_disabled":false,"rental_uris":{"android":"levelo://app?vid=a3351bc9-57e5-40a8-a632-fb07b59c3abd","ios":"levelo://app?vid=a3351bc9-57e5-40a8-a632-fb07b59c3abd"},"vehicle_type_id":"4","last_reported":1718986157,"current_range_meters":0,"station_id":"","pricing_plan_id":"cebpf4jnsgd1na2vs0mg"},{"bike_id":"e20e1157-6ed4-46b5-9869-fe8467fe0ea2","system_id":"levelo_inurba_marseille","lat":43.30542,"lon":5.384299,"is_reserved":false,"is_disabled":false,"rental_uris":{"android":"levelo://app?vid=e20e1157-6ed4-46b5-9869-fe8467fe0ea2","ios":"levelo://app?vid=e20e1157-6ed4-46b5-9869-fe8467fe0ea2"},"vehicle_type_id":"4","last_reported":1718986157,"current_range_meters":0,"station_id":"ce4bgg92rcd13ifvqb30","pricing_plan_id":"cebpf4jnsgd1na2vs0mg"},{"bike_id":"c8d74784-cfa3-4dc0-a55e-c53d6b6b7590","system_id":"levelo_inurba_marseille","lat":43.29962,"lon":5.37601,"is_reserved":false,"is_disabled":false,"rental_uris":{"android":"levelo://app?vid=c8d74784-cfa3-4dc0-a55e-c53d6b6b7590","ios":"levelo://app?vid=c8d74784-cfa3-4dc0-a55e-c53d6b6b7590"},"vehicle_type_id":"4","last_reported":1718986157,"current_range_meters":18400,"station_id":"","pricing_plan_id":"cebpf4jnsgd1na2vs0mg"},{"bike_id":"433eca66-06cc-44f1-b280-169387657a46","system_id":"levelo_inurba_marseille","lat":43.299243,"lon":5.37481,"is_reserved":false,"is_disabled":false,"rental_uris":{"android":"levelo://app?vid=433eca66-06cc-44f1-b280-169387657a46","ios":"levelo://app?vid=433eca66-06cc-44f1-b280-169387657a46"},"vehicle_type_id":"4","last_reported":1718986157,"current_range_meters":0,"station_id":"ce4bgjh2rcd13ifvqbg0","pricing_plan_id":"cebpf4jnsgd1na2vs0mg"},{"bike_id":"f726ec3f-8c68-47a9-b6ab-083886899240","system_id":"levelo_inurba_marseille","lat":43.311722,"lon":5.387247,"is_reserved":false,"is_disabled":false,"rental_uris":{"android":"levelo://app?vid=f726ec3f-8c68-47a9-b6ab-083886899240","ios":"levelo://app?vid=f726ec3f-8c68-47a9-b6ab-083886899240"},"vehicle_type_id":"4","last_reported":1718986157,"current_range_meters":6400,"station_id":"ce4bgv12rcd13ifvqcp0","pricing_plan_id":"cebpf4jnsgd1na2vs0mg"},{"bike_id":"95533ed6-0e8e-4580-87bd-34b976c90b47","system_id":"levelo_inurba_marseille","lat":43.297794,"lon":5.370888,"is_reserved":false,"is_disabled":false,"rental_uris":{"android":"levelo://app?vid=95533ed6-0e8e-4580-87bd-34b976c90b47","ios":"levelo://app?vid=95533ed6-0e8e-4580-87bd-34b976c90b47"},"vehicle_type_id":"4","last_reported":1718986157,"current_range_meters":16000,"station_id":"ce4bgop2rcd13ifvqc1g","pricing_plan_id":"cebpf4jnsgd1na2vs0mg"},{"bike_id":"a0a3fec1-15c5-4e20-90ea-b7e0bfd4d21b","system_id":"levelo_inurba_marseille","lat":43.322872,"lon":5.382756,"is_reserved":false,"is_disabled":false,"rental_uris":{"android":"levelo://app?vid=a0a3fec1-15c5-4e20-90ea-b7e0bfd4d21b","ios":"levelo://app?vid=a0a3fec1-15c5-4e20-90ea-b7e0bfd4d21b"},"vehicle_type_id":"4","last_reported":1718986157,"current_range_meters":14800,"station_id":"ce4bhr12rcd13ifvqhqg","pricing_plan_id":"cebpf4jnsgd1na2vs0mg"},{"bike_id":"3ae12918-7860-47be-aac5-d54ae234676a","system_id":"levelo_inurba_marseille","lat":43.322872,"lon":5.382756,"is_reserved":false,"is_disabled":false,"rental_uris":{"android":"levelo://app?vid=3ae12918-7860-47be-aac5-d54ae234676a","ios":"levelo://app?vid=3ae12918-7860-47be-aac5-d54ae234676a"},"vehicle_type_id":"4","last_reported":1718986157,"current_range_meters":30400,"station_id":"ce4bhr12rcd13ifvqhqg","pricing_plan_id":"cebpf4jnsgd1na2vs0mg"},{"bike_id":"6d637080-2f9d-44a5-a45b-fa8f4a782758","system_id":"levelo_inurba_marseille","lat":43.297163,"lon":5.365866,"is_reserved":false,"is_disabled":false,"rental_uris":{"android":"levelo://app?vid=6d637080-2f9d-44a5-a45b-fa8f4a782758","ios":"levelo://app?vid=6d637080-2f9d-44a5-a45b-fa8f4a782758"},"vehicle_type_id":"4","last_reported":1718986157,"current_range_meters":17200,"station_id":"ce4bgn12rcd13ifvqbt0","pricing_plan_id":"cebpf4jnsgd1na2vs0mg"},{"bike_id":"99e69d5c-b3bd-44ba-be17-4722ceafa29a","system_id":"levelo_inurba_marseille","lat":43.297042,"lon":5.366023,"is_reserved":false,"is_disabled":false,"rental_uris":{"android":"levelo://app?vid=99e69d5c-b3bd-44ba-be17-4722ceafa29a","ios":"levelo://app?vid=99e69d5c-b3bd-44ba-be17-4722ceafa29a"},"vehicle_type_id":"4","last_reported":1718986157,"current_range_meters":31200,"station_id":"","pricing_plan_id":"cebpf4jnsgd1na2vs0mg"},{"bike_id":"8fd4a8ab-61a4-4c55-bf3b-b14ed8c76f1b","system_id":"levelo_inurba_marseille","lat":43.296131,"lon":5.370791,"is_reserved":false,"is_disabled":false,"rental_uris":{"android":"levelo://app?vid=8fd4a8ab-61a4-4c55-bf3b-b14ed8c76f1b","ios":"levelo://app?vid=8fd4a8ab-61a4-4c55-bf3b-b14ed8c76f1b"},"vehicle_type_id":"4","last_reported":1718986157,"current_range_meters":26800,"station_id":"ce4bgnh2rcd13ifvqc0g","pricing_plan_id":"cebpf4jnsgd1na2vs0mg"},{"bike_id":"1a3f23c0-ee13-466b-b7ac-7d060aae2d41","system_id":"levelo_inurba_marseille","lat":43.30954,"lon":5.39035,"is_reserved":false,"is_disabled":false,"rental_uris":{"android":"levelo://app?vid=1a3f23c0-ee13-466b-b7ac-7d060aae2d41","ios":"levelo://app?vid=1a3f23c0-ee13-466b-b7ac-7d060aae2d41"},"vehicle_type_id":"4","last_reported":1718986157,"current_range_meters":0,"station_id":"ce4bgup2rcd13ifvqco0","pricing_plan_id":"cebpf4jnsgd1na2vs0mg"},{"bike_id":"877d4bea-79fe-4de0-942f-aee27f01ba73","system_id":"levelo_inurba_marseille","lat":43.309589,"lon":5.390258,"is_reserved":false,"is_disabled":false,"rental_uris":{"android":"levelo://app?vid=877d4bea-79fe-4de0-942f-aee27f01ba73","ios":"levelo://app?vid=877d4bea-79fe-4de0-942f-aee27f01ba73"},"vehicle_type_id":"4","last_reported":1718986157,"current_range_meters":0,"station_id":"ce4bgup2rcd13ifvqco0","pricing_plan_id":"cebpf4jnsgd1na2vs0mg"},{"bike_id":"de121f16-bfa6-4c34-9209-303ac2080f65","system_id":"levelo_inurba_marseille","lat":43.29713,"lon":5.37875,"is_reserved":false,"is_disabled":false,"rental_uris":{"android":"levelo://app?vid=de121f16-bfa6-4c34-9209-303ac2080f65","ios":"levelo://app?vid=de121f16-bfa6-4c34-9209-303ac2080f65"},"vehicle_type_id":"4","last_reported":1718986157,"current_range_meters":19600,"station_id":"","pricing_plan_id":"cebpf4jnsgd1na2vs0mg"},{"bike_id":"5f697c3e-dc00-4de4-8213-cdf07d72f3e3","system_id":"levelo_inurba_marseille","lat":43.298037,"lon":5.381066,"is_reserved":false,"is_disabled":false,"rental_uris":{"android":"levelo://app?vid=5f697c3e-dc00-4de4-8213-cdf07d72f3e3","ios":"levelo://app?vid=5f697c3e-dc00-4de4-8213-cdf07d72f3e3"},"vehicle_type_id":"4","last_reported":1718986157,"current_range_meters":0,"station_id":"ce4bgip2rcd13ifvqbb0","pricing_plan_id":"cebpf4jnsgd1na2vs0mg"},{"bike_id":"e5ce5d75-67db-4ac3-8de3-9a01540f4bff","system_id":"levelo_inurba_marseille","lat":43.298037,"lon":5.381066,"is_reserved":false,"is_disabled":false,"rental_uris":{"android":"levelo://app?vid=e5ce5d75-67db-4ac3-8de3-9a01540f4bff","ios":"levelo://app?vid=e5ce5d75-67db-4ac3-8de3-9a01540f4bff"},"vehicle_type_id":"4","last_reported":1718986157,"current_range_meters":0,"station_id":"ce4bgip2rcd13ifvqbb0","pricing_plan_id":"cebpf4jnsgd1na2vs0mg"},{"bike_id":"e1bf423b-fb34-46f2-8e97-4612cf971d64","system_id":"levelo_inurba_marseille","lat":43.231562,"lon":5.436933,"is_reserved":false,"is_disabled":false,"rental_uris":{"android":"levelo://app?vid=e1bf423b-fb34-46f2-8e97-4612cf971d64","ios":"levelo://app?vid=e1bf423b-fb34-46f2-8e97-4612cf971d64"},"vehicle_type_id":"4","last_reported":1718986157,"current_range_meters":31200,"station_id":"ce4bhmp2rcd13ifvqgog","pricing_plan_id":"cebpf4jnsgd1na2vs0mg"},{"bike_id":"84b80422-216b-4e9a-adfc-e75c8e07af5d","system_id":"levelo_inurba_marseille","lat":43.304278,"lon":5.388868,"is_reserved":false,"is_disabled":false,"rental_uris":{"android":"levelo://app?vid=84b80422-216b-4e9a-adfc-e75c8e07af5d","ios":"levelo://app?vid=84b80422-216b-4e9a-adfc-e75c8e07af5d"},"vehicle_type_id":"4","last_reported":1718986157,"current_range_meters":0,"station_id":"ce4bgk12rcd13ifvqbi0","pricing_plan_id":"cebpf4jnsgd1na2vs0mg"},{"bike_id":"d256811f-e668-4524-9edc-58ad681e9bfc","system_id":"levelo_inurba_marseille","lat":43.29619,"lon":5.37708,"is_reserved":false,"is_disabled":false,"rental_uris":{"android":"levelo://app?vid=d256811f-e668-4524-9edc-58ad681e9bfc","ios":"levelo://app?vid=d256811f-e668-4524-9edc-58ad681e9bfc"},"vehicle_type_id":"4","last_reported":1718986157,"current_range_meters":24800,"station_id":"ce4bgi92rcd13ifvqb90","pricing_plan_id":"cebpf4jnsgd1na2vs0mg"},{"bike_id":"b74cba40-723f-41d3-a68f-4ed4b4ee5f01","system_id":"levelo_inurba_marseille","lat":43.29615,"lon":5.37705,"is_reserved":false,"is_disabled":false,"rental_uris":{"android":"levelo://app?vid=b74cba40-723f-41d3-a68f-4ed4b4ee5f01","ios":"levelo://app?vid=b74cba40-723f-41d3-a68f-4ed4b4ee5f01"},"vehicle_type_id":"4","last_reported":1718986157,"current_range_meters":0,"station_id":"ce4bgi92rcd13ifvqb90","pricing_plan_id":"cebpf4jnsgd1na2vs0mg"},{"bike_id":"22449c49-b72d-480f-90b5-e592c55e90ae","system_id":"levelo_inurba_marseille","lat":43.2961,"lon":5.37711,"is_reserved":false,"is_disabled":false,"rental_uris":{"android":"levelo://app?vid=22449c49-b72d-480f-90b5-e592c55e90ae","ios":"levelo://app?vid=22449c49-b72d-480f-90b5-e592c55e90ae"},"vehicle_type_id":"4","last_reported":1718986157,"current_range_meters":23600,"station_id":"ce4bgi92rcd13ifvqb90","pricing_plan_id":"cebpf4jnsgd1na2vs0mg"},{"bike_id":"8f83911d-9d51-44ca-820d-ed3d09860eea","system_id":"levelo_inurba_marseille","lat":43.296019,"lon":5.377274,"is_reserved":false,"is_disabled":false,"rental_uris":{"android":"levelo://app?vid=8f83911d-9d51-44ca-820d-ed3d09860eea","ios":"levelo://app?vid=8f83911d-9d51-44ca-820d-ed3d09860eea"},"vehicle_type_id":"4","last_reported":1718986157,"current_range_meters":0,"station_id":"ce4bgi92rcd13ifvqb90","pricing_plan_id":"cebpf4jnsgd1na2vs0mg"},{"bike_id":"3c52bdbd-35fa-4a90-b62f-092cadbebac2","system_id":"levelo_inurba_marseille","lat":43.29597,"lon":5.37737,"is_reserved":false,"is_disabled":false,"rental_uris":{"android":"levelo://app?vid=3c52bdbd-35fa-4a90-b62f-092cadbebac2","ios":"levelo://app?vid=3c52bdbd-35fa-4a90-b62f-092cadbebac2"},"vehicle_type_id":"4","last_reported":1718986157,"current_range_meters":1200,"station_id":"ce4bgi92rcd13ifvqb90","pricing_plan_id":"cebpf4jnsgd1na2vs0mg"},{"bike_id":"e9931fc5-6fe0-4c47-b948-54ee68db56eb","system_id":"levelo_inurba_marseille","lat":43.29527,"lon":5.37505,"is_reserved":false,"is_disabled":false,"rental_uris":{"android":"levelo://app?vid=e9931fc5-6fe0-4c47-b948-54ee68db56eb","ios":"levelo://app?vid=e9931fc5-6fe0-4c47-b948-54ee68db56eb"},"vehicle_type_id":"4","last_reported":1718986157,"current_range_meters":0,"station_id":"ce4bgkp2rcd13ifvqbmg","pricing_plan_id":"cebpf4jnsgd1na2vs0mg"},{"bike_id":"ad43125b-4de5-4203-99c3-aed990a455d9","system_id":"levelo_inurba_marseille","lat":43.295279,"lon":5.375048,"is_reserved":false,"is_disabled":false,"rental_uris":{"android":"levelo://app?vid=ad43125b-4de5-4203-99c3-aed990a455d9","ios":"levelo://app?vid=ad43125b-4de5-4203-99c3-aed990a455d9"},"vehicle_type_id":"4","last_reported":1718986157,"current_range_meters":0,"station_id":"ce4bgkp2rcd13ifvqbmg","pricing_plan_id":"cebpf4jnsgd1na2vs0mg"},{"bike_id":"4ebbc322-76fd-48a1-b01d-7a735c5aca74","system_id":"levelo_inurba_marseille","lat":43.295279,"lon":5.375048,"is_reserved":false,"is_disabled":false,"rental_uris":{"android":"levelo://app?vid=4ebbc322-76fd-48a1-b01d-7a735c5aca74","ios":"levelo://app?vid=4ebbc322-76fd-48a1-b01d-7a735c5aca74"},"vehicle_type_id":"4","last_reported":1718986157,"current_range_meters":0,"station_id":"ce4bgkp2rcd13ifvqbmg","pricing_plan_id":"cebpf4jnsgd1na2vs0mg"},{"bike_id":"2fec8a21-7c5d-4739-b9f8-cedd4ee35aef","system_id":"levelo_inurba_marseille","lat":43.29502,"lon":5.37509,"is_reserved":false,"is_disabled":false,"rental_uris":{"android":"levelo://app?vid=2fec8a21-7c5d-4739-b9f8-cedd4ee35aef","ios":"levelo://app?vid=2fec8a21-7c5d-4739-b9f8-cedd4ee35aef"},"vehicle_type_id":"4","last_reported":1718986157,"current_range_meters":0,"station_id":"ce4bgkp2rcd13ifvqbmg","pricing_plan_id":"cebpf4jnsgd1na2vs0mg"},{"bike_id":"323e041e-5534-47d1-a0bd-405f7ee17808","system_id":"levelo_inurba_marseille","lat":43.30082,"lon":5.38727,"is_reserved":false,"is_disabled":false,"rental_uris":{"android":"levelo://app?vid=323e041e-5534-47d1-a0bd-405f7ee17808","ios":"levelo://app?vid=323e041e-5534-47d1-a0bd-405f7ee17808"},"vehicle_type_id":"4","last_reported":1718986157,"current_range_meters":14000,"station_id":"","pricing_plan_id":"cebpf4jnsgd1na2vs0mg"},{"bike_id":"a1ddab42-e58c-4c5f-a2d3-d2ce0bb968d5","system_id":"levelo_inurba_marseille","lat":43.29602,"lon":5.381084,"is_reserved":false,"is_disabled":false,"rental_uris":{"android":"levelo://app?vid=a1ddab42-e58c-4c5f-a2d3-d2ce0bb968d5","ios":"levelo://app?vid=a1ddab42-e58c-4c5f-a2d3-d2ce0bb968d5"},"vehicle_type_id":"4","last_reported":1718986157,"current_range_meters":17600,"station_id":"ce4bgl12rcd13ifvqbo0","pricing_plan_id":"cebpf4jnsgd1na2vs0mg"},{"bike_id":"4f017786-ce4d-4d2c-910b-c7bfd45f00eb","system_id":"levelo_inurba_marseille","lat":43.29602,"lon":5.381084,"is_reserved":false,"is_disabled":false,"rental_uris":{"android":"levelo://app?vid=4f017786-ce4d-4d2c-910b-c7bfd45f00eb","ios":"levelo://app?vid=4f017786-ce4d-4d2c-910b-c7bfd45f00eb"},"vehicle_type_id":"4","last_reported":1718986157,"current_range_meters":4000,"station_id":"ce4bgl12rcd13ifvqbo0","pricing_plan_id":"cebpf4jnsgd1na2vs0mg"},{"bike_id":"336c592c-fba6-4513-a726-ea7d0a0c36f1","system_id":"levelo_inurba_marseille","lat":43.293259,"lon":5.371586,"is_reserved":false,"is_disabled":false,"rental_uris":{"android":"levelo://app?vid=336c592c-fba6-4513-a726-ea7d0a0c36f1","ios":"levelo://app?vid=336c592c-fba6-4513-a726-ea7d0a0c36f1"},"vehicle_type_id":"4","last_reported":1718986157,"current_range_meters":4400,"station_id":"ce4bgh92rcd13ifvqb40","pricing_plan_id":"cebpf4jnsgd1na2vs0mg"},{"bike_id":"a14e9231-3833-4de4-97c7-92c4499c18a7","system_id":"levelo_inurba_marseille","lat":43.29308,"lon":5.3718,"is_reserved":false,"is_disabled":false,"rental_uris":{"android":"levelo://app?vid=a14e9231-3833-4de4-97c7-92c4499c18a7","ios":"levelo://app?vid=a14e9231-3833-4de4-97c7-92c4499c18a7"},"vehicle_type_id":"4","last_reported":1718986157,"current_range_meters":14800,"station_id":"ce4bgh92rcd13ifvqb40","pricing_plan_id":"cebpf4jnsgd1na2vs0mg"},{"bike_id":"95c06023-c4da-4e73-babf-27a56a48e391","system_id":"levelo_inurba_marseille","lat":43.293259,"lon":5.371586,"is_reserved":false,"is_disabled":false,"rental_uris":{"android":"levelo://app?vid=95c06023-c4da-4e73-babf-27a56a48e391","ios":"levelo://app?vid=95c06023-c4da-4e73-babf-27a56a48e391"},"vehicle_type_id":"4","last_reported":1718986157,"current_range_meters":0,"station_id":"ce4bgh92rcd13ifvqb40","pricing_plan_id":"cebpf4jnsgd1na2vs0mg"},{"bike_id":"3ac36483-5049-42d0-8299-cb04a08ce46c","system_id":"levelo_inurba_marseille","lat":43.292749,"lon":5.368402,"is_reserved":false,"is_disabled":false,"rental_uris":{"android":"levelo://app?vid=3ac36483-5049-42d0-8299-cb04a08ce46c","ios":"levelo://app?vid=3ac36483-5049-42d0-8299-cb04a08ce46c"},"vehicle_type_id":"4","last_reported":1718986157,"current_range_meters":1200,"station_id":"ce4bhbp2rcd13ifvqesg","pricing_plan_id":"cebpf4jnsgd1na2vs0mg"},{"bike_id":"ae9db717-31ec-4bb7-8b87-ebe045f0e2c2","system_id":"levelo_inurba_marseille","lat":43.292749,"lon":5.368402,"is_reserved":false,"is_disabled":false,"rental_uris":{"android":"levelo://app?vid=ae9db717-31ec-4bb7-8b87-ebe045f0e2c2","ios":"levelo://app?vid=ae9db717-31ec-4bb7-8b87-ebe045f0e2c2"},"vehicle_type_id":"4","last_reported":1718986157,"current_range_meters":16800,"station_id":"ce4bhbp2rcd13ifvqesg","pricing_plan_id":"cebpf4jnsgd1na2vs0mg"},{"bike_id":"e49f9ac8-ff0f-4d39-8075-b61095e37d23","system_id":"levelo_inurba_marseille","lat":43.292749,"lon":5.368402,"is_reserved":false,"is_disabled":false,"rental_uris":{"android":"levelo://app?vid=e49f9ac8-ff0f-4d39-8075-b61095e37d23","ios":"levelo://app?vid=e49f9ac8-ff0f-4d39-8075-b61095e37d23"},"vehicle_type_id":"4","last_reported":1718986157,"current_range_meters":7600,"station_id":"ce4bhbp2rcd13ifvqesg","pricing_plan_id":"cebpf4jnsgd1na2vs0mg"},{"bike_id":"0ecbcf0b-7708-47ce-97e1-c777e17d5c32","system_id":"levelo_inurba_marseille","lat":43.292749,"lon":5.368402,"is_reserved":false,"is_disabled":false,"rental_uris":{"android":"levelo://app?vid=0ecbcf0b-7708-47ce-97e1-c777e17d5c32","ios":"levelo://app?vid=0ecbcf0b-7708-47ce-97e1-c777e17d5c32"},"vehicle_type_id":"4","last_reported":1718986157,"current_range_meters":21600,"station_id":"ce4bhbp2rcd13ifvqesg","pricing_plan_id":"cebpf4jnsgd1na2vs0mg"},{"bike_id":"2de06b80-97b8-434f-bc03-8fdb6b8520f2","system_id":"levelo_inurba_marseille","lat":43.292749,"lon":5.368402,"is_reserved":false,"is_disabled":false,"rental_uris":{"android":"levelo://app?vid=2de06b80-97b8-434f-bc03-8fdb6b8520f2","ios":"levelo://app?vid=2de06b80-97b8-434f-bc03-8fdb6b8520f2"},"vehicle_type_id":"4","last_reported":1718986157,"current_range_meters":7600,"station_id":"ce4bhbp2rcd13ifvqesg","pricing_plan_id":"cebpf4jnsgd1na2vs0mg"},{"bike_id":"c9443ceb-e8c0-496b-b949-84ebd05e2555","system_id":"levelo_inurba_marseille","lat":43.297474,"lon":5.385398,"is_reserved":false,"is_disabled":false,"rental_uris":{"android":"levelo://app?vid=c9443ceb-e8c0-496b-b949-84ebd05e2555","ios":"levelo://app?vid=c9443ceb-e8c0-496b-b949-84ebd05e2555"},"vehicle_type_id":"4","last_reported":1718986157,"current_range_meters":0,"station_id":"","pricing_plan_id":"cebpf4jnsgd1na2vs0mg"},{"bike_id":"41aec1c8-f278-42e6-a429-e325c61a0664","system_id":"levelo_inurba_marseille","lat":43.29297,"lon":5.37449,"is_reserved":false,"is_disabled":false,"rental_uris":{"android":"levelo://app?vid=41aec1c8-f278-42e6-a429-e325c61a0664","ios":"levelo://app?vid=41aec1c8-f278-42e6-a429-e325c61a0664"},"vehicle_type_id":"4","last_reported":1718986157,"current_range_meters":0,"station_id":"ce4bgi12rcd13ifvqb70","pricing_plan_id":"cebpf4jnsgd1na2vs0mg"},{"bike_id":"d754d3ca-9a8f-4f8b-a1e3-d29916fc8177","system_id":"levelo_inurba_marseille","lat":43.30298,"lon":5.39214,"is_reserved":false,"is_disabled":false,"rental_uris":{"android":"levelo://app?vid=d754d3ca-9a8f-4f8b-a1e3-d29916fc8177","ios":"levelo://app?vid=d754d3ca-9a8f-4f8b-a1e3-d29916fc8177"},"vehicle_type_id":"4","last_reported":1718986157,"current_range_meters":0,"station_id":"ce4bgkh2rcd13ifvqbk0","pricing_plan_id":"cebpf4jnsgd1na2vs0mg"},{"bike_id":"b43682c1-1f2e-42d2-867a-263f0c11b176","system_id":"levelo_inurba_marseille","lat":43.302992,"lon":5.392136,"is_reserved":false,"is_disabled":false,"rental_uris":{"android":"levelo://app?vid=b43682c1-1f2e-42d2-867a-263f0c11b176","ios":"levelo://app?vid=b43682c1-1f2e-42d2-867a-263f0c11b176"},"vehicle_type_id":"4","last_reported":1718986157,"current_range_meters":0,"station_id":"ce4bgkh2rcd13ifvqbk0","pricing_plan_id":"cebpf4jnsgd1na2vs0mg"},{"bike_id":"8da8a2bd-5c18-408e-80f7-b48d6ca3737d","system_id":"levelo_inurba_marseille","lat":43.29362,"lon":5.37841,"is_reserved":false,"is_disabled":false,"rental_uris":{"android":"levelo://app?vid=8da8a2bd-5c18-408e-80f7-b48d6ca3737d","ios":"levelo://app?vid=8da8a2bd-5c18-408e-80f7-b48d6ca3737d"},"vehicle_type_id":"4","last_reported":1718986157,"current_range_meters":0,"station_id":"ce4bgjh2rcd13ifvqbf0","pricing_plan_id":"cebpf4jnsgd1na2vs0mg"},{"bike_id":"d180d09e-010d-41d8-8a62-47bce0950cd2","system_id":"levelo_inurba_marseille","lat":43.29224,"lon":5.36057,"is_reserved":false,"is_disabled":false,"rental_uris":{"android":"levelo://app?vid=d180d09e-010d-41d8-8a62-47bce0950cd2","ios":"levelo://app?vid=d180d09e-010d-41d8-8a62-47bce0950cd2"},"vehicle_type_id":"4","last_reported":1718986157,"current_range_meters":16000,"station_id":"ce4bhbh2rcd13ifvqeqg","pricing_plan_id":"cebpf4jnsgd1na2vs0mg"},{"bike_id":"c0ee0a6d-a9c9-4c39-aab1-f71a47a811a2","system_id":"levelo_inurba_marseille","lat":43.29224,"lon":5.36056,"is_reserved":false,"is_disabled":false,"rental_uris":{"android":"levelo://app?vid=c0ee0a6d-a9c9-4c39-aab1-f71a47a811a2","ios":"levelo://app?vid=c0ee0a6d-a9c9-4c39-aab1-f71a47a811a2"},"vehicle_type_id":"4","last_reported":1718986157,"current_range_meters":8800,"station_id":"ce4bhbh2rcd13ifvqeqg","pricing_plan_id":"cebpf4jnsgd1na2vs0mg"},{"bike_id":"85098ba8-e53d-420c-8d20-506d00af5b19","system_id":"levelo_inurba_marseille","lat":43.29222,"lon":5.36053,"is_reserved":false,"is_disabled":false,"rental_uris":{"android":"levelo://app?vid=85098ba8-e53d-420c-8d20-506d00af5b19","ios":"levelo://app?vid=85098ba8-e53d-420c-8d20-506d00af5b19"},"vehicle_type_id":"4","last_reported":1718986157,"current_range_meters":31200,"station_id":"ce4bhbh2rcd13ifvqeqg","pricing_plan_id":"cebpf4jnsgd1na2vs0mg"},{"bike_id":"6cc6e854-6abd-4b61-8aec-bc36f64ef6d6","system_id":"levelo_inurba_marseille","lat":43.29214,"lon":5.360555,"is_reserved":false,"is_disabled":false,"rental_uris":{"android":"levelo://app?vid=6cc6e854-6abd-4b61-8aec-bc36f64ef6d6","ios":"levelo://app?vid=6cc6e854-6abd-4b61-8aec-bc36f64ef6d6"},"vehicle_type_id":"4","last_reported":1718986157,"current_range_meters":27600,"station_id":"ce4bhbh2rcd13ifvqeqg","pricing_plan_id":"cebpf4jnsgd1na2vs0mg"},{"bike_id":"f7a39a10-65e2-4a9d-8044-10884f44b103","system_id":"levelo_inurba_marseille","lat":43.2921,"lon":5.36078,"is_reserved":false,"is_disabled":false,"rental_uris":{"android":"levelo://app?vid=f7a39a10-65e2-4a9d-8044-10884f44b103","ios":"levelo://app?vid=f7a39a10-65e2-4a9d-8044-10884f44b103"},"vehicle_type_id":"4","last_reported":1718986157,"current_range_meters":2400,"station_id":"ce4bhbh2rcd13ifvqeqg","pricing_plan_id":"cebpf4jnsgd1na2vs0mg"},{"bike_id":"65e4cf96-0558-47c4-a200-69c6cbe31ac2","system_id":"levelo_inurba_marseille","lat":43.292144,"lon":5.360429,"is_reserved":false,"is_disabled":false,"rental_uris":{"android":"levelo://app?vid=65e4cf96-0558-47c4-a200-69c6cbe31ac2","ios":"levelo://app?vid=65e4cf96-0558-47c4-a200-69c6cbe31ac2"},"vehicle_type_id":"4","last_reported":1718986157,"current_range_meters":28400,"station_id":"ce4bhbh2rcd13ifvqeqg","pricing_plan_id":"cebpf4jnsgd1na2vs0mg"},{"bike_id":"9621bb2a-fad9-4491-8085-6d1589f3bacf","system_id":"levelo_inurba_marseille","lat":43.298764,"lon":5.388973,"is_reserved":false,"is_disabled":false,"rental_uris":{"android":"levelo://app?vid=9621bb2a-fad9-4491-8085-6d1589f3bacf","ios":"levelo://app?vid=9621bb2a-fad9-4491-8085-6d1589f3bacf"},"vehicle_type_id":"4","last_reported":1718986157,"current_range_meters":31200,"station_id":"ce4bh392rcd13ifvqdl0","pricing_plan_id":"cebpf4jnsgd1na2vs0mg"},{"bike_id":"8a9fb744-01e0-4c04-a52b-8f2795c8bf19","system_id":"levelo_inurba_marseille","lat":43.298764,"lon":5.388973,"is_reserved":false,"is_disabled":false,"rental_uris":{"android":"levelo://app?vid=8a9fb744-01e0-4c04-a52b-8f2795c8bf19","ios":"levelo://app?vid=8a9fb744-01e0-4c04-a52b-8f2795c8bf19"},"vehicle_type_id":"4","last_reported":1718986157,"current_range_meters":29600,"station_id":"ce4bh392rcd13ifvqdl0","pricing_plan_id":"cebpf4jnsgd1na2vs0mg"},{"bike_id":"3255aa7e-adf1-4ba8-858a-cb69cc9503b5","system_id":"levelo_inurba_marseille","lat":43.291671,"lon":5.371575,"is_reserved":false,"is_disabled":false,"rental_uris":{"android":"levelo://app?vid=3255aa7e-adf1-4ba8-858a-cb69cc9503b5","ios":"levelo://app?vid=3255aa7e-adf1-4ba8-858a-cb69cc9503b5"},"vehicle_type_id":"4","last_reported":1718986157,"current_range_meters":7200,"station_id":"ce4bha92rcd13ifvqeh0","pricing_plan_id":"cebpf4jnsgd1na2vs0mg"},{"bike_id":"804aa104-e619-4ba9-9115-3174ae216f06","system_id":"levelo_inurba_marseille","lat":43.292019,"lon":5.357914,"is_reserved":false,"is_disabled":false,"rental_uris":{"android":"levelo://app?vid=804aa104-e619-4ba9-9115-3174ae216f06","ios":"levelo://app?vid=804aa104-e619-4ba9-9115-3174ae216f06"},"vehicle_type_id":"4","last_reported":1718986157,"current_range_meters":31200,"station_id":"ce4bhb12rcd13ifvqel0","pricing_plan_id":"cebpf4jnsgd1na2vs0mg"},{"bike_id":"38b9a316-b6ec-4356-9912-1fec3b596091","system_id":"levelo_inurba_marseille","lat":43.313291,"lon":5.396838,"is_reserved":false,"is_disabled":false,"rental_uris":{"android":"levelo://app?vid=38b9a316-b6ec-4356-9912-1fec3b596091","ios":"levelo://app?vid=38b9a316-b6ec-4356-9912-1fec3b596091"},"vehicle_type_id":"4","last_reported":1718986157,"current_range_meters":14400,"station_id":"ce4bgvp2rcd13ifvqcu0","pricing_plan_id":"cebpf4jnsgd1na2vs0mg"},{"bike_id":"5f3f4b96-717c-4201-afff-77e022422a1c","system_id":"levelo_inurba_marseille","lat":43.291994,"lon":5.357886,"is_reserved":false,"is_disabled":false,"rental_uris":{"android":"levelo://app?vid=5f3f4b96-717c-4201-afff-77e022422a1c","ios":"levelo://app?vid=5f3f4b96-717c-4201-afff-77e022422a1c"},"vehicle_type_id":"4","last_reported":1718986157,"current_range_meters":25200,"station_id":"ce4bhb12rcd13ifvqel0","pricing_plan_id":"cebpf4jnsgd1na2vs0mg"},{"bike_id":"abc8e5a3-507f-445b-8403-7cb82c2b8f0f","system_id":"levelo_inurba_marseille","lat":43.313291,"lon":5.396838,"is_reserved":false,"is_disabled":false,"rental_uris":{"android":"levelo://app?vid=abc8e5a3-507f-445b-8403-7cb82c2b8f0f","ios":"levelo://app?vid=abc8e5a3-507f-445b-8403-7cb82c2b8f0f"},"vehicle_type_id":"4","last_reported":1718986157,"current_range_meters":6400,"station_id":"ce4bgvp2rcd13ifvqcu0","pricing_plan_id":"cebpf4jnsgd1na2vs0mg"},{"bike_id":"b7efe3e0-e4b7-444a-9bec-2d5d1dacae80","system_id":"levelo_inurba_marseille","lat":43.309038,"lon":5.396546,"is_reserved":false,"is_disabled":false,"rental_uris":{"android":"levelo://app?vid=b7efe3e0-e4b7-444a-9bec-2d5d1dacae80","ios":"levelo://app?vid=b7efe3e0-e4b7-444a-9bec-2d5d1dacae80"},"vehicle_type_id":"4","last_reported":1718986157,"current_range_meters":1200,"station_id":"ce4bh012rcd13ifvqcv0","pricing_plan_id":"cebpf4jnsgd1na2vs0mg"},{"bike_id":"62091acf-c4d0-4f66-a69f-6376f4b5789b","system_id":"levelo_inurba_marseille","lat":43.29529,"lon":5.385581,"is_reserved":false,"is_disabled":false,"rental_uris":{"android":"levelo://app?vid=62091acf-c4d0-4f66-a69f-6376f4b5789b","ios":"levelo://app?vid=62091acf-c4d0-4f66-a69f-6376f4b5789b"},"vehicle_type_id":"4","last_reported":1718986157,"current_range_meters":19200,"station_id":"ce4bgih2rcd13ifvqba0","pricing_plan_id":"cebpf4jnsgd1na2vs0mg"},{"bike_id":"6e1d0bdf-a2f8-48f6-aec9-89da5991a365","system_id":"levelo_inurba_marseille","lat":43.290779,"lon":5.371482,"is_reserved":false,"is_disabled":false,"rental_uris":{"android":"levelo://app?vid=6e1d0bdf-a2f8-48f6-aec9-89da5991a365","ios":"levelo://app?vid=6e1d0bdf-a2f8-48f6-aec9-89da5991a365"},"vehicle_type_id":"4","last_reported":1718986157,"current_range_meters":0,"station_id":"ce4bh5p2rcd13ifvqe4g","pricing_plan_id":"cebpf4jnsgd1na2vs0mg"},{"bike_id":"6246581a-5dcc-4f51-af94-6f59d6ebabab","system_id":"levelo_inurba_marseille","lat":43.302008,"lon":5.394694,"is_reserved":false,"is_disabled":false,"rental_uris":{"android":"levelo://app?vid=6246581a-5dcc-4f51-af94-6f59d6ebabab","ios":"levelo://app?vid=6246581a-5dcc-4f51-af94-6f59d6ebabab"},"vehicle_type_id":"4","last_reported":1718986157,"current_range_meters":0,"station_id":"ce4bh0p2rcd13ifvqd70","pricing_plan_id":"cebpf4jnsgd1na2vs0mg"},{"bike_id":"39190e8c-f8dc-4478-bb14-2de23eb3f1aa","system_id":"levelo_inurba_marseille","lat":43.302008,"lon":5.394694,"is_reserved":false,"is_disabled":false,"rental_uris":{"android":"levelo://app?vid=39190e8c-f8dc-4478-bb14-2de23eb3f1aa","ios":"levelo://app?vid=39190e8c-f8dc-4478-bb14-2de23eb3f1aa"},"vehicle_type_id":"4","last_reported":1718986157,"current_range_meters":2400,"station_id":"ce4bh0p2rcd13ifvqd70","pricing_plan_id":"cebpf4jnsgd1na2vs0mg"},{"bike_id":"9fcc2fb0-94ec-4ada-9f59-224c9adce553","system_id":"levelo_inurba_marseille","lat":43.290631,"lon":5.359244,"is_reserved":false,"is_disabled":false,"rental_uris":{"android":"levelo://app?vid=9fcc2fb0-94ec-4ada-9f59-224c9adce553","ios":"levelo://app?vid=9fcc2fb0-94ec-4ada-9f59-224c9adce553"},"vehicle_type_id":"4","last_reported":1718986157,"current_range_meters":26800,"station_id":"ce4bha92rcd13ifvqeg0","pricing_plan_id":"cebpf4jnsgd1na2vs0mg"},{"bike_id":"790bca9b-c2a4-4fe8-8d69-60361b7a42f0","system_id":"levelo_inurba_marseille","lat":43.290631,"lon":5.359244,"is_reserved":false,"is_disabled":false,"rental_uris":{"android":"levelo://app?vid=790bca9b-c2a4-4fe8-8d69-60361b7a42f0","ios":"levelo://app?vid=790bca9b-c2a4-4fe8-8d69-60361b7a42f0"},"vehicle_type_id":"4","last_reported":1718986157,"current_range_meters":20000,"station_id":"ce4bha92rcd13ifvqeg0","pricing_plan_id":"cebpf4jnsgd1na2vs0mg"},{"bike_id":"f15ca2bc-d6a9-4bc5-9844-b65cd0507ba8","system_id":"levelo_inurba_marseille","lat":43.290624,"lon":5.359245,"is_reserved":false,"is_disabled":false,"rental_uris":{"android":"levelo://app?vid=f15ca2bc-d6a9-4bc5-9844-b65cd0507ba8","ios":"levelo://app?vid=f15ca2bc-d6a9-4bc5-9844-b65cd0507ba8"},"vehicle_type_id":"4","last_reported":1718986157,"current_range_meters":30800,"station_id":"ce4bha92rcd13ifvqeg0","pricing_plan_id":"cebpf4jnsgd1na2vs0mg"},{"bike_id":"8e9fa600-e4f3-4f68-9665-c0092bab17de","system_id":"levelo_inurba_marseille","lat":43.294153,"lon":5.386305,"is_reserved":false,"is_disabled":false,"rental_uris":{"android":"levelo://app?vid=8e9fa600-e4f3-4f68-9665-c0092bab17de","ios":"levelo://app?vid=8e9fa600-e4f3-4f68-9665-c0092bab17de"},"vehicle_type_id":"4","last_reported":1718986157,"current_range_meters":0,"station_id":"ce4bh2h2rcd13ifvqdh0","pricing_plan_id":"cebpf4jnsgd1na2vs0mg"},{"bike_id":"76856384-3234-4b27-9155-c54d1e03290b","system_id":"levelo_inurba_marseille","lat":43.289184,"lon":5.366408,"is_reserved":false,"is_disabled":false,"rental_uris":{"android":"levelo://app?vid=76856384-3234-4b27-9155-c54d1e03290b","ios":"levelo://app?vid=76856384-3234-4b27-9155-c54d1e03290b"},"vehicle_type_id":"4","last_reported":1718986157,"current_range_meters":29200,"station_id":"ce4bhap2rcd13ifvqek0","pricing_plan_id":"cebpf4jnsgd1na2vs0mg"},{"bike_id":"dcc42a17-aa2b-46cb-b03b-fef944480d0f","system_id":"levelo_inurba_marseille","lat":43.294153,"lon":5.386305,"is_reserved":false,"is_disabled":false,"rental_uris":{"android":"levelo://app?vid=dcc42a17-aa2b-46cb-b03b-fef944480d0f","ios":"levelo://app?vid=dcc42a17-aa2b-46cb-b03b-fef944480d0f"},"vehicle_type_id":"4","last_reported":1718986157,"current_range_meters":1200,"station_id":"ce4bh2h2rcd13ifvqdh0","pricing_plan_id":"cebpf4jnsgd1na2vs0mg"},{"bike_id":"b4788a72-3a23-4b83-b44e-27570b2fa22a","system_id":"levelo_inurba_marseille","lat":43.294153,"lon":5.386305,"is_reserved":false,"is_disabled":false,"rental_uris":{"android":"levelo://app?vid=b4788a72-3a23-4b83-b44e-27570b2fa22a","ios":"levelo://app?vid=b4788a72-3a23-4b83-b44e-27570b2fa22a"},"vehicle_type_id":"4","last_reported":1718986157,"current_range_meters":24000,"station_id":"ce4bh2h2rcd13ifvqdh0","pricing_plan_id":"cebpf4jnsgd1na2vs0mg"},{"bike_id":"0a125a98-1744-4c10-8b13-b0f3d0df0c20","system_id":"levelo_inurba_marseille","lat":43.294153,"lon":5.386305,"is_reserved":false,"is_disabled":false,"rental_uris":{"android":"levelo://app?vid=0a125a98-1744-4c10-8b13-b0f3d0df0c20","ios":"levelo://app?vid=0a125a98-1744-4c10-8b13-b0f3d0df0c20"},"vehicle_type_id":"4","last_reported":1718986157,"current_range_meters":12400,"station_id":"ce4bh2h2rcd13ifvqdh0","pricing_plan_id":"cebpf4jnsgd1na2vs0mg"},{"bike_id":"834f449c-adbf-4fe9-b409-120ee131407a","system_id":"levelo_inurba_marseille","lat":43.29417,"lon":5.38624,"is_reserved":false,"is_disabled":false,"rental_uris":{"android":"levelo://app?vid=834f449c-adbf-4fe9-b409-120ee131407a","ios":"levelo://app?vid=834f449c-adbf-4fe9-b409-120ee131407a"},"vehicle_type_id":"4","last_reported":1718986157,"current_range_meters":0,"station_id":"ce4bh2h2rcd13ifvqdh0","pricing_plan_id":"cebpf4jnsgd1na2vs0mg"},{"bike_id":"ac5d1b43-aacf-4604-8fb7-e95f6baeefa5","system_id":"levelo_inurba_marseille","lat":43.290319,"lon":5.375732,"is_reserved":false,"is_disabled":false,"rental_uris":{"android":"levelo://app?vid=ac5d1b43-aacf-4604-8fb7-e95f6baeefa5","ios":"levelo://app?vid=ac5d1b43-aacf-4604-8fb7-e95f6baeefa5"},"vehicle_type_id":"4","last_reported":1718986157,"current_range_meters":4400,"station_id":"ce4bh692rcd13ifvqe90","pricing_plan_id":"cebpf4jnsgd1na2vs0mg"},{"bike_id":"988e9e77-4088-49a3-93a6-1c1981db4641","system_id":"levelo_inurba_marseille","lat":43.294162,"lon":5.386292,"is_reserved":false,"is_disabled":false,"rental_uris":{"android":"levelo://app?vid=988e9e77-4088-49a3-93a6-1c1981db4641","ios":"levelo://app?vid=988e9e77-4088-49a3-93a6-1c1981db4641"},"vehicle_type_id":"4","last_reported":1718986157,"current_range_meters":15600,"station_id":"ce4bh2h2rcd13ifvqdh0","pricing_plan_id":"cebpf4jnsgd1na2vs0mg"},{"bike_id":"2d1c14ed-c05d-47ce-bc1a-be8dab615dbc","system_id":"levelo_inurba_marseille","lat":43.29413,"lon":5.38628,"is_reserved":false,"is_disabled":false,"rental_uris":{"android":"levelo://app?vid=2d1c14ed-c05d-47ce-bc1a-be8dab615dbc","ios":"levelo://app?vid=2d1c14ed-c05d-47ce-bc1a-be8dab615dbc"},"vehicle_type_id":"4","last_reported":1718986157,"current_range_meters":0,"station_id":"ce4bh2h2rcd13ifvqdh0","pricing_plan_id":"cebpf4jnsgd1na2vs0mg"},{"bike_id":"8847b286-a78e-44e9-84c9-0822d93b211b","system_id":"levelo_inurba_marseille","lat":43.294127,"lon":5.386277,"is_reserved":false,"is_disabled":false,"rental_uris":{"android":"levelo://app?vid=8847b286-a78e-44e9-84c9-0822d93b211b","ios":"levelo://app?vid=8847b286-a78e-44e9-84c9-0822d93b211b"},"vehicle_type_id":"4","last_reported":1718986157,"current_range_meters":0,"station_id":"ce4bh2h2rcd13ifvqdh0","pricing_plan_id":"cebpf4jnsgd1na2vs0mg"},{"bike_id":"ef0e182a-ce07-470d-adf2-8de19ba18a9e","system_id":"levelo_inurba_marseille","lat":43.294162,"lon":5.386292,"is_reserved":false,"is_disabled":false,"rental_uris":{"android":"levelo://app?vid=ef0e182a-ce07-470d-adf2-8de19ba18a9e","ios":"levelo://app?vid=ef0e182a-ce07-470d-adf2-8de19ba18a9e"},"vehicle_type_id":"4","last_reported":1718986157,"current_range_meters":15200,"station_id":"ce4bh2h2rcd13ifvqdh0","pricing_plan_id":"cebpf4jnsgd1na2vs0mg"},{"bike_id":"bb4a51e6-3540-4a81-b1f9-22757fb87c8b","system_id":"levelo_inurba_marseille","lat":43.292644,"lon":5.384257,"is_reserved":false,"is_disabled":false,"rental_uris":{"android":"levelo://app?vid=bb4a51e6-3540-4a81-b1f9-22757fb87c8b","ios":"levelo://app?vid=bb4a51e6-3540-4a81-b1f9-22757fb87c8b"},"vehicle_type_id":"4","last_reported":1718986157,"current_range_meters":3600,"station_id":"ce4bh692rcd13ifvqea0","pricing_plan_id":"cebpf4jnsgd1na2vs0mg"},{"bike_id":"7c72e137-d9a6-451a-899c-44d6b4c84c85","system_id":"levelo_inurba_marseille","lat":43.29264,"lon":5.38439,"is_reserved":false,"is_disabled":false,"rental_uris":{"android":"levelo://app?vid=7c72e137-d9a6-451a-899c-44d6b4c84c85","ios":"levelo://app?vid=7c72e137-d9a6-451a-899c-44d6b4c84c85"},"vehicle_type_id":"4","last_reported":1718986157,"current_range_meters":0,"station_id":"ce4bh692rcd13ifvqea0","pricing_plan_id":"cebpf4jnsgd1na2vs0mg"},{"bike_id":"8ffb0b7e-c00b-40b5-be32-7aa3cf62b0c6","system_id":"levelo_inurba_marseille","lat":43.30419,"lon":5.39743,"is_reserved":false,"is_disabled":false,"rental_uris":{"android":"levelo://app?vid=8ffb0b7e-c00b-40b5-be32-7aa3cf62b0c6","ios":"levelo://app?vid=8ffb0b7e-c00b-40b5-be32-7aa3cf62b0c6"},"vehicle_type_id":"4","last_reported":1718986157,"current_range_meters":25600,"station_id":"ce4bh092rcd13ifvqd20","pricing_plan_id":"cebpf4jnsgd1na2vs0mg"},{"bike_id":"27abbdf8-a398-4164-9e1c-593c367d9e74","system_id":"levelo_inurba_marseille","lat":43.292642,"lon":5.384254,"is_reserved":false,"is_disabled":false,"rental_uris":{"android":"levelo://app?vid=27abbdf8-a398-4164-9e1c-593c367d9e74","ios":"levelo://app?vid=27abbdf8-a398-4164-9e1c-593c367d9e74"},"vehicle_type_id":"4","last_reported":1718986157,"current_range_meters":13600,"station_id":"ce4bh692rcd13ifvqea0","pricing_plan_id":"cebpf4jnsgd1na2vs0mg"},{"bike_id":"a5060c49-ca96-415d-9e20-d16bb778d2bc","system_id":"levelo_inurba_marseille","lat":43.290103,"lon":5.356114,"is_reserved":false,"is_disabled":false,"rental_uris":{"android":"levelo://app?vid=a5060c49-ca96-415d-9e20-d16bb778d2bc","ios":"levelo://app?vid=a5060c49-ca96-415d-9e20-d16bb778d2bc"},"vehicle_type_id":"4","last_reported":1718986157,"current_range_meters":1200,"station_id":"ce4bhb92rcd13ifvqen0","pricing_plan_id":"cebpf4jnsgd1na2vs0mg"},{"bike_id":"0906d8af-eed3-4acc-b64d-1d3493b653ee","system_id":"levelo_inurba_marseille","lat":43.290103,"lon":5.356114,"is_reserved":false,"is_disabled":false,"rental_uris":{"android":"levelo://app?vid=0906d8af-eed3-4acc-b64d-1d3493b653ee","ios":"levelo://app?vid=0906d8af-eed3-4acc-b64d-1d3493b653ee"},"vehicle_type_id":"4","last_reported":1718986157,"current_range_meters":23200,"station_id":"ce4bhb92rcd13ifvqen0","pricing_plan_id":"cebpf4jnsgd1na2vs0mg"},{"bike_id":"f781b0c5-f9a7-4724-8908-3bd6280fa286","system_id":"levelo_inurba_marseille","lat":43.29002,"lon":5.35608,"is_reserved":false,"is_disabled":false,"rental_uris":{"android":"levelo://app?vid=f781b0c5-f9a7-4724-8908-3bd6280fa286","ios":"levelo://app?vid=f781b0c5-f9a7-4724-8908-3bd6280fa286"},"vehicle_type_id":"4","last_reported":1718986157,"current_range_meters":0,"station_id":"ce4bhb92rcd13ifvqen0","pricing_plan_id":"cebpf4jnsgd1na2vs0mg"},{"bike_id":"d76bd0c0-3184-48d3-b6d7-9a90ffece939","system_id":"levelo_inurba_marseille","lat":43.290995,"lon":5.381361,"is_reserved":false,"is_disabled":false,"rental_uris":{"android":"levelo://app?vid=d76bd0c0-3184-48d3-b6d7-9a90ffece939","ios":"levelo://app?vid=d76bd0c0-3184-48d3-b6d7-9a90ffece939"},"vehicle_type_id":"4","last_reported":1718986157,"current_range_meters":29200,"station_id":"ce4bh512rcd13ifvqe2g","pricing_plan_id":"cebpf4jnsgd1na2vs0mg"},{"bike_id":"f0aac8e8-fefa-429f-963e-a17669e98c8f","system_id":"levelo_inurba_marseille","lat":43.290995,"lon":5.381361,"is_reserved":false,"is_disabled":false,"rental_uris":{"android":"levelo://app?vid=f0aac8e8-fefa-429f-963e-a17669e98c8f","ios":"levelo://app?vid=f0aac8e8-fefa-429f-963e-a17669e98c8f"},"vehicle_type_id":"4","last_reported":1718986157,"current_range_meters":31200,"station_id":"ce4bh512rcd13ifvqe2g","pricing_plan_id":"cebpf4jnsgd1na2vs0mg"},{"bike_id":"a8a601f3-97a6-45ae-8150-579be435f98a","system_id":"levelo_inurba_marseille","lat":43.290825,"lon":5.381498,"is_reserved":false,"is_disabled":false,"rental_uris":{"android":"levelo://app?vid=a8a601f3-97a6-45ae-8150-579be435f98a","ios":"levelo://app?vid=a8a601f3-97a6-45ae-8150-579be435f98a"},"vehicle_type_id":"4","last_reported":1718986157,"current_range_meters":16400,"station_id":"","pricing_plan_id":"cebpf4jnsgd1na2vs0mg"},{"bike_id":"96e77e22-9711-4363-b706-eeda75a48867","system_id":"levelo_inurba_marseille","lat":43.289743,"lon":5.378304,"is_reserved":false,"is_disabled":false,"rental_uris":{"android":"levelo://app?vid=96e77e22-9711-4363-b706-eeda75a48867","ios":"levelo://app?vid=96e77e22-9711-4363-b706-eeda75a48867"},"vehicle_type_id":"4","last_reported":1718986157,"current_range_meters":400,"station_id":"ce4bh9p2rcd13ifvqed0","pricing_plan_id":"cebpf4jnsgd1na2vs0mg"},{"bike_id":"ae1b6029-c7bc-442b-9083-e3575ae82aa1","system_id":"levelo_inurba_marseille","lat":43.297797,"lon":5.39337,"is_reserved":false,"is_disabled":false,"rental_uris":{"android":"levelo://app?vid=ae1b6029-c7bc-442b-9083-e3575ae82aa1","ios":"levelo://app?vid=ae1b6029-c7bc-442b-9083-e3575ae82aa1"},"vehicle_type_id":"4","last_reported":1718986157,"current_range_meters":6800,"station_id":"chh1huq6cuj3fo74tm60","pricing_plan_id":"cebpf4jnsgd1na2vs0mg"},{"bike_id":"3a67224e-45a3-4285-a49b-b1801c72054c","system_id":"levelo_inurba_marseille","lat":43.297815,"lon":5.393548,"is_reserved":false,"is_disabled":false,"rental_uris":{"android":"levelo://app?vid=3a67224e-45a3-4285-a49b-b1801c72054c","ios":"levelo://app?vid=3a67224e-45a3-4285-a49b-b1801c72054c"},"vehicle_type_id":"4","last_reported":1718986157,"current_range_meters":18800,"station_id":"chh1huq6cuj3fo74tm60","pricing_plan_id":"cebpf4jnsgd1na2vs0mg"},{"bike_id":"2bf0c6f9-5efd-46cd-88d1-a2bcfd28f52b","system_id":"levelo_inurba_marseille","lat":43.297815,"lon":5.393548,"is_reserved":false,"is_disabled":false,"rental_uris":{"android":"levelo://app?vid=2bf0c6f9-5efd-46cd-88d1-a2bcfd28f52b","ios":"levelo://app?vid=2bf0c6f9-5efd-46cd-88d1-a2bcfd28f52b"},"vehicle_type_id":"4","last_reported":1718986157,"current_range_meters":0,"station_id":"chh1huq6cuj3fo74tm60","pricing_plan_id":"cebpf4jnsgd1na2vs0mg"},{"bike_id":"90888a7d-9ae8-4ab0-9bc4-96a2cc7cd6ea","system_id":"levelo_inurba_marseille","lat":43.297815,"lon":5.393548,"is_reserved":false,"is_disabled":false,"rental_uris":{"android":"levelo://app?vid=90888a7d-9ae8-4ab0-9bc4-96a2cc7cd6ea","ios":"levelo://app?vid=90888a7d-9ae8-4ab0-9bc4-96a2cc7cd6ea"},"vehicle_type_id":"4","last_reported":1718986157,"current_range_meters":12800,"station_id":"chh1huq6cuj3fo74tm60","pricing_plan_id":"cebpf4jnsgd1na2vs0mg"},{"bike_id":"f3d6ea8b-c237-4c55-8230-0f841b1f1b2f","system_id":"levelo_inurba_marseille","lat":43.330442,"lon":5.389148,"is_reserved":false,"is_disabled":false,"rental_uris":{"android":"levelo://app?vid=f3d6ea8b-c237-4c55-8230-0f841b1f1b2f","ios":"levelo://app?vid=f3d6ea8b-c237-4c55-8230-0f841b1f1b2f"},"vehicle_type_id":"4","last_reported":1718986157,"current_range_meters":22800,"station_id":"ce4bhr92rcd13ifvqhrg","pricing_plan_id":"cebpf4jnsgd1na2vs0mg"},{"bike_id":"8fd2ffbe-b662-4e92-ad52-1ef43968b2a3","system_id":"levelo_inurba_marseille","lat":43.295169,"lon":5.390426,"is_reserved":false,"is_disabled":false,"rental_uris":{"android":"levelo://app?vid=8fd2ffbe-b662-4e92-ad52-1ef43968b2a3","ios":"levelo://app?vid=8fd2ffbe-b662-4e92-ad52-1ef43968b2a3"},"vehicle_type_id":"4","last_reported":1718986157,"current_range_meters":28000,"station_id":"ce4bh3p2rcd13ifvqdp0","pricing_plan_id":"cebpf4jnsgd1na2vs0mg"},{"bike_id":"27fbbe24-c29c-4c8e-8bd7-6a53908fb627","system_id":"levelo_inurba_marseille","lat":43.295263,"lon":5.390843,"is_reserved":false,"is_disabled":false,"rental_uris":{"android":"levelo://app?vid=27fbbe24-c29c-4c8e-8bd7-6a53908fb627","ios":"levelo://app?vid=27fbbe24-c29c-4c8e-8bd7-6a53908fb627"},"vehicle_type_id":"4","last_reported":1718986157,"current_range_meters":2800,"station_id":"ce4bh3p2rcd13ifvqdp0","pricing_plan_id":"cebpf4jnsgd1na2vs0mg"},{"bike_id":"49048e6c-2268-48ee-9607-9b7be75a1983","system_id":"levelo_inurba_marseille","lat":43.2901,"lon":5.381269,"is_reserved":false,"is_disabled":false,"rental_uris":{"android":"levelo://app?vid=49048e6c-2268-48ee-9607-9b7be75a1983","ios":"levelo://app?vid=49048e6c-2268-48ee-9607-9b7be75a1983"},"vehicle_type_id":"4","last_reported":1718986157,"current_range_meters":31200,"station_id":"ce4bh4p2rcd13ifvqe1g","pricing_plan_id":"cebpf4jnsgd1na2vs0mg"},{"bike_id":"5345dde3-d757-43e4-8216-24d725436f3f","system_id":"levelo_inurba_marseille","lat":43.2901,"lon":5.381269,"is_reserved":false,"is_disabled":false,"rental_uris":{"android":"levelo://app?vid=5345dde3-d757-43e4-8216-24d725436f3f","ios":"levelo://app?vid=5345dde3-d757-43e4-8216-24d725436f3f"},"vehicle_type_id":"4","last_reported":1718986157,"current_range_meters":6000,"station_id":"ce4bh4p2rcd13ifvqe1g","pricing_plan_id":"cebpf4jnsgd1na2vs0mg"},{"bike_id":"de238b93-fe56-4024-93fd-3f4f9ce55c6e","system_id":"levelo_inurba_marseille","lat":43.290094,"lon":5.381264,"is_reserved":false,"is_disabled":false,"rental_uris":{"android":"levelo://app?vid=de238b93-fe56-4024-93fd-3f4f9ce55c6e","ios":"levelo://app?vid=de238b93-fe56-4024-93fd-3f4f9ce55c6e"},"vehicle_type_id":"4","last_reported":1718986157,"current_range_meters":0,"station_id":"ce4bh4p2rcd13ifvqe1g","pricing_plan_id":"cebpf4jnsgd1na2vs0mg"},{"bike_id":"ee5d7985-c2c1-4c7d-9037-b772b4a45f72","system_id":"levelo_inurba_marseille","lat":43.28856,"lon":5.358371,"is_reserved":false,"is_disabled":false,"rental_uris":{"android":"levelo://app?vid=ee5d7985-c2c1-4c7d-9037-b772b4a45f72","ios":"levelo://app?vid=ee5d7985-c2c1-4c7d-9037-b772b4a45f72"},"vehicle_type_id":"4","last_reported":1718986157,"current_range_meters":31200,"station_id":"ce4bhb12rcd13ifvqem0","pricing_plan_id":"cebpf4jnsgd1na2vs0mg"},{"bike_id":"84a7f473-5bc9-4c37-973d-ca21128da7aa","system_id":"levelo_inurba_marseille","lat":43.28856,"lon":5.358371,"is_reserved":false,"is_disabled":false,"rental_uris":{"android":"levelo://app?vid=84a7f473-5bc9-4c37-973d-ca21128da7aa","ios":"levelo://app?vid=84a7f473-5bc9-4c37-973d-ca21128da7aa"},"vehicle_type_id":"4","last_reported":1718986157,"current_range_meters":31200,"station_id":"ce4bhb12rcd13ifvqem0","pricing_plan_id":"cebpf4jnsgd1na2vs0mg"},{"bike_id":"759b0664-592a-4f31-8c8b-6458e6d94b1e","system_id":"levelo_inurba_marseille","lat":43.28846,"lon":5.35846,"is_reserved":false,"is_disabled":false,"rental_uris":{"android":"levelo://app?vid=759b0664-592a-4f31-8c8b-6458e6d94b1e","ios":"levelo://app?vid=759b0664-592a-4f31-8c8b-6458e6d94b1e"},"vehicle_type_id":"4","last_reported":1718986157,"current_range_meters":3600,"station_id":"ce4bhb12rcd13ifvqem0","pricing_plan_id":"cebpf4jnsgd1na2vs0mg"},{"bike_id":"30f458f3-d2b7-4058-b9eb-093cc6e91bd1","system_id":"levelo_inurba_marseille","lat":43.28844,"lon":5.3585,"is_reserved":false,"is_disabled":false,"rental_uris":{"android":"levelo://app?vid=30f458f3-d2b7-4058-b9eb-093cc6e91bd1","ios":"levelo://app?vid=30f458f3-d2b7-4058-b9eb-093cc6e91bd1"},"vehicle_type_id":"4","last_reported":1718986157,"current_range_meters":30400,"station_id":"ce4bhb12rcd13ifvqem0","pricing_plan_id":"cebpf4jnsgd1na2vs0mg"},{"bike_id":"05092e03-5cef-41c3-9575-df5db7507ebd","system_id":"levelo_inurba_marseille","lat":43.33739,"lon":5.37464,"is_reserved":false,"is_disabled":false,"rental_uris":{"android":"levelo://app?vid=05092e03-5cef-41c3-9575-df5db7507ebd","ios":"levelo://app?vid=05092e03-5cef-41c3-9575-df5db7507ebd"},"vehicle_type_id":"4","last_reported":1718986157,"current_range_meters":22800,"station_id":"","pricing_plan_id":"cebpf4jnsgd1na2vs0mg"},{"bike_id":"db534928-e6a2-47cc-a852-558fe66ed50c","system_id":"levelo_inurba_marseille","lat":43.33744,"lon":5.374668,"is_reserved":false,"is_disabled":false,"rental_uris":{"android":"levelo://app?vid=db534928-e6a2-47cc-a852-558fe66ed50c","ios":"levelo://app?vid=db534928-e6a2-47cc-a852-558fe66ed50c"},"vehicle_type_id":"4","last_reported":1718986157,"current_range_meters":22000,"station_id":"","pricing_plan_id":"cebpf4jnsgd1na2vs0mg"},{"bike_id":"a00c218c-138a-4388-aca4-2952a6961815","system_id":"levelo_inurba_marseille","lat":43.337433,"lon":5.374933,"is_reserved":false,"is_disabled":false,"rental_uris":{"android":"levelo://app?vid=a00c218c-138a-4388-aca4-2952a6961815","ios":"levelo://app?vid=a00c218c-138a-4388-aca4-2952a6961815"},"vehicle_type_id":"4","last_reported":1718986157,"current_range_meters":30000,"station_id":"","pricing_plan_id":"cebpf4jnsgd1na2vs0mg"},{"bike_id":"f3305570-c6e7-459c-a9c6-25835fffff7e","system_id":"levelo_inurba_marseille","lat":43.31263,"lon":5.40181,"is_reserved":false,"is_disabled":false,"rental_uris":{"android":"levelo://app?vid=f3305570-c6e7-459c-a9c6-25835fffff7e","ios":"levelo://app?vid=f3305570-c6e7-459c-a9c6-25835fffff7e"},"vehicle_type_id":"4","last_reported":1718986157,"current_range_meters":21200,"station_id":"","pricing_plan_id":"cebpf4jnsgd1na2vs0mg"},{"bike_id":"0e11bbab-a5d9-4098-a6f1-624d89f27c59","system_id":"levelo_inurba_marseille","lat":43.337572,"lon":5.374546,"is_reserved":false,"is_disabled":false,"rental_uris":{"android":"levelo://app?vid=0e11bbab-a5d9-4098-a6f1-624d89f27c59","ios":"levelo://app?vid=0e11bbab-a5d9-4098-a6f1-624d89f27c59"},"vehicle_type_id":"4","last_reported":1718986157,"current_range_meters":27600,"station_id":"","pricing_plan_id":"cebpf4jnsgd1na2vs0mg"},{"bike_id":"6e445f2c-ca64-4b5f-91f7-41d553691ea5","system_id":"levelo_inurba_marseille","lat":43.33762,"lon":5.37428,"is_reserved":false,"is_disabled":false,"rental_uris":{"android":"levelo://app?vid=6e445f2c-ca64-4b5f-91f7-41d553691ea5","ios":"levelo://app?vid=6e445f2c-ca64-4b5f-91f7-41d553691ea5"},"vehicle_type_id":"4","last_reported":1718986157,"current_range_meters":30800,"station_id":"","pricing_plan_id":"cebpf4jnsgd1na2vs0mg"},{"bike_id":"c9b66a2b-0639-4d7a-b560-2bf673d8bd00","system_id":"levelo_inurba_marseille","lat":43.33033,"lon":5.39233,"is_reserved":false,"is_disabled":false,"rental_uris":{"android":"levelo://app?vid=c9b66a2b-0639-4d7a-b560-2bf673d8bd00","ios":"levelo://app?vid=c9b66a2b-0639-4d7a-b560-2bf673d8bd00"},"vehicle_type_id":"4","last_reported":1718986157,"current_range_meters":0,"station_id":"","pricing_plan_id":"cebpf4jnsgd1na2vs0mg"},{"bike_id":"a77bf3f1-dc55-4e35-8fe0-6292cee970ef","system_id":"levelo_inurba_marseille","lat":43.33035,"lon":5.39239,"is_reserved":false,"is_disabled":false,"rental_uris":{"android":"levelo://app?vid=a77bf3f1-dc55-4e35-8fe0-6292cee970ef","ios":"levelo://app?vid=a77bf3f1-dc55-4e35-8fe0-6292cee970ef"},"vehicle_type_id":"4","last_reported":1718986157,"current_range_meters":24800,"station_id":"","pricing_plan_id":"cebpf4jnsgd1na2vs0mg"},{"bike_id":"25913a0c-2478-4bea-b5ab-9a5afe1a359f","system_id":"levelo_inurba_marseille","lat":43.301117,"lon":5.398795,"is_reserved":false,"is_disabled":false,"rental_uris":{"android":"levelo://app?vid=25913a0c-2478-4bea-b5ab-9a5afe1a359f","ios":"levelo://app?vid=25913a0c-2478-4bea-b5ab-9a5afe1a359f"},"vehicle_type_id":"4","last_reported":1718986157,"current_range_meters":3200,"station_id":"ce4bh0h2rcd13ifvqd40","pricing_plan_id":"cebpf4jnsgd1na2vs0mg"},{"bike_id":"b048bd98-e3be-48ac-8acf-fec660957267","system_id":"levelo_inurba_marseille","lat":43.301117,"lon":5.398795,"is_reserved":false,"is_disabled":false,"rental_uris":{"android":"levelo://app?vid=b048bd98-e3be-48ac-8acf-fec660957267","ios":"levelo://app?vid=b048bd98-e3be-48ac-8acf-fec660957267"},"vehicle_type_id":"4","last_reported":1718986157,"current_range_meters":6400,"station_id":"ce4bh0h2rcd13ifvqd40","pricing_plan_id":"cebpf4jnsgd1na2vs0mg"},{"bike_id":"332d61a5-bbeb-4fda-b3d9-ddc6d2a9e002","system_id":"levelo_inurba_marseille","lat":43.28727,"lon":5.36078,"is_reserved":false,"is_disabled":false,"rental_uris":{"android":"levelo://app?vid=332d61a5-bbeb-4fda-b3d9-ddc6d2a9e002","ios":"levelo://app?vid=332d61a5-bbeb-4fda-b3d9-ddc6d2a9e002"},"vehicle_type_id":"4","last_reported":1718986157,"current_range_meters":6400,"station_id":"cki0cbj6b192h4jlfktg","pricing_plan_id":"cebpf4jnsgd1na2vs0mg"},{"bike_id":"1529575d-3c24-4053-9dc4-3fc753c20a3e","system_id":"levelo_inurba_marseille","lat":43.3304,"lon":5.39281,"is_reserved":false,"is_disabled":false,"rental_uris":{"android":"levelo://app?vid=1529575d-3c24-4053-9dc4-3fc753c20a3e","ios":"levelo://app?vid=1529575d-3c24-4053-9dc4-3fc753c20a3e"},"vehicle_type_id":"4","last_reported":1718986157,"current_range_meters":5200,"station_id":"","pricing_plan_id":"cebpf4jnsgd1na2vs0mg"},{"bike_id":"d53238f8-726c-4f03-b62a-c7224892352b","system_id":"levelo_inurba_marseille","lat":43.28727,"lon":5.36078,"is_reserved":false,"is_disabled":false,"rental_uris":{"android":"levelo://app?vid=d53238f8-726c-4f03-b62a-c7224892352b","ios":"levelo://app?vid=d53238f8-726c-4f03-b62a-c7224892352b"},"vehicle_type_id":"4","last_reported":1718986157,"current_range_meters":21200,"station_id":"cki0cbj6b192h4jlfktg","pricing_plan_id":"cebpf4jnsgd1na2vs0mg"},{"bike_id":"2dd9c03c-d0ad-4945-bf18-7df25b52be02","system_id":"levelo_inurba_marseille","lat":43.28727,"lon":5.36078,"is_reserved":false,"is_disabled":false,"rental_uris":{"android":"levelo://app?vid=2dd9c03c-d0ad-4945-bf18-7df25b52be02","ios":"levelo://app?vid=2dd9c03c-d0ad-4945-bf18-7df25b52be02"},"vehicle_type_id":"4","last_reported":1718986157,"current_range_meters":29600,"station_id":"cki0cbj6b192h4jlfktg","pricing_plan_id":"cebpf4jnsgd1na2vs0mg"},{"bike_id":"b1ddbd49-2db0-4ea2-a623-024504f51980","system_id":"levelo_inurba_marseille","lat":43.28727,"lon":5.36078,"is_reserved":false,"is_disabled":false,"rental_uris":{"android":"levelo://app?vid=b1ddbd49-2db0-4ea2-a623-024504f51980","ios":"levelo://app?vid=b1ddbd49-2db0-4ea2-a623-024504f51980"},"vehicle_type_id":"4","last_reported":1718986157,"current_range_meters":1600,"station_id":"cki0cbj6b192h4jlfktg","pricing_plan_id":"cebpf4jnsgd1na2vs0mg"},{"bike_id":"f3acf383-d3f5-40d1-80b5-10d6bd822e14","system_id":"levelo_inurba_marseille","lat":43.28727,"lon":5.36078,"is_reserved":false,"is_disabled":false,"rental_uris":{"android":"levelo://app?vid=f3acf383-d3f5-40d1-80b5-10d6bd822e14","ios":"levelo://app?vid=f3acf383-d3f5-40d1-80b5-10d6bd822e14"},"vehicle_type_id":"4","last_reported":1718986157,"current_range_meters":28800,"station_id":"cki0cbj6b192h4jlfktg","pricing_plan_id":"cebpf4jnsgd1na2vs0mg"},{"bike_id":"6de8fdc8-0600-4404-ac4c-f8d77f2ce4e1","system_id":"levelo_inurba_marseille","lat":43.286961,"lon":5.373785,"is_reserved":false,"is_disabled":false,"rental_uris":{"android":"levelo://app?vid=6de8fdc8-0600-4404-ac4c-f8d77f2ce4e1","ios":"levelo://app?vid=6de8fdc8-0600-4404-ac4c-f8d77f2ce4e1"},"vehicle_type_id":"4","last_reported":1718986157,"current_range_meters":0,"station_id":"ce4bh3p2rcd13ifvqdq0","pricing_plan_id":"cebpf4jnsgd1na2vs0mg"},{"bike_id":"a79e3e7f-07ce-45a8-b321-a516008747c4","system_id":"levelo_inurba_marseille","lat":43.298681,"lon":5.397225,"is_reserved":false,"is_disabled":false,"rental_uris":{"android":"levelo://app?vid=a79e3e7f-07ce-45a8-b321-a516008747c4","ios":"levelo://app?vid=a79e3e7f-07ce-45a8-b321-a516008747c4"},"vehicle_type_id":"4","last_reported":1718986157,"current_range_meters":8000,"station_id":"ce4bh0h2rcd13ifvqd50","pricing_plan_id":"cebpf4jnsgd1na2vs0mg"},{"bike_id":"7049fd09-4754-41fc-bd9b-d1517517710c","system_id":"levelo_inurba_marseille","lat":43.286961,"lon":5.373785,"is_reserved":false,"is_disabled":false,"rental_uris":{"android":"levelo://app?vid=7049fd09-4754-41fc-bd9b-d1517517710c","ios":"levelo://app?vid=7049fd09-4754-41fc-bd9b-d1517517710c"},"vehicle_type_id":"4","last_reported":1718986157,"current_range_meters":23200,"station_id":"ce4bh3p2rcd13ifvqdq0","pricing_plan_id":"cebpf4jnsgd1na2vs0mg"},{"bike_id":"a57cd130-edf2-43cf-9bf7-ac25d04971df","system_id":"levelo_inurba_marseille","lat":43.286591,"lon":5.363346,"is_reserved":false,"is_disabled":false,"rental_uris":{"android":"levelo://app?vid=a57cd130-edf2-43cf-9bf7-ac25d04971df","ios":"levelo://app?vid=a57cd130-edf2-43cf-9bf7-ac25d04971df"},"vehicle_type_id":"4","last_reported":1718986157,"current_range_meters":18800,"station_id":"ce4bhah2rcd13ifvqej0","pricing_plan_id":"cebpf4jnsgd1na2vs0mg"},{"bike_id":"21434087-a656-4722-9bae-3bef5742df64","system_id":"levelo_inurba_marseille","lat":43.295194,"lon":5.39397,"is_reserved":false,"is_disabled":false,"rental_uris":{"android":"levelo://app?vid=21434087-a656-4722-9bae-3bef5742df64","ios":"levelo://app?vid=21434087-a656-4722-9bae-3bef5742df64"},"vehicle_type_id":"4","last_reported":1718986157,"current_range_meters":3600,"station_id":"ce4bh292rcd13ifvqdf0","pricing_plan_id":"cebpf4jnsgd1na2vs0mg"},{"bike_id":"e57213f7-1b50-4bec-8138-551b3bd3adad","system_id":"levelo_inurba_marseille","lat":43.289307,"lon":5.38406,"is_reserved":false,"is_disabled":false,"rental_uris":{"android":"levelo://app?vid=e57213f7-1b50-4bec-8138-551b3bd3adad","ios":"levelo://app?vid=e57213f7-1b50-4bec-8138-551b3bd3adad"},"vehicle_type_id":"4","last_reported":1718986157,"current_range_meters":4800,"station_id":"ce4bh612rcd13ifvqe6g","pricing_plan_id":"cebpf4jnsgd1na2vs0mg"},{"bike_id":"e3e0e9e3-3f0b-452e-b7fc-0c5e64d30044","system_id":"levelo_inurba_marseille","lat":43.289307,"lon":5.38406,"is_reserved":false,"is_disabled":false,"rental_uris":{"android":"levelo://app?vid=e3e0e9e3-3f0b-452e-b7fc-0c5e64d30044","ios":"levelo://app?vid=e3e0e9e3-3f0b-452e-b7fc-0c5e64d30044"},"vehicle_type_id":"4","last_reported":1718986157,"current_range_meters":23200,"station_id":"ce4bh612rcd13ifvqe6g","pricing_plan_id":"cebpf4jnsgd1na2vs0mg"},{"bike_id":"ccf13982-e8e9-46f4-b46c-f2fd147082fb","system_id":"levelo_inurba_marseille","lat":43.289307,"lon":5.38406,"is_reserved":false,"is_disabled":false,"rental_uris":{"android":"levelo://app?vid=ccf13982-e8e9-46f4-b46c-f2fd147082fb","ios":"levelo://app?vid=ccf13982-e8e9-46f4-b46c-f2fd147082fb"},"vehicle_type_id":"4","last_reported":1718986157,"current_range_meters":4800,"station_id":"ce4bh612rcd13ifvqe6g","pricing_plan_id":"cebpf4jnsgd1na2vs0mg"},{"bike_id":"031906df-c3d0-42d4-bf8e-bdb6ed95dfb4","system_id":"levelo_inurba_marseille","lat":43.302488,"lon":5.400667,"is_reserved":false,"is_disabled":false,"rental_uris":{"android":"levelo://app?vid=031906df-c3d0-42d4-bf8e-bdb6ed95dfb4","ios":"levelo://app?vid=031906df-c3d0-42d4-bf8e-bdb6ed95dfb4"},"vehicle_type_id":"4","last_reported":1718986157,"current_range_meters":18400,"station_id":"ce4bgvh2rcd13ifvqcs0","pricing_plan_id":"cebpf4jnsgd1na2vs0mg"},{"bike_id":"238d10c2-2ba8-4344-9f87-7879e0b7ee89","system_id":"levelo_inurba_marseille","lat":43.290336,"lon":5.386425,"is_reserved":false,"is_disabled":false,"rental_uris":{"android":"levelo://app?vid=238d10c2-2ba8-4344-9f87-7879e0b7ee89","ios":"levelo://app?vid=238d10c2-2ba8-4344-9f87-7879e0b7ee89"},"vehicle_type_id":"4","last_reported":1718986157,"current_range_meters":20800,"station_id":"ce4bh4p2rcd13ifvqe0g","pricing_plan_id":"cebpf4jnsgd1na2vs0mg"},{"bike_id":"0f7619ee-e5b7-4439-979a-3dac9936bf84","system_id":"levelo_inurba_marseille","lat":43.287184,"lon":5.37937,"is_reserved":false,"is_disabled":false,"rental_uris":{"android":"levelo://app?vid=0f7619ee-e5b7-4439-979a-3dac9936bf84","ios":"levelo://app?vid=0f7619ee-e5b7-4439-979a-3dac9936bf84"},"vehicle_type_id":"4","last_reported":1718986157,"current_range_meters":6800,"station_id":"ce4bh9p2rcd13ifvqec0","pricing_plan_id":"cebpf4jnsgd1na2vs0mg"},{"bike_id":"2a968487-a14e-40d2-b088-ab2a95cea91c","system_id":"levelo_inurba_marseille","lat":43.287184,"lon":5.37937,"is_reserved":false,"is_disabled":false,"rental_uris":{"android":"levelo://app?vid=2a968487-a14e-40d2-b088-ab2a95cea91c","ios":"levelo://app?vid=2a968487-a14e-40d2-b088-ab2a95cea91c"},"vehicle_type_id":"4","last_reported":1718986157,"current_range_meters":13600,"station_id":"ce4bh9p2rcd13ifvqec0","pricing_plan_id":"cebpf4jnsgd1na2vs0mg"},{"bike_id":"a9272a08-68e9-41f4-b4da-47489bd96b7f","system_id":"levelo_inurba_marseille","lat":43.287184,"lon":5.37937,"is_reserved":false,"is_disabled":false,"rental_uris":{"android":"levelo://app?vid=a9272a08-68e9-41f4-b4da-47489bd96b7f","ios":"levelo://app?vid=a9272a08-68e9-41f4-b4da-47489bd96b7f"},"vehicle_type_id":"4","last_reported":1718986157,"current_range_meters":11600,"station_id":"ce4bh9p2rcd13ifvqec0","pricing_plan_id":"cebpf4jnsgd1na2vs0mg"},{"bike_id":"f674f9fd-f1a7-44d6-9b5f-765b14997d97","system_id":"levelo_inurba_marseille","lat":43.2998,"lon":5.40035,"is_reserved":false,"is_disabled":false,"rental_uris":{"android":"levelo://app?vid=f674f9fd-f1a7-44d6-9b5f-765b14997d97","ios":"levelo://app?vid=f674f9fd-f1a7-44d6-9b5f-765b14997d97"},"vehicle_type_id":"4","last_reported":1718986157,"current_range_meters":17200,"station_id":"","pricing_plan_id":"cebpf4jnsgd1na2vs0mg"},{"bike_id":"aa20df92-76e5-4746-ba53-958fbf2ec4c4","system_id":"levelo_inurba_marseille","lat":43.28856,"lon":5.358371,"is_reserved":false,"is_disabled":false,"rental_uris":{"android":"levelo://app?vid=aa20df92-76e5-4746-ba53-958fbf2ec4c4","ios":"levelo://app?vid=aa20df92-76e5-4746-ba53-958fbf2ec4c4"},"vehicle_type_id":"4","last_reported":1718986157,"current_range_meters":3600,"station_id":"ce4bhb12rcd13ifvqem0","pricing_plan_id":"cebpf4jnsgd1na2vs0mg"},{"bike_id":"f4a6fccf-6457-4706-8b9a-ed6eb67df10f","system_id":"levelo_inurba_marseille","lat":43.31694,"lon":5.40464,"is_reserved":false,"is_disabled":false,"rental_uris":{"android":"levelo://app?vid=f4a6fccf-6457-4706-8b9a-ed6eb67df10f","ios":"levelo://app?vid=f4a6fccf-6457-4706-8b9a-ed6eb67df10f"},"vehicle_type_id":"4","last_reported":1718986157,"current_range_meters":0,"station_id":"ce4bh012rcd13ifvqd00","pricing_plan_id":"cebpf4jnsgd1na2vs0mg"},{"bike_id":"1dde6cf1-c86a-41cb-8d90-8a5f3553f9b3","system_id":"levelo_inurba_marseille","lat":43.316821,"lon":5.404737,"is_reserved":false,"is_disabled":false,"rental_uris":{"android":"levelo://app?vid=1dde6cf1-c86a-41cb-8d90-8a5f3553f9b3","ios":"levelo://app?vid=1dde6cf1-c86a-41cb-8d90-8a5f3553f9b3"},"vehicle_type_id":"4","last_reported":1718986157,"current_range_meters":22400,"station_id":"ce4bh012rcd13ifvqd00","pricing_plan_id":"cebpf4jnsgd1na2vs0mg"},{"bike_id":"bc956cb7-a470-4b84-9039-0022e6c8e1fc","system_id":"levelo_inurba_marseille","lat":43.28672,"lon":5.38318,"is_reserved":false,"is_disabled":false,"rental_uris":{"android":"levelo://app?vid=bc956cb7-a470-4b84-9039-0022e6c8e1fc","ios":"levelo://app?vid=bc956cb7-a470-4b84-9039-0022e6c8e1fc"},"vehicle_type_id":"4","last_reported":1718986157,"current_range_meters":28400,"station_id":"","pricing_plan_id":"cebpf4jnsgd1na2vs0mg"},{"bike_id":"79b680fb-7ad4-484e-92b4-4543cdc6c2d0","system_id":"levelo_inurba_marseille","lat":43.294473,"lon":5.39739,"is_reserved":false,"is_disabled":false,"rental_uris":{"android":"levelo://app?vid=79b680fb-7ad4-484e-92b4-4543cdc6c2d0","ios":"levelo://app?vid=79b680fb-7ad4-484e-92b4-4543cdc6c2d0"},"vehicle_type_id":"4","last_reported":1718986157,"current_range_meters":0,"station_id":"ce4bh3h2rcd13ifvqdo0","pricing_plan_id":"cebpf4jnsgd1na2vs0mg"},{"bike_id":"983b3445-cd28-4406-b3eb-fb029c0a7826","system_id":"levelo_inurba_marseille","lat":43.294462,"lon":5.397484,"is_reserved":false,"is_disabled":false,"rental_uris":{"android":"levelo://app?vid=983b3445-cd28-4406-b3eb-fb029c0a7826","ios":"levelo://app?vid=983b3445-cd28-4406-b3eb-fb029c0a7826"},"vehicle_type_id":"4","last_reported":1718986157,"current_range_meters":0,"station_id":"ce4bh3h2rcd13ifvqdo0","pricing_plan_id":"cebpf4jnsgd1na2vs0mg"},{"bike_id":"2d8af8ed-a4bf-4608-a4f4-b92f7add3b5a","system_id":"levelo_inurba_marseille","lat":43.29449,"lon":5.39754,"is_reserved":false,"is_disabled":false,"rental_uris":{"android":"levelo://app?vid=2d8af8ed-a4bf-4608-a4f4-b92f7add3b5a","ios":"levelo://app?vid=2d8af8ed-a4bf-4608-a4f4-b92f7add3b5a"},"vehicle_type_id":"4","last_reported":1718986157,"current_range_meters":0,"station_id":"ce4bh3h2rcd13ifvqdo0","pricing_plan_id":"cebpf4jnsgd1na2vs0mg"},{"bike_id":"5532452b-2b7e-4b8a-816a-be6d72a3657a","system_id":"levelo_inurba_marseille","lat":43.283998,"lon":5.375062,"is_reserved":false,"is_disabled":false,"rental_uris":{"android":"levelo://app?vid=5532452b-2b7e-4b8a-816a-be6d72a3657a","ios":"levelo://app?vid=5532452b-2b7e-4b8a-816a-be6d72a3657a"},"vehicle_type_id":"4","last_reported":1718986157,"current_range_meters":0,"station_id":"ce4bh412rcd13ifvqds0","pricing_plan_id":"cebpf4jnsgd1na2vs0mg"},{"bike_id":"7a00771e-cbfd-484f-a97e-4ed6880e05e7","system_id":"levelo_inurba_marseille","lat":43.295713,"lon":5.399639,"is_reserved":false,"is_disabled":false,"rental_uris":{"android":"levelo://app?vid=7a00771e-cbfd-484f-a97e-4ed6880e05e7","ios":"levelo://app?vid=7a00771e-cbfd-484f-a97e-4ed6880e05e7"},"vehicle_type_id":"4","last_reported":1718986157,"current_range_meters":2400,"station_id":"ce4bh312rcd13ifvqdj0","pricing_plan_id":"cebpf4jnsgd1na2vs0mg"},{"bike_id":"51e8fdfc-b43b-469d-bbf7-1dfd171a8324","system_id":"levelo_inurba_marseille","lat":43.295713,"lon":5.399639,"is_reserved":false,"is_disabled":false,"rental_uris":{"android":"levelo://app?vid=51e8fdfc-b43b-469d-bbf7-1dfd171a8324","ios":"levelo://app?vid=51e8fdfc-b43b-469d-bbf7-1dfd171a8324"},"vehicle_type_id":"4","last_reported":1718986157,"current_range_meters":14400,"station_id":"ce4bh312rcd13ifvqdj0","pricing_plan_id":"cebpf4jnsgd1na2vs0mg"},{"bike_id":"406a28a4-82e4-4ac0-939c-1edc5c37433d","system_id":"levelo_inurba_marseille","lat":43.283998,"lon":5.375062,"is_reserved":false,"is_disabled":false,"rental_uris":{"android":"levelo://app?vid=406a28a4-82e4-4ac0-939c-1edc5c37433d","ios":"levelo://app?vid=406a28a4-82e4-4ac0-939c-1edc5c37433d"},"vehicle_type_id":"4","last_reported":1718986157,"current_range_meters":22000,"station_id":"ce4bh412rcd13ifvqds0","pricing_plan_id":"cebpf4jnsgd1na2vs0mg"},{"bike_id":"be2eea5e-f33b-4766-949b-94c70f29d91d","system_id":"levelo_inurba_marseille","lat":43.319179,"lon":5.407725,"is_reserved":false,"is_disabled":false,"rental_uris":{"android":"levelo://app?vid=be2eea5e-f33b-4766-949b-94c70f29d91d","ios":"levelo://app?vid=be2eea5e-f33b-4766-949b-94c70f29d91d"},"vehicle_type_id":"4","last_reported":1718986157,"current_range_meters":2000,"station_id":"ce4bhq12rcd13ifvqhig","pricing_plan_id":"cebpf4jnsgd1na2vs0mg"},{"bike_id":"7bc8089d-f86b-415d-ae71-824402a52e26","system_id":"levelo_inurba_marseille","lat":43.319179,"lon":5.407725,"is_reserved":false,"is_disabled":false,"rental_uris":{"android":"levelo://app?vid=7bc8089d-f86b-415d-ae71-824402a52e26","ios":"levelo://app?vid=7bc8089d-f86b-415d-ae71-824402a52e26"},"vehicle_type_id":"4","last_reported":1718986157,"current_range_meters":31200,"station_id":"ce4bhq12rcd13ifvqhig","pricing_plan_id":"cebpf4jnsgd1na2vs0mg"},{"bike_id":"b1c1f88a-de1a-4898-afec-dc7f673dbc26","system_id":"levelo_inurba_marseille","lat":43.33717,"lon":5.3918,"is_reserved":false,"is_disabled":false,"rental_uris":{"android":"levelo://app?vid=b1c1f88a-de1a-4898-afec-dc7f673dbc26","ios":"levelo://app?vid=b1c1f88a-de1a-4898-afec-dc7f673dbc26"},"vehicle_type_id":"4","last_reported":1718986157,"current_range_meters":19200,"station_id":"ce4bhr92rcd13ifvqhsg","pricing_plan_id":"cebpf4jnsgd1na2vs0mg"},{"bike_id":"5394714c-29bb-47ae-b103-9216d2456bcb","system_id":"levelo_inurba_marseille","lat":43.33717,"lon":5.391857,"is_reserved":false,"is_disabled":false,"rental_uris":{"android":"levelo://app?vid=5394714c-29bb-47ae-b103-9216d2456bcb","ios":"levelo://app?vid=5394714c-29bb-47ae-b103-9216d2456bcb"},"vehicle_type_id":"4","last_reported":1718986157,"current_range_meters":18400,"station_id":"ce4bhr92rcd13ifvqhsg","pricing_plan_id":"cebpf4jnsgd1na2vs0mg"},{"bike_id":"d115e95a-e059-49fe-9175-432de25339ae","system_id":"levelo_inurba_marseille","lat":43.284787,"lon":5.384116,"is_reserved":false,"is_disabled":false,"rental_uris":{"android":"levelo://app?vid=d115e95a-e059-49fe-9175-432de25339ae","ios":"levelo://app?vid=d115e95a-e059-49fe-9175-432de25339ae"},"vehicle_type_id":"4","last_reported":1718986157,"current_range_meters":0,"station_id":"ce4bh512rcd13ifvqe3g","pricing_plan_id":"cebpf4jnsgd1na2vs0mg"},{"bike_id":"dac415e8-32bb-4a5d-a63f-d9d14e09bc11","system_id":"levelo_inurba_marseille","lat":43.297946,"lon":5.404063,"is_reserved":false,"is_disabled":false,"rental_uris":{"android":"levelo://app?vid=dac415e8-32bb-4a5d-a63f-d9d14e09bc11","ios":"levelo://app?vid=dac415e8-32bb-4a5d-a63f-d9d14e09bc11"},"vehicle_type_id":"4","last_reported":1718986157,"current_range_meters":24800,"station_id":"ce4bh112rcd13ifvqd90","pricing_plan_id":"cebpf4jnsgd1na2vs0mg"},{"bike_id":"252db487-f402-47e2-a5da-47e97b61bba7","system_id":"levelo_inurba_marseille","lat":43.29795,"lon":5.404086,"is_reserved":false,"is_disabled":false,"rental_uris":{"android":"levelo://app?vid=252db487-f402-47e2-a5da-47e97b61bba7","ios":"levelo://app?vid=252db487-f402-47e2-a5da-47e97b61bba7"},"vehicle_type_id":"4","last_reported":1718986157,"current_range_meters":28000,"station_id":"ce4bh112rcd13ifvqd90","pricing_plan_id":"cebpf4jnsgd1na2vs0mg"},{"bike_id":"83f4f3b4-4f28-4b90-b8c3-4d05e9fb18d6","system_id":"levelo_inurba_marseille","lat":43.297946,"lon":5.404063,"is_reserved":false,"is_disabled":false,"rental_uris":{"android":"levelo://app?vid=83f4f3b4-4f28-4b90-b8c3-4d05e9fb18d6","ios":"levelo://app?vid=83f4f3b4-4f28-4b90-b8c3-4d05e9fb18d6"},"vehicle_type_id":"4","last_reported":1718986157,"current_range_meters":4800,"station_id":"ce4bh112rcd13ifvqd90","pricing_plan_id":"cebpf4jnsgd1na2vs0mg"},{"bike_id":"1db60fec-5c63-4f17-aa75-9f6d0165e1e0","system_id":"levelo_inurba_marseille","lat":43.288497,"lon":5.393089,"is_reserved":false,"is_disabled":false,"rental_uris":{"android":"levelo://app?vid=1db60fec-5c63-4f17-aa75-9f6d0165e1e0","ios":"levelo://app?vid=1db60fec-5c63-4f17-aa75-9f6d0165e1e0"},"vehicle_type_id":"4","last_reported":1718986157,"current_range_meters":0,"station_id":"ce4bh2p2rcd13ifvqdi0","pricing_plan_id":"cebpf4jnsgd1na2vs0mg"},{"bike_id":"5856630a-0d5d-4222-ba93-fe26a49cc2e7","system_id":"levelo_inurba_marseille","lat":43.284776,"lon":5.385603,"is_reserved":false,"is_disabled":false,"rental_uris":{"android":"levelo://app?vid=5856630a-0d5d-4222-ba93-fe26a49cc2e7","ios":"levelo://app?vid=5856630a-0d5d-4222-ba93-fe26a49cc2e7"},"vehicle_type_id":"4","last_reported":1718986157,"current_range_meters":0,"station_id":"ce4bh8p2rcd13ifvqeb0","pricing_plan_id":"cebpf4jnsgd1na2vs0mg"},{"bike_id":"aea3d320-7aee-4516-bb97-82434a1c1174","system_id":"levelo_inurba_marseille","lat":43.288501,"lon":5.393087,"is_reserved":false,"is_disabled":false,"rental_uris":{"android":"levelo://app?vid=aea3d320-7aee-4516-bb97-82434a1c1174","ios":"levelo://app?vid=aea3d320-7aee-4516-bb97-82434a1c1174"},"vehicle_type_id":"4","last_reported":1718986157,"current_range_meters":14000,"station_id":"ce4bh2p2rcd13ifvqdi0","pricing_plan_id":"cebpf4jnsgd1na2vs0mg"},{"bike_id":"fa73ed24-8d1e-49e6-8798-31f914d1d2e7","system_id":"levelo_inurba_marseille","lat":43.284776,"lon":5.385603,"is_reserved":false,"is_disabled":false,"rental_uris":{"android":"levelo://app?vid=fa73ed24-8d1e-49e6-8798-31f914d1d2e7","ios":"levelo://app?vid=fa73ed24-8d1e-49e6-8798-31f914d1d2e7"},"vehicle_type_id":"4","last_reported":1718986157,"current_range_meters":24400,"station_id":"ce4bh8p2rcd13ifvqeb0","pricing_plan_id":"cebpf4jnsgd1na2vs0mg"},{"bike_id":"ae1626de-8f66-41c0-bde3-80d7426a6f37","system_id":"levelo_inurba_marseille","lat":43.284219,"lon":5.3497,"is_reserved":false,"is_disabled":false,"rental_uris":{"android":"levelo://app?vid=ae1626de-8f66-41c0-bde3-80d7426a6f37","ios":"levelo://app?vid=ae1626de-8f66-41c0-bde3-80d7426a6f37"},"vehicle_type_id":"4","last_reported":1718986157,"current_range_meters":24800,"station_id":"ce4bhbh2rcd13ifvqepg","pricing_plan_id":"cebpf4jnsgd1na2vs0mg"},{"bike_id":"542a83bd-978a-4595-9ebe-7e7457097c33","system_id":"levelo_inurba_marseille","lat":43.29279,"lon":5.40115,"is_reserved":false,"is_disabled":false,"rental_uris":{"android":"levelo://app?vid=542a83bd-978a-4595-9ebe-7e7457097c33","ios":"levelo://app?vid=542a83bd-978a-4595-9ebe-7e7457097c33"},"vehicle_type_id":"4","last_reported":1718986157,"current_range_meters":0,"station_id":"ce4bh312rcd13ifvqdk0","pricing_plan_id":"cebpf4jnsgd1na2vs0mg"},{"bike_id":"01c24a53-4f51-4e9a-8e37-2f81256094cc","system_id":"levelo_inurba_marseille","lat":43.29273,"lon":5.40118,"is_reserved":false,"is_disabled":false,"rental_uris":{"android":"levelo://app?vid=01c24a53-4f51-4e9a-8e37-2f81256094cc","ios":"levelo://app?vid=01c24a53-4f51-4e9a-8e37-2f81256094cc"},"vehicle_type_id":"4","last_reported":1718986157,"current_range_meters":0,"station_id":"ce4bh312rcd13ifvqdk0","pricing_plan_id":"cebpf4jnsgd1na2vs0mg"},{"bike_id":"394462dd-b980-4519-a408-91068e298ec5","system_id":"levelo_inurba_marseille","lat":43.282754,"lon":5.350519,"is_reserved":false,"is_disabled":false,"rental_uris":{"android":"levelo://app?vid=394462dd-b980-4519-a408-91068e298ec5","ios":"levelo://app?vid=394462dd-b980-4519-a408-91068e298ec5"},"vehicle_type_id":"4","last_reported":1718986157,"current_range_meters":19200,"station_id":"ce4bhbp2rcd13ifvqerg","pricing_plan_id":"cebpf4jnsgd1na2vs0mg"},{"bike_id":"7ffd8751-3029-4ae8-a0c4-ff0dfb711fca","system_id":"levelo_inurba_marseille","lat":43.283502,"lon":5.386471,"is_reserved":false,"is_disabled":false,"rental_uris":{"android":"levelo://app?vid=7ffd8751-3029-4ae8-a0c4-ff0dfb711fca","ios":"levelo://app?vid=7ffd8751-3029-4ae8-a0c4-ff0dfb711fca"},"vehicle_type_id":"4","last_reported":1718986157,"current_range_meters":0,"station_id":"ce4bh492rcd13ifvqdvg","pricing_plan_id":"cebpf4jnsgd1na2vs0mg"},{"bike_id":"ef50350c-f3ca-410a-8775-a31c9e3aa59d","system_id":"levelo_inurba_marseille","lat":43.280382,"lon":5.369291,"is_reserved":false,"is_disabled":false,"rental_uris":{"android":"levelo://app?vid=ef50350c-f3ca-410a-8775-a31c9e3aa59d","ios":"levelo://app?vid=ef50350c-f3ca-410a-8775-a31c9e3aa59d"},"vehicle_type_id":"4","last_reported":1718986157,"current_range_meters":30800,"station_id":"ce4bha12rcd13ifvqef0","pricing_plan_id":"cebpf4jnsgd1na2vs0mg"},{"bike_id":"c30d6385-d07f-4985-81df-a602fd1fafe1","system_id":"levelo_inurba_marseille","lat":43.28039,"lon":5.369297,"is_reserved":false,"is_disabled":false,"rental_uris":{"android":"levelo://app?vid=c30d6385-d07f-4985-81df-a602fd1fafe1","ios":"levelo://app?vid=c30d6385-d07f-4985-81df-a602fd1fafe1"},"vehicle_type_id":"4","last_reported":1718986157,"current_range_meters":18000,"station_id":"ce4bha12rcd13ifvqef0","pricing_plan_id":"cebpf4jnsgd1na2vs0mg"},{"bike_id":"460d1f1f-c58f-41c5-b255-511efcf68f18","system_id":"levelo_inurba_marseille","lat":43.290412,"lon":5.399633,"is_reserved":false,"is_disabled":false,"rental_uris":{"android":"levelo://app?vid=460d1f1f-c58f-41c5-b255-511efcf68f18","ios":"levelo://app?vid=460d1f1f-c58f-41c5-b255-511efcf68f18"},"vehicle_type_id":"4","last_reported":1718986157,"current_range_meters":1600,"station_id":"ce4bh392rcd13ifvqdm0","pricing_plan_id":"cebpf4jnsgd1na2vs0mg"},{"bike_id":"aa2967e6-9b06-4a15-bbe1-7cca1afe221c","system_id":"levelo_inurba_marseille","lat":43.281044,"lon":5.378308,"is_reserved":false,"is_disabled":false,"rental_uris":{"android":"levelo://app?vid=aa2967e6-9b06-4a15-bbe1-7cca1afe221c","ios":"levelo://app?vid=aa2967e6-9b06-4a15-bbe1-7cca1afe221c"},"vehicle_type_id":"4","last_reported":1718986157,"current_range_meters":8000,"station_id":"ce4bha12rcd13ifvqee0","pricing_plan_id":"cebpf4jnsgd1na2vs0mg"},{"bike_id":"a6679e8e-4972-4d1e-bfbb-fc760b8bc4d6","system_id":"levelo_inurba_marseille","lat":43.296263,"lon":5.40601,"is_reserved":false,"is_disabled":false,"rental_uris":{"android":"levelo://app?vid=a6679e8e-4972-4d1e-bfbb-fc760b8bc4d6","ios":"levelo://app?vid=a6679e8e-4972-4d1e-bfbb-fc760b8bc4d6"},"vehicle_type_id":"4","last_reported":1718986157,"current_range_meters":0,"station_id":"ce4bh0h2rcd13ifvqd60","pricing_plan_id":"cebpf4jnsgd1na2vs0mg"},{"bike_id":"f33d5494-affa-40db-b758-6cc006684e32","system_id":"levelo_inurba_marseille","lat":43.29629,"lon":5.40596,"is_reserved":false,"is_disabled":false,"rental_uris":{"android":"levelo://app?vid=f33d5494-affa-40db-b758-6cc006684e32","ios":"levelo://app?vid=f33d5494-affa-40db-b758-6cc006684e32"},"vehicle_type_id":"4","last_reported":1718986157,"current_range_meters":0,"station_id":"ce4bh0h2rcd13ifvqd60","pricing_plan_id":"cebpf4jnsgd1na2vs0mg"},{"bike_id":"82fb3ad5-e461-4ccf-846c-3ad482aa04ee","system_id":"levelo_inurba_marseille","lat":43.296263,"lon":5.40601,"is_reserved":false,"is_disabled":false,"rental_uris":{"android":"levelo://app?vid=82fb3ad5-e461-4ccf-846c-3ad482aa04ee","ios":"levelo://app?vid=82fb3ad5-e461-4ccf-846c-3ad482aa04ee"},"vehicle_type_id":"4","last_reported":1718986157,"current_range_meters":0,"station_id":"ce4bh0h2rcd13ifvqd60","pricing_plan_id":"cebpf4jnsgd1na2vs0mg"},{"bike_id":"66454c78-e1fe-43db-bbb6-dfa0586cf13d","system_id":"levelo_inurba_marseille","lat":43.284462,"lon":5.392121,"is_reserved":false,"is_disabled":false,"rental_uris":{"android":"levelo://app?vid=66454c78-e1fe-43db-bbb6-dfa0586cf13d","ios":"levelo://app?vid=66454c78-e1fe-43db-bbb6-dfa0586cf13d"},"vehicle_type_id":"4","last_reported":1718986157,"current_range_meters":4400,"station_id":"ce4bhoh2rcd13ifvqh5g","pricing_plan_id":"cebpf4jnsgd1na2vs0mg"},{"bike_id":"513abd73-82c1-4abc-abda-aa39cf1e7783","system_id":"levelo_inurba_marseille","lat":43.28573,"lon":5.394992,"is_reserved":false,"is_disabled":false,"rental_uris":{"android":"levelo://app?vid=513abd73-82c1-4abc-abda-aa39cf1e7783","ios":"levelo://app?vid=513abd73-82c1-4abc-abda-aa39cf1e7783"},"vehicle_type_id":"4","last_reported":1718986157,"current_range_meters":22000,"station_id":"ce4bh292rcd13ifvqdg0","pricing_plan_id":"cebpf4jnsgd1na2vs0mg"},{"bike_id":"054501f3-b142-4d17-8f85-75cfdcd958ea","system_id":"levelo_inurba_marseille","lat":43.326605,"lon":5.409903,"is_reserved":false,"is_disabled":false,"rental_uris":{"android":"levelo://app?vid=054501f3-b142-4d17-8f85-75cfdcd958ea","ios":"levelo://app?vid=054501f3-b142-4d17-8f85-75cfdcd958ea"},"vehicle_type_id":"4","last_reported":1718986157,"current_range_meters":17200,"station_id":"ce4bhpp2rcd13ifvqhgg","pricing_plan_id":"cebpf4jnsgd1na2vs0mg"},{"bike_id":"fcbed7ae-3faf-436a-8a97-364e05436b6c","system_id":"levelo_inurba_marseille","lat":43.32662,"lon":5.40993,"is_reserved":false,"is_disabled":false,"rental_uris":{"android":"levelo://app?vid=fcbed7ae-3faf-436a-8a97-364e05436b6c","ios":"levelo://app?vid=fcbed7ae-3faf-436a-8a97-364e05436b6c"},"vehicle_type_id":"4","last_reported":1718986157,"current_range_meters":7200,"station_id":"ce4bhpp2rcd13ifvqhgg","pricing_plan_id":"cebpf4jnsgd1na2vs0mg"},{"bike_id":"8c62bbd3-5ca6-47d6-978c-bbc271107038","system_id":"levelo_inurba_marseille","lat":43.279087,"lon":5.380114,"is_reserved":false,"is_disabled":false,"rental_uris":{"android":"levelo://app?vid=8c62bbd3-5ca6-47d6-978c-bbc271107038","ios":"levelo://app?vid=8c62bbd3-5ca6-47d6-978c-bbc271107038"},"vehicle_type_id":"4","last_reported":1718986157,"current_range_meters":7200,"station_id":"ce4bhf92rcd13ifvqf50","pricing_plan_id":"cebpf4jnsgd1na2vs0mg"},{"bike_id":"822bf426-5c25-44d4-ae12-9575552824cb","system_id":"levelo_inurba_marseille","lat":43.287054,"lon":5.399724,"is_reserved":false,"is_disabled":false,"rental_uris":{"android":"levelo://app?vid=822bf426-5c25-44d4-ae12-9575552824cb","ios":"levelo://app?vid=822bf426-5c25-44d4-ae12-9575552824cb"},"vehicle_type_id":"4","last_reported":1718986157,"current_range_meters":4000,"station_id":"ce4bho92rcd13ifvqh3g","pricing_plan_id":"cebpf4jnsgd1na2vs0mg"},{"bike_id":"281b0ab9-04e5-4132-aff0-1fac98d78faa","system_id":"levelo_inurba_marseille","lat":43.287154,"lon":5.399979,"is_reserved":false,"is_disabled":false,"rental_uris":{"android":"levelo://app?vid=281b0ab9-04e5-4132-aff0-1fac98d78faa","ios":"levelo://app?vid=281b0ab9-04e5-4132-aff0-1fac98d78faa"},"vehicle_type_id":"4","last_reported":1718986157,"current_range_meters":3200,"station_id":"ce4bho92rcd13ifvqh3g","pricing_plan_id":"cebpf4jnsgd1na2vs0mg"},{"bike_id":"e4570f49-dc11-44b9-9bdf-a31fa2e96d31","system_id":"levelo_inurba_marseille","lat":43.287154,"lon":5.399979,"is_reserved":false,"is_disabled":false,"rental_uris":{"android":"levelo://app?vid=e4570f49-dc11-44b9-9bdf-a31fa2e96d31","ios":"levelo://app?vid=e4570f49-dc11-44b9-9bdf-a31fa2e96d31"},"vehicle_type_id":"4","last_reported":1718986157,"current_range_meters":0,"station_id":"ce4bho92rcd13ifvqh3g","pricing_plan_id":"cebpf4jnsgd1na2vs0mg"},{"bike_id":"19c8de62-9d9c-49f4-99ce-89aafad1ba5e","system_id":"levelo_inurba_marseille","lat":43.287154,"lon":5.399979,"is_reserved":false,"is_disabled":false,"rental_uris":{"android":"levelo://app?vid=19c8de62-9d9c-49f4-99ce-89aafad1ba5e","ios":"levelo://app?vid=19c8de62-9d9c-49f4-99ce-89aafad1ba5e"},"vehicle_type_id":"4","last_reported":1718986157,"current_range_meters":27600,"station_id":"ce4bho92rcd13ifvqh3g","pricing_plan_id":"cebpf4jnsgd1na2vs0mg"},{"bike_id":"c67556b0-b99b-4b1f-a910-97ed86e1fc5e","system_id":"levelo_inurba_marseille","lat":43.287154,"lon":5.399979,"is_reserved":false,"is_disabled":false,"rental_uris":{"android":"levelo://app?vid=c67556b0-b99b-4b1f-a910-97ed86e1fc5e","ios":"levelo://app?vid=c67556b0-b99b-4b1f-a910-97ed86e1fc5e"},"vehicle_type_id":"4","last_reported":1718986157,"current_range_meters":27200,"station_id":"ce4bho92rcd13ifvqh3g","pricing_plan_id":"cebpf4jnsgd1na2vs0mg"},{"bike_id":"ae37d914-d261-44f7-9c52-1dd4525ff3e7","system_id":"levelo_inurba_marseille","lat":43.27976,"lon":5.38747,"is_reserved":false,"is_disabled":false,"rental_uris":{"android":"levelo://app?vid=ae37d914-d261-44f7-9c52-1dd4525ff3e7","ios":"levelo://app?vid=ae37d914-d261-44f7-9c52-1dd4525ff3e7"},"vehicle_type_id":"4","last_reported":1718986157,"current_range_meters":0,"station_id":"ce4bhg12rcd13ifvqf80","pricing_plan_id":"cebpf4jnsgd1na2vs0mg"},{"bike_id":"338e5899-8b34-4e92-b4f9-15d81db99807","system_id":"levelo_inurba_marseille","lat":43.27971,"lon":5.38749,"is_reserved":false,"is_disabled":false,"rental_uris":{"android":"levelo://app?vid=338e5899-8b34-4e92-b4f9-15d81db99807","ios":"levelo://app?vid=338e5899-8b34-4e92-b4f9-15d81db99807"},"vehicle_type_id":"4","last_reported":1718986157,"current_range_meters":0,"station_id":"ce4bhg12rcd13ifvqf80","pricing_plan_id":"cebpf4jnsgd1na2vs0mg"},{"bike_id":"b8923dad-cada-4884-adcf-331da7e0fcc4","system_id":"levelo_inurba_marseille","lat":43.292569,"lon":5.409107,"is_reserved":false,"is_disabled":false,"rental_uris":{"android":"levelo://app?vid=b8923dad-cada-4884-adcf-331da7e0fcc4","ios":"levelo://app?vid=b8923dad-cada-4884-adcf-331da7e0fcc4"},"vehicle_type_id":"4","last_reported":1718986157,"current_range_meters":0,"station_id":"ce4bh192rcd13ifvqdc0","pricing_plan_id":"cebpf4jnsgd1na2vs0mg"},{"bike_id":"46553019-c751-4c65-8e45-fedb17206325","system_id":"levelo_inurba_marseille","lat":43.292569,"lon":5.409107,"is_reserved":false,"is_disabled":false,"rental_uris":{"android":"levelo://app?vid=46553019-c751-4c65-8e45-fedb17206325","ios":"levelo://app?vid=46553019-c751-4c65-8e45-fedb17206325"},"vehicle_type_id":"4","last_reported":1718986157,"current_range_meters":8000,"station_id":"ce4bh192rcd13ifvqdc0","pricing_plan_id":"cebpf4jnsgd1na2vs0mg"},{"bike_id":"1556a39f-6ba3-4061-be74-ee6e3c81633a","system_id":"levelo_inurba_marseille","lat":43.276179,"lon":5.361009,"is_reserved":false,"is_disabled":false,"rental_uris":{"android":"levelo://app?vid=1556a39f-6ba3-4061-be74-ee6e3c81633a","ios":"levelo://app?vid=1556a39f-6ba3-4061-be74-ee6e3c81633a"},"vehicle_type_id":"4","last_reported":1718986157,"current_range_meters":14000,"station_id":"ce4bgj92rcd13ifvqbe0","pricing_plan_id":"cebpf4jnsgd1na2vs0mg"},{"bike_id":"df1af5f4-16d4-41e5-abd7-ed61ccd65450","system_id":"levelo_inurba_marseille","lat":43.325243,"lon":5.414326,"is_reserved":false,"is_disabled":false,"rental_uris":{"android":"levelo://app?vid=df1af5f4-16d4-41e5-abd7-ed61ccd65450","ios":"levelo://app?vid=df1af5f4-16d4-41e5-abd7-ed61ccd65450"},"vehicle_type_id":"4","last_reported":1718986157,"current_range_meters":14400,"station_id":"ce4bhq12rcd13ifvqhhg","pricing_plan_id":"cebpf4jnsgd1na2vs0mg"},{"bike_id":"d60c8256-e955-40d0-9587-4a145448646c","system_id":"levelo_inurba_marseille","lat":43.29325,"lon":5.41164,"is_reserved":false,"is_disabled":false,"rental_uris":{"android":"levelo://app?vid=d60c8256-e955-40d0-9587-4a145448646c","ios":"levelo://app?vid=d60c8256-e955-40d0-9587-4a145448646c"},"vehicle_type_id":"4","last_reported":1718986157,"current_range_meters":25200,"station_id":"","pricing_plan_id":"cebpf4jnsgd1na2vs0mg"},{"bike_id":"25d4d50e-fb1f-444e-beb0-04ad722354eb","system_id":"levelo_inurba_marseille","lat":43.280784,"lon":5.396622,"is_reserved":false,"is_disabled":false,"rental_uris":{"android":"levelo://app?vid=25d4d50e-fb1f-444e-beb0-04ad722354eb","ios":"levelo://app?vid=25d4d50e-fb1f-444e-beb0-04ad722354eb"},"vehicle_type_id":"4","last_reported":1718986157,"current_range_meters":20800,"station_id":"ce4bho12rcd13ifvqh2g","pricing_plan_id":"cebpf4jnsgd1na2vs0mg"},{"bike_id":"e23513b2-ff52-4aaf-8b3c-368cc2859db6","system_id":"levelo_inurba_marseille","lat":43.303837,"lon":5.418724,"is_reserved":false,"is_disabled":false,"rental_uris":{"android":"levelo://app?vid=e23513b2-ff52-4aaf-8b3c-368cc2859db6","ios":"levelo://app?vid=e23513b2-ff52-4aaf-8b3c-368cc2859db6"},"vehicle_type_id":"4","last_reported":1718986157,"current_range_meters":4800,"station_id":"ce4bhop2rcd13ifvqh7g","pricing_plan_id":"cebpf4jnsgd1na2vs0mg"},{"bike_id":"20c0ea67-ff04-4a51-8243-4b1c4831bfe6","system_id":"levelo_inurba_marseille","lat":43.278399,"lon":5.392139,"is_reserved":false,"is_disabled":false,"rental_uris":{"android":"levelo://app?vid=20c0ea67-ff04-4a51-8243-4b1c4831bfe6","ios":"levelo://app?vid=20c0ea67-ff04-4a51-8243-4b1c4831bfe6"},"vehicle_type_id":"4","last_reported":1718986157,"current_range_meters":1600,"station_id":"ce4bhjp2rcd13ifvqga0","pricing_plan_id":"cebpf4jnsgd1na2vs0mg"},{"bike_id":"f3812249-d673-4fe3-a9fa-55f3e4b3392a","system_id":"levelo_inurba_marseille","lat":43.278399,"lon":5.392139,"is_reserved":false,"is_disabled":false,"rental_uris":{"android":"levelo://app?vid=f3812249-d673-4fe3-a9fa-55f3e4b3392a","ios":"levelo://app?vid=f3812249-d673-4fe3-a9fa-55f3e4b3392a"},"vehicle_type_id":"4","last_reported":1718986157,"current_range_meters":0,"station_id":"ce4bhjp2rcd13ifvqga0","pricing_plan_id":"cebpf4jnsgd1na2vs0mg"},{"bike_id":"881755a3-9c6f-4450-a3f8-27e90dac431f","system_id":"levelo_inurba_marseille","lat":43.27379,"lon":5.36257,"is_reserved":false,"is_disabled":false,"rental_uris":{"android":"levelo://app?vid=881755a3-9c6f-4450-a3f8-27e90dac431f","ios":"levelo://app?vid=881755a3-9c6f-4450-a3f8-27e90dac431f"},"vehicle_type_id":"4","last_reported":1718986157,"current_range_meters":31200,"station_id":"ce4bhbh2rcd13ifvqeo0","pricing_plan_id":"cebpf4jnsgd1na2vs0mg"},{"bike_id":"5a71a0ab-0956-4ca0-b879-30e44e5b29ea","system_id":"levelo_inurba_marseille","lat":43.273613,"lon":5.362705,"is_reserved":false,"is_disabled":false,"rental_uris":{"android":"levelo://app?vid=5a71a0ab-0956-4ca0-b879-30e44e5b29ea","ios":"levelo://app?vid=5a71a0ab-0956-4ca0-b879-30e44e5b29ea"},"vehicle_type_id":"4","last_reported":1718986157,"current_range_meters":18000,"station_id":"ce4bhbh2rcd13ifvqeo0","pricing_plan_id":"cebpf4jnsgd1na2vs0mg"},{"bike_id":"67efa8aa-1d38-4b47-bb6d-dad7c3685ee8","system_id":"levelo_inurba_marseille","lat":43.275625,"lon":5.384392,"is_reserved":false,"is_disabled":false,"rental_uris":{"android":"levelo://app?vid=67efa8aa-1d38-4b47-bb6d-dad7c3685ee8","ios":"levelo://app?vid=67efa8aa-1d38-4b47-bb6d-dad7c3685ee8"},"vehicle_type_id":"4","last_reported":1718986157,"current_range_meters":18400,"station_id":"ce4bhh92rcd13ifvqfi0","pricing_plan_id":"cebpf4jnsgd1na2vs0mg"},{"bike_id":"72df7480-63d5-4aa7-9bee-d842593e5907","system_id":"levelo_inurba_marseille","lat":43.275625,"lon":5.384392,"is_reserved":false,"is_disabled":false,"rental_uris":{"android":"levelo://app?vid=72df7480-63d5-4aa7-9bee-d842593e5907","ios":"levelo://app?vid=72df7480-63d5-4aa7-9bee-d842593e5907"},"vehicle_type_id":"4","last_reported":1718986157,"current_range_meters":19200,"station_id":"ce4bhh92rcd13ifvqfi0","pricing_plan_id":"cebpf4jnsgd1na2vs0mg"},{"bike_id":"c979f0ff-b124-4f9d-8504-48223ef9f5b5","system_id":"levelo_inurba_marseille","lat":43.27375,"lon":5.36257,"is_reserved":false,"is_disabled":false,"rental_uris":{"android":"levelo://app?vid=c979f0ff-b124-4f9d-8504-48223ef9f5b5","ios":"levelo://app?vid=c979f0ff-b124-4f9d-8504-48223ef9f5b5"},"vehicle_type_id":"4","last_reported":1718986157,"current_range_meters":0,"station_id":"","pricing_plan_id":"cebpf4jnsgd1na2vs0mg"},{"bike_id":"a5499beb-5b4a-4355-9486-9b69e902ea07","system_id":"levelo_inurba_marseille","lat":43.275625,"lon":5.384392,"is_reserved":false,"is_disabled":false,"rental_uris":{"android":"levelo://app?vid=a5499beb-5b4a-4355-9486-9b69e902ea07","ios":"levelo://app?vid=a5499beb-5b4a-4355-9486-9b69e902ea07"},"vehicle_type_id":"4","last_reported":1718986157,"current_range_meters":6400,"station_id":"ce4bhh92rcd13ifvqfi0","pricing_plan_id":"cebpf4jnsgd1na2vs0mg"},{"bike_id":"38c74f4d-1714-4d54-939a-03d3f3fcd5a7","system_id":"levelo_inurba_marseille","lat":43.273609,"lon":5.362708,"is_reserved":false,"is_disabled":false,"rental_uris":{"android":"levelo://app?vid=38c74f4d-1714-4d54-939a-03d3f3fcd5a7","ios":"levelo://app?vid=38c74f4d-1714-4d54-939a-03d3f3fcd5a7"},"vehicle_type_id":"4","last_reported":1718986157,"current_range_meters":800,"station_id":"ce4bhbh2rcd13ifvqeo0","pricing_plan_id":"cebpf4jnsgd1na2vs0mg"},{"bike_id":"44936f0d-f2f2-47e8-a0cc-01edc93fc626","system_id":"levelo_inurba_marseille","lat":43.27564,"lon":5.38423,"is_reserved":false,"is_disabled":false,"rental_uris":{"android":"levelo://app?vid=44936f0d-f2f2-47e8-a0cc-01edc93fc626","ios":"levelo://app?vid=44936f0d-f2f2-47e8-a0cc-01edc93fc626"},"vehicle_type_id":"4","last_reported":1718986157,"current_range_meters":0,"station_id":"ce4bhh92rcd13ifvqfi0","pricing_plan_id":"cebpf4jnsgd1na2vs0mg"},{"bike_id":"f73fc067-810a-43ca-9c8c-fd0c7ce71748","system_id":"levelo_inurba_marseille","lat":43.285028,"lon":5.405099,"is_reserved":false,"is_disabled":false,"rental_uris":{"android":"levelo://app?vid=f73fc067-810a-43ca-9c8c-fd0c7ce71748","ios":"levelo://app?vid=f73fc067-810a-43ca-9c8c-fd0c7ce71748"},"vehicle_type_id":"4","last_reported":1718986157,"current_range_meters":5200,"station_id":"","pricing_plan_id":"cebpf4jnsgd1na2vs0mg"},{"bike_id":"c42e86e2-1395-4cfa-a9ee-7f71a1e96918","system_id":"levelo_inurba_marseille","lat":43.279952,"lon":5.400085,"is_reserved":false,"is_disabled":false,"rental_uris":{"android":"levelo://app?vid=c42e86e2-1395-4cfa-a9ee-7f71a1e96918","ios":"levelo://app?vid=c42e86e2-1395-4cfa-a9ee-7f71a1e96918"},