{"last_updated":1733904819,"ttl":60,"version":"2.2","data":{"bikes":[{"bike_id":"cd3ea23b-0fc9-4b65-a5ae-f91c4c7dfe85","system_id":"levelo_inurba_marseille","lat":43.28279,"lon":5.35066,"is_reserved":false,"is_disabled":false,"rental_uris":{"android":"levelo://app?vid=cd3ea23b-0fc9-4b65-a5ae-f91c4c7dfe85","ios":"levelo://app?vid=cd3ea23b-0fc9-4b65-a5ae-f91c4c7dfe85"},"vehicle_type_id":"4","last_reported":1733904819,"current_range_meters":38800,"station_id":"ce4bhbp2rcd13ifvqerg","pricing_plan_id":"cebpf4jnsgd1na2vs0mg"},{"bike_id":"9e840671-2878-4845-b8fb-114afd1f4bc9","system_id":"levelo_inurba_marseille","lat":43.26688,"lon":5.38272,"is_reserved":false,"is_disabled":true,"rental_uris":{"android":"levelo://app?vid=9e840671-2878-4845-b8fb-114afd1f4bc9","ios":"levelo://app?vid=9e840671-2878-4845-b8fb-114afd1f4bc9"},"vehicle_type_id":"4","last_reported":1733904819,"current_range_meters":0,"station_id":"ce4bhg92rcd13ifvqf90","pricing_plan_id":"cebpf4jnsgd1na2vs0mg"},{"bike_id":"8d9d61b8-171f-4d1b-b231-55ea6bf4eb3d","system_id":"levelo_inurba_marseille","lat":43.3248,"lon":5.36564,"is_reserved":false,"is_disabled":false,"rental_uris":{"android":"levelo://app?vid=8d9d61b8-171f-4d1b-b231-55ea6bf4eb3d","ios":"levelo://app?vid=8d9d61b8-171f-4d1b-b231-55ea6bf4eb3d"},"vehicle_type_id":"4","last_reported":1733904819,"current_range_meters":31200,"station_id":"ce4bhs12rcd13ifvqhvg","pricing_plan_id":"cebpf4jnsgd1na2vs0mg"},{"bike_id":"8e029eaf-e104-4c5d-858d-6cd39de73d09","system_id":"levelo_inurba_marseille","lat":43.24169,"lon":5.36398,"is_reserved":false,"is_disabled":false,"rental_uris":{"android":"levelo://app?vid=8e029eaf-e104-4c5d-858d-6cd39de73d09","ios":"levelo://app?vid=8e029eaf-e104-4c5d-858d-6cd39de73d09"},"vehicle_type_id":"4","last_reported":1733904819,"current_range_meters":10800,"station_id":"cpo36qri1sfpv3e86is0","pricing_plan_id":"cebpf4jnsgd1na2vs0mg"},{"bike_id":"e492d522-a0ad-4ac1-b01b-203232243283","system_id":"levelo_inurba_marseille","lat":43.26724,"lon":5.38324,"is_reserved":false,"is_disabled":true,"rental_uris":{"android":"levelo://app?vid=e492d522-a0ad-4ac1-b01b-203232243283","ios":"levelo://app?vid=e492d522-a0ad-4ac1-b01b-203232243283"},"vehicle_type_id":"4","last_reported":1733904819,"current_range_meters":11600,"station_id":"ce4bhg92rcd13ifvqf90","pricing_plan_id":"cebpf4jnsgd1na2vs0mg"},{"bike_id":"cc48ac4a-ffa2-4362-8768-84b4ddc9af79","system_id":"levelo_inurba_marseille","lat":43.26065,"lon":5.393986,"is_reserved":false,"is_disabled":false,"rental_uris":{"android":"levelo://app?vid=cc48ac4a-ffa2-4362-8768-84b4ddc9af79","ios":"levelo://app?vid=cc48ac4a-ffa2-4362-8768-84b4ddc9af79"},"vehicle_type_id":"4","last_reported":1733904819,"current_range_meters":30000,"station_id":"ce4bhh92rcd13ifvqfj0","pricing_plan_id":"cebpf4jnsgd1na2vs0mg"},{"bike_id":"8bcc6834-2eed-469c-8872-f32a5974c579","system_id":"levelo_inurba_marseille","lat":43.30358,"lon":5.41881,"is_reserved":false,"is_disabled":true,"rental_uris":{"android":"levelo://app?vid=8bcc6834-2eed-469c-8872-f32a5974c579","ios":"levelo://app?vid=8bcc6834-2eed-469c-8872-f32a5974c579"},"vehicle_type_id":"4","last_reported":1733904819,"current_range_meters":38000,"station_id":"ce4bhop2rcd13ifvqh7g","pricing_plan_id":"cebpf4jnsgd1na2vs0mg"},{"bike_id":"e0671578-fce1-46a5-b97e-d8531f795cd5","system_id":"levelo_inurba_marseille","lat":43.287106,"lon":5.379466,"is_reserved":false,"is_disabled":true,"rental_uris":{"android":"levelo://app?vid=e0671578-fce1-46a5-b97e-d8531f795cd5","ios":"levelo://app?vid=e0671578-fce1-46a5-b97e-d8531f795cd5"},"vehicle_type_id":"4","last_reported":1733904819,"current_range_meters":0,"station_id":"ce4bh9p2rcd13ifvqec0","pricing_plan_id":"cebpf4jnsgd1na2vs0mg"},{"bike_id":"014914cf-eb98-4b5d-8cd3-12a67a219c23","system_id":"levelo_inurba_marseille","lat":43.336134,"lon":5.41021,"is_reserved":false,"is_disabled":true,"rental_uris":{"android":"levelo://app?vid=014914cf-eb98-4b5d-8cd3-12a67a219c23","ios":"levelo://app?vid=014914cf-eb98-4b5d-8cd3-12a67a219c23"},"vehicle_type_id":"4","last_reported":1733904819,"current_range_meters":35200,"station_id":"ce4bhqh2rcd13ifvqhmg","pricing_plan_id":"cebpf4jnsgd1na2vs0mg"},{"bike_id":"f4d45015-cae8-4b91-8472-ef79e4ebbfa8","system_id":"levelo_inurba_marseille","lat":43.294873,"lon":5.438361,"is_reserved":false,"is_disabled":false,"rental_uris":{"android":"levelo://app?vid=f4d45015-cae8-4b91-8472-ef79e4ebbfa8","ios":"levelo://app?vid=f4d45015-cae8-4b91-8472-ef79e4ebbfa8"},"vehicle_type_id":"4","last_reported":1733904819,"current_range_meters":22400,"station_id":"","pricing_plan_id":"cebpf4jnsgd1na2vs0mg"},{"bike_id":"39f36858-d264-4c8a-baa2-e94546132d51","system_id":"levelo_inurba_marseille","lat":43.30139,"lon":5.37416,"is_reserved":false,"is_disabled":false,"rental_uris":{"android":"levelo://app?vid=39f36858-d264-4c8a-baa2-e94546132d51","ios":"levelo://app?vid=39f36858-d264-4c8a-baa2-e94546132d51"},"vehicle_type_id":"4","last_reported":1733904819,"current_range_meters":27200,"station_id":"ce4bgs92rcd13ifvqcc0","pricing_plan_id":"cebpf4jnsgd1na2vs0mg"},{"bike_id":"0e768579-453d-47df-9796-b142b6efc272","system_id":"levelo_inurba_marseille","lat":43.30958,"lon":5.39037,"is_reserved":false,"is_disabled":false,"rental_uris":{"android":"levelo://app?vid=0e768579-453d-47df-9796-b142b6efc272","ios":"levelo://app?vid=0e768579-453d-47df-9796-b142b6efc272"},"vehicle_type_id":"4","last_reported":1733904819,"current_range_meters":38400,"station_id":"ce4bgup2rcd13ifvqco0","pricing_plan_id":"cebpf4jnsgd1na2vs0mg"},{"bike_id":"8bd642b2-0279-44c7-9ee2-fc3b57332c83","system_id":"levelo_inurba_marseille","lat":43.27455,"lon":5.40073,"is_reserved":false,"is_disabled":true,"rental_uris":{"android":"levelo://app?vid=8bd642b2-0279-44c7-9ee2-fc3b57332c83","ios":"levelo://app?vid=8bd642b2-0279-44c7-9ee2-fc3b57332c83"},"vehicle_type_id":"4","last_reported":1733904819,"current_range_meters":0,"station_id":"","pricing_plan_id":"cebpf4jnsgd1na2vs0mg"},{"bike_id":"59b0b34c-6f92-4349-9ebf-bf641fd76061","system_id":"levelo_inurba_marseille","lat":43.27066,"lon":5.42284,"is_reserved":false,"is_disabled":true,"rental_uris":{"android":"levelo://app?vid=59b0b34c-6f92-4349-9ebf-bf641fd76061","ios":"levelo://app?vid=59b0b34c-6f92-4349-9ebf-bf641fd76061"},"vehicle_type_id":"4","last_reported":1733904819,"current_range_meters":26800,"station_id":"ce4bhk92rcd13ifvqgb0","pricing_plan_id":"cebpf4jnsgd1na2vs0mg"},{"bike_id":"c3d14c8f-cd42-4a1c-822a-f58ea77e1fc4","system_id":"levelo_inurba_marseille","lat":43.24069,"lon":5.37758,"is_reserved":false,"is_disabled":false,"rental_uris":{"android":"levelo://app?vid=c3d14c8f-cd42-4a1c-822a-f58ea77e1fc4","ios":"levelo://app?vid=c3d14c8f-cd42-4a1c-822a-f58ea77e1fc4"},"vehicle_type_id":"4","last_reported":1733904819,"current_range_meters":12000,"station_id":"ce4bhnp2rcd13ifvqgvg","pricing_plan_id":"cebpf4jnsgd1na2vs0mg"},{"bike_id":"f09914a1-032a-4233-965f-c73f49a269ba","system_id":"levelo_inurba_marseille","lat":43.337444,"lon":5.374475,"is_reserved":false,"is_disabled":true,"rental_uris":{"android":"levelo://app?vid=f09914a1-032a-4233-965f-c73f49a269ba","ios":"levelo://app?vid=f09914a1-032a-4233-965f-c73f49a269ba"},"vehicle_type_id":"4","last_reported":1733904819,"current_range_meters":0,"station_id":"","pricing_plan_id":"cebpf4jnsgd1na2vs0mg"},{"bike_id":"11e262d9-299e-44d3-8720-24ec77b2c0aa","system_id":"levelo_inurba_marseille","lat":43.26802,"lon":5.40264,"is_reserved":false,"is_disabled":false,"rental_uris":{"android":"levelo://app?vid=11e262d9-299e-44d3-8720-24ec77b2c0aa","ios":"levelo://app?vid=11e262d9-299e-44d3-8720-24ec77b2c0aa"},"vehicle_type_id":"4","last_reported":1733904819,"current_range_meters":18800,"station_id":"ce501612rcd8frsf0b60","pricing_plan_id":"cebpf4jnsgd1na2vs0mg"},{"bike_id":"4232301f-62cf-4f72-99fa-7b7e52509b87","system_id":"levelo_inurba_marseille","lat":43.337444,"lon":5.374475,"is_reserved":false,"is_disabled":true,"rental_uris":{"android":"levelo://app?vid=4232301f-62cf-4f72-99fa-7b7e52509b87","ios":"levelo://app?vid=4232301f-62cf-4f72-99fa-7b7e52509b87"},"vehicle_type_id":"4","last_reported":1733904819,"current_range_meters":30400,"station_id":"ce4bhoh2rcd13ifvqh5g","pricing_plan_id":"cebpf4jnsgd1na2vs0mg"},{"bike_id":"8ea17690-fa95-47d3-b25a-5a144648903c","system_id":"levelo_inurba_marseille","lat":43.29075,"lon":5.38512,"is_reserved":false,"is_disabled":false,"rental_uris":{"android":"levelo://app?vid=8ea17690-fa95-47d3-b25a-5a144648903c","ios":"levelo://app?vid=8ea17690-fa95-47d3-b25a-5a144648903c"},"vehicle_type_id":"4","last_reported":1733904819,"current_range_meters":8000,"station_id":"","pricing_plan_id":"cebpf4jnsgd1na2vs0mg"},{"bike_id":"f6ceca24-19af-4ed8-b20b-dad7699688ae","system_id":"levelo_inurba_marseille","lat":43.32475,"lon":5.36569,"is_reserved":false,"is_disabled":false,"rental_uris":{"android":"levelo://app?vid=f6ceca24-19af-4ed8-b20b-dad7699688ae","ios":"levelo://app?vid=f6ceca24-19af-4ed8-b20b-dad7699688ae"},"vehicle_type_id":"4","last_reported":1733904819,"current_range_meters":19600,"station_id":"ce4bhs12rcd13ifvqhvg","pricing_plan_id":"cebpf4jnsgd1na2vs0mg"},{"bike_id":"c6dfc32e-27e7-4bcc-b052-16f1beab3eaa","system_id":"levelo_inurba_marseille","lat":43.28159,"lon":5.42642,"is_reserved":false,"is_disabled":false,"rental_uris":{"android":"levelo://app?vid=c6dfc32e-27e7-4bcc-b052-16f1beab3eaa","ios":"levelo://app?vid=c6dfc32e-27e7-4bcc-b052-16f1beab3eaa"},"vehicle_type_id":"4","last_reported":1733904819,"current_range_meters":38800,"station_id":"ce4bhnh2rcd13ifvqgug","pricing_plan_id":"cebpf4jnsgd1na2vs0mg"},{"bike_id":"928b93a0-ce44-46b5-8b46-ba2d1e35deee","system_id":"levelo_inurba_marseille","lat":43.31688,"lon":5.40404,"is_reserved":false,"is_disabled":false,"rental_uris":{"android":"levelo://app?vid=928b93a0-ce44-46b5-8b46-ba2d1e35deee","ios":"levelo://app?vid=928b93a0-ce44-46b5-8b46-ba2d1e35deee"},"vehicle_type_id":"4","last_reported":1733904819,"current_range_meters":38800,"station_id":"","pricing_plan_id":"cebpf4jnsgd1na2vs0mg"},{"bike_id":"096f7008-df44-4cf7-8d8b-172ebf735399","system_id":"levelo_inurba_marseille","lat":43.28721,"lon":5.37942,"is_reserved":false,"is_disabled":false,"rental_uris":{"android":"levelo://app?vid=096f7008-df44-4cf7-8d8b-172ebf735399","ios":"levelo://app?vid=096f7008-df44-4cf7-8d8b-172ebf735399"},"vehicle_type_id":"4","last_reported":1733904819,"current_range_meters":6000,"station_id":"ce4bh9p2rcd13ifvqec0","pricing_plan_id":"cebpf4jnsgd1na2vs0mg"},{"bike_id":"e7038d9b-1731-4b5b-ae3b-f2294d18825e","system_id":"levelo_inurba_marseille","lat":43.27496,"lon":5.42453,"is_reserved":false,"is_disabled":false,"rental_uris":{"android":"levelo://app?vid=e7038d9b-1731-4b5b-ae3b-f2294d18825e","ios":"levelo://app?vid=e7038d9b-1731-4b5b-ae3b-f2294d18825e"},"vehicle_type_id":"4","last_reported":1733904819,"current_range_meters":38800,"station_id":"ce4bhn92rcd13ifvqgrg","pricing_plan_id":"cebpf4jnsgd1na2vs0mg"},{"bike_id":"e7afbafc-5452-4b51-b2c4-eae945c656c1","system_id":"levelo_inurba_marseille","lat":43.28138,"lon":5.42601,"is_reserved":false,"is_disabled":false,"rental_uris":{"android":"levelo://app?vid=e7afbafc-5452-4b51-b2c4-eae945c656c1","ios":"levelo://app?vid=e7afbafc-5452-4b51-b2c4-eae945c656c1"},"vehicle_type_id":"4","last_reported":1733904819,"current_range_meters":14800,"station_id":"ce4bhnh2rcd13ifvqgug","pricing_plan_id":"cebpf4jnsgd1na2vs0mg"},{"bike_id":"9798a14a-cd61-47ed-aaf1-b8c85e3fdb91","system_id":"levelo_inurba_marseille","lat":43.28938,"lon":5.36625,"is_reserved":false,"is_disabled":true,"rental_uris":{"android":"levelo://app?vid=9798a14a-cd61-47ed-aaf1-b8c85e3fdb91","ios":"levelo://app?vid=9798a14a-cd61-47ed-aaf1-b8c85e3fdb91"},"vehicle_type_id":"4","last_reported":1733904819,"current_range_meters":800,"station_id":"ce4bhap2rcd13ifvqek0","pricing_plan_id":"cebpf4jnsgd1na2vs0mg"},{"bike_id":"cb6e3d9f-445f-4215-a9a1-22bea069075f","system_id":"levelo_inurba_marseille","lat":43.29814,"lon":5.38086,"is_reserved":false,"is_disabled":false,"rental_uris":{"android":"levelo://app?vid=cb6e3d9f-445f-4215-a9a1-22bea069075f","ios":"levelo://app?vid=cb6e3d9f-445f-4215-a9a1-22bea069075f"},"vehicle_type_id":"4","last_reported":1733904819,"current_range_meters":36400,"station_id":"ce4bgip2rcd13ifvqbb0","pricing_plan_id":"cebpf4jnsgd1na2vs0mg"},{"bike_id":"9a8f7d6e-f0b3-4496-add2-e9124652bb7b","system_id":"levelo_inurba_marseille","lat":43.2954,"lon":5.42303,"is_reserved":false,"is_disabled":false,"rental_uris":{"android":"levelo://app?vid=9a8f7d6e-f0b3-4496-add2-e9124652bb7b","ios":"levelo://app?vid=9a8f7d6e-f0b3-4496-add2-e9124652bb7b"},"vehicle_type_id":"4","last_reported":1733904819,"current_range_meters":22800,"station_id":"ce4bhph2rcd13ifvqhdg","pricing_plan_id":"cebpf4jnsgd1na2vs0mg"},{"bike_id":"2a57085e-383c-4804-a2e2-6bb3403eb6ab","system_id":"levelo_inurba_marseille","lat":43.31356,"lon":5.36703,"is_reserved":false,"is_disabled":false,"rental_uris":{"android":"levelo://app?vid=2a57085e-383c-4804-a2e2-6bb3403eb6ab","ios":"levelo://app?vid=2a57085e-383c-4804-a2e2-6bb3403eb6ab"},"vehicle_type_id":"4","last_reported":1733904819,"current_range_meters":32000,"station_id":"ce4bgr92rcd13ifvqc6g","pricing_plan_id":"cebpf4jnsgd1na2vs0mg"},{"bike_id":"78fb1fea-a982-4671-a4af-5f54c39befe6","system_id":"levelo_inurba_marseille","lat":43.24177,"lon":5.39732,"is_reserved":false,"is_disabled":true,"rental_uris":{"android":"levelo://app?vid=78fb1fea-a982-4671-a4af-5f54c39befe6","ios":"levelo://app?vid=78fb1fea-a982-4671-a4af-5f54c39befe6"},"vehicle_type_id":"4","last_reported":1733904819,"current_range_meters":1200,"station_id":"ce4bhn12rcd13ifvqgpg","pricing_plan_id":"cebpf4jnsgd1na2vs0mg"},{"bike_id":"a348aebf-86dd-4975-bef2-ff58078b7593","system_id":"levelo_inurba_marseille","lat":43.23967,"lon":5.36625,"is_reserved":false,"is_disabled":false,"rental_uris":{"android":"levelo://app?vid=a348aebf-86dd-4975-bef2-ff58078b7593","ios":"levelo://app?vid=a348aebf-86dd-4975-bef2-ff58078b7593"},"vehicle_type_id":"4","last_reported":1733904819,"current_range_meters":25600,"station_id":"ce4bhi12rcd13ifvqfp0","pricing_plan_id":"cebpf4jnsgd1na2vs0mg"},{"bike_id":"bfcd7169-1867-4a11-953d-8636814047c8","system_id":"levelo_inurba_marseille","lat":43.25934,"lon":5.40914,"is_reserved":false,"is_disabled":false,"rental_uris":{"android":"levelo://app?vid=bfcd7169-1867-4a11-953d-8636814047c8","ios":"levelo://app?vid=bfcd7169-1867-4a11-953d-8636814047c8"},"vehicle_type_id":"4","last_reported":1733904819,"current_range_meters":29600,"station_id":"ce4bhm92rcd13ifvqglg","pricing_plan_id":"cebpf4jnsgd1na2vs0mg"},{"bike_id":"d7a879f6-0e25-4ad7-a843-848b313ff6c1","system_id":"levelo_inurba_marseille","lat":43.29463,"lon":5.39768,"is_reserved":false,"is_disabled":true,"rental_uris":{"android":"levelo://app?vid=d7a879f6-0e25-4ad7-a843-848b313ff6c1","ios":"levelo://app?vid=d7a879f6-0e25-4ad7-a843-848b313ff6c1"},"vehicle_type_id":"4","last_reported":1733904819,"current_range_meters":36400,"station_id":"ce4bh3h2rcd13ifvqdo0","pricing_plan_id":"cebpf4jnsgd1na2vs0mg"},{"bike_id":"3382ae16-d77d-40d4-ade6-aa3116784e40","system_id":"levelo_inurba_marseille","lat":43.29553,"lon":5.42281,"is_reserved":false,"is_disabled":false,"rental_uris":{"android":"levelo://app?vid=3382ae16-d77d-40d4-ade6-aa3116784e40","ios":"levelo://app?vid=3382ae16-d77d-40d4-ade6-aa3116784e40"},"vehicle_type_id":"4","last_reported":1733904819,"current_range_meters":38800,"station_id":"ce4bhph2rcd13ifvqhdg","pricing_plan_id":"cebpf4jnsgd1na2vs0mg"},{"bike_id":"48404fd2-95c7-4692-9f70-30e78c5752c2","system_id":"levelo_inurba_marseille","lat":43.31541,"lon":5.36509,"is_reserved":false,"is_disabled":false,"rental_uris":{"android":"levelo://app?vid=48404fd2-95c7-4692-9f70-30e78c5752c2","ios":"levelo://app?vid=48404fd2-95c7-4692-9f70-30e78c5752c2"},"vehicle_type_id":"4","last_reported":1733904819,"current_range_meters":28000,"station_id":"","pricing_plan_id":"cebpf4jnsgd1na2vs0mg"},{"bike_id":"2f3968e7-9336-4ee4-ba78-8e92c0a818cc","system_id":"levelo_inurba_marseille","lat":43.31322,"lon":5.36647,"is_reserved":false,"is_disabled":true,"rental_uris":{"android":"levelo://app?vid=2f3968e7-9336-4ee4-ba78-8e92c0a818cc","ios":"levelo://app?vid=2f3968e7-9336-4ee4-ba78-8e92c0a818cc"},"vehicle_type_id":"4","last_reported":1733904819,"current_range_meters":0,"station_id":"","pricing_plan_id":"cebpf4jnsgd1na2vs0mg"},{"bike_id":"074b05b1-8e90-4994-97ad-c0b91cacfff3","system_id":"levelo_inurba_marseille","lat":43.32544,"lon":5.41439,"is_reserved":false,"is_disabled":false,"rental_uris":{"android":"levelo://app?vid=074b05b1-8e90-4994-97ad-c0b91cacfff3","ios":"levelo://app?vid=074b05b1-8e90-4994-97ad-c0b91cacfff3"},"vehicle_type_id":"4","last_reported":1733904819,"current_range_meters":35200,"station_id":"ce4bhq12rcd13ifvqhhg","pricing_plan_id":"cebpf4jnsgd1na2vs0mg"},{"bike_id":"d9197b43-6831-42a7-b58a-8d8fd08fb084","system_id":"levelo_inurba_marseille","lat":43.30917,"lon":5.36863,"is_reserved":false,"is_disabled":false,"rental_uris":{"android":"levelo://app?vid=d9197b43-6831-42a7-b58a-8d8fd08fb084","ios":"levelo://app?vid=d9197b43-6831-42a7-b58a-8d8fd08fb084"},"vehicle_type_id":"4","last_reported":1733904819,"current_range_meters":17200,"station_id":"ce4bgn92rcd13ifvqbvg","pricing_plan_id":"cebpf4jnsgd1na2vs0mg"},{"bike_id":"215c1549-0db8-4dd1-89f9-3e1b19b2c58d","system_id":"levelo_inurba_marseille","lat":43.27993,"lon":5.40012,"is_reserved":false,"is_disabled":true,"rental_uris":{"android":"levelo://app?vid=215c1549-0db8-4dd1-89f9-3e1b19b2c58d","ios":"levelo://app?vid=215c1549-0db8-4dd1-89f9-3e1b19b2c58d"},"vehicle_type_id":"4","last_reported":1733904819,"current_range_meters":37600,"station_id":"ce4bho92rcd13ifvqh4g","pricing_plan_id":"cebpf4jnsgd1na2vs0mg"},{"bike_id":"4d952354-3574-4d51-9fdc-1e265f171b09","system_id":"levelo_inurba_marseille","lat":43.26683,"lon":5.38272,"is_reserved":false,"is_disabled":false,"rental_uris":{"android":"levelo://app?vid=4d952354-3574-4d51-9fdc-1e265f171b09","ios":"levelo://app?vid=4d952354-3574-4d51-9fdc-1e265f171b09"},"vehicle_type_id":"4","last_reported":1733904819,"current_range_meters":36400,"station_id":"ce4bhg92rcd13ifvqf90","pricing_plan_id":"cebpf4jnsgd1na2vs0mg"},{"bike_id":"e6436517-57cd-4745-8e37-9895c4702669","system_id":"levelo_inurba_marseille","lat":43.3046,"lon":5.37906,"is_reserved":false,"is_disabled":false,"rental_uris":{"android":"levelo://app?vid=e6436517-57cd-4745-8e37-9895c4702669","ios":"levelo://app?vid=e6436517-57cd-4745-8e37-9895c4702669"},"vehicle_type_id":"4","last_reported":1733904819,"current_range_meters":16400,"station_id":"ce4bgup2rcd13ifvqcn0","pricing_plan_id":"cebpf4jnsgd1na2vs0mg"},{"bike_id":"acb8589e-f9dd-41d6-8fb2-657c3b4ae0e2","system_id":"levelo_inurba_marseille","lat":43.25442,"lon":5.38199,"is_reserved":false,"is_disabled":false,"rental_uris":{"android":"levelo://app?vid=acb8589e-f9dd-41d6-8fb2-657c3b4ae0e2","ios":"levelo://app?vid=acb8589e-f9dd-41d6-8fb2-657c3b4ae0e2"},"vehicle_type_id":"4","last_reported":1733904819,"current_range_meters":38400,"station_id":"","pricing_plan_id":"cebpf4jnsgd1na2vs0mg"},{"bike_id":"56818c25-3de1-429f-ac0c-aaeb3a02fbe8","system_id":"levelo_inurba_marseille","lat":43.29295,"lon":5.3747,"is_reserved":false,"is_disabled":false,"rental_uris":{"android":"levelo://app?vid=56818c25-3de1-429f-ac0c-aaeb3a02fbe8","ios":"levelo://app?vid=56818c25-3de1-429f-ac0c-aaeb3a02fbe8"},"vehicle_type_id":"4","last_reported":1733904819,"current_range_meters":32000,"station_id":"ce4bgi12rcd13ifvqb70","pricing_plan_id":"cebpf4jnsgd1na2vs0mg"},{"bike_id":"2420431f-6818-466e-a326-989163d82e71","system_id":"levelo_inurba_marseille","lat":43.30946,"lon":5.39035,"is_reserved":false,"is_disabled":false,"rental_uris":{"android":"levelo://app?vid=2420431f-6818-466e-a326-989163d82e71","ios":"levelo://app?vid=2420431f-6818-466e-a326-989163d82e71"},"vehicle_type_id":"4","last_reported":1733904819,"current_range_meters":27200,"station_id":"ce4bgup2rcd13ifvqco0","pricing_plan_id":"cebpf4jnsgd1na2vs0mg"},{"bike_id":"9874fe8e-4bd6-4db8-87e2-446af8fac33c","system_id":"levelo_inurba_marseille","lat":43.304661,"lon":5.379056,"is_reserved":false,"is_disabled":false,"rental_uris":{"android":"levelo://app?vid=9874fe8e-4bd6-4db8-87e2-446af8fac33c","ios":"levelo://app?vid=9874fe8e-4bd6-4db8-87e2-446af8fac33c"},"vehicle_type_id":"4","last_reported":1733904819,"current_range_meters":30400,"station_id":"ce4bgup2rcd13ifvqcn0","pricing_plan_id":"cebpf4jnsgd1na2vs0mg"},{"bike_id":"12add500-ea1f-403d-bb3c-de83ce61c6f3","system_id":"levelo_inurba_marseille","lat":43.28923,"lon":5.3664,"is_reserved":false,"is_disabled":true,"rental_uris":{"android":"levelo://app?vid=12add500-ea1f-403d-bb3c-de83ce61c6f3","ios":"levelo://app?vid=12add500-ea1f-403d-bb3c-de83ce61c6f3"},"vehicle_type_id":"4","last_reported":1733904819,"current_range_meters":31200,"station_id":"ce4bhap2rcd13ifvqek0","pricing_plan_id":"cebpf4jnsgd1na2vs0mg"},{"bike_id":"a4a5fbf5-043b-4b1f-9c66-73a42ca4859a","system_id":"levelo_inurba_marseille","lat":43.27524,"lon":5.42457,"is_reserved":false,"is_disabled":true,"rental_uris":{"android":"levelo://app?vid=a4a5fbf5-043b-4b1f-9c66-73a42ca4859a","ios":"levelo://app?vid=a4a5fbf5-043b-4b1f-9c66-73a42ca4859a"},"vehicle_type_id":"4","last_reported":1733904819,"current_range_meters":36000,"station_id":"ce4bhn92rcd13ifvqgrg","pricing_plan_id":"cebpf4jnsgd1na2vs0mg"},{"bike_id":"6b45a841-06ba-4981-b01f-ee44a416375e","system_id":"levelo_inurba_marseille","lat":43.29825,"lon":5.38099,"is_reserved":false,"is_disabled":false,"rental_uris":{"android":"levelo://app?vid=6b45a841-06ba-4981-b01f-ee44a416375e","ios":"levelo://app?vid=6b45a841-06ba-4981-b01f-ee44a416375e"},"vehicle_type_id":"4","last_reported":1733904819,"current_range_meters":39200,"station_id":"ce4bgip2rcd13ifvqbb0","pricing_plan_id":"cebpf4jnsgd1na2vs0mg"},{"bike_id":"606e407c-f141-4d6b-aa82-fa8791328d27","system_id":"levelo_inurba_marseille","lat":43.31887,"lon":5.40728,"is_reserved":false,"is_disabled":false,"rental_uris":{"android":"levelo://app?vid=606e407c-f141-4d6b-aa82-fa8791328d27","ios":"levelo://app?vid=606e407c-f141-4d6b-aa82-fa8791328d27"},"vehicle_type_id":"4","last_reported":1733904819,"current_range_meters":28000,"station_id":"ce4bhq12rcd13ifvqhig","pricing_plan_id":"cebpf4jnsgd1na2vs0mg"},{"bike_id":"ce93eba4-a260-4242-bfd1-eb4a1083d4a6","system_id":"levelo_inurba_marseille","lat":43.27361,"lon":5.36224,"is_reserved":false,"is_disabled":false,"rental_uris":{"android":"levelo://app?vid=ce93eba4-a260-4242-bfd1-eb4a1083d4a6","ios":"levelo://app?vid=ce93eba4-a260-4242-bfd1-eb4a1083d4a6"},"vehicle_type_id":"4","last_reported":1733904819,"current_range_meters":38800,"station_id":"ce4bhbh2rcd13ifvqeo0","pricing_plan_id":"cebpf4jnsgd1na2vs0mg"},{"bike_id":"7772d601-3886-4ddf-bc2a-d375776fe6ae","system_id":"levelo_inurba_marseille","lat":43.3359,"lon":5.40982,"is_reserved":false,"is_disabled":false,"rental_uris":{"android":"levelo://app?vid=7772d601-3886-4ddf-bc2a-d375776fe6ae","ios":"levelo://app?vid=7772d601-3886-4ddf-bc2a-d375776fe6ae"},"vehicle_type_id":"4","last_reported":1733904819,"current_range_meters":31200,"station_id":"ce4bhqh2rcd13ifvqhmg","pricing_plan_id":"cebpf4jnsgd1na2vs0mg"},{"bike_id":"4328daad-0a9d-42e1-8f5c-4a3a2fa43305","system_id":"levelo_inurba_marseille","lat":43.26955,"lon":5.3863,"is_reserved":false,"is_disabled":false,"rental_uris":{"android":"levelo://app?vid=4328daad-0a9d-42e1-8f5c-4a3a2fa43305","ios":"levelo://app?vid=4328daad-0a9d-42e1-8f5c-4a3a2fa43305"},"vehicle_type_id":"4","last_reported":1733904819,"current_range_meters":26000,"station_id":"ce4bhh92rcd13ifvqfh0","pricing_plan_id":"cebpf4jnsgd1na2vs0mg"},{"bike_id":"c1af07c0-ed11-49c8-aa2e-1104638a28b7","system_id":"levelo_inurba_marseille","lat":43.23065,"lon":5.354905,"is_reserved":false,"is_disabled":false,"rental_uris":{"android":"levelo://app?vid=c1af07c0-ed11-49c8-aa2e-1104638a28b7","ios":"levelo://app?vid=c1af07c0-ed11-49c8-aa2e-1104638a28b7"},"vehicle_type_id":"4","last_reported":1733904819,"current_range_meters":14800,"station_id":"cpo3342slgdg3j2ifvpg","pricing_plan_id":"cebpf4jnsgd1na2vs0mg"},{"bike_id":"1dcdcef8-499a-4842-bd2a-86cf0be92eb5","system_id":"levelo_inurba_marseille","lat":43.30954,"lon":5.39029,"is_reserved":false,"is_disabled":false,"rental_uris":{"android":"levelo://app?vid=1dcdcef8-499a-4842-bd2a-86cf0be92eb5","ios":"levelo://app?vid=1dcdcef8-499a-4842-bd2a-86cf0be92eb5"},"vehicle_type_id":"4","last_reported":1733904819,"current_range_meters":30000,"station_id":"ce4bgup2rcd13ifvqco0","pricing_plan_id":"cebpf4jnsgd1na2vs0mg"},{"bike_id":"393a5e4c-b6af-4dc0-ae4b-7f1351f5cd0e","system_id":"levelo_inurba_marseille","lat":43.26954,"lon":5.38634,"is_reserved":false,"is_disabled":false,"rental_uris":{"android":"levelo://app?vid=393a5e4c-b6af-4dc0-ae4b-7f1351f5cd0e","ios":"levelo://app?vid=393a5e4c-b6af-4dc0-ae4b-7f1351f5cd0e"},"vehicle_type_id":"4","last_reported":1733904819,"current_range_meters":2800,"station_id":"ce4bhh92rcd13ifvqfh0","pricing_plan_id":"cebpf4jnsgd1na2vs0mg"},{"bike_id":"614aec7f-ed19-41ae-8500-52b216d59f70","system_id":"levelo_inurba_marseille","lat":43.31495,"lon":5.3731,"is_reserved":false,"is_disabled":false,"rental_uris":{"android":"levelo://app?vid=614aec7f-ed19-41ae-8500-52b216d59f70","ios":"levelo://app?vid=614aec7f-ed19-41ae-8500-52b216d59f70"},"vehicle_type_id":"4","last_reported":1733904819,"current_range_meters":32800,"station_id":"ce4bgt12rcd13ifvqcd0","pricing_plan_id":"cebpf4jnsgd1na2vs0mg"},{"bike_id":"6f5aafc4-06b9-4dba-b612-5d926167490b","system_id":"levelo_inurba_marseille","lat":43.32477,"lon":5.36582,"is_reserved":false,"is_disabled":true,"rental_uris":{"android":"levelo://app?vid=6f5aafc4-06b9-4dba-b612-5d926167490b","ios":"levelo://app?vid=6f5aafc4-06b9-4dba-b612-5d926167490b"},"vehicle_type_id":"4","last_reported":1733904819,"current_range_meters":0,"station_id":"ce4bhs12rcd13ifvqhvg","pricing_plan_id":"cebpf4jnsgd1na2vs0mg"},{"bike_id":"469f332e-0174-460d-bb53-1c03fa479e13","system_id":"levelo_inurba_marseille","lat":43.29838,"lon":5.36246,"is_reserved":false,"is_disabled":true,"rental_uris":{"android":"levelo://app?vid=469f332e-0174-460d-bb53-1c03fa479e13","ios":"levelo://app?vid=469f332e-0174-460d-bb53-1c03fa479e13"},"vehicle_type_id":"4","last_reported":1733904819,"current_range_meters":39200,"station_id":"ce4bgpp2rcd13ifvqc3g","pricing_plan_id":"cebpf4jnsgd1na2vs0mg"},{"bike_id":"606aa91c-1754-4379-afa1-23d40df76f80","system_id":"levelo_inurba_marseille","lat":43.30141,"lon":5.38101,"is_reserved":false,"is_disabled":false,"rental_uris":{"android":"levelo://app?vid=606aa91c-1754-4379-afa1-23d40df76f80","ios":"levelo://app?vid=606aa91c-1754-4379-afa1-23d40df76f80"},"vehicle_type_id":"4","last_reported":1733904819,"current_range_meters":36000,"station_id":"ce4bgjp2rcd13ifvqbh0","pricing_plan_id":"cebpf4jnsgd1na2vs0mg"},{"bike_id":"192c7215-c928-4138-9a2c-6c048775082a","system_id":"levelo_inurba_marseille","lat":43.25118,"lon":5.40319,"is_reserved":false,"is_disabled":true,"rental_uris":{"android":"levelo://app?vid=192c7215-c928-4138-9a2c-6c048775082a","ios":"levelo://app?vid=192c7215-c928-4138-9a2c-6c048775082a"},"vehicle_type_id":"4","last_reported":1733904819,"current_range_meters":6800,"station_id":"ce4bhlh2rcd13ifvqgig","pricing_plan_id":"cebpf4jnsgd1na2vs0mg"},{"bike_id":"74ddbdc3-b082-4f44-a075-38dfc2e6b2cd","system_id":"levelo_inurba_marseille","lat":43.24156,"lon":5.36404,"is_reserved":false,"is_disabled":false,"rental_uris":{"android":"levelo://app?vid=74ddbdc3-b082-4f44-a075-38dfc2e6b2cd","ios":"levelo://app?vid=74ddbdc3-b082-4f44-a075-38dfc2e6b2cd"},"vehicle_type_id":"4","last_reported":1733904819,"current_range_meters":17600,"station_id":"cpo36qri1sfpv3e86is0","pricing_plan_id":"cebpf4jnsgd1na2vs0mg"},{"bike_id":"ee424296-6b1f-4146-8552-13bedd0869ba","system_id":"levelo_inurba_marseille","lat":43.31264,"lon":5.36835,"is_reserved":false,"is_disabled":false,"rental_uris":{"android":"levelo://app?vid=ee424296-6b1f-4146-8552-13bedd0869ba","ios":"levelo://app?vid=ee424296-6b1f-4146-8552-13bedd0869ba"},"vehicle_type_id":"4","last_reported":1733904819,"current_range_meters":27200,"station_id":"ce4bgl92rcd13ifvqbq0","pricing_plan_id":"cebpf4jnsgd1na2vs0mg"},{"bike_id":"627751bc-d2b6-495a-97de-471267d080a6","system_id":"levelo_inurba_marseille","lat":43.30318,"lon":5.40441,"is_reserved":false,"is_disabled":true,"rental_uris":{"android":"levelo://app?vid=627751bc-d2b6-495a-97de-471267d080a6","ios":"levelo://app?vid=627751bc-d2b6-495a-97de-471267d080a6"},"vehicle_type_id":"4","last_reported":1733904819,"current_range_meters":35600,"station_id":"ce4bh012rcd13ifvqd10","pricing_plan_id":"cebpf4jnsgd1na2vs0mg"},{"bike_id":"13f377ca-99b2-48ff-93be-6b0ac3120bbb","system_id":"levelo_inurba_marseille","lat":43.28442,"lon":5.39175,"is_reserved":false,"is_disabled":true,"rental_uris":{"android":"levelo://app?vid=13f377ca-99b2-48ff-93be-6b0ac3120bbb","ios":"levelo://app?vid=13f377ca-99b2-48ff-93be-6b0ac3120bbb"},"vehicle_type_id":"4","last_reported":1733904819,"current_range_meters":36800,"station_id":"ce4bhoh2rcd13ifvqh5g","pricing_plan_id":"cebpf4jnsgd1na2vs0mg"},{"bike_id":"d4cf4dc8-25ec-4bf6-92cf-917fbe800064","system_id":"levelo_inurba_marseille","lat":43.26997,"lon":5.38763,"is_reserved":false,"is_disabled":false,"rental_uris":{"android":"levelo://app?vid=d4cf4dc8-25ec-4bf6-92cf-917fbe800064","ios":"levelo://app?vid=d4cf4dc8-25ec-4bf6-92cf-917fbe800064"},"vehicle_type_id":"4","last_reported":1733904819,"current_range_meters":6800,"station_id":"","pricing_plan_id":"cebpf4jnsgd1na2vs0mg"},{"bike_id":"fd164b21-2dab-4351-954f-ff56dadaa227","system_id":"levelo_inurba_marseille","lat":43.250921,"lon":5.395247,"is_reserved":false,"is_disabled":true,"rental_uris":{"android":"levelo://app?vid=fd164b21-2dab-4351-954f-ff56dadaa227","ios":"levelo://app?vid=fd164b21-2dab-4351-954f-ff56dadaa227"},"vehicle_type_id":"4","last_reported":1733904819,"current_range_meters":12400,"station_id":"","pricing_plan_id":"cebpf4jnsgd1na2vs0mg"},{"bike_id":"e3b7baf4-80c0-42f2-a6b3-35154ea4a44f","system_id":"levelo_inurba_marseille","lat":43.30812,"lon":5.38162,"is_reserved":false,"is_disabled":true,"rental_uris":{"android":"levelo://app?vid=e3b7baf4-80c0-42f2-a6b3-35154ea4a44f","ios":"levelo://app?vid=e3b7baf4-80c0-42f2-a6b3-35154ea4a44f"},"vehicle_type_id":"4","last_reported":1733904819,"current_range_meters":39200,"station_id":"ce4bgt12rcd13ifvqce0","pricing_plan_id":"cebpf4jnsgd1na2vs0mg"},{"bike_id":"13bd4e67-ba42-4fca-91dc-3429a977ea9b","system_id":"levelo_inurba_marseille","lat":43.27494,"lon":5.42454,"is_reserved":false,"is_disabled":false,"rental_uris":{"android":"levelo://app?vid=13bd4e67-ba42-4fca-91dc-3429a977ea9b","ios":"levelo://app?vid=13bd4e67-ba42-4fca-91dc-3429a977ea9b"},"vehicle_type_id":"4","last_reported":1733904819,"current_range_meters":32800,"station_id":"ce4bhn92rcd13ifvqgrg","pricing_plan_id":"cebpf4jnsgd1na2vs0mg"},{"bike_id":"11e86528-eb6b-4391-86a5-9b1822d069a4","system_id":"levelo_inurba_marseille","lat":43.278805,"lon":5.388003,"is_reserved":false,"is_disabled":true,"rental_uris":{"android":"levelo://app?vid=11e86528-eb6b-4391-86a5-9b1822d069a4","ios":"levelo://app?vid=11e86528-eb6b-4391-86a5-9b1822d069a4"},"vehicle_type_id":"4","last_reported":1733904819,"current_range_meters":0,"station_id":"","pricing_plan_id":"cebpf4jnsgd1na2vs0mg"},{"bike_id":"6cc6805f-c0ca-4585-bdf1-b5a0339762b0","system_id":"levelo_inurba_marseille","lat":43.29027,"lon":5.42744,"is_reserved":false,"is_disabled":true,"rental_uris":{"android":"levelo://app?vid=6cc6805f-c0ca-4585-bdf1-b5a0339762b0","ios":"levelo://app?vid=6cc6805f-c0ca-4585-bdf1-b5a0339762b0"},"vehicle_type_id":"4","last_reported":1733904819,"current_range_meters":0,"station_id":"","pricing_plan_id":"cebpf4jnsgd1na2vs0mg"},{"bike_id":"080c9623-7190-4a88-b14f-4d131f18aefc","system_id":"levelo_inurba_marseille","lat":43.29447,"lon":5.39761,"is_reserved":false,"is_disabled":true,"rental_uris":{"android":"levelo://app?vid=080c9623-7190-4a88-b14f-4d131f18aefc","ios":"levelo://app?vid=080c9623-7190-4a88-b14f-4d131f18aefc"},"vehicle_type_id":"4","last_reported":1733904819,"current_range_meters":2800,"station_id":"ce4bh3h2rcd13ifvqdo0","pricing_plan_id":"cebpf4jnsgd1na2vs0mg"},{"bike_id":"f3e6f298-9b6e-45f6-98e2-5d42d3c246e8","system_id":"levelo_inurba_marseille","lat":43.27527,"lon":5.39551,"is_reserved":false,"is_disabled":false,"rental_uris":{"android":"levelo://app?vid=f3e6f298-9b6e-45f6-98e2-5d42d3c246e8","ios":"levelo://app?vid=f3e6f298-9b6e-45f6-98e2-5d42d3c246e8"},"vehicle_type_id":"4","last_reported":1733904819,"current_range_meters":28800,"station_id":"","pricing_plan_id":"cebpf4jnsgd1na2vs0mg"},{"bike_id":"e653e6ef-cd7c-4bfe-bd44-0c0f455f1755","system_id":"levelo_inurba_marseille","lat":43.24808,"lon":5.37458,"is_reserved":false,"is_disabled":false,"rental_uris":{"android":"levelo://app?vid=e653e6ef-cd7c-4bfe-bd44-0c0f455f1755","ios":"levelo://app?vid=e653e6ef-cd7c-4bfe-bd44-0c0f455f1755"},"vehicle_type_id":"4","last_reported":1733904819,"current_range_meters":33600,"station_id":"ce4bhgh2rcd13ifvqfb0","pricing_plan_id":"cebpf4jnsgd1na2vs0mg"},{"bike_id":"d0e9b0d9-b932-4d84-83c8-f81795e05f31","system_id":"levelo_inurba_marseille","lat":43.28481,"lon":5.38431,"is_reserved":false,"is_disabled":true,"rental_uris":{"android":"levelo://app?vid=d0e9b0d9-b932-4d84-83c8-f81795e05f31","ios":"levelo://app?vid=d0e9b0d9-b932-4d84-83c8-f81795e05f31"},"vehicle_type_id":"4","last_reported":1733904819,"current_range_meters":0,"station_id":"ce4bh512rcd13ifvqe3g","pricing_plan_id":"cebpf4jnsgd1na2vs0mg"},{"bike_id":"28449c76-e3ca-4b7e-a5a0-4a32e5cadede","system_id":"levelo_inurba_marseille","lat":43.305161,"lon":5.365417,"is_reserved":false,"is_disabled":true,"rental_uris":{"android":"levelo://app?vid=28449c76-e3ca-4b7e-a5a0-4a32e5cadede","ios":"levelo://app?vid=28449c76-e3ca-4b7e-a5a0-4a32e5cadede"},"vehicle_type_id":"4","last_reported":1733904819,"current_range_meters":0,"station_id":"","pricing_plan_id":"cebpf4jnsgd1na2vs0mg"},{"bike_id":"dced6415-3f72-4987-9f23-cb7bd7cc812c","system_id":"levelo_inurba_marseille","lat":43.30538,"lon":5.36541,"is_reserved":false,"is_disabled":false,"rental_uris":{"android":"levelo://app?vid=dced6415-3f72-4987-9f23-cb7bd7cc812c","ios":"levelo://app?vid=dced6415-3f72-4987-9f23-cb7bd7cc812c"},"vehicle_type_id":"4","last_reported":1733904819,"current_range_meters":36000,"station_id":"ce4bgs12rcd13ifvqcag","pricing_plan_id":"cebpf4jnsgd1na2vs0mg"},{"bike_id":"73f3c68a-b682-4914-b045-52524bc07a2a","system_id":"levelo_inurba_marseille","lat":43.26203,"lon":5.37923,"is_reserved":false,"is_disabled":false,"rental_uris":{"android":"levelo://app?vid=73f3c68a-b682-4914-b045-52524bc07a2a","ios":"levelo://app?vid=73f3c68a-b682-4914-b045-52524bc07a2a"},"vehicle_type_id":"4","last_reported":1733904819,"current_range_meters":14400,"station_id":"ce4bhjp2rcd13ifvqg90","pricing_plan_id":"cebpf4jnsgd1na2vs0mg"},{"bike_id":"2476a7c9-6eb7-4448-94c9-83a28c8228fa","system_id":"levelo_inurba_marseille","lat":43.29044,"lon":5.39971,"is_reserved":false,"is_disabled":false,"rental_uris":{"android":"levelo://app?vid=2476a7c9-6eb7-4448-94c9-83a28c8228fa","ios":"levelo://app?vid=2476a7c9-6eb7-4448-94c9-83a28c8228fa"},"vehicle_type_id":"4","last_reported":1733904819,"current_range_meters":24800,"station_id":"ce4bh392rcd13ifvqdm0","pricing_plan_id":"cebpf4jnsgd1na2vs0mg"},{"bike_id":"6ea860bd-ab39-432c-9a85-9db1cca7765f","system_id":"levelo_inurba_marseille","lat":43.29572,"lon":5.37465,"is_reserved":false,"is_disabled":false,"rental_uris":{"android":"levelo://app?vid=6ea860bd-ab39-432c-9a85-9db1cca7765f","ios":"levelo://app?vid=6ea860bd-ab39-432c-9a85-9db1cca7765f"},"vehicle_type_id":"4","last_reported":1733904819,"current_range_meters":36800,"station_id":"ce4bgh92rcd13ifvqb50","pricing_plan_id":"cebpf4jnsgd1na2vs0mg"},{"bike_id":"a35d4fb9-0e21-4c09-94e2-54c06f1086ec","system_id":"levelo_inurba_marseille","lat":43.23162,"lon":5.43704,"is_reserved":false,"is_disabled":false,"rental_uris":{"android":"levelo://app?vid=a35d4fb9-0e21-4c09-94e2-54c06f1086ec","ios":"levelo://app?vid=a35d4fb9-0e21-4c09-94e2-54c06f1086ec"},"vehicle_type_id":"4","last_reported":1733904819,"current_range_meters":24000,"station_id":"ce4bhmp2rcd13ifvqgog","pricing_plan_id":"cebpf4jnsgd1na2vs0mg"},{"bike_id":"1acf4526-f5fb-4a4e-90fc-6c6225b3d08b","system_id":"levelo_inurba_marseille","lat":43.30466,"lon":5.379,"is_reserved":false,"is_disabled":false,"rental_uris":{"android":"levelo://app?vid=1acf4526-f5fb-4a4e-90fc-6c6225b3d08b","ios":"levelo://app?vid=1acf4526-f5fb-4a4e-90fc-6c6225b3d08b"},"vehicle_type_id":"4","last_reported":1733904819,"current_range_meters":39200,"station_id":"ce4bgup2rcd13ifvqcn0","pricing_plan_id":"cebpf4jnsgd1na2vs0mg"},{"bike_id":"39040f92-0a83-4f49-970b-f53910b1933c","system_id":"levelo_inurba_marseille","lat":43.30453,"lon":5.37901,"is_reserved":false,"is_disabled":false,"rental_uris":{"android":"levelo://app?vid=39040f92-0a83-4f49-970b-f53910b1933c","ios":"levelo://app?vid=39040f92-0a83-4f49-970b-f53910b1933c"},"vehicle_type_id":"4","last_reported":1733904819,"current_range_meters":34000,"station_id":"ce4bgup2rcd13ifvqcn0","pricing_plan_id":"cebpf4jnsgd1na2vs0mg"},{"bike_id":"de665d27-4f2c-4449-a982-1b6a26695aad","system_id":"levelo_inurba_marseille","lat":43.3054,"lon":5.36526,"is_reserved":false,"is_disabled":false,"rental_uris":{"android":"levelo://app?vid=de665d27-4f2c-4449-a982-1b6a26695aad","ios":"levelo://app?vid=de665d27-4f2c-4449-a982-1b6a26695aad"},"vehicle_type_id":"4","last_reported":1733904819,"current_range_meters":37600,"station_id":"ce4bgs12rcd13ifvqcag","pricing_plan_id":"cebpf4jnsgd1na2vs0mg"},{"bike_id":"24f4f9aa-1bf8-493c-a155-b82014176d33","system_id":"levelo_inurba_marseille","lat":43.29577,"lon":5.37503,"is_reserved":false,"is_disabled":true,"rental_uris":{"android":"levelo://app?vid=24f4f9aa-1bf8-493c-a155-b82014176d33","ios":"levelo://app?vid=24f4f9aa-1bf8-493c-a155-b82014176d33"},"vehicle_type_id":"4","last_reported":1733904819,"current_range_meters":34000,"station_id":"ce4bgh92rcd13ifvqb50","pricing_plan_id":"cebpf4jnsgd1na2vs0mg"},{"bike_id":"9c02f481-06de-4ed3-9a90-60ccecd56fff","system_id":"levelo_inurba_marseille","lat":43.30281,"lon":5.37701,"is_reserved":false,"is_disabled":false,"rental_uris":{"android":"levelo://app?vid=9c02f481-06de-4ed3-9a90-60ccecd56fff","ios":"levelo://app?vid=9c02f481-06de-4ed3-9a90-60ccecd56fff"},"vehicle_type_id":"4","last_reported":1733904819,"current_range_meters":36800,"station_id":"ce4bguh2rcd13ifvqcj0","pricing_plan_id":"cebpf4jnsgd1na2vs0mg"},{"bike_id":"3d724a5d-db5f-493a-80e6-81546f875c6f","system_id":"levelo_inurba_marseille","lat":43.27679,"lon":5.38895,"is_reserved":false,"is_disabled":false,"rental_uris":{"android":"levelo://app?vid=3d724a5d-db5f-493a-80e6-81546f875c6f","ios":"levelo://app?vid=3d724a5d-db5f-493a-80e6-81546f875c6f"},"vehicle_type_id":"4","last_reported":1733904819,"current_range_meters":38000,"station_id":"ce4bhlh2rcd13ifvqgig","pricing_plan_id":"cebpf4jnsgd1na2vs0mg"},{"bike_id":"b0a46ba0-c8bc-4621-808f-2274c3b3257e","system_id":"levelo_inurba_marseille","lat":43.323,"lon":5.38305,"is_reserved":false,"is_disabled":false,"rental_uris":{"android":"levelo://app?vid=b0a46ba0-c8bc-4621-808f-2274c3b3257e","ios":"levelo://app?vid=b0a46ba0-c8bc-4621-808f-2274c3b3257e"},"vehicle_type_id":"4","last_reported":1733904819,"current_range_meters":38800,"station_id":"ce4bhr12rcd13ifvqhqg","pricing_plan_id":"cebpf4jnsgd1na2vs0mg"},{"bike_id":"72369e3c-7a31-4199-a732-76fa73093ac4","system_id":"levelo_inurba_marseille","lat":43.31358,"lon":5.36701,"is_reserved":false,"is_disabled":true,"rental_uris":{"android":"levelo://app?vid=72369e3c-7a31-4199-a732-76fa73093ac4","ios":"levelo://app?vid=72369e3c-7a31-4199-a732-76fa73093ac4"},"vehicle_type_id":"4","last_reported":1733904819,"current_range_meters":19200,"station_id":"ce4bgr92rcd13ifvqc6g","pricing_plan_id":"cebpf4jnsgd1na2vs0mg"},{"bike_id":"df388378-c945-452d-8797-c8ddfaa20373","system_id":"levelo_inurba_marseille","lat":43.3254,"lon":5.41429,"is_reserved":false,"is_disabled":false,"rental_uris":{"android":"levelo://app?vid=df388378-c945-452d-8797-c8ddfaa20373","ios":"levelo://app?vid=df388378-c945-452d-8797-c8ddfaa20373"},"vehicle_type_id":"4","last_reported":1733904819,"current_range_meters":38800,"station_id":"ce4bhq12rcd13ifvqhhg","pricing_plan_id":"cebpf4jnsgd1na2vs0mg"},{"bike_id":"d5df09c4-4c3e-4788-aba5-32fc763b722c","system_id":"levelo_inurba_marseille","lat":43.30465,"lon":5.37912,"is_reserved":false,"is_disabled":false,"rental_uris":{"android":"levelo://app?vid=d5df09c4-4c3e-4788-aba5-32fc763b722c","ios":"levelo://app?vid=d5df09c4-4c3e-4788-aba5-32fc763b722c"},"vehicle_type_id":"4","last_reported":1733904819,"current_range_meters":32800,"station_id":"ce4bgup2rcd13ifvqcn0","pricing_plan_id":"cebpf4jnsgd1na2vs0mg"},{"bike_id":"d5c9151d-09aa-4515-bc74-3ade64452dd4","system_id":"levelo_inurba_marseille","lat":43.27502,"lon":5.42469,"is_reserved":false,"is_disabled":false,"rental_uris":{"android":"levelo://app?vid=d5c9151d-09aa-4515-bc74-3ade64452dd4","ios":"levelo://app?vid=d5c9151d-09aa-4515-bc74-3ade64452dd4"},"vehicle_type_id":"4","last_reported":1733904819,"current_range_meters":36000,"station_id":"ce4bhn92rcd13ifvqgrg","pricing_plan_id":"cebpf4jnsgd1na2vs0mg"},{"bike_id":"d71bc6a7-b156-48ac-970e-25dcde90b11c","system_id":"levelo_inurba_marseille","lat":43.27967,"lon":5.40042,"is_reserved":false,"is_disabled":false,"rental_uris":{"android":"levelo://app?vid=d71bc6a7-b156-48ac-970e-25dcde90b11c","ios":"levelo://app?vid=d71bc6a7-b156-48ac-970e-25dcde90b11c"},"vehicle_type_id":"4","last_reported":1733904819,"current_range_meters":7200,"station_id":"ce4bho92rcd13ifvqh4g","pricing_plan_id":"cebpf4jnsgd1na2vs0mg"},{"bike_id":"af12b319-3c3e-484c-b565-291fa4e59051","system_id":"levelo_inurba_marseille","lat":43.29275,"lon":5.36842,"is_reserved":false,"is_disabled":false,"rental_uris":{"android":"levelo://app?vid=af12b319-3c3e-484c-b565-291fa4e59051","ios":"levelo://app?vid=af12b319-3c3e-484c-b565-291fa4e59051"},"vehicle_type_id":"4","last_reported":1733904819,"current_range_meters":38000,"station_id":"ce4bhbp2rcd13ifvqesg","pricing_plan_id":"cebpf4jnsgd1na2vs0mg"},{"bike_id":"59153d0c-6274-4eee-b5fc-268727e71351","system_id":"levelo_inurba_marseille","lat":43.296,"lon":5.38094,"is_reserved":false,"is_disabled":false,"rental_uris":{"android":"levelo://app?vid=59153d0c-6274-4eee-b5fc-268727e71351","ios":"levelo://app?vid=59153d0c-6274-4eee-b5fc-268727e71351"},"vehicle_type_id":"4","last_reported":1733904819,"current_range_meters":38400,"station_id":"ce4bgl12rcd13ifvqbo0","pricing_plan_id":"cebpf4jnsgd1na2vs0mg"},{"bike_id":"9fc9403f-c596-40e7-a6f6-6d0e14d43595","system_id":"levelo_inurba_marseille","lat":43.30477,"lon":5.37884,"is_reserved":false,"is_disabled":false,"rental_uris":{"android":"levelo://app?vid=9fc9403f-c596-40e7-a6f6-6d0e14d43595","ios":"levelo://app?vid=9fc9403f-c596-40e7-a6f6-6d0e14d43595"},"vehicle_type_id":"4","last_reported":1733904819,"current_range_meters":23200,"station_id":"ce4bgup2rcd13ifvqcn0","pricing_plan_id":"cebpf4jnsgd1na2vs0mg"},{"bike_id":"896d4ccf-3d83-4122-b2f2-1a77a517b0e7","system_id":"levelo_inurba_marseille","lat":43.23962,"lon":5.36657,"is_reserved":false,"is_disabled":false,"rental_uris":{"android":"levelo://app?vid=896d4ccf-3d83-4122-b2f2-1a77a517b0e7","ios":"levelo://app?vid=896d4ccf-3d83-4122-b2f2-1a77a517b0e7"},"vehicle_type_id":"4","last_reported":1733904819,"current_range_meters":38800,"station_id":"ce4bhi12rcd13ifvqfp0","pricing_plan_id":"cebpf4jnsgd1na2vs0mg"},{"bike_id":"5af4cbfe-ebf7-47cf-b667-21ffe2cc2cfb","system_id":"levelo_inurba_marseille","lat":43.31348,"lon":5.36719,"is_reserved":false,"is_disabled":false,"rental_uris":{"android":"levelo://app?vid=5af4cbfe-ebf7-47cf-b667-21ffe2cc2cfb","ios":"levelo://app?vid=5af4cbfe-ebf7-47cf-b667-21ffe2cc2cfb"},"vehicle_type_id":"4","last_reported":1733904819,"current_range_meters":38800,"station_id":"ce4bgr92rcd13ifvqc6g","pricing_plan_id":"cebpf4jnsgd1na2vs0mg"},{"bike_id":"10795354-ae4b-49fa-9ba0-1d51ee825797","system_id":"levelo_inurba_marseille","lat":43.25088,"lon":5.39524,"is_reserved":false,"is_disabled":false,"rental_uris":{"android":"levelo://app?vid=10795354-ae4b-49fa-9ba0-1d51ee825797","ios":"levelo://app?vid=10795354-ae4b-49fa-9ba0-1d51ee825797"},"vehicle_type_id":"4","last_reported":1733904819,"current_range_meters":36800,"station_id":"ce4bhm12rcd13ifvqgkg","pricing_plan_id":"cebpf4jnsgd1na2vs0mg"},{"bike_id":"400d74d0-790b-4333-81d2-629b59f271e4","system_id":"levelo_inurba_marseille","lat":43.3028,"lon":5.37705,"is_reserved":false,"is_disabled":false,"rental_uris":{"android":"levelo://app?vid=400d74d0-790b-4333-81d2-629b59f271e4","ios":"levelo://app?vid=400d74d0-790b-4333-81d2-629b59f271e4"},"vehicle_type_id":"4","last_reported":1733904819,"current_range_meters":20800,"station_id":"ce4bguh2rcd13ifvqcj0","pricing_plan_id":"cebpf4jnsgd1na2vs0mg"},{"bike_id":"b3c5591b-5ccb-49b1-8351-3506fdb656c0","system_id":"levelo_inurba_marseille","lat":43.32284,"lon":5.38262,"is_reserved":false,"is_disabled":false,"rental_uris":{"android":"levelo://app?vid=b3c5591b-5ccb-49b1-8351-3506fdb656c0","ios":"levelo://app?vid=b3c5591b-5ccb-49b1-8351-3506fdb656c0"},"vehicle_type_id":"4","last_reported":1733904819,"current_range_meters":38800,"station_id":"ce4bhr12rcd13ifvqhqg","pricing_plan_id":"cebpf4jnsgd1na2vs0mg"},{"bike_id":"ebef9822-abf2-4c56-b343-3ca4bdb252f0","system_id":"levelo_inurba_marseille","lat":43.26033,"lon":5.37554,"is_reserved":false,"is_disabled":false,"rental_uris":{"android":"levelo://app?vid=ebef9822-abf2-4c56-b343-3ca4bdb252f0","ios":"levelo://app?vid=ebef9822-abf2-4c56-b343-3ca4bdb252f0"},"vehicle_type_id":"4","last_reported":1733904819,"current_range_meters":38800,"station_id":"ce4bhgh2rcd13ifvqfa0","pricing_plan_id":"cebpf4jnsgd1na2vs0mg"},{"bike_id":"33e48884-4b3d-4e17-8bfe-d8ab60a0c6ef","system_id":"levelo_inurba_marseille","lat":43.26072,"lon":5.39386,"is_reserved":false,"is_disabled":true,"rental_uris":{"android":"levelo://app?vid=33e48884-4b3d-4e17-8bfe-d8ab60a0c6ef","ios":"levelo://app?vid=33e48884-4b3d-4e17-8bfe-d8ab60a0c6ef"},"vehicle_type_id":"4","last_reported":1733904819,"current_range_meters":36000,"station_id":"ce4bhh92rcd13ifvqfj0","pricing_plan_id":"cebpf4jnsgd1na2vs0mg"},{"bike_id":"8a541c78-58b4-45d9-94a7-3d8383bc9bce","system_id":"levelo_inurba_marseille","lat":43.29417,"lon":5.38611,"is_reserved":false,"is_disabled":true,"rental_uris":{"android":"levelo://app?vid=8a541c78-58b4-45d9-94a7-3d8383bc9bce","ios":"levelo://app?vid=8a541c78-58b4-45d9-94a7-3d8383bc9bce"},"vehicle_type_id":"4","last_reported":1733904819,"current_range_meters":12000,"station_id":"ce4bh2h2rcd13ifvqdh0","pricing_plan_id":"cebpf4jnsgd1na2vs0mg"},{"bike_id":"ba5877a6-7f21-44d6-af18-2a88041d5d5d","system_id":"levelo_inurba_marseille","lat":43.24069,"lon":5.37752,"is_reserved":false,"is_disabled":false,"rental_uris":{"android":"levelo://app?vid=ba5877a6-7f21-44d6-af18-2a88041d5d5d","ios":"levelo://app?vid=ba5877a6-7f21-44d6-af18-2a88041d5d5d"},"vehicle_type_id":"4","last_reported":1733904819,"current_range_meters":32800,"station_id":"ce4bhnp2rcd13ifvqgvg","pricing_plan_id":"cebpf4jnsgd1na2vs0mg"},{"bike_id":"f6596b15-4056-4876-8357-56e87c7c51a9","system_id":"levelo_inurba_marseille","lat":43.28377,"lon":5.38626,"is_reserved":false,"is_disabled":false,"rental_uris":{"android":"levelo://app?vid=f6596b15-4056-4876-8357-56e87c7c51a9","ios":"levelo://app?vid=f6596b15-4056-4876-8357-56e87c7c51a9"},"vehicle_type_id":"4","last_reported":1733904819,"current_range_meters":26000,"station_id":"ce4bh492rcd13ifvqdvg","pricing_plan_id":"cebpf4jnsgd1na2vs0mg"},{"bike_id":"86ba1477-d66b-45ae-970d-b9ca4cc82061","system_id":"levelo_inurba_marseille","lat":43.30484,"lon":5.37919,"is_reserved":false,"is_disabled":false,"rental_uris":{"android":"levelo://app?vid=86ba1477-d66b-45ae-970d-b9ca4cc82061","ios":"levelo://app?vid=86ba1477-d66b-45ae-970d-b9ca4cc82061"},"vehicle_type_id":"4","last_reported":1733904819,"current_range_meters":38800,"station_id":"ce4bgup2rcd13ifvqcn0","pricing_plan_id":"cebpf4jnsgd1na2vs0mg"},{"bike_id":"d6bea2d9-ac68-43ed-9ed7-9f806ede1c34","system_id":"levelo_inurba_marseille","lat":43.30148,"lon":5.37423,"is_reserved":false,"is_disabled":false,"rental_uris":{"android":"levelo://app?vid=d6bea2d9-ac68-43ed-9ed7-9f806ede1c34","ios":"levelo://app?vid=d6bea2d9-ac68-43ed-9ed7-9f806ede1c34"},"vehicle_type_id":"4","last_reported":1733904819,"current_range_meters":24000,"station_id":"ce4bgs92rcd13ifvqcc0","pricing_plan_id":"cebpf4jnsgd1na2vs0mg"},{"bike_id":"b02c24ef-aac5-4dc7-94c4-ee928b33d372","system_id":"levelo_inurba_marseille","lat":43.26032,"lon":5.37553,"is_reserved":false,"is_disabled":false,"rental_uris":{"android":"levelo://app?vid=b02c24ef-aac5-4dc7-94c4-ee928b33d372","ios":"levelo://app?vid=b02c24ef-aac5-4dc7-94c4-ee928b33d372"},"vehicle_type_id":"4","last_reported":1733904819,"current_range_meters":25600,"station_id":"ce4bhgh2rcd13ifvqfa0","pricing_plan_id":"cebpf4jnsgd1na2vs0mg"},{"bike_id":"08be7672-3462-4e69-88d8-3cd4d9f0d677","system_id":"levelo_inurba_marseille","lat":43.309485,"lon":5.390239,"is_reserved":false,"is_disabled":false,"rental_uris":{"android":"levelo://app?vid=08be7672-3462-4e69-88d8-3cd4d9f0d677","ios":"levelo://app?vid=08be7672-3462-4e69-88d8-3cd4d9f0d677"},"vehicle_type_id":"4","last_reported":1733904819,"current_range_meters":32000,"station_id":"ce4bgup2rcd13ifvqco0","pricing_plan_id":"cebpf4jnsgd1na2vs0mg"},{"bike_id":"725cf619-389f-4125-a000-9476bde12a83","system_id":"levelo_inurba_marseille","lat":43.30297,"lon":5.39215,"is_reserved":false,"is_disabled":false,"rental_uris":{"android":"levelo://app?vid=725cf619-389f-4125-a000-9476bde12a83","ios":"levelo://app?vid=725cf619-389f-4125-a000-9476bde12a83"},"vehicle_type_id":"4","last_reported":1733904819,"current_range_meters":28800,"station_id":"ce4bgkh2rcd13ifvqbk0","pricing_plan_id":"cebpf4jnsgd1na2vs0mg"},{"bike_id":"f1e1b83c-6b4c-4d52-9b3f-becfd8274a79","system_id":"levelo_inurba_marseille","lat":43.24989,"lon":5.38935,"is_reserved":false,"is_disabled":false,"rental_uris":{"android":"levelo://app?vid=f1e1b83c-6b4c-4d52-9b3f-becfd8274a79","ios":"levelo://app?vid=f1e1b83c-6b4c-4d52-9b3f-becfd8274a79"},"vehicle_type_id":"4","last_reported":1733904819,"current_range_meters":36400,"station_id":"ce4bhgp2rcd13ifvqfd0","pricing_plan_id":"cebpf4jnsgd1na2vs0mg"},{"bike_id":"ca214968-82f0-48cf-868f-e590426e68cb","system_id":"levelo_inurba_marseille","lat":43.26208,"lon":5.37927,"is_reserved":false,"is_disabled":false,"rental_uris":{"android":"levelo://app?vid=ca214968-82f0-48cf-868f-e590426e68cb","ios":"levelo://app?vid=ca214968-82f0-48cf-868f-e590426e68cb"},"vehicle_type_id":"4","last_reported":1733904819,"current_range_meters":30000,"station_id":"ce4bhjp2rcd13ifvqg90","pricing_plan_id":"cebpf4jnsgd1na2vs0mg"},{"bike_id":"372b9f49-2964-4fce-8390-834990e5f7e8","system_id":"levelo_inurba_marseille","lat":43.24068,"lon":5.37725,"is_reserved":false,"is_disabled":false,"rental_uris":{"android":"levelo://app?vid=372b9f49-2964-4fce-8390-834990e5f7e8","ios":"levelo://app?vid=372b9f49-2964-4fce-8390-834990e5f7e8"},"vehicle_type_id":"4","last_reported":1733904819,"current_range_meters":35200,"station_id":"ce4bhnp2rcd13ifvqgvg","pricing_plan_id":"cebpf4jnsgd1na2vs0mg"},{"bike_id":"db92035c-5e59-4238-b7d2-e8825d0eb742","system_id":"levelo_inurba_marseille","lat":43.2871,"lon":5.37935,"is_reserved":false,"is_disabled":true,"rental_uris":{"android":"levelo://app?vid=db92035c-5e59-4238-b7d2-e8825d0eb742","ios":"levelo://app?vid=db92035c-5e59-4238-b7d2-e8825d0eb742"},"vehicle_type_id":"4","last_reported":1733904819,"current_range_meters":1600,"station_id":"ce4bh9p2rcd13ifvqec0","pricing_plan_id":"cebpf4jnsgd1na2vs0mg"},{"bike_id":"e776819f-d0c2-4e90-8b6a-72fc3d50c85e","system_id":"levelo_inurba_marseille","lat":43.27068,"lon":5.4228,"is_reserved":false,"is_disabled":false,"rental_uris":{"android":"levelo://app?vid=e776819f-d0c2-4e90-8b6a-72fc3d50c85e","ios":"levelo://app?vid=e776819f-d0c2-4e90-8b6a-72fc3d50c85e"},"vehicle_type_id":"4","last_reported":1733904819,"current_range_meters":38000,"station_id":"ce4bhk92rcd13ifvqgb0","pricing_plan_id":"cebpf4jnsgd1na2vs0mg"},{"bike_id":"c09dbe57-eb95-4e18-9a72-18e05a454d13","system_id":"levelo_inurba_marseille","lat":43.27321,"lon":5.39095,"is_reserved":false,"is_disabled":false,"rental_uris":{"android":"levelo://app?vid=c09dbe57-eb95-4e18-9a72-18e05a454d13","ios":"levelo://app?vid=c09dbe57-eb95-4e18-9a72-18e05a454d13"},"vehicle_type_id":"4","last_reported":1733904819,"current_range_meters":38800,"station_id":"ce4bhgp2rcd13ifvqfe0","pricing_plan_id":"cebpf4jnsgd1na2vs0mg"},{"bike_id":"3472c199-75c4-4ede-8b49-11a61930796f","system_id":"levelo_inurba_marseille","lat":43.31368,"lon":5.38489,"is_reserved":false,"is_disabled":false,"rental_uris":{"android":"levelo://app?vid=3472c199-75c4-4ede-8b49-11a61930796f","ios":"levelo://app?vid=3472c199-75c4-4ede-8b49-11a61930796f"},"vehicle_type_id":"4","last_reported":1733904819,"current_range_meters":9200,"station_id":"ce4bgt92rcd13ifvqcf0","pricing_plan_id":"cebpf4jnsgd1na2vs0mg"},{"bike_id":"61679345-8444-4457-ad9d-521d603c4d88","system_id":"levelo_inurba_marseille","lat":43.29615,"lon":5.38079,"is_reserved":false,"is_disabled":false,"rental_uris":{"android":"levelo://app?vid=61679345-8444-4457-ad9d-521d603c4d88","ios":"levelo://app?vid=61679345-8444-4457-ad9d-521d603c4d88"},"vehicle_type_id":"4","last_reported":1733904819,"current_range_meters":35200,"station_id":"ce4bgl12rcd13ifvqbo0","pricing_plan_id":"cebpf4jnsgd1na2vs0mg"},{"bike_id":"8183d8e7-3c4b-4ed6-83fa-10d192b7d8bd","system_id":"levelo_inurba_marseille","lat":43.27535,"lon":5.40946,"is_reserved":false,"is_disabled":true,"rental_uris":{"android":"levelo://app?vid=8183d8e7-3c4b-4ed6-83fa-10d192b7d8bd","ios":"levelo://app?vid=8183d8e7-3c4b-4ed6-83fa-10d192b7d8bd"},"vehicle_type_id":"4","last_reported":1733904819,"current_range_meters":2000,"station_id":"","pricing_plan_id":"cebpf4jnsgd1na2vs0mg"},{"bike_id":"cf4ae858-b853-433d-ab64-a4164f79cfb6","system_id":"levelo_inurba_marseille","lat":43.29603,"lon":5.38101,"is_reserved":false,"is_disabled":false,"rental_uris":{"android":"levelo://app?vid=cf4ae858-b853-433d-ab64-a4164f79cfb6","ios":"levelo://app?vid=cf4ae858-b853-433d-ab64-a4164f79cfb6"},"vehicle_type_id":"4","last_reported":1733904819,"current_range_meters":27600,"station_id":"ce4bgl12rcd13ifvqbo0","pricing_plan_id":"cebpf4jnsgd1na2vs0mg"},{"bike_id":"24038e93-6c8d-4dcb-8949-05294cdd45c2","system_id":"levelo_inurba_marseille","lat":43.26031,"lon":5.37548,"is_reserved":false,"is_disabled":false,"rental_uris":{"android":"levelo://app?vid=24038e93-6c8d-4dcb-8949-05294cdd45c2","ios":"levelo://app?vid=24038e93-6c8d-4dcb-8949-05294cdd45c2"},"vehicle_type_id":"4","last_reported":1733904819,"current_range_meters":36800,"station_id":"ce4bhgh2rcd13ifvqfa0","pricing_plan_id":"cebpf4jnsgd1na2vs0mg"},{"bike_id":"8281a47d-ba3d-428d-9f2f-12ac3cf46938","system_id":"levelo_inurba_marseille","lat":43.29639,"lon":5.37133,"is_reserved":false,"is_disabled":true,"rental_uris":{"android":"levelo://app?vid=8281a47d-ba3d-428d-9f2f-12ac3cf46938","ios":"levelo://app?vid=8281a47d-ba3d-428d-9f2f-12ac3cf46938"},"vehicle_type_id":"4","last_reported":1733904819,"current_range_meters":38400,"station_id":"ce4bgnh2rcd13ifvqc0g","pricing_plan_id":"cebpf4jnsgd1na2vs0mg"},{"bike_id":"1b2d4db1-cec0-4376-9abf-f3b964e5dcb7","system_id":"levelo_inurba_marseille","lat":43.23176,"lon":5.35484,"is_reserved":false,"is_disabled":false,"rental_uris":{"android":"levelo://app?vid=1b2d4db1-cec0-4376-9abf-f3b964e5dcb7","ios":"levelo://app?vid=1b2d4db1-cec0-4376-9abf-f3b964e5dcb7"},"vehicle_type_id":"4","last_reported":1733904819,"current_range_meters":38000,"station_id":"ce4bhu92rcd13ifvqi70","pricing_plan_id":"cebpf4jnsgd1na2vs0mg"},{"bike_id":"e7ed5aef-ae31-4d54-ac41-93e7dc9710c5","system_id":"levelo_inurba_marseille","lat":43.24077,"lon":5.3773,"is_reserved":false,"is_disabled":false,"rental_uris":{"android":"levelo://app?vid=e7ed5aef-ae31-4d54-ac41-93e7dc9710c5","ios":"levelo://app?vid=e7ed5aef-ae31-4d54-ac41-93e7dc9710c5"},"vehicle_type_id":"4","last_reported":1733904819,"current_range_meters":32400,"station_id":"ce4bhnp2rcd13ifvqgvg","pricing_plan_id":"cebpf4jnsgd1na2vs0mg"},{"bike_id":"d73ade9e-6a49-4016-a17e-ab2ea853afff","system_id":"levelo_inurba_marseille","lat":43.31357,"lon":5.36729,"is_reserved":false,"is_disabled":false,"rental_uris":{"android":"levelo://app?vid=d73ade9e-6a49-4016-a17e-ab2ea853afff","ios":"levelo://app?vid=d73ade9e-6a49-4016-a17e-ab2ea853afff"},"vehicle_type_id":"4","last_reported":1733904819,"current_range_meters":39200,"station_id":"ce4bgr92rcd13ifvqc6g","pricing_plan_id":"cebpf4jnsgd1na2vs0mg"},{"bike_id":"50290e6a-0f78-4fdd-a8c0-3fdecfe0ca84","system_id":"levelo_inurba_marseille","lat":43.29555,"lon":5.42286,"is_reserved":false,"is_disabled":true,"rental_uris":{"android":"levelo://app?vid=50290e6a-0f78-4fdd-a8c0-3fdecfe0ca84","ios":"levelo://app?vid=50290e6a-0f78-4fdd-a8c0-3fdecfe0ca84"},"vehicle_type_id":"4","last_reported":1733904819,"current_range_meters":38800,"station_id":"ce4bhph2rcd13ifvqhdg","pricing_plan_id":"cebpf4jnsgd1na2vs0mg"},{"bike_id":"6a268575-6a93-4a34-a42c-81e118c9ddb2","system_id":"levelo_inurba_marseille","lat":43.29782,"lon":5.38067,"is_reserved":false,"is_disabled":false,"rental_uris":{"android":"levelo://app?vid=6a268575-6a93-4a34-a42c-81e118c9ddb2","ios":"levelo://app?vid=6a268575-6a93-4a34-a42c-81e118c9ddb2"},"vehicle_type_id":"4","last_reported":1733904819,"current_range_meters":38800,"station_id":"ce4bgip2rcd13ifvqbb0","pricing_plan_id":"cebpf4jnsgd1na2vs0mg"},{"bike_id":"68469145-5869-4949-94f0-3ccc825184a3","system_id":"levelo_inurba_marseille","lat":43.28335,"lon":5.3812,"is_reserved":false,"is_disabled":true,"rental_uris":{"android":"levelo://app?vid=68469145-5869-4949-94f0-3ccc825184a3","ios":"levelo://app?vid=68469145-5869-4949-94f0-3ccc825184a3"},"vehicle_type_id":"4","last_reported":1733904819,"current_range_meters":26800,"station_id":"ce4bh412rcd13ifvqdr0","pricing_plan_id":"cebpf4jnsgd1na2vs0mg"},{"bike_id":"4c2306c5-1f30-4c9e-ac02-9f5c74eb62b0","system_id":"levelo_inurba_marseille","lat":43.29878,"lon":5.3974,"is_reserved":false,"is_disabled":true,"rental_uris":{"android":"levelo://app?vid=4c2306c5-1f30-4c9e-ac02-9f5c74eb62b0","ios":"levelo://app?vid=4c2306c5-1f30-4c9e-ac02-9f5c74eb62b0"},"vehicle_type_id":"4","last_reported":1733904819,"current_range_meters":38800,"station_id":"ce4bh0h2rcd13ifvqd50","pricing_plan_id":"cebpf4jnsgd1na2vs0mg"},{"bike_id":"e2e5fff8-dab3-4021-a87d-3c7c833d47d1","system_id":"levelo_inurba_marseille","lat":43.26211,"lon":5.374534,"is_reserved":false,"is_disabled":true,"rental_uris":{"android":"levelo://app?vid=e2e5fff8-dab3-4021-a87d-3c7c833d47d1","ios":"levelo://app?vid=e2e5fff8-dab3-4021-a87d-3c7c833d47d1"},"vehicle_type_id":"4","last_reported":1733904819,"current_range_meters":6400,"station_id":"ce4bhgp2rcd13ifvqfc0","pricing_plan_id":"cebpf4jnsgd1na2vs0mg"},{"bike_id":"082817e5-33f4-4467-b1ae-bdd5494bc12c","system_id":"levelo_inurba_marseille","lat":43.26209,"lon":5.37443,"is_reserved":false,"is_disabled":false,"rental_uris":{"android":"levelo://app?vid=082817e5-33f4-4467-b1ae-bdd5494bc12c","ios":"levelo://app?vid=082817e5-33f4-4467-b1ae-bdd5494bc12c"},"vehicle_type_id":"4","last_reported":1733904819,"current_range_meters":37600,"station_id":"ce4bhgp2rcd13ifvqfc0","pricing_plan_id":"cebpf4jnsgd1na2vs0mg"},{"bike_id":"75ae6d39-6dc2-49bc-ad9b-72136961811e","system_id":"levelo_inurba_marseille","lat":43.33031,"lon":5.39035,"is_reserved":false,"is_disabled":false,"rental_uris":{"android":"levelo://app?vid=75ae6d39-6dc2-49bc-ad9b-72136961811e","ios":"levelo://app?vid=75ae6d39-6dc2-49bc-ad9b-72136961811e"},"vehicle_type_id":"4","last_reported":1733904819,"current_range_meters":14800,"station_id":"ce4bhr92rcd13ifvqhrg","pricing_plan_id":"cebpf4jnsgd1na2vs0mg"},{"bike_id":"99d3d703-b9fb-4a21-b396-830c55a101e1","system_id":"levelo_inurba_marseille","lat":43.27494,"lon":5.42453,"is_reserved":false,"is_disabled":true,"rental_uris":{"android":"levelo://app?vid=99d3d703-b9fb-4a21-b396-830c55a101e1","ios":"levelo://app?vid=99d3d703-b9fb-4a21-b396-830c55a101e1"},"vehicle_type_id":"4","last_reported":1733904819,"current_range_meters":20400,"station_id":"ce4bhn92rcd13ifvqgrg","pricing_plan_id":"cebpf4jnsgd1na2vs0mg"},{"bike_id":"121e3072-7fd1-4644-8e8b-b6a3b742b44c","system_id":"levelo_inurba_marseille","lat":43.29302,"lon":5.37458,"is_reserved":false,"is_disabled":false,"rental_uris":{"android":"levelo://app?vid=121e3072-7fd1-4644-8e8b-b6a3b742b44c","ios":"levelo://app?vid=121e3072-7fd1-4644-8e8b-b6a3b742b44c"},"vehicle_type_id":"4","last_reported":1733904819,"current_range_meters":33200,"station_id":"ce4bgi12rcd13ifvqb70","pricing_plan_id":"cebpf4jnsgd1na2vs0mg"},{"bike_id":"684e19bc-e470-4ed1-a4b7-095e210730c0","system_id":"levelo_inurba_marseille","lat":43.29071,"lon":5.37168,"is_reserved":false,"is_disabled":false,"rental_uris":{"android":"levelo://app?vid=684e19bc-e470-4ed1-a4b7-095e210730c0","ios":"levelo://app?vid=684e19bc-e470-4ed1-a4b7-095e210730c0"},"vehicle_type_id":"4","last_reported":1733904819,"current_range_meters":29600,"station_id":"ce4bh5p2rcd13ifvqe4g","pricing_plan_id":"cebpf4jnsgd1na2vs0mg"},{"bike_id":"2eadeb3c-8732-4991-a6b3-9a8c12bbe6b1","system_id":"levelo_inurba_marseille","lat":43.30915,"lon":5.3684,"is_reserved":false,"is_disabled":false,"rental_uris":{"android":"levelo://app?vid=2eadeb3c-8732-4991-a6b3-9a8c12bbe6b1","ios":"levelo://app?vid=2eadeb3c-8732-4991-a6b3-9a8c12bbe6b1"},"vehicle_type_id":"4","last_reported":1733904819,"current_range_meters":20000,"station_id":"ce4bgn92rcd13ifvqbvg","pricing_plan_id":"cebpf4jnsgd1na2vs0mg"},{"bike_id":"5832ecb7-05b0-4681-8b60-7f2f6b8f55ea","system_id":"levelo_inurba_marseille","lat":43.29312,"lon":5.36984,"is_reserved":false,"is_disabled":false,"rental_uris":{"android":"levelo://app?vid=5832ecb7-05b0-4681-8b60-7f2f6b8f55ea","ios":"levelo://app?vid=5832ecb7-05b0-4681-8b60-7f2f6b8f55ea"},"vehicle_type_id":"4","last_reported":1733904819,"current_range_meters":30000,"station_id":"","pricing_plan_id":"cebpf4jnsgd1na2vs0mg"},{"bike_id":"9ebc88e6-f529-4f51-978c-8aec4c956c53","system_id":"levelo_inurba_marseille","lat":43.29597,"lon":5.38089,"is_reserved":false,"is_disabled":false,"rental_uris":{"android":"levelo://app?vid=9ebc88e6-f529-4f51-978c-8aec4c956c53","ios":"levelo://app?vid=9ebc88e6-f529-4f51-978c-8aec4c956c53"},"vehicle_type_id":"4","last_reported":1733904819,"current_range_meters":38800,"station_id":"ce4bgl12rcd13ifvqbo0","pricing_plan_id":"cebpf4jnsgd1na2vs0mg"},{"bike_id":"1798b009-d070-4a48-981c-7e69a8a0d034","system_id":"levelo_inurba_marseille","lat":43.32368,"lon":5.38877,"is_reserved":false,"is_disabled":false,"rental_uris":{"android":"levelo://app?vid=1798b009-d070-4a48-981c-7e69a8a0d034","ios":"levelo://app?vid=1798b009-d070-4a48-981c-7e69a8a0d034"},"vehicle_type_id":"4","last_reported":1733904819,"current_range_meters":38000,"station_id":"ce4bhqp2rcd13ifvqhog","pricing_plan_id":"cebpf4jnsgd1na2vs0mg"},{"bike_id":"eb4e32cd-a02d-4e92-a013-1fdc0dd71ccb","system_id":"levelo_inurba_marseille","lat":43.324799,"lon":5.365716,"is_reserved":false,"is_disabled":true,"rental_uris":{"android":"levelo://app?vid=eb4e32cd-a02d-4e92-a013-1fdc0dd71ccb","ios":"levelo://app?vid=eb4e32cd-a02d-4e92-a013-1fdc0dd71ccb"},"vehicle_type_id":"4","last_reported":1733904819,"current_range_meters":0,"station_id":"","pricing_plan_id":"cebpf4jnsgd1na2vs0mg"},{"bike_id":"eeb73e10-17ba-45b1-b4dd-05f22e4e996b","system_id":"levelo_inurba_marseille","lat":43.24197,"lon":5.36373,"is_reserved":false,"is_disabled":false,"rental_uris":{"android":"levelo://app?vid=eeb73e10-17ba-45b1-b4dd-05f22e4e996b","ios":"levelo://app?vid=eeb73e10-17ba-45b1-b4dd-05f22e4e996b"},"vehicle_type_id":"4","last_reported":1733904819,"current_range_meters":26800,"station_id":"cpo36qri1sfpv3e86is0","pricing_plan_id":"cebpf4jnsgd1na2vs0mg"},{"bike_id":"928896f9-930a-4dfa-a7ab-6b63e5b73b70","system_id":"levelo_inurba_marseille","lat":43.31695,"lon":5.40468,"is_reserved":false,"is_disabled":false,"rental_uris":{"android":"levelo://app?vid=928896f9-930a-4dfa-a7ab-6b63e5b73b70","ios":"levelo://app?vid=928896f9-930a-4dfa-a7ab-6b63e5b73b70"},"vehicle_type_id":"4","last_reported":1733904819,"current_range_meters":36800,"station_id":"ce4bh012rcd13ifvqd00","pricing_plan_id":"cebpf4jnsgd1na2vs0mg"},{"bike_id":"f4ef8383-89ef-4bcc-a976-187d54f013ad","system_id":"levelo_inurba_marseille","lat":43.29076,"lon":5.37177,"is_reserved":false,"is_disabled":false,"rental_uris":{"android":"levelo://app?vid=f4ef8383-89ef-4bcc-a976-187d54f013ad","ios":"levelo://app?vid=f4ef8383-89ef-4bcc-a976-187d54f013ad"},"vehicle_type_id":"4","last_reported":1733904819,"current_range_meters":17600,"station_id":"ce4bh5p2rcd13ifvqe4g","pricing_plan_id":"cebpf4jnsgd1na2vs0mg"},{"bike_id":"c79a44c3-57a2-4768-b6b8-e298d2460a22","system_id":"levelo_inurba_marseille","lat":43.24155,"lon":5.36413,"is_reserved":false,"is_disabled":false,"rental_uris":{"android":"levelo://app?vid=c79a44c3-57a2-4768-b6b8-e298d2460a22","ios":"levelo://app?vid=c79a44c3-57a2-4768-b6b8-e298d2460a22"},"vehicle_type_id":"4","last_reported":1733904819,"current_range_meters":34800,"station_id":"cpo36qri1sfpv3e86is0","pricing_plan_id":"cebpf4jnsgd1na2vs0mg"},{"bike_id":"9d80a548-f609-424a-b271-462289cef155","system_id":"levelo_inurba_marseille","lat":43.23961,"lon":5.3663,"is_reserved":false,"is_disabled":false,"rental_uris":{"android":"levelo://app?vid=9d80a548-f609-424a-b271-462289cef155","ios":"levelo://app?vid=9d80a548-f609-424a-b271-462289cef155"},"vehicle_type_id":"4","last_reported":1733904819,"current_range_meters":22800,"station_id":"ce4bhi12rcd13ifvqfp0","pricing_plan_id":"cebpf4jnsgd1na2vs0mg"},{"bike_id":"8b68729d-0713-45c1-a497-471ae591a0f0","system_id":"levelo_inurba_marseille","lat":43.30537,"lon":5.38433,"is_reserved":false,"is_disabled":false,"rental_uris":{"android":"levelo://app?vid=8b68729d-0713-45c1-a497-471ae591a0f0","ios":"levelo://app?vid=8b68729d-0713-45c1-a497-471ae591a0f0"},"vehicle_type_id":"4","last_reported":1733904819,"current_range_meters":38000,"station_id":"ce4bgg92rcd13ifvqb30","pricing_plan_id":"cebpf4jnsgd1na2vs0mg"},{"bike_id":"c9032b80-329f-4f7d-a230-eca510936573","system_id":"levelo_inurba_marseille","lat":43.24058,"lon":5.37758,"is_reserved":false,"is_disabled":false,"rental_uris":{"android":"levelo://app?vid=c9032b80-329f-4f7d-a230-eca510936573","ios":"levelo://app?vid=c9032b80-329f-4f7d-a230-eca510936573"},"vehicle_type_id":"4","last_reported":1733904819,"current_range_meters":14800,"station_id":"ce4bhnp2rcd13ifvqgvg","pricing_plan_id":"cebpf4jnsgd1na2vs0mg"},{"bike_id":"51ed6cb2-a9dc-4682-ac1c-3f08a6966e6d","system_id":"levelo_inurba_marseille","lat":43.30909,"lon":5.37241,"is_reserved":false,"is_disabled":false,"rental_uris":{"android":"levelo://app?vid=51ed6cb2-a9dc-4682-ac1c-3f08a6966e6d","ios":"levelo://app?vid=51ed6cb2-a9dc-4682-ac1c-3f08a6966e6d"},"vehicle_type_id":"4","last_reported":1733904819,"current_range_meters":30400,"station_id":"ce4bguh2rcd13ifvqckg","pricing_plan_id":"cebpf4jnsgd1na2vs0mg"},{"bike_id":"7bdec345-eeec-47c0-a1aa-d0b0f44ab6d1","system_id":"levelo_inurba_marseille","lat":43.32655,"lon":5.40997,"is_reserved":false,"is_disabled":true,"rental_uris":{"android":"levelo://app?vid=7bdec345-eeec-47c0-a1aa-d0b0f44ab6d1","ios":"levelo://app?vid=7bdec345-eeec-47c0-a1aa-d0b0f44ab6d1"},"vehicle_type_id":"4","last_reported":1733904819,"current_range_meters":38400,"station_id":"ce4bhpp2rcd13ifvqhgg","pricing_plan_id":"cebpf4jnsgd1na2vs0mg"},{"bike_id":"7dbf3a95-329e-4a62-aac0-7e4dfae6ad11","system_id":"levelo_inurba_marseille","lat":43.2418,"lon":5.39731,"is_reserved":false,"is_disabled":true,"rental_uris":{"android":"levelo://app?vid=7dbf3a95-329e-4a62-aac0-7e4dfae6ad11","ios":"levelo://app?vid=7dbf3a95-329e-4a62-aac0-7e4dfae6ad11"},"vehicle_type_id":"4","last_reported":1733904819,"current_range_meters":36400,"station_id":"ce4bhn12rcd13ifvqgpg","pricing_plan_id":"cebpf4jnsgd1na2vs0mg"},{"bike_id":"f9adc27d-c116-423a-87b2-8394b1f09956","system_id":"levelo_inurba_marseille","lat":43.27165,"lon":5.40895,"is_reserved":false,"is_disabled":false,"rental_uris":{"android":"levelo://app?vid=f9adc27d-c116-423a-87b2-8394b1f09956","ios":"levelo://app?vid=f9adc27d-c116-423a-87b2-8394b1f09956"},"vehicle_type_id":"4","last_reported":1733904819,"current_range_meters":35600,"station_id":"ce4bhl12rcd13ifvqgf0","pricing_plan_id":"cebpf4jnsgd1na2vs0mg"},{"bike_id":"653cf9b4-2cbd-42f6-8c12-d4a639176c8f","system_id":"levelo_inurba_marseille","lat":43.26957,"lon":5.38633,"is_reserved":false,"is_disabled":false,"rental_uris":{"android":"levelo://app?vid=653cf9b4-2cbd-42f6-8c12-d4a639176c8f","ios":"levelo://app?vid=653cf9b4-2cbd-42f6-8c12-d4a639176c8f"},"vehicle_type_id":"4","last_reported":1733904819,"current_range_meters":33600,"station_id":"ce4bhh92rcd13ifvqfh0","pricing_plan_id":"cebpf4jnsgd1na2vs0mg"},{"bike_id":"bb060318-3894-4d40-b07c-d146bd28299e","system_id":"levelo_inurba_marseille","lat":43.26501,"lon":5.39536,"is_reserved":false,"is_disabled":false,"rental_uris":{"android":"levelo://app?vid=bb060318-3894-4d40-b07c-d146bd28299e","ios":"levelo://app?vid=bb060318-3894-4d40-b07c-d146bd28299e"},"vehicle_type_id":"4","last_reported":1733904819,"current_range_meters":21600,"station_id":"ce4bhi12rcd13ifvqfq0","pricing_plan_id":"cebpf4jnsgd1na2vs0mg"},{"bike_id":"4b9f2e0c-e6c8-41ae-a354-ab0c34618599","system_id":"levelo_inurba_marseille","lat":43.239603,"lon":5.366352,"is_reserved":false,"is_disabled":false,"rental_uris":{"android":"levelo://app?vid=4b9f2e0c-e6c8-41ae-a354-ab0c34618599","ios":"levelo://app?vid=4b9f2e0c-e6c8-41ae-a354-ab0c34618599"},"vehicle_type_id":"4","last_reported":1733904819,"current_range_meters":38800,"station_id":"ce4bhi12rcd13ifvqfp0","pricing_plan_id":"cebpf4jnsgd1na2vs0mg"},{"bike_id":"0181be93-a1cc-4ce2-af13-2497831d097d","system_id":"levelo_inurba_marseille","lat":43.25102,"lon":5.40322,"is_reserved":false,"is_disabled":false,"rental_uris":{"android":"levelo://app?vid=0181be93-a1cc-4ce2-af13-2497831d097d","ios":"levelo://app?vid=0181be93-a1cc-4ce2-af13-2497831d097d"},"vehicle_type_id":"4","last_reported":1733904819,"current_range_meters":18000,"station_id":"ce4bhlh2rcd13ifvqgig","pricing_plan_id":"cebpf4jnsgd1na2vs0mg"},{"bike_id":"d1bcfe19-ce16-4ca8-9a54-1546d4b349e9","system_id":"levelo_inurba_marseille","lat":43.290225,"lon":5.378466,"is_reserved":false,"is_disabled":false,"rental_uris":{"android":"levelo://app?vid=d1bcfe19-ce16-4ca8-9a54-1546d4b349e9","ios":"levelo://app?vid=d1bcfe19-ce16-4ca8-9a54-1546d4b349e9"},"vehicle_type_id":"4","last_reported":1733904819,"current_range_meters":20800,"station_id":"ce4bh9p2rcd13ifvqed0","pricing_plan_id":"cebpf4jnsgd1na2vs0mg"},{"bike_id":"fc01c5e4-7dea-4de7-af6d-448142058e7d","system_id":"levelo_inurba_marseille","lat":43.30544,"lon":5.36536,"is_reserved":false,"is_disabled":false,"rental_uris":{"android":"levelo://app?vid=fc01c5e4-7dea-4de7-af6d-448142058e7d","ios":"levelo://app?vid=fc01c5e4-7dea-4de7-af6d-448142058e7d"},"vehicle_type_id":"4","last_reported":1733904819,"current_range_meters":38800,"station_id":"ce4bgs12rcd13ifvqcag","pricing_plan_id":"cebpf4jnsgd1na2vs0mg"},{"bike_id":"e465550e-421b-4f90-ab53-b2ea62ee8b48","system_id":"levelo_inurba_marseille","lat":43.29565,"lon":5.39968,"is_reserved":false,"is_disabled":false,"rental_uris":{"android":"levelo://app?vid=e465550e-421b-4f90-ab53-b2ea62ee8b48","ios":"levelo://app?vid=e465550e-421b-4f90-ab53-b2ea62ee8b48"},"vehicle_type_id":"4","last_reported":1733904819,"current_range_meters":28000,"station_id":"ce4bh312rcd13ifvqdj0","pricing_plan_id":"cebpf4jnsgd1na2vs0mg"},{"bike_id":"95d8628d-10b1-47e7-9a42-9b126ec315c6","system_id":"levelo_inurba_marseille","lat":43.23196,"lon":5.35547,"is_reserved":false,"is_disabled":false,"rental_uris":{"android":"levelo://app?vid=95d8628d-10b1-47e7-9a42-9b126ec315c6","ios":"levelo://app?vid=95d8628d-10b1-47e7-9a42-9b126ec315c6"},"vehicle_type_id":"4","last_reported":1733904819,"current_range_meters":20800,"station_id":"ce4bhu92rcd13ifvqi70","pricing_plan_id":"cebpf4jnsgd1na2vs0mg"},{"bike_id":"ff157558-4762-4775-8ebe-d59ef36bd776","system_id":"levelo_inurba_marseille","lat":43.265548,"lon":5.37293,"is_reserved":false,"is_disabled":false,"rental_uris":{"android":"levelo://app?vid=ff157558-4762-4775-8ebe-d59ef36bd776","ios":"levelo://app?vid=ff157558-4762-4775-8ebe-d59ef36bd776"},"vehicle_type_id":"4","last_reported":1733904819,"current_range_meters":9600,"station_id":"ce4bhg12rcd13ifvqf70","pricing_plan_id":"cebpf4jnsgd1na2vs0mg"},{"bike_id":"f3edc1e0-b4d5-4e69-9399-21d2d122142c","system_id":"levelo_inurba_marseille","lat":43.27971,"lon":5.38728,"is_reserved":false,"is_disabled":false,"rental_uris":{"android":"levelo://app?vid=f3edc1e0-b4d5-4e69-9399-21d2d122142c","ios":"levelo://app?vid=f3edc1e0-b4d5-4e69-9399-21d2d122142c"},"vehicle_type_id":"4","last_reported":1733904819,"current_range_meters":26800,"station_id":"ce4bhg12rcd13ifvqf80","pricing_plan_id":"cebpf4jnsgd1na2vs0mg"},{"bike_id":"570bad79-da0a-4f0e-bd71-fcfb4fde31b3","system_id":"levelo_inurba_marseille","lat":43.23957,"lon":5.36625,"is_reserved":false,"is_disabled":true,"rental_uris":{"android":"levelo://app?vid=570bad79-da0a-4f0e-bd71-fcfb4fde31b3","ios":"levelo://app?vid=570bad79-da0a-4f0e-bd71-fcfb4fde31b3"},"vehicle_type_id":"4","last_reported":1733904819,"current_range_meters":28400,"station_id":"ce4bhi12rcd13ifvqfp0","pricing_plan_id":"cebpf4jnsgd1na2vs0mg"},{"bike_id":"0f20b602-7b45-4989-92b6-4d1c64ab5468","system_id":"levelo_inurba_marseille","lat":43.26553,"lon":5.37258,"is_reserved":false,"is_disabled":false,"rental_uris":{"android":"levelo://app?vid=0f20b602-7b45-4989-92b6-4d1c64ab5468","ios":"levelo://app?vid=0f20b602-7b45-4989-92b6-4d1c64ab5468"},"vehicle_type_id":"4","last_reported":1733904819,"current_range_meters":28800,"station_id":"ce4bhg12rcd13ifvqf70","pricing_plan_id":"cebpf4jnsgd1na2vs0mg"},{"bike_id":"a01e22aa-e15d-459b-b713-2b2e4a0fb5eb","system_id":"levelo_inurba_marseille","lat":43.24077,"lon":5.37758,"is_reserved":false,"is_disabled":false,"rental_uris":{"android":"levelo://app?vid=a01e22aa-e15d-459b-b713-2b2e4a0fb5eb","ios":"levelo://app?vid=a01e22aa-e15d-459b-b713-2b2e4a0fb5eb"},"vehicle_type_id":"4","last_reported":1733904819,"current_range_meters":6400,"station_id":"ce4bhnp2rcd13ifvqgvg","pricing_plan_id":"cebpf4jnsgd1na2vs0mg"},{"bike_id":"e7864067-1489-4fd3-808a-56b2e376b2a6","system_id":"levelo_inurba_marseille","lat":43.28004,"lon":5.44187,"is_reserved":false,"is_disabled":false,"rental_uris":{"android":"levelo://app?vid=e7864067-1489-4fd3-808a-56b2e376b2a6","ios":"levelo://app?vid=e7864067-1489-4fd3-808a-56b2e376b2a6"},"vehicle_type_id":"4","last_reported":1733904819,"current_range_meters":26800,"station_id":"","pricing_plan_id":"cebpf4jnsgd1na2vs0mg"},{"bike_id":"335d82eb-5117-406f-aed8-c90c509069f9","system_id":"levelo_inurba_marseille","lat":43.25934,"lon":5.40908,"is_reserved":false,"is_disabled":false,"rental_uris":{"android":"levelo://app?vid=335d82eb-5117-406f-aed8-c90c509069f9","ios":"levelo://app?vid=335d82eb-5117-406f-aed8-c90c509069f9"},"vehicle_type_id":"4","last_reported":1733904819,"current_range_meters":27200,"station_id":"ce4bhm92rcd13ifvqglg","pricing_plan_id":"cebpf4jnsgd1na2vs0mg"},{"bike_id":"b8e7f883-5b9b-422d-81e9-d00c2442da3b","system_id":"levelo_inurba_marseille","lat":43.23066,"lon":5.35486,"is_reserved":false,"is_disabled":false,"rental_uris":{"android":"levelo://app?vid=b8e7f883-5b9b-422d-81e9-d00c2442da3b","ios":"levelo://app?vid=b8e7f883-5b9b-422d-81e9-d00c2442da3b"},"vehicle_type_id":"4","last_reported":1733904819,"current_range_meters":32000,"station_id":"cpo3342slgdg3j2ifvpg","pricing_plan_id":"cebpf4jnsgd1na2vs0mg"},{"bike_id":"1373884d-a991-4b03-b11b-ac5d83daf2ef","system_id":"levelo_inurba_marseille","lat":43.29366,"lon":5.37841,"is_reserved":false,"is_disabled":false,"rental_uris":{"android":"levelo://app?vid=1373884d-a991-4b03-b11b-ac5d83daf2ef","ios":"levelo://app?vid=1373884d-a991-4b03-b11b-ac5d83daf2ef"},"vehicle_type_id":"4","last_reported":1733904819,"current_range_meters":16000,"station_id":"ce4bgjh2rcd13ifvqbf0","pricing_plan_id":"cebpf4jnsgd1na2vs0mg"},{"bike_id":"a35e36b3-9bc1-4bfe-9b61-1b75de7ea521","system_id":"levelo_inurba_marseille","lat":43.25933,"lon":5.40912,"is_reserved":false,"is_disabled":false,"rental_uris":{"android":"levelo://app?vid=a35e36b3-9bc1-4bfe-9b61-1b75de7ea521","ios":"levelo://app?vid=a35e36b3-9bc1-4bfe-9b61-1b75de7ea521"},"vehicle_type_id":"4","last_reported":1733904819,"current_range_meters":25600,"station_id":"ce4bhm92rcd13ifvqglg","pricing_plan_id":"cebpf4jnsgd1na2vs0mg"},{"bike_id":"f78f4e7d-a540-4cbd-99d7-83208916456d","system_id":"levelo_inurba_marseille","lat":43.262134,"lon":5.374456,"is_reserved":false,"is_disabled":false,"rental_uris":{"android":"levelo://app?vid=f78f4e7d-a540-4cbd-99d7-83208916456d","ios":"levelo://app?vid=f78f4e7d-a540-4cbd-99d7-83208916456d"},"vehicle_type_id":"4","last_reported":1733904819,"current_range_meters":36800,"station_id":"ce4bhgp2rcd13ifvqfc0","pricing_plan_id":"cebpf4jnsgd1na2vs0mg"},{"bike_id":"aac345db-d41e-475c-a96f-986bffa1163f","system_id":"levelo_inurba_marseille","lat":43.29609,"lon":5.3771,"is_reserved":false,"is_disabled":true,"rental_uris":{"android":"levelo://app?vid=aac345db-d41e-475c-a96f-986bffa1163f","ios":"levelo://app?vid=aac345db-d41e-475c-a96f-986bffa1163f"},"vehicle_type_id":"4","last_reported":1733904819,"current_range_meters":24800,"station_id":"ce4bgi92rcd13ifvqb90","pricing_plan_id":"cebpf4jnsgd1na2vs0mg"},{"bike_id":"d23a8705-e529-47a4-8077-bf556f13b60b","system_id":"levelo_inurba_marseille","lat":43.31469,"lon":5.37309,"is_reserved":false,"is_disabled":false,"rental_uris":{"android":"levelo://app?vid=d23a8705-e529-47a4-8077-bf556f13b60b","ios":"levelo://app?vid=d23a8705-e529-47a4-8077-bf556f13b60b"},"vehicle_type_id":"4","last_reported":1733904819,"current_range_meters":37600,"station_id":"ce4bgt12rcd13ifvqcd0","pricing_plan_id":"cebpf4jnsgd1na2vs0mg"},{"bike_id":"e93b2209-f6db-4278-bedd-aecf0f990e7f","system_id":"levelo_inurba_marseille","lat":43.30952,"lon":5.39028,"is_reserved":false,"is_disabled":false,"rental_uris":{"android":"levelo://app?vid=e93b2209-f6db-4278-bedd-aecf0f990e7f","ios":"levelo://app?vid=e93b2209-f6db-4278-bedd-aecf0f990e7f"},"vehicle_type_id":"4","last_reported":1733904819,"current_range_meters":38000,"station_id":"ce4bgup2rcd13ifvqco0","pricing_plan_id":"cebpf4jnsgd1na2vs0mg"},{"bike_id":"a0b44e86-9121-4df3-b62a-0fc9a0d1110c","system_id":"levelo_inurba_marseille","lat":43.23061,"lon":5.3549,"is_reserved":false,"is_disabled":false,"rental_uris":{"android":"levelo://app?vid=a0b44e86-9121-4df3-b62a-0fc9a0d1110c","ios":"levelo://app?vid=a0b44e86-9121-4df3-b62a-0fc9a0d1110c"},"vehicle_type_id":"4","last_reported":1733904819,"current_range_meters":32000,"station_id":"cpo3342slgdg3j2ifvpg","pricing_plan_id":"cebpf4jnsgd1na2vs0mg"},{"bike_id":"cb564b16-5599-4c39-8076-33e40cad76ad","system_id":"levelo_inurba_marseille","lat":43.31221,"lon":5.36845,"is_reserved":false,"is_disabled":false,"rental_uris":{"android":"levelo://app?vid=cb564b16-5599-4c39-8076-33e40cad76ad","ios":"levelo://app?vid=cb564b16-5599-4c39-8076-33e40cad76ad"},"vehicle_type_id":"4","last_reported":1733904819,"current_range_meters":24400,"station_id":"ce4bgl92rcd13ifvqbq0","pricing_plan_id":"cebpf4jnsgd1na2vs0mg"},{"bike_id":"a5b86601-3b76-4a9a-9fb5-0a4c53370aee","system_id":"levelo_inurba_marseille","lat":43.30521,"lon":5.38138,"is_reserved":false,"is_disabled":false,"rental_uris":{"android":"levelo://app?vid=a5b86601-3b76-4a9a-9fb5-0a4c53370aee","ios":"levelo://app?vid=a5b86601-3b76-4a9a-9fb5-0a4c53370aee"},"vehicle_type_id":"4","last_reported":1733904819,"current_range_meters":25600,"station_id":"ce4bgup2rcd13ifvqcn0","pricing_plan_id":"cebpf4jnsgd1na2vs0mg"},{"bike_id":"462cf08f-da5e-4233-ac29-19efa267eb1e","system_id":"levelo_inurba_marseille","lat":43.31118,"lon":5.37755,"is_reserved":false,"is_disabled":true,"rental_uris":{"android":"levelo://app?vid=462cf08f-da5e-4233-ac29-19efa267eb1e","ios":"levelo://app?vid=462cf08f-da5e-4233-ac29-19efa267eb1e"},"vehicle_type_id":"4","last_reported":1733904819,"current_range_meters":400,"station_id":"ce4bgt92rcd13ifvqcg0","pricing_plan_id":"cebpf4jnsgd1na2vs0mg"},{"bike_id":"9842e302-60c5-4463-a154-2234e3c29308","system_id":"levelo_inurba_marseille","lat":43.26194,"lon":5.374504,"is_reserved":false,"is_disabled":false,"rental_uris":{"android":"levelo://app?vid=9842e302-60c5-4463-a154-2234e3c29308","ios":"levelo://app?vid=9842e302-60c5-4463-a154-2234e3c29308"},"vehicle_type_id":"4","last_reported":1733904819,"current_range_meters":36400,"station_id":"ce4bhgp2rcd13ifvqfc0","pricing_plan_id":"cebpf4jnsgd1na2vs0mg"},{"bike_id":"fc124eb6-cdb7-4239-bc9b-b00843e6082a","system_id":"levelo_inurba_marseille","lat":43.29149,"lon":5.38478,"is_reserved":false,"is_disabled":true,"rental_uris":{"android":"levelo://app?vid=fc124eb6-cdb7-4239-bc9b-b00843e6082a","ios":"levelo://app?vid=fc124eb6-cdb7-4239-bc9b-b00843e6082a"},"vehicle_type_id":"4","last_reported":1733904819,"current_range_meters":36000,"station_id":"","pricing_plan_id":"cebpf4jnsgd1na2vs0mg"},{"bike_id":"e3c35e09-4545-458b-a920-71cf0804f66f","system_id":"levelo_inurba_marseille","lat":43.25719,"lon":5.41114,"is_reserved":false,"is_disabled":false,"rental_uris":{"android":"levelo://app?vid=e3c35e09-4545-458b-a920-71cf0804f66f","ios":"levelo://app?vid=e3c35e09-4545-458b-a920-71cf0804f66f"},"vehicle_type_id":"4","last_reported":1733904819,"current_range_meters":20000,"station_id":"ce4bhkp2rcd13ifvqgd0","pricing_plan_id":"cebpf4jnsgd1na2vs0mg"},{"bike_id":"eab7c24e-3533-4637-b397-5e46bc48ccfd","system_id":"levelo_inurba_marseille","lat":43.23154,"lon":5.43719,"is_reserved":false,"is_disabled":true,"rental_uris":{"android":"levelo://app?vid=eab7c24e-3533-4637-b397-5e46bc48ccfd","ios":"levelo://app?vid=eab7c24e-3533-4637-b397-5e46bc48ccfd"},"vehicle_type_id":"4","last_reported":1733904819,"current_range_meters":400,"station_id":"ce4bhmp2rcd13ifvqgog","pricing_plan_id":"cebpf4jnsgd1na2vs0mg"},{"bike_id":"f1dcf297-2eab-4a11-839c-995798ce6efb","system_id":"levelo_inurba_marseille","lat":43.30536,"lon":5.36526,"is_reserved":false,"is_disabled":false,"rental_uris":{"android":"levelo://app?vid=f1dcf297-2eab-4a11-839c-995798ce6efb","ios":"levelo://app?vid=f1dcf297-2eab-4a11-839c-995798ce6efb"},"vehicle_type_id":"4","last_reported":1733904819,"current_range_meters":37600,"station_id":"ce4bgs12rcd13ifvqcag","pricing_plan_id":"cebpf4jnsgd1na2vs0mg"},{"bike_id":"580e0c5d-e607-4ffc-8bee-6a50bd48cc14","system_id":"levelo_inurba_marseille","lat":43.30137,"lon":5.3742,"is_reserved":false,"is_disabled":false,"rental_uris":{"android":"levelo://app?vid=580e0c5d-e607-4ffc-8bee-6a50bd48cc14","ios":"levelo://app?vid=580e0c5d-e607-4ffc-8bee-6a50bd48cc14"},"vehicle_type_id":"4","last_reported":1733904819,"current_range_meters":22800,"station_id":"ce4bgs92rcd13ifvqcc0","pricing_plan_id":"cebpf4jnsgd1na2vs0mg"},{"bike_id":"97d58032-523c-44eb-90bb-b2be72ae18e4","system_id":"levelo_inurba_marseille","lat":43.285637,"lon":5.394981,"is_reserved":false,"is_disabled":true,"rental_uris":{"android":"levelo://app?vid=97d58032-523c-44eb-90bb-b2be72ae18e4","ios":"levelo://app?vid=97d58032-523c-44eb-90bb-b2be72ae18e4"},"vehicle_type_id":"4","last_reported":1733904819,"current_range_meters":0,"station_id":"ce4bh292rcd13ifvqdg0","pricing_plan_id":"cebpf4jnsgd1na2vs0mg"},{"bike_id":"4c3e3fab-ee70-436a-b5cf-aecd0e4e855f","system_id":"levelo_inurba_marseille","lat":43.33761,"lon":5.37495,"is_reserved":false,"is_disabled":false,"rental_uris":{"android":"levelo://app?vid=4c3e3fab-ee70-436a-b5cf-aecd0e4e855f","ios":"levelo://app?vid=4c3e3fab-ee70-436a-b5cf-aecd0e4e855f"},"vehicle_type_id":"4","last_reported":1733904819,"current_range_meters":34800,"station_id":"","pricing_plan_id":"cebpf4jnsgd1na2vs0mg"},{"bike_id":"22c56b20-8742-4b04-a9dc-c71f78a955a1","system_id":"levelo_inurba_marseille","lat":43.291953,"lon":5.393325,"is_reserved":false,"is_disabled":false,"rental_uris":{"android":"levelo://app?vid=22c56b20-8742-4b04-a9dc-c71f78a955a1","ios":"levelo://app?vid=22c56b20-8742-4b04-a9dc-c71f78a955a1"},"vehicle_type_id":"4","last_reported":1733904819,"current_range_meters":29600,"station_id":"ce4bh192rcd13ifvqdd0","pricing_plan_id":"cebpf4jnsgd1na2vs0mg"},{"bike_id":"962a96b4-3298-40d0-92e0-1b449f02c0fe","system_id":"levelo_inurba_marseille","lat":43.25493,"lon":5.3765,"is_reserved":false,"is_disabled":true,"rental_uris":{"android":"levelo://app?vid=962a96b4-3298-40d0-92e0-1b449f02c0fe","ios":"levelo://app?vid=962a96b4-3298-40d0-92e0-1b449f02c0fe"},"vehicle_type_id":"4","last_reported":1733904819,"current_range_meters":32400,"station_id":"ce4bhh12rcd13ifvqff0","pricing_plan_id":"cebpf4jnsgd1na2vs0mg"},{"bike_id":"1cddb37e-2d97-416e-98ad-437aa9a20b17","system_id":"levelo_inurba_marseille","lat":43.29517,"lon":5.37512,"is_reserved":false,"is_disabled":true,"rental_uris":{"android":"levelo://app?vid=1cddb37e-2d97-416e-98ad-437aa9a20b17","ios":"levelo://app?vid=1cddb37e-2d97-416e-98ad-437aa9a20b17"},"vehicle_type_id":"4","last_reported":1733904819,"current_range_meters":22800,"station_id":"ce4bgkp2rcd13ifvqbmg","pricing_plan_id":"cebpf4jnsgd1na2vs0mg"},{"bike_id":"ba5e4c54-9e0f-419d-acd3-894b4507a88b","system_id":"levelo_inurba_marseille","lat":43.23073,"lon":5.35481,"is_reserved":false,"is_disabled":false,"rental_uris":{"android":"levelo://app?vid=ba5e4c54-9e0f-419d-acd3-894b4507a88b","ios":"levelo://app?vid=ba5e4c54-9e0f-419d-acd3-894b4507a88b"},"vehicle_type_id":"4","last_reported":1733904819,"current_range_meters":22000,"station_id":"cpo3342slgdg3j2ifvpg","pricing_plan_id":"cebpf4jnsgd1na2vs0mg"},{"bike_id":"0fc6091a-78b7-4e6b-ab49-3086aa32da9d","system_id":"levelo_inurba_marseille","lat":43.292683,"lon":5.401219,"is_reserved":false,"is_disabled":true,"rental_uris":{"android":"levelo://app?vid=0fc6091a-78b7-4e6b-ab49-3086aa32da9d","ios":"levelo://app?vid=0fc6091a-78b7-4e6b-ab49-3086aa32da9d"},"vehicle_type_id":"4","last_reported":1733904819,"current_range_meters":0,"station_id":"ce4bh312rcd13ifvqdk0","pricing_plan_id":"cebpf4jnsgd1na2vs0mg"},{"bike_id":"386f1122-3fbf-4166-ae01-85ee40363016","system_id":"levelo_inurba_marseille","lat":43.27494,"lon":5.42451,"is_reserved":false,"is_disabled":false,"rental_uris":{"android":"levelo://app?vid=386f1122-3fbf-4166-ae01-85ee40363016","ios":"levelo://app?vid=386f1122-3fbf-4166-ae01-85ee40363016"},"vehicle_type_id":"4","last_reported":1733904819,"current_range_meters":24800,"station_id":"ce4bhn92rcd13ifvqgrg","pricing_plan_id":"cebpf4jnsgd1na2vs0mg"},{"bike_id":"3d4ced06-1fdd-4a37-8ee5-3fac410ae469","system_id":"levelo_inurba_marseille","lat":43.33603,"lon":5.41032,"is_reserved":false,"is_disabled":false,"rental_uris":{"android":"levelo://app?vid=3d4ced06-1fdd-4a37-8ee5-3fac410ae469","ios":"levelo://app?vid=3d4ced06-1fdd-4a37-8ee5-3fac410ae469"},"vehicle_type_id":"4","last_reported":1733904819,"current_range_meters":8000,"station_id":"ce4bhqh2rcd13ifvqhmg","pricing_plan_id":"cebpf4jnsgd1na2vs0mg"},{"bike_id":"fffa14be-58a4-4d6c-9582-c535b5f77ae9","system_id":"levelo_inurba_marseille","lat":43.27369,"lon":5.36259,"is_reserved":false,"is_disabled":false,"rental_uris":{"android":"levelo://app?vid=fffa14be-58a4-4d6c-9582-c535b5f77ae9","ios":"levelo://app?vid=fffa14be-58a4-4d6c-9582-c535b5f77ae9"},"vehicle_type_id":"4","last_reported":1733904819,"current_range_meters":36400,"station_id":"ce4bhbh2rcd13ifvqeo0","pricing_plan_id":"cebpf4jnsgd1na2vs0mg"},{"bike_id":"3933b701-ca82-4b18-a882-72a61c67a1e4","system_id":"levelo_inurba_marseille","lat":43.24391,"lon":5.37064,"is_reserved":false,"is_disabled":true,"rental_uris":{"android":"levelo://app?vid=3933b701-ca82-4b18-a882-72a61c67a1e4","ios":"levelo://app?vid=3933b701-ca82-4b18-a882-72a61c67a1e4"},"vehicle_type_id":"4","last_reported":1733904819,"current_range_meters":33200,"station_id":"ce4bhhh2rcd13ifvqfk0","pricing_plan_id":"cebpf4jnsgd1na2vs0mg"},{"bike_id":"0dd9f3d4-c31b-4be8-8268-c40bdac9cd42","system_id":"levelo_inurba_marseille","lat":43.23966,"lon":5.36625,"is_reserved":false,"is_disabled":false,"rental_uris":{"android":"levelo://app?vid=0dd9f3d4-c31b-4be8-8268-c40bdac9cd42","ios":"levelo://app?vid=0dd9f3d4-c31b-4be8-8268-c40bdac9cd42"},"vehicle_type_id":"4","last_reported":1733904819,"current_range_meters":24400,"station_id":"ce4bhi12rcd13ifvqfp0","pricing_plan_id":"cebpf4jnsgd1na2vs0mg"},{"bike_id":"7de847b5-999b-4ee8-b873-79a7cb7ea90c","system_id":"levelo_inurba_marseille","lat":43.26253,"lon":5.39131,"is_reserved":false,"is_disabled":true,"rental_uris":{"android":"levelo://app?vid=7de847b5-999b-4ee8-b873-79a7cb7ea90c","ios":"levelo://app?vid=7de847b5-999b-4ee8-b873-79a7cb7ea90c"},"vehicle_type_id":"4","last_reported":1733904819,"current_range_meters":0,"station_id":"","pricing_plan_id":"cebpf4jnsgd1na2vs0mg"},{"bike_id":"3ee53c11-64f9-4193-a979-ade9ac0aac42","system_id":"levelo_inurba_marseille","lat":43.24067,"lon":5.37761,"is_reserved":false,"is_disabled":false,"rental_uris":{"android":"levelo://app?vid=3ee53c11-64f9-4193-a979-ade9ac0aac42","ios":"levelo://app?vid=3ee53c11-64f9-4193-a979-ade9ac0aac42"},"vehicle_type_id":"4","last_reported":1733904819,"current_range_meters":36400,"station_id":"ce4bhnp2rcd13ifvqgvg","pricing_plan_id":"cebpf4jnsgd1na2vs0mg"},{"bike_id":"ea2ab3c6-edcd-41ab-b379-919efeaa92f3","system_id":"levelo_inurba_marseille","lat":43.27315,"lon":5.38621,"is_reserved":false,"is_disabled":false,"rental_uris":{"android":"levelo://app?vid=ea2ab3c6-edcd-41ab-b379-919efeaa92f3","ios":"levelo://app?vid=ea2ab3c6-edcd-41ab-b379-919efeaa92f3"},"vehicle_type_id":"4","last_reported":1733904819,"current_range_meters":33600,"station_id":"","pricing_plan_id":"cebpf4jnsgd1na2vs0mg"},{"bike_id":"862d10f1-cbd7-4706-8e79-a636ce7d055f","system_id":"levelo_inurba_marseille","lat":43.30283,"lon":5.37696,"is_reserved":false,"is_disabled":false,"rental_uris":{"android":"levelo://app?vid=862d10f1-cbd7-4706-8e79-a636ce7d055f","ios":"levelo://app?vid=862d10f1-cbd7-4706-8e79-a636ce7d055f"},"vehicle_type_id":"4","last_reported":1733904819,"current_range_meters":28000,"station_id":"ce4bguh2rcd13ifvqcj0","pricing_plan_id":"cebpf4jnsgd1na2vs0mg"},{"bike_id":"3fe8b58e-4826-417d-b8a2-75557c984136","system_id":"levelo_inurba_marseille","lat":43.29289,"lon":5.36846,"is_reserved":false,"is_disabled":false,"rental_uris":{"android":"levelo://app?vid=3fe8b58e-4826-417d-b8a2-75557c984136","ios":"levelo://app?vid=3fe8b58e-4826-417d-b8a2-75557c984136"},"vehicle_type_id":"4","last_reported":1733904819,"current_range_meters":9200,"station_id":"ce4bhbp2rcd13ifvqesg","pricing_plan_id":"cebpf4jnsgd1na2vs0mg"},{"bike_id":"b090c047-ef6e-4f29-9670-9e59ddb02391","system_id":"levelo_inurba_marseille","lat":43.26955,"lon":5.38627,"is_reserved":false,"is_disabled":false,"rental_uris":{"android":"levelo://app?vid=b090c047-ef6e-4f29-9670-9e59ddb02391","ios":"levelo://app?vid=b090c047-ef6e-4f29-9670-9e59ddb02391"},"vehicle_type_id":"4","last_reported":1733904819,"current_range_meters":36400,"station_id":"ce4bhh92rcd13ifvqfh0","pricing_plan_id":"cebpf4jnsgd1na2vs0mg"},{"bike_id":"0746aab4-0aa3-41a2-9c13-38989b98cf94","system_id":"levelo_inurba_marseille","lat":43.3108,"lon":5.42433,"is_reserved":false,"is_disabled":false,"rental_uris":{"android":"levelo://app?vid=0746aab4-0aa3-41a2-9c13-38989b98cf94","ios":"levelo://app?vid=0746aab4-0aa3-41a2-9c13-38989b98cf94"},"vehicle_type_id":"4","last_reported":1733904819,"current_range_meters":6400,"station_id":"ce4bhp92rcd13ifvqhag","pricing_plan_id":"cebpf4jnsgd1na2vs0mg"},{"bike_id":"6a42e58e-c645-441f-b17e-8a85de1518fb","system_id":"levelo_inurba_marseille","lat":43.30159,"lon":5.38085,"is_reserved":false,"is_disabled":false,"rental_uris":{"android":"levelo://app?vid=6a42e58e-c645-441f-b17e-8a85de1518fb","ios":"levelo://app?vid=6a42e58e-c645-441f-b17e-8a85de1518fb"},"vehicle_type_id":"4","last_reported":1733904819,"current_range_meters":36800,"station_id":"ce4bgjp2rcd13ifvqbh0","pricing_plan_id":"cebpf4jnsgd1na2vs0mg"},{"bike_id":"6149d10a-ee53-4413-9592-38357ced78cb","system_id":"levelo_inurba_marseille","lat":43.26192,"lon":5.37447,"is_reserved":false,"is_disabled":true,"rental_uris":{"android":"levelo://app?vid=6149d10a-ee53-4413-9592-38357ced78cb","ios":"levelo://app?vid=6149d10a-ee53-4413-9592-38357ced78cb"},"vehicle_type_id":"4","last_reported":1733904819,"current_range_meters":31200,"station_id":"ce4bhgp2rcd13ifvqfc0","pricing_plan_id":"cebpf4jnsgd1na2vs0mg"},{"bike_id":"8878a0c5-9c2f-49ce-a531-ddeb8bc732e0","system_id":"levelo_inurba_marseille","lat":43.32537,"lon":5.4143,"is_reserved":false,"is_disabled":false,"rental_uris":{"android":"levelo://app?vid=8878a0c5-9c2f-49ce-a531-ddeb8bc732e0","ios":"levelo://app?vid=8878a0c5-9c2f-49ce-a531-ddeb8bc732e0"},"vehicle_type_id":"4","last_reported":1733904819,"current_range_meters":22000,"station_id":"ce4bhq12rcd13ifvqhhg","pricing_plan_id":"cebpf4jnsgd1na2vs0mg"},{"bike_id":"17b0f322-bf64-45bd-a37a-9618381188af","system_id":"levelo_inurba_marseille","lat":43.2981,"lon":5.38095,"is_reserved":false,"is_disabled":true,"rental_uris":{"android":"levelo://app?vid=17b0f322-bf64-45bd-a37a-9618381188af","ios":"levelo://app?vid=17b0f322-bf64-45bd-a37a-9618381188af"},"vehicle_type_id":"4","last_reported":1733904819,"current_range_meters":6800,"station_id":"ce4bgip2rcd13ifvqbb0","pricing_plan_id":"cebpf4jnsgd1na2vs0mg"},{"bike_id":"20e9db8d-d68b-4418-94af-d9d63f8c2b96","system_id":"levelo_inurba_marseille","lat":43.337444,"lon":5.374475,"is_reserved":false,"is_disabled":true,"rental_uris":{"android":"levelo://app?vid=20e9db8d-d68b-4418-94af-d9d63f8c2b96","ios":"levelo://app?vid=20e9db8d-d68b-4418-94af-d9d63f8c2b96"},"vehicle_type_id":"4","last_reported":1733904819,"current_range_meters":0,"station_id":"","pricing_plan_id":"cebpf4jnsgd1na2vs0mg"},{"bike_id":"212dcb36-0cc4-46ef-aed8-6689bffe1c76","system_id":"levelo_inurba_marseille","lat":43.26949,"lon":5.38637,"is_reserved":false,"is_disabled":false,"rental_uris":{"android":"levelo://app?vid=212dcb36-0cc4-46ef-aed8-6689bffe1c76","ios":"levelo://app?vid=212dcb36-0cc4-46ef-aed8-6689bffe1c76"},"vehicle_type_id":"4","last_reported":1733904819,"current_range_meters":9200,"station_id":"ce4bhh92rcd13ifvqfh0","pricing_plan_id":"cebpf4jnsgd1na2vs0mg"},{"bike_id":"4d055c1b-6ac5-4a67-aa66-b906b1a2739c","system_id":"levelo_inurba_marseille","lat":43.29841,"lon":5.36269,"is_reserved":false,"is_disabled":false,"rental_uris":{"android":"levelo://app?vid=4d055c1b-6ac5-4a67-aa66-b906b1a2739c","ios":"levelo://app?vid=4d055c1b-6ac5-4a67-aa66-b906b1a2739c"},"vehicle_type_id":"4","last_reported":1733904819,"current_range_meters":38800,"station_id":"ce4bgpp2rcd13ifvqc3g","pricing_plan_id":"cebpf4jnsgd1na2vs0mg"},{"bike_id":"83b30d44-c491-4280-a773-cc55b958abee","system_id":"levelo_inurba_marseille","lat":43.26559,"lon":5.39006,"is_reserved":false,"is_disabled":true,"rental_uris":{"android":"levelo://app?vid=83b30d44-c491-4280-a773-cc55b958abee","ios":"levelo://app?vid=83b30d44-c491-4280-a773-cc55b958abee"},"vehicle_type_id":"4","last_reported":1733904819,"current_range_meters":38000,"station_id":"ce4bhe12rcd13ifvqf30","pricing_plan_id":"cebpf4jnsgd1na2vs0mg"},{"bike_id":"4f44df31-e75a-41e1-824e-08f05e25a0ae","system_id":"levelo_inurba_marseille","lat":43.31369,"lon":5.36701,"is_reserved":false,"is_disabled":false,"rental_uris":{"android":"levelo://app?vid=4f44df31-e75a-41e1-824e-08f05e25a0ae","ios":"levelo://app?vid=4f44df31-e75a-41e1-824e-08f05e25a0ae"},"vehicle_type_id":"4","last_reported":1733904819,"current_range_meters":19200,"station_id":"ce4bgr92rcd13ifvqc6g","pricing_plan_id":"cebpf4jnsgd1na2vs0mg"},{"bike_id":"fe9e1dfc-8527-4c2c-bfb0-b998679347d8","system_id":"levelo_inurba_marseille","lat":43.32304,"lon":5.38263,"is_reserved":false,"is_disabled":true,"rental_uris":{"android":"levelo://app?vid=fe9e1dfc-8527-4c2c-bfb0-b998679347d8","ios":"levelo://app?vid=fe9e1dfc-8527-4c2c-bfb0-b998679347d8"},"vehicle_type_id":"4","last_reported":1733904819,"current_range_meters":16000,"station_id":"ce4bhr12rcd13ifvqhqg","pricing_plan_id":"cebpf4jnsgd1na2vs0mg"},{"bike_id":"f6f6210d-5e07-46dd-93e4-3e102dd7cb0e","system_id":"levelo_inurba_marseille","lat":43.29395,"lon":5.38885,"is_reserved":false,"is_disabled":true,"rental_uris":{"android":"levelo://app?vid=f6f6210d-5e07-46dd-93e4-3e102dd7cb0e","ios":"levelo://app?vid=f6f6210d-5e07-46dd-93e4-3e102dd7cb0e"},"vehicle_type_id":"4","last_reported":1733904819,"current_range_meters":0,"station_id":"","pricing_plan_id":"cebpf4jnsgd1na2vs0mg"},{"bike_id":"4fd19827-6af9-49b8-ad49-c1c8e7f160fe","system_id":"levelo_inurba_marseille","lat":43.30223,"lon":5.39481,"is_reserved":false,"is_disabled":true,"rental_uris":{"android":"levelo://app?vid=4fd19827-6af9-49b8-ad49-c1c8e7f160fe","ios":"levelo://app?vid=4fd19827-6af9-49b8-ad49-c1c8e7f160fe"},"vehicle_type_id":"4","last_reported":1733904819,"current_range_meters":30400,"station_id":"ce4bh0p2rcd13ifvqd70","pricing_plan_id":"cebpf4jnsgd1na2vs0mg"},{"bike_id":"58b9b2b7-b602-4f0f-8eec-c5ec58ea33ed","system_id":"levelo_inurba_marseille","lat":43.24076,"lon":5.37747,"is_reserved":false,"is_disabled":false,"rental_uris":{"android":"levelo://app?vid=58b9b2b7-b602-4f0f-8eec-c5ec58ea33ed","ios":"levelo://app?vid=58b9b2b7-b602-4f0f-8eec-c5ec58ea33ed"},"vehicle_type_id":"4","last_reported":1733904819,"current_range_meters":38000,"station_id":"ce4bhnp2rcd13ifvqgvg","pricing_plan_id":"cebpf4jnsgd1na2vs0mg"},{"bike_id":"fa47d8fd-d5ed-4d4d-a6ea-7ce4071baa05","system_id":"levelo_inurba_marseille","lat":43.2668,"lon":5.38267,"is_reserved":false,"is_disabled":false,"rental_uris":{"android":"levelo://app?vid=fa47d8fd-d5ed-4d4d-a6ea-7ce4071baa05","ios":"levelo://app?vid=fa47d8fd-d5ed-4d4d-a6ea-7ce4071baa05"},"vehicle_type_id":"4","last_reported":1733904819,"current_range_meters":27600,"station_id":"ce4bhg92rcd13ifvqf90","pricing_plan_id":"cebpf4jnsgd1na2vs0mg"},{"bike_id":"fbc810ed-e2b1-4f98-9e35-80ecee439620","system_id":"levelo_inurba_marseille","lat":43.24388,"lon":5.37063,"is_reserved":false,"is_disabled":false,"rental_uris":{"android":"levelo://app?vid=fbc810ed-e2b1-4f98-9e35-80ecee439620","ios":"levelo://app?vid=fbc810ed-e2b1-4f98-9e35-80ecee439620"},"vehicle_type_id":"4","last_reported":1733904819,"current_range_meters":38000,"station_id":"ce4bhhh2rcd13ifvqfk0","pricing_plan_id":"cebpf4jnsgd1na2vs0mg"},{"bike_id":"010d14a3-6845-4266-b6b3-c64f4f4acacf","system_id":"levelo_inurba_marseille","lat":43.28424,"lon":5.34984,"is_reserved":false,"is_disabled":false,"rental_uris":{"android":"levelo://app?vid=010d14a3-6845-4266-b6b3-c64f4f4acacf","ios":"levelo://app?vid=010d14a3-6845-4266-b6b3-c64f4f4acacf"},"vehicle_type_id":"4","last_reported":1733904819,"current_range_meters":27600,"station_id":"ce4bhbh2rcd13ifvqepg","pricing_plan_id":"cebpf4jnsgd1na2vs0mg"},{"bike_id":"f93da2cf-ee01-484d-9d72-599dafa7041b","system_id":"levelo_inurba_marseille","lat":43.33035,"lon":5.39,"is_reserved":false,"is_disabled":false,"rental_uris":{"android":"levelo://app?vid=f93da2cf-ee01-484d-9d72-599dafa7041b","ios":"levelo://app?vid=f93da2cf-ee01-484d-9d72-599dafa7041b"},"vehicle_type_id":"4","last_reported":1733904819,"current_range_meters":6400,"station_id":"ce4bhr92rcd13ifvqhrg","pricing_plan_id":"cebpf4jnsgd1na2vs0mg"},{"bike_id":"a4ef4439-f1c4-4324-a53f-ef5a63be18be","system_id":"levelo_inurba_marseille","lat":43.296091,"lon":5.377126,"is_reserved":false,"is_disabled":true,"rental_uris":{"android":"levelo://app?vid=a4ef4439-f1c4-4324-a53f-ef5a63be18be","ios":"levelo://app?vid=a4ef4439-f1c4-4324-a53f-ef5a63be18be"},"vehicle_type_id":"4","last_reported":1733904819,"current_range_meters":10800,"station_id":"ce4bgi92rcd13ifvqb90","pricing_plan_id":"cebpf4jnsgd1na2vs0mg"},