{"last_updated":1711303797,"ttl":30,"version":"2.2","data":{"bikes":[{"bike_id":"7115d7f4-e7c1-439f-91ec-5abb057e769c","system_id":"levelo_inurba_marseille","lat":43.312239,"lon":5.368562,"is_reserved":false,"is_disabled":false,"rental_uris":{"android":"levelo://app?vid=7115d7f4-e7c1-439f-91ec-5abb057e769c","ios":"levelo://app?vid=7115d7f4-e7c1-439f-91ec-5abb057e769c"},"vehicle_type_id":"4","last_reported":1711303797,"current_range_meters":400,"station_id":"ce4bgl92rcd13ifvqbq0","pricing_plan_id":"cebpf4jnsgd1na2vs0mg"},{"bike_id":"6f5c9d87-2bf5-427d-9979-6bd900d40eb8","system_id":"levelo_inurba_marseille","lat":43.312239,"lon":5.368562,"is_reserved":false,"is_disabled":false,"rental_uris":{"android":"levelo://app?vid=6f5c9d87-2bf5-427d-9979-6bd900d40eb8","ios":"levelo://app?vid=6f5c9d87-2bf5-427d-9979-6bd900d40eb8"},"vehicle_type_id":"4","last_reported":1711303797,"current_range_meters":800,"station_id":"ce4bgl92rcd13ifvqbq0","pricing_plan_id":"cebpf4jnsgd1na2vs0mg"},{"bike_id":"927fe6c4-2adb-4bde-83f9-d55dcd304e7c","system_id":"levelo_inurba_marseille","lat":43.31484,"lon":5.37305,"is_reserved":false,"is_disabled":false,"rental_uris":{"android":"levelo://app?vid=927fe6c4-2adb-4bde-83f9-d55dcd304e7c","ios":"levelo://app?vid=927fe6c4-2adb-4bde-83f9-d55dcd304e7c"},"vehicle_type_id":"4","last_reported":1711303797,"current_range_meters":0,"station_id":"ce4bgt12rcd13ifvqcd0","pricing_plan_id":"cebpf4jnsgd1na2vs0mg"},{"bike_id":"6376e473-fada-4639-a2d8-757768ab885e","system_id":"levelo_inurba_marseille","lat":43.314811,"lon":5.373103,"is_reserved":false,"is_disabled":false,"rental_uris":{"android":"levelo://app?vid=6376e473-fada-4639-a2d8-757768ab885e","ios":"levelo://app?vid=6376e473-fada-4639-a2d8-757768ab885e"},"vehicle_type_id":"4","last_reported":1711303797,"current_range_meters":4800,"station_id":"ce4bgt12rcd13ifvqcd0","pricing_plan_id":"cebpf4jnsgd1na2vs0mg"},{"bike_id":"d8ca3627-5a91-48dd-a3ff-db489c0b0e50","system_id":"levelo_inurba_marseille","lat":43.314811,"lon":5.373103,"is_reserved":false,"is_disabled":false,"rental_uris":{"android":"levelo://app?vid=d8ca3627-5a91-48dd-a3ff-db489c0b0e50","ios":"levelo://app?vid=d8ca3627-5a91-48dd-a3ff-db489c0b0e50"},"vehicle_type_id":"4","last_reported":1711303797,"current_range_meters":1600,"station_id":"ce4bgt12rcd13ifvqcd0","pricing_plan_id":"cebpf4jnsgd1na2vs0mg"},{"bike_id":"6777e732-61bd-46d2-9e79-659a0131eaed","system_id":"levelo_inurba_marseille","lat":43.3056,"lon":5.36723,"is_reserved":false,"is_disabled":false,"rental_uris":{"android":"levelo://app?vid=6777e732-61bd-46d2-9e79-659a0131eaed","ios":"levelo://app?vid=6777e732-61bd-46d2-9e79-659a0131eaed"},"vehicle_type_id":"4","last_reported":1711303797,"current_range_meters":1600,"station_id":"ce4bgrp2rcd13ifvqc9g","pricing_plan_id":"cebpf4jnsgd1na2vs0mg"},{"bike_id":"fc81208f-b1e4-4f48-9958-6adda23201d4","system_id":"levelo_inurba_marseille","lat":43.309039,"lon":5.371797,"is_reserved":false,"is_disabled":false,"rental_uris":{"android":"levelo://app?vid=fc81208f-b1e4-4f48-9958-6adda23201d4","ios":"levelo://app?vid=fc81208f-b1e4-4f48-9958-6adda23201d4"},"vehicle_type_id":"4","last_reported":1711303797,"current_range_meters":20400,"station_id":"ce4bguh2rcd13ifvqckg","pricing_plan_id":"cebpf4jnsgd1na2vs0mg"},{"bike_id":"4f006df7-4021-4894-a978-e7fbd68140e6","system_id":"levelo_inurba_marseille","lat":43.313734,"lon":5.376994,"is_reserved":false,"is_disabled":false,"rental_uris":{"android":"levelo://app?vid=4f006df7-4021-4894-a978-e7fbd68140e6","ios":"levelo://app?vid=4f006df7-4021-4894-a978-e7fbd68140e6"},"vehicle_type_id":"4","last_reported":1711303797,"current_range_meters":7200,"station_id":"","pricing_plan_id":"cebpf4jnsgd1na2vs0mg"},{"bike_id":"44721306-1a87-4c45-be43-c82077ea7be5","system_id":"levelo_inurba_marseille","lat":43.3053,"lon":5.36707,"is_reserved":false,"is_disabled":false,"rental_uris":{"android":"levelo://app?vid=44721306-1a87-4c45-be43-c82077ea7be5","ios":"levelo://app?vid=44721306-1a87-4c45-be43-c82077ea7be5"},"vehicle_type_id":"4","last_reported":1711303797,"current_range_meters":0,"station_id":"","pricing_plan_id":"cebpf4jnsgd1na2vs0mg"},{"bike_id":"6368b1aa-db25-4aff-b7df-34ce820e7748","system_id":"levelo_inurba_marseille","lat":43.305989,"lon":5.37225,"is_reserved":false,"is_disabled":false,"rental_uris":{"android":"levelo://app?vid=6368b1aa-db25-4aff-b7df-34ce820e7748","ios":"levelo://app?vid=6368b1aa-db25-4aff-b7df-34ce820e7748"},"vehicle_type_id":"4","last_reported":1711303797,"current_range_meters":0,"station_id":"ce4bgqh2rcd13ifvqc4g","pricing_plan_id":"cebpf4jnsgd1na2vs0mg"},{"bike_id":"5c4a7f0b-d1e5-49e6-83a0-5465adc15da5","system_id":"levelo_inurba_marseille","lat":43.305989,"lon":5.37225,"is_reserved":false,"is_disabled":false,"rental_uris":{"android":"levelo://app?vid=5c4a7f0b-d1e5-49e6-83a0-5465adc15da5","ios":"levelo://app?vid=5c4a7f0b-d1e5-49e6-83a0-5465adc15da5"},"vehicle_type_id":"4","last_reported":1711303797,"current_range_meters":1600,"station_id":"ce4bgqh2rcd13ifvqc4g","pricing_plan_id":"cebpf4jnsgd1na2vs0mg"},{"bike_id":"6ce03734-5fae-48ee-a988-f2f88a2536ce","system_id":"levelo_inurba_marseille","lat":43.305989,"lon":5.37225,"is_reserved":false,"is_disabled":false,"rental_uris":{"android":"levelo://app?vid=6ce03734-5fae-48ee-a988-f2f88a2536ce","ios":"levelo://app?vid=6ce03734-5fae-48ee-a988-f2f88a2536ce"},"vehicle_type_id":"4","last_reported":1711303797,"current_range_meters":0,"station_id":"ce4bgqh2rcd13ifvqc4g","pricing_plan_id":"cebpf4jnsgd1na2vs0mg"},{"bike_id":"8bdf3663-162c-4301-a19b-7b0ca69ecfac","system_id":"levelo_inurba_marseille","lat":43.311131,"lon":5.377651,"is_reserved":false,"is_disabled":false,"rental_uris":{"android":"levelo://app?vid=8bdf3663-162c-4301-a19b-7b0ca69ecfac","ios":"levelo://app?vid=8bdf3663-162c-4301-a19b-7b0ca69ecfac"},"vehicle_type_id":"4","last_reported":1711303797,"current_range_meters":21200,"station_id":"ce4bgt92rcd13ifvqcg0","pricing_plan_id":"cebpf4jnsgd1na2vs0mg"},{"bike_id":"ddb35c14-9bb2-42bb-aaf4-f25de0ca7cca","system_id":"levelo_inurba_marseille","lat":43.311131,"lon":5.377651,"is_reserved":false,"is_disabled":false,"rental_uris":{"android":"levelo://app?vid=ddb35c14-9bb2-42bb-aaf4-f25de0ca7cca","ios":"levelo://app?vid=ddb35c14-9bb2-42bb-aaf4-f25de0ca7cca"},"vehicle_type_id":"4","last_reported":1711303797,"current_range_meters":14000,"station_id":"ce4bgt92rcd13ifvqcg0","pricing_plan_id":"cebpf4jnsgd1na2vs0mg"},{"bike_id":"3bf40f28-65db-4994-8742-ef4e4063f23f","system_id":"levelo_inurba_marseille","lat":43.30785,"lon":5.376505,"is_reserved":false,"is_disabled":false,"rental_uris":{"android":"levelo://app?vid=3bf40f28-65db-4994-8742-ef4e4063f23f","ios":"levelo://app?vid=3bf40f28-65db-4994-8742-ef4e4063f23f"},"vehicle_type_id":"4","last_reported":1711303797,"current_range_meters":0,"station_id":"ce4bgv92rcd13ifvqcq0","pricing_plan_id":"cebpf4jnsgd1na2vs0mg"},{"bike_id":"b916e65d-9470-4670-a63f-7acc05595928","system_id":"levelo_inurba_marseille","lat":43.319525,"lon":5.374368,"is_reserved":false,"is_disabled":false,"rental_uris":{"android":"levelo://app?vid=b916e65d-9470-4670-a63f-7acc05595928","ios":"levelo://app?vid=b916e65d-9470-4670-a63f-7acc05595928"},"vehicle_type_id":"4","last_reported":1711303797,"current_range_meters":20800,"station_id":"","pricing_plan_id":"cebpf4jnsgd1na2vs0mg"},{"bike_id":"a39c9cab-e714-4fec-9681-e736c19ace82","system_id":"levelo_inurba_marseille","lat":43.317075,"lon":5.377367,"is_reserved":false,"is_disabled":false,"rental_uris":{"android":"levelo://app?vid=a39c9cab-e714-4fec-9681-e736c19ace82","ios":"levelo://app?vid=a39c9cab-e714-4fec-9681-e736c19ace82"},"vehicle_type_id":"4","last_reported":1711303797,"current_range_meters":6400,"station_id":"ce4bgth2rcd13ifvqch0","pricing_plan_id":"cebpf4jnsgd1na2vs0mg"},{"bike_id":"f7758a68-aede-4bd7-a33f-b0e7c40f690a","system_id":"levelo_inurba_marseille","lat":43.317075,"lon":5.377367,"is_reserved":false,"is_disabled":false,"rental_uris":{"android":"levelo://app?vid=f7758a68-aede-4bd7-a33f-b0e7c40f690a","ios":"levelo://app?vid=f7758a68-aede-4bd7-a33f-b0e7c40f690a"},"vehicle_type_id":"4","last_reported":1711303797,"current_range_meters":22800,"station_id":"ce4bgth2rcd13ifvqch0","pricing_plan_id":"cebpf4jnsgd1na2vs0mg"},{"bike_id":"7e2d67c6-a7bc-4654-8fe2-cac008dfaeee","system_id":"levelo_inurba_marseille","lat":43.317075,"lon":5.377367,"is_reserved":false,"is_disabled":false,"rental_uris":{"android":"levelo://app?vid=7e2d67c6-a7bc-4654-8fe2-cac008dfaeee","ios":"levelo://app?vid=7e2d67c6-a7bc-4654-8fe2-cac008dfaeee"},"vehicle_type_id":"4","last_reported":1711303797,"current_range_meters":4800,"station_id":"ce4bgth2rcd13ifvqch0","pricing_plan_id":"cebpf4jnsgd1na2vs0mg"},{"bike_id":"238ecaa1-31b2-4d16-b3bb-7e6befbf3378","system_id":"levelo_inurba_marseille","lat":43.313739,"lon":5.379214,"is_reserved":false,"is_disabled":false,"rental_uris":{"android":"levelo://app?vid=238ecaa1-31b2-4d16-b3bb-7e6befbf3378","ios":"levelo://app?vid=238ecaa1-31b2-4d16-b3bb-7e6befbf3378"},"vehicle_type_id":"4","last_reported":1711303797,"current_range_meters":16400,"station_id":"","pricing_plan_id":"cebpf4jnsgd1na2vs0mg"},{"bike_id":"6499ede5-c616-4abe-ba21-371ca791d34e","system_id":"levelo_inurba_marseille","lat":43.30304,"lon":5.368987,"is_reserved":false,"is_disabled":false,"rental_uris":{"android":"levelo://app?vid=6499ede5-c616-4abe-ba21-371ca791d34e","ios":"levelo://app?vid=6499ede5-c616-4abe-ba21-371ca791d34e"},"vehicle_type_id":"4","last_reported":1711303797,"current_range_meters":0,"station_id":"ce4bgqh2rcd13ifvqc5g","pricing_plan_id":"cebpf4jnsgd1na2vs0mg"},{"bike_id":"0c090971-c985-462e-a011-be74508a8414","system_id":"levelo_inurba_marseille","lat":43.315289,"lon":5.380349,"is_reserved":false,"is_disabled":false,"rental_uris":{"android":"levelo://app?vid=0c090971-c985-462e-a011-be74508a8414","ios":"levelo://app?vid=0c090971-c985-462e-a011-be74508a8414"},"vehicle_type_id":"4","last_reported":1711303797,"current_range_meters":4800,"station_id":"ce4bhsp2rcd13ifvqi50","pricing_plan_id":"cebpf4jnsgd1na2vs0mg"},{"bike_id":"3876bfcd-1e59-4ea1-85c1-143574cef857","system_id":"levelo_inurba_marseille","lat":43.308012,"lon":5.381511,"is_reserved":false,"is_disabled":false,"rental_uris":{"android":"levelo://app?vid=3876bfcd-1e59-4ea1-85c1-143574cef857","ios":"levelo://app?vid=3876bfcd-1e59-4ea1-85c1-143574cef857"},"vehicle_type_id":"4","last_reported":1711303797,"current_range_meters":22400,"station_id":"ce4bgt12rcd13ifvqce0","pricing_plan_id":"cebpf4jnsgd1na2vs0mg"},{"bike_id":"ae48da9d-69d4-4e60-82fd-175734941ba3","system_id":"levelo_inurba_marseille","lat":43.308012,"lon":5.381511,"is_reserved":false,"is_disabled":false,"rental_uris":{"android":"levelo://app?vid=ae48da9d-69d4-4e60-82fd-175734941ba3","ios":"levelo://app?vid=ae48da9d-69d4-4e60-82fd-175734941ba3"},"vehicle_type_id":"4","last_reported":1711303797,"current_range_meters":0,"station_id":"ce4bgt12rcd13ifvqce0","pricing_plan_id":"cebpf4jnsgd1na2vs0mg"},{"bike_id":"298a25eb-6c1c-44e1-af5a-31c92b79858e","system_id":"levelo_inurba_marseille","lat":43.30464,"lon":5.37898,"is_reserved":false,"is_disabled":false,"rental_uris":{"android":"levelo://app?vid=298a25eb-6c1c-44e1-af5a-31c92b79858e","ios":"levelo://app?vid=298a25eb-6c1c-44e1-af5a-31c92b79858e"},"vehicle_type_id":"4","last_reported":1711303797,"current_range_meters":1200,"station_id":"ce4bgup2rcd13ifvqcn0","pricing_plan_id":"cebpf4jnsgd1na2vs0mg"},{"bike_id":"76b8ec42-47cb-431f-a10e-f7cf0663fadf","system_id":"levelo_inurba_marseille","lat":43.3046,"lon":5.378973,"is_reserved":false,"is_disabled":false,"rental_uris":{"android":"levelo://app?vid=76b8ec42-47cb-431f-a10e-f7cf0663fadf","ios":"levelo://app?vid=76b8ec42-47cb-431f-a10e-f7cf0663fadf"},"vehicle_type_id":"4","last_reported":1711303797,"current_range_meters":400,"station_id":"ce4bgup2rcd13ifvqcn0","pricing_plan_id":"cebpf4jnsgd1na2vs0mg"},{"bike_id":"8e667e7f-f925-4183-a9f4-bd97cddc3859","system_id":"levelo_inurba_marseille","lat":43.308012,"lon":5.381511,"is_reserved":false,"is_disabled":false,"rental_uris":{"android":"levelo://app?vid=8e667e7f-f925-4183-a9f4-bd97cddc3859","ios":"levelo://app?vid=8e667e7f-f925-4183-a9f4-bd97cddc3859"},"vehicle_type_id":"4","last_reported":1711303797,"current_range_meters":15200,"station_id":"ce4bgt12rcd13ifvqce0","pricing_plan_id":"cebpf4jnsgd1na2vs0mg"},{"bike_id":"1da5e40e-58a0-4d1b-a7e7-2641b7356d14","system_id":"levelo_inurba_marseille","lat":43.32483,"lon":5.36557,"is_reserved":false,"is_disabled":false,"rental_uris":{"android":"levelo://app?vid=1da5e40e-58a0-4d1b-a7e7-2641b7356d14","ios":"levelo://app?vid=1da5e40e-58a0-4d1b-a7e7-2641b7356d14"},"vehicle_type_id":"4","last_reported":1711303797,"current_range_meters":0,"station_id":"ce4bhs12rcd13ifvqhvg","pricing_plan_id":"cebpf4jnsgd1na2vs0mg"},{"bike_id":"fa05d3e5-f409-4e05-ace7-f6f819e528e8","system_id":"levelo_inurba_marseille","lat":43.32484,"lon":5.36573,"is_reserved":false,"is_disabled":false,"rental_uris":{"android":"levelo://app?vid=fa05d3e5-f409-4e05-ace7-f6f819e528e8","ios":"levelo://app?vid=fa05d3e5-f409-4e05-ace7-f6f819e528e8"},"vehicle_type_id":"4","last_reported":1711303797,"current_range_meters":0,"station_id":"ce4bhs12rcd13ifvqhvg","pricing_plan_id":"cebpf4jnsgd1na2vs0mg"},{"bike_id":"babf6083-0f90-4505-858c-3f405538acd2","system_id":"levelo_inurba_marseille","lat":43.324771,"lon":5.36557,"is_reserved":false,"is_disabled":false,"rental_uris":{"android":"levelo://app?vid=babf6083-0f90-4505-858c-3f405538acd2","ios":"levelo://app?vid=babf6083-0f90-4505-858c-3f405538acd2"},"vehicle_type_id":"4","last_reported":1711303797,"current_range_meters":4000,"station_id":"ce4bhs12rcd13ifvqhvg","pricing_plan_id":"cebpf4jnsgd1na2vs0mg"},{"bike_id":"336f0deb-d3ca-47f4-bb53-06b808624733","system_id":"levelo_inurba_marseille","lat":43.324771,"lon":5.36557,"is_reserved":false,"is_disabled":false,"rental_uris":{"android":"levelo://app?vid=336f0deb-d3ca-47f4-bb53-06b808624733","ios":"levelo://app?vid=336f0deb-d3ca-47f4-bb53-06b808624733"},"vehicle_type_id":"4","last_reported":1711303797,"current_range_meters":21600,"station_id":"ce4bhs12rcd13ifvqhvg","pricing_plan_id":"cebpf4jnsgd1na2vs0mg"},{"bike_id":"f81a3be6-ca27-485a-9130-c8344d4340aa","system_id":"levelo_inurba_marseille","lat":43.310804,"lon":5.38359,"is_reserved":false,"is_disabled":false,"rental_uris":{"android":"levelo://app?vid=f81a3be6-ca27-485a-9130-c8344d4340aa","ios":"levelo://app?vid=f81a3be6-ca27-485a-9130-c8344d4340aa"},"vehicle_type_id":"4","last_reported":1711303797,"current_range_meters":14800,"station_id":"ce4bgv92rcd13ifvqcr0","pricing_plan_id":"cebpf4jnsgd1na2vs0mg"},{"bike_id":"4e276bad-2bc2-48a9-a9d2-32b3d82c3693","system_id":"levelo_inurba_marseille","lat":43.310804,"lon":5.38359,"is_reserved":false,"is_disabled":false,"rental_uris":{"android":"levelo://app?vid=4e276bad-2bc2-48a9-a9d2-32b3d82c3693","ios":"levelo://app?vid=4e276bad-2bc2-48a9-a9d2-32b3d82c3693"},"vehicle_type_id":"4","last_reported":1711303797,"current_range_meters":5200,"station_id":"ce4bgv92rcd13ifvqcr0","pricing_plan_id":"cebpf4jnsgd1na2vs0mg"},{"bike_id":"88983b62-af5d-48c6-90a0-01ea38eb04b1","system_id":"levelo_inurba_marseille","lat":43.310804,"lon":5.38359,"is_reserved":false,"is_disabled":false,"rental_uris":{"android":"levelo://app?vid=88983b62-af5d-48c6-90a0-01ea38eb04b1","ios":"levelo://app?vid=88983b62-af5d-48c6-90a0-01ea38eb04b1"},"vehicle_type_id":"4","last_reported":1711303797,"current_range_meters":28800,"station_id":"ce4bgv92rcd13ifvqcr0","pricing_plan_id":"cebpf4jnsgd1na2vs0mg"},{"bike_id":"f683880a-2053-4e09-9d87-67a72235fd6e","system_id":"levelo_inurba_marseille","lat":43.310804,"lon":5.38359,"is_reserved":false,"is_disabled":false,"rental_uris":{"android":"levelo://app?vid=f683880a-2053-4e09-9d87-67a72235fd6e","ios":"levelo://app?vid=f683880a-2053-4e09-9d87-67a72235fd6e"},"vehicle_type_id":"4","last_reported":1711303797,"current_range_meters":0,"station_id":"ce4bgv92rcd13ifvqcr0","pricing_plan_id":"cebpf4jnsgd1na2vs0mg"},{"bike_id":"257acba2-3b79-4ee2-a031-068a4ff723fb","system_id":"levelo_inurba_marseille","lat":43.310804,"lon":5.38359,"is_reserved":false,"is_disabled":false,"rental_uris":{"android":"levelo://app?vid=257acba2-3b79-4ee2-a031-068a4ff723fb","ios":"levelo://app?vid=257acba2-3b79-4ee2-a031-068a4ff723fb"},"vehicle_type_id":"4","last_reported":1711303797,"current_range_meters":6000,"station_id":"ce4bgv92rcd13ifvqcr0","pricing_plan_id":"cebpf4jnsgd1na2vs0mg"},{"bike_id":"88f33e58-d47d-4338-860b-1c17100d16bf","system_id":"levelo_inurba_marseille","lat":43.30285,"lon":5.37696,"is_reserved":false,"is_disabled":false,"rental_uris":{"android":"levelo://app?vid=88f33e58-d47d-4338-860b-1c17100d16bf","ios":"levelo://app?vid=88f33e58-d47d-4338-860b-1c17100d16bf"},"vehicle_type_id":"4","last_reported":1711303797,"current_range_meters":5600,"station_id":"ce4bguh2rcd13ifvqcj0","pricing_plan_id":"cebpf4jnsgd1na2vs0mg"},{"bike_id":"9fee9b9b-a740-46c5-96bd-8f0e79a39c23","system_id":"levelo_inurba_marseille","lat":43.319935,"lon":5.381699,"is_reserved":false,"is_disabled":false,"rental_uris":{"android":"levelo://app?vid=9fee9b9b-a740-46c5-96bd-8f0e79a39c23","ios":"levelo://app?vid=9fee9b9b-a740-46c5-96bd-8f0e79a39c23"},"vehicle_type_id":"4","last_reported":1711303797,"current_range_meters":0,"station_id":"ce4bhr12rcd13ifvqhpg","pricing_plan_id":"cebpf4jnsgd1na2vs0mg"},{"bike_id":"fb2dbb66-bb42-4593-8a43-4d970a924dc3","system_id":"levelo_inurba_marseille","lat":43.319935,"lon":5.381699,"is_reserved":false,"is_disabled":false,"rental_uris":{"android":"levelo://app?vid=fb2dbb66-bb42-4593-8a43-4d970a924dc3","ios":"levelo://app?vid=fb2dbb66-bb42-4593-8a43-4d970a924dc3"},"vehicle_type_id":"4","last_reported":1711303797,"current_range_meters":3200,"station_id":"ce4bhr12rcd13ifvqhpg","pricing_plan_id":"cebpf4jnsgd1na2vs0mg"},{"bike_id":"6c1e3c51-cd5a-469b-a350-c7f83832aa8a","system_id":"levelo_inurba_marseille","lat":43.319935,"lon":5.381699,"is_reserved":false,"is_disabled":false,"rental_uris":{"android":"levelo://app?vid=6c1e3c51-cd5a-469b-a350-c7f83832aa8a","ios":"levelo://app?vid=6c1e3c51-cd5a-469b-a350-c7f83832aa8a"},"vehicle_type_id":"4","last_reported":1711303797,"current_range_meters":4000,"station_id":"ce4bhr12rcd13ifvqhpg","pricing_plan_id":"cebpf4jnsgd1na2vs0mg"},{"bike_id":"ba709437-82b5-4c74-974c-4c50a356b816","system_id":"levelo_inurba_marseille","lat":43.319935,"lon":5.381699,"is_reserved":false,"is_disabled":false,"rental_uris":{"android":"levelo://app?vid=ba709437-82b5-4c74-974c-4c50a356b816","ios":"levelo://app?vid=ba709437-82b5-4c74-974c-4c50a356b816"},"vehicle_type_id":"4","last_reported":1711303797,"current_range_meters":14400,"station_id":"ce4bhr12rcd13ifvqhpg","pricing_plan_id":"cebpf4jnsgd1na2vs0mg"},{"bike_id":"4537b15c-ef49-4bc5-942a-3154a21e5b2a","system_id":"levelo_inurba_marseille","lat":43.319935,"lon":5.381699,"is_reserved":false,"is_disabled":false,"rental_uris":{"android":"levelo://app?vid=4537b15c-ef49-4bc5-942a-3154a21e5b2a","ios":"levelo://app?vid=4537b15c-ef49-4bc5-942a-3154a21e5b2a"},"vehicle_type_id":"4","last_reported":1711303797,"current_range_meters":3600,"station_id":"ce4bhr12rcd13ifvqhpg","pricing_plan_id":"cebpf4jnsgd1na2vs0mg"},{"bike_id":"cc9ebc0a-050a-40e4-ab78-114724420baa","system_id":"levelo_inurba_marseille","lat":43.319935,"lon":5.381699,"is_reserved":false,"is_disabled":false,"rental_uris":{"android":"levelo://app?vid=cc9ebc0a-050a-40e4-ab78-114724420baa","ios":"levelo://app?vid=cc9ebc0a-050a-40e4-ab78-114724420baa"},"vehicle_type_id":"4","last_reported":1711303797,"current_range_meters":7200,"station_id":"ce4bhr12rcd13ifvqhpg","pricing_plan_id":"cebpf4jnsgd1na2vs0mg"},{"bike_id":"5fd4ad89-75fe-49a9-b67c-17861194b978","system_id":"levelo_inurba_marseille","lat":43.29986,"lon":5.37172,"is_reserved":false,"is_disabled":false,"rental_uris":{"android":"levelo://app?vid=5fd4ad89-75fe-49a9-b67c-17861194b978","ios":"levelo://app?vid=5fd4ad89-75fe-49a9-b67c-17861194b978"},"vehicle_type_id":"4","last_reported":1711303797,"current_range_meters":0,"station_id":"ce4bgr92rcd13ifvqc7g","pricing_plan_id":"cebpf4jnsgd1na2vs0mg"},{"bike_id":"87e73152-e8f1-41c2-9e0c-697b60c394f3","system_id":"levelo_inurba_marseille","lat":43.2998,"lon":5.37179,"is_reserved":false,"is_disabled":false,"rental_uris":{"android":"levelo://app?vid=87e73152-e8f1-41c2-9e0c-697b60c394f3","ios":"levelo://app?vid=87e73152-e8f1-41c2-9e0c-697b60c394f3"},"vehicle_type_id":"4","last_reported":1711303797,"current_range_meters":0,"station_id":"ce4bgr92rcd13ifvqc7g","pricing_plan_id":"cebpf4jnsgd1na2vs0mg"},{"bike_id":"28cbe918-3460-4077-8a92-846535c555b5","system_id":"levelo_inurba_marseille","lat":43.299222,"lon":5.365554,"is_reserved":false,"is_disabled":false,"rental_uris":{"android":"levelo://app?vid=28cbe918-3460-4077-8a92-846535c555b5","ios":"levelo://app?vid=28cbe918-3460-4077-8a92-846535c555b5"},"vehicle_type_id":"4","last_reported":1711303797,"current_range_meters":0,"station_id":"ce4bgm92rcd13ifvqbr0","pricing_plan_id":"cebpf4jnsgd1na2vs0mg"},{"bike_id":"8c812b45-c9ac-4edb-9085-56ae742a406d","system_id":"levelo_inurba_marseille","lat":43.305364,"lon":5.384119,"is_reserved":false,"is_disabled":false,"rental_uris":{"android":"levelo://app?vid=8c812b45-c9ac-4edb-9085-56ae742a406d","ios":"levelo://app?vid=8c812b45-c9ac-4edb-9085-56ae742a406d"},"vehicle_type_id":"4","last_reported":1711303797,"current_range_meters":5600,"station_id":"ce4bgg92rcd13ifvqb30","pricing_plan_id":"cebpf4jnsgd1na2vs0mg"},{"bike_id":"83476a85-6768-48f5-b45f-461643e4fa95","system_id":"levelo_inurba_marseille","lat":43.31167,"lon":5.38718,"is_reserved":false,"is_disabled":false,"rental_uris":{"android":"levelo://app?vid=83476a85-6768-48f5-b45f-461643e4fa95","ios":"levelo://app?vid=83476a85-6768-48f5-b45f-461643e4fa95"},"vehicle_type_id":"4","last_reported":1711303797,"current_range_meters":2000,"station_id":"ce4bgv12rcd13ifvqcp0","pricing_plan_id":"cebpf4jnsgd1na2vs0mg"},{"bike_id":"78e0b5cc-92f2-4092-a4c4-354bbea2284b","system_id":"levelo_inurba_marseille","lat":43.311722,"lon":5.387247,"is_reserved":false,"is_disabled":false,"rental_uris":{"android":"levelo://app?vid=78e0b5cc-92f2-4092-a4c4-354bbea2284b","ios":"levelo://app?vid=78e0b5cc-92f2-4092-a4c4-354bbea2284b"},"vehicle_type_id":"4","last_reported":1711303797,"current_range_meters":19600,"station_id":"ce4bgv12rcd13ifvqcp0","pricing_plan_id":"cebpf4jnsgd1na2vs0mg"},{"bike_id":"2304bdad-ec66-46a3-8d52-123da4056610","system_id":"levelo_inurba_marseille","lat":43.311722,"lon":5.387247,"is_reserved":false,"is_disabled":false,"rental_uris":{"android":"levelo://app?vid=2304bdad-ec66-46a3-8d52-123da4056610","ios":"levelo://app?vid=2304bdad-ec66-46a3-8d52-123da4056610"},"vehicle_type_id":"4","last_reported":1711303797,"current_range_meters":400,"station_id":"ce4bgv12rcd13ifvqcp0","pricing_plan_id":"cebpf4jnsgd1na2vs0mg"},{"bike_id":"85c868b7-b610-4f89-a6d7-092d40155d4f","system_id":"levelo_inurba_marseille","lat":43.297794,"lon":5.370888,"is_reserved":false,"is_disabled":false,"rental_uris":{"android":"levelo://app?vid=85c868b7-b610-4f89-a6d7-092d40155d4f","ios":"levelo://app?vid=85c868b7-b610-4f89-a6d7-092d40155d4f"},"vehicle_type_id":"4","last_reported":1711303797,"current_range_meters":6800,"station_id":"ce4bgop2rcd13ifvqc1g","pricing_plan_id":"cebpf4jnsgd1na2vs0mg"},{"bike_id":"207cdac5-b3e6-4d55-8f97-75f17398d943","system_id":"levelo_inurba_marseille","lat":43.322872,"lon":5.382756,"is_reserved":false,"is_disabled":false,"rental_uris":{"android":"levelo://app?vid=207cdac5-b3e6-4d55-8f97-75f17398d943","ios":"levelo://app?vid=207cdac5-b3e6-4d55-8f97-75f17398d943"},"vehicle_type_id":"4","last_reported":1711303797,"current_range_meters":6400,"station_id":"ce4bhr12rcd13ifvqhqg","pricing_plan_id":"cebpf4jnsgd1na2vs0mg"},{"bike_id":"feead7e7-9cee-4c57-94a6-da647512767c","system_id":"levelo_inurba_marseille","lat":43.322896,"lon":5.382515,"is_reserved":false,"is_disabled":false,"rental_uris":{"android":"levelo://app?vid=feead7e7-9cee-4c57-94a6-da647512767c","ios":"levelo://app?vid=feead7e7-9cee-4c57-94a6-da647512767c"},"vehicle_type_id":"4","last_reported":1711303797,"current_range_meters":2400,"station_id":"ce4bhr12rcd13ifvqhqg","pricing_plan_id":"cebpf4jnsgd1na2vs0mg"},{"bike_id":"8b004ee8-7400-4db7-97a8-7a3b78ef5c51","system_id":"levelo_inurba_marseille","lat":43.32293,"lon":5.38255,"is_reserved":false,"is_disabled":false,"rental_uris":{"android":"levelo://app?vid=8b004ee8-7400-4db7-97a8-7a3b78ef5c51","ios":"levelo://app?vid=8b004ee8-7400-4db7-97a8-7a3b78ef5c51"},"vehicle_type_id":"4","last_reported":1711303797,"current_range_meters":23600,"station_id":"ce4bhr12rcd13ifvqhqg","pricing_plan_id":"cebpf4jnsgd1na2vs0mg"},{"bike_id":"5f24820b-6f11-4d7d-800a-ef3c0874d7ec","system_id":"levelo_inurba_marseille","lat":43.32292,"lon":5.38262,"is_reserved":false,"is_disabled":false,"rental_uris":{"android":"levelo://app?vid=5f24820b-6f11-4d7d-800a-ef3c0874d7ec","ios":"levelo://app?vid=5f24820b-6f11-4d7d-800a-ef3c0874d7ec"},"vehicle_type_id":"4","last_reported":1711303797,"current_range_meters":17600,"station_id":"ce4bhr12rcd13ifvqhqg","pricing_plan_id":"cebpf4jnsgd1na2vs0mg"},{"bike_id":"3ff125a5-dff1-4591-b6cc-449dc2424878","system_id":"levelo_inurba_marseille","lat":43.322872,"lon":5.382689,"is_reserved":false,"is_disabled":false,"rental_uris":{"android":"levelo://app?vid=3ff125a5-dff1-4591-b6cc-449dc2424878","ios":"levelo://app?vid=3ff125a5-dff1-4591-b6cc-449dc2424878"},"vehicle_type_id":"4","last_reported":1711303797,"current_range_meters":1200,"station_id":"ce4bhr12rcd13ifvqhqg","pricing_plan_id":"cebpf4jnsgd1na2vs0mg"},{"bike_id":"452f5a12-5840-4928-8e50-d0aee6036731","system_id":"levelo_inurba_marseille","lat":43.32293,"lon":5.38264,"is_reserved":false,"is_disabled":false,"rental_uris":{"android":"levelo://app?vid=452f5a12-5840-4928-8e50-d0aee6036731","ios":"levelo://app?vid=452f5a12-5840-4928-8e50-d0aee6036731"},"vehicle_type_id":"4","last_reported":1711303797,"current_range_meters":6400,"station_id":"ce4bhr12rcd13ifvqhqg","pricing_plan_id":"cebpf4jnsgd1na2vs0mg"},{"bike_id":"5d8768c3-c16c-4f03-812d-0467d2c881f1","system_id":"levelo_inurba_marseille","lat":43.322872,"lon":5.382756,"is_reserved":false,"is_disabled":false,"rental_uris":{"android":"levelo://app?vid=5d8768c3-c16c-4f03-812d-0467d2c881f1","ios":"levelo://app?vid=5d8768c3-c16c-4f03-812d-0467d2c881f1"},"vehicle_type_id":"4","last_reported":1711303797,"current_range_meters":19600,"station_id":"ce4bhr12rcd13ifvqhqg","pricing_plan_id":"cebpf4jnsgd1na2vs0mg"},{"bike_id":"85d4d71c-b2c1-426a-b0b8-be8461195f7e","system_id":"levelo_inurba_marseille","lat":43.322872,"lon":5.382756,"is_reserved":false,"is_disabled":false,"rental_uris":{"android":"levelo://app?vid=85d4d71c-b2c1-426a-b0b8-be8461195f7e","ios":"levelo://app?vid=85d4d71c-b2c1-426a-b0b8-be8461195f7e"},"vehicle_type_id":"4","last_reported":1711303797,"current_range_meters":31200,"station_id":"ce4bhr12rcd13ifvqhqg","pricing_plan_id":"cebpf4jnsgd1na2vs0mg"},{"bike_id":"a2ee1e43-dd55-4286-9b87-053cf67c3419","system_id":"levelo_inurba_marseille","lat":43.322872,"lon":5.382756,"is_reserved":false,"is_disabled":false,"rental_uris":{"android":"levelo://app?vid=a2ee1e43-dd55-4286-9b87-053cf67c3419","ios":"levelo://app?vid=a2ee1e43-dd55-4286-9b87-053cf67c3419"},"vehicle_type_id":"4","last_reported":1711303797,"current_range_meters":26000,"station_id":"ce4bhr12rcd13ifvqhqg","pricing_plan_id":"cebpf4jnsgd1na2vs0mg"},{"bike_id":"9607cebd-f2b1-4cda-94e6-b812c1eeae5d","system_id":"levelo_inurba_marseille","lat":43.322872,"lon":5.382756,"is_reserved":false,"is_disabled":false,"rental_uris":{"android":"levelo://app?vid=9607cebd-f2b1-4cda-94e6-b812c1eeae5d","ios":"levelo://app?vid=9607cebd-f2b1-4cda-94e6-b812c1eeae5d"},"vehicle_type_id":"4","last_reported":1711303797,"current_range_meters":28800,"station_id":"ce4bhr12rcd13ifvqhqg","pricing_plan_id":"cebpf4jnsgd1na2vs0mg"},{"bike_id":"8ae94461-dd43-4010-a5cf-039b6b462b0b","system_id":"levelo_inurba_marseille","lat":43.297163,"lon":5.365866,"is_reserved":false,"is_disabled":false,"rental_uris":{"android":"levelo://app?vid=8ae94461-dd43-4010-a5cf-039b6b462b0b","ios":"levelo://app?vid=8ae94461-dd43-4010-a5cf-039b6b462b0b"},"vehicle_type_id":"4","last_reported":1711303797,"current_range_meters":8400,"station_id":"ce4bgn12rcd13ifvqbt0","pricing_plan_id":"cebpf4jnsgd1na2vs0mg"},{"bike_id":"d63d844c-893d-431f-86b7-a508f8ecf186","system_id":"levelo_inurba_marseille","lat":43.29712,"lon":5.36607,"is_reserved":false,"is_disabled":false,"rental_uris":{"android":"levelo://app?vid=d63d844c-893d-431f-86b7-a508f8ecf186","ios":"levelo://app?vid=d63d844c-893d-431f-86b7-a508f8ecf186"},"vehicle_type_id":"4","last_reported":1711303797,"current_range_meters":0,"station_id":"ce4bgn12rcd13ifvqbt0","pricing_plan_id":"cebpf4jnsgd1na2vs0mg"},{"bike_id":"006d7041-29d7-4233-8064-20ec98d8dbbf","system_id":"levelo_inurba_marseille","lat":43.297163,"lon":5.365866,"is_reserved":false,"is_disabled":false,"rental_uris":{"android":"levelo://app?vid=006d7041-29d7-4233-8064-20ec98d8dbbf","ios":"levelo://app?vid=006d7041-29d7-4233-8064-20ec98d8dbbf"},"vehicle_type_id":"4","last_reported":1711303797,"current_range_meters":18400,"station_id":"ce4bgn12rcd13ifvqbt0","pricing_plan_id":"cebpf4jnsgd1na2vs0mg"},{"bike_id":"2bca6a67-827a-4516-a841-9d896105ae32","system_id":"levelo_inurba_marseille","lat":43.297163,"lon":5.365866,"is_reserved":false,"is_disabled":false,"rental_uris":{"android":"levelo://app?vid=2bca6a67-827a-4516-a841-9d896105ae32","ios":"levelo://app?vid=2bca6a67-827a-4516-a841-9d896105ae32"},"vehicle_type_id":"4","last_reported":1711303797,"current_range_meters":0,"station_id":"ce4bgn12rcd13ifvqbt0","pricing_plan_id":"cebpf4jnsgd1na2vs0mg"},{"bike_id":"69999a80-52ef-43fd-9047-901c7ed12489","system_id":"levelo_inurba_marseille","lat":43.29707,"lon":5.36616,"is_reserved":false,"is_disabled":false,"rental_uris":{"android":"levelo://app?vid=69999a80-52ef-43fd-9047-901c7ed12489","ios":"levelo://app?vid=69999a80-52ef-43fd-9047-901c7ed12489"},"vehicle_type_id":"4","last_reported":1711303797,"current_range_meters":0,"station_id":"ce4bgn12rcd13ifvqbt0","pricing_plan_id":"cebpf4jnsgd1na2vs0mg"},{"bike_id":"7eb03494-245d-4d7f-bbd4-19fb56121861","system_id":"levelo_inurba_marseille","lat":43.29583,"lon":5.36748,"is_reserved":false,"is_disabled":false,"rental_uris":{"android":"levelo://app?vid=7eb03494-245d-4d7f-bbd4-19fb56121861","ios":"levelo://app?vid=7eb03494-245d-4d7f-bbd4-19fb56121861"},"vehicle_type_id":"4","last_reported":1711303797,"current_range_meters":0,"station_id":"ce4bgph2rcd13ifvqc2g","pricing_plan_id":"cebpf4jnsgd1na2vs0mg"},{"bike_id":"28808175-7d13-4174-92a6-8673e6ead4e5","system_id":"levelo_inurba_marseille","lat":43.296935,"lon":5.376544,"is_reserved":false,"is_disabled":false,"rental_uris":{"android":"levelo://app?vid=28808175-7d13-4174-92a6-8673e6ead4e5","ios":"levelo://app?vid=28808175-7d13-4174-92a6-8673e6ead4e5"},"vehicle_type_id":"4","last_reported":1711303797,"current_range_meters":17200,"station_id":"ce4bgkh2rcd13ifvqbl0","pricing_plan_id":"cebpf4jnsgd1na2vs0mg"},{"bike_id":"5a9fdb5d-4dd1-49fd-9013-e0d0208e106f","system_id":"levelo_inurba_marseille","lat":43.309589,"lon":5.390258,"is_reserved":false,"is_disabled":false,"rental_uris":{"android":"levelo://app?vid=5a9fdb5d-4dd1-49fd-9013-e0d0208e106f","ios":"levelo://app?vid=5a9fdb5d-4dd1-49fd-9013-e0d0208e106f"},"vehicle_type_id":"4","last_reported":1711303797,"current_range_meters":800,"station_id":"ce4bgup2rcd13ifvqco0","pricing_plan_id":"cebpf4jnsgd1na2vs0mg"},{"bike_id":"108b021b-0b52-4a71-ac5b-03d3ab2bbf45","system_id":"levelo_inurba_marseille","lat":43.309589,"lon":5.390258,"is_reserved":false,"is_disabled":false,"rental_uris":{"android":"levelo://app?vid=108b021b-0b52-4a71-ac5b-03d3ab2bbf45","ios":"levelo://app?vid=108b021b-0b52-4a71-ac5b-03d3ab2bbf45"},"vehicle_type_id":"4","last_reported":1711303797,"current_range_meters":7600,"station_id":"ce4bgup2rcd13ifvqco0","pricing_plan_id":"cebpf4jnsgd1na2vs0mg"},{"bike_id":"07e6a93a-12a0-4673-8efb-631449cdaa9a","system_id":"levelo_inurba_marseille","lat":43.309589,"lon":5.390258,"is_reserved":false,"is_disabled":false,"rental_uris":{"android":"levelo://app?vid=07e6a93a-12a0-4673-8efb-631449cdaa9a","ios":"levelo://app?vid=07e6a93a-12a0-4673-8efb-631449cdaa9a"},"vehicle_type_id":"4","last_reported":1711303797,"current_range_meters":21200,"station_id":"ce4bgup2rcd13ifvqco0","pricing_plan_id":"cebpf4jnsgd1na2vs0mg"},{"bike_id":"dca365fc-f929-4d3e-812d-31a1f1abfda2","system_id":"levelo_inurba_marseille","lat":43.309589,"lon":5.390258,"is_reserved":false,"is_disabled":false,"rental_uris":{"android":"levelo://app?vid=dca365fc-f929-4d3e-812d-31a1f1abfda2","ios":"levelo://app?vid=dca365fc-f929-4d3e-812d-31a1f1abfda2"},"vehicle_type_id":"4","last_reported":1711303797,"current_range_meters":12400,"station_id":"ce4bgup2rcd13ifvqco0","pricing_plan_id":"cebpf4jnsgd1na2vs0mg"},{"bike_id":"8c277ddf-a20d-40ce-8cde-62289e127827","system_id":"levelo_inurba_marseille","lat":43.293009,"lon":5.374584,"is_reserved":false,"is_disabled":false,"rental_uris":{"android":"levelo://app?vid=8c277ddf-a20d-40ce-8cde-62289e127827","ios":"levelo://app?vid=8c277ddf-a20d-40ce-8cde-62289e127827"},"vehicle_type_id":"4","last_reported":1711303797,"current_range_meters":27200,"station_id":"ce4bgi12rcd13ifvqb70","pricing_plan_id":"cebpf4jnsgd1na2vs0mg"},{"bike_id":"47672dcd-9f56-4cb3-8352-03d8416fe4d4","system_id":"levelo_inurba_marseille","lat":43.317557,"lon":5.390173,"is_reserved":false,"is_disabled":false,"rental_uris":{"android":"levelo://app?vid=47672dcd-9f56-4cb3-8352-03d8416fe4d4","ios":"levelo://app?vid=47672dcd-9f56-4cb3-8352-03d8416fe4d4"},"vehicle_type_id":"4","last_reported":1711303797,"current_range_meters":0,"station_id":"ce4bhqp2rcd13ifvqhng","pricing_plan_id":"cebpf4jnsgd1na2vs0mg"},{"bike_id":"9e25c1f0-3237-4db7-a382-be2bcc5374b9","system_id":"levelo_inurba_marseille","lat":43.31755,"lon":5.39016,"is_reserved":false,"is_disabled":false,"rental_uris":{"android":"levelo://app?vid=9e25c1f0-3237-4db7-a382-be2bcc5374b9","ios":"levelo://app?vid=9e25c1f0-3237-4db7-a382-be2bcc5374b9"},"vehicle_type_id":"4","last_reported":1711303797,"current_range_meters":15200,"station_id":"ce4bhqp2rcd13ifvqhng","pricing_plan_id":"cebpf4jnsgd1na2vs0mg"},{"bike_id":"2127399f-d128-416b-8ad4-76d643702b2b","system_id":"levelo_inurba_marseille","lat":43.317557,"lon":5.390173,"is_reserved":false,"is_disabled":false,"rental_uris":{"android":"levelo://app?vid=2127399f-d128-416b-8ad4-76d643702b2b","ios":"levelo://app?vid=2127399f-d128-416b-8ad4-76d643702b2b"},"vehicle_type_id":"4","last_reported":1711303797,"current_range_meters":24000,"station_id":"ce4bhqp2rcd13ifvqhng","pricing_plan_id":"cebpf4jnsgd1na2vs0mg"},{"bike_id":"6754a9e9-66e4-4669-85ef-d70f15e7e6a9","system_id":"levelo_inurba_marseille","lat":43.31751,"lon":5.39018,"is_reserved":false,"is_disabled":false,"rental_uris":{"android":"levelo://app?vid=6754a9e9-66e4-4669-85ef-d70f15e7e6a9","ios":"levelo://app?vid=6754a9e9-66e4-4669-85ef-d70f15e7e6a9"},"vehicle_type_id":"4","last_reported":1711303797,"current_range_meters":4400,"station_id":"ce4bhqp2rcd13ifvqhng","pricing_plan_id":"cebpf4jnsgd1na2vs0mg"},{"bike_id":"655aa1d0-cd5b-4fe3-baa3-fa62dfaf2660","system_id":"levelo_inurba_marseille","lat":43.317557,"lon":5.390173,"is_reserved":false,"is_disabled":false,"rental_uris":{"android":"levelo://app?vid=655aa1d0-cd5b-4fe3-baa3-fa62dfaf2660","ios":"levelo://app?vid=655aa1d0-cd5b-4fe3-baa3-fa62dfaf2660"},"vehicle_type_id":"4","last_reported":1711303797,"current_range_meters":26800,"station_id":"ce4bhqp2rcd13ifvqhng","pricing_plan_id":"cebpf4jnsgd1na2vs0mg"},{"bike_id":"62494356-3744-4bc9-9f08-58ebc37cf503","system_id":"levelo_inurba_marseille","lat":43.317557,"lon":5.390173,"is_reserved":false,"is_disabled":false,"rental_uris":{"android":"levelo://app?vid=62494356-3744-4bc9-9f08-58ebc37cf503","ios":"levelo://app?vid=62494356-3744-4bc9-9f08-58ebc37cf503"},"vehicle_type_id":"4","last_reported":1711303797,"current_range_meters":14800,"station_id":"ce4bhqp2rcd13ifvqhng","pricing_plan_id":"cebpf4jnsgd1na2vs0mg"},{"bike_id":"9c00e332-e493-41ed-bbf7-57fae36097c1","system_id":"levelo_inurba_marseille","lat":43.31758,"lon":5.39025,"is_reserved":false,"is_disabled":false,"rental_uris":{"android":"levelo://app?vid=9c00e332-e493-41ed-bbf7-57fae36097c1","ios":"levelo://app?vid=9c00e332-e493-41ed-bbf7-57fae36097c1"},"vehicle_type_id":"4","last_reported":1711303797,"current_range_meters":0,"station_id":"ce4bhqp2rcd13ifvqhng","pricing_plan_id":"cebpf4jnsgd1na2vs0mg"},{"bike_id":"a84494ff-e488-44c6-9347-0b89aeb12141","system_id":"levelo_inurba_marseille","lat":43.317557,"lon":5.39026,"is_reserved":false,"is_disabled":false,"rental_uris":{"android":"levelo://app?vid=a84494ff-e488-44c6-9347-0b89aeb12141","ios":"levelo://app?vid=a84494ff-e488-44c6-9347-0b89aeb12141"},"vehicle_type_id":"4","last_reported":1711303797,"current_range_meters":4400,"station_id":"ce4bhqp2rcd13ifvqhng","pricing_plan_id":"cebpf4jnsgd1na2vs0mg"},{"bike_id":"64faaf0e-8299-47ab-9335-1274f7d2f7f6","system_id":"levelo_inurba_marseille","lat":43.317564,"lon":5.390315,"is_reserved":false,"is_disabled":false,"rental_uris":{"android":"levelo://app?vid=64faaf0e-8299-47ab-9335-1274f7d2f7f6","ios":"levelo://app?vid=64faaf0e-8299-47ab-9335-1274f7d2f7f6"},"vehicle_type_id":"4","last_reported":1711303797,"current_range_meters":6800,"station_id":"ce4bhqp2rcd13ifvqhng","pricing_plan_id":"cebpf4jnsgd1na2vs0mg"},{"bike_id":"75d9299d-807d-4386-84b1-ccfff65c25e5","system_id":"levelo_inurba_marseille","lat":43.298037,"lon":5.381066,"is_reserved":false,"is_disabled":false,"rental_uris":{"android":"levelo://app?vid=75d9299d-807d-4386-84b1-ccfff65c25e5","ios":"levelo://app?vid=75d9299d-807d-4386-84b1-ccfff65c25e5"},"vehicle_type_id":"4","last_reported":1711303797,"current_range_meters":400,"station_id":"ce4bgip2rcd13ifvqbb0","pricing_plan_id":"cebpf4jnsgd1na2vs0mg"},{"bike_id":"a7f74460-8e67-4a53-90aa-e86063f3cb3d","system_id":"levelo_inurba_marseille","lat":43.298037,"lon":5.381066,"is_reserved":false,"is_disabled":false,"rental_uris":{"android":"levelo://app?vid=a7f74460-8e67-4a53-90aa-e86063f3cb3d","ios":"levelo://app?vid=a7f74460-8e67-4a53-90aa-e86063f3cb3d"},"vehicle_type_id":"4","last_reported":1711303797,"current_range_meters":5600,"station_id":"ce4bgip2rcd13ifvqbb0","pricing_plan_id":"cebpf4jnsgd1na2vs0mg"},{"bike_id":"4cb48812-6c4d-43fa-ac59-ac357f021cb0","system_id":"levelo_inurba_marseille","lat":43.29791,"lon":5.38092,"is_reserved":false,"is_disabled":false,"rental_uris":{"android":"levelo://app?vid=4cb48812-6c4d-43fa-ac59-ac357f021cb0","ios":"levelo://app?vid=4cb48812-6c4d-43fa-ac59-ac357f021cb0"},"vehicle_type_id":"4","last_reported":1711303797,"current_range_meters":0,"station_id":"ce4bgip2rcd13ifvqbb0","pricing_plan_id":"cebpf4jnsgd1na2vs0mg"},{"bike_id":"805f9f76-2466-49b1-8bbb-eb4f93103b0f","system_id":"levelo_inurba_marseille","lat":43.29627,"lon":5.37718,"is_reserved":false,"is_disabled":false,"rental_uris":{"android":"levelo://app?vid=805f9f76-2466-49b1-8bbb-eb4f93103b0f","ios":"levelo://app?vid=805f9f76-2466-49b1-8bbb-eb4f93103b0f"},"vehicle_type_id":"4","last_reported":1711303797,"current_range_meters":0,"station_id":"ce4bgi92rcd13ifvqb90","pricing_plan_id":"cebpf4jnsgd1na2vs0mg"},{"bike_id":"91ca1949-8d29-4d55-937c-f19cc78d4a7f","system_id":"levelo_inurba_marseille","lat":43.296277,"lon":5.377108,"is_reserved":false,"is_disabled":false,"rental_uris":{"android":"levelo://app?vid=91ca1949-8d29-4d55-937c-f19cc78d4a7f","ios":"levelo://app?vid=91ca1949-8d29-4d55-937c-f19cc78d4a7f"},"vehicle_type_id":"4","last_reported":1711303797,"current_range_meters":15600,"station_id":"ce4bgi92rcd13ifvqb90","pricing_plan_id":"cebpf4jnsgd1na2vs0mg"},{"bike_id":"1e951b4d-0cde-45c7-86d0-cf0280502dbf","system_id":"levelo_inurba_marseille","lat":43.29589,"lon":5.3761,"is_reserved":false,"is_disabled":false,"rental_uris":{"android":"levelo://app?vid=1e951b4d-0cde-45c7-86d0-cf0280502dbf","ios":"levelo://app?vid=1e951b4d-0cde-45c7-86d0-cf0280502dbf"},"vehicle_type_id":"4","last_reported":1711303797,"current_range_meters":0,"station_id":"","pricing_plan_id":"cebpf4jnsgd1na2vs0mg"},{"bike_id":"9fb3120e-bdc4-4885-8f8c-768727f1003c","system_id":"levelo_inurba_marseille","lat":43.298037,"lon":5.381066,"is_reserved":false,"is_disabled":false,"rental_uris":{"android":"levelo://app?vid=9fb3120e-bdc4-4885-8f8c-768727f1003c","ios":"levelo://app?vid=9fb3120e-bdc4-4885-8f8c-768727f1003c"},"vehicle_type_id":"4","last_reported":1711303797,"current_range_meters":6000,"station_id":"ce4bgip2rcd13ifvqbb0","pricing_plan_id":"cebpf4jnsgd1na2vs0mg"},{"bike_id":"4de65222-69ad-4ae8-acbb-9d7a603043f1","system_id":"levelo_inurba_marseille","lat":43.295299,"lon":5.375036,"is_reserved":false,"is_disabled":false,"rental_uris":{"android":"levelo://app?vid=4de65222-69ad-4ae8-acbb-9d7a603043f1","ios":"levelo://app?vid=4de65222-69ad-4ae8-acbb-9d7a603043f1"},"vehicle_type_id":"4","last_reported":1711303797,"current_range_meters":0,"station_id":"ce4bgkp2rcd13ifvqbmg","pricing_plan_id":"cebpf4jnsgd1na2vs0mg"},{"bike_id":"617b0e6f-676e-40f0-bbaf-c9395e5b4dcd","system_id":"levelo_inurba_marseille","lat":43.314599,"lon":5.392134,"is_reserved":false,"is_disabled":false,"rental_uris":{"android":"levelo://app?vid=617b0e6f-676e-40f0-bbaf-c9395e5b4dcd","ios":"levelo://app?vid=617b0e6f-676e-40f0-bbaf-c9395e5b4dcd"},"vehicle_type_id":"4","last_reported":1711303797,"current_range_meters":6400,"station_id":"","pricing_plan_id":"cebpf4jnsgd1na2vs0mg"},{"bike_id":"1ce2726e-1c0b-474b-8d4b-eaa4a4052289","system_id":"levelo_inurba_marseille","lat":43.299724,"lon":5.384848,"is_reserved":false,"is_disabled":false,"rental_uris":{"android":"levelo://app?vid=1ce2726e-1c0b-474b-8d4b-eaa4a4052289","ios":"levelo://app?vid=1ce2726e-1c0b-474b-8d4b-eaa4a4052289"},"vehicle_type_id":"4","last_reported":1711303797,"current_range_meters":0,"station_id":"ce4bgj92rcd13ifvqbd0","pricing_plan_id":"cebpf4jnsgd1na2vs0mg"},{"bike_id":"bf9bf615-bce6-4b76-a67d-ae2385bcd89c","system_id":"levelo_inurba_marseille","lat":43.314628,"lon":5.392225,"is_reserved":false,"is_disabled":false,"rental_uris":{"android":"levelo://app?vid=bf9bf615-bce6-4b76-a67d-ae2385bcd89c","ios":"levelo://app?vid=bf9bf615-bce6-4b76-a67d-ae2385bcd89c"},"vehicle_type_id":"4","last_reported":1711303797,"current_range_meters":31200,"station_id":"","pricing_plan_id":"cebpf4jnsgd1na2vs0mg"},{"bike_id":"03a38d17-3d2f-4ba8-9963-31544be8ed87","system_id":"levelo_inurba_marseille","lat":43.299717,"lon":5.384845,"is_reserved":false,"is_disabled":false,"rental_uris":{"android":"levelo://app?vid=03a38d17-3d2f-4ba8-9963-31544be8ed87","ios":"levelo://app?vid=03a38d17-3d2f-4ba8-9963-31544be8ed87"},"vehicle_type_id":"4","last_reported":1711303797,"current_range_meters":0,"station_id":"ce4bgj92rcd13ifvqbd0","pricing_plan_id":"cebpf4jnsgd1na2vs0mg"},{"bike_id":"951e1549-57b3-4e87-bae5-f0eab5365413","system_id":"levelo_inurba_marseille","lat":43.32365,"lon":5.38879,"is_reserved":false,"is_disabled":false,"rental_uris":{"android":"levelo://app?vid=951e1549-57b3-4e87-bae5-f0eab5365413","ios":"levelo://app?vid=951e1549-57b3-4e87-bae5-f0eab5365413"},"vehicle_type_id":"4","last_reported":1711303797,"current_range_meters":1600,"station_id":"ce4bhqp2rcd13ifvqhog","pricing_plan_id":"cebpf4jnsgd1na2vs0mg"},{"bike_id":"00460c00-eba0-427e-980d-2efd78fc6f34","system_id":"levelo_inurba_marseille","lat":43.32366,"lon":5.3888,"is_reserved":false,"is_disabled":false,"rental_uris":{"android":"levelo://app?vid=00460c00-eba0-427e-980d-2efd78fc6f34","ios":"levelo://app?vid=00460c00-eba0-427e-980d-2efd78fc6f34"},"vehicle_type_id":"4","last_reported":1711303797,"current_range_meters":2800,"station_id":"ce4bhqp2rcd13ifvqhog","pricing_plan_id":"cebpf4jnsgd1na2vs0mg"},{"bike_id":"d6c2c665-1466-4b79-9bd8-599188faad75","system_id":"levelo_inurba_marseille","lat":43.32366,"lon":5.38884,"is_reserved":false,"is_disabled":false,"rental_uris":{"android":"levelo://app?vid=d6c2c665-1466-4b79-9bd8-599188faad75","ios":"levelo://app?vid=d6c2c665-1466-4b79-9bd8-599188faad75"},"vehicle_type_id":"4","last_reported":1711303797,"current_range_meters":22000,"station_id":"ce4bhqp2rcd13ifvqhog","pricing_plan_id":"cebpf4jnsgd1na2vs0mg"},{"bike_id":"53194352-a2b9-45a3-9747-82eaf5aff1c5","system_id":"levelo_inurba_marseille","lat":43.32367,"lon":5.388836,"is_reserved":false,"is_disabled":false,"rental_uris":{"android":"levelo://app?vid=53194352-a2b9-45a3-9747-82eaf5aff1c5","ios":"levelo://app?vid=53194352-a2b9-45a3-9747-82eaf5aff1c5"},"vehicle_type_id":"4","last_reported":1711303797,"current_range_meters":19600,"station_id":"ce4bhqp2rcd13ifvqhog","pricing_plan_id":"cebpf4jnsgd1na2vs0mg"},{"bike_id":"545c37fc-78ea-45a7-9694-1257d068e47f","system_id":"levelo_inurba_marseille","lat":43.32367,"lon":5.388836,"is_reserved":false,"is_disabled":false,"rental_uris":{"android":"levelo://app?vid=545c37fc-78ea-45a7-9694-1257d068e47f","ios":"levelo://app?vid=545c37fc-78ea-45a7-9694-1257d068e47f"},"vehicle_type_id":"4","last_reported":1711303797,"current_range_meters":16000,"station_id":"ce4bhqp2rcd13ifvqhog","pricing_plan_id":"cebpf4jnsgd1na2vs0mg"},{"bike_id":"c9a3c98e-7cac-4856-b507-897618b57146","system_id":"levelo_inurba_marseille","lat":43.323685,"lon":5.388913,"is_reserved":false,"is_disabled":false,"rental_uris":{"android":"levelo://app?vid=c9a3c98e-7cac-4856-b507-897618b57146","ios":"levelo://app?vid=c9a3c98e-7cac-4856-b507-897618b57146"},"vehicle_type_id":"4","last_reported":1711303797,"current_range_meters":4400,"station_id":"ce4bhqp2rcd13ifvqhog","pricing_plan_id":"cebpf4jnsgd1na2vs0mg"},{"bike_id":"4a3df1e6-d90c-4e48-b8ff-ad7fdfe779c9","system_id":"levelo_inurba_marseille","lat":43.32372,"lon":5.38888,"is_reserved":false,"is_disabled":false,"rental_uris":{"android":"levelo://app?vid=4a3df1e6-d90c-4e48-b8ff-ad7fdfe779c9","ios":"levelo://app?vid=4a3df1e6-d90c-4e48-b8ff-ad7fdfe779c9"},"vehicle_type_id":"4","last_reported":1711303797,"current_range_meters":800,"station_id":"ce4bhqp2rcd13ifvqhog","pricing_plan_id":"cebpf4jnsgd1na2vs0mg"},{"bike_id":"8d73b96e-cad1-4e8b-b91c-cb2ee2697292","system_id":"levelo_inurba_marseille","lat":43.293249,"lon":5.371578,"is_reserved":false,"is_disabled":false,"rental_uris":{"android":"levelo://app?vid=8d73b96e-cad1-4e8b-b91c-cb2ee2697292","ios":"levelo://app?vid=8d73b96e-cad1-4e8b-b91c-cb2ee2697292"},"vehicle_type_id":"4","last_reported":1711303797,"current_range_meters":25200,"station_id":"ce4bgh92rcd13ifvqb40","pricing_plan_id":"cebpf4jnsgd1na2vs0mg"},{"bike_id":"73e0e643-499d-4109-a322-6cba6423992e","system_id":"levelo_inurba_marseille","lat":43.293009,"lon":5.374584,"is_reserved":false,"is_disabled":false,"rental_uris":{"android":"levelo://app?vid=73e0e643-499d-4109-a322-6cba6423992e","ios":"levelo://app?vid=73e0e643-499d-4109-a322-6cba6423992e"},"vehicle_type_id":"4","last_reported":1711303797,"current_range_meters":7200,"station_id":"ce4bgi12rcd13ifvqb70","pricing_plan_id":"cebpf4jnsgd1na2vs0mg"},{"bike_id":"87ae74ee-8a18-4a02-8f20-0abdbb65ebd9","system_id":"levelo_inurba_marseille","lat":43.293009,"lon":5.374584,"is_reserved":false,"is_disabled":false,"rental_uris":{"android":"levelo://app?vid=87ae74ee-8a18-4a02-8f20-0abdbb65ebd9","ios":"levelo://app?vid=87ae74ee-8a18-4a02-8f20-0abdbb65ebd9"},"vehicle_type_id":"4","last_reported":1711303797,"current_range_meters":28400,"station_id":"ce4bgi12rcd13ifvqb70","pricing_plan_id":"cebpf4jnsgd1na2vs0mg"},{"bike_id":"dbef717e-7a8a-4b43-a16d-c69ee69cd6ec","system_id":"levelo_inurba_marseille","lat":43.303002,"lon":5.392142,"is_reserved":false,"is_disabled":false,"rental_uris":{"android":"levelo://app?vid=dbef717e-7a8a-4b43-a16d-c69ee69cd6ec","ios":"levelo://app?vid=dbef717e-7a8a-4b43-a16d-c69ee69cd6ec"},"vehicle_type_id":"4","last_reported":1711303797,"current_range_meters":0,"station_id":"ce4bgkh2rcd13ifvqbk0","pricing_plan_id":"cebpf4jnsgd1na2vs0mg"},{"bike_id":"1e2691b5-42bd-4f1b-9aba-40f28b2e17f7","system_id":"levelo_inurba_marseille","lat":43.309589,"lon":5.390258,"is_reserved":false,"is_disabled":false,"rental_uris":{"android":"levelo://app?vid=1e2691b5-42bd-4f1b-9aba-40f28b2e17f7","ios":"levelo://app?vid=1e2691b5-42bd-4f1b-9aba-40f28b2e17f7"},"vehicle_type_id":"4","last_reported":1711303797,"current_range_meters":800,"station_id":"ce4bgup2rcd13ifvqco0","pricing_plan_id":"cebpf4jnsgd1na2vs0mg"},{"bike_id":"990a543c-a485-4d26-9256-166dc7641d31","system_id":"levelo_inurba_marseille","lat":43.302992,"lon":5.392136,"is_reserved":false,"is_disabled":false,"rental_uris":{"android":"levelo://app?vid=990a543c-a485-4d26-9256-166dc7641d31","ios":"levelo://app?vid=990a543c-a485-4d26-9256-166dc7641d31"},"vehicle_type_id":"4","last_reported":1711303797,"current_range_meters":10000,"station_id":"ce4bgkh2rcd13ifvqbk0","pricing_plan_id":"cebpf4jnsgd1na2vs0mg"},{"bike_id":"04b591b6-d38b-49a0-9288-b2ea04cb7481","system_id":"levelo_inurba_marseille","lat":43.303002,"lon":5.392142,"is_reserved":false,"is_disabled":false,"rental_uris":{"android":"levelo://app?vid=04b591b6-d38b-49a0-9288-b2ea04cb7481","ios":"levelo://app?vid=04b591b6-d38b-49a0-9288-b2ea04cb7481"},"vehicle_type_id":"4","last_reported":1711303797,"current_range_meters":0,"station_id":"ce4bgkh2rcd13ifvqbk0","pricing_plan_id":"cebpf4jnsgd1na2vs0mg"},{"bike_id":"09a54d30-564d-4df6-8e05-798766d495cc","system_id":"levelo_inurba_marseille","lat":43.2936,"lon":5.37835,"is_reserved":false,"is_disabled":false,"rental_uris":{"android":"levelo://app?vid=09a54d30-564d-4df6-8e05-798766d495cc","ios":"levelo://app?vid=09a54d30-564d-4df6-8e05-798766d495cc"},"vehicle_type_id":"4","last_reported":1711303797,"current_range_meters":0,"station_id":"ce4bgjh2rcd13ifvqbf0","pricing_plan_id":"cebpf4jnsgd1na2vs0mg"},{"bike_id":"62991073-d69f-4314-9572-8e6f0e43110f","system_id":"levelo_inurba_marseille","lat":43.302992,"lon":5.392136,"is_reserved":false,"is_disabled":false,"rental_uris":{"android":"levelo://app?vid=62991073-d69f-4314-9572-8e6f0e43110f","ios":"levelo://app?vid=62991073-d69f-4314-9572-8e6f0e43110f"},"vehicle_type_id":"4","last_reported":1711303797,"current_range_meters":0,"station_id":"ce4bgkh2rcd13ifvqbk0","pricing_plan_id":"cebpf4jnsgd1na2vs0mg"},{"bike_id":"22f67c75-7879-4876-994a-9bb887697f90","system_id":"levelo_inurba_marseille","lat":43.30093,"lon":5.39068,"is_reserved":false,"is_disabled":false,"rental_uris":{"android":"levelo://app?vid=22f67c75-7879-4876-994a-9bb887697f90","ios":"levelo://app?vid=22f67c75-7879-4876-994a-9bb887697f90"},"vehicle_type_id":"4","last_reported":1711303797,"current_range_meters":15600,"station_id":"ce4bh192rcd13ifvqdb0","pricing_plan_id":"cebpf4jnsgd1na2vs0mg"},{"bike_id":"f666c0c4-c1b4-4401-85a4-e34275bb3ef8","system_id":"levelo_inurba_marseille","lat":43.300852,"lon":5.390859,"is_reserved":false,"is_disabled":false,"rental_uris":{"android":"levelo://app?vid=f666c0c4-c1b4-4401-85a4-e34275bb3ef8","ios":"levelo://app?vid=f666c0c4-c1b4-4401-85a4-e34275bb3ef8"},"vehicle_type_id":"4","last_reported":1711303797,"current_range_meters":7200,"station_id":"ce4bh192rcd13ifvqdb0","pricing_plan_id":"cebpf4jnsgd1na2vs0mg"},{"bike_id":"40adb27d-4d94-4ae5-8a73-441f5cae3bf3","system_id":"levelo_inurba_marseille","lat":43.298764,"lon":5.388973,"is_reserved":false,"is_disabled":false,"rental_uris":{"android":"levelo://app?vid=40adb27d-4d94-4ae5-8a73-441f5cae3bf3","ios":"levelo://app?vid=40adb27d-4d94-4ae5-8a73-441f5cae3bf3"},"vehicle_type_id":"4","last_reported":1711303797,"current_range_meters":9600,"station_id":"ce4bh392rcd13ifvqdl0","pricing_plan_id":"cebpf4jnsgd1na2vs0mg"},{"bike_id":"9e7c9945-fb31-4bc0-996c-e2beef7a6bfb","system_id":"levelo_inurba_marseille","lat":43.274099,"lon":5.394019,"is_reserved":false,"is_disabled":false,"rental_uris":{"android":"levelo://app?vid=9e7c9945-fb31-4bc0-996c-e2beef7a6bfb","ios":"levelo://app?vid=9e7c9945-fb31-4bc0-996c-e2beef7a6bfb"},"vehicle_type_id":"4","last_reported":1711303797,"current_range_meters":2800,"station_id":"ce4bhdp2rcd13ifvqf20","pricing_plan_id":"cebpf4jnsgd1na2vs0mg"},{"bike_id":"61be0d52-f76e-4f16-a221-24354b17a52e","system_id":"levelo_inurba_marseille","lat":43.291675,"lon":5.371583,"is_reserved":false,"is_disabled":false,"rental_uris":{"android":"levelo://app?vid=61be0d52-f76e-4f16-a221-24354b17a52e","ios":"levelo://app?vid=61be0d52-f76e-4f16-a221-24354b17a52e"},"vehicle_type_id":"4","last_reported":1711303797,"current_range_meters":2400,"station_id":"ce4bha92rcd13ifvqeh0","pricing_plan_id":"cebpf4jnsgd1na2vs0mg"},{"bike_id":"08fb96a4-c3ce-4b88-9a42-e2297a253dc6","system_id":"levelo_inurba_marseille","lat":43.291671,"lon":5.371575,"is_reserved":false,"is_disabled":false,"rental_uris":{"android":"levelo://app?vid=08fb96a4-c3ce-4b88-9a42-e2297a253dc6","ios":"levelo://app?vid=08fb96a4-c3ce-4b88-9a42-e2297a253dc6"},"vehicle_type_id":"4","last_reported":1711303797,"current_range_meters":0,"station_id":"ce4bha92rcd13ifvqeh0","pricing_plan_id":"cebpf4jnsgd1na2vs0mg"},{"bike_id":"66e566fa-d18d-440f-a37c-59eb12e14a8d","system_id":"levelo_inurba_marseille","lat":43.291671,"lon":5.371575,"is_reserved":false,"is_disabled":false,"rental_uris":{"android":"levelo://app?vid=66e566fa-d18d-440f-a37c-59eb12e14a8d","ios":"levelo://app?vid=66e566fa-d18d-440f-a37c-59eb12e14a8d"},"vehicle_type_id":"4","last_reported":1711303797,"current_range_meters":3200,"station_id":"ce4bha92rcd13ifvqeh0","pricing_plan_id":"cebpf4jnsgd1na2vs0mg"},{"bike_id":"56fe4352-709b-473d-a4d0-c69a19df38d6","system_id":"levelo_inurba_marseille","lat":43.298764,"lon":5.388973,"is_reserved":false,"is_disabled":false,"rental_uris":{"android":"levelo://app?vid=56fe4352-709b-473d-a4d0-c69a19df38d6","ios":"levelo://app?vid=56fe4352-709b-473d-a4d0-c69a19df38d6"},"vehicle_type_id":"4","last_reported":1711303797,"current_range_meters":3200,"station_id":"ce4bh392rcd13ifvqdl0","pricing_plan_id":"cebpf4jnsgd1na2vs0mg"},{"bike_id":"c570446a-fc1a-4b8b-bae9-56d96ee5ffa1","system_id":"levelo_inurba_marseille","lat":43.29883,"lon":5.38908,"is_reserved":false,"is_disabled":false,"rental_uris":{"android":"levelo://app?vid=c570446a-fc1a-4b8b-bae9-56d96ee5ffa1","ios":"levelo://app?vid=c570446a-fc1a-4b8b-bae9-56d96ee5ffa1"},"vehicle_type_id":"4","last_reported":1711303797,"current_range_meters":0,"station_id":"ce4bh392rcd13ifvqdl0","pricing_plan_id":"cebpf4jnsgd1na2vs0mg"},{"bike_id":"f3a6efd7-e073-44bc-8310-75ccbcadc4d1","system_id":"levelo_inurba_marseille","lat":43.291697,"lon":5.371513,"is_reserved":false,"is_disabled":false,"rental_uris":{"android":"levelo://app?vid=f3a6efd7-e073-44bc-8310-75ccbcadc4d1","ios":"levelo://app?vid=f3a6efd7-e073-44bc-8310-75ccbcadc4d1"},"vehicle_type_id":"4","last_reported":1711303797,"current_range_meters":0,"station_id":"ce4bha92rcd13ifvqeh0","pricing_plan_id":"cebpf4jnsgd1na2vs0mg"},{"bike_id":"501bde02-5377-4406-8aa8-56fceaae0671","system_id":"levelo_inurba_marseille","lat":43.291671,"lon":5.371575,"is_reserved":false,"is_disabled":false,"rental_uris":{"android":"levelo://app?vid=501bde02-5377-4406-8aa8-56fceaae0671","ios":"levelo://app?vid=501bde02-5377-4406-8aa8-56fceaae0671"},"vehicle_type_id":"4","last_reported":1711303797,"current_range_meters":0,"station_id":"ce4bha92rcd13ifvqeh0","pricing_plan_id":"cebpf4jnsgd1na2vs0mg"},{"bike_id":"271da28c-3fae-4ad4-88bd-2c6996299f21","system_id":"levelo_inurba_marseille","lat":43.291553,"lon":5.371487,"is_reserved":false,"is_disabled":false,"rental_uris":{"android":"levelo://app?vid=271da28c-3fae-4ad4-88bd-2c6996299f21","ios":"levelo://app?vid=271da28c-3fae-4ad4-88bd-2c6996299f21"},"vehicle_type_id":"4","last_reported":1711303797,"current_range_meters":4000,"station_id":"ce4bha92rcd13ifvqeh0","pricing_plan_id":"cebpf4jnsgd1na2vs0mg"},{"bike_id":"d8f59b1d-76a5-4e45-ab32-9dfa1d532782","system_id":"levelo_inurba_marseille","lat":43.291994,"lon":5.357886,"is_reserved":false,"is_disabled":false,"rental_uris":{"android":"levelo://app?vid=d8f59b1d-76a5-4e45-ab32-9dfa1d532782","ios":"levelo://app?vid=d8f59b1d-76a5-4e45-ab32-9dfa1d532782"},"vehicle_type_id":"4","last_reported":1711303797,"current_range_meters":0,"station_id":"ce4bhb12rcd13ifvqel0","pricing_plan_id":"cebpf4jnsgd1na2vs0mg"},{"bike_id":"9d151c22-645c-4d33-8c4a-fd1f5c8eca49","system_id":"levelo_inurba_marseille","lat":43.313291,"lon":5.396838,"is_reserved":false,"is_disabled":false,"rental_uris":{"android":"levelo://app?vid=9d151c22-645c-4d33-8c4a-fd1f5c8eca49","ios":"levelo://app?vid=9d151c22-645c-4d33-8c4a-fd1f5c8eca49"},"vehicle_type_id":"4","last_reported":1711303797,"current_range_meters":1600,"station_id":"ce4bgvp2rcd13ifvqcu0","pricing_plan_id":"cebpf4jnsgd1na2vs0mg"},{"bike_id":"739ea645-cacf-436b-a383-15ab5ee37d04","system_id":"levelo_inurba_marseille","lat":43.31335,"lon":5.39694,"is_reserved":false,"is_disabled":false,"rental_uris":{"android":"levelo://app?vid=739ea645-cacf-436b-a383-15ab5ee37d04","ios":"levelo://app?vid=739ea645-cacf-436b-a383-15ab5ee37d04"},"vehicle_type_id":"4","last_reported":1711303797,"current_range_meters":0,"station_id":"ce4bgvp2rcd13ifvqcu0","pricing_plan_id":"cebpf4jnsgd1na2vs0mg"},{"bike_id":"2a83821b-6d0d-4ad0-bbc4-ea0c21dc91fe","system_id":"levelo_inurba_marseille","lat":43.313291,"lon":5.396838,"is_reserved":false,"is_disabled":false,"rental_uris":{"android":"levelo://app?vid=2a83821b-6d0d-4ad0-bbc4-ea0c21dc91fe","ios":"levelo://app?vid=2a83821b-6d0d-4ad0-bbc4-ea0c21dc91fe"},"vehicle_type_id":"4","last_reported":1711303797,"current_range_meters":18400,"station_id":"ce4bgvp2rcd13ifvqcu0","pricing_plan_id":"cebpf4jnsgd1na2vs0mg"},{"bike_id":"e1b444b7-8006-4322-807e-36a1b808032c","system_id":"levelo_inurba_marseille","lat":43.313291,"lon":5.396838,"is_reserved":false,"is_disabled":false,"rental_uris":{"android":"levelo://app?vid=e1b444b7-8006-4322-807e-36a1b808032c","ios":"levelo://app?vid=e1b444b7-8006-4322-807e-36a1b808032c"},"vehicle_type_id":"4","last_reported":1711303797,"current_range_meters":20400,"station_id":"ce4bgvp2rcd13ifvqcu0","pricing_plan_id":"cebpf4jnsgd1na2vs0mg"},{"bike_id":"8b01fef7-884e-4df5-a270-7ef6cfcd827d","system_id":"levelo_inurba_marseille","lat":43.313291,"lon":5.396838,"is_reserved":false,"is_disabled":false,"rental_uris":{"android":"levelo://app?vid=8b01fef7-884e-4df5-a270-7ef6cfcd827d","ios":"levelo://app?vid=8b01fef7-884e-4df5-a270-7ef6cfcd827d"},"vehicle_type_id":"4","last_reported":1711303797,"current_range_meters":20800,"station_id":"ce4bgvp2rcd13ifvqcu0","pricing_plan_id":"cebpf4jnsgd1na2vs0mg"},{"bike_id":"a3bfd941-6dad-48f6-97ac-1f2676cf9537","system_id":"levelo_inurba_marseille","lat":43.309038,"lon":5.396546,"is_reserved":false,"is_disabled":false,"rental_uris":{"android":"levelo://app?vid=a3bfd941-6dad-48f6-97ac-1f2676cf9537","ios":"levelo://app?vid=a3bfd941-6dad-48f6-97ac-1f2676cf9537"},"vehicle_type_id":"4","last_reported":1711303797,"current_range_meters":23600,"station_id":"ce4bh012rcd13ifvqcv0","pricing_plan_id":"cebpf4jnsgd1na2vs0mg"},{"bike_id":"553be6ba-c65d-4cef-80a9-9bd5e9dea82e","system_id":"levelo_inurba_marseille","lat":43.328077,"lon":5.388814,"is_reserved":false,"is_disabled":false,"rental_uris":{"android":"levelo://app?vid=553be6ba-c65d-4cef-80a9-9bd5e9dea82e","ios":"levelo://app?vid=553be6ba-c65d-4cef-80a9-9bd5e9dea82e"},"vehicle_type_id":"4","last_reported":1711303797,"current_range_meters":30800,"station_id":"","pricing_plan_id":"cebpf4jnsgd1na2vs0mg"},{"bike_id":"8bc91653-44bc-4e8d-9461-dae6438d1123","system_id":"levelo_inurba_marseille","lat":43.296375,"lon":5.387806,"is_reserved":false,"is_disabled":false,"rental_uris":{"android":"levelo://app?vid=8bc91653-44bc-4e8d-9461-dae6438d1123","ios":"levelo://app?vid=8bc91653-44bc-4e8d-9461-dae6438d1123"},"vehicle_type_id":"4","last_reported":1711303797,"current_range_meters":19200,"station_id":"","pricing_plan_id":"cebpf4jnsgd1na2vs0mg"},{"bike_id":"1e0e7557-36a1-4468-bc55-eb260fa16c82","system_id":"levelo_inurba_marseille","lat":43.29062,"lon":5.37153,"is_reserved":false,"is_disabled":false,"rental_uris":{"android":"levelo://app?vid=1e0e7557-36a1-4468-bc55-eb260fa16c82","ios":"levelo://app?vid=1e0e7557-36a1-4468-bc55-eb260fa16c82"},"vehicle_type_id":"4","last_reported":1711303797,"current_range_meters":0,"station_id":"ce4bh5p2rcd13ifvqe4g","pricing_plan_id":"cebpf4jnsgd1na2vs0mg"},{"bike_id":"0a780fc9-1eb1-4877-8b13-e80e54ef11e6","system_id":"levelo_inurba_marseille","lat":43.294153,"lon":5.386305,"is_reserved":false,"is_disabled":false,"rental_uris":{"android":"levelo://app?vid=0a780fc9-1eb1-4877-8b13-e80e54ef11e6","ios":"levelo://app?vid=0a780fc9-1eb1-4877-8b13-e80e54ef11e6"},"vehicle_type_id":"4","last_reported":1711303797,"current_range_meters":1200,"station_id":"ce4bh2h2rcd13ifvqdh0","pricing_plan_id":"cebpf4jnsgd1na2vs0mg"},{"bike_id":"1bb521e3-9f28-499b-ae70-82ac3f9f6300","system_id":"levelo_inurba_marseille","lat":43.290319,"lon":5.375732,"is_reserved":false,"is_disabled":false,"rental_uris":{"android":"levelo://app?vid=1bb521e3-9f28-499b-ae70-82ac3f9f6300","ios":"levelo://app?vid=1bb521e3-9f28-499b-ae70-82ac3f9f6300"},"vehicle_type_id":"4","last_reported":1711303797,"current_range_meters":2400,"station_id":"ce4bh692rcd13ifvqe90","pricing_plan_id":"cebpf4jnsgd1na2vs0mg"},{"bike_id":"630dc612-8ffb-4a27-906e-0034831b1396","system_id":"levelo_inurba_marseille","lat":43.290319,"lon":5.375732,"is_reserved":false,"is_disabled":false,"rental_uris":{"android":"levelo://app?vid=630dc612-8ffb-4a27-906e-0034831b1396","ios":"levelo://app?vid=630dc612-8ffb-4a27-906e-0034831b1396"},"vehicle_type_id":"4","last_reported":1711303797,"current_range_meters":5600,"station_id":"ce4bh692rcd13ifvqe90","pricing_plan_id":"cebpf4jnsgd1na2vs0mg"},{"bike_id":"13d0d9e9-a304-407d-9861-7bcbcaf6188a","system_id":"levelo_inurba_marseille","lat":43.289531,"lon":5.364456,"is_reserved":false,"is_disabled":false,"rental_uris":{"android":"levelo://app?vid=13d0d9e9-a304-407d-9861-7bcbcaf6188a","ios":"levelo://app?vid=13d0d9e9-a304-407d-9861-7bcbcaf6188a"},"vehicle_type_id":"4","last_reported":1711303797,"current_range_meters":0,"station_id":"ce4bhc92rcd13ifvqetg","pricing_plan_id":"cebpf4jnsgd1na2vs0mg"},{"bike_id":"edbf81b0-8935-4a0e-bf83-96a0f32c5333","system_id":"levelo_inurba_marseille","lat":43.294162,"lon":5.386292,"is_reserved":false,"is_disabled":false,"rental_uris":{"android":"levelo://app?vid=edbf81b0-8935-4a0e-bf83-96a0f32c5333","ios":"levelo://app?vid=edbf81b0-8935-4a0e-bf83-96a0f32c5333"},"vehicle_type_id":"4","last_reported":1711303797,"current_range_meters":800,"station_id":"ce4bh2h2rcd13ifvqdh0","pricing_plan_id":"cebpf4jnsgd1na2vs0mg"},{"bike_id":"fe5a0e6a-f265-4b5e-ab60-41d99d2568fe","system_id":"levelo_inurba_marseille","lat":43.294162,"lon":5.386292,"is_reserved":false,"is_disabled":false,"rental_uris":{"android":"levelo://app?vid=fe5a0e6a-f265-4b5e-ab60-41d99d2568fe","ios":"levelo://app?vid=fe5a0e6a-f265-4b5e-ab60-41d99d2568fe"},"vehicle_type_id":"4","last_reported":1711303797,"current_range_meters":0,"station_id":"ce4bh2h2rcd13ifvqdh0","pricing_plan_id":"cebpf4jnsgd1na2vs0mg"},{"bike_id":"02d0080e-79f1-4330-9e89-9fa19373b105","system_id":"levelo_inurba_marseille","lat":43.289184,"lon":5.366408,"is_reserved":false,"is_disabled":false,"rental_uris":{"android":"levelo://app?vid=02d0080e-79f1-4330-9e89-9fa19373b105","ios":"levelo://app?vid=02d0080e-79f1-4330-9e89-9fa19373b105"},"vehicle_type_id":"4","last_reported":1711303797,"current_range_meters":13200,"station_id":"ce4bhap2rcd13ifvqek0","pricing_plan_id":"cebpf4jnsgd1na2vs0mg"},{"bike_id":"a0c0a4bd-17d7-497a-95db-4de33bec2d5c","system_id":"levelo_inurba_marseille","lat":43.289468,"lon":5.363719,"is_reserved":false,"is_disabled":false,"rental_uris":{"android":"levelo://app?vid=a0c0a4bd-17d7-497a-95db-4de33bec2d5c","ios":"levelo://app?vid=a0c0a4bd-17d7-497a-95db-4de33bec2d5c"},"vehicle_type_id":"4","last_reported":1711303797,"current_range_meters":0,"station_id":"ce4bhc92rcd13ifvqetg","pricing_plan_id":"cebpf4jnsgd1na2vs0mg"},{"bike_id":"b23069f3-1ca9-49bc-8f54-c94d7fc1859a","system_id":"levelo_inurba_marseille","lat":43.292568,"lon":5.383886,"is_reserved":false,"is_disabled":false,"rental_uris":{"android":"levelo://app?vid=b23069f3-1ca9-49bc-8f54-c94d7fc1859a","ios":"levelo://app?vid=b23069f3-1ca9-49bc-8f54-c94d7fc1859a"},"vehicle_type_id":"4","last_reported":1711303797,"current_range_meters":0,"station_id":"ce4bh692rcd13ifvqea0","pricing_plan_id":"cebpf4jnsgd1na2vs0mg"},{"bike_id":"f25e2be7-868e-47f2-9092-79832732e416","system_id":"levelo_inurba_marseille","lat":43.292642,"lon":5.384254,"is_reserved":false,"is_disabled":false,"rental_uris":{"android":"levelo://app?vid=f25e2be7-868e-47f2-9092-79832732e416","ios":"levelo://app?vid=f25e2be7-868e-47f2-9092-79832732e416"},"vehicle_type_id":"4","last_reported":1711303797,"current_range_meters":0,"station_id":"ce4bh692rcd13ifvqea0","pricing_plan_id":"cebpf4jnsgd1na2vs0mg"},{"bike_id":"ddb04ceb-f0c5-4668-a70c-8a5dd23f7d9b","system_id":"levelo_inurba_marseille","lat":43.292644,"lon":5.384257,"is_reserved":false,"is_disabled":false,"rental_uris":{"android":"levelo://app?vid=ddb04ceb-f0c5-4668-a70c-8a5dd23f7d9b","ios":"levelo://app?vid=ddb04ceb-f0c5-4668-a70c-8a5dd23f7d9b"},"vehicle_type_id":"4","last_reported":1711303797,"current_range_meters":15600,"station_id":"ce4bh692rcd13ifvqea0","pricing_plan_id":"cebpf4jnsgd1na2vs0mg"},{"bike_id":"66bb90ae-3fa4-4d61-b29e-c89a38fb525e","system_id":"levelo_inurba_marseille","lat":43.292642,"lon":5.384254,"is_reserved":false,"is_disabled":false,"rental_uris":{"android":"levelo://app?vid=66bb90ae-3fa4-4d61-b29e-c89a38fb525e","ios":"levelo://app?vid=66bb90ae-3fa4-4d61-b29e-c89a38fb525e"},"vehicle_type_id":"4","last_reported":1711303797,"current_range_meters":8000,"station_id":"ce4bh692rcd13ifvqea0","pricing_plan_id":"cebpf4jnsgd1na2vs0mg"},{"bike_id":"9c8d48ea-09d2-463a-9711-9f80ab67ae89","system_id":"levelo_inurba_marseille","lat":43.292642,"lon":5.384254,"is_reserved":false,"is_disabled":false,"rental_uris":{"android":"levelo://app?vid=9c8d48ea-09d2-463a-9711-9f80ab67ae89","ios":"levelo://app?vid=9c8d48ea-09d2-463a-9711-9f80ab67ae89"},"vehicle_type_id":"4","last_reported":1711303797,"current_range_meters":20800,"station_id":"ce4bh692rcd13ifvqea0","pricing_plan_id":"cebpf4jnsgd1na2vs0mg"},{"bike_id":"6cc45f12-d2ba-47b9-bac5-4a6fecda2faa","system_id":"levelo_inurba_marseille","lat":43.292541,"lon":5.384171,"is_reserved":false,"is_disabled":false,"rental_uris":{"android":"levelo://app?vid=6cc45f12-d2ba-47b9-bac5-4a6fecda2faa","ios":"levelo://app?vid=6cc45f12-d2ba-47b9-bac5-4a6fecda2faa"},"vehicle_type_id":"4","last_reported":1711303797,"current_range_meters":0,"station_id":"ce4bh692rcd13ifvqea0","pricing_plan_id":"cebpf4jnsgd1na2vs0mg"},{"bike_id":"4e53f968-a731-4e8f-afb2-077e8083b43c","system_id":"levelo_inurba_marseille","lat":43.292644,"lon":5.384257,"is_reserved":false,"is_disabled":false,"rental_uris":{"android":"levelo://app?vid=4e53f968-a731-4e8f-afb2-077e8083b43c","ios":"levelo://app?vid=4e53f968-a731-4e8f-afb2-077e8083b43c"},"vehicle_type_id":"4","last_reported":1711303797,"current_range_meters":2000,"station_id":"ce4bh692rcd13ifvqea0","pricing_plan_id":"cebpf4jnsgd1na2vs0mg"},{"bike_id":"22c5a442-be0b-40c8-8e1f-aade57414b3d","system_id":"levelo_inurba_marseille","lat":43.292642,"lon":5.384254,"is_reserved":false,"is_disabled":false,"rental_uris":{"android":"levelo://app?vid=22c5a442-be0b-40c8-8e1f-aade57414b3d","ios":"levelo://app?vid=22c5a442-be0b-40c8-8e1f-aade57414b3d"},"vehicle_type_id":"4","last_reported":1711303797,"current_range_meters":0,"station_id":"ce4bh692rcd13ifvqea0","pricing_plan_id":"cebpf4jnsgd1na2vs0mg"},{"bike_id":"059148b2-0049-4c30-a072-2f2a9104bd17","system_id":"levelo_inurba_marseille","lat":43.290103,"lon":5.356114,"is_reserved":false,"is_disabled":false,"rental_uris":{"android":"levelo://app?vid=059148b2-0049-4c30-a072-2f2a9104bd17","ios":"levelo://app?vid=059148b2-0049-4c30-a072-2f2a9104bd17"},"vehicle_type_id":"4","last_reported":1711303797,"current_range_meters":0,"station_id":"ce4bhb92rcd13ifvqen0","pricing_plan_id":"cebpf4jnsgd1na2vs0mg"},{"bike_id":"a626b134-603b-4207-9cc1-429ea02e2476","system_id":"levelo_inurba_marseille","lat":43.290079,"lon":5.35611,"is_reserved":false,"is_disabled":false,"rental_uris":{"android":"levelo://app?vid=a626b134-603b-4207-9cc1-429ea02e2476","ios":"levelo://app?vid=a626b134-603b-4207-9cc1-429ea02e2476"},"vehicle_type_id":"4","last_reported":1711303797,"current_range_meters":0,"station_id":"ce4bhb92rcd13ifvqen0","pricing_plan_id":"cebpf4jnsgd1na2vs0mg"},{"bike_id":"b2e096a7-5b70-4441-8da1-b397d2055550","system_id":"levelo_inurba_marseille","lat":43.290103,"lon":5.356114,"is_reserved":false,"is_disabled":false,"rental_uris":{"android":"levelo://app?vid=b2e096a7-5b70-4441-8da1-b397d2055550","ios":"levelo://app?vid=b2e096a7-5b70-4441-8da1-b397d2055550"},"vehicle_type_id":"4","last_reported":1711303797,"current_range_meters":0,"station_id":"ce4bhb92rcd13ifvqen0","pricing_plan_id":"cebpf4jnsgd1na2vs0mg"},{"bike_id":"d109fb90-d59f-4d8d-93e8-3563feca99df","system_id":"levelo_inurba_marseille","lat":43.290995,"lon":5.381361,"is_reserved":false,"is_disabled":false,"rental_uris":{"android":"levelo://app?vid=d109fb90-d59f-4d8d-93e8-3563feca99df","ios":"levelo://app?vid=d109fb90-d59f-4d8d-93e8-3563feca99df"},"vehicle_type_id":"4","last_reported":1711303797,"current_range_meters":0,"station_id":"ce4bh512rcd13ifvqe2g","pricing_plan_id":"cebpf4jnsgd1na2vs0mg"},{"bike_id":"0a4f5684-024c-4699-b37b-048d77ecd68f","system_id":"levelo_inurba_marseille","lat":43.290995,"lon":5.381361,"is_reserved":false,"is_disabled":false,"rental_uris":{"android":"levelo://app?vid=0a4f5684-024c-4699-b37b-048d77ecd68f","ios":"levelo://app?vid=0a4f5684-024c-4699-b37b-048d77ecd68f"},"vehicle_type_id":"4","last_reported":1711303797,"current_range_meters":4400,"station_id":"ce4bh512rcd13ifvqe2g","pricing_plan_id":"cebpf4jnsgd1na2vs0mg"},{"bike_id":"6d8d0a82-8b98-4c13-ab1e-4c4afe33b6fb","system_id":"levelo_inurba_marseille","lat":43.28856,"lon":5.358371,"is_reserved":false,"is_disabled":false,"rental_uris":{"android":"levelo://app?vid=6d8d0a82-8b98-4c13-ab1e-4c4afe33b6fb","ios":"levelo://app?vid=6d8d0a82-8b98-4c13-ab1e-4c4afe33b6fb"},"vehicle_type_id":"4","last_reported":1711303797,"current_range_meters":21200,"station_id":"ce4bhb12rcd13ifvqem0","pricing_plan_id":"cebpf4jnsgd1na2vs0mg"},{"bike_id":"5dac3c97-28ff-4cbc-8b92-f79c421872ee","system_id":"levelo_inurba_marseille","lat":43.289741,"lon":5.378306,"is_reserved":false,"is_disabled":false,"rental_uris":{"android":"levelo://app?vid=5dac3c97-28ff-4cbc-8b92-f79c421872ee","ios":"levelo://app?vid=5dac3c97-28ff-4cbc-8b92-f79c421872ee"},"vehicle_type_id":"4","last_reported":1711303797,"current_range_meters":400,"station_id":"ce4bh9p2rcd13ifvqed0","pricing_plan_id":"cebpf4jnsgd1na2vs0mg"},{"bike_id":"736d8f69-f1f5-43b8-9d39-57b0dc3380f6","system_id":"levelo_inurba_marseille","lat":43.29791,"lon":5.39337,"is_reserved":false,"is_disabled":false,"rental_uris":{"android":"levelo://app?vid=736d8f69-f1f5-43b8-9d39-57b0dc3380f6","ios":"levelo://app?vid=736d8f69-f1f5-43b8-9d39-57b0dc3380f6"},"vehicle_type_id":"4","last_reported":1711303797,"current_range_meters":1600,"station_id":"chh1huq6cuj3fo74tm60","pricing_plan_id":"cebpf4jnsgd1na2vs0mg"},{"bike_id":"5136113c-b518-436c-ae6d-b1a16595f172","system_id":"levelo_inurba_marseille","lat":43.297815,"lon":5.393548,"is_reserved":false,"is_disabled":false,"rental_uris":{"android":"levelo://app?vid=5136113c-b518-436c-ae6d-b1a16595f172","ios":"levelo://app?vid=5136113c-b518-436c-ae6d-b1a16595f172"},"vehicle_type_id":"4","last_reported":1711303797,"current_range_meters":12400,"station_id":"chh1huq6cuj3fo74tm60","pricing_plan_id":"cebpf4jnsgd1na2vs0mg"},{"bike_id":"201ab162-8d11-4869-b2c3-95cc024932e5","system_id":"levelo_inurba_marseille","lat":43.289743,"lon":5.378304,"is_reserved":false,"is_disabled":false,"rental_uris":{"android":"levelo://app?vid=201ab162-8d11-4869-b2c3-95cc024932e5","ios":"levelo://app?vid=201ab162-8d11-4869-b2c3-95cc024932e5"},"vehicle_type_id":"4","last_reported":1711303797,"current_range_meters":0,"station_id":"ce4bh9p2rcd13ifvqed0","pricing_plan_id":"cebpf4jnsgd1na2vs0mg"},{"bike_id":"d6c2450e-2133-4c81-9903-50dbbec01fcc","system_id":"levelo_inurba_marseille","lat":43.289743,"lon":5.378304,"is_reserved":false,"is_disabled":false,"rental_uris":{"android":"levelo://app?vid=d6c2450e-2133-4c81-9903-50dbbec01fcc","ios":"levelo://app?vid=d6c2450e-2133-4c81-9903-50dbbec01fcc"},"vehicle_type_id":"4","last_reported":1711303797,"current_range_meters":6400,"station_id":"ce4bh9p2rcd13ifvqed0","pricing_plan_id":"cebpf4jnsgd1na2vs0mg"},{"bike_id":"a7afde79-fd86-4ffe-bba0-c0cf91c9fe2e","system_id":"levelo_inurba_marseille","lat":43.29787,"lon":5.39353,"is_reserved":false,"is_disabled":false,"rental_uris":{"android":"levelo://app?vid=a7afde79-fd86-4ffe-bba0-c0cf91c9fe2e","ios":"levelo://app?vid=a7afde79-fd86-4ffe-bba0-c0cf91c9fe2e"},"vehicle_type_id":"4","last_reported":1711303797,"current_range_meters":0,"station_id":"chh1huq6cuj3fo74tm60","pricing_plan_id":"cebpf4jnsgd1na2vs0mg"},{"bike_id":"b8a7a106-26ac-438c-b7d1-9b96ebc101bf","system_id":"levelo_inurba_marseille","lat":43.289743,"lon":5.378304,"is_reserved":false,"is_disabled":false,"rental_uris":{"android":"levelo://app?vid=b8a7a106-26ac-438c-b7d1-9b96ebc101bf","ios":"levelo://app?vid=b8a7a106-26ac-438c-b7d1-9b96ebc101bf"},"vehicle_type_id":"4","last_reported":1711303797,"current_range_meters":0,"station_id":"ce4bh9p2rcd13ifvqed0","pricing_plan_id":"cebpf4jnsgd1na2vs0mg"},{"bike_id":"2599690e-7ed9-47a8-b73c-0e392b28eccb","system_id":"levelo_inurba_marseille","lat":43.330442,"lon":5.389148,"is_reserved":false,"is_disabled":false,"rental_uris":{"android":"levelo://app?vid=2599690e-7ed9-47a8-b73c-0e392b28eccb","ios":"levelo://app?vid=2599690e-7ed9-47a8-b73c-0e392b28eccb"},"vehicle_type_id":"4","last_reported":1711303797,"current_range_meters":14800,"station_id":"ce4bhr92rcd13ifvqhrg","pricing_plan_id":"cebpf4jnsgd1na2vs0mg"},{"bike_id":"18631772-1750-47ff-aae5-dfd5da39627e","system_id":"levelo_inurba_marseille","lat":43.29516,"lon":5.39031,"is_reserved":false,"is_disabled":false,"rental_uris":{"android":"levelo://app?vid=18631772-1750-47ff-aae5-dfd5da39627e","ios":"levelo://app?vid=18631772-1750-47ff-aae5-dfd5da39627e"},"vehicle_type_id":"4","last_reported":1711303797,"current_range_meters":10400,"station_id":"ce4bh3p2rcd13ifvqdp0","pricing_plan_id":"cebpf4jnsgd1na2vs0mg"},{"bike_id":"b936aa08-1447-4a5e-99ae-f6d3c8dfba2e","system_id":"levelo_inurba_marseille","lat":43.330442,"lon":5.389148,"is_reserved":false,"is_disabled":false,"rental_uris":{"android":"levelo://app?vid=b936aa08-1447-4a5e-99ae-f6d3c8dfba2e","ios":"levelo://app?vid=b936aa08-1447-4a5e-99ae-f6d3c8dfba2e"},"vehicle_type_id":"4","last_reported":1711303797,"current_range_meters":28800,"station_id":"ce4bhr92rcd13ifvqhrg","pricing_plan_id":"cebpf4jnsgd1na2vs0mg"},{"bike_id":"71cb1d59-c297-4a56-adb8-cc6999f0cbe6","system_id":"levelo_inurba_marseille","lat":43.330442,"lon":5.389148,"is_reserved":false,"is_disabled":false,"rental_uris":{"android":"levelo://app?vid=71cb1d59-c297-4a56-adb8-cc6999f0cbe6","ios":"levelo://app?vid=71cb1d59-c297-4a56-adb8-cc6999f0cbe6"},"vehicle_type_id":"4","last_reported":1711303797,"current_range_meters":30800,"station_id":"ce4bhr92rcd13ifvqhrg","pricing_plan_id":"cebpf4jnsgd1na2vs0mg"},{"bike_id":"2fb083d6-1a91-4eaa-a744-e1f8deab11b3","system_id":"levelo_inurba_marseille","lat":43.330442,"lon":5.389148,"is_reserved":false,"is_disabled":false,"rental_uris":{"android":"levelo://app?vid=2fb083d6-1a91-4eaa-a744-e1f8deab11b3","ios":"levelo://app?vid=2fb083d6-1a91-4eaa-a744-e1f8deab11b3"},"vehicle_type_id":"4","last_reported":1711303797,"current_range_meters":5600,"station_id":"ce4bhr92rcd13ifvqhrg","pricing_plan_id":"cebpf4jnsgd1na2vs0mg"},{"bike_id":"f1263367-f01c-4f69-bbba-cab85834a1a3","system_id":"levelo_inurba_marseille","lat":43.29026,"lon":5.38142,"is_reserved":false,"is_disabled":false,"rental_uris":{"android":"levelo://app?vid=f1263367-f01c-4f69-bbba-cab85834a1a3","ios":"levelo://app?vid=f1263367-f01c-4f69-bbba-cab85834a1a3"},"vehicle_type_id":"4","last_reported":1711303797,"current_range_meters":0,"station_id":"ce4bh512rcd13ifvqe2g","pricing_plan_id":"cebpf4jnsgd1na2vs0mg"},{"bike_id":"218d2b76-5431-46f2-9146-6399fe03843a","system_id":"levelo_inurba_marseille","lat":43.290094,"lon":5.381264,"is_reserved":false,"is_disabled":false,"rental_uris":{"android":"levelo://app?vid=218d2b76-5431-46f2-9146-6399fe03843a","ios":"levelo://app?vid=218d2b76-5431-46f2-9146-6399fe03843a"},"vehicle_type_id":"4","last_reported":1711303797,"current_range_meters":400,"station_id":"ce4bh4p2rcd13ifvqe1g","pricing_plan_id":"cebpf4jnsgd1na2vs0mg"},{"bike_id":"0ee4cee9-fb1f-43da-aa9d-e2f99bc6488b","system_id":"levelo_inurba_marseille","lat":43.290094,"lon":5.381264,"is_reserved":false,"is_disabled":false,"rental_uris":{"android":"levelo://app?vid=0ee4cee9-fb1f-43da-aa9d-e2f99bc6488b","ios":"levelo://app?vid=0ee4cee9-fb1f-43da-aa9d-e2f99bc6488b"},"vehicle_type_id":"4","last_reported":1711303797,"current_range_meters":1200,"station_id":"ce4bh4p2rcd13ifvqe1g","pricing_plan_id":"cebpf4jnsgd1na2vs0mg"},{"bike_id":"910ef323-d493-4b40-85a8-7689c3baa5c4","system_id":"levelo_inurba_marseille","lat":43.330442,"lon":5.389148,"is_reserved":false,"is_disabled":false,"rental_uris":{"android":"levelo://app?vid=910ef323-d493-4b40-85a8-7689c3baa5c4","ios":"levelo://app?vid=910ef323-d493-4b40-85a8-7689c3baa5c4"},"vehicle_type_id":"4","last_reported":1711303797,"current_range_meters":1200,"station_id":"ce4bhr92rcd13ifvqhrg","pricing_plan_id":"cebpf4jnsgd1na2vs0mg"},{"bike_id":"f31d8606-d326-48d7-a956-82556f12f620","system_id":"levelo_inurba_marseille","lat":43.312609,"lon":5.401662,"is_reserved":false,"is_disabled":false,"rental_uris":{"android":"levelo://app?vid=f31d8606-d326-48d7-a956-82556f12f620","ios":"levelo://app?vid=f31d8606-d326-48d7-a956-82556f12f620"},"vehicle_type_id":"4","last_reported":1711303797,"current_range_meters":14800,"station_id":"ce4bh092rcd13ifvqd30","pricing_plan_id":"cebpf4jnsgd1na2vs0mg"},{"bike_id":"1fd5a683-2ebe-41b8-bee7-767db4005e14","system_id":"levelo_inurba_marseille","lat":43.312609,"lon":5.401662,"is_reserved":false,"is_disabled":false,"rental_uris":{"android":"levelo://app?vid=1fd5a683-2ebe-41b8-bee7-767db4005e14","ios":"levelo://app?vid=1fd5a683-2ebe-41b8-bee7-767db4005e14"},"vehicle_type_id":"4","last_reported":1711303797,"current_range_meters":14800,"station_id":"ce4bh092rcd13ifvqd30","pricing_plan_id":"cebpf4jnsgd1na2vs0mg"},{"bike_id":"a80d638d-98c8-449a-9ea8-394fc3f26f7e","system_id":"levelo_inurba_marseille","lat":43.309371,"lon":5.401449,"is_reserved":false,"is_disabled":false,"rental_uris":{"android":"levelo://app?vid=a80d638d-98c8-449a-9ea8-394fc3f26f7e","ios":"levelo://app?vid=a80d638d-98c8-449a-9ea8-394fc3f26f7e"},"vehicle_type_id":"4","last_reported":1711303797,"current_range_meters":14000,"station_id":"ce4bgvp2rcd13ifvqct0","pricing_plan_id":"cebpf4jnsgd1na2vs0mg"},{"bike_id":"72477cd4-09cf-44ed-b670-339140f9a811","system_id":"levelo_inurba_marseille","lat":43.309371,"lon":5.401449,"is_reserved":false,"is_disabled":false,"rental_uris":{"android":"levelo://app?vid=72477cd4-09cf-44ed-b670-339140f9a811","ios":"levelo://app?vid=72477cd4-09cf-44ed-b670-339140f9a811"},"vehicle_type_id":"4","last_reported":1711303797,"current_range_meters":2000,"station_id":"ce4bgvp2rcd13ifvqct0","pricing_plan_id":"cebpf4jnsgd1na2vs0mg"},{"bike_id":"0a511bf8-403b-4835-a69d-8845b0587042","system_id":"levelo_inurba_marseille","lat":43.33743,"lon":5.37474,"is_reserved":false,"is_disabled":false,"rental_uris":{"android":"levelo://app?vid=0a511bf8-403b-4835-a69d-8845b0587042","ios":"levelo://app?vid=0a511bf8-403b-4835-a69d-8845b0587042"},"vehicle_type_id":"4","last_reported":1711303797,"current_range_meters":10400,"station_id":"","pricing_plan_id":"cebpf4jnsgd1na2vs0mg"},{"bike_id":"f6ee0150-d708-49b3-b6ff-6d833a89928c","system_id":"levelo_inurba_marseille","lat":43.309371,"lon":5.401449,"is_reserved":false,"is_disabled":false,"rental_uris":{"android":"levelo://app?vid=f6ee0150-d708-49b3-b6ff-6d833a89928c","ios":"levelo://app?vid=f6ee0150-d708-49b3-b6ff-6d833a89928c"},"vehicle_type_id":"4","last_reported":1711303797,"current_range_meters":4400,"station_id":"ce4bgvp2rcd13ifvqct0","pricing_plan_id":"cebpf4jnsgd1na2vs0mg"},{"bike_id":"7c19fe1d-602a-46cd-8f1d-c13b515bc909","system_id":"levelo_inurba_marseille","lat":43.301117,"lon":5.398795,"is_reserved":false,"is_disabled":false,"rental_uris":{"android":"levelo://app?vid=7c19fe1d-602a-46cd-8f1d-c13b515bc909","ios":"levelo://app?vid=7c19fe1d-602a-46cd-8f1d-c13b515bc909"},"vehicle_type_id":"4","last_reported":1711303797,"current_range_meters":0,"station_id":"ce4bh0h2rcd13ifvqd40","pricing_plan_id":"cebpf4jnsgd1na2vs0mg"},{"bike_id":"7706bf90-8350-4316-89b9-6b5c5f93f139","system_id":"levelo_inurba_marseille","lat":43.286961,"lon":5.373785,"is_reserved":false,"is_disabled":false,"rental_uris":{"android":"levelo://app?vid=7706bf90-8350-4316-89b9-6b5c5f93f139","ios":"levelo://app?vid=7706bf90-8350-4316-89b9-6b5c5f93f139"},"vehicle_type_id":"4","last_reported":1711303797,"current_range_meters":3200,"station_id":"ce4bh3p2rcd13ifvqdq0","pricing_plan_id":"cebpf4jnsgd1na2vs0mg"},{"bike_id":"a6f16204-09f8-4c00-9a85-d48a195bb111","system_id":"levelo_inurba_marseille","lat":43.28704,"lon":5.37386,"is_reserved":false,"is_disabled":false,"rental_uris":{"android":"levelo://app?vid=a6f16204-09f8-4c00-9a85-d48a195bb111","ios":"levelo://app?vid=a6f16204-09f8-4c00-9a85-d48a195bb111"},"vehicle_type_id":"4","last_reported":1711303797,"current_range_meters":0,"station_id":"ce4bh3p2rcd13ifvqdq0","pricing_plan_id":"cebpf4jnsgd1na2vs0mg"},{"bike_id":"240e10d8-ccf8-43f4-99d9-36a3ad050994","system_id":"levelo_inurba_marseille","lat":43.286591,"lon":5.363346,"is_reserved":false,"is_disabled":false,"rental_uris":{"android":"levelo://app?vid=240e10d8-ccf8-43f4-99d9-36a3ad050994","ios":"levelo://app?vid=240e10d8-ccf8-43f4-99d9-36a3ad050994"},"vehicle_type_id":"4","last_reported":1711303797,"current_range_meters":2400,"station_id":"ce4bhah2rcd13ifvqej0","pricing_plan_id":"cebpf4jnsgd1na2vs0mg"},{"bike_id":"95707710-2fb7-4271-98ae-9d7b0e4c93f9","system_id":"levelo_inurba_marseille","lat":43.295196,"lon":5.39397,"is_reserved":false,"is_disabled":false,"rental_uris":{"android":"levelo://app?vid=95707710-2fb7-4271-98ae-9d7b0e4c93f9","ios":"levelo://app?vid=95707710-2fb7-4271-98ae-9d7b0e4c93f9"},"vehicle_type_id":"4","last_reported":1711303797,"current_range_meters":24000,"station_id":"ce4bh292rcd13ifvqdf0","pricing_plan_id":"cebpf4jnsgd1na2vs0mg"},{"bike_id":"b3d28df4-18ec-4ae4-82fa-c5cdda763adc","system_id":"levelo_inurba_marseille","lat":43.286961,"lon":5.373785,"is_reserved":false,"is_disabled":false,"rental_uris":{"android":"levelo://app?vid=b3d28df4-18ec-4ae4-82fa-c5cdda763adc","ios":"levelo://app?vid=b3d28df4-18ec-4ae4-82fa-c5cdda763adc"},"vehicle_type_id":"4","last_reported":1711303797,"current_range_meters":11200,"station_id":"ce4bh3p2rcd13ifvqdq0","pricing_plan_id":"cebpf4jnsgd1na2vs0mg"},{"bike_id":"b8505427-4661-4694-b81e-e90b00cadbea","system_id":"levelo_inurba_marseille","lat":43.295194,"lon":5.39397,"is_reserved":false,"is_disabled":false,"rental_uris":{"android":"levelo://app?vid=b8505427-4661-4694-b81e-e90b00cadbea","ios":"levelo://app?vid=b8505427-4661-4694-b81e-e90b00cadbea"},"vehicle_type_id":"4","last_reported":1711303797,"current_range_meters":12400,"station_id":"ce4bh292rcd13ifvqdf0","pricing_plan_id":"cebpf4jnsgd1na2vs0mg"},{"bike_id":"8177f6f7-36ac-48e9-ada2-51947304eac6","system_id":"levelo_inurba_marseille","lat":43.295196,"lon":5.39397,"is_reserved":false,"is_disabled":false,"rental_uris":{"android":"levelo://app?vid=8177f6f7-36ac-48e9-ada2-51947304eac6","ios":"levelo://app?vid=8177f6f7-36ac-48e9-ada2-51947304eac6"},"vehicle_type_id":"4","last_reported":1711303797,"current_range_meters":1200,"station_id":"ce4bh292rcd13ifvqdf0","pricing_plan_id":"cebpf4jnsgd1na2vs0mg"},{"bike_id":"5cb791b0-3999-43a5-8181-66bc21872152","system_id":"levelo_inurba_marseille","lat":43.289307,"lon":5.38406,"is_reserved":false,"is_disabled":false,"rental_uris":{"android":"levelo://app?vid=5cb791b0-3999-43a5-8181-66bc21872152","ios":"levelo://app?vid=5cb791b0-3999-43a5-8181-66bc21872152"},"vehicle_type_id":"4","last_reported":1711303797,"current_range_meters":8400,"station_id":"ce4bh612rcd13ifvqe6g","pricing_plan_id":"cebpf4jnsgd1na2vs0mg"},{"bike_id":"23d47366-a19e-4eba-b3d2-83ea81199444","system_id":"levelo_inurba_marseille","lat":43.289307,"lon":5.38406,"is_reserved":false,"is_disabled":false,"rental_uris":{"android":"levelo://app?vid=23d47366-a19e-4eba-b3d2-83ea81199444","ios":"levelo://app?vid=23d47366-a19e-4eba-b3d2-83ea81199444"},"vehicle_type_id":"4","last_reported":1711303797,"current_range_meters":800,"station_id":"ce4bh612rcd13ifvqe6g","pricing_plan_id":"cebpf4jnsgd1na2vs0mg"},{"bike_id":"8edaf533-95e6-443b-8182-6adab52c5183","system_id":"levelo_inurba_marseille","lat":43.29034,"lon":5.38643,"is_reserved":false,"is_disabled":false,"rental_uris":{"android":"levelo://app?vid=8edaf533-95e6-443b-8182-6adab52c5183","ios":"levelo://app?vid=8edaf533-95e6-443b-8182-6adab52c5183"},"vehicle_type_id":"4","last_reported":1711303797,"current_range_meters":28400,"station_id":"ce4bh4p2rcd13ifvqe0g","pricing_plan_id":"cebpf4jnsgd1na2vs0mg"},{"bike_id":"573c1a0e-0b3c-44c0-8ddc-257e3d45c700","system_id":"levelo_inurba_marseille","lat":43.302759,"lon":5.400793,"is_reserved":false,"is_disabled":false,"rental_uris":{"android":"levelo://app?vid=573c1a0e-0b3c-44c0-8ddc-257e3d45c700","ios":"levelo://app?vid=573c1a0e-0b3c-44c0-8ddc-257e3d45c700"},"vehicle_type_id":"4","last_reported":1711303797,"current_range_meters":22400,"station_id":"ce4bgvh2rcd13ifvqcs0","pricing_plan_id":"cebpf4jnsgd1na2vs0mg"},{"bike_id":"1c766032-1f8e-4ddc-ad9e-013c8a6b81aa","system_id":"levelo_inurba_marseille","lat":43.289307,"lon":5.38406,"is_reserved":false,"is_disabled":false,"rental_uris":{"android":"levelo://app?vid=1c766032-1f8e-4ddc-ad9e-013c8a6b81aa","ios":"levelo://app?vid=1c766032-1f8e-4ddc-ad9e-013c8a6b81aa"},"vehicle_type_id":"4","last_reported":1711303797,"current_range_meters":11200,"station_id":"ce4bh612rcd13ifvqe6g","pricing_plan_id":"cebpf4jnsgd1na2vs0mg"},{"bike_id":"0097c4cf-3d17-494b-b691-4fb17ca61745","system_id":"levelo_inurba_marseille","lat":43.290274,"lon":5.386401,"is_reserved":false,"is_disabled":false,"rental_uris":{"android":"levelo://app?vid=0097c4cf-3d17-494b-b691-4fb17ca61745","ios":"levelo://app?vid=0097c4cf-3d17-494b-b691-4fb17ca61745"},"vehicle_type_id":"4","last_reported":1711303797,"current_range_meters":0,"station_id":"ce4bh4p2rcd13ifvqe0g","pricing_plan_id":"cebpf4jnsgd1na2vs0mg"},{"bike_id":"f51dc8e1-6939-497d-b9e0-2d1c81f29bc1","system_id":"levelo_inurba_marseille","lat":43.290336,"lon":5.386425,"is_reserved":false,"is_disabled":false,"rental_uris":{"android":"levelo://app?vid=f51dc8e1-6939-497d-b9e0-2d1c81f29bc1","ios":"levelo://app?vid=f51dc8e1-6939-497d-b9e0-2d1c81f29bc1"},"vehicle_type_id":"4","last_reported":1711303797,"current_range_meters":1600,"station_id":"ce4bh4p2rcd13ifvqe0g","pricing_plan_id":"cebpf4jnsgd1na2vs0mg"},{"bike_id":"f18676d8-813d-41af-af3a-c8ed703e3a13","system_id":"levelo_inurba_marseille","lat":43.302759,"lon":5.400793,"is_reserved":false,"is_disabled":false,"rental_uris":{"android":"levelo://app?vid=f18676d8-813d-41af-af3a-c8ed703e3a13","ios":"levelo://app?vid=f18676d8-813d-41af-af3a-c8ed703e3a13"},"vehicle_type_id":"4","last_reported":1711303797,"current_range_meters":2000,"station_id":"ce4bgvh2rcd13ifvqcs0","pricing_plan_id":"cebpf4jnsgd1na2vs0mg"},{"bike_id":"7c12c486-ba5a-48a7-93f0-7f8ca53ffa0e","system_id":"levelo_inurba_marseille","lat":43.290336,"lon":5.386425,"is_reserved":false,"is_disabled":false,"rental_uris":{"android":"levelo://app?vid=7c12c486-ba5a-48a7-93f0-7f8ca53ffa0e","ios":"levelo://app?vid=7c12c486-ba5a-48a7-93f0-7f8ca53ffa0e"},"vehicle_type_id":"4","last_reported":1711303797,"current_range_meters":5200,"station_id":"ce4bh4p2rcd13ifvqe0g","pricing_plan_id":"cebpf4jnsgd1na2vs0mg"},{"bike_id":"9463aa02-8c11-4699-911b-41642e7e2406","system_id":"levelo_inurba_marseille","lat":43.287184,"lon":5.37937,"is_reserved":false,"is_disabled":false,"rental_uris":{"android":"levelo://app?vid=9463aa02-8c11-4699-911b-41642e7e2406","ios":"levelo://app?vid=9463aa02-8c11-4699-911b-41642e7e2406"},"vehicle_type_id":"4","last_reported":1711303797,"current_range_meters":26800,"station_id":"ce4bh9p2rcd13ifvqec0","pricing_plan_id":"cebpf4jnsgd1na2vs0mg"},{"bike_id":"26f5618e-d773-40a0-91a9-11f741d8a0e3","system_id":"levelo_inurba_marseille","lat":43.287185,"lon":5.379373,"is_reserved":false,"is_disabled":false,"rental_uris":{"android":"levelo://app?vid=26f5618e-d773-40a0-91a9-11f741d8a0e3","ios":"levelo://app?vid=26f5618e-d773-40a0-91a9-11f741d8a0e3"},"vehicle_type_id":"4","last_reported":1711303797,"current_range_meters":10800,"station_id":"ce4bh9p2rcd13ifvqec0","pricing_plan_id":"cebpf4jnsgd1na2vs0mg"},{"bike_id":"0166ecb8-7364-4dc0-92f6-cca436e66d6b","system_id":"levelo_inurba_marseille","lat":43.287185,"lon":5.379373,"is_reserved":false,"is_disabled":false,"rental_uris":{"android":"levelo://app?vid=0166ecb8-7364-4dc0-92f6-cca436e66d6b","ios":"levelo://app?vid=0166ecb8-7364-4dc0-92f6-cca436e66d6b"},"vehicle_type_id":"4","last_reported":1711303797,"current_range_meters":1200,"station_id":"ce4bh9p2rcd13ifvqec0","pricing_plan_id":"cebpf4jnsgd1na2vs0mg"},{"bike_id":"31a643d8-db5e-4672-a4f0-5b7530adb618","system_id":"levelo_inurba_marseille","lat":43.287185,"lon":5.379373,"is_reserved":false,"is_disabled":false,"rental_uris":{"android":"levelo://app?vid=31a643d8-db5e-4672-a4f0-5b7530adb618","ios":"levelo://app?vid=31a643d8-db5e-4672-a4f0-5b7530adb618"},"vehicle_type_id":"4","last_reported":1711303797,"current_range_meters":8800,"station_id":"ce4bh9p2rcd13ifvqec0","pricing_plan_id":"cebpf4jnsgd1na2vs0mg"},{"bike_id":"21d305f2-c827-46f9-8b61-35658a1de2d2","system_id":"levelo_inurba_marseille","lat":43.31694,"lon":5.404643,"is_reserved":false,"is_disabled":false,"rental_uris":{"android":"levelo://app?vid=21d305f2-c827-46f9-8b61-35658a1de2d2","ios":"levelo://app?vid=21d305f2-c827-46f9-8b61-35658a1de2d2"},"vehicle_type_id":"4","last_reported":1711303797,"current_range_meters":0,"station_id":"ce4bh012rcd13ifvqd00","pricing_plan_id":"cebpf4jnsgd1na2vs0mg"},{"bike_id":"3d8fa888-e042-4465-b2f9-0f1bd80993b8","system_id":"levelo_inurba_marseille","lat":43.291994,"lon":5.392907,"is_reserved":false,"is_disabled":false,"rental_uris":{"android":"levelo://app?vid=3d8fa888-e042-4465-b2f9-0f1bd80993b8","ios":"levelo://app?vid=3d8fa888-e042-4465-b2f9-0f1bd80993b8"},"vehicle_type_id":"4","last_reported":1711303797,"current_range_meters":14000,"station_id":"ce4bh192rcd13ifvqdd0","pricing_plan_id":"cebpf4jnsgd1na2vs0mg"},{"bike_id":"9691dff2-65d1-428a-8e79-91bd91b17de4","system_id":"levelo_inurba_marseille","lat":43.294314,"lon":5.397498,"is_reserved":false,"is_disabled":false,"rental_uris":{"android":"levelo://app?vid=9691dff2-65d1-428a-8e79-91bd91b17de4","ios":"levelo://app?vid=9691dff2-65d1-428a-8e79-91bd91b17de4"},"vehicle_type_id":"4","last_reported":1711303797,"current_range_meters":10000,"station_id":"ce4bh3h2rcd13ifvqdo0","pricing_plan_id":"cebpf4jnsgd1na2vs0mg"},{"bike_id":"86ca5adf-f46c-4b58-9f4c-8910084b4c85","system_id":"levelo_inurba_marseille","lat":43.284538,"lon":5.358657,"is_reserved":false,"is_disabled":false,"rental_uris":{"android":"levelo://app?vid=86ca5adf-f46c-4b58-9f4c-8910084b4c85","ios":"levelo://app?vid=86ca5adf-f46c-4b58-9f4c-8910084b4c85"},"vehicle_type_id":"4","last_reported":1711303797,"current_range_meters":0,"station_id":"ce4bhah2rcd13ifvqei0","pricing_plan_id":"cebpf4jnsgd1na2vs0mg"},{"bike_id":"11ef5d8c-c9bf-411d-8945-51d7453d25e0","system_id":"levelo_inurba_marseille","lat":43.285856,"lon":5.350771,"is_reserved":false,"is_disabled":false,"rental_uris":{"android":"levelo://app?vid=11ef5d8c-c9bf-411d-8945-51d7453d25e0","ios":"levelo://app?vid=11ef5d8c-c9bf-411d-8945-51d7453d25e0"},"vehicle_type_id":"4","last_reported":1711303797,"current_range_meters":0,"station_id":"ce4bhch2rcd13ifvqeug","pricing_plan_id":"cebpf4jnsgd1na2vs0mg"},{"bike_id":"e1400d4c-63e1-496b-976b-a5729b42e7e8","system_id":"levelo_inurba_marseille","lat":43.285856,"lon":5.350771,"is_reserved":false,"is_disabled":false,"rental_uris":{"android":"levelo://app?vid=e1400d4c-63e1-496b-976b-a5729b42e7e8","ios":"levelo://app?vid=e1400d4c-63e1-496b-976b-a5729b42e7e8"},"vehicle_type_id":"4","last_reported":1711303797,"current_range_meters":0,"station_id":"ce4bhch2rcd13ifvqeug","pricing_plan_id":"cebpf4jnsgd1na2vs0mg"},{"bike_id":"af0c7373-d7d9-46b7-975c-31ef401a9e0b","system_id":"levelo_inurba_marseille","lat":43.285856,"lon":5.350771,"is_reserved":false,"is_disabled":false,"rental_uris":{"android":"levelo://app?vid=af0c7373-d7d9-46b7-975c-31ef401a9e0b","ios":"levelo://app?vid=af0c7373-d7d9-46b7-975c-31ef401a9e0b"},"vehicle_type_id":"4","last_reported":1711303797,"current_range_meters":10400,"station_id":"ce4bhch2rcd13ifvqeug","pricing_plan_id":"cebpf4jnsgd1na2vs0mg"},{"bike_id":"2e4d5d77-7a69-4eb6-b1bf-d9d5521a4a02","system_id":"levelo_inurba_marseille","lat":43.285856,"lon":5.350771,"is_reserved":false,"is_disabled":false,"rental_uris":{"android":"levelo://app?vid=2e4d5d77-7a69-4eb6-b1bf-d9d5521a4a02","ios":"levelo://app?vid=2e4d5d77-7a69-4eb6-b1bf-d9d5521a4a02"},"vehicle_type_id":"4","last_reported":1711303797,"current_range_meters":0,"station_id":"ce4bhch2rcd13ifvqeug","pricing_plan_id":"cebpf4jnsgd1na2vs0mg"},{"bike_id":"d8bd51e8-00f1-4893-8c00-1e7f6d4637ca","system_id":"levelo_inurba_marseille","lat":43.285856,"lon":5.350771,"is_reserved":false,"is_disabled":false,"rental_uris":{"android":"levelo://app?vid=d8bd51e8-00f1-4893-8c00-1e7f6d4637ca","ios":"levelo://app?vid=d8bd51e8-00f1-4893-8c00-1e7f6d4637ca"},"vehicle_type_id":"4","last_reported":1711303797,"current_range_meters":0,"station_id":"ce4bhch2rcd13ifvqeug","pricing_plan_id":"cebpf4jnsgd1na2vs0mg"},{"bike_id":"2eb5faaf-8ee4-408a-a4a9-1918161295ad","system_id":"levelo_inurba_marseille","lat":43.285856,"lon":5.350771,"is_reserved":false,"is_disabled":false,"rental_uris":{"android":"levelo://app?vid=2eb5faaf-8ee4-408a-a4a9-1918161295ad","ios":"levelo://app?vid=2eb5faaf-8ee4-408a-a4a9-1918161295ad"},"vehicle_type_id":"4","last_reported":1711303797,"current_range_meters":0,"station_id":"ce4bhch2rcd13ifvqeug","pricing_plan_id":"cebpf4jnsgd1na2vs0mg"},{"bike_id":"278575c8-89fb-4c88-9b4b-3912ace15c4f","system_id":"levelo_inurba_marseille","lat":43.283998,"lon":5.375062,"is_reserved":false,"is_disabled":false,"rental_uris":{"android":"levelo://app?vid=278575c8-89fb-4c88-9b4b-3912ace15c4f","ios":"levelo://app?vid=278575c8-89fb-4c88-9b4b-3912ace15c4f"},"vehicle_type_id":"4","last_reported":1711303797,"current_range_meters":14400,"station_id":"ce4bh412rcd13ifvqds0","pricing_plan_id":"cebpf4jnsgd1na2vs0mg"},{"bike_id":"ea27662e-6745-455a-94be-44166adbfaad","system_id":"levelo_inurba_marseille","lat":43.283998,"lon":5.375062,"is_reserved":false,"is_disabled":false,"rental_uris":{"android":"levelo://app?vid=ea27662e-6745-455a-94be-44166adbfaad","ios":"levelo://app?vid=ea27662e-6745-455a-94be-44166adbfaad"},"vehicle_type_id":"4","last_reported":1711303797,"current_range_meters":0,"station_id":"ce4bh412rcd13ifvqds0","pricing_plan_id":"cebpf4jnsgd1na2vs0mg"},{"bike_id":"8148c380-311f-4d9b-9e9a-bbb24500c4df","system_id":"levelo_inurba_marseille","lat":43.283998,"lon":5.375062,"is_reserved":false,"is_disabled":false,"rental_uris":{"android":"levelo://app?vid=8148c380-311f-4d9b-9e9a-bbb24500c4df","ios":"levelo://app?vid=8148c380-311f-4d9b-9e9a-bbb24500c4df"},"vehicle_type_id":"4","last_reported":1711303797,"current_range_meters":0,"station_id":"ce4bh412rcd13ifvqds0","pricing_plan_id":"cebpf4jnsgd1na2vs0mg"},{"bike_id":"25ee4bfe-0a4d-4716-9a1c-badf3e8689e4","system_id":"levelo_inurba_marseille","lat":43.283998,"lon":5.375062,"is_reserved":false,"is_disabled":false,"rental_uris":{"android":"levelo://app?vid=25ee4bfe-0a4d-4716-9a1c-badf3e8689e4","ios":"levelo://app?vid=25ee4bfe-0a4d-4716-9a1c-badf3e8689e4"},"vehicle_type_id":"4","last_reported":1711303797,"current_range_meters":4000,"station_id":"ce4bh412rcd13ifvqds0","pricing_plan_id":"cebpf4jnsgd1na2vs0mg"},{"bike_id":"ebe0e599-53dc-46c3-8c4e-8a1c56637735","system_id":"levelo_inurba_marseille","lat":43.283998,"lon":5.375062,"is_reserved":false,"is_disabled":false,"rental_uris":{"android":"levelo://app?vid=ebe0e599-53dc-46c3-8c4e-8a1c56637735","ios":"levelo://app?vid=ebe0e599-53dc-46c3-8c4e-8a1c56637735"},"vehicle_type_id":"4","last_reported":1711303797,"current_range_meters":24800,"station_id":"ce4bh412rcd13ifvqds0","pricing_plan_id":"cebpf4jnsgd1na2vs0mg"},{"bike_id":"f9b20325-2f43-434d-8315-d9099d433828","system_id":"levelo_inurba_marseille","lat":43.283998,"lon":5.375062,"is_reserved":false,"is_disabled":false,"rental_uris":{"android":"levelo://app?vid=f9b20325-2f43-434d-8315-d9099d433828","ios":"levelo://app?vid=f9b20325-2f43-434d-8315-d9099d433828"},"vehicle_type_id":"4","last_reported":1711303797,"current_range_meters":13600,"station_id":"ce4bh412rcd13ifvqds0","pricing_plan_id":"cebpf4jnsgd1na2vs0mg"},{"bike_id":"3c9146a4-26de-44a6-8cba-10a54fa1602d","system_id":"levelo_inurba_marseille","lat":43.28681,"lon":5.38655,"is_reserved":false,"is_disabled":false,"rental_uris":{"android":"levelo://app?vid=3c9146a4-26de-44a6-8cba-10a54fa1602d","ios":"levelo://app?vid=3c9146a4-26de-44a6-8cba-10a54fa1602d"},"vehicle_type_id":"4","last_reported":1711303797,"current_range_meters":6400,"station_id":"ce4bh492rcd13ifvqdug","pricing_plan_id":"cebpf4jnsgd1na2vs0mg"},{"bike_id":"f534eb0c-fc6a-414c-966e-075392c81de0","system_id":"levelo_inurba_marseille","lat":43.286822,"lon":5.386582,"is_reserved":false,"is_disabled":false,"rental_uris":{"android":"levelo://app?vid=f534eb0c-fc6a-414c-966e-075392c81de0","ios":"levelo://app?vid=f534eb0c-fc6a-414c-966e-075392c81de0"},"vehicle_type_id":"4","last_reported":1711303797,"current_range_meters":0,"station_id":"ce4bh492rcd13ifvqdug","pricing_plan_id":"cebpf4jnsgd1na2vs0mg"},{"bike_id":"a5647eaf-1d93-42eb-b208-474af27188da","system_id":"levelo_inurba_marseille","lat":43.286737,"lon":5.386427,"is_reserved":false,"is_disabled":false,"rental_uris":{"android":"levelo://app?vid=a5647eaf-1d93-42eb-b208-474af27188da","ios":"levelo://app?vid=a5647eaf-1d93-42eb-b208-474af27188da"},"vehicle_type_id":"4","last_reported":1711303797,"current_range_meters":14000,"station_id":"ce4bh492rcd13ifvqdug","pricing_plan_id":"cebpf4jnsgd1na2vs0mg"},{"bike_id":"a41e1ef4-170c-4193-ad08-d946de49bf14","system_id":"levelo_inurba_marseille","lat":43.286751,"lon":5.386551,"is_reserved":false,"is_disabled":false,"rental_uris":{"android":"levelo://app?vid=a41e1ef4-170c-4193-ad08-d946de49bf14","ios":"levelo://app?vid=a41e1ef4-170c-4193-ad08-d946de49bf14"},"vehicle_type_id":"4","last_reported":1711303797,"current_range_meters":8400,"station_id":"ce4bh492rcd13ifvqdug","pricing_plan_id":"cebpf4jnsgd1na2vs0mg"},{"bike_id":"124266d8-5b12-4ea4-9835-621e7fb8f2e1","system_id":"levelo_inurba_marseille","lat":43.286595,"lon":5.386795,"is_reserved":false,"is_disabled":false,"rental_uris":{"android":"levelo://app?vid=124266d8-5b12-4ea4-9835-621e7fb8f2e1","ios":"levelo://app?vid=124266d8-5b12-4ea4-9835-621e7fb8f2e1"},"vehicle_type_id":"4","last_reported":1711303797,"current_range_meters":4000,"station_id":"ce4bh492rcd13ifvqdug","pricing_plan_id":"cebpf4jnsgd1na2vs0mg"},{"bike_id":"4bda26ca-b6cf-4254-9cf6-4070153113f2","system_id":"levelo_inurba_marseille","lat":43.286595,"lon":5.386795,"is_reserved":false,"is_disabled":false,"rental_uris":{"android":"levelo://app?vid=4bda26ca-b6cf-4254-9cf6-4070153113f2","ios":"levelo://app?vid=4bda26ca-b6cf-4254-9cf6-4070153113f2"},"vehicle_type_id":"4","last_reported":1711303797,"current_range_meters":3200,"station_id":"ce4bh492rcd13ifvqdug","pricing_plan_id":"cebpf4jnsgd1na2vs0mg"},