{"last_updated":1741424888,"ttl":60,"version":"2.2","data":{"bikes":[{"bike_id":"744682db-ccd1-48e2-b39e-83f64937fc90","system_id":"levelo_inurba_marseille","lat":43.293823,"lon":5.385408,"is_reserved":false,"is_disabled":false,"rental_uris":{"android":"levelo://app?vid=744682db-ccd1-48e2-b39e-83f64937fc90","ios":"levelo://app?vid=744682db-ccd1-48e2-b39e-83f64937fc90"},"vehicle_type_id":"4","last_reported":1741424889,"current_range_meters":3200,"station_id":"ce4bgvp2rcd13ifvqct0","pricing_plan_id":"cebpf4jnsgd1na2vs0mg"},{"bike_id":"f7a85f1b-5528-4bd4-98d9-a65f1b6b8628","system_id":"levelo_inurba_marseille","lat":43.28919,"lon":5.35446,"is_reserved":false,"is_disabled":false,"rental_uris":{"android":"levelo://app?vid=f7a85f1b-5528-4bd4-98d9-a65f1b6b8628","ios":"levelo://app?vid=f7a85f1b-5528-4bd4-98d9-a65f1b6b8628"},"vehicle_type_id":"4","last_reported":1741424889,"current_range_meters":3200,"station_id":"","pricing_plan_id":"cebpf4jnsgd1na2vs0mg"},{"bike_id":"de3230bd-d533-4203-8342-d31b971a04f9","system_id":"levelo_inurba_marseille","lat":43.241619,"lon":5.364064,"is_reserved":false,"is_disabled":false,"rental_uris":{"android":"levelo://app?vid=de3230bd-d533-4203-8342-d31b971a04f9","ios":"levelo://app?vid=de3230bd-d533-4203-8342-d31b971a04f9"},"vehicle_type_id":"4","last_reported":1741424889,"current_range_meters":3200,"station_id":"cpo36qri1sfpv3e86is0","pricing_plan_id":"cebpf4jnsgd1na2vs0mg"},{"bike_id":"24df224d-ffa5-472e-acc0-380979001d96","system_id":"levelo_inurba_marseille","lat":43.25717,"lon":5.41116,"is_reserved":false,"is_disabled":false,"rental_uris":{"android":"levelo://app?vid=24df224d-ffa5-472e-acc0-380979001d96","ios":"levelo://app?vid=24df224d-ffa5-472e-acc0-380979001d96"},"vehicle_type_id":"4","last_reported":1741424889,"current_range_meters":3200,"station_id":"ce4bhkp2rcd13ifvqgd0","pricing_plan_id":"cebpf4jnsgd1na2vs0mg"},{"bike_id":"914bbafb-3768-41ed-9924-1947bd4ab869","system_id":"levelo_inurba_marseille","lat":43.30151,"lon":5.38396,"is_reserved":false,"is_disabled":false,"rental_uris":{"android":"levelo://app?vid=914bbafb-3768-41ed-9924-1947bd4ab869","ios":"levelo://app?vid=914bbafb-3768-41ed-9924-1947bd4ab869"},"vehicle_type_id":"4","last_reported":1741424889,"current_range_meters":3200,"station_id":"","pricing_plan_id":"cebpf4jnsgd1na2vs0mg"},{"bike_id":"c5d9a748-fb84-4751-9008-dc4467d9ed9a","system_id":"levelo_inurba_marseille","lat":43.23198,"lon":5.35563,"is_reserved":false,"is_disabled":false,"rental_uris":{"android":"levelo://app?vid=c5d9a748-fb84-4751-9008-dc4467d9ed9a","ios":"levelo://app?vid=c5d9a748-fb84-4751-9008-dc4467d9ed9a"},"vehicle_type_id":"4","last_reported":1741424889,"current_range_meters":3600,"station_id":"ce4bhu92rcd13ifvqi70","pricing_plan_id":"cebpf4jnsgd1na2vs0mg"},{"bike_id":"c85312f8-99c4-47a5-8d17-d4d000e7b06e","system_id":"levelo_inurba_marseille","lat":43.28613,"lon":5.35099,"is_reserved":false,"is_disabled":false,"rental_uris":{"android":"levelo://app?vid=c85312f8-99c4-47a5-8d17-d4d000e7b06e","ios":"levelo://app?vid=c85312f8-99c4-47a5-8d17-d4d000e7b06e"},"vehicle_type_id":"4","last_reported":1741424889,"current_range_meters":3600,"station_id":"ce4bhch2rcd13ifvqeug","pricing_plan_id":"cebpf4jnsgd1na2vs0mg"},{"bike_id":"3763ca09-281c-481c-9755-79dce3edd104","system_id":"levelo_inurba_marseille","lat":43.32004,"lon":5.38164,"is_reserved":false,"is_disabled":false,"rental_uris":{"android":"levelo://app?vid=3763ca09-281c-481c-9755-79dce3edd104","ios":"levelo://app?vid=3763ca09-281c-481c-9755-79dce3edd104"},"vehicle_type_id":"4","last_reported":1741424889,"current_range_meters":3600,"station_id":"ce4bhr12rcd13ifvqhpg","pricing_plan_id":"cebpf4jnsgd1na2vs0mg"},{"bike_id":"1b34c58c-f011-43f3-baac-47c6cf7523c0","system_id":"levelo_inurba_marseille","lat":43.298995,"lon":5.436625,"is_reserved":false,"is_disabled":true,"rental_uris":{"android":"levelo://app?vid=1b34c58c-f011-43f3-baac-47c6cf7523c0","ios":"levelo://app?vid=1b34c58c-f011-43f3-baac-47c6cf7523c0"},"vehicle_type_id":"4","last_reported":1741424889,"current_range_meters":4000,"station_id":"ce4bhpp2rcd13ifvqhfg","pricing_plan_id":"cebpf4jnsgd1na2vs0mg"},{"bike_id":"bb05f23e-14b8-454c-8b5f-3dfc96887b02","system_id":"levelo_inurba_marseille","lat":43.2624,"lon":5.40471,"is_reserved":false,"is_disabled":false,"rental_uris":{"android":"levelo://app?vid=bb05f23e-14b8-454c-8b5f-3dfc96887b02","ios":"levelo://app?vid=bb05f23e-14b8-454c-8b5f-3dfc96887b02"},"vehicle_type_id":"4","last_reported":1741424889,"current_range_meters":4000,"station_id":"ce4bhmh2rcd13ifvqgmg","pricing_plan_id":"cebpf4jnsgd1na2vs0mg"},{"bike_id":"5a7dcbc3-86d4-4d96-8819-bfde5635cd39","system_id":"levelo_inurba_marseille","lat":43.313283,"lon":5.397015,"is_reserved":false,"is_disabled":false,"rental_uris":{"android":"levelo://app?vid=5a7dcbc3-86d4-4d96-8819-bfde5635cd39","ios":"levelo://app?vid=5a7dcbc3-86d4-4d96-8819-bfde5635cd39"},"vehicle_type_id":"4","last_reported":1741424889,"current_range_meters":4000,"station_id":"ce4bgvp2rcd13ifvqcu0","pricing_plan_id":"cebpf4jnsgd1na2vs0mg"},{"bike_id":"ca1b5ebb-a98e-491d-bd88-b70456e19fba","system_id":"levelo_inurba_marseille","lat":43.2763,"lon":5.3614,"is_reserved":false,"is_disabled":false,"rental_uris":{"android":"levelo://app?vid=ca1b5ebb-a98e-491d-bd88-b70456e19fba","ios":"levelo://app?vid=ca1b5ebb-a98e-491d-bd88-b70456e19fba"},"vehicle_type_id":"4","last_reported":1741424889,"current_range_meters":4400,"station_id":"ce4bgj92rcd13ifvqbe0","pricing_plan_id":"cebpf4jnsgd1na2vs0mg"},{"bike_id":"6e55cb3d-1337-4aba-a677-1ed7fedf215a","system_id":"levelo_inurba_marseille","lat":43.26549,"lon":5.373,"is_reserved":false,"is_disabled":false,"rental_uris":{"android":"levelo://app?vid=6e55cb3d-1337-4aba-a677-1ed7fedf215a","ios":"levelo://app?vid=6e55cb3d-1337-4aba-a677-1ed7fedf215a"},"vehicle_type_id":"4","last_reported":1741424889,"current_range_meters":4400,"station_id":"ce4bhg12rcd13ifvqf70","pricing_plan_id":"cebpf4jnsgd1na2vs0mg"},{"bike_id":"73cc5456-8943-4526-8ec4-8dd8434c5e2d","system_id":"levelo_inurba_marseille","lat":43.23961,"lon":5.36636,"is_reserved":false,"is_disabled":false,"rental_uris":{"android":"levelo://app?vid=73cc5456-8943-4526-8ec4-8dd8434c5e2d","ios":"levelo://app?vid=73cc5456-8943-4526-8ec4-8dd8434c5e2d"},"vehicle_type_id":"4","last_reported":1741424889,"current_range_meters":4400,"station_id":"ce4bhi12rcd13ifvqfp0","pricing_plan_id":"cebpf4jnsgd1na2vs0mg"},{"bike_id":"43bc5e18-7bfb-4e30-b758-942e653f0d5a","system_id":"levelo_inurba_marseille","lat":43.24625,"lon":5.40277,"is_reserved":false,"is_disabled":false,"rental_uris":{"android":"levelo://app?vid=43bc5e18-7bfb-4e30-b758-942e653f0d5a","ios":"levelo://app?vid=43bc5e18-7bfb-4e30-b758-942e653f0d5a"},"vehicle_type_id":"4","last_reported":1741424889,"current_range_meters":4400,"station_id":"","pricing_plan_id":"cebpf4jnsgd1na2vs0mg"},{"bike_id":"023cc0e9-d30c-44e3-ab91-91789c99fd43","system_id":"levelo_inurba_marseille","lat":43.28074,"lon":5.39883,"is_reserved":false,"is_disabled":false,"rental_uris":{"android":"levelo://app?vid=023cc0e9-d30c-44e3-ab91-91789c99fd43","ios":"levelo://app?vid=023cc0e9-d30c-44e3-ab91-91789c99fd43"},"vehicle_type_id":"4","last_reported":1741424889,"current_range_meters":4400,"station_id":"","pricing_plan_id":"cebpf4jnsgd1na2vs0mg"},{"bike_id":"c9151ceb-fd35-4b40-9877-b7757062111e","system_id":"levelo_inurba_marseille","lat":43.27812,"lon":5.40707,"is_reserved":false,"is_disabled":false,"rental_uris":{"android":"levelo://app?vid=c9151ceb-fd35-4b40-9877-b7757062111e","ios":"levelo://app?vid=c9151ceb-fd35-4b40-9877-b7757062111e"},"vehicle_type_id":"4","last_reported":1741424889,"current_range_meters":4400,"station_id":"ce4bhnh2rcd13ifvqgtg","pricing_plan_id":"cebpf4jnsgd1na2vs0mg"},{"bike_id":"520c0daf-f0fd-4526-8e9d-0f644024e56b","system_id":"levelo_inurba_marseille","lat":43.28939,"lon":5.39635,"is_reserved":false,"is_disabled":false,"rental_uris":{"android":"levelo://app?vid=520c0daf-f0fd-4526-8e9d-0f644024e56b","ios":"levelo://app?vid=520c0daf-f0fd-4526-8e9d-0f644024e56b"},"vehicle_type_id":"4","last_reported":1741424889,"current_range_meters":4400,"station_id":"ce4bh3h2rcd13ifvqdn0","pricing_plan_id":"cebpf4jnsgd1na2vs0mg"},{"bike_id":"e82b73a7-d1ae-43c3-a107-e0b413d5ff48","system_id":"levelo_inurba_marseille","lat":43.32643,"lon":5.40991,"is_reserved":false,"is_disabled":false,"rental_uris":{"android":"levelo://app?vid=e82b73a7-d1ae-43c3-a107-e0b413d5ff48","ios":"levelo://app?vid=e82b73a7-d1ae-43c3-a107-e0b413d5ff48"},"vehicle_type_id":"4","last_reported":1741424889,"current_range_meters":4400,"station_id":"ce4bhpp2rcd13ifvqhgg","pricing_plan_id":"cebpf4jnsgd1na2vs0mg"},{"bike_id":"f8da97ff-638c-4c8a-9c05-1b2bf994ed31","system_id":"levelo_inurba_marseille","lat":43.25501,"lon":5.3765,"is_reserved":false,"is_disabled":false,"rental_uris":{"android":"levelo://app?vid=f8da97ff-638c-4c8a-9c05-1b2bf994ed31","ios":"levelo://app?vid=f8da97ff-638c-4c8a-9c05-1b2bf994ed31"},"vehicle_type_id":"4","last_reported":1741424889,"current_range_meters":4400,"station_id":"ce4bhh12rcd13ifvqff0","pricing_plan_id":"cebpf4jnsgd1na2vs0mg"},{"bike_id":"bb3cad49-1f44-4ca8-8b53-a9a721609bc8","system_id":"levelo_inurba_marseille","lat":43.31316,"lon":5.39677,"is_reserved":false,"is_disabled":false,"rental_uris":{"android":"levelo://app?vid=bb3cad49-1f44-4ca8-8b53-a9a721609bc8","ios":"levelo://app?vid=bb3cad49-1f44-4ca8-8b53-a9a721609bc8"},"vehicle_type_id":"4","last_reported":1741424889,"current_range_meters":4800,"station_id":"ce4bgvp2rcd13ifvqcu0","pricing_plan_id":"cebpf4jnsgd1na2vs0mg"},{"bike_id":"3332297b-ddda-468e-86eb-33cdac2c9b94","system_id":"levelo_inurba_marseille","lat":43.30377,"lon":5.41891,"is_reserved":false,"is_disabled":false,"rental_uris":{"android":"levelo://app?vid=3332297b-ddda-468e-86eb-33cdac2c9b94","ios":"levelo://app?vid=3332297b-ddda-468e-86eb-33cdac2c9b94"},"vehicle_type_id":"4","last_reported":1741424889,"current_range_meters":4800,"station_id":"ce4bhop2rcd13ifvqh7g","pricing_plan_id":"cebpf4jnsgd1na2vs0mg"},{"bike_id":"143b74fc-ab7b-4910-8495-ffc1ad22971d","system_id":"levelo_inurba_marseille","lat":43.25053,"lon":5.38938,"is_reserved":false,"is_disabled":true,"rental_uris":{"android":"levelo://app?vid=143b74fc-ab7b-4910-8495-ffc1ad22971d","ios":"levelo://app?vid=143b74fc-ab7b-4910-8495-ffc1ad22971d"},"vehicle_type_id":"4","last_reported":1741424889,"current_range_meters":4800,"station_id":"","pricing_plan_id":"cebpf4jnsgd1na2vs0mg"},{"bike_id":"b8a7bf2e-8942-444e-8deb-ba5cf17be251","system_id":"levelo_inurba_marseille","lat":43.28616,"lon":5.35103,"is_reserved":false,"is_disabled":false,"rental_uris":{"android":"levelo://app?vid=b8a7bf2e-8942-444e-8deb-ba5cf17be251","ios":"levelo://app?vid=b8a7bf2e-8942-444e-8deb-ba5cf17be251"},"vehicle_type_id":"4","last_reported":1741424889,"current_range_meters":4800,"station_id":"ce4bhch2rcd13ifvqeug","pricing_plan_id":"cebpf4jnsgd1na2vs0mg"},{"bike_id":"c7b856f3-5384-43d0-9239-d897a865fee4","system_id":"levelo_inurba_marseille","lat":43.23056,"lon":5.35509,"is_reserved":false,"is_disabled":false,"rental_uris":{"android":"levelo://app?vid=c7b856f3-5384-43d0-9239-d897a865fee4","ios":"levelo://app?vid=c7b856f3-5384-43d0-9239-d897a865fee4"},"vehicle_type_id":"4","last_reported":1741424889,"current_range_meters":4800,"station_id":"cpo3342slgdg3j2ifvpg","pricing_plan_id":"cebpf4jnsgd1na2vs0mg"},{"bike_id":"d6d8f87b-25ab-4e84-9c2a-1348cf230730","system_id":"levelo_inurba_marseille","lat":43.281538,"lon":5.402184,"is_reserved":false,"is_disabled":true,"rental_uris":{"android":"levelo://app?vid=d6d8f87b-25ab-4e84-9c2a-1348cf230730","ios":"levelo://app?vid=d6d8f87b-25ab-4e84-9c2a-1348cf230730"},"vehicle_type_id":"4","last_reported":1741424889,"current_range_meters":4800,"station_id":"","pricing_plan_id":"cebpf4jnsgd1na2vs0mg"},{"bike_id":"019e9eab-2e00-4347-ba56-acd31b945f45","system_id":"levelo_inurba_marseille","lat":43.32336,"lon":5.40656,"is_reserved":false,"is_disabled":false,"rental_uris":{"android":"levelo://app?vid=019e9eab-2e00-4347-ba56-acd31b945f45","ios":"levelo://app?vid=019e9eab-2e00-4347-ba56-acd31b945f45"},"vehicle_type_id":"4","last_reported":1741424889,"current_range_meters":4800,"station_id":"ce4bhq92rcd13ifvqhjg","pricing_plan_id":"cebpf4jnsgd1na2vs0mg"},{"bike_id":"a8412a7a-010e-484a-b42c-cb34a76c7697","system_id":"levelo_inurba_marseille","lat":43.32635,"lon":5.40925,"is_reserved":false,"is_disabled":false,"rental_uris":{"android":"levelo://app?vid=a8412a7a-010e-484a-b42c-cb34a76c7697","ios":"levelo://app?vid=a8412a7a-010e-484a-b42c-cb34a76c7697"},"vehicle_type_id":"4","last_reported":1741424889,"current_range_meters":5600,"station_id":"ce4bhpp2rcd13ifvqhgg","pricing_plan_id":"cebpf4jnsgd1na2vs0mg"},{"bike_id":"51571493-afa3-43ca-8b2d-3fb120091f41","system_id":"levelo_inurba_marseille","lat":43.291321,"lon":5.35586,"is_reserved":false,"is_disabled":false,"rental_uris":{"android":"levelo://app?vid=51571493-afa3-43ca-8b2d-3fb120091f41","ios":"levelo://app?vid=51571493-afa3-43ca-8b2d-3fb120091f41"},"vehicle_type_id":"4","last_reported":1741424889,"current_range_meters":5600,"station_id":"cpo3532slgdg3j2ikp40","pricing_plan_id":"cebpf4jnsgd1na2vs0mg"},{"bike_id":"53ba06d6-3b6c-4f49-bc80-8f7e1937ded3","system_id":"levelo_inurba_marseille","lat":43.27907,"lon":5.41253,"is_reserved":false,"is_disabled":false,"rental_uris":{"android":"levelo://app?vid=53ba06d6-3b6c-4f49-bc80-8f7e1937ded3","ios":"levelo://app?vid=53ba06d6-3b6c-4f49-bc80-8f7e1937ded3"},"vehicle_type_id":"4","last_reported":1741424889,"current_range_meters":5600,"station_id":"","pricing_plan_id":"cebpf4jnsgd1na2vs0mg"},{"bike_id":"5ece6216-c140-461a-8332-f5b985568faf","system_id":"levelo_inurba_marseille","lat":43.27956,"lon":5.38707,"is_reserved":false,"is_disabled":false,"rental_uris":{"android":"levelo://app?vid=5ece6216-c140-461a-8332-f5b985568faf","ios":"levelo://app?vid=5ece6216-c140-461a-8332-f5b985568faf"},"vehicle_type_id":"4","last_reported":1741424889,"current_range_meters":5600,"station_id":"ce4bhg12rcd13ifvqf80","pricing_plan_id":"cebpf4jnsgd1na2vs0mg"},{"bike_id":"72ad35d5-229e-4395-b775-8a505aad1b5e","system_id":"levelo_inurba_marseille","lat":43.27625,"lon":5.36127,"is_reserved":false,"is_disabled":false,"rental_uris":{"android":"levelo://app?vid=72ad35d5-229e-4395-b775-8a505aad1b5e","ios":"levelo://app?vid=72ad35d5-229e-4395-b775-8a505aad1b5e"},"vehicle_type_id":"4","last_reported":1741424889,"current_range_meters":6000,"station_id":"ce4bgj92rcd13ifvqbe0","pricing_plan_id":"cebpf4jnsgd1na2vs0mg"},{"bike_id":"f6e53426-7a62-4d34-a367-7f23b615b4c1","system_id":"levelo_inurba_marseille","lat":43.23153,"lon":5.43702,"is_reserved":false,"is_disabled":false,"rental_uris":{"android":"levelo://app?vid=f6e53426-7a62-4d34-a367-7f23b615b4c1","ios":"levelo://app?vid=f6e53426-7a62-4d34-a367-7f23b615b4c1"},"vehicle_type_id":"4","last_reported":1741424889,"current_range_meters":5600,"station_id":"ce4bhmp2rcd13ifvqgog","pricing_plan_id":"cebpf4jnsgd1na2vs0mg"},{"bike_id":"3a090aba-8792-4e90-ae22-5154f3f7f1bc","system_id":"levelo_inurba_marseille","lat":43.32083,"lon":5.36787,"is_reserved":false,"is_disabled":false,"rental_uris":{"android":"levelo://app?vid=3a090aba-8792-4e90-ae22-5154f3f7f1bc","ios":"levelo://app?vid=3a090aba-8792-4e90-ae22-5154f3f7f1bc"},"vehicle_type_id":"4","last_reported":1741424889,"current_range_meters":6000,"station_id":"ce4bhrh2rcd13ifvqhug","pricing_plan_id":"cebpf4jnsgd1na2vs0mg"},{"bike_id":"3f60858d-19a4-4d90-b076-d0db701352bd","system_id":"levelo_inurba_marseille","lat":43.30316,"lon":5.40472,"is_reserved":false,"is_disabled":false,"rental_uris":{"android":"levelo://app?vid=3f60858d-19a4-4d90-b076-d0db701352bd","ios":"levelo://app?vid=3f60858d-19a4-4d90-b076-d0db701352bd"},"vehicle_type_id":"4","last_reported":1741424889,"current_range_meters":6400,"station_id":"ce4bh012rcd13ifvqd10","pricing_plan_id":"cebpf4jnsgd1na2vs0mg"},{"bike_id":"0af30f24-954a-46d7-b033-51d52f807b8c","system_id":"levelo_inurba_marseille","lat":43.25017,"lon":5.38931,"is_reserved":false,"is_disabled":false,"rental_uris":{"android":"levelo://app?vid=0af30f24-954a-46d7-b033-51d52f807b8c","ios":"levelo://app?vid=0af30f24-954a-46d7-b033-51d52f807b8c"},"vehicle_type_id":"4","last_reported":1741424889,"current_range_meters":6800,"station_id":"ce4bhgp2rcd13ifvqfd0","pricing_plan_id":"cebpf4jnsgd1na2vs0mg"},{"bike_id":"51510a95-54e3-4b84-9b22-bfa3391426f3","system_id":"levelo_inurba_marseille","lat":43.23199,"lon":5.35584,"is_reserved":false,"is_disabled":false,"rental_uris":{"android":"levelo://app?vid=51510a95-54e3-4b84-9b22-bfa3391426f3","ios":"levelo://app?vid=51510a95-54e3-4b84-9b22-bfa3391426f3"},"vehicle_type_id":"4","last_reported":1741424889,"current_range_meters":6800,"station_id":"ce4bhu92rcd13ifvqi70","pricing_plan_id":"cebpf4jnsgd1na2vs0mg"},{"bike_id":"56e5dbd6-14af-4ae2-9e57-91bed1fe7f42","system_id":"levelo_inurba_marseille","lat":43.2816,"lon":5.42652,"is_reserved":false,"is_disabled":false,"rental_uris":{"android":"levelo://app?vid=56e5dbd6-14af-4ae2-9e57-91bed1fe7f42","ios":"levelo://app?vid=56e5dbd6-14af-4ae2-9e57-91bed1fe7f42"},"vehicle_type_id":"4","last_reported":1741424889,"current_range_meters":6800,"station_id":"ce4bhnh2rcd13ifvqgug","pricing_plan_id":"cebpf4jnsgd1na2vs0mg"},{"bike_id":"b2cada68-d22d-4962-a15a-eab832155af1","system_id":"levelo_inurba_marseille","lat":43.31338,"lon":5.39709,"is_reserved":false,"is_disabled":false,"rental_uris":{"android":"levelo://app?vid=b2cada68-d22d-4962-a15a-eab832155af1","ios":"levelo://app?vid=b2cada68-d22d-4962-a15a-eab832155af1"},"vehicle_type_id":"4","last_reported":1741424889,"current_range_meters":6800,"station_id":"ce4bgvp2rcd13ifvqcu0","pricing_plan_id":"cebpf4jnsgd1na2vs0mg"},{"bike_id":"2ecb7199-e931-4fbf-8923-dc54abbab8ef","system_id":"levelo_inurba_marseille","lat":43.2293,"lon":5.35375,"is_reserved":false,"is_disabled":false,"rental_uris":{"android":"levelo://app?vid=2ecb7199-e931-4fbf-8923-dc54abbab8ef","ios":"levelo://app?vid=2ecb7199-e931-4fbf-8923-dc54abbab8ef"},"vehicle_type_id":"4","last_reported":1741424889,"current_range_meters":4000,"station_id":"cpo3532slgdg3j2ikp40","pricing_plan_id":"cebpf4jnsgd1na2vs0mg"},{"bike_id":"54868156-3501-4485-b64a-600156c1037f","system_id":"levelo_inurba_marseille","lat":43.24679,"lon":5.38171,"is_reserved":false,"is_disabled":false,"rental_uris":{"android":"levelo://app?vid=54868156-3501-4485-b64a-600156c1037f","ios":"levelo://app?vid=54868156-3501-4485-b64a-600156c1037f"},"vehicle_type_id":"4","last_reported":1741424889,"current_range_meters":6800,"station_id":"ce4bhih2rcd13ifvqfr0","pricing_plan_id":"cebpf4jnsgd1na2vs0mg"},{"bike_id":"62391f34-3130-43d3-9ff9-87e80b4db075","system_id":"levelo_inurba_marseille","lat":43.321073,"lon":5.367875,"is_reserved":false,"is_disabled":false,"rental_uris":{"android":"levelo://app?vid=62391f34-3130-43d3-9ff9-87e80b4db075","ios":"levelo://app?vid=62391f34-3130-43d3-9ff9-87e80b4db075"},"vehicle_type_id":"4","last_reported":1741424889,"current_range_meters":7200,"station_id":"ce4bhrh2rcd13ifvqhug","pricing_plan_id":"cebpf4jnsgd1na2vs0mg"},{"bike_id":"28515959-f7e8-41d7-974b-1592cdf3276e","system_id":"levelo_inurba_marseille","lat":43.26552,"lon":5.3729,"is_reserved":false,"is_disabled":false,"rental_uris":{"android":"levelo://app?vid=28515959-f7e8-41d7-974b-1592cdf3276e","ios":"levelo://app?vid=28515959-f7e8-41d7-974b-1592cdf3276e"},"vehicle_type_id":"4","last_reported":1741424889,"current_range_meters":7200,"station_id":"ce4bhg12rcd13ifvqf70","pricing_plan_id":"cebpf4jnsgd1na2vs0mg"},{"bike_id":"1f1b69c5-067d-4677-a02d-6299a5fc1bb9","system_id":"levelo_inurba_marseille","lat":43.23977,"lon":5.36597,"is_reserved":false,"is_disabled":false,"rental_uris":{"android":"levelo://app?vid=1f1b69c5-067d-4677-a02d-6299a5fc1bb9","ios":"levelo://app?vid=1f1b69c5-067d-4677-a02d-6299a5fc1bb9"},"vehicle_type_id":"4","last_reported":1741424889,"current_range_meters":7200,"station_id":"ce4bhi12rcd13ifvqfp0","pricing_plan_id":"cebpf4jnsgd1na2vs0mg"},{"bike_id":"d9708d6d-83b9-47c9-a90c-62bff4505670","system_id":"levelo_inurba_marseille","lat":43.27492,"lon":5.42452,"is_reserved":false,"is_disabled":false,"rental_uris":{"android":"levelo://app?vid=d9708d6d-83b9-47c9-a90c-62bff4505670","ios":"levelo://app?vid=d9708d6d-83b9-47c9-a90c-62bff4505670"},"vehicle_type_id":"4","last_reported":1741424889,"current_range_meters":7200,"station_id":"ce4bhn92rcd13ifvqgrg","pricing_plan_id":"cebpf4jnsgd1na2vs0mg"},{"bike_id":"88315901-c9a6-41af-ab68-786f17caae47","system_id":"levelo_inurba_marseille","lat":43.27959,"lon":5.38764,"is_reserved":false,"is_disabled":false,"rental_uris":{"android":"levelo://app?vid=88315901-c9a6-41af-ab68-786f17caae47","ios":"levelo://app?vid=88315901-c9a6-41af-ab68-786f17caae47"},"vehicle_type_id":"4","last_reported":1741424889,"current_range_meters":7200,"station_id":"ce4bhg12rcd13ifvqf80","pricing_plan_id":"cebpf4jnsgd1na2vs0mg"},{"bike_id":"904a8371-ebed-45e5-8cc3-b64b65860481","system_id":"levelo_inurba_marseille","lat":43.31717,"lon":5.37776,"is_reserved":false,"is_disabled":false,"rental_uris":{"android":"levelo://app?vid=904a8371-ebed-45e5-8cc3-b64b65860481","ios":"levelo://app?vid=904a8371-ebed-45e5-8cc3-b64b65860481"},"vehicle_type_id":"4","last_reported":1741424889,"current_range_meters":7200,"station_id":"ce4bgth2rcd13ifvqch0","pricing_plan_id":"cebpf4jnsgd1na2vs0mg"},{"bike_id":"67e94c61-e7ab-42f6-adc4-4f5482dd7f96","system_id":"levelo_inurba_marseille","lat":43.23191,"lon":5.39982,"is_reserved":false,"is_disabled":false,"rental_uris":{"android":"levelo://app?vid=67e94c61-e7ab-42f6-adc4-4f5482dd7f96","ios":"levelo://app?vid=67e94c61-e7ab-42f6-adc4-4f5482dd7f96"},"vehicle_type_id":"4","last_reported":1741424889,"current_range_meters":7200,"station_id":"ce4bhn12rcd13ifvqgqg","pricing_plan_id":"cebpf4jnsgd1na2vs0mg"},{"bike_id":"54dd401d-68e9-4373-b878-02cc9c29a6fc","system_id":"levelo_inurba_marseille","lat":43.31088,"lon":5.38361,"is_reserved":false,"is_disabled":false,"rental_uris":{"android":"levelo://app?vid=54dd401d-68e9-4373-b878-02cc9c29a6fc","ios":"levelo://app?vid=54dd401d-68e9-4373-b878-02cc9c29a6fc"},"vehicle_type_id":"4","last_reported":1741424889,"current_range_meters":7200,"station_id":"ce4bgv92rcd13ifvqcr0","pricing_plan_id":"cebpf4jnsgd1na2vs0mg"},{"bike_id":"59ef7ab1-f072-4315-9e2a-a3482cc569d5","system_id":"levelo_inurba_marseille","lat":43.29911,"lon":5.43658,"is_reserved":false,"is_disabled":false,"rental_uris":{"android":"levelo://app?vid=59ef7ab1-f072-4315-9e2a-a3482cc569d5","ios":"levelo://app?vid=59ef7ab1-f072-4315-9e2a-a3482cc569d5"},"vehicle_type_id":"4","last_reported":1741424889,"current_range_meters":8000,"station_id":"ce4bhpp2rcd13ifvqhfg","pricing_plan_id":"cebpf4jnsgd1na2vs0mg"},{"bike_id":"2fc70a1d-f235-4d4d-8d59-5144d963da00","system_id":"levelo_inurba_marseille","lat":43.27499,"lon":5.424593,"is_reserved":false,"is_disabled":false,"rental_uris":{"android":"levelo://app?vid=2fc70a1d-f235-4d4d-8d59-5144d963da00","ios":"levelo://app?vid=2fc70a1d-f235-4d4d-8d59-5144d963da00"},"vehicle_type_id":"4","last_reported":1741424889,"current_range_meters":8000,"station_id":"ce4bhn92rcd13ifvqgrg","pricing_plan_id":"cebpf4jnsgd1na2vs0mg"},{"bike_id":"bd1ca430-15b2-40f5-ab85-6f767aed8061","system_id":"levelo_inurba_marseille","lat":43.23044,"lon":5.35532,"is_reserved":false,"is_disabled":false,"rental_uris":{"android":"levelo://app?vid=bd1ca430-15b2-40f5-ab85-6f767aed8061","ios":"levelo://app?vid=bd1ca430-15b2-40f5-ab85-6f767aed8061"},"vehicle_type_id":"4","last_reported":1741424889,"current_range_meters":8000,"station_id":"cpo3342slgdg3j2ifvpg","pricing_plan_id":"cebpf4jnsgd1na2vs0mg"},{"bike_id":"57a062bd-39ac-4dcc-a9a6-c2caa45e6924","system_id":"levelo_inurba_marseille","lat":43.30947,"lon":5.39039,"is_reserved":false,"is_disabled":false,"rental_uris":{"android":"levelo://app?vid=57a062bd-39ac-4dcc-a9a6-c2caa45e6924","ios":"levelo://app?vid=57a062bd-39ac-4dcc-a9a6-c2caa45e6924"},"vehicle_type_id":"4","last_reported":1741424889,"current_range_meters":7200,"station_id":"ce4bgup2rcd13ifvqco0","pricing_plan_id":"cebpf4jnsgd1na2vs0mg"},{"bike_id":"086d469f-dff5-4ec5-8e53-42a42c799cc9","system_id":"levelo_inurba_marseille","lat":43.29552,"lon":5.423,"is_reserved":false,"is_disabled":false,"rental_uris":{"android":"levelo://app?vid=086d469f-dff5-4ec5-8e53-42a42c799cc9","ios":"levelo://app?vid=086d469f-dff5-4ec5-8e53-42a42c799cc9"},"vehicle_type_id":"4","last_reported":1741424889,"current_range_meters":8000,"station_id":"ce4bhph2rcd13ifvqhdg","pricing_plan_id":"cebpf4jnsgd1na2vs0mg"},{"bike_id":"d48130b3-37bc-4a44-a1a5-703b23f990ba","system_id":"levelo_inurba_marseille","lat":43.29267,"lon":5.3689,"is_reserved":false,"is_disabled":true,"rental_uris":{"android":"levelo://app?vid=d48130b3-37bc-4a44-a1a5-703b23f990ba","ios":"levelo://app?vid=d48130b3-37bc-4a44-a1a5-703b23f990ba"},"vehicle_type_id":"4","last_reported":1741424889,"current_range_meters":8000,"station_id":"ce4bhbp2rcd13ifvqesg","pricing_plan_id":"cebpf4jnsgd1na2vs0mg"},{"bike_id":"2730c7c5-3ecc-4085-abe6-19b869bac58c","system_id":"levelo_inurba_marseille","lat":43.29375,"lon":5.37859,"is_reserved":false,"is_disabled":false,"rental_uris":{"android":"levelo://app?vid=2730c7c5-3ecc-4085-abe6-19b869bac58c","ios":"levelo://app?vid=2730c7c5-3ecc-4085-abe6-19b869bac58c"},"vehicle_type_id":"4","last_reported":1741424889,"current_range_meters":8400,"station_id":"ce4bgjh2rcd13ifvqbf0","pricing_plan_id":"cebpf4jnsgd1na2vs0mg"},{"bike_id":"cb7c93d0-1cac-4482-85f3-c09086eb5972","system_id":"levelo_inurba_marseille","lat":43.29502,"lon":5.3752,"is_reserved":false,"is_disabled":false,"rental_uris":{"android":"levelo://app?vid=cb7c93d0-1cac-4482-85f3-c09086eb5972","ios":"levelo://app?vid=cb7c93d0-1cac-4482-85f3-c09086eb5972"},"vehicle_type_id":"4","last_reported":1741424889,"current_range_meters":8000,"station_id":"ce4bgkp2rcd13ifvqbmg","pricing_plan_id":"cebpf4jnsgd1na2vs0mg"},{"bike_id":"daa48c53-c5de-46aa-94fc-655cbd710c8c","system_id":"levelo_inurba_marseille","lat":43.22942,"lon":5.35378,"is_reserved":false,"is_disabled":false,"rental_uris":{"android":"levelo://app?vid=daa48c53-c5de-46aa-94fc-655cbd710c8c","ios":"levelo://app?vid=daa48c53-c5de-46aa-94fc-655cbd710c8c"},"vehicle_type_id":"4","last_reported":1741424889,"current_range_meters":8400,"station_id":"cpo3532slgdg3j2ikp40","pricing_plan_id":"cebpf4jnsgd1na2vs0mg"},{"bike_id":"67a06def-8841-4af6-bc40-592ac0712e97","system_id":"levelo_inurba_marseille","lat":43.315357,"lon":5.380157,"is_reserved":false,"is_disabled":false,"rental_uris":{"android":"levelo://app?vid=67a06def-8841-4af6-bc40-592ac0712e97","ios":"levelo://app?vid=67a06def-8841-4af6-bc40-592ac0712e97"},"vehicle_type_id":"4","last_reported":1741424889,"current_range_meters":8800,"station_id":"ce4bhsp2rcd13ifvqi50","pricing_plan_id":"cebpf4jnsgd1na2vs0mg"},{"bike_id":"f8257736-d8b2-4723-8a8f-15074362a4e0","system_id":"levelo_inurba_marseille","lat":43.30439,"lon":5.39757,"is_reserved":false,"is_disabled":false,"rental_uris":{"android":"levelo://app?vid=f8257736-d8b2-4723-8a8f-15074362a4e0","ios":"levelo://app?vid=f8257736-d8b2-4723-8a8f-15074362a4e0"},"vehicle_type_id":"4","last_reported":1741424889,"current_range_meters":9200,"station_id":"ce4bh092rcd13ifvqd20","pricing_plan_id":"cebpf4jnsgd1na2vs0mg"},{"bike_id":"7b62c62b-d961-49e1-afe1-b0b21a291801","system_id":"levelo_inurba_marseille","lat":43.27877,"lon":5.4174,"is_reserved":false,"is_disabled":false,"rental_uris":{"android":"levelo://app?vid=7b62c62b-d961-49e1-afe1-b0b21a291801","ios":"levelo://app?vid=7b62c62b-d961-49e1-afe1-b0b21a291801"},"vehicle_type_id":"4","last_reported":1741424889,"current_range_meters":8800,"station_id":"","pricing_plan_id":"cebpf4jnsgd1na2vs0mg"},{"bike_id":"60fba7df-4520-4d63-9c5b-9a7a002cedfb","system_id":"levelo_inurba_marseille","lat":43.28041,"lon":5.39158,"is_reserved":false,"is_disabled":false,"rental_uris":{"android":"levelo://app?vid=60fba7df-4520-4d63-9c5b-9a7a002cedfb","ios":"levelo://app?vid=60fba7df-4520-4d63-9c5b-9a7a002cedfb"},"vehicle_type_id":"4","last_reported":1741424889,"current_range_meters":8800,"station_id":"","pricing_plan_id":"cebpf4jnsgd1na2vs0mg"},{"bike_id":"6e495f08-0359-415b-a6d0-7827c5b65999","system_id":"levelo_inurba_marseille","lat":43.3107,"lon":5.38366,"is_reserved":false,"is_disabled":false,"rental_uris":{"android":"levelo://app?vid=6e495f08-0359-415b-a6d0-7827c5b65999","ios":"levelo://app?vid=6e495f08-0359-415b-a6d0-7827c5b65999"},"vehicle_type_id":"4","last_reported":1741424889,"current_range_meters":8800,"station_id":"ce4bgv92rcd13ifvqcr0","pricing_plan_id":"cebpf4jnsgd1na2vs0mg"},{"bike_id":"cbf0227f-ed2e-48cd-a1df-9d824882c0c4","system_id":"levelo_inurba_marseille","lat":43.23064,"lon":5.35491,"is_reserved":false,"is_disabled":false,"rental_uris":{"android":"levelo://app?vid=cbf0227f-ed2e-48cd-a1df-9d824882c0c4","ios":"levelo://app?vid=cbf0227f-ed2e-48cd-a1df-9d824882c0c4"},"vehicle_type_id":"4","last_reported":1741424889,"current_range_meters":8800,"station_id":"cpo3342slgdg3j2ifvpg","pricing_plan_id":"cebpf4jnsgd1na2vs0mg"},{"bike_id":"01a6afe2-d645-4130-8890-22799000c76a","system_id":"levelo_inurba_marseille","lat":43.27995,"lon":5.40033,"is_reserved":false,"is_disabled":false,"rental_uris":{"android":"levelo://app?vid=01a6afe2-d645-4130-8890-22799000c76a","ios":"levelo://app?vid=01a6afe2-d645-4130-8890-22799000c76a"},"vehicle_type_id":"4","last_reported":1741424889,"current_range_meters":8800,"station_id":"ce4bho92rcd13ifvqh4g","pricing_plan_id":"cebpf4jnsgd1na2vs0mg"},{"bike_id":"4ce1148f-94dc-4742-8f6c-b798d2b0023b","system_id":"levelo_inurba_marseille","lat":43.27992,"lon":5.4167,"is_reserved":false,"is_disabled":false,"rental_uris":{"android":"levelo://app?vid=4ce1148f-94dc-4742-8f6c-b798d2b0023b","ios":"levelo://app?vid=4ce1148f-94dc-4742-8f6c-b798d2b0023b"},"vehicle_type_id":"4","last_reported":1741424889,"current_range_meters":8800,"station_id":"ce4bho12rcd13ifvqh1g","pricing_plan_id":"cebpf4jnsgd1na2vs0mg"},{"bike_id":"1afdf865-9f6c-4bea-99fe-f8f2d36b2395","system_id":"levelo_inurba_marseille","lat":43.26207,"lon":5.37929,"is_reserved":false,"is_disabled":false,"rental_uris":{"android":"levelo://app?vid=1afdf865-9f6c-4bea-99fe-f8f2d36b2395","ios":"levelo://app?vid=1afdf865-9f6c-4bea-99fe-f8f2d36b2395"},"vehicle_type_id":"4","last_reported":1741424889,"current_range_meters":8800,"station_id":"ce4bhjp2rcd13ifvqg90","pricing_plan_id":"cebpf4jnsgd1na2vs0mg"},{"bike_id":"9d595983-774a-4d33-95b4-f37ecc56e556","system_id":"levelo_inurba_marseille","lat":43.27576,"lon":5.38417,"is_reserved":false,"is_disabled":false,"rental_uris":{"android":"levelo://app?vid=9d595983-774a-4d33-95b4-f37ecc56e556","ios":"levelo://app?vid=9d595983-774a-4d33-95b4-f37ecc56e556"},"vehicle_type_id":"4","last_reported":1741424889,"current_range_meters":8800,"station_id":"ce4bhh92rcd13ifvqfi0","pricing_plan_id":"cebpf4jnsgd1na2vs0mg"},{"bike_id":"2f7d9f34-8c81-40c4-9800-77242899a452","system_id":"levelo_inurba_marseille","lat":43.26556,"lon":5.37283,"is_reserved":false,"is_disabled":false,"rental_uris":{"android":"levelo://app?vid=2f7d9f34-8c81-40c4-9800-77242899a452","ios":"levelo://app?vid=2f7d9f34-8c81-40c4-9800-77242899a452"},"vehicle_type_id":"4","last_reported":1741424889,"current_range_meters":8800,"station_id":"ce4bhg12rcd13ifvqf70","pricing_plan_id":"cebpf4jnsgd1na2vs0mg"},{"bike_id":"d7cfe9af-c3c6-4e9b-afff-ab6e19b29b2a","system_id":"levelo_inurba_marseille","lat":43.26553,"lon":5.39017,"is_reserved":false,"is_disabled":false,"rental_uris":{"android":"levelo://app?vid=d7cfe9af-c3c6-4e9b-afff-ab6e19b29b2a","ios":"levelo://app?vid=d7cfe9af-c3c6-4e9b-afff-ab6e19b29b2a"},"vehicle_type_id":"4","last_reported":1741424889,"current_range_meters":9200,"station_id":"ce4bhe12rcd13ifvqf30","pricing_plan_id":"cebpf4jnsgd1na2vs0mg"},{"bike_id":"93ffcf42-62d1-405d-9fbb-65480462b3b0","system_id":"levelo_inurba_marseille","lat":43.30466,"lon":5.37904,"is_reserved":false,"is_disabled":false,"rental_uris":{"android":"levelo://app?vid=93ffcf42-62d1-405d-9fbb-65480462b3b0","ios":"levelo://app?vid=93ffcf42-62d1-405d-9fbb-65480462b3b0"},"vehicle_type_id":"4","last_reported":1741424889,"current_range_meters":9200,"station_id":"ce4bgup2rcd13ifvqcn0","pricing_plan_id":"cebpf4jnsgd1na2vs0mg"},{"bike_id":"0e674cb4-f37d-4bd5-aaff-7ec953d386c6","system_id":"levelo_inurba_marseille","lat":43.2417,"lon":5.36383,"is_reserved":false,"is_disabled":false,"rental_uris":{"android":"levelo://app?vid=0e674cb4-f37d-4bd5-aaff-7ec953d386c6","ios":"levelo://app?vid=0e674cb4-f37d-4bd5-aaff-7ec953d386c6"},"vehicle_type_id":"4","last_reported":1741424889,"current_range_meters":9200,"station_id":"cpo36qri1sfpv3e86is0","pricing_plan_id":"cebpf4jnsgd1na2vs0mg"},{"bike_id":"ae99eef4-0d01-432b-b9f3-30beda5f0e73","system_id":"levelo_inurba_marseille","lat":43.29887,"lon":5.43665,"is_reserved":false,"is_disabled":false,"rental_uris":{"android":"levelo://app?vid=ae99eef4-0d01-432b-b9f3-30beda5f0e73","ios":"levelo://app?vid=ae99eef4-0d01-432b-b9f3-30beda5f0e73"},"vehicle_type_id":"4","last_reported":1741424889,"current_range_meters":9600,"station_id":"ce4bhpp2rcd13ifvqhfg","pricing_plan_id":"cebpf4jnsgd1na2vs0mg"},{"bike_id":"1043c7c5-1c5c-42e6-89e3-3134bdb05b17","system_id":"levelo_inurba_marseille","lat":43.29858,"lon":5.36292,"is_reserved":false,"is_disabled":false,"rental_uris":{"android":"levelo://app?vid=1043c7c5-1c5c-42e6-89e3-3134bdb05b17","ios":"levelo://app?vid=1043c7c5-1c5c-42e6-89e3-3134bdb05b17"},"vehicle_type_id":"4","last_reported":1741424889,"current_range_meters":9600,"station_id":"ce4bgpp2rcd13ifvqc3g","pricing_plan_id":"cebpf4jnsgd1na2vs0mg"},{"bike_id":"e524bcef-a391-41b2-bad2-673eae53ea51","system_id":"levelo_inurba_marseille","lat":43.31739,"lon":5.43721,"is_reserved":false,"is_disabled":false,"rental_uris":{"android":"levelo://app?vid=e524bcef-a391-41b2-bad2-673eae53ea51","ios":"levelo://app?vid=e524bcef-a391-41b2-bad2-673eae53ea51"},"vehicle_type_id":"4","last_reported":1741424889,"current_range_meters":9600,"station_id":"ce4bhp92rcd13ifvqhcg","pricing_plan_id":"cebpf4jnsgd1na2vs0mg"},{"bike_id":"dac09d9e-9ab6-4c54-8fe2-7fcfc9203869","system_id":"levelo_inurba_marseille","lat":43.26549,"lon":5.37288,"is_reserved":false,"is_disabled":false,"rental_uris":{"android":"levelo://app?vid=dac09d9e-9ab6-4c54-8fe2-7fcfc9203869","ios":"levelo://app?vid=dac09d9e-9ab6-4c54-8fe2-7fcfc9203869"},"vehicle_type_id":"4","last_reported":1741424889,"current_range_meters":9600,"station_id":"ce4bhg12rcd13ifvqf70","pricing_plan_id":"cebpf4jnsgd1na2vs0mg"},{"bike_id":"eefe66a8-9b10-4ded-8e0a-619e66601e02","system_id":"levelo_inurba_marseille","lat":43.29619,"lon":5.42598,"is_reserved":false,"is_disabled":false,"rental_uris":{"android":"levelo://app?vid=eefe66a8-9b10-4ded-8e0a-619e66601e02","ios":"levelo://app?vid=eefe66a8-9b10-4ded-8e0a-619e66601e02"},"vehicle_type_id":"4","last_reported":1741424889,"current_range_meters":9600,"station_id":"","pricing_plan_id":"cebpf4jnsgd1na2vs0mg"},{"bike_id":"475e340d-a255-47fa-a6b3-5e92fc90b6a6","system_id":"levelo_inurba_marseille","lat":43.26194,"lon":5.37931,"is_reserved":false,"is_disabled":false,"rental_uris":{"android":"levelo://app?vid=475e340d-a255-47fa-a6b3-5e92fc90b6a6","ios":"levelo://app?vid=475e340d-a255-47fa-a6b3-5e92fc90b6a6"},"vehicle_type_id":"4","last_reported":1741424889,"current_range_meters":10800,"station_id":"ce4bhjp2rcd13ifvqg90","pricing_plan_id":"cebpf4jnsgd1na2vs0mg"},{"bike_id":"9a81aec5-6905-4b7b-8fdb-aa13ef306775","system_id":"levelo_inurba_marseille","lat":43.32465,"lon":5.3658,"is_reserved":false,"is_disabled":false,"rental_uris":{"android":"levelo://app?vid=9a81aec5-6905-4b7b-8fdb-aa13ef306775","ios":"levelo://app?vid=9a81aec5-6905-4b7b-8fdb-aa13ef306775"},"vehicle_type_id":"4","last_reported":1741424889,"current_range_meters":9600,"station_id":"ce4bhs12rcd13ifvqhvg","pricing_plan_id":"cebpf4jnsgd1na2vs0mg"},{"bike_id":"ac269663-43a8-4f28-8118-be61d0478060","system_id":"levelo_inurba_marseille","lat":43.28701,"lon":5.40749,"is_reserved":false,"is_disabled":false,"rental_uris":{"android":"levelo://app?vid=ac269663-43a8-4f28-8118-be61d0478060","ios":"levelo://app?vid=ac269663-43a8-4f28-8118-be61d0478060"},"vehicle_type_id":"4","last_reported":1741424889,"current_range_meters":9600,"station_id":"","pricing_plan_id":"cebpf4jnsgd1na2vs0mg"},{"bike_id":"ae6f6ceb-6daf-46a2-ac8f-71dd310aa775","system_id":"levelo_inurba_marseille","lat":43.25744,"lon":5.41126,"is_reserved":false,"is_disabled":false,"rental_uris":{"android":"levelo://app?vid=ae6f6ceb-6daf-46a2-ac8f-71dd310aa775","ios":"levelo://app?vid=ae6f6ceb-6daf-46a2-ac8f-71dd310aa775"},"vehicle_type_id":"4","last_reported":1741424889,"current_range_meters":10000,"station_id":"ce4bhkp2rcd13ifvqgd0","pricing_plan_id":"cebpf4jnsgd1na2vs0mg"},{"bike_id":"4f508b50-1e3d-40c5-be77-1e6495edbe07","system_id":"levelo_inurba_marseille","lat":43.257262,"lon":5.411081,"is_reserved":false,"is_disabled":false,"rental_uris":{"android":"levelo://app?vid=4f508b50-1e3d-40c5-be77-1e6495edbe07","ios":"levelo://app?vid=4f508b50-1e3d-40c5-be77-1e6495edbe07"},"vehicle_type_id":"4","last_reported":1741424889,"current_range_meters":10000,"station_id":"ce4bhkp2rcd13ifvqgd0","pricing_plan_id":"cebpf4jnsgd1na2vs0mg"},{"bike_id":"ba1993c2-4a65-43bb-a1cc-36e375788125","system_id":"levelo_inurba_marseille","lat":43.27996,"lon":5.400125,"is_reserved":false,"is_disabled":false,"rental_uris":{"android":"levelo://app?vid=ba1993c2-4a65-43bb-a1cc-36e375788125","ios":"levelo://app?vid=ba1993c2-4a65-43bb-a1cc-36e375788125"},"vehicle_type_id":"4","last_reported":1741424889,"current_range_meters":10000,"station_id":"ce4bho92rcd13ifvqh4g","pricing_plan_id":"cebpf4jnsgd1na2vs0mg"},{"bike_id":"7a6390d5-30f1-42a9-81f6-77c4114cf172","system_id":"levelo_inurba_marseille","lat":43.27821,"lon":5.40733,"is_reserved":false,"is_disabled":false,"rental_uris":{"android":"levelo://app?vid=7a6390d5-30f1-42a9-81f6-77c4114cf172","ios":"levelo://app?vid=7a6390d5-30f1-42a9-81f6-77c4114cf172"},"vehicle_type_id":"4","last_reported":1741424889,"current_range_meters":10000,"station_id":"ce4bhnh2rcd13ifvqgtg","pricing_plan_id":"cebpf4jnsgd1na2vs0mg"},{"bike_id":"b54292f7-ba5a-4ca2-851d-b34190bdf4a8","system_id":"levelo_inurba_marseille","lat":43.33029,"lon":5.3908,"is_reserved":false,"is_disabled":false,"rental_uris":{"android":"levelo://app?vid=b54292f7-ba5a-4ca2-851d-b34190bdf4a8","ios":"levelo://app?vid=b54292f7-ba5a-4ca2-851d-b34190bdf4a8"},"vehicle_type_id":"4","last_reported":1741424889,"current_range_meters":10000,"station_id":"ce4bhr92rcd13ifvqhrg","pricing_plan_id":"cebpf4jnsgd1na2vs0mg"},{"bike_id":"4048f4cb-c79a-4e84-a8e6-068b2a53463d","system_id":"levelo_inurba_marseille","lat":43.29736,"lon":5.39376,"is_reserved":false,"is_disabled":false,"rental_uris":{"android":"levelo://app?vid=4048f4cb-c79a-4e84-a8e6-068b2a53463d","ios":"levelo://app?vid=4048f4cb-c79a-4e84-a8e6-068b2a53463d"},"vehicle_type_id":"4","last_reported":1741424889,"current_range_meters":10000,"station_id":"","pricing_plan_id":"cebpf4jnsgd1na2vs0mg"},{"bike_id":"201e16e9-1f9c-45a3-8dec-2d516ef1efcb","system_id":"levelo_inurba_marseille","lat":43.23967,"lon":5.36619,"is_reserved":false,"is_disabled":false,"rental_uris":{"android":"levelo://app?vid=201e16e9-1f9c-45a3-8dec-2d516ef1efcb","ios":"levelo://app?vid=201e16e9-1f9c-45a3-8dec-2d516ef1efcb"},"vehicle_type_id":"4","last_reported":1741424889,"current_range_meters":10000,"station_id":"ce4bhi12rcd13ifvqfp0","pricing_plan_id":"cebpf4jnsgd1na2vs0mg"},{"bike_id":"9b8789be-c150-4679-b8ba-e1d5e4639da2","system_id":"levelo_inurba_marseille","lat":43.25778,"lon":5.41204,"is_reserved":false,"is_disabled":false,"rental_uris":{"android":"levelo://app?vid=9b8789be-c150-4679-b8ba-e1d5e4639da2","ios":"levelo://app?vid=9b8789be-c150-4679-b8ba-e1d5e4639da2"},"vehicle_type_id":"4","last_reported":1741424889,"current_range_meters":10000,"station_id":"","pricing_plan_id":"cebpf4jnsgd1na2vs0mg"},{"bike_id":"e31092ac-b6a1-414f-bdb8-1f248314f867","system_id":"levelo_inurba_marseille","lat":43.27516,"lon":5.38423,"is_reserved":false,"is_disabled":false,"rental_uris":{"android":"levelo://app?vid=e31092ac-b6a1-414f-bdb8-1f248314f867","ios":"levelo://app?vid=e31092ac-b6a1-414f-bdb8-1f248314f867"},"vehicle_type_id":"4","last_reported":1741424889,"current_range_meters":10000,"station_id":"","pricing_plan_id":"cebpf4jnsgd1na2vs0mg"},{"bike_id":"42a96660-5369-4d1c-976c-242db1fc067b","system_id":"levelo_inurba_marseille","lat":43.27219,"lon":5.39202,"is_reserved":false,"is_disabled":false,"rental_uris":{"android":"levelo://app?vid=42a96660-5369-4d1c-976c-242db1fc067b","ios":"levelo://app?vid=42a96660-5369-4d1c-976c-242db1fc067b"},"vehicle_type_id":"4","last_reported":1741424889,"current_range_meters":10000,"station_id":"ce4bhhp2rcd13ifvqfm0","pricing_plan_id":"cebpf4jnsgd1na2vs0mg"},{"bike_id":"f434f250-6f3b-4f81-87f7-8be1eb48cad2","system_id":"levelo_inurba_marseille","lat":43.25711,"lon":5.41116,"is_reserved":false,"is_disabled":false,"rental_uris":{"android":"levelo://app?vid=f434f250-6f3b-4f81-87f7-8be1eb48cad2","ios":"levelo://app?vid=f434f250-6f3b-4f81-87f7-8be1eb48cad2"},"vehicle_type_id":"4","last_reported":1741424889,"current_range_meters":10800,"station_id":"ce4bhkp2rcd13ifvqgd0","pricing_plan_id":"cebpf4jnsgd1na2vs0mg"},{"bike_id":"fa626757-664e-4c1c-a59d-abffc20f4bf4","system_id":"levelo_inurba_marseille","lat":43.29865,"lon":5.39731,"is_reserved":false,"is_disabled":false,"rental_uris":{"android":"levelo://app?vid=fa626757-664e-4c1c-a59d-abffc20f4bf4","ios":"levelo://app?vid=fa626757-664e-4c1c-a59d-abffc20f4bf4"},"vehicle_type_id":"4","last_reported":1741424889,"current_range_meters":10800,"station_id":"ce4bh0h2rcd13ifvqd50","pricing_plan_id":"cebpf4jnsgd1na2vs0mg"},{"bike_id":"c787a0ef-03a5-4d36-b53c-60238e9036da","system_id":"levelo_inurba_marseille","lat":43.2321,"lon":5.39974,"is_reserved":false,"is_disabled":false,"rental_uris":{"android":"levelo://app?vid=c787a0ef-03a5-4d36-b53c-60238e9036da","ios":"levelo://app?vid=c787a0ef-03a5-4d36-b53c-60238e9036da"},"vehicle_type_id":"4","last_reported":1741424889,"current_range_meters":10800,"station_id":"ce4bhn12rcd13ifvqgqg","pricing_plan_id":"cebpf4jnsgd1na2vs0mg"},{"bike_id":"b533f38f-df9a-4e01-86fb-08f4b9bfcdfb","system_id":"levelo_inurba_marseille","lat":43.26223,"lon":5.42132,"is_reserved":false,"is_disabled":false,"rental_uris":{"android":"levelo://app?vid=b533f38f-df9a-4e01-86fb-08f4b9bfcdfb","ios":"levelo://app?vid=b533f38f-df9a-4e01-86fb-08f4b9bfcdfb"},"vehicle_type_id":"4","last_reported":1741424889,"current_range_meters":10800,"station_id":"","pricing_plan_id":"cebpf4jnsgd1na2vs0mg"},{"bike_id":"ccb7fcbf-14b0-45c6-a15a-f360efd17a0d","system_id":"levelo_inurba_marseille","lat":43.240694,"lon":5.377594,"is_reserved":false,"is_disabled":false,"rental_uris":{"android":"levelo://app?vid=ccb7fcbf-14b0-45c6-a15a-f360efd17a0d","ios":"levelo://app?vid=ccb7fcbf-14b0-45c6-a15a-f360efd17a0d"},"vehicle_type_id":"4","last_reported":1741424889,"current_range_meters":10800,"station_id":"ce4bhnp2rcd13ifvqgvg","pricing_plan_id":"cebpf4jnsgd1na2vs0mg"},{"bike_id":"9be6f3b7-406a-4210-8a9f-29709cd17f03","system_id":"levelo_inurba_marseille","lat":43.290192,"lon":5.356123,"is_reserved":false,"is_disabled":false,"rental_uris":{"android":"levelo://app?vid=9be6f3b7-406a-4210-8a9f-29709cd17f03","ios":"levelo://app?vid=9be6f3b7-406a-4210-8a9f-29709cd17f03"},"vehicle_type_id":"4","last_reported":1741424889,"current_range_meters":9600,"station_id":"ce4bh512rcd13ifvqe2g","pricing_plan_id":"cebpf4jnsgd1na2vs0mg"},{"bike_id":"11e7fc3b-ed5a-4401-a0af-6e80583f87e8","system_id":"levelo_inurba_marseille","lat":43.27816,"lon":5.40714,"is_reserved":false,"is_disabled":false,"rental_uris":{"android":"levelo://app?vid=11e7fc3b-ed5a-4401-a0af-6e80583f87e8","ios":"levelo://app?vid=11e7fc3b-ed5a-4401-a0af-6e80583f87e8"},"vehicle_type_id":"4","last_reported":1741424889,"current_range_meters":10800,"station_id":"ce4bhnh2rcd13ifvqgtg","pricing_plan_id":"cebpf4jnsgd1na2vs0mg"},{"bike_id":"5832083a-af6c-455b-9dbd-d8b68bd79a1e","system_id":"levelo_inurba_marseille","lat":43.29896,"lon":5.43675,"is_reserved":false,"is_disabled":false,"rental_uris":{"android":"levelo://app?vid=5832083a-af6c-455b-9dbd-d8b68bd79a1e","ios":"levelo://app?vid=5832083a-af6c-455b-9dbd-d8b68bd79a1e"},"vehicle_type_id":"4","last_reported":1741424889,"current_range_meters":11200,"station_id":"ce4bhpp2rcd13ifvqhfg","pricing_plan_id":"cebpf4jnsgd1na2vs0mg"},{"bike_id":"44c0f9a1-99ba-41cb-8f36-0e033c5e16cc","system_id":"levelo_inurba_marseille","lat":43.26193,"lon":5.37454,"is_reserved":false,"is_disabled":false,"rental_uris":{"android":"levelo://app?vid=44c0f9a1-99ba-41cb-8f36-0e033c5e16cc","ios":"levelo://app?vid=44c0f9a1-99ba-41cb-8f36-0e033c5e16cc"},"vehicle_type_id":"4","last_reported":1741424889,"current_range_meters":11200,"station_id":"","pricing_plan_id":"cebpf4jnsgd1na2vs0mg"},{"bike_id":"c8808968-5c0b-4af4-97f6-e1029014a6da","system_id":"levelo_inurba_marseille","lat":43.27067,"lon":5.40278,"is_reserved":false,"is_disabled":false,"rental_uris":{"android":"levelo://app?vid=c8808968-5c0b-4af4-97f6-e1029014a6da","ios":"levelo://app?vid=c8808968-5c0b-4af4-97f6-e1029014a6da"},"vehicle_type_id":"4","last_reported":1741424889,"current_range_meters":11200,"station_id":"ce4bhk92rcd13ifvqgc0","pricing_plan_id":"cebpf4jnsgd1na2vs0mg"},{"bike_id":"733531a9-b798-412c-a0e0-7f4b7bd56d85","system_id":"levelo_inurba_marseille","lat":43.31354,"lon":5.38495,"is_reserved":false,"is_disabled":false,"rental_uris":{"android":"levelo://app?vid=733531a9-b798-412c-a0e0-7f4b7bd56d85","ios":"levelo://app?vid=733531a9-b798-412c-a0e0-7f4b7bd56d85"},"vehicle_type_id":"4","last_reported":1741424889,"current_range_meters":12000,"station_id":"ce4bgt92rcd13ifvqcf0","pricing_plan_id":"cebpf4jnsgd1na2vs0mg"},{"bike_id":"6fe06bec-c76b-49c0-9d35-cf36345c068c","system_id":"levelo_inurba_marseille","lat":43.26191,"lon":5.37455,"is_reserved":false,"is_disabled":false,"rental_uris":{"android":"levelo://app?vid=6fe06bec-c76b-49c0-9d35-cf36345c068c","ios":"levelo://app?vid=6fe06bec-c76b-49c0-9d35-cf36345c068c"},"vehicle_type_id":"4","last_reported":1741424889,"current_range_meters":11200,"station_id":"ce4bhgp2rcd13ifvqfc0","pricing_plan_id":"cebpf4jnsgd1na2vs0mg"},{"bike_id":"b2c2514d-58df-4080-9acc-0a3325c87525","system_id":"levelo_inurba_marseille","lat":43.3236,"lon":5.36735,"is_reserved":false,"is_disabled":false,"rental_uris":{"android":"levelo://app?vid=b2c2514d-58df-4080-9acc-0a3325c87525","ios":"levelo://app?vid=b2c2514d-58df-4080-9acc-0a3325c87525"},"vehicle_type_id":"4","last_reported":1741424889,"current_range_meters":11600,"station_id":"ce4bhsh2rcd13ifvqi2g","pricing_plan_id":"cebpf4jnsgd1na2vs0mg"},{"bike_id":"4b664321-c96e-41be-824b-61fa4d40dbb2","system_id":"levelo_inurba_marseille","lat":43.26036,"lon":5.37554,"is_reserved":false,"is_disabled":false,"rental_uris":{"android":"levelo://app?vid=4b664321-c96e-41be-824b-61fa4d40dbb2","ios":"levelo://app?vid=4b664321-c96e-41be-824b-61fa4d40dbb2"},"vehicle_type_id":"4","last_reported":1741424889,"current_range_meters":12000,"station_id":"ce4bhgh2rcd13ifvqfa0","pricing_plan_id":"cebpf4jnsgd1na2vs0mg"},{"bike_id":"fb626a73-8dff-437b-b442-b1f6ec537a81","system_id":"levelo_inurba_marseille","lat":43.31998,"lon":5.38166,"is_reserved":false,"is_disabled":false,"rental_uris":{"android":"levelo://app?vid=fb626a73-8dff-437b-b442-b1f6ec537a81","ios":"levelo://app?vid=fb626a73-8dff-437b-b442-b1f6ec537a81"},"vehicle_type_id":"4","last_reported":1741424889,"current_range_meters":11600,"station_id":"ce4bhr12rcd13ifvqhpg","pricing_plan_id":"cebpf4jnsgd1na2vs0mg"},{"bike_id":"3c7cb629-a989-4010-917f-b6565022dddc","system_id":"levelo_inurba_marseille","lat":43.31343,"lon":5.39718,"is_reserved":false,"is_disabled":false,"rental_uris":{"android":"levelo://app?vid=3c7cb629-a989-4010-917f-b6565022dddc","ios":"levelo://app?vid=3c7cb629-a989-4010-917f-b6565022dddc"},"vehicle_type_id":"4","last_reported":1741424889,"current_range_meters":12000,"station_id":"ce4bgvp2rcd13ifvqcu0","pricing_plan_id":"cebpf4jnsgd1na2vs0mg"},{"bike_id":"c3821921-6f0e-4522-ac7a-982a8ffe12d7","system_id":"levelo_inurba_marseille","lat":43.28854,"lon":5.35886,"is_reserved":false,"is_disabled":false,"rental_uris":{"android":"levelo://app?vid=c3821921-6f0e-4522-ac7a-982a8ffe12d7","ios":"levelo://app?vid=c3821921-6f0e-4522-ac7a-982a8ffe12d7"},"vehicle_type_id":"4","last_reported":1741424889,"current_range_meters":12000,"station_id":"ce4bhb12rcd13ifvqem0","pricing_plan_id":"cebpf4jnsgd1na2vs0mg"},{"bike_id":"97d95439-94cf-421a-af98-a49a3db92d1a","system_id":"levelo_inurba_marseille","lat":43.24798,"lon":5.41743,"is_reserved":false,"is_disabled":false,"rental_uris":{"android":"levelo://app?vid=97d95439-94cf-421a-af98-a49a3db92d1a","ios":"levelo://app?vid=97d95439-94cf-421a-af98-a49a3db92d1a"},"vehicle_type_id":"4","last_reported":1741424889,"current_range_meters":12400,"station_id":"","pricing_plan_id":"cebpf4jnsgd1na2vs0mg"},{"bike_id":"8b722601-abad-44fa-88e3-ce51624ce56d","system_id":"levelo_inurba_marseille","lat":43.31123,"lon":5.37775,"is_reserved":false,"is_disabled":false,"rental_uris":{"android":"levelo://app?vid=8b722601-abad-44fa-88e3-ce51624ce56d","ios":"levelo://app?vid=8b722601-abad-44fa-88e3-ce51624ce56d"},"vehicle_type_id":"4","last_reported":1741424889,"current_range_meters":12400,"station_id":"ce4bgt92rcd13ifvqcg0","pricing_plan_id":"cebpf4jnsgd1na2vs0mg"},{"bike_id":"bfbfb8b2-951b-41e3-9abb-8ec2115a8df8","system_id":"levelo_inurba_marseille","lat":43.2846,"lon":5.35899,"is_reserved":false,"is_disabled":false,"rental_uris":{"android":"levelo://app?vid=bfbfb8b2-951b-41e3-9abb-8ec2115a8df8","ios":"levelo://app?vid=bfbfb8b2-951b-41e3-9abb-8ec2115a8df8"},"vehicle_type_id":"4","last_reported":1741424889,"current_range_meters":12400,"station_id":"ce4bhah2rcd13ifvqei0","pricing_plan_id":"cebpf4jnsgd1na2vs0mg"},{"bike_id":"388ea826-f5fa-4632-a530-45d13cc0a769","system_id":"levelo_inurba_marseille","lat":43.23195,"lon":5.40009,"is_reserved":false,"is_disabled":false,"rental_uris":{"android":"levelo://app?vid=388ea826-f5fa-4632-a530-45d13cc0a769","ios":"levelo://app?vid=388ea826-f5fa-4632-a530-45d13cc0a769"},"vehicle_type_id":"4","last_reported":1741424889,"current_range_meters":12400,"station_id":"ce4bhn12rcd13ifvqgqg","pricing_plan_id":"cebpf4jnsgd1na2vs0mg"},{"bike_id":"106d8616-aabf-4dd7-81de-c40c56456a8d","system_id":"levelo_inurba_marseille","lat":43.29699,"lon":5.36605,"is_reserved":false,"is_disabled":false,"rental_uris":{"android":"levelo://app?vid=106d8616-aabf-4dd7-81de-c40c56456a8d","ios":"levelo://app?vid=106d8616-aabf-4dd7-81de-c40c56456a8d"},"vehicle_type_id":"4","last_reported":1741424889,"current_range_meters":12400,"station_id":"ce4bgn12rcd13ifvqbt0","pricing_plan_id":"cebpf4jnsgd1na2vs0mg"},{"bike_id":"65d2271a-97b5-4913-95aa-cf77a293f0eb","system_id":"levelo_inurba_marseille","lat":43.26036,"lon":5.37553,"is_reserved":false,"is_disabled":false,"rental_uris":{"android":"levelo://app?vid=65d2271a-97b5-4913-95aa-cf77a293f0eb","ios":"levelo://app?vid=65d2271a-97b5-4913-95aa-cf77a293f0eb"},"vehicle_type_id":"4","last_reported":1741424889,"current_range_meters":12400,"station_id":"ce4bhgh2rcd13ifvqfa0","pricing_plan_id":"cebpf4jnsgd1na2vs0mg"},{"bike_id":"fbf804d7-6c73-46e9-abdb-acb74deb6dc4","system_id":"levelo_inurba_marseille","lat":43.23064,"lon":5.35507,"is_reserved":false,"is_disabled":false,"rental_uris":{"android":"levelo://app?vid=fbf804d7-6c73-46e9-abdb-acb74deb6dc4","ios":"levelo://app?vid=fbf804d7-6c73-46e9-abdb-acb74deb6dc4"},"vehicle_type_id":"4","last_reported":1741424889,"current_range_meters":12800,"station_id":"cpo3342slgdg3j2ifvpg","pricing_plan_id":"cebpf4jnsgd1na2vs0mg"},{"bike_id":"dd8cec60-8ea0-4242-b7e4-eb6de8ca7419","system_id":"levelo_inurba_marseille","lat":43.26802,"lon":5.4026,"is_reserved":false,"is_disabled":false,"rental_uris":{"android":"levelo://app?vid=dd8cec60-8ea0-4242-b7e4-eb6de8ca7419","ios":"levelo://app?vid=dd8cec60-8ea0-4242-b7e4-eb6de8ca7419"},"vehicle_type_id":"4","last_reported":1741424889,"current_range_meters":12800,"station_id":"ce501612rcd8frsf0b60","pricing_plan_id":"cebpf4jnsgd1na2vs0mg"},{"bike_id":"635beb12-73ff-4358-ad6f-b104a172d12b","system_id":"levelo_inurba_marseille","lat":43.27668,"lon":5.38916,"is_reserved":false,"is_disabled":false,"rental_uris":{"android":"levelo://app?vid=635beb12-73ff-4358-ad6f-b104a172d12b","ios":"levelo://app?vid=635beb12-73ff-4358-ad6f-b104a172d12b"},"vehicle_type_id":"4","last_reported":1741424889,"current_range_meters":13600,"station_id":"ce4bhi12rcd13ifvqfo0","pricing_plan_id":"cebpf4jnsgd1na2vs0mg"},{"bike_id":"ce182d56-6706-47c2-88ce-a9668ce002f2","system_id":"levelo_inurba_marseille","lat":43.25123,"lon":5.40327,"is_reserved":false,"is_disabled":false,"rental_uris":{"android":"levelo://app?vid=ce182d56-6706-47c2-88ce-a9668ce002f2","ios":"levelo://app?vid=ce182d56-6706-47c2-88ce-a9668ce002f2"},"vehicle_type_id":"4","last_reported":1741424889,"current_range_meters":13600,"station_id":"ce4bhlh2rcd13ifvqgig","pricing_plan_id":"cebpf4jnsgd1na2vs0mg"},{"bike_id":"c23aa3fd-5bcd-4f88-99e8-26d8b9786e18","system_id":"levelo_inurba_marseille","lat":43.30147,"lon":5.38084,"is_reserved":false,"is_disabled":false,"rental_uris":{"android":"levelo://app?vid=c23aa3fd-5bcd-4f88-99e8-26d8b9786e18","ios":"levelo://app?vid=c23aa3fd-5bcd-4f88-99e8-26d8b9786e18"},"vehicle_type_id":"4","last_reported":1741424889,"current_range_meters":14800,"station_id":"ce4bgjp2rcd13ifvqbh0","pricing_plan_id":"cebpf4jnsgd1na2vs0mg"},{"bike_id":"cdc6fa71-b8c0-46e7-902c-4e18b52385d2","system_id":"levelo_inurba_marseille","lat":43.28863,"lon":5.4001,"is_reserved":false,"is_disabled":false,"rental_uris":{"android":"levelo://app?vid=cdc6fa71-b8c0-46e7-902c-4e18b52385d2","ios":"levelo://app?vid=cdc6fa71-b8c0-46e7-902c-4e18b52385d2"},"vehicle_type_id":"4","last_reported":1741424889,"current_range_meters":13600,"station_id":"","pricing_plan_id":"cebpf4jnsgd1na2vs0mg"},{"bike_id":"a1f4ca7b-9f56-4701-850b-b92fe7accf8d","system_id":"levelo_inurba_marseille","lat":43.3033,"lon":5.40436,"is_reserved":false,"is_disabled":false,"rental_uris":{"android":"levelo://app?vid=a1f4ca7b-9f56-4701-850b-b92fe7accf8d","ios":"levelo://app?vid=a1f4ca7b-9f56-4701-850b-b92fe7accf8d"},"vehicle_type_id":"4","last_reported":1741424889,"current_range_meters":13600,"station_id":"ce4bh012rcd13ifvqd10","pricing_plan_id":"cebpf4jnsgd1na2vs0mg"},{"bike_id":"5ef8d438-0778-4827-b061-20b8b2760d71","system_id":"levelo_inurba_marseille","lat":43.30534,"lon":5.36562,"is_reserved":false,"is_disabled":false,"rental_uris":{"android":"levelo://app?vid=5ef8d438-0778-4827-b061-20b8b2760d71","ios":"levelo://app?vid=5ef8d438-0778-4827-b061-20b8b2760d71"},"vehicle_type_id":"4","last_reported":1741424889,"current_range_meters":12800,"station_id":"ce4bgs12rcd13ifvqcag","pricing_plan_id":"cebpf4jnsgd1na2vs0mg"},{"bike_id":"c1c412b3-ae23-45ab-894a-fe5b494cc9e6","system_id":"levelo_inurba_marseille","lat":43.23189,"lon":5.35581,"is_reserved":false,"is_disabled":false,"rental_uris":{"android":"levelo://app?vid=c1c412b3-ae23-45ab-894a-fe5b494cc9e6","ios":"levelo://app?vid=c1c412b3-ae23-45ab-894a-fe5b494cc9e6"},"vehicle_type_id":"4","last_reported":1741424889,"current_range_meters":13600,"station_id":"ce4bhu92rcd13ifvqi70","pricing_plan_id":"cebpf4jnsgd1na2vs0mg"},{"bike_id":"21a97c5e-42a1-42dc-8f0b-c09a56ace1b8","system_id":"levelo_inurba_marseille","lat":43.30358,"lon":5.42521,"is_reserved":false,"is_disabled":true,"rental_uris":{"android":"levelo://app?vid=21a97c5e-42a1-42dc-8f0b-c09a56ace1b8","ios":"levelo://app?vid=21a97c5e-42a1-42dc-8f0b-c09a56ace1b8"},"vehicle_type_id":"4","last_reported":1741424889,"current_range_meters":13600,"station_id":"","pricing_plan_id":"cebpf4jnsgd1na2vs0mg"},{"bike_id":"9b220ffa-fe75-403f-b87b-ec86e2b82dea","system_id":"levelo_inurba_marseille","lat":43.27666,"lon":5.38891,"is_reserved":false,"is_disabled":false,"rental_uris":{"android":"levelo://app?vid=9b220ffa-fe75-403f-b87b-ec86e2b82dea","ios":"levelo://app?vid=9b220ffa-fe75-403f-b87b-ec86e2b82dea"},"vehicle_type_id":"4","last_reported":1741424889,"current_range_meters":14000,"station_id":"ce4bhi12rcd13ifvqfo0","pricing_plan_id":"cebpf4jnsgd1na2vs0mg"},{"bike_id":"4f75415f-2978-4435-824c-16dfd7ab0b86","system_id":"levelo_inurba_marseille","lat":43.26957,"lon":5.38641,"is_reserved":false,"is_disabled":false,"rental_uris":{"android":"levelo://app?vid=4f75415f-2978-4435-824c-16dfd7ab0b86","ios":"levelo://app?vid=4f75415f-2978-4435-824c-16dfd7ab0b86"},"vehicle_type_id":"4","last_reported":1741424889,"current_range_meters":14000,"station_id":"ce4bhh92rcd13ifvqfh0","pricing_plan_id":"cebpf4jnsgd1na2vs0mg"},{"bike_id":"19bbe8da-d7df-496e-a677-cbaab925cf5e","system_id":"levelo_inurba_marseille","lat":43.2489,"lon":5.42537,"is_reserved":false,"is_disabled":false,"rental_uris":{"android":"levelo://app?vid=19bbe8da-d7df-496e-a677-cbaab925cf5e","ios":"levelo://app?vid=19bbe8da-d7df-496e-a677-cbaab925cf5e"},"vehicle_type_id":"4","last_reported":1741424889,"current_range_meters":14400,"station_id":"","pricing_plan_id":"cebpf4jnsgd1na2vs0mg"},{"bike_id":"d15888b3-84cd-42f5-8973-07174fa936f9","system_id":"levelo_inurba_marseille","lat":43.31438,"lon":5.37388,"is_reserved":false,"is_disabled":false,"rental_uris":{"android":"levelo://app?vid=d15888b3-84cd-42f5-8973-07174fa936f9","ios":"levelo://app?vid=d15888b3-84cd-42f5-8973-07174fa936f9"},"vehicle_type_id":"4","last_reported":1741424889,"current_range_meters":14400,"station_id":"","pricing_plan_id":"cebpf4jnsgd1na2vs0mg"},{"bike_id":"4fb73a25-455b-422b-961d-43b89f56a363","system_id":"levelo_inurba_marseille","lat":43.309237,"lon":5.401591,"is_reserved":false,"is_disabled":true,"rental_uris":{"android":"levelo://app?vid=4fb73a25-455b-422b-961d-43b89f56a363","ios":"levelo://app?vid=4fb73a25-455b-422b-961d-43b89f56a363"},"vehicle_type_id":"4","last_reported":1741424889,"current_range_meters":14800,"station_id":"ce4bgvp2rcd13ifvqct0","pricing_plan_id":"cebpf4jnsgd1na2vs0mg"},{"bike_id":"aca0fb47-0536-4777-a390-f27d3fdccaee","system_id":"levelo_inurba_marseille","lat":43.25721,"lon":5.41113,"is_reserved":false,"is_disabled":false,"rental_uris":{"android":"levelo://app?vid=aca0fb47-0536-4777-a390-f27d3fdccaee","ios":"levelo://app?vid=aca0fb47-0536-4777-a390-f27d3fdccaee"},"vehicle_type_id":"4","last_reported":1741424889,"current_range_meters":14400,"station_id":"ce4bhkp2rcd13ifvqgd0","pricing_plan_id":"cebpf4jnsgd1na2vs0mg"},{"bike_id":"c80cd476-eca8-434e-a1d5-c38ff7870905","system_id":"levelo_inurba_marseille","lat":43.25745,"lon":5.41147,"is_reserved":false,"is_disabled":false,"rental_uris":{"android":"levelo://app?vid=c80cd476-eca8-434e-a1d5-c38ff7870905","ios":"levelo://app?vid=c80cd476-eca8-434e-a1d5-c38ff7870905"},"vehicle_type_id":"4","last_reported":1741424889,"current_range_meters":14400,"station_id":"ce4bhkp2rcd13ifvqgd0","pricing_plan_id":"cebpf4jnsgd1na2vs0mg"},{"bike_id":"0f239680-c97f-4c6e-be88-53dc6baf0e5e","system_id":"levelo_inurba_marseille","lat":43.3045,"lon":5.38886,"is_reserved":false,"is_disabled":false,"rental_uris":{"android":"levelo://app?vid=0f239680-c97f-4c6e-be88-53dc6baf0e5e","ios":"levelo://app?vid=0f239680-c97f-4c6e-be88-53dc6baf0e5e"},"vehicle_type_id":"4","last_reported":1741424889,"current_range_meters":14400,"station_id":"ce4bgk12rcd13ifvqbi0","pricing_plan_id":"cebpf4jnsgd1na2vs0mg"},{"bike_id":"1b843788-a7e7-4bbb-93ba-dab0ccd47fc0","system_id":"levelo_inurba_marseille","lat":43.31351,"lon":5.36724,"is_reserved":false,"is_disabled":false,"rental_uris":{"android":"levelo://app?vid=1b843788-a7e7-4bbb-93ba-dab0ccd47fc0","ios":"levelo://app?vid=1b843788-a7e7-4bbb-93ba-dab0ccd47fc0"},"vehicle_type_id":"4","last_reported":1741424889,"current_range_meters":14800,"station_id":"ce4bgr92rcd13ifvqc6g","pricing_plan_id":"cebpf4jnsgd1na2vs0mg"},{"bike_id":"6b72a95e-2eb5-46e6-9b71-2291d64795b6","system_id":"levelo_inurba_marseille","lat":43.31371,"lon":5.3968,"is_reserved":false,"is_disabled":false,"rental_uris":{"android":"levelo://app?vid=6b72a95e-2eb5-46e6-9b71-2291d64795b6","ios":"levelo://app?vid=6b72a95e-2eb5-46e6-9b71-2291d64795b6"},"vehicle_type_id":"4","last_reported":1741424889,"current_range_meters":14800,"station_id":"ce4bgvp2rcd13ifvqcu0","pricing_plan_id":"cebpf4jnsgd1na2vs0mg"},{"bike_id":"7010ed15-b1c0-4687-82e0-c5a65b3df130","system_id":"levelo_inurba_marseille","lat":43.27979,"lon":5.41656,"is_reserved":false,"is_disabled":false,"rental_uris":{"android":"levelo://app?vid=7010ed15-b1c0-4687-82e0-c5a65b3df130","ios":"levelo://app?vid=7010ed15-b1c0-4687-82e0-c5a65b3df130"},"vehicle_type_id":"4","last_reported":1741424889,"current_range_meters":14800,"station_id":"ce4bho12rcd13ifvqh1g","pricing_plan_id":"cebpf4jnsgd1na2vs0mg"},{"bike_id":"9ef23292-c717-4c7f-b54a-ec91e567fb49","system_id":"levelo_inurba_marseille","lat":43.26211,"lon":5.37447,"is_reserved":false,"is_disabled":false,"rental_uris":{"android":"levelo://app?vid=9ef23292-c717-4c7f-b54a-ec91e567fb49","ios":"levelo://app?vid=9ef23292-c717-4c7f-b54a-ec91e567fb49"},"vehicle_type_id":"4","last_reported":1741424889,"current_range_meters":15200,"station_id":"ce4bhgp2rcd13ifvqfc0","pricing_plan_id":"cebpf4jnsgd1na2vs0mg"},{"bike_id":"30dea9e1-7698-409c-a331-9e00ef3d25fc","system_id":"levelo_inurba_marseille","lat":43.2941,"lon":5.38617,"is_reserved":false,"is_disabled":false,"rental_uris":{"android":"levelo://app?vid=30dea9e1-7698-409c-a331-9e00ef3d25fc","ios":"levelo://app?vid=30dea9e1-7698-409c-a331-9e00ef3d25fc"},"vehicle_type_id":"4","last_reported":1741424889,"current_range_meters":14400,"station_id":"ce4bh2h2rcd13ifvqdh0","pricing_plan_id":"cebpf4jnsgd1na2vs0mg"},{"bike_id":"6ddcbac4-ccbc-45bd-ad03-0b799322db2a","system_id":"levelo_inurba_marseille","lat":43.30317,"lon":5.40445,"is_reserved":false,"is_disabled":false,"rental_uris":{"android":"levelo://app?vid=6ddcbac4-ccbc-45bd-ad03-0b799322db2a","ios":"levelo://app?vid=6ddcbac4-ccbc-45bd-ad03-0b799322db2a"},"vehicle_type_id":"4","last_reported":1741424889,"current_range_meters":15200,"station_id":"ce4bh012rcd13ifvqd10","pricing_plan_id":"cebpf4jnsgd1na2vs0mg"},{"bike_id":"35bd3144-7a83-4e01-ac00-ca792173104b","system_id":"levelo_inurba_marseille","lat":43.29367,"lon":5.37863,"is_reserved":false,"is_disabled":false,"rental_uris":{"android":"levelo://app?vid=35bd3144-7a83-4e01-ac00-ca792173104b","ios":"levelo://app?vid=35bd3144-7a83-4e01-ac00-ca792173104b"},"vehicle_type_id":"4","last_reported":1741424889,"current_range_meters":14800,"station_id":"ce4bgjh2rcd13ifvqbf0","pricing_plan_id":"cebpf4jnsgd1na2vs0mg"},{"bike_id":"b1e189d2-cc2d-4bbc-9210-3d18e5683801","system_id":"levelo_inurba_marseille","lat":43.26931,"lon":5.40248,"is_reserved":false,"is_disabled":false,"rental_uris":{"android":"levelo://app?vid=b1e189d2-cc2d-4bbc-9210-3d18e5683801","ios":"levelo://app?vid=b1e189d2-cc2d-4bbc-9210-3d18e5683801"},"vehicle_type_id":"4","last_reported":1741424889,"current_range_meters":16400,"station_id":"cjm6bp8fraef2m0cb0m0","pricing_plan_id":"cebpf4jnsgd1na2vs0mg"},{"bike_id":"0a9bc1bd-e305-40d4-8852-5005300b12a0","system_id":"levelo_inurba_marseille","lat":43.22949,"lon":5.35392,"is_reserved":false,"is_disabled":false,"rental_uris":{"android":"levelo://app?vid=0a9bc1bd-e305-40d4-8852-5005300b12a0","ios":"levelo://app?vid=0a9bc1bd-e305-40d4-8852-5005300b12a0"},"vehicle_type_id":"4","last_reported":1741424889,"current_range_meters":16000,"station_id":"cpo3532slgdg3j2ikp40","pricing_plan_id":"cebpf4jnsgd1na2vs0mg"},{"bike_id":"3c0b03d2-0495-4e20-bf63-91d2469823f3","system_id":"levelo_inurba_marseille","lat":43.30418,"lon":5.39747,"is_reserved":false,"is_disabled":false,"rental_uris":{"android":"levelo://app?vid=3c0b03d2-0495-4e20-bf63-91d2469823f3","ios":"levelo://app?vid=3c0b03d2-0495-4e20-bf63-91d2469823f3"},"vehicle_type_id":"4","last_reported":1741424889,"current_range_meters":16400,"station_id":"ce4bh092rcd13ifvqd20","pricing_plan_id":"cebpf4jnsgd1na2vs0mg"},{"bike_id":"b2fab118-3a0f-4f25-8136-45d109cc78ee","system_id":"levelo_inurba_marseille","lat":43.26557,"lon":5.39074,"is_reserved":false,"is_disabled":false,"rental_uris":{"android":"levelo://app?vid=b2fab118-3a0f-4f25-8136-45d109cc78ee","ios":"levelo://app?vid=b2fab118-3a0f-4f25-8136-45d109cc78ee"},"vehicle_type_id":"4","last_reported":1741424889,"current_range_meters":16000,"station_id":"ce4bhe12rcd13ifvqf30","pricing_plan_id":"cebpf4jnsgd1na2vs0mg"},{"bike_id":"f5bc50e0-18ac-466f-a238-faccbb25bd95","system_id":"levelo_inurba_marseille","lat":43.30306,"lon":5.40446,"is_reserved":false,"is_disabled":false,"rental_uris":{"android":"levelo://app?vid=f5bc50e0-18ac-466f-a238-faccbb25bd95","ios":"levelo://app?vid=f5bc50e0-18ac-466f-a238-faccbb25bd95"},"vehicle_type_id":"4","last_reported":1741424889,"current_range_meters":16000,"station_id":"ce4bh012rcd13ifvqd10","pricing_plan_id":"cebpf4jnsgd1na2vs0mg"},{"bike_id":"1c0d1896-5d6c-43bd-8040-b087ab8085e6","system_id":"levelo_inurba_marseille","lat":43.288256,"lon":5.392653,"is_reserved":false,"is_disabled":false,"rental_uris":{"android":"levelo://app?vid=1c0d1896-5d6c-43bd-8040-b087ab8085e6","ios":"levelo://app?vid=1c0d1896-5d6c-43bd-8040-b087ab8085e6"},"vehicle_type_id":"4","last_reported":1741424889,"current_range_meters":16000,"station_id":"ce4bgip2rcd13ifvqbb0","pricing_plan_id":"cebpf4jnsgd1na2vs0mg"},{"bike_id":"f932a780-3066-4818-aec7-8cc2b74f7014","system_id":"levelo_inurba_marseille","lat":43.297324,"lon":5.387395,"is_reserved":false,"is_disabled":false,"rental_uris":{"android":"levelo://app?vid=f932a780-3066-4818-aec7-8cc2b74f7014","ios":"levelo://app?vid=f932a780-3066-4818-aec7-8cc2b74f7014"},"vehicle_type_id":"4","last_reported":1741424889,"current_range_meters":16000,"station_id":"ce4bgup2rcd13ifvqco0","pricing_plan_id":"cebpf4jnsgd1na2vs0mg"},{"bike_id":"2cbacdd9-d5f3-48e6-9c90-629d26925df0","system_id":"levelo_inurba_marseille","lat":43.27559,"lon":5.38409,"is_reserved":false,"is_disabled":false,"rental_uris":{"android":"levelo://app?vid=2cbacdd9-d5f3-48e6-9c90-629d26925df0","ios":"levelo://app?vid=2cbacdd9-d5f3-48e6-9c90-629d26925df0"},"vehicle_type_id":"4","last_reported":1741424889,"current_range_meters":16400,"station_id":"ce4bhh92rcd13ifvqfi0","pricing_plan_id":"cebpf4jnsgd1na2vs0mg"},{"bike_id":"90a1ee3c-a390-473d-a212-a7a88e1a7482","system_id":"levelo_inurba_marseille","lat":43.24393,"lon":5.3707,"is_reserved":false,"is_disabled":false,"rental_uris":{"android":"levelo://app?vid=90a1ee3c-a390-473d-a212-a7a88e1a7482","ios":"levelo://app?vid=90a1ee3c-a390-473d-a212-a7a88e1a7482"},"vehicle_type_id":"4","last_reported":1741424889,"current_range_meters":16400,"station_id":"ce4bhhh2rcd13ifvqfk0","pricing_plan_id":"cebpf4jnsgd1na2vs0mg"},{"bike_id":"35c1791e-aa31-4855-b00e-94e87190641b","system_id":"levelo_inurba_marseille","lat":43.27989,"lon":5.41676,"is_reserved":false,"is_disabled":false,"rental_uris":{"android":"levelo://app?vid=35c1791e-aa31-4855-b00e-94e87190641b","ios":"levelo://app?vid=35c1791e-aa31-4855-b00e-94e87190641b"},"vehicle_type_id":"4","last_reported":1741424889,"current_range_meters":16400,"station_id":"ce4bho12rcd13ifvqh1g","pricing_plan_id":"cebpf4jnsgd1na2vs0mg"},{"bike_id":"f47486ba-16a7-4271-b3d1-e84230e13ba4","system_id":"levelo_inurba_marseille","lat":43.27304,"lon":5.39077,"is_reserved":false,"is_disabled":false,"rental_uris":{"android":"levelo://app?vid=f47486ba-16a7-4271-b3d1-e84230e13ba4","ios":"levelo://app?vid=f47486ba-16a7-4271-b3d1-e84230e13ba4"},"vehicle_type_id":"4","last_reported":1741424889,"current_range_meters":16400,"station_id":"ce4bhgp2rcd13ifvqfe0","pricing_plan_id":"cebpf4jnsgd1na2vs0mg"},{"bike_id":"b5efe211-5195-42ac-b46e-0cae605d82ad","system_id":"levelo_inurba_marseille","lat":43.30457,"lon":5.39769,"is_reserved":false,"is_disabled":false,"rental_uris":{"android":"levelo://app?vid=b5efe211-5195-42ac-b46e-0cae605d82ad","ios":"levelo://app?vid=b5efe211-5195-42ac-b46e-0cae605d82ad"},"vehicle_type_id":"4","last_reported":1741424889,"current_range_meters":16800,"station_id":"ce4bh092rcd13ifvqd20","pricing_plan_id":"cebpf4jnsgd1na2vs0mg"},{"bike_id":"7470f053-99e0-4222-a436-e5ac7880f722","system_id":"levelo_inurba_marseille","lat":43.22934,"lon":5.35391,"is_reserved":false,"is_disabled":false,"rental_uris":{"android":"levelo://app?vid=7470f053-99e0-4222-a436-e5ac7880f722","ios":"levelo://app?vid=7470f053-99e0-4222-a436-e5ac7880f722"},"vehicle_type_id":"4","last_reported":1741424889,"current_range_meters":16400,"station_id":"cpo3532slgdg3j2ikp40","pricing_plan_id":"cebpf4jnsgd1na2vs0mg"},{"bike_id":"32d6224f-3720-4fe2-bc93-7516a3099209","system_id":"levelo_inurba_marseille","lat":43.26934,"lon":5.40258,"is_reserved":false,"is_disabled":false,"rental_uris":{"android":"levelo://app?vid=32d6224f-3720-4fe2-bc93-7516a3099209","ios":"levelo://app?vid=32d6224f-3720-4fe2-bc93-7516a3099209"},"vehicle_type_id":"4","last_reported":1741424889,"current_range_meters":16800,"station_id":"cjm6bp8fraef2m0cb0m0","pricing_plan_id":"cebpf4jnsgd1na2vs0mg"},{"bike_id":"d10f4563-0230-4e9a-817d-5d1c1f2e8988","system_id":"levelo_inurba_marseille","lat":43.31322,"lon":5.39702,"is_reserved":false,"is_disabled":false,"rental_uris":{"android":"levelo://app?vid=d10f4563-0230-4e9a-817d-5d1c1f2e8988","ios":"levelo://app?vid=d10f4563-0230-4e9a-817d-5d1c1f2e8988"},"vehicle_type_id":"4","last_reported":1741424889,"current_range_meters":16800,"station_id":"ce4bgvp2rcd13ifvqcu0","pricing_plan_id":"cebpf4jnsgd1na2vs0mg"},{"bike_id":"c9555b0d-8118-4db6-98b4-92b42a2b119b","system_id":"levelo_inurba_marseille","lat":43.29195,"lon":5.35807,"is_reserved":false,"is_disabled":false,"rental_uris":{"android":"levelo://app?vid=c9555b0d-8118-4db6-98b4-92b42a2b119b","ios":"levelo://app?vid=c9555b0d-8118-4db6-98b4-92b42a2b119b"},"vehicle_type_id":"4","last_reported":1741424889,"current_range_meters":13600,"station_id":"ce4bhb12rcd13ifvqel0","pricing_plan_id":"cebpf4jnsgd1na2vs0mg"},{"bike_id":"e864a5f8-5d09-44e4-ac13-510caec44d44","system_id":"levelo_inurba_marseille","lat":43.29877,"lon":5.36276,"is_reserved":false,"is_disabled":false,"rental_uris":{"android":"levelo://app?vid=e864a5f8-5d09-44e4-ac13-510caec44d44","ios":"levelo://app?vid=e864a5f8-5d09-44e4-ac13-510caec44d44"},"vehicle_type_id":"4","last_reported":1741424889,"current_range_meters":16800,"station_id":"ce4bgpp2rcd13ifvqc3g","pricing_plan_id":"cebpf4jnsgd1na2vs0mg"},{"bike_id":"0b6b8dd8-3450-4779-834c-499fd12aab96","system_id":"levelo_inurba_marseille","lat":43.2781,"lon":5.40744,"is_reserved":false,"is_disabled":false,"rental_uris":{"android":"levelo://app?vid=0b6b8dd8-3450-4779-834c-499fd12aab96","ios":"levelo://app?vid=0b6b8dd8-3450-4779-834c-499fd12aab96"},"vehicle_type_id":"4","last_reported":1741424889,"current_range_meters":16800,"station_id":"ce4bhnh2rcd13ifvqgtg","pricing_plan_id":"cebpf4jnsgd1na2vs0mg"},{"bike_id":"c659d0dd-ea47-42d4-9eca-12210a0f97bb","system_id":"levelo_inurba_marseille","lat":43.298819,"lon":5.380881,"is_reserved":false,"is_disabled":false,"rental_uris":{"android":"levelo://app?vid=c659d0dd-ea47-42d4-9eca-12210a0f97bb","ios":"levelo://app?vid=c659d0dd-ea47-42d4-9eca-12210a0f97bb"},"vehicle_type_id":"4","last_reported":1741424889,"current_range_meters":16800,"station_id":"ce4bh192rcd13ifvqdb0","pricing_plan_id":"cebpf4jnsgd1na2vs0mg"},{"bike_id":"89cdc5a5-a744-4269-a86d-3ed5ecc287d5","system_id":"levelo_inurba_marseille","lat":43.24187,"lon":5.39738,"is_reserved":false,"is_disabled":false,"rental_uris":{"android":"levelo://app?vid=89cdc5a5-a744-4269-a86d-3ed5ecc287d5","ios":"levelo://app?vid=89cdc5a5-a744-4269-a86d-3ed5ecc287d5"},"vehicle_type_id":"4","last_reported":1741424889,"current_range_meters":16800,"station_id":"ce4bhn12rcd13ifvqgpg","pricing_plan_id":"cebpf4jnsgd1na2vs0mg"},{"bike_id":"dd5e40f2-4d0f-47a5-bdec-f8686f9d985c","system_id":"levelo_inurba_marseille","lat":43.30441,"lon":5.39752,"is_reserved":false,"is_disabled":false,"rental_uris":{"android":"levelo://app?vid=dd5e40f2-4d0f-47a5-bdec-f8686f9d985c","ios":"levelo://app?vid=dd5e40f2-4d0f-47a5-bdec-f8686f9d985c"},"vehicle_type_id":"4","last_reported":1741424889,"current_range_meters":17200,"station_id":"ce4bh092rcd13ifvqd20","pricing_plan_id":"cebpf4jnsgd1na2vs0mg"},{"bike_id":"e69b7ac1-acb6-40b1-a547-a9560a96060b","system_id":"levelo_inurba_marseille","lat":43.28042,"lon":5.3695,"is_reserved":false,"is_disabled":false,"rental_uris":{"android":"levelo://app?vid=e69b7ac1-acb6-40b1-a547-a9560a96060b","ios":"levelo://app?vid=e69b7ac1-acb6-40b1-a547-a9560a96060b"},"vehicle_type_id":"4","last_reported":1741424889,"current_range_meters":17200,"station_id":"ce4bha12rcd13ifvqef0","pricing_plan_id":"cebpf4jnsgd1na2vs0mg"},{"bike_id":"64624d57-798b-47e0-aaeb-fffba7f0da40","system_id":"levelo_inurba_marseille","lat":43.31372,"lon":5.3851,"is_reserved":false,"is_disabled":false,"rental_uris":{"android":"levelo://app?vid=64624d57-798b-47e0-aaeb-fffba7f0da40","ios":"levelo://app?vid=64624d57-798b-47e0-aaeb-fffba7f0da40"},"vehicle_type_id":"4","last_reported":1741424889,"current_range_meters":17200,"station_id":"ce4bgt92rcd13ifvqcf0","pricing_plan_id":"cebpf4jnsgd1na2vs0mg"},{"bike_id":"900570e9-b571-463d-adb9-2a6742257932","system_id":"levelo_inurba_marseille","lat":43.24384,"lon":5.37067,"is_reserved":false,"is_disabled":false,"rental_uris":{"android":"levelo://app?vid=900570e9-b571-463d-adb9-2a6742257932","ios":"levelo://app?vid=900570e9-b571-463d-adb9-2a6742257932"},"vehicle_type_id":"4","last_reported":1741424889,"current_range_meters":17200,"station_id":"ce4bhhh2rcd13ifvqfk0","pricing_plan_id":"cebpf4jnsgd1na2vs0mg"},{"bike_id":"db18c68c-1e98-43e4-adcc-af61b1d5bf5d","system_id":"levelo_inurba_marseille","lat":43.28835,"lon":5.35855,"is_reserved":false,"is_disabled":false,"rental_uris":{"android":"levelo://app?vid=db18c68c-1e98-43e4-adcc-af61b1d5bf5d","ios":"levelo://app?vid=db18c68c-1e98-43e4-adcc-af61b1d5bf5d"},"vehicle_type_id":"4","last_reported":1741424889,"current_range_meters":17200,"station_id":"ce4bhb12rcd13ifvqem0","pricing_plan_id":"cebpf4jnsgd1na2vs0mg"},{"bike_id":"dc404e46-8217-49df-a9f9-0b1fb5b9d87a","system_id":"levelo_inurba_marseille","lat":43.27998,"lon":5.40446,"is_reserved":false,"is_disabled":false,"rental_uris":{"android":"levelo://app?vid=dc404e46-8217-49df-a9f9-0b1fb5b9d87a","ios":"levelo://app?vid=dc404e46-8217-49df-a9f9-0b1fb5b9d87a"},"vehicle_type_id":"4","last_reported":1741424889,"current_range_meters":17200,"station_id":"","pricing_plan_id":"cebpf4jnsgd1na2vs0mg"},{"bike_id":"1c0184c6-72ad-4860-a550-18c4478dfce6","system_id":"levelo_inurba_marseille","lat":43.27936,"lon":5.41043,"is_reserved":false,"is_disabled":false,"rental_uris":{"android":"levelo://app?vid=1c0184c6-72ad-4860-a550-18c4478dfce6","ios":"levelo://app?vid=1c0184c6-72ad-4860-a550-18c4478dfce6"},"vehicle_type_id":"4","last_reported":1741424889,"current_range_meters":17600,"station_id":"ce4bhnp2rcd13ifvqh0g","pricing_plan_id":"cebpf4jnsgd1na2vs0mg"},{"bike_id":"7b791540-ffce-4a49-b1c1-609cd2daedc8","system_id":"levelo_inurba_marseille","lat":43.29983,"lon":5.38508,"is_reserved":false,"is_disabled":false,"rental_uris":{"android":"levelo://app?vid=7b791540-ffce-4a49-b1c1-609cd2daedc8","ios":"levelo://app?vid=7b791540-ffce-4a49-b1c1-609cd2daedc8"},"vehicle_type_id":"4","last_reported":1741424889,"current_range_meters":17600,"station_id":"ce4bgj92rcd13ifvqbd0","pricing_plan_id":"cebpf4jnsgd1na2vs0mg"},{"bike_id":"f6a21c52-00c8-4b4b-931c-930f7a98513a","system_id":"levelo_inurba_marseille","lat":43.280154,"lon":5.387235,"is_reserved":false,"is_disabled":false,"rental_uris":{"android":"levelo://app?vid=f6a21c52-00c8-4b4b-931c-930f7a98513a","ios":"levelo://app?vid=f6a21c52-00c8-4b4b-931c-930f7a98513a"},"vehicle_type_id":"4","last_reported":1741424889,"current_range_meters":17600,"station_id":"ce4bha92rcd13ifvqeg0","pricing_plan_id":"cebpf4jnsgd1na2vs0mg"},{"bike_id":"e9dab2ce-7c7d-40d2-82aa-ed5c703d86fd","system_id":"levelo_inurba_marseille","lat":43.32105,"lon":5.36785,"is_reserved":false,"is_disabled":false,"rental_uris":{"android":"levelo://app?vid=e9dab2ce-7c7d-40d2-82aa-ed5c703d86fd","ios":"levelo://app?vid=e9dab2ce-7c7d-40d2-82aa-ed5c703d86fd"},"vehicle_type_id":"4","last_reported":1741424889,"current_range_meters":17600,"station_id":"ce4bhrh2rcd13ifvqhug","pricing_plan_id":"cebpf4jnsgd1na2vs0mg"},{"bike_id":"deb81f77-c6e9-45d2-b680-8c00a5704cb4","system_id":"levelo_inurba_marseille","lat":43.32116,"lon":5.36792,"is_reserved":false,"is_disabled":false,"rental_uris":{"android":"levelo://app?vid=deb81f77-c6e9-45d2-b680-8c00a5704cb4","ios":"levelo://app?vid=deb81f77-c6e9-45d2-b680-8c00a5704cb4"},"vehicle_type_id":"4","last_reported":1741424889,"current_range_meters":17600,"station_id":"ce4bhrh2rcd13ifvqhug","pricing_plan_id":"cebpf4jnsgd1na2vs0mg"},{"bike_id":"46ff68d1-1514-47d8-8937-a8b9acea88f9","system_id":"levelo_inurba_marseille","lat":43.3019,"lon":5.38088,"is_reserved":false,"is_disabled":false,"rental_uris":{"android":"levelo://app?vid=46ff68d1-1514-47d8-8937-a8b9acea88f9","ios":"levelo://app?vid=46ff68d1-1514-47d8-8937-a8b9acea88f9"},"vehicle_type_id":"4","last_reported":1741424889,"current_range_meters":17600,"station_id":"ce4bgjp2rcd13ifvqbh0","pricing_plan_id":"cebpf4jnsgd1na2vs0mg"},{"bike_id":"de9161da-4603-4122-876c-63adf821d616","system_id":"levelo_inurba_marseille","lat":43.3209,"lon":5.36791,"is_reserved":false,"is_disabled":false,"rental_uris":{"android":"levelo://app?vid=de9161da-4603-4122-876c-63adf821d616","ios":"levelo://app?vid=de9161da-4603-4122-876c-63adf821d616"},"vehicle_type_id":"4","last_reported":1741424889,"current_range_meters":17600,"station_id":"ce4bhrh2rcd13ifvqhug","pricing_plan_id":"cebpf4jnsgd1na2vs0mg"},{"bike_id":"beb31d16-4d46-4836-a3b1-ce2031120e0a","system_id":"levelo_inurba_marseille","lat":43.29768,"lon":5.38118,"is_reserved":false,"is_disabled":false,"rental_uris":{"android":"levelo://app?vid=beb31d16-4d46-4836-a3b1-ce2031120e0a","ios":"levelo://app?vid=beb31d16-4d46-4836-a3b1-ce2031120e0a"},"vehicle_type_id":"4","last_reported":1741424889,"current_range_meters":18000,"station_id":"ce4bgip2rcd13ifvqbb0","pricing_plan_id":"cebpf4jnsgd1na2vs0mg"},{"bike_id":"d533ba1f-6a2e-4dff-808c-fd6362153814","system_id":"levelo_inurba_marseille","lat":43.30127,"lon":5.39868,"is_reserved":false,"is_disabled":false,"rental_uris":{"android":"levelo://app?vid=d533ba1f-6a2e-4dff-808c-fd6362153814","ios":"levelo://app?vid=d533ba1f-6a2e-4dff-808c-fd6362153814"},"vehicle_type_id":"4","last_reported":1741424889,"current_range_meters":18000,"station_id":"ce4bh0h2rcd13ifvqd40","pricing_plan_id":"cebpf4jnsgd1na2vs0mg"},{"bike_id":"b9ed3ad1-8b89-463c-8438-ae1e70d9b4c0","system_id":"levelo_inurba_marseille","lat":43.29951,"lon":5.38519,"is_reserved":false,"is_disabled":false,"rental_uris":{"android":"levelo://app?vid=b9ed3ad1-8b89-463c-8438-ae1e70d9b4c0","ios":"levelo://app?vid=b9ed3ad1-8b89-463c-8438-ae1e70d9b4c0"},"vehicle_type_id":"4","last_reported":1741424889,"current_range_meters":17600,"station_id":"ce4bgj92rcd13ifvqbd0","pricing_plan_id":"cebpf4jnsgd1na2vs0mg"},{"bike_id":"995b62e1-fe80-4936-a5f1-ffc9fa7d794b","system_id":"levelo_inurba_marseille","lat":43.28617,"lon":5.35105,"is_reserved":false,"is_disabled":false,"rental_uris":{"android":"levelo://app?vid=995b62e1-fe80-4936-a5f1-ffc9fa7d794b","ios":"levelo://app?vid=995b62e1-fe80-4936-a5f1-ffc9fa7d794b"},"vehicle_type_id":"4","last_reported":1741424889,"current_range_meters":17600,"station_id":"ce4bhch2rcd13ifvqeug","pricing_plan_id":"cebpf4jnsgd1na2vs0mg"},{"bike_id":"c2776722-9161-41be-8e0b-e0e0b53827e0","system_id":"levelo_inurba_marseille","lat":43.29518,"lon":5.390429,"is_reserved":false,"is_disabled":false,"rental_uris":{"android":"levelo://app?vid=c2776722-9161-41be-8e0b-e0e0b53827e0","ios":"levelo://app?vid=c2776722-9161-41be-8e0b-e0e0b53827e0"},"vehicle_type_id":"4","last_reported":1741424889,"current_range_meters":17600,"station_id":"ce4bh3p2rcd13ifvqdp0","pricing_plan_id":"cebpf4jnsgd1na2vs0mg"},{"bike_id":"3047e59d-f1cb-465b-b6cd-b5c66d974104","system_id":"levelo_inurba_marseille","lat":43.26076,"lon":5.39405,"is_reserved":false,"is_disabled":false,"rental_uris":{"android":"levelo://app?vid=3047e59d-f1cb-465b-b6cd-b5c66d974104","ios":"levelo://app?vid=3047e59d-f1cb-465b-b6cd-b5c66d974104"},"vehicle_type_id":"4","last_reported":1741424889,"current_range_meters":17600,"station_id":"ce4bhh92rcd13ifvqfj0","pricing_plan_id":"cebpf4jnsgd1na2vs0mg"},{"bike_id":"7d5784fa-4cd9-4805-80bd-e45d001be8a2","system_id":"levelo_inurba_marseille","lat":43.25724,"lon":5.41121,"is_reserved":false,"is_disabled":false,"rental_uris":{"android":"levelo://app?vid=7d5784fa-4cd9-4805-80bd-e45d001be8a2","ios":"levelo://app?vid=7d5784fa-4cd9-4805-80bd-e45d001be8a2"},"vehicle_type_id":"4","last_reported":1741424889,"current_range_meters":17600,"station_id":"ce4bhkp2rcd13ifvqgd0","pricing_plan_id":"cebpf4jnsgd1na2vs0mg"},{"bike_id":"314ad92b-893d-46d1-8bd4-e3add17e505e","system_id":"levelo_inurba_marseille","lat":43.30319,"lon":5.40446,"is_reserved":false,"is_disabled":false,"rental_uris":{"android":"levelo://app?vid=314ad92b-893d-46d1-8bd4-e3add17e505e","ios":"levelo://app?vid=314ad92b-893d-46d1-8bd4-e3add17e505e"},"vehicle_type_id":"4","last_reported":1741424889,"current_range_meters":18000,"station_id":"ce4bh012rcd13ifvqd10","pricing_plan_id":"cebpf4jnsgd1na2vs0mg"},{"bike_id":"1baeb851-e64e-441e-a1da-d8c7fa9b89db","system_id":"levelo_inurba_marseille","lat":43.29602,"lon":5.37785,"is_reserved":false,"is_disabled":false,"rental_uris":{"android":"levelo://app?vid=1baeb851-e64e-441e-a1da-d8c7fa9b89db","ios":"levelo://app?vid=1baeb851-e64e-441e-a1da-d8c7fa9b89db"},"vehicle_type_id":"4","last_reported":1741424889,"current_range_meters":18000,"station_id":"","pricing_plan_id":"cebpf4jnsgd1na2vs0mg"},{"bike_id":"e1a0293b-333d-4a97-9af3-0c51ffe4ad6e","system_id":"levelo_inurba_marseille","lat":43.2669,"lon":5.3838,"is_reserved":false,"is_disabled":false,"rental_uris":{"android":"levelo://app?vid=e1a0293b-333d-4a97-9af3-0c51ffe4ad6e","ios":"levelo://app?vid=e1a0293b-333d-4a97-9af3-0c51ffe4ad6e"},"vehicle_type_id":"4","last_reported":1741424889,"current_range_meters":18000,"station_id":"","pricing_plan_id":"cebpf4jnsgd1na2vs0mg"},{"bike_id":"cfbaced9-2a91-4a43-ab4b-475ef7e4945b","system_id":"levelo_inurba_marseille","lat":43.30597,"lon":5.37222,"is_reserved":false,"is_disabled":false,"rental_uris":{"android":"levelo://app?vid=cfbaced9-2a91-4a43-ab4b-475ef7e4945b","ios":"levelo://app?vid=cfbaced9-2a91-4a43-ab4b-475ef7e4945b"},"vehicle_type_id":"4","last_reported":1741424889,"current_range_meters":19600,"station_id":"ce4bgqh2rcd13ifvqc4g","pricing_plan_id":"cebpf4jnsgd1na2vs0mg"},{"bike_id":"f5787de6-62c4-4f0a-8264-f1dd08cff138","system_id":"levelo_inurba_marseille","lat":43.30869,"lon":5.39651,"is_reserved":false,"is_disabled":false,"rental_uris":{"android":"levelo://app?vid=f5787de6-62c4-4f0a-8264-f1dd08cff138","ios":"levelo://app?vid=f5787de6-62c4-4f0a-8264-f1dd08cff138"},"vehicle_type_id":"4","last_reported":1741424889,"current_range_meters":18000,"station_id":"ce4bh012rcd13ifvqcv0","pricing_plan_id":"cebpf4jnsgd1na2vs0mg"},{"bike_id":"f36a9827-95e5-476a-8bac-1f320363190b","system_id":"levelo_inurba_marseille","lat":43.27996,"lon":5.40019,"is_reserved":false,"is_disabled":false,"rental_uris":{"android":"levelo://app?vid=f36a9827-95e5-476a-8bac-1f320363190b","ios":"levelo://app?vid=f36a9827-95e5-476a-8bac-1f320363190b"},"vehicle_type_id":"4","last_reported":1741424889,"current_range_meters":18000,"station_id":"ce4bho92rcd13ifvqh4g","pricing_plan_id":"cebpf4jnsgd1na2vs0mg"},{"bike_id":"62f42a3b-8367-48ae-9dd8-9d068af010dd","system_id":"levelo_inurba_marseille","lat":43.265447,"lon":5.373008,"is_reserved":false,"is_disabled":false,"rental_uris":{"android":"levelo://app?vid=62f42a3b-8367-48ae-9dd8-9d068af010dd","ios":"levelo://app?vid=62f42a3b-8367-48ae-9dd8-9d068af010dd"},"vehicle_type_id":"4","last_reported":1741424889,"current_range_meters":18000,"station_id":"ce4bhg12rcd13ifvqf70","pricing_plan_id":"cebpf4jnsgd1na2vs0mg"},{"bike_id":"2d201668-e0ff-4085-9ec0-5c082a94ad30","system_id":"levelo_inurba_marseille","lat":43.33802,"lon":5.37445,"is_reserved":false,"is_disabled":false,"rental_uris":{"android":"levelo://app?vid=2d201668-e0ff-4085-9ec0-5c082a94ad30","ios":"levelo://app?vid=2d201668-e0ff-4085-9ec0-5c082a94ad30"},"vehicle_type_id":"4","last_reported":1741424889,"current_range_meters":18000,"station_id":"","pricing_plan_id":"cebpf4jnsgd1na2vs0mg"},{"bike_id":"a71f5391-91f9-4d09-a601-92c62e162a41","system_id":"levelo_inurba_marseille","lat":43.29352,"lon":5.3794,"is_reserved":false,"is_disabled":false,"rental_uris":{"android":"levelo://app?vid=a71f5391-91f9-4d09-a601-92c62e162a41","ios":"levelo://app?vid=a71f5391-91f9-4d09-a601-92c62e162a41"},"vehicle_type_id":"4","last_reported":1741424889,"current_range_meters":18000,"station_id":"","pricing_plan_id":"cebpf4jnsgd1na2vs0mg"},{"bike_id":"4c2f31be-d910-44a0-bf80-42c6447a123d","system_id":"levelo_inurba_marseille","lat":43.32059,"lon":5.41531,"is_reserved":false,"is_disabled":false,"rental_uris":{"android":"levelo://app?vid=4c2f31be-d910-44a0-bf80-42c6447a123d","ios":"levelo://app?vid=4c2f31be-d910-44a0-bf80-42c6447a123d"},"vehicle_type_id":"4","last_reported":1741424889,"current_range_meters":18000,"station_id":"ce4bhq92rcd13ifvqhkg","pricing_plan_id":"cebpf4jnsgd1na2vs0mg"},{"bike_id":"98d6b5e7-ab8a-48b4-a847-7124bae4afc6","system_id":"levelo_inurba_marseille","lat":43.23064,"lon":5.35491,"is_reserved":false,"is_disabled":false,"rental_uris":{"android":"levelo://app?vid=98d6b5e7-ab8a-48b4-a847-7124bae4afc6","ios":"levelo://app?vid=98d6b5e7-ab8a-48b4-a847-7124bae4afc6"},"vehicle_type_id":"4","last_reported":1741424889,"current_range_meters":18000,"station_id":"cpo3342slgdg3j2ifvpg","pricing_plan_id":"cebpf4jnsgd1na2vs0mg"},{"bike_id":"99e69bf6-dc57-4127-a1aa-9a36825d1a88","system_id":"levelo_inurba_marseille","lat":43.323555,"lon":5.367517,"is_reserved":false,"is_disabled":false,"rental_uris":{"android":"levelo://app?vid=99e69bf6-dc57-4127-a1aa-9a36825d1a88","ios":"levelo://app?vid=99e69bf6-dc57-4127-a1aa-9a36825d1a88"},"vehicle_type_id":"4","last_reported":1741424889,"current_range_meters":18000,"station_id":"ce4bhsh2rcd13ifvqi2g","pricing_plan_id":"cebpf4jnsgd1na2vs0mg"},{"bike_id":"6850b7dc-bb24-4a68-8360-176d30237632","system_id":"levelo_inurba_marseille","lat":43.3046,"lon":5.37911,"is_reserved":false,"is_disabled":false,"rental_uris":{"android":"levelo://app?vid=6850b7dc-bb24-4a68-8360-176d30237632","ios":"levelo://app?vid=6850b7dc-bb24-4a68-8360-176d30237632"},"vehicle_type_id":"4","last_reported":1741424889,"current_range_meters":18000,"station_id":"ce4bgup2rcd13ifvqcn0","pricing_plan_id":"cebpf4jnsgd1na2vs0mg"},{"bike_id":"d60e2ba2-9d3a-4067-8d8a-3ebb91302584","system_id":"levelo_inurba_marseille","lat":43.29285,"lon":5.37779,"is_reserved":false,"is_disabled":false,"rental_uris":{"android":"levelo://app?vid=d60e2ba2-9d3a-4067-8d8a-3ebb91302584","ios":"levelo://app?vid=d60e2ba2-9d3a-4067-8d8a-3ebb91302584"},"vehicle_type_id":"4","last_reported":1741424889,"current_range_meters":18800,"station_id":"","pricing_plan_id":"cebpf4jnsgd1na2vs0mg"},{"bike_id":"d95f7b9d-2457-4e15-b3e6-6fbf92f96d78","system_id":"levelo_inurba_marseille","lat":43.23066,"lon":5.35488,"is_reserved":false,"is_disabled":false,"rental_uris":{"android":"levelo://app?vid=d95f7b9d-2457-4e15-b3e6-6fbf92f96d78","ios":"levelo://app?vid=d95f7b9d-2457-4e15-b3e6-6fbf92f96d78"},"vehicle_type_id":"4","last_reported":1741424889,"current_range_meters":18800,"station_id":"cpo3342slgdg3j2ifvpg","pricing_plan_id":"cebpf4jnsgd1na2vs0mg"},{"bike_id":"11ebf985-b073-454a-baa8-beec3c04cd37","system_id":"levelo_inurba_marseille","lat":43.33024,"lon":5.39052,"is_reserved":false,"is_disabled":false,"rental_uris":{"android":"levelo://app?vid=11ebf985-b073-454a-baa8-beec3c04cd37","ios":"levelo://app?vid=11ebf985-b073-454a-baa8-beec3c04cd37"},"vehicle_type_id":"4","last_reported":1741424889,"current_range_meters":18800,"station_id":"ce4bhr92rcd13ifvqhrg","pricing_plan_id":"cebpf4jnsgd1na2vs0mg"},{"bike_id":"d1d4ed97-305c-43ce-a4ee-2d8ddc076fa9","system_id":"levelo_inurba_marseille","lat":43.29958,"lon":5.38531,"is_reserved":false,"is_disabled":false,"rental_uris":{"android":"levelo://app?vid=d1d4ed97-305c-43ce-a4ee-2d8ddc076fa9","ios":"levelo://app?vid=d1d4ed97-305c-43ce-a4ee-2d8ddc076fa9"},"vehicle_type_id":"4","last_reported":1741424889,"current_range_meters":19200,"station_id":"ce4bgj92rcd13ifvqbd0","pricing_plan_id":"cebpf4jnsgd1na2vs0mg"},{"bike_id":"83563c1c-bef7-4eab-bee7-f6756eeed608","system_id":"levelo_inurba_marseille","lat":43.25563,"lon":5.38244,"is_reserved":false,"is_disabled":false,"rental_uris":{"android":"levelo://app?vid=83563c1c-bef7-4eab-bee7-f6756eeed608","ios":"levelo://app?vid=83563c1c-bef7-4eab-bee7-f6756eeed608"},"vehicle_type_id":"4","last_reported":1741424889,"current_range_meters":18800,"station_id":"ce4bhih2rcd13ifvqfs0","pricing_plan_id":"cebpf4jnsgd1na2vs0mg"},{"bike_id":"ac66e98d-acb6-456e-a50c-9e185ff3875c","system_id":"levelo_inurba_marseille","lat":43.31135,"lon":5.37814,"is_reserved":false,"is_disabled":false,"rental_uris":{"android":"levelo://app?vid=ac66e98d-acb6-456e-a50c-9e185ff3875c","ios":"levelo://app?vid=ac66e98d-acb6-456e-a50c-9e185ff3875c"},"vehicle_type_id":"4","last_reported":1741424889,"current_range_meters":18800,"station_id":"ce4bgt92rcd13ifvqcg0","pricing_plan_id":"cebpf4jnsgd1na2vs0mg"},{"bike_id":"b16f0f4f-cb06-46bf-81ba-8bee8dea18a1","system_id":"levelo_inurba_marseille","lat":43.30585,"lon":5.37211,"is_reserved":false,"is_disabled":false,"rental_uris":{"android":"levelo://app?vid=b16f0f4f-cb06-46bf-81ba-8bee8dea18a1","ios":"levelo://app?vid=b16f0f4f-cb06-46bf-81ba-8bee8dea18a1"},"vehicle_type_id":"4","last_reported":1741424889,"current_range_meters":18800,"station_id":"ce4bgqh2rcd13ifvqc4g","pricing_plan_id":"cebpf4jnsgd1na2vs0mg"},{"bike_id":"5daf32e0-ab85-45e7-b292-2a0a67920f4b","system_id":"levelo_inurba_marseille","lat":43.26199,"lon":5.37451,"is_reserved":false,"is_disabled":false,"rental_uris":{"android":"levelo://app?vid=5daf32e0-ab85-45e7-b292-2a0a67920f4b","ios":"levelo://app?vid=5daf32e0-ab85-45e7-b292-2a0a67920f4b"},"vehicle_type_id":"4","last_reported":1741424889,"current_range_meters":18800,"station_id":"ce4bhgp2rcd13ifvqfc0","pricing_plan_id":"cebpf4jnsgd1na2vs0mg"},{"bike_id":"db770aa1-b2c8-4d91-980b-b1ead4bc1f13","system_id":"levelo_inurba_marseille","lat":43.27053,"lon":5.40304,"is_reserved":false,"is_disabled":false,"rental_uris":{"android":"levelo://app?vid=db770aa1-b2c8-4d91-980b-b1ead4bc1f13","ios":"levelo://app?vid=db770aa1-b2c8-4d91-980b-b1ead4bc1f13"},"vehicle_type_id":"4","last_reported":1741424889,"current_range_meters":18800,"station_id":"ce4bhk92rcd13ifvqgc0","pricing_plan_id":"cebpf4jnsgd1na2vs0mg"},{"bike_id":"9a47bb06-a0ec-44b7-b53d-b268170ddbd8","system_id":"levelo_inurba_marseille","lat":43.29381,"lon":5.37862,"is_reserved":false,"is_disabled":false,"rental_uris":{"android":"levelo://app?vid=9a47bb06-a0ec-44b7-b53d-b268170ddbd8","ios":"levelo://app?vid=9a47bb06-a0ec-44b7-b53d-b268170ddbd8"},"vehicle_type_id":"4","last_reported":1741424889,"current_range_meters":19600,"station_id":"ce4bgjh2rcd13ifvqbf0","pricing_plan_id":"cebpf4jnsgd1na2vs0mg"},{"bike_id":"e0ddd106-a55f-477a-ab46-cbf84d9e96c8","system_id":"levelo_inurba_marseille","lat":43.30351,"lon":5.41876,"is_reserved":false,"is_disabled":false,"rental_uris":{"android":"levelo://app?vid=e0ddd106-a55f-477a-ab46-cbf84d9e96c8","ios":"levelo://app?vid=e0ddd106-a55f-477a-ab46-cbf84d9e96c8"},"vehicle_type_id":"4","last_reported":1741424889,"current_range_meters":19200,"station_id":"ce4bhop2rcd13ifvqh7g","pricing_plan_id":"cebpf4jnsgd1na2vs0mg"},{"bike_id":"c67b8800-a809-4e34-9288-6a7a6e3a69b1","system_id":"levelo_inurba_marseille","lat":43.24164,"lon":5.39716,"is_reserved":false,"is_disabled":false,"rental_uris":{"android":"levelo://app?vid=c67b8800-a809-4e34-9288-6a7a6e3a69b1","ios":"levelo://app?vid=c67b8800-a809-4e34-9288-6a7a6e3a69b1"},"vehicle_type_id":"4","last_reported":1741424889,"current_range_meters":19200,"station_id":"ce4bhn12rcd13ifvqgpg","pricing_plan_id":"cebpf4jnsgd1na2vs0mg"},{"bike_id":"25b778c2-7102-4dfe-8b16-b15e62a28bb6","system_id":"levelo_inurba_marseille","lat":43.31121,"lon":5.37782,"is_reserved":false,"is_disabled":false,"rental_uris":{"android":"levelo://app?vid=25b778c2-7102-4dfe-8b16-b15e62a28bb6","ios":"levelo://app?vid=25b778c2-7102-4dfe-8b16-b15e62a28bb6"},"vehicle_type_id":"4","last_reported":1741424889,"current_range_meters":19200,"station_id":"ce4bgt92rcd13ifvqcg0","pricing_plan_id":"cebpf4jnsgd1na2vs0mg"},{"bike_id":"df17bf45-346e-40fc-b11b-66533dcc789b","system_id":"levelo_inurba_marseille","lat":43.23188,"lon":5.39991,"is_reserved":false,"is_disabled":false,"rental_uris":{"android":"levelo://app?vid=df17bf45-346e-40fc-b11b-66533dcc789b","ios":"levelo://app?vid=df17bf45-346e-40fc-b11b-66533dcc789b"},"vehicle_type_id":"4","last_reported":1741424889,"current_range_meters":19200,"station_id":"ce4bhn12rcd13ifvqgqg","pricing_plan_id":"cebpf4jnsgd1na2vs0mg"},{"bike_id":"d35caae8-f4b3-4a1f-b4e5-a43076da933c","system_id":"levelo_inurba_marseille","lat":43.31704,"lon":5.3769,"is_reserved":false,"is_disabled":false,"rental_uris":{"android":"levelo://app?vid=d35caae8-f4b3-4a1f-b4e5-a43076da933c","ios":"levelo://app?vid=d35caae8-f4b3-4a1f-b4e5-a43076da933c"},"vehicle_type_id":"4","last_reported":1741424889,"current_range_meters":19200,"station_id":"ce4bgth2rcd13ifvqch0","pricing_plan_id":"cebpf4jnsgd1na2vs0mg"},{"bike_id":"adeda56f-14e9-48cf-aa68-626240587e69","system_id":"levelo_inurba_marseille","lat":43.28377,"lon":5.38636,"is_reserved":false,"is_disabled":false,"rental_uris":{"android":"levelo://app?vid=adeda56f-14e9-48cf-aa68-626240587e69","ios":"levelo://app?vid=adeda56f-14e9-48cf-aa68-626240587e69"},"vehicle_type_id":"4","last_reported":1741424889,"current_range_meters":19200,"station_id":"ce4bh492rcd13ifvqdvg","pricing_plan_id":"cebpf4jnsgd1na2vs0mg"},{"bike_id":"8a67dd83-ee35-4daf-910c-c9d28abf3f9b","system_id":"levelo_inurba_marseille","lat":43.30943,"lon":5.40151,"is_reserved":false,"is_disabled":false,"rental_uris":{"android":"levelo://app?vid=8a67dd83-ee35-4daf-910c-c9d28abf3f9b","ios":"levelo://app?vid=8a67dd83-ee35-4daf-910c-c9d28abf3f9b"},"vehicle_type_id":"4","last_reported":1741424889,"current_range_meters":19200,"station_id":"ce4bgvp2rcd13ifvqct0","pricing_plan_id":"cebpf4jnsgd1na2vs0mg"},{"bike_id":"746a93f7-48b8-47de-8ffb-c90833f2c4aa","system_id":"levelo_inurba_marseille","lat":43.27951,"lon":5.41043,"is_reserved":false,"is_disabled":false,"rental_uris":{"android":"levelo://app?vid=746a93f7-48b8-47de-8ffb-c90833f2c4aa","ios":"levelo://app?vid=746a93f7-48b8-47de-8ffb-c90833f2c4aa"},"vehicle_type_id":"4","last_reported":1741424889,"current_range_meters":19200,"station_id":"ce4bhnp2rcd13ifvqh0g","pricing_plan_id":"cebpf4jnsgd1na2vs0mg"},{"bike_id":"88648dd0-409e-4784-9fb0-3ac35c2f3875","system_id":"levelo_inurba_marseille","lat":43.31704,"lon":5.37812,"is_reserved":false,"is_disabled":false,"rental_uris":{"android":"levelo://app?vid=88648dd0-409e-4784-9fb0-3ac35c2f3875","ios":"levelo://app?vid=88648dd0-409e-4784-9fb0-3ac35c2f3875"},"vehicle_type_id":"4","last_reported":1741424889,"current_range_meters":19200,"station_id":"","pricing_plan_id":"cebpf4jnsgd1na2vs0mg"},{"bike_id":"58516daf-5c8f-48f7-a55c-f40a545449df","system_id":"levelo_inurba_marseille","lat":43.28101,"lon":5.3785,"is_reserved":false,"is_disabled":false,"rental_uris":{"android":"levelo://app?vid=58516daf-5c8f-48f7-a55c-f40a545449df","ios":"levelo://app?vid=58516daf-5c8f-48f7-a55c-f40a545449df"},"vehicle_type_id":"4","last_reported":1741424889,"current_range_meters":19600,"station_id":"ce4bha12rcd13ifvqee0","pricing_plan_id":"cebpf4jnsgd1na2vs0mg"},{"bike_id":"931fd3db-4767-4222-9848-0306bba9a6b8","system_id":"levelo_inurba_marseille","lat":43.24057,"lon":5.37762,"is_reserved":false,"is_disabled":false,"rental_uris":{"android":"levelo://app?vid=931fd3db-4767-4222-9848-0306bba9a6b8","ios":"levelo://app?vid=931fd3db-4767-4222-9848-0306bba9a6b8"},"vehicle_type_id":"4","last_reported":1741424889,"current_range_meters":19600,"station_id":"ce4bhnp2rcd13ifvqgvg","pricing_plan_id":"cebpf4jnsgd1na2vs0mg"},{"bike_id":"5a90c755-5607-4bf6-a7b2-4afdeca917ec","system_id":"levelo_inurba_marseille","lat":43.2655,"lon":5.3731,"is_reserved":false,"is_disabled":false,"rental_uris":{"android":"levelo://app?vid=5a90c755-5607-4bf6-a7b2-4afdeca917ec","ios":"levelo://app?vid=5a90c755-5607-4bf6-a7b2-4afdeca917ec"},"vehicle_type_id":"4","last_reported":1741424889,"current_range_meters":19600,"station_id":"ce4bhg12rcd13ifvqf70","pricing_plan_id":"cebpf4jnsgd1na2vs0mg"},{"bike_id":"8579e54f-565e-4025-a73c-88723bee831d","system_id":"levelo_inurba_marseille","lat":43.23195,"lon":5.40019,"is_reserved":false,"is_disabled":false,"rental_uris":{"android":"levelo://app?vid=8579e54f-565e-4025-a73c-88723bee831d","ios":"levelo://app?vid=8579e54f-565e-4025-a73c-88723bee831d"},"vehicle_type_id":"4","last_reported":1741424889,"current_range_meters":19600,"station_id":"ce4bhn12rcd13ifvqgqg","pricing_plan_id":"cebpf4jnsgd1na2vs0mg"},{"bike_id":"ee951a65-6f85-4b8a-a512-932c4b8e0e76","system_id":"levelo_inurba_marseille","lat":43.28946,"lon":5.36409,"is_reserved":false,"is_disabled":false,"rental_uris":{"android":"levelo://app?vid=ee951a65-6f85-4b8a-a512-932c4b8e0e76","ios":"levelo://app?vid=ee951a65-6f85-4b8a-a512-932c4b8e0e76"},"vehicle_type_id":"4","last_reported":1741424889,"current_range_meters":20800,"station_id":"ce4bhc92rcd13ifvqetg","pricing_plan_id":"cebpf4jnsgd1na2vs0mg"},{"bike_id":"4b534c93-994e-4ce5-9649-d15c3abd6236","system_id":"levelo_inurba_marseille","lat":43.26563,"lon":5.39008,"is_reserved":false,"is_disabled":false,"rental_uris":{"android":"levelo://app?vid=4b534c93-994e-4ce5-9649-d15c3abd6236","ios":"levelo://app?vid=4b534c93-994e-4ce5-9649-d15c3abd6236"},"vehicle_type_id":"4","last_reported":1741424889,"current_range_meters":19600,"station_id":"ce4bhe12rcd13ifvqf30","pricing_plan_id":"cebpf4jnsgd1na2vs0mg"},{"bike_id":"3f3948c1-9ca9-49ac-8371-201965a52b04","system_id":"levelo_inurba_marseille","lat":43.30387,"lon":5.41871,"is_reserved":false,"is_disabled":false,"rental_uris":{"android":"levelo://app?vid=3f3948c1-9ca9-49ac-8371-201965a52b04","ios":"levelo://app?vid=3f3948c1-9ca9-49ac-8371-201965a52b04"},"vehicle_type_id":"4","last_reported":1741424889,"current_range_meters":19600,"station_id":"ce4bhop2rcd13ifvqh7g","pricing_plan_id":"cebpf4jnsgd1na2vs0mg"},{"bike_id":"7f08542c-3622-4bee-8852-d0974c0ec085","system_id":"levelo_inurba_marseille","lat":43.24167,"lon":5.36415,"is_reserved":false,"is_disabled":false,"rental_uris":{"android":"levelo://app?vid=7f08542c-3622-4bee-8852-d0974c0ec085","ios":"levelo://app?vid=7f08542c-3622-4bee-8852-d0974c0ec085"},"vehicle_type_id":"4","last_reported":1741424889,"current_range_meters":20000,"station_id":"cpo36qri1sfpv3e86is0","pricing_plan_id":"cebpf4jnsgd1na2vs0mg"},{"bike_id":"ab2dcbe1-b86b-4ab0-98e5-4db9b2784d7e","system_id":"levelo_inurba_marseille","lat":43.292,"lon":5.35802,"is_reserved":false,"is_disabled":false,"rental_uris":{"android":"levelo://app?vid=ab2dcbe1-b86b-4ab0-98e5-4db9b2784d7e","ios":"levelo://app?vid=ab2dcbe1-b86b-4ab0-98e5-4db9b2784d7e"},"vehicle_type_id":"4","last_reported":1741424889,"current_range_meters":20000,"station_id":"ce4bhb12rcd13ifvqel0","pricing_plan_id":"cebpf4jnsgd1na2vs0mg"},{"bike_id":"3774a1d5-6313-4163-87ee-0bffdfbd52f2","system_id":"levelo_inurba_marseille","lat":43.25117,"lon":5.40383,"is_reserved":false,"is_disabled":false,"rental_uris":{"android":"levelo://app?vid=3774a1d5-6313-4163-87ee-0bffdfbd52f2","ios":"levelo://app?vid=3774a1d5-6313-4163-87ee-0bffdfbd52f2"},"vehicle_type_id":"4","last_reported":1741424889,"current_range_meters":20000,"station_id":"","pricing_plan_id":"cebpf4jnsgd1na2vs0mg"},