{"last_updated":1759129885,"ttl":60,"version":"2.2","data":{"bikes":[{"bike_id":"fbef676b-8f42-450e-b448-da45ad596c28","system_id":"levelo_inurba_marseille","lat":43.28377,"lon":5.36316,"is_reserved":false,"is_disabled":false,"rental_uris":{"android":"levelo://app?vid=fbef676b-8f42-450e-b448-da45ad596c28","ios":"levelo://app?vid=fbef676b-8f42-450e-b448-da45ad596c28"},"vehicle_type_id":"4","last_reported":1759129885,"current_range_meters":2800,"station_id":"","pricing_plan_id":"cebpf4jnsgd1na2vs0mg"},{"bike_id":"6639a94e-5a79-4e0a-a05a-a397e6506950","system_id":"levelo_inurba_marseille","lat":43.3088,"lon":5.39652,"is_reserved":false,"is_disabled":false,"rental_uris":{"android":"levelo://app?vid=6639a94e-5a79-4e0a-a05a-a397e6506950","ios":"levelo://app?vid=6639a94e-5a79-4e0a-a05a-a397e6506950"},"vehicle_type_id":"4","last_reported":1759129885,"current_range_meters":2800,"station_id":"ce4bh012rcd13ifvqcv0","pricing_plan_id":"cebpf4jnsgd1na2vs0mg"},{"bike_id":"7a4fab3d-2904-4ab6-bbe5-36150d7798a4","system_id":"levelo_inurba_marseille","lat":43.29916,"lon":5.37476,"is_reserved":false,"is_disabled":false,"rental_uris":{"android":"levelo://app?vid=7a4fab3d-2904-4ab6-bbe5-36150d7798a4","ios":"levelo://app?vid=7a4fab3d-2904-4ab6-bbe5-36150d7798a4"},"vehicle_type_id":"4","last_reported":1759129885,"current_range_meters":2800,"station_id":"ce4bgjh2rcd13ifvqbg0","pricing_plan_id":"cebpf4jnsgd1na2vs0mg"},{"bike_id":"e254d7bf-19d8-4099-8210-8c0dd3fc6ec2","system_id":"levelo_inurba_marseille","lat":43.26682,"lon":5.38272,"is_reserved":false,"is_disabled":false,"rental_uris":{"android":"levelo://app?vid=e254d7bf-19d8-4099-8210-8c0dd3fc6ec2","ios":"levelo://app?vid=e254d7bf-19d8-4099-8210-8c0dd3fc6ec2"},"vehicle_type_id":"4","last_reported":1759129885,"current_range_meters":2800,"station_id":"ce4bhg92rcd13ifvqf90","pricing_plan_id":"cebpf4jnsgd1na2vs0mg"},{"bike_id":"9a819dc8-447d-4df7-8b5f-0b18332a26a7","system_id":"levelo_inurba_marseille","lat":43.32939,"lon":5.37619,"is_reserved":false,"is_disabled":true,"rental_uris":{"android":"levelo://app?vid=9a819dc8-447d-4df7-8b5f-0b18332a26a7","ios":"levelo://app?vid=9a819dc8-447d-4df7-8b5f-0b18332a26a7"},"vehicle_type_id":"4","last_reported":1759129885,"current_range_meters":3200,"station_id":"","pricing_plan_id":"cebpf4jnsgd1na2vs0mg"},{"bike_id":"2bc5faf2-3f3d-4e6f-95b7-b415112818ba","system_id":"levelo_inurba_marseille","lat":43.298427,"lon":5.362742,"is_reserved":false,"is_disabled":false,"rental_uris":{"android":"levelo://app?vid=2bc5faf2-3f3d-4e6f-95b7-b415112818ba","ios":"levelo://app?vid=2bc5faf2-3f3d-4e6f-95b7-b415112818ba"},"vehicle_type_id":"4","last_reported":1759129885,"current_range_meters":3600,"station_id":"ce4bgpp2rcd13ifvqc3g","pricing_plan_id":"cebpf4jnsgd1na2vs0mg"},{"bike_id":"28072a77-eefd-4cfa-bd68-7696e02f507d","system_id":"levelo_inurba_marseille","lat":43.32437,"lon":5.36871,"is_reserved":false,"is_disabled":false,"rental_uris":{"android":"levelo://app?vid=28072a77-eefd-4cfa-bd68-7696e02f507d","ios":"levelo://app?vid=28072a77-eefd-4cfa-bd68-7696e02f507d"},"vehicle_type_id":"4","last_reported":1759129885,"current_range_meters":3600,"station_id":"","pricing_plan_id":"cebpf4jnsgd1na2vs0mg"},{"bike_id":"01bf55f2-4ac6-46f6-8504-3267bf31e1a6","system_id":"levelo_inurba_marseille","lat":43.2973,"lon":5.381787,"is_reserved":false,"is_disabled":false,"rental_uris":{"android":"levelo://app?vid=01bf55f2-4ac6-46f6-8504-3267bf31e1a6","ios":"levelo://app?vid=01bf55f2-4ac6-46f6-8504-3267bf31e1a6"},"vehicle_type_id":"4","last_reported":1759129885,"current_range_meters":3600,"station_id":"","pricing_plan_id":"cebpf4jnsgd1na2vs0mg"},{"bike_id":"ce19f267-890e-40f6-89cf-34b233c3efcf","system_id":"levelo_inurba_marseille","lat":43.26572,"lon":5.4033,"is_reserved":false,"is_disabled":true,"rental_uris":{"android":"levelo://app?vid=ce19f267-890e-40f6-89cf-34b233c3efcf","ios":"levelo://app?vid=ce19f267-890e-40f6-89cf-34b233c3efcf"},"vehicle_type_id":"4","last_reported":1759129885,"current_range_meters":3600,"station_id":"ce4bhmp2rcd13ifvqgng","pricing_plan_id":"cebpf4jnsgd1na2vs0mg"},{"bike_id":"94afa5f2-4c77-4f59-a1ca-9456dcc637d4","system_id":"levelo_inurba_marseille","lat":43.26789,"lon":5.39416,"is_reserved":false,"is_disabled":false,"rental_uris":{"android":"levelo://app?vid=94afa5f2-4c77-4f59-a1ca-9456dcc637d4","ios":"levelo://app?vid=94afa5f2-4c77-4f59-a1ca-9456dcc637d4"},"vehicle_type_id":"4","last_reported":1759129885,"current_range_meters":4000,"station_id":"ce4bhh12rcd13ifvqfg0","pricing_plan_id":"cebpf4jnsgd1na2vs0mg"},{"bike_id":"26b95eb0-22ea-451d-acb5-e4c83d9743e6","system_id":"levelo_inurba_marseille","lat":43.2784,"lon":5.39207,"is_reserved":false,"is_disabled":false,"rental_uris":{"android":"levelo://app?vid=26b95eb0-22ea-451d-acb5-e4c83d9743e6","ios":"levelo://app?vid=26b95eb0-22ea-451d-acb5-e4c83d9743e6"},"vehicle_type_id":"4","last_reported":1759129885,"current_range_meters":4000,"station_id":"ce4bhjp2rcd13ifvqga0","pricing_plan_id":"cebpf4jnsgd1na2vs0mg"},{"bike_id":"9ef049b2-6ac7-49ce-a8d1-dabd6f4cc6f5","system_id":"levelo_inurba_marseille","lat":43.28973,"lon":5.37833,"is_reserved":false,"is_disabled":false,"rental_uris":{"android":"levelo://app?vid=9ef049b2-6ac7-49ce-a8d1-dabd6f4cc6f5","ios":"levelo://app?vid=9ef049b2-6ac7-49ce-a8d1-dabd6f4cc6f5"},"vehicle_type_id":"4","last_reported":1759129885,"current_range_meters":4000,"station_id":"ce4bh9p2rcd13ifvqed0","pricing_plan_id":"cebpf4jnsgd1na2vs0mg"},{"bike_id":"588bb5c6-d90f-4edd-b1de-2d2164a39c00","system_id":"levelo_inurba_marseille","lat":43.32913,"lon":5.39078,"is_reserved":false,"is_disabled":true,"rental_uris":{"android":"levelo://app?vid=588bb5c6-d90f-4edd-b1de-2d2164a39c00","ios":"levelo://app?vid=588bb5c6-d90f-4edd-b1de-2d2164a39c00"},"vehicle_type_id":"4","last_reported":1759129885,"current_range_meters":4000,"station_id":"","pricing_plan_id":"cebpf4jnsgd1na2vs0mg"},{"bike_id":"17c9388f-cce3-4b4e-9504-9a57348435ee","system_id":"levelo_inurba_marseille","lat":43.25661,"lon":5.41106,"is_reserved":false,"is_disabled":false,"rental_uris":{"android":"levelo://app?vid=17c9388f-cce3-4b4e-9504-9a57348435ee","ios":"levelo://app?vid=17c9388f-cce3-4b4e-9504-9a57348435ee"},"vehicle_type_id":"4","last_reported":1759129885,"current_range_meters":4400,"station_id":"","pricing_plan_id":"cebpf4jnsgd1na2vs0mg"},{"bike_id":"934ea1ec-b7f6-49a1-9efa-287317d4eb22","system_id":"levelo_inurba_marseille","lat":43.29048,"lon":5.35914,"is_reserved":false,"is_disabled":false,"rental_uris":{"android":"levelo://app?vid=934ea1ec-b7f6-49a1-9efa-287317d4eb22","ios":"levelo://app?vid=934ea1ec-b7f6-49a1-9efa-287317d4eb22"},"vehicle_type_id":"4","last_reported":1759129885,"current_range_meters":4800,"station_id":"","pricing_plan_id":"cebpf4jnsgd1na2vs0mg"},{"bike_id":"14b8348f-6c03-4717-a803-3b1ed0b8520d","system_id":"levelo_inurba_marseille","lat":43.25936,"lon":5.40891,"is_reserved":false,"is_disabled":false,"rental_uris":{"android":"levelo://app?vid=14b8348f-6c03-4717-a803-3b1ed0b8520d","ios":"levelo://app?vid=14b8348f-6c03-4717-a803-3b1ed0b8520d"},"vehicle_type_id":"4","last_reported":1759129885,"current_range_meters":4800,"station_id":"ce4bhm92rcd13ifvqglg","pricing_plan_id":"cebpf4jnsgd1na2vs0mg"},{"bike_id":"0d9c40ec-031a-4831-b45d-0985976c931c","system_id":"levelo_inurba_marseille","lat":43.24081,"lon":5.3775,"is_reserved":false,"is_disabled":false,"rental_uris":{"android":"levelo://app?vid=0d9c40ec-031a-4831-b45d-0985976c931c","ios":"levelo://app?vid=0d9c40ec-031a-4831-b45d-0985976c931c"},"vehicle_type_id":"4","last_reported":1759129885,"current_range_meters":5600,"station_id":"ce4bhnp2rcd13ifvqgvg","pricing_plan_id":"cebpf4jnsgd1na2vs0mg"},{"bike_id":"9e0b5c1e-4575-443e-a144-c0f9838bd297","system_id":"levelo_inurba_marseille","lat":43.30148,"lon":5.37416,"is_reserved":false,"is_disabled":false,"rental_uris":{"android":"levelo://app?vid=9e0b5c1e-4575-443e-a144-c0f9838bd297","ios":"levelo://app?vid=9e0b5c1e-4575-443e-a144-c0f9838bd297"},"vehicle_type_id":"4","last_reported":1759129885,"current_range_meters":5600,"station_id":"ce4bgs92rcd13ifvqcc0","pricing_plan_id":"cebpf4jnsgd1na2vs0mg"},{"bike_id":"720623f7-9148-4a0e-ade4-a205c6fa44f0","system_id":"levelo_inurba_marseille","lat":43.28977,"lon":5.42924,"is_reserved":false,"is_disabled":false,"rental_uris":{"android":"levelo://app?vid=720623f7-9148-4a0e-ade4-a205c6fa44f0","ios":"levelo://app?vid=720623f7-9148-4a0e-ade4-a205c6fa44f0"},"vehicle_type_id":"4","last_reported":1759129885,"current_range_meters":5600,"station_id":"","pricing_plan_id":"cebpf4jnsgd1na2vs0mg"},{"bike_id":"eb59c8fe-c28f-486f-800e-82565a4e16e0","system_id":"levelo_inurba_marseille","lat":43.2962,"lon":5.37721,"is_reserved":false,"is_disabled":false,"rental_uris":{"android":"levelo://app?vid=eb59c8fe-c28f-486f-800e-82565a4e16e0","ios":"levelo://app?vid=eb59c8fe-c28f-486f-800e-82565a4e16e0"},"vehicle_type_id":"4","last_reported":1759129885,"current_range_meters":6000,"station_id":"ce4bgi92rcd13ifvqb90","pricing_plan_id":"cebpf4jnsgd1na2vs0mg"},{"bike_id":"e1dda297-fb29-44d4-a3e1-1cb724e09fc6","system_id":"levelo_inurba_marseille","lat":43.28409,"lon":5.37506,"is_reserved":false,"is_disabled":false,"rental_uris":{"android":"levelo://app?vid=e1dda297-fb29-44d4-a3e1-1cb724e09fc6","ios":"levelo://app?vid=e1dda297-fb29-44d4-a3e1-1cb724e09fc6"},"vehicle_type_id":"4","last_reported":1759129885,"current_range_meters":6000,"station_id":"ce4bh412rcd13ifvqds0","pricing_plan_id":"cebpf4jnsgd1na2vs0mg"},{"bike_id":"3fd7c937-a838-4d6f-932e-9e3bccbc6d3b","system_id":"levelo_inurba_marseille","lat":43.29887,"lon":5.38214,"is_reserved":false,"is_disabled":false,"rental_uris":{"android":"levelo://app?vid=3fd7c937-a838-4d6f-932e-9e3bccbc6d3b","ios":"levelo://app?vid=3fd7c937-a838-4d6f-932e-9e3bccbc6d3b"},"vehicle_type_id":"4","last_reported":1759129885,"current_range_meters":6000,"station_id":"","pricing_plan_id":"cebpf4jnsgd1na2vs0mg"},{"bike_id":"30bfaaf8-0a5f-457b-a64b-40a069466844","system_id":"levelo_inurba_marseille","lat":43.30546,"lon":5.36556,"is_reserved":false,"is_disabled":false,"rental_uris":{"android":"levelo://app?vid=30bfaaf8-0a5f-457b-a64b-40a069466844","ios":"levelo://app?vid=30bfaaf8-0a5f-457b-a64b-40a069466844"},"vehicle_type_id":"4","last_reported":1759129885,"current_range_meters":6000,"station_id":"ce4bgs12rcd13ifvqcag","pricing_plan_id":"cebpf4jnsgd1na2vs0mg"},{"bike_id":"284a543a-6bf3-4a9e-aa9c-9e3e25f62835","system_id":"levelo_inurba_marseille","lat":43.30143,"lon":5.3742,"is_reserved":false,"is_disabled":false,"rental_uris":{"android":"levelo://app?vid=284a543a-6bf3-4a9e-aa9c-9e3e25f62835","ios":"levelo://app?vid=284a543a-6bf3-4a9e-aa9c-9e3e25f62835"},"vehicle_type_id":"4","last_reported":1759129885,"current_range_meters":6400,"station_id":"ce4bgs92rcd13ifvqcc0","pricing_plan_id":"cebpf4jnsgd1na2vs0mg"},{"bike_id":"579526e6-1a96-4dcb-9bab-181bf678c4cb","system_id":"levelo_inurba_marseille","lat":43.24221,"lon":5.39729,"is_reserved":false,"is_disabled":true,"rental_uris":{"android":"levelo://app?vid=579526e6-1a96-4dcb-9bab-181bf678c4cb","ios":"levelo://app?vid=579526e6-1a96-4dcb-9bab-181bf678c4cb"},"vehicle_type_id":"4","last_reported":1759129885,"current_range_meters":6400,"station_id":"ce4bhn12rcd13ifvqgpg","pricing_plan_id":"cebpf4jnsgd1na2vs0mg"},{"bike_id":"40eea3ca-68c4-4126-a639-f69049241bad","system_id":"levelo_inurba_marseille","lat":43.26709,"lon":5.40187,"is_reserved":false,"is_disabled":true,"rental_uris":{"android":"levelo://app?vid=40eea3ca-68c4-4126-a639-f69049241bad","ios":"levelo://app?vid=40eea3ca-68c4-4126-a639-f69049241bad"},"vehicle_type_id":"4","last_reported":1759129885,"current_range_meters":6800,"station_id":"","pricing_plan_id":"cebpf4jnsgd1na2vs0mg"},{"bike_id":"e7f3b549-87eb-469e-991f-2900555e0831","system_id":"levelo_inurba_marseille","lat":43.25723,"lon":5.41112,"is_reserved":false,"is_disabled":false,"rental_uris":{"android":"levelo://app?vid=e7f3b549-87eb-469e-991f-2900555e0831","ios":"levelo://app?vid=e7f3b549-87eb-469e-991f-2900555e0831"},"vehicle_type_id":"4","last_reported":1759129885,"current_range_meters":6800,"station_id":"ce4bhkp2rcd13ifvqgd0","pricing_plan_id":"cebpf4jnsgd1na2vs0mg"},{"bike_id":"320b3e04-41e9-4e33-a652-09aa9b7906cd","system_id":"levelo_inurba_marseille","lat":43.33603,"lon":5.41031,"is_reserved":false,"is_disabled":false,"rental_uris":{"android":"levelo://app?vid=320b3e04-41e9-4e33-a652-09aa9b7906cd","ios":"levelo://app?vid=320b3e04-41e9-4e33-a652-09aa9b7906cd"},"vehicle_type_id":"4","last_reported":1759129885,"current_range_meters":6400,"station_id":"ce4bhqh2rcd13ifvqhmg","pricing_plan_id":"cebpf4jnsgd1na2vs0mg"},{"bike_id":"251063cb-0c98-4bf8-9e6e-82f58e053323","system_id":"levelo_inurba_marseille","lat":43.24544,"lon":5.3952,"is_reserved":false,"is_disabled":false,"rental_uris":{"android":"levelo://app?vid=251063cb-0c98-4bf8-9e6e-82f58e053323","ios":"levelo://app?vid=251063cb-0c98-4bf8-9e6e-82f58e053323"},"vehicle_type_id":"4","last_reported":1759129885,"current_range_meters":6800,"station_id":"ce4bhlp2rcd13ifvqgjg","pricing_plan_id":"cebpf4jnsgd1na2vs0mg"},{"bike_id":"1bc13d09-8bed-49ae-98e4-a4715f47808e","system_id":"levelo_inurba_marseille","lat":43.29636,"lon":5.37159,"is_reserved":false,"is_disabled":false,"rental_uris":{"android":"levelo://app?vid=1bc13d09-8bed-49ae-98e4-a4715f47808e","ios":"levelo://app?vid=1bc13d09-8bed-49ae-98e4-a4715f47808e"},"vehicle_type_id":"4","last_reported":1759129885,"current_range_meters":6800,"station_id":"ce4bgnh2rcd13ifvqc0g","pricing_plan_id":"cebpf4jnsgd1na2vs0mg"},{"bike_id":"846b9ad1-a37c-4e96-83a1-cfe56d80f0d2","system_id":"levelo_inurba_marseille","lat":43.26292,"lon":5.39848,"is_reserved":false,"is_disabled":false,"rental_uris":{"android":"levelo://app?vid=846b9ad1-a37c-4e96-83a1-cfe56d80f0d2","ios":"levelo://app?vid=846b9ad1-a37c-4e96-83a1-cfe56d80f0d2"},"vehicle_type_id":"4","last_reported":1759129885,"current_range_meters":6800,"station_id":"","pricing_plan_id":"cebpf4jnsgd1na2vs0mg"},{"bike_id":"e8a479cb-44be-4e49-a716-b665abc10983","system_id":"levelo_inurba_marseille","lat":43.25728,"lon":5.41109,"is_reserved":false,"is_disabled":false,"rental_uris":{"android":"levelo://app?vid=e8a479cb-44be-4e49-a716-b665abc10983","ios":"levelo://app?vid=e8a479cb-44be-4e49-a716-b665abc10983"},"vehicle_type_id":"4","last_reported":1759129885,"current_range_meters":6800,"station_id":"ce4bhkp2rcd13ifvqgd0","pricing_plan_id":"cebpf4jnsgd1na2vs0mg"},{"bike_id":"695662ab-65fe-4c59-81b6-3dceb9f5066d","system_id":"levelo_inurba_marseille","lat":43.25572,"lon":5.38252,"is_reserved":false,"is_disabled":false,"rental_uris":{"android":"levelo://app?vid=695662ab-65fe-4c59-81b6-3dceb9f5066d","ios":"levelo://app?vid=695662ab-65fe-4c59-81b6-3dceb9f5066d"},"vehicle_type_id":"4","last_reported":1759129885,"current_range_meters":6800,"station_id":"ce4bhih2rcd13ifvqfs0","pricing_plan_id":"cebpf4jnsgd1na2vs0mg"},{"bike_id":"998218c2-7e9d-48ca-a912-49df7f3d1cfb","system_id":"levelo_inurba_marseille","lat":43.24176,"lon":5.39728,"is_reserved":false,"is_disabled":false,"rental_uris":{"android":"levelo://app?vid=998218c2-7e9d-48ca-a912-49df7f3d1cfb","ios":"levelo://app?vid=998218c2-7e9d-48ca-a912-49df7f3d1cfb"},"vehicle_type_id":"4","last_reported":1759129885,"current_range_meters":7200,"station_id":"ce4bhn12rcd13ifvqgpg","pricing_plan_id":"cebpf4jnsgd1na2vs0mg"},{"bike_id":"7890d746-349e-4f38-aa80-1821257e9fa5","system_id":"levelo_inurba_marseille","lat":43.24387,"lon":5.37055,"is_reserved":false,"is_disabled":false,"rental_uris":{"android":"levelo://app?vid=7890d746-349e-4f38-aa80-1821257e9fa5","ios":"levelo://app?vid=7890d746-349e-4f38-aa80-1821257e9fa5"},"vehicle_type_id":"4","last_reported":1759129885,"current_range_meters":7200,"station_id":"ce4bhhh2rcd13ifvqfk0","pricing_plan_id":"cebpf4jnsgd1na2vs0mg"},{"bike_id":"3caa0b5e-993b-49a7-a8d5-103625367070","system_id":"levelo_inurba_marseille","lat":43.23148,"lon":5.43714,"is_reserved":false,"is_disabled":false,"rental_uris":{"android":"levelo://app?vid=3caa0b5e-993b-49a7-a8d5-103625367070","ios":"levelo://app?vid=3caa0b5e-993b-49a7-a8d5-103625367070"},"vehicle_type_id":"4","last_reported":1759129885,"current_range_meters":7200,"station_id":"ce4bhmp2rcd13ifvqgog","pricing_plan_id":"cebpf4jnsgd1na2vs0mg"},{"bike_id":"6dfda240-7ef9-48ac-960f-6760cbedeaff","system_id":"levelo_inurba_marseille","lat":43.26932,"lon":5.40261,"is_reserved":false,"is_disabled":false,"rental_uris":{"android":"levelo://app?vid=6dfda240-7ef9-48ac-960f-6760cbedeaff","ios":"levelo://app?vid=6dfda240-7ef9-48ac-960f-6760cbedeaff"},"vehicle_type_id":"4","last_reported":1759129885,"current_range_meters":7200,"station_id":"cjm6bp8fraef2m0cb0m0","pricing_plan_id":"cebpf4jnsgd1na2vs0mg"},{"bike_id":"f531602e-98cd-4a3a-8f48-7430c53a3628","system_id":"levelo_inurba_marseille","lat":43.28155,"lon":5.42646,"is_reserved":false,"is_disabled":false,"rental_uris":{"android":"levelo://app?vid=f531602e-98cd-4a3a-8f48-7430c53a3628","ios":"levelo://app?vid=f531602e-98cd-4a3a-8f48-7430c53a3628"},"vehicle_type_id":"4","last_reported":1759129885,"current_range_meters":7200,"station_id":"ce4bhnh2rcd13ifvqgug","pricing_plan_id":"cebpf4jnsgd1na2vs0mg"},{"bike_id":"668a5b19-6455-4810-aedc-eb87dbfdbe3e","system_id":"levelo_inurba_marseille","lat":43.33609,"lon":5.41034,"is_reserved":false,"is_disabled":false,"rental_uris":{"android":"levelo://app?vid=668a5b19-6455-4810-aedc-eb87dbfdbe3e","ios":"levelo://app?vid=668a5b19-6455-4810-aedc-eb87dbfdbe3e"},"vehicle_type_id":"4","last_reported":1759129885,"current_range_meters":7200,"station_id":"ce4bhqh2rcd13ifvqhmg","pricing_plan_id":"cebpf4jnsgd1na2vs0mg"},{"bike_id":"283fc74e-5d91-4832-9ffb-9576ef6c5415","system_id":"levelo_inurba_marseille","lat":43.28956,"lon":5.36403,"is_reserved":false,"is_disabled":false,"rental_uris":{"android":"levelo://app?vid=283fc74e-5d91-4832-9ffb-9576ef6c5415","ios":"levelo://app?vid=283fc74e-5d91-4832-9ffb-9576ef6c5415"},"vehicle_type_id":"4","last_reported":1759129885,"current_range_meters":8000,"station_id":"ce4bhc92rcd13ifvqetg","pricing_plan_id":"cebpf4jnsgd1na2vs0mg"},{"bike_id":"bfc5bab3-8a4a-4295-9b61-e3b3c733b634","system_id":"levelo_inurba_marseille","lat":43.240813,"lon":5.377546,"is_reserved":false,"is_disabled":false,"rental_uris":{"android":"levelo://app?vid=bfc5bab3-8a4a-4295-9b61-e3b3c733b634","ios":"levelo://app?vid=bfc5bab3-8a4a-4295-9b61-e3b3c733b634"},"vehicle_type_id":"4","last_reported":1759129885,"current_range_meters":8000,"station_id":"ce4bhnp2rcd13ifvqgvg","pricing_plan_id":"cebpf4jnsgd1na2vs0mg"},{"bike_id":"ade00133-316a-486b-ad8e-40009b44a891","system_id":"levelo_inurba_marseille","lat":43.26688,"lon":5.38261,"is_reserved":false,"is_disabled":false,"rental_uris":{"android":"levelo://app?vid=ade00133-316a-486b-ad8e-40009b44a891","ios":"levelo://app?vid=ade00133-316a-486b-ad8e-40009b44a891"},"vehicle_type_id":"4","last_reported":1759129885,"current_range_meters":8000,"station_id":"ce4bhg92rcd13ifvqf90","pricing_plan_id":"cebpf4jnsgd1na2vs0mg"},{"bike_id":"8ce72daa-da19-4468-b750-5258ca6351c8","system_id":"levelo_inurba_marseille","lat":43.31351,"lon":5.36734,"is_reserved":false,"is_disabled":false,"rental_uris":{"android":"levelo://app?vid=8ce72daa-da19-4468-b750-5258ca6351c8","ios":"levelo://app?vid=8ce72daa-da19-4468-b750-5258ca6351c8"},"vehicle_type_id":"4","last_reported":1759129885,"current_range_meters":8000,"station_id":"ce4bgr92rcd13ifvqc6g","pricing_plan_id":"cebpf4jnsgd1na2vs0mg"},{"bike_id":"096c311a-e31f-4e60-ab8c-de0b76354103","system_id":"levelo_inurba_marseille","lat":43.27188,"lon":5.40987,"is_reserved":false,"is_disabled":true,"rental_uris":{"android":"levelo://app?vid=096c311a-e31f-4e60-ab8c-de0b76354103","ios":"levelo://app?vid=096c311a-e31f-4e60-ab8c-de0b76354103"},"vehicle_type_id":"4","last_reported":1759129885,"current_range_meters":8000,"station_id":"ce4bhl12rcd13ifvqgf0","pricing_plan_id":"cebpf4jnsgd1na2vs0mg"},{"bike_id":"ab9336e9-8f38-4089-b433-ea6bf9417e4f","system_id":"levelo_inurba_marseille","lat":43.31341,"lon":5.36714,"is_reserved":false,"is_disabled":false,"rental_uris":{"android":"levelo://app?vid=ab9336e9-8f38-4089-b433-ea6bf9417e4f","ios":"levelo://app?vid=ab9336e9-8f38-4089-b433-ea6bf9417e4f"},"vehicle_type_id":"4","last_reported":1759129885,"current_range_meters":8000,"station_id":"ce4bgr92rcd13ifvqc6g","pricing_plan_id":"cebpf4jnsgd1na2vs0mg"},{"bike_id":"4c02c545-ad59-45b1-9b9c-d3678a5922c7","system_id":"levelo_inurba_marseille","lat":43.337444,"lon":5.374475,"is_reserved":false,"is_disabled":false,"rental_uris":{"android":"levelo://app?vid=4c02c545-ad59-45b1-9b9c-d3678a5922c7","ios":"levelo://app?vid=4c02c545-ad59-45b1-9b9c-d3678a5922c7"},"vehicle_type_id":"4","last_reported":1759129885,"current_range_meters":8000,"station_id":"","pricing_plan_id":"cebpf4jnsgd1na2vs0mg"},{"bike_id":"c097f066-7651-435e-913f-a8a7838aba88","system_id":"levelo_inurba_marseille","lat":43.33722,"lon":5.37459,"is_reserved":false,"is_disabled":false,"rental_uris":{"android":"levelo://app?vid=c097f066-7651-435e-913f-a8a7838aba88","ios":"levelo://app?vid=c097f066-7651-435e-913f-a8a7838aba88"},"vehicle_type_id":"4","last_reported":1759129885,"current_range_meters":8000,"station_id":"","pricing_plan_id":"cebpf4jnsgd1na2vs0mg"},{"bike_id":"f46069a6-fc68-420e-8295-469d0d3841ea","system_id":"levelo_inurba_marseille","lat":43.29841,"lon":5.36255,"is_reserved":false,"is_disabled":false,"rental_uris":{"android":"levelo://app?vid=f46069a6-fc68-420e-8295-469d0d3841ea","ios":"levelo://app?vid=f46069a6-fc68-420e-8295-469d0d3841ea"},"vehicle_type_id":"4","last_reported":1759129885,"current_range_meters":8000,"station_id":"ce4bgpp2rcd13ifvqc3g","pricing_plan_id":"cebpf4jnsgd1na2vs0mg"},{"bike_id":"c16dc229-4229-4dbb-a3e5-0f60b32fb440","system_id":"levelo_inurba_marseille","lat":43.24075,"lon":5.37752,"is_reserved":false,"is_disabled":false,"rental_uris":{"android":"levelo://app?vid=c16dc229-4229-4dbb-a3e5-0f60b32fb440","ios":"levelo://app?vid=c16dc229-4229-4dbb-a3e5-0f60b32fb440"},"vehicle_type_id":"4","last_reported":1759129885,"current_range_meters":8000,"station_id":"ce4bhnp2rcd13ifvqgvg","pricing_plan_id":"cebpf4jnsgd1na2vs0mg"},{"bike_id":"03350417-1098-4d6c-b8fe-9e64358744bf","system_id":"levelo_inurba_marseille","lat":43.33223,"lon":5.41299,"is_reserved":false,"is_disabled":false,"rental_uris":{"android":"levelo://app?vid=03350417-1098-4d6c-b8fe-9e64358744bf","ios":"levelo://app?vid=03350417-1098-4d6c-b8fe-9e64358744bf"},"vehicle_type_id":"4","last_reported":1759129885,"current_range_meters":8000,"station_id":"","pricing_plan_id":"cebpf4jnsgd1na2vs0mg"},{"bike_id":"da144e3d-db04-4be9-9a84-eb69d526f41c","system_id":"levelo_inurba_marseille","lat":43.30884,"lon":5.37193,"is_reserved":false,"is_disabled":false,"rental_uris":{"android":"levelo://app?vid=da144e3d-db04-4be9-9a84-eb69d526f41c","ios":"levelo://app?vid=da144e3d-db04-4be9-9a84-eb69d526f41c"},"vehicle_type_id":"4","last_reported":1759129885,"current_range_meters":8400,"station_id":"ce4bguh2rcd13ifvqckg","pricing_plan_id":"cebpf4jnsgd1na2vs0mg"},{"bike_id":"99f8e706-cfb0-4eb6-929e-527298f2a0db","system_id":"levelo_inurba_marseille","lat":43.28349,"lon":5.376533,"is_reserved":false,"is_disabled":false,"rental_uris":{"android":"levelo://app?vid=99f8e706-cfb0-4eb6-929e-527298f2a0db","ios":"levelo://app?vid=99f8e706-cfb0-4eb6-929e-527298f2a0db"},"vehicle_type_id":"4","last_reported":1759129885,"current_range_meters":8400,"station_id":"","pricing_plan_id":"cebpf4jnsgd1na2vs0mg"},{"bike_id":"7dcb8e51-f4b2-4f44-95d3-c34c0faddcab","system_id":"levelo_inurba_marseille","lat":43.28967,"lon":5.37832,"is_reserved":false,"is_disabled":false,"rental_uris":{"android":"levelo://app?vid=7dcb8e51-f4b2-4f44-95d3-c34c0faddcab","ios":"levelo://app?vid=7dcb8e51-f4b2-4f44-95d3-c34c0faddcab"},"vehicle_type_id":"4","last_reported":1759129885,"current_range_meters":8400,"station_id":"ce4bh9p2rcd13ifvqed0","pricing_plan_id":"cebpf4jnsgd1na2vs0mg"},{"bike_id":"45f54365-c72c-4f13-b207-7d7656e0f62f","system_id":"levelo_inurba_marseille","lat":43.23158,"lon":5.43731,"is_reserved":false,"is_disabled":false,"rental_uris":{"android":"levelo://app?vid=45f54365-c72c-4f13-b207-7d7656e0f62f","ios":"levelo://app?vid=45f54365-c72c-4f13-b207-7d7656e0f62f"},"vehicle_type_id":"4","last_reported":1759129885,"current_range_meters":8400,"station_id":"ce4bhmp2rcd13ifvqgog","pricing_plan_id":"cebpf4jnsgd1na2vs0mg"},{"bike_id":"6d98ab21-1faa-4b15-97b2-a1dd6f53a5a7","system_id":"levelo_inurba_marseille","lat":43.27459,"lon":5.39385,"is_reserved":false,"is_disabled":false,"rental_uris":{"android":"levelo://app?vid=6d98ab21-1faa-4b15-97b2-a1dd6f53a5a7","ios":"levelo://app?vid=6d98ab21-1faa-4b15-97b2-a1dd6f53a5a7"},"vehicle_type_id":"4","last_reported":1759129885,"current_range_meters":8400,"station_id":"","pricing_plan_id":"cebpf4jnsgd1na2vs0mg"},{"bike_id":"d16f46f5-3d43-4933-b088-bc397093924a","system_id":"levelo_inurba_marseille","lat":43.29853,"lon":5.36286,"is_reserved":false,"is_disabled":false,"rental_uris":{"android":"levelo://app?vid=d16f46f5-3d43-4933-b088-bc397093924a","ios":"levelo://app?vid=d16f46f5-3d43-4933-b088-bc397093924a"},"vehicle_type_id":"4","last_reported":1759129885,"current_range_meters":8400,"station_id":"ce4bgpp2rcd13ifvqc3g","pricing_plan_id":"cebpf4jnsgd1na2vs0mg"},{"bike_id":"1f1ddfd6-6a4c-4b32-bca1-9a10ffc27ebe","system_id":"levelo_inurba_marseille","lat":43.30951,"lon":5.39025,"is_reserved":false,"is_disabled":false,"rental_uris":{"android":"levelo://app?vid=1f1ddfd6-6a4c-4b32-bca1-9a10ffc27ebe","ios":"levelo://app?vid=1f1ddfd6-6a4c-4b32-bca1-9a10ffc27ebe"},"vehicle_type_id":"4","last_reported":1759129885,"current_range_meters":8400,"station_id":"ce4bgup2rcd13ifvqco0","pricing_plan_id":"cebpf4jnsgd1na2vs0mg"},{"bike_id":"9eb63064-8c09-4277-8e6f-a642efdef232","system_id":"levelo_inurba_marseille","lat":43.29038,"lon":5.39957,"is_reserved":false,"is_disabled":false,"rental_uris":{"android":"levelo://app?vid=9eb63064-8c09-4277-8e6f-a642efdef232","ios":"levelo://app?vid=9eb63064-8c09-4277-8e6f-a642efdef232"},"vehicle_type_id":"4","last_reported":1759129885,"current_range_meters":8800,"station_id":"ce4bh392rcd13ifvqdm0","pricing_plan_id":"cebpf4jnsgd1na2vs0mg"},{"bike_id":"6208b55e-5829-429c-bbd4-b74a6a76be82","system_id":"levelo_inurba_marseille","lat":43.33603,"lon":5.41039,"is_reserved":false,"is_disabled":false,"rental_uris":{"android":"levelo://app?vid=6208b55e-5829-429c-bbd4-b74a6a76be82","ios":"levelo://app?vid=6208b55e-5829-429c-bbd4-b74a6a76be82"},"vehicle_type_id":"4","last_reported":1759129885,"current_range_meters":8800,"station_id":"ce4bhqh2rcd13ifvqhmg","pricing_plan_id":"cebpf4jnsgd1na2vs0mg"},{"bike_id":"c9916796-5f07-4d22-aceb-87882fb08ac5","system_id":"levelo_inurba_marseille","lat":43.305934,"lon":5.365492,"is_reserved":false,"is_disabled":false,"rental_uris":{"android":"levelo://app?vid=c9916796-5f07-4d22-aceb-87882fb08ac5","ios":"levelo://app?vid=c9916796-5f07-4d22-aceb-87882fb08ac5"},"vehicle_type_id":"4","last_reported":1759129885,"current_range_meters":8800,"station_id":"ce4bgs12rcd13ifvqcag","pricing_plan_id":"cebpf4jnsgd1na2vs0mg"},{"bike_id":"4a7e5066-0dde-4460-beb3-300fba4dd9da","system_id":"levelo_inurba_marseille","lat":43.28037,"lon":5.36959,"is_reserved":false,"is_disabled":false,"rental_uris":{"android":"levelo://app?vid=4a7e5066-0dde-4460-beb3-300fba4dd9da","ios":"levelo://app?vid=4a7e5066-0dde-4460-beb3-300fba4dd9da"},"vehicle_type_id":"4","last_reported":1759129885,"current_range_meters":8800,"station_id":"ce4bha12rcd13ifvqef0","pricing_plan_id":"cebpf4jnsgd1na2vs0mg"},{"bike_id":"0ab198fe-6f81-4724-a303-402420fa93a9","system_id":"levelo_inurba_marseille","lat":43.24669,"lon":5.381677,"is_reserved":false,"is_disabled":false,"rental_uris":{"android":"levelo://app?vid=0ab198fe-6f81-4724-a303-402420fa93a9","ios":"levelo://app?vid=0ab198fe-6f81-4724-a303-402420fa93a9"},"vehicle_type_id":"4","last_reported":1759129885,"current_range_meters":8800,"station_id":"ce4bhih2rcd13ifvqfr0","pricing_plan_id":"cebpf4jnsgd1na2vs0mg"},{"bike_id":"ee96a502-9b76-492e-840a-498b02aefe72","system_id":"levelo_inurba_marseille","lat":43.32357,"lon":5.39211,"is_reserved":false,"is_disabled":false,"rental_uris":{"android":"levelo://app?vid=ee96a502-9b76-492e-840a-498b02aefe72","ios":"levelo://app?vid=ee96a502-9b76-492e-840a-498b02aefe72"},"vehicle_type_id":"4","last_reported":1759129885,"current_range_meters":8800,"station_id":"","pricing_plan_id":"cebpf4jnsgd1na2vs0mg"},{"bike_id":"710dfcf0-04c4-4704-89b7-56dbb8103e66","system_id":"levelo_inurba_marseille","lat":43.290578,"lon":5.37157,"is_reserved":false,"is_disabled":true,"rental_uris":{"android":"levelo://app?vid=710dfcf0-04c4-4704-89b7-56dbb8103e66","ios":"levelo://app?vid=710dfcf0-04c4-4704-89b7-56dbb8103e66"},"vehicle_type_id":"4","last_reported":1759129885,"current_range_meters":8800,"station_id":"ce4bh5p2rcd13ifvqe4g","pricing_plan_id":"cebpf4jnsgd1na2vs0mg"},{"bike_id":"8536a6ed-20ad-4de1-851d-eb782a913af1","system_id":"levelo_inurba_marseille","lat":43.3013,"lon":5.39871,"is_reserved":false,"is_disabled":false,"rental_uris":{"android":"levelo://app?vid=8536a6ed-20ad-4de1-851d-eb782a913af1","ios":"levelo://app?vid=8536a6ed-20ad-4de1-851d-eb782a913af1"},"vehicle_type_id":"4","last_reported":1759129885,"current_range_meters":9200,"station_id":"ce4bh0h2rcd13ifvqd40","pricing_plan_id":"cebpf4jnsgd1na2vs0mg"},{"bike_id":"52dd35c8-b4d9-4df7-9721-a8456d5250be","system_id":"levelo_inurba_marseille","lat":43.24074,"lon":5.37758,"is_reserved":false,"is_disabled":false,"rental_uris":{"android":"levelo://app?vid=52dd35c8-b4d9-4df7-9721-a8456d5250be","ios":"levelo://app?vid=52dd35c8-b4d9-4df7-9721-a8456d5250be"},"vehicle_type_id":"4","last_reported":1759129885,"current_range_meters":9200,"station_id":"ce4bhnp2rcd13ifvqgvg","pricing_plan_id":"cebpf4jnsgd1na2vs0mg"},{"bike_id":"8360fe96-8a6b-4a67-9ba4-0ef948b002e1","system_id":"levelo_inurba_marseille","lat":43.25013,"lon":5.38917,"is_reserved":false,"is_disabled":true,"rental_uris":{"android":"levelo://app?vid=8360fe96-8a6b-4a67-9ba4-0ef948b002e1","ios":"levelo://app?vid=8360fe96-8a6b-4a67-9ba4-0ef948b002e1"},"vehicle_type_id":"4","last_reported":1759129885,"current_range_meters":9200,"station_id":"ce4bhgp2rcd13ifvqfd0","pricing_plan_id":"cebpf4jnsgd1na2vs0mg"},{"bike_id":"e230cffc-3f4f-4033-9449-4b2839a35e2c","system_id":"levelo_inurba_marseille","lat":43.27669,"lon":5.38873,"is_reserved":false,"is_disabled":false,"rental_uris":{"android":"levelo://app?vid=e230cffc-3f4f-4033-9449-4b2839a35e2c","ios":"levelo://app?vid=e230cffc-3f4f-4033-9449-4b2839a35e2c"},"vehicle_type_id":"4","last_reported":1759129885,"current_range_meters":9200,"station_id":"ce4bhi12rcd13ifvqfo0","pricing_plan_id":"cebpf4jnsgd1na2vs0mg"},{"bike_id":"a5fc847d-cd3e-46e4-b26e-1b61c34883b2","system_id":"levelo_inurba_marseille","lat":43.257267,"lon":5.411085,"is_reserved":false,"is_disabled":false,"rental_uris":{"android":"levelo://app?vid=a5fc847d-cd3e-46e4-b26e-1b61c34883b2","ios":"levelo://app?vid=a5fc847d-cd3e-46e4-b26e-1b61c34883b2"},"vehicle_type_id":"4","last_reported":1759129885,"current_range_meters":9200,"station_id":"ce4bhkp2rcd13ifvqgd0","pricing_plan_id":"cebpf4jnsgd1na2vs0mg"},{"bike_id":"3f270dc6-5145-4558-a3d9-ab2b7285bf50","system_id":"levelo_inurba_marseille","lat":43.2319,"lon":5.35553,"is_reserved":false,"is_disabled":false,"rental_uris":{"android":"levelo://app?vid=3f270dc6-5145-4558-a3d9-ab2b7285bf50","ios":"levelo://app?vid=3f270dc6-5145-4558-a3d9-ab2b7285bf50"},"vehicle_type_id":"4","last_reported":1759129885,"current_range_meters":9200,"station_id":"ce4bhu92rcd13ifvqi70","pricing_plan_id":"cebpf4jnsgd1na2vs0mg"},{"bike_id":"afb3a0b1-c807-4eff-8fb4-4964910f49c8","system_id":"levelo_inurba_marseille","lat":43.21754,"lon":5.34612,"is_reserved":false,"is_disabled":true,"rental_uris":{"android":"levelo://app?vid=afb3a0b1-c807-4eff-8fb4-4964910f49c8","ios":"levelo://app?vid=afb3a0b1-c807-4eff-8fb4-4964910f49c8"},"vehicle_type_id":"4","last_reported":1759129885,"current_range_meters":9200,"station_id":"st_cvj6r9ubvosntc0bgbag","pricing_plan_id":"cebpf4jnsgd1na2vs0mg"},{"bike_id":"585a529c-34f0-4445-827e-bf005e5a1309","system_id":"levelo_inurba_marseille","lat":43.27911,"lon":5.39592,"is_reserved":false,"is_disabled":false,"rental_uris":{"android":"levelo://app?vid=585a529c-34f0-4445-827e-bf005e5a1309","ios":"levelo://app?vid=585a529c-34f0-4445-827e-bf005e5a1309"},"vehicle_type_id":"4","last_reported":1759129885,"current_range_meters":9200,"station_id":"ce4bhf92rcd13ifvqf40","pricing_plan_id":"cebpf4jnsgd1na2vs0mg"},{"bike_id":"484467f1-2aa4-4269-83fe-aca6e922e06e","system_id":"levelo_inurba_marseille","lat":43.24539,"lon":5.42326,"is_reserved":false,"is_disabled":false,"rental_uris":{"android":"levelo://app?vid=484467f1-2aa4-4269-83fe-aca6e922e06e","ios":"levelo://app?vid=484467f1-2aa4-4269-83fe-aca6e922e06e"},"vehicle_type_id":"4","last_reported":1759129885,"current_range_meters":9200,"station_id":"","pricing_plan_id":"cebpf4jnsgd1na2vs0mg"},{"bike_id":"258ab053-1083-4ca9-a32a-1e85f085fc22","system_id":"levelo_inurba_marseille","lat":43.337444,"lon":5.374475,"is_reserved":false,"is_disabled":false,"rental_uris":{"android":"levelo://app?vid=258ab053-1083-4ca9-a32a-1e85f085fc22","ios":"levelo://app?vid=258ab053-1083-4ca9-a32a-1e85f085fc22"},"vehicle_type_id":"4","last_reported":1759129885,"current_range_meters":9200,"station_id":"","pricing_plan_id":"cebpf4jnsgd1na2vs0mg"},{"bike_id":"8b353c9e-13c5-42ee-a76f-ccbd6269a3dc","system_id":"levelo_inurba_marseille","lat":43.30424,"lon":5.366666,"is_reserved":false,"is_disabled":false,"rental_uris":{"android":"levelo://app?vid=8b353c9e-13c5-42ee-a76f-ccbd6269a3dc","ios":"levelo://app?vid=8b353c9e-13c5-42ee-a76f-ccbd6269a3dc"},"vehicle_type_id":"4","last_reported":1759129885,"current_range_meters":9600,"station_id":"","pricing_plan_id":"cebpf4jnsgd1na2vs0mg"},{"bike_id":"965579c2-3e5a-4cfd-985b-6c8fe87f2d3d","system_id":"levelo_inurba_marseille","lat":43.24554,"lon":5.37317,"is_reserved":false,"is_disabled":false,"rental_uris":{"android":"levelo://app?vid=965579c2-3e5a-4cfd-985b-6c8fe87f2d3d","ios":"levelo://app?vid=965579c2-3e5a-4cfd-985b-6c8fe87f2d3d"},"vehicle_type_id":"4","last_reported":1759129885,"current_range_meters":9600,"station_id":"ce4bhnp2rcd13ifvqgvg","pricing_plan_id":"cebpf4jnsgd1na2vs0mg"},{"bike_id":"2f338606-bade-463c-9011-70e761265e73","system_id":"levelo_inurba_marseille","lat":43.25581,"lon":5.38232,"is_reserved":false,"is_disabled":false,"rental_uris":{"android":"levelo://app?vid=2f338606-bade-463c-9011-70e761265e73","ios":"levelo://app?vid=2f338606-bade-463c-9011-70e761265e73"},"vehicle_type_id":"4","last_reported":1759129885,"current_range_meters":9600,"station_id":"ce4bhih2rcd13ifvqfs0","pricing_plan_id":"cebpf4jnsgd1na2vs0mg"},{"bike_id":"dafbf689-a513-42ec-9ec6-4abecd3bdf78","system_id":"levelo_inurba_marseille","lat":43.24166,"lon":5.39731,"is_reserved":false,"is_disabled":false,"rental_uris":{"android":"levelo://app?vid=dafbf689-a513-42ec-9ec6-4abecd3bdf78","ios":"levelo://app?vid=dafbf689-a513-42ec-9ec6-4abecd3bdf78"},"vehicle_type_id":"4","last_reported":1759129885,"current_range_meters":9600,"station_id":"ce4bhn12rcd13ifvqgpg","pricing_plan_id":"cebpf4jnsgd1na2vs0mg"},{"bike_id":"f4c53ff4-73a4-4134-bb3f-bbf464878afb","system_id":"levelo_inurba_marseille","lat":43.241715,"lon":5.363966,"is_reserved":false,"is_disabled":true,"rental_uris":{"android":"levelo://app?vid=f4c53ff4-73a4-4134-bb3f-bbf464878afb","ios":"levelo://app?vid=f4c53ff4-73a4-4134-bb3f-bbf464878afb"},"vehicle_type_id":"4","last_reported":1759129885,"current_range_meters":9600,"station_id":"cpo36qri1sfpv3e86is0","pricing_plan_id":"cebpf4jnsgd1na2vs0mg"},{"bike_id":"b14db2f9-5fb1-402c-ac2b-2407b2e9c739","system_id":"levelo_inurba_marseille","lat":43.27556,"lon":5.38429,"is_reserved":false,"is_disabled":false,"rental_uris":{"android":"levelo://app?vid=b14db2f9-5fb1-402c-ac2b-2407b2e9c739","ios":"levelo://app?vid=b14db2f9-5fb1-402c-ac2b-2407b2e9c739"},"vehicle_type_id":"4","last_reported":1759129885,"current_range_meters":9600,"station_id":"ce4bhh92rcd13ifvqfi0","pricing_plan_id":"cebpf4jnsgd1na2vs0mg"},{"bike_id":"34b9017e-0e08-4458-8f28-bc708aa27d0f","system_id":"levelo_inurba_marseille","lat":43.28361,"lon":5.38627,"is_reserved":false,"is_disabled":false,"rental_uris":{"android":"levelo://app?vid=34b9017e-0e08-4458-8f28-bc708aa27d0f","ios":"levelo://app?vid=34b9017e-0e08-4458-8f28-bc708aa27d0f"},"vehicle_type_id":"4","last_reported":1759129885,"current_range_meters":9600,"station_id":"ce4bh492rcd13ifvqdvg","pricing_plan_id":"cebpf4jnsgd1na2vs0mg"},{"bike_id":"7614210b-8804-40bc-8b6b-2ea729042d2d","system_id":"levelo_inurba_marseille","lat":43.30534,"lon":5.36708,"is_reserved":false,"is_disabled":false,"rental_uris":{"android":"levelo://app?vid=7614210b-8804-40bc-8b6b-2ea729042d2d","ios":"levelo://app?vid=7614210b-8804-40bc-8b6b-2ea729042d2d"},"vehicle_type_id":"4","last_reported":1759129885,"current_range_meters":9600,"station_id":"ce4bgrp2rcd13ifvqc9g","pricing_plan_id":"cebpf4jnsgd1na2vs0mg"},{"bike_id":"28f230e6-acc5-4b09-8266-0e5daddf9f87","system_id":"levelo_inurba_marseille","lat":43.25957,"lon":5.40947,"is_reserved":false,"is_disabled":false,"rental_uris":{"android":"levelo://app?vid=28f230e6-acc5-4b09-8266-0e5daddf9f87","ios":"levelo://app?vid=28f230e6-acc5-4b09-8266-0e5daddf9f87"},"vehicle_type_id":"4","last_reported":1759129885,"current_range_meters":9600,"station_id":"","pricing_plan_id":"cebpf4jnsgd1na2vs0mg"},{"bike_id":"e3fe1c25-77d6-4c99-a172-35c670f24da9","system_id":"levelo_inurba_marseille","lat":43.28621,"lon":5.35094,"is_reserved":false,"is_disabled":true,"rental_uris":{"android":"levelo://app?vid=e3fe1c25-77d6-4c99-a172-35c670f24da9","ios":"levelo://app?vid=e3fe1c25-77d6-4c99-a172-35c670f24da9"},"vehicle_type_id":"4","last_reported":1759129885,"current_range_meters":9600,"station_id":"ce4bhch2rcd13ifvqeug","pricing_plan_id":"cebpf4jnsgd1na2vs0mg"},{"bike_id":"2c6518be-b3f0-42d2-93c9-c1de9e54885f","system_id":"levelo_inurba_marseille","lat":43.29227,"lon":5.38219,"is_reserved":false,"is_disabled":false,"rental_uris":{"android":"levelo://app?vid=2c6518be-b3f0-42d2-93c9-c1de9e54885f","ios":"levelo://app?vid=2c6518be-b3f0-42d2-93c9-c1de9e54885f"},"vehicle_type_id":"4","last_reported":1759129885,"current_range_meters":10000,"station_id":"","pricing_plan_id":"cebpf4jnsgd1na2vs0mg"},{"bike_id":"17ae75c6-20b4-472b-9b10-a87294768553","system_id":"levelo_inurba_marseille","lat":43.30949,"lon":5.3904,"is_reserved":false,"is_disabled":false,"rental_uris":{"android":"levelo://app?vid=17ae75c6-20b4-472b-9b10-a87294768553","ios":"levelo://app?vid=17ae75c6-20b4-472b-9b10-a87294768553"},"vehicle_type_id":"4","last_reported":1759129885,"current_range_meters":10000,"station_id":"ce4bgup2rcd13ifvqco0","pricing_plan_id":"cebpf4jnsgd1na2vs0mg"},{"bike_id":"0c38051c-a803-44c4-90a1-151a4109583c","system_id":"levelo_inurba_marseille","lat":43.28636,"lon":5.38662,"is_reserved":false,"is_disabled":true,"rental_uris":{"android":"levelo://app?vid=0c38051c-a803-44c4-90a1-151a4109583c","ios":"levelo://app?vid=0c38051c-a803-44c4-90a1-151a4109583c"},"vehicle_type_id":"4","last_reported":1759129885,"current_range_meters":10000,"station_id":"ce4bh492rcd13ifvqdug","pricing_plan_id":"cebpf4jnsgd1na2vs0mg"},{"bike_id":"beb0509c-aefe-42e4-a779-6f1d1fdc93b2","system_id":"levelo_inurba_marseille","lat":43.2679,"lon":5.39415,"is_reserved":false,"is_disabled":false,"rental_uris":{"android":"levelo://app?vid=beb0509c-aefe-42e4-a779-6f1d1fdc93b2","ios":"levelo://app?vid=beb0509c-aefe-42e4-a779-6f1d1fdc93b2"},"vehicle_type_id":"4","last_reported":1759129885,"current_range_meters":10000,"station_id":"ce4bhh12rcd13ifvqfg0","pricing_plan_id":"cebpf4jnsgd1na2vs0mg"},{"bike_id":"004a59ec-780e-41a4-8b58-43cf839178df","system_id":"levelo_inurba_marseille","lat":43.25865,"lon":5.39916,"is_reserved":false,"is_disabled":false,"rental_uris":{"android":"levelo://app?vid=004a59ec-780e-41a4-8b58-43cf839178df","ios":"levelo://app?vid=004a59ec-780e-41a4-8b58-43cf839178df"},"vehicle_type_id":"4","last_reported":1759129885,"current_range_meters":10000,"station_id":"ce4bhl92rcd13ifvqghg","pricing_plan_id":"cebpf4jnsgd1na2vs0mg"},{"bike_id":"d58ddcbe-70d7-4259-abad-73cc43b8b8b9","system_id":"levelo_inurba_marseille","lat":43.23049,"lon":5.3549,"is_reserved":false,"is_disabled":true,"rental_uris":{"android":"levelo://app?vid=d58ddcbe-70d7-4259-abad-73cc43b8b8b9","ios":"levelo://app?vid=d58ddcbe-70d7-4259-abad-73cc43b8b8b9"},"vehicle_type_id":"4","last_reported":1759129885,"current_range_meters":10000,"station_id":"cpo3342slgdg3j2ifvpg","pricing_plan_id":"cebpf4jnsgd1na2vs0mg"},{"bike_id":"3a7f9512-0a87-4522-884a-b56001dd2c45","system_id":"levelo_inurba_marseille","lat":43.30891,"lon":5.36835,"is_reserved":false,"is_disabled":false,"rental_uris":{"android":"levelo://app?vid=3a7f9512-0a87-4522-884a-b56001dd2c45","ios":"levelo://app?vid=3a7f9512-0a87-4522-884a-b56001dd2c45"},"vehicle_type_id":"4","last_reported":1759129885,"current_range_meters":10000,"station_id":"ce4bgn92rcd13ifvqbvg","pricing_plan_id":"cebpf4jnsgd1na2vs0mg"},{"bike_id":"5fe7f407-3191-4d84-bcf8-5bce6d58e56d","system_id":"levelo_inurba_marseille","lat":43.22917,"lon":5.35378,"is_reserved":false,"is_disabled":false,"rental_uris":{"android":"levelo://app?vid=5fe7f407-3191-4d84-bcf8-5bce6d58e56d","ios":"levelo://app?vid=5fe7f407-3191-4d84-bcf8-5bce6d58e56d"},"vehicle_type_id":"4","last_reported":1759129885,"current_range_meters":10000,"station_id":"cpo3532slgdg3j2ikp40","pricing_plan_id":"cebpf4jnsgd1na2vs0mg"},{"bike_id":"60ad53a9-07b6-4a56-99b0-02ed35588634","system_id":"levelo_inurba_marseille","lat":43.31342,"lon":5.36718,"is_reserved":false,"is_disabled":false,"rental_uris":{"android":"levelo://app?vid=60ad53a9-07b6-4a56-99b0-02ed35588634","ios":"levelo://app?vid=60ad53a9-07b6-4a56-99b0-02ed35588634"},"vehicle_type_id":"4","last_reported":1759129885,"current_range_meters":10000,"station_id":"ce4bgr92rcd13ifvqc6g","pricing_plan_id":"cebpf4jnsgd1na2vs0mg"},{"bike_id":"a9f7f3ef-0730-4c02-a0ce-cef86cc09ab6","system_id":"levelo_inurba_marseille","lat":43.21745,"lon":5.34607,"is_reserved":false,"is_disabled":false,"rental_uris":{"android":"levelo://app?vid=a9f7f3ef-0730-4c02-a0ce-cef86cc09ab6","ios":"levelo://app?vid=a9f7f3ef-0730-4c02-a0ce-cef86cc09ab6"},"vehicle_type_id":"4","last_reported":1759129885,"current_range_meters":10000,"station_id":"st_cvj6r9ubvosntc0bgbag","pricing_plan_id":"cebpf4jnsgd1na2vs0mg"},{"bike_id":"81259658-6d51-4b3d-be38-018c2d5f28d5","system_id":"levelo_inurba_marseille","lat":43.2408,"lon":5.37743,"is_reserved":false,"is_disabled":false,"rental_uris":{"android":"levelo://app?vid=81259658-6d51-4b3d-be38-018c2d5f28d5","ios":"levelo://app?vid=81259658-6d51-4b3d-be38-018c2d5f28d5"},"vehicle_type_id":"4","last_reported":1759129885,"current_range_meters":10000,"station_id":"ce4bhnp2rcd13ifvqgvg","pricing_plan_id":"cebpf4jnsgd1na2vs0mg"},{"bike_id":"166815e2-e6db-4726-960a-3dcd90ec943f","system_id":"levelo_inurba_marseille","lat":43.25936,"lon":5.40898,"is_reserved":false,"is_disabled":false,"rental_uris":{"android":"levelo://app?vid=166815e2-e6db-4726-960a-3dcd90ec943f","ios":"levelo://app?vid=166815e2-e6db-4726-960a-3dcd90ec943f"},"vehicle_type_id":"4","last_reported":1759129885,"current_range_meters":10000,"station_id":"ce4bhm92rcd13ifvqglg","pricing_plan_id":"cebpf4jnsgd1na2vs0mg"},{"bike_id":"1dad2113-89e2-44fc-a0b6-ddd6a09baff1","system_id":"levelo_inurba_marseille","lat":43.337444,"lon":5.374475,"is_reserved":false,"is_disabled":false,"rental_uris":{"android":"levelo://app?vid=1dad2113-89e2-44fc-a0b6-ddd6a09baff1","ios":"levelo://app?vid=1dad2113-89e2-44fc-a0b6-ddd6a09baff1"},"vehicle_type_id":"4","last_reported":1759129885,"current_range_meters":10000,"station_id":"","pricing_plan_id":"cebpf4jnsgd1na2vs0mg"},{"bike_id":"6f0c1749-517c-4897-91c9-50c589e202de","system_id":"levelo_inurba_marseille","lat":43.34131,"lon":5.40935,"is_reserved":false,"is_disabled":true,"rental_uris":{"android":"levelo://app?vid=6f0c1749-517c-4897-91c9-50c589e202de","ios":"levelo://app?vid=6f0c1749-517c-4897-91c9-50c589e202de"},"vehicle_type_id":"4","last_reported":1759129885,"current_range_meters":10800,"station_id":"ce4bhqh2rcd13ifvqhlg","pricing_plan_id":"cebpf4jnsgd1na2vs0mg"},{"bike_id":"3cb1dae7-6bcd-41e5-b1b7-c1d25c751a99","system_id":"levelo_inurba_marseille","lat":43.337635,"lon":5.374385,"is_reserved":false,"is_disabled":false,"rental_uris":{"android":"levelo://app?vid=3cb1dae7-6bcd-41e5-b1b7-c1d25c751a99","ios":"levelo://app?vid=3cb1dae7-6bcd-41e5-b1b7-c1d25c751a99"},"vehicle_type_id":"4","last_reported":1759129885,"current_range_meters":10800,"station_id":"","pricing_plan_id":"cebpf4jnsgd1na2vs0mg"},{"bike_id":"984e453b-0c51-4a8e-9b93-6264349a0f34","system_id":"levelo_inurba_marseille","lat":43.31072,"lon":5.42433,"is_reserved":false,"is_disabled":false,"rental_uris":{"android":"levelo://app?vid=984e453b-0c51-4a8e-9b93-6264349a0f34","ios":"levelo://app?vid=984e453b-0c51-4a8e-9b93-6264349a0f34"},"vehicle_type_id":"4","last_reported":1759129885,"current_range_meters":10800,"station_id":"ce4bhp92rcd13ifvqhag","pricing_plan_id":"cebpf4jnsgd1na2vs0mg"},{"bike_id":"b67a6a45-b1f5-4bc6-a2e1-11acf860f355","system_id":"levelo_inurba_marseille","lat":43.299767,"lon":5.371753,"is_reserved":false,"is_disabled":false,"rental_uris":{"android":"levelo://app?vid=b67a6a45-b1f5-4bc6-a2e1-11acf860f355","ios":"levelo://app?vid=b67a6a45-b1f5-4bc6-a2e1-11acf860f355"},"vehicle_type_id":"4","last_reported":1759129885,"current_range_meters":10800,"station_id":"ce4bgr92rcd13ifvqc7g","pricing_plan_id":"cebpf4jnsgd1na2vs0mg"},{"bike_id":"e7a07ee7-ff27-4e97-adec-6f7b9b9085bf","system_id":"levelo_inurba_marseille","lat":43.28852,"lon":5.42511,"is_reserved":false,"is_disabled":false,"rental_uris":{"android":"levelo://app?vid=e7a07ee7-ff27-4e97-adec-6f7b9b9085bf","ios":"levelo://app?vid=e7a07ee7-ff27-4e97-adec-6f7b9b9085bf"},"vehicle_type_id":"4","last_reported":1759129885,"current_range_meters":10800,"station_id":"st_d3b462108ojc7389ooeg","pricing_plan_id":"cebpf4jnsgd1na2vs0mg"},{"bike_id":"d7d09523-34bb-44d2-9695-02f0abea9b47","system_id":"levelo_inurba_marseille","lat":43.2971,"lon":5.37923,"is_reserved":false,"is_disabled":false,"rental_uris":{"android":"levelo://app?vid=d7d09523-34bb-44d2-9695-02f0abea9b47","ios":"levelo://app?vid=d7d09523-34bb-44d2-9695-02f0abea9b47"},"vehicle_type_id":"4","last_reported":1759129885,"current_range_meters":10800,"station_id":"","pricing_plan_id":"cebpf4jnsgd1na2vs0mg"},{"bike_id":"e5cca1d3-7b83-4815-adc1-45ead40eb28d","system_id":"levelo_inurba_marseille","lat":43.32088,"lon":5.36773,"is_reserved":false,"is_disabled":false,"rental_uris":{"android":"levelo://app?vid=e5cca1d3-7b83-4815-adc1-45ead40eb28d","ios":"levelo://app?vid=e5cca1d3-7b83-4815-adc1-45ead40eb28d"},"vehicle_type_id":"4","last_reported":1759129885,"current_range_meters":10800,"station_id":"ce4bhrh2rcd13ifvqhug","pricing_plan_id":"cebpf4jnsgd1na2vs0mg"},{"bike_id":"1f06148c-1d79-44f9-9826-1adf965a26b7","system_id":"levelo_inurba_marseille","lat":43.30916,"lon":5.36847,"is_reserved":false,"is_disabled":false,"rental_uris":{"android":"levelo://app?vid=1f06148c-1d79-44f9-9826-1adf965a26b7","ios":"levelo://app?vid=1f06148c-1d79-44f9-9826-1adf965a26b7"},"vehicle_type_id":"4","last_reported":1759129885,"current_range_meters":10800,"station_id":"ce4bgn92rcd13ifvqbvg","pricing_plan_id":"cebpf4jnsgd1na2vs0mg"},{"bike_id":"20c1c77a-f4d0-45da-bf37-9dfdc8268d18","system_id":"levelo_inurba_marseille","lat":43.31999,"lon":5.38142,"is_reserved":false,"is_disabled":false,"rental_uris":{"android":"levelo://app?vid=20c1c77a-f4d0-45da-bf37-9dfdc8268d18","ios":"levelo://app?vid=20c1c77a-f4d0-45da-bf37-9dfdc8268d18"},"vehicle_type_id":"4","last_reported":1759129885,"current_range_meters":11200,"station_id":"ce4bhr12rcd13ifvqhpg","pricing_plan_id":"cebpf4jnsgd1na2vs0mg"},{"bike_id":"151d75a0-434c-41d6-a3a8-42bc6a9a604c","system_id":"levelo_inurba_marseille","lat":43.31757,"lon":5.39017,"is_reserved":false,"is_disabled":false,"rental_uris":{"android":"levelo://app?vid=151d75a0-434c-41d6-a3a8-42bc6a9a604c","ios":"levelo://app?vid=151d75a0-434c-41d6-a3a8-42bc6a9a604c"},"vehicle_type_id":"4","last_reported":1759129885,"current_range_meters":11200,"station_id":"ce4bgt92rcd13ifvqcf0","pricing_plan_id":"cebpf4jnsgd1na2vs0mg"},{"bike_id":"aef170f6-3306-46fe-9dab-25f26114ab13","system_id":"levelo_inurba_marseille","lat":43.323884,"lon":5.367552,"is_reserved":false,"is_disabled":false,"rental_uris":{"android":"levelo://app?vid=aef170f6-3306-46fe-9dab-25f26114ab13","ios":"levelo://app?vid=aef170f6-3306-46fe-9dab-25f26114ab13"},"vehicle_type_id":"4","last_reported":1759129885,"current_range_meters":11200,"station_id":"ce4bhsh2rcd13ifvqi2g","pricing_plan_id":"cebpf4jnsgd1na2vs0mg"},{"bike_id":"adcd879a-0041-4914-ae7c-6f4cd1d62a00","system_id":"levelo_inurba_marseille","lat":43.24541,"lon":5.39521,"is_reserved":false,"is_disabled":false,"rental_uris":{"android":"levelo://app?vid=adcd879a-0041-4914-ae7c-6f4cd1d62a00","ios":"levelo://app?vid=adcd879a-0041-4914-ae7c-6f4cd1d62a00"},"vehicle_type_id":"4","last_reported":1759129885,"current_range_meters":11200,"station_id":"ce4bhlp2rcd13ifvqgjg","pricing_plan_id":"cebpf4jnsgd1na2vs0mg"},{"bike_id":"259e45f2-586a-4c54-8656-5a19101242e7","system_id":"levelo_inurba_marseille","lat":43.23148,"lon":5.4371,"is_reserved":false,"is_disabled":false,"rental_uris":{"android":"levelo://app?vid=259e45f2-586a-4c54-8656-5a19101242e7","ios":"levelo://app?vid=259e45f2-586a-4c54-8656-5a19101242e7"},"vehicle_type_id":"4","last_reported":1759129885,"current_range_meters":11200,"station_id":"ce4bhmp2rcd13ifvqgog","pricing_plan_id":"cebpf4jnsgd1na2vs0mg"},{"bike_id":"bcd11a31-1d3d-4960-95fe-9154926751b4","system_id":"levelo_inurba_marseille","lat":43.24078,"lon":5.37755,"is_reserved":false,"is_disabled":false,"rental_uris":{"android":"levelo://app?vid=bcd11a31-1d3d-4960-95fe-9154926751b4","ios":"levelo://app?vid=bcd11a31-1d3d-4960-95fe-9154926751b4"},"vehicle_type_id":"4","last_reported":1759129885,"current_range_meters":11200,"station_id":"ce4bhnp2rcd13ifvqgvg","pricing_plan_id":"cebpf4jnsgd1na2vs0mg"},{"bike_id":"e5378695-fba9-432a-9cfb-3b5b05e40fec","system_id":"levelo_inurba_marseille","lat":43.337986,"lon":5.374304,"is_reserved":false,"is_disabled":false,"rental_uris":{"android":"levelo://app?vid=e5378695-fba9-432a-9cfb-3b5b05e40fec","ios":"levelo://app?vid=e5378695-fba9-432a-9cfb-3b5b05e40fec"},"vehicle_type_id":"4","last_reported":1759129885,"current_range_meters":11200,"station_id":"","pricing_plan_id":"cebpf4jnsgd1na2vs0mg"},{"bike_id":"8daec122-304c-4833-aeae-b2b07caad93d","system_id":"levelo_inurba_marseille","lat":43.24177,"lon":5.39739,"is_reserved":false,"is_disabled":false,"rental_uris":{"android":"levelo://app?vid=8daec122-304c-4833-aeae-b2b07caad93d","ios":"levelo://app?vid=8daec122-304c-4833-aeae-b2b07caad93d"},"vehicle_type_id":"4","last_reported":1759129885,"current_range_meters":11600,"station_id":"ce4bhn12rcd13ifvqgpg","pricing_plan_id":"cebpf4jnsgd1na2vs0mg"},{"bike_id":"7b024d28-6256-4492-a6bb-f45363516be3","system_id":"levelo_inurba_marseille","lat":43.30273,"lon":5.37695,"is_reserved":false,"is_disabled":false,"rental_uris":{"android":"levelo://app?vid=7b024d28-6256-4492-a6bb-f45363516be3","ios":"levelo://app?vid=7b024d28-6256-4492-a6bb-f45363516be3"},"vehicle_type_id":"4","last_reported":1759129885,"current_range_meters":11600,"station_id":"ce4bguh2rcd13ifvqcj0","pricing_plan_id":"cebpf4jnsgd1na2vs0mg"},{"bike_id":"35e8f722-b82a-4247-beb8-7e2827829ce6","system_id":"levelo_inurba_marseille","lat":43.32405,"lon":5.3911,"is_reserved":false,"is_disabled":false,"rental_uris":{"android":"levelo://app?vid=35e8f722-b82a-4247-beb8-7e2827829ce6","ios":"levelo://app?vid=35e8f722-b82a-4247-beb8-7e2827829ce6"},"vehicle_type_id":"4","last_reported":1759129885,"current_range_meters":11600,"station_id":"","pricing_plan_id":"cebpf4jnsgd1na2vs0mg"},{"bike_id":"01d71389-0b80-4650-affd-c19dc5c27b50","system_id":"levelo_inurba_marseille","lat":43.23961,"lon":5.3663,"is_reserved":false,"is_disabled":false,"rental_uris":{"android":"levelo://app?vid=01d71389-0b80-4650-affd-c19dc5c27b50","ios":"levelo://app?vid=01d71389-0b80-4650-affd-c19dc5c27b50"},"vehicle_type_id":"4","last_reported":1759129885,"current_range_meters":11600,"station_id":"ce4bhi12rcd13ifvqfp0","pricing_plan_id":"cebpf4jnsgd1na2vs0mg"},{"bike_id":"f453343e-5f20-4752-b723-0f1797af29d2","system_id":"levelo_inurba_marseille","lat":43.23157,"lon":5.43715,"is_reserved":false,"is_disabled":false,"rental_uris":{"android":"levelo://app?vid=f453343e-5f20-4752-b723-0f1797af29d2","ios":"levelo://app?vid=f453343e-5f20-4752-b723-0f1797af29d2"},"vehicle_type_id":"4","last_reported":1759129885,"current_range_meters":11600,"station_id":"ce4bhmp2rcd13ifvqgog","pricing_plan_id":"cebpf4jnsgd1na2vs0mg"},{"bike_id":"2ed4d2cc-833b-4d37-9920-a90ef4f69d93","system_id":"levelo_inurba_marseille","lat":43.30154,"lon":5.38092,"is_reserved":false,"is_disabled":false,"rental_uris":{"android":"levelo://app?vid=2ed4d2cc-833b-4d37-9920-a90ef4f69d93","ios":"levelo://app?vid=2ed4d2cc-833b-4d37-9920-a90ef4f69d93"},"vehicle_type_id":"4","last_reported":1759129885,"current_range_meters":12000,"station_id":"ce4bgjp2rcd13ifvqbh0","pricing_plan_id":"cebpf4jnsgd1na2vs0mg"},{"bike_id":"4822dd99-56ec-44f6-a9b9-ee0ae5dcc1bf","system_id":"levelo_inurba_marseille","lat":43.30009,"lon":5.39994,"is_reserved":false,"is_disabled":false,"rental_uris":{"android":"levelo://app?vid=4822dd99-56ec-44f6-a9b9-ee0ae5dcc1bf","ios":"levelo://app?vid=4822dd99-56ec-44f6-a9b9-ee0ae5dcc1bf"},"vehicle_type_id":"4","last_reported":1759129885,"current_range_meters":12000,"station_id":"ce4bh0h2rcd13ifvqd40","pricing_plan_id":"cebpf4jnsgd1na2vs0mg"},{"bike_id":"f931a88b-c622-494d-bccf-8e6e6c0eaabe","system_id":"levelo_inurba_marseille","lat":43.25827,"lon":5.39431,"is_reserved":false,"is_disabled":false,"rental_uris":{"android":"levelo://app?vid=f931a88b-c622-494d-bccf-8e6e6c0eaabe","ios":"levelo://app?vid=f931a88b-c622-494d-bccf-8e6e6c0eaabe"},"vehicle_type_id":"4","last_reported":1759129885,"current_range_meters":12000,"station_id":"ce4bhip2rcd13ifvqft0","pricing_plan_id":"cebpf4jnsgd1na2vs0mg"},{"bike_id":"89fe513c-a434-4cf8-a56c-ee0844b2f3be","system_id":"levelo_inurba_marseille","lat":43.29986,"lon":5.38495,"is_reserved":false,"is_disabled":true,"rental_uris":{"android":"levelo://app?vid=89fe513c-a434-4cf8-a56c-ee0844b2f3be","ios":"levelo://app?vid=89fe513c-a434-4cf8-a56c-ee0844b2f3be"},"vehicle_type_id":"4","last_reported":1759129885,"current_range_meters":12000,"station_id":"ce4bgj92rcd13ifvqbd0","pricing_plan_id":"cebpf4jnsgd1na2vs0mg"},{"bike_id":"7cf2089f-2784-4f38-9f11-3fc15f7dfd07","system_id":"levelo_inurba_marseille","lat":43.28572,"lon":5.39509,"is_reserved":false,"is_disabled":false,"rental_uris":{"android":"levelo://app?vid=7cf2089f-2784-4f38-9f11-3fc15f7dfd07","ios":"levelo://app?vid=7cf2089f-2784-4f38-9f11-3fc15f7dfd07"},"vehicle_type_id":"4","last_reported":1759129885,"current_range_meters":11600,"station_id":"ce4bh292rcd13ifvqdg0","pricing_plan_id":"cebpf4jnsgd1na2vs0mg"},{"bike_id":"f060d515-f268-4371-95a2-f04eea0ad05f","system_id":"levelo_inurba_marseille","lat":43.24636,"lon":5.43137,"is_reserved":false,"is_disabled":false,"rental_uris":{"android":"levelo://app?vid=f060d515-f268-4371-95a2-f04eea0ad05f","ios":"levelo://app?vid=f060d515-f268-4371-95a2-f04eea0ad05f"},"vehicle_type_id":"4","last_reported":1759129885,"current_range_meters":12000,"station_id":"st_d2m6c4gdas8pm72e190g","pricing_plan_id":"cebpf4jnsgd1na2vs0mg"},{"bike_id":"4348b5e0-69d6-4737-aa5f-3e487399916c","system_id":"levelo_inurba_marseille","lat":43.24171,"lon":5.39725,"is_reserved":false,"is_disabled":false,"rental_uris":{"android":"levelo://app?vid=4348b5e0-69d6-4737-aa5f-3e487399916c","ios":"levelo://app?vid=4348b5e0-69d6-4737-aa5f-3e487399916c"},"vehicle_type_id":"4","last_reported":1759129885,"current_range_meters":12400,"station_id":"ce4bhn12rcd13ifvqgpg","pricing_plan_id":"cebpf4jnsgd1na2vs0mg"},{"bike_id":"3543bd6b-ed6d-4b08-b197-d4cb29f52c00","system_id":"levelo_inurba_marseille","lat":43.29908,"lon":5.38142,"is_reserved":false,"is_disabled":false,"rental_uris":{"android":"levelo://app?vid=3543bd6b-ed6d-4b08-b197-d4cb29f52c00","ios":"levelo://app?vid=3543bd6b-ed6d-4b08-b197-d4cb29f52c00"},"vehicle_type_id":"4","last_reported":1759129885,"current_range_meters":12000,"station_id":"ce4bgj12rcd13ifvqbc0","pricing_plan_id":"cebpf4jnsgd1na2vs0mg"},{"bike_id":"e0e9194b-710d-4981-ad65-ba5929d7512b","system_id":"levelo_inurba_marseille","lat":43.306022,"lon":5.384559,"is_reserved":false,"is_disabled":false,"rental_uris":{"android":"levelo://app?vid=e0e9194b-710d-4981-ad65-ba5929d7512b","ios":"levelo://app?vid=e0e9194b-710d-4981-ad65-ba5929d7512b"},"vehicle_type_id":"4","last_reported":1759129885,"current_range_meters":12400,"station_id":"","pricing_plan_id":"cebpf4jnsgd1na2vs0mg"},{"bike_id":"80b98ce0-3233-47ce-84db-722943723d1e","system_id":"levelo_inurba_marseille","lat":43.269329,"lon":5.38928,"is_reserved":false,"is_disabled":false,"rental_uris":{"android":"levelo://app?vid=80b98ce0-3233-47ce-84db-722943723d1e","ios":"levelo://app?vid=80b98ce0-3233-47ce-84db-722943723d1e"},"vehicle_type_id":"4","last_reported":1759129885,"current_range_meters":12400,"station_id":"","pricing_plan_id":"cebpf4jnsgd1na2vs0mg"},{"bike_id":"0c9de558-bd89-4a96-822a-e0d89ff41c26","system_id":"levelo_inurba_marseille","lat":43.29022,"lon":5.39959,"is_reserved":false,"is_disabled":false,"rental_uris":{"android":"levelo://app?vid=0c9de558-bd89-4a96-822a-e0d89ff41c26","ios":"levelo://app?vid=0c9de558-bd89-4a96-822a-e0d89ff41c26"},"vehicle_type_id":"4","last_reported":1759129885,"current_range_meters":12400,"station_id":"ce4bh392rcd13ifvqdm0","pricing_plan_id":"cebpf4jnsgd1na2vs0mg"},{"bike_id":"951b6266-7276-4e64-8ded-09e3ab86b885","system_id":"levelo_inurba_marseille","lat":43.29269,"lon":5.40111,"is_reserved":false,"is_disabled":true,"rental_uris":{"android":"levelo://app?vid=951b6266-7276-4e64-8ded-09e3ab86b885","ios":"levelo://app?vid=951b6266-7276-4e64-8ded-09e3ab86b885"},"vehicle_type_id":"4","last_reported":1759129885,"current_range_meters":12400,"station_id":"ce4bh312rcd13ifvqdk0","pricing_plan_id":"cebpf4jnsgd1na2vs0mg"},{"bike_id":"7430697d-64ff-4ce7-a22c-5eca8c3d21e4","system_id":"levelo_inurba_marseille","lat":43.24997,"lon":5.38932,"is_reserved":false,"is_disabled":false,"rental_uris":{"android":"levelo://app?vid=7430697d-64ff-4ce7-a22c-5eca8c3d21e4","ios":"levelo://app?vid=7430697d-64ff-4ce7-a22c-5eca8c3d21e4"},"vehicle_type_id":"4","last_reported":1759129885,"current_range_meters":12400,"station_id":"ce4bhgp2rcd13ifvqfd0","pricing_plan_id":"cebpf4jnsgd1na2vs0mg"},{"bike_id":"9c4235da-d3d0-4056-aa6b-c6aa6e8e7367","system_id":"levelo_inurba_marseille","lat":43.30722,"lon":5.37507,"is_reserved":false,"is_disabled":false,"rental_uris":{"android":"levelo://app?vid=9c4235da-d3d0-4056-aa6b-c6aa6e8e7367","ios":"levelo://app?vid=9c4235da-d3d0-4056-aa6b-c6aa6e8e7367"},"vehicle_type_id":"4","last_reported":1759129885,"current_range_meters":12400,"station_id":"","pricing_plan_id":"cebpf4jnsgd1na2vs0mg"},{"bike_id":"ee6406f7-9f33-4935-a835-0f3904e54bc4","system_id":"levelo_inurba_marseille","lat":43.31875,"lon":5.37317,"is_reserved":false,"is_disabled":false,"rental_uris":{"android":"levelo://app?vid=ee6406f7-9f33-4935-a835-0f3904e54bc4","ios":"levelo://app?vid=ee6406f7-9f33-4935-a835-0f3904e54bc4"},"vehicle_type_id":"4","last_reported":1759129885,"current_range_meters":12800,"station_id":"ce4bgt12rcd13ifvqcd0","pricing_plan_id":"cebpf4jnsgd1na2vs0mg"},{"bike_id":"56ae4018-5ccb-4305-bb7c-0b5f9feee6ae","system_id":"levelo_inurba_marseille","lat":43.32285,"lon":5.38269,"is_reserved":false,"is_disabled":false,"rental_uris":{"android":"levelo://app?vid=56ae4018-5ccb-4305-bb7c-0b5f9feee6ae","ios":"levelo://app?vid=56ae4018-5ccb-4305-bb7c-0b5f9feee6ae"},"vehicle_type_id":"4","last_reported":1759129885,"current_range_meters":12800,"station_id":"ce4bhr12rcd13ifvqhqg","pricing_plan_id":"cebpf4jnsgd1na2vs0mg"},{"bike_id":"22b960c9-caca-4d17-a1e6-a345d6b4a28d","system_id":"levelo_inurba_marseille","lat":43.2748,"lon":5.42461,"is_reserved":false,"is_disabled":false,"rental_uris":{"android":"levelo://app?vid=22b960c9-caca-4d17-a1e6-a345d6b4a28d","ios":"levelo://app?vid=22b960c9-caca-4d17-a1e6-a345d6b4a28d"},"vehicle_type_id":"4","last_reported":1759129885,"current_range_meters":12800,"station_id":"ce4bhn92rcd13ifvqgrg","pricing_plan_id":"cebpf4jnsgd1na2vs0mg"},{"bike_id":"8522fb09-4f7e-4bde-993c-7f12c241d12f","system_id":"levelo_inurba_marseille","lat":43.24801,"lon":5.37456,"is_reserved":false,"is_disabled":false,"rental_uris":{"android":"levelo://app?vid=8522fb09-4f7e-4bde-993c-7f12c241d12f","ios":"levelo://app?vid=8522fb09-4f7e-4bde-993c-7f12c241d12f"},"vehicle_type_id":"4","last_reported":1759129885,"current_range_meters":12800,"station_id":"ce4bhgh2rcd13ifvqfb0","pricing_plan_id":"cebpf4jnsgd1na2vs0mg"},{"bike_id":"2dd2ea87-e401-44f9-ac32-a534d3fa425e","system_id":"levelo_inurba_marseille","lat":43.32542,"lon":5.41471,"is_reserved":false,"is_disabled":false,"rental_uris":{"android":"levelo://app?vid=2dd2ea87-e401-44f9-ac32-a534d3fa425e","ios":"levelo://app?vid=2dd2ea87-e401-44f9-ac32-a534d3fa425e"},"vehicle_type_id":"4","last_reported":1759129885,"current_range_meters":12800,"station_id":"ce4bhq12rcd13ifvqhhg","pricing_plan_id":"cebpf4jnsgd1na2vs0mg"},{"bike_id":"8ce4e28a-196f-4001-bc76-c147c8b5a275","system_id":"levelo_inurba_marseille","lat":43.2668,"lon":5.38269,"is_reserved":false,"is_disabled":false,"rental_uris":{"android":"levelo://app?vid=8ce4e28a-196f-4001-bc76-c147c8b5a275","ios":"levelo://app?vid=8ce4e28a-196f-4001-bc76-c147c8b5a275"},"vehicle_type_id":"4","last_reported":1759129885,"current_range_meters":12400,"station_id":"ce4bhg92rcd13ifvqf90","pricing_plan_id":"cebpf4jnsgd1na2vs0mg"},{"bike_id":"471fc59e-f03a-44d7-a5b2-c44f167b4ac7","system_id":"levelo_inurba_marseille","lat":43.23153,"lon":5.43713,"is_reserved":false,"is_disabled":false,"rental_uris":{"android":"levelo://app?vid=471fc59e-f03a-44d7-a5b2-c44f167b4ac7","ios":"levelo://app?vid=471fc59e-f03a-44d7-a5b2-c44f167b4ac7"},"vehicle_type_id":"4","last_reported":1759129885,"current_range_meters":13600,"station_id":"ce4bhmp2rcd13ifvqgog","pricing_plan_id":"cebpf4jnsgd1na2vs0mg"},{"bike_id":"6598f298-83be-4e81-9bad-8513cc82aaa9","system_id":"levelo_inurba_marseille","lat":43.23142,"lon":5.43689,"is_reserved":false,"is_disabled":false,"rental_uris":{"android":"levelo://app?vid=6598f298-83be-4e81-9bad-8513cc82aaa9","ios":"levelo://app?vid=6598f298-83be-4e81-9bad-8513cc82aaa9"},"vehicle_type_id":"4","last_reported":1759129885,"current_range_meters":13600,"station_id":"ce4bhmp2rcd13ifvqgog","pricing_plan_id":"cebpf4jnsgd1na2vs0mg"},{"bike_id":"9b273fec-9a3e-4d8b-ba64-87e44e856229","system_id":"levelo_inurba_marseille","lat":43.24997,"lon":5.38926,"is_reserved":false,"is_disabled":false,"rental_uris":{"android":"levelo://app?vid=9b273fec-9a3e-4d8b-ba64-87e44e856229","ios":"levelo://app?vid=9b273fec-9a3e-4d8b-ba64-87e44e856229"},"vehicle_type_id":"4","last_reported":1759129885,"current_range_meters":13600,"station_id":"ce4bhgp2rcd13ifvqfd0","pricing_plan_id":"cebpf4jnsgd1na2vs0mg"},{"bike_id":"9b4f4d66-027c-4943-abdc-43736a5de892","system_id":"levelo_inurba_marseille","lat":43.24071,"lon":5.37753,"is_reserved":false,"is_disabled":false,"rental_uris":{"android":"levelo://app?vid=9b4f4d66-027c-4943-abdc-43736a5de892","ios":"levelo://app?vid=9b4f4d66-027c-4943-abdc-43736a5de892"},"vehicle_type_id":"4","last_reported":1759129885,"current_range_meters":13600,"station_id":"ce4bhnp2rcd13ifvqgvg","pricing_plan_id":"cebpf4jnsgd1na2vs0mg"},{"bike_id":"8e22cf14-b2b4-4b09-90a7-6c182d85a696","system_id":"levelo_inurba_marseille","lat":43.30533,"lon":5.36721,"is_reserved":false,"is_disabled":false,"rental_uris":{"android":"levelo://app?vid=8e22cf14-b2b4-4b09-90a7-6c182d85a696","ios":"levelo://app?vid=8e22cf14-b2b4-4b09-90a7-6c182d85a696"},"vehicle_type_id":"4","last_reported":1759129885,"current_range_meters":13600,"station_id":"ce4bgrp2rcd13ifvqc9g","pricing_plan_id":"cebpf4jnsgd1na2vs0mg"},{"bike_id":"1da026b3-637d-4635-95ff-80257ec0b8e8","system_id":"levelo_inurba_marseille","lat":43.27505,"lon":5.42452,"is_reserved":false,"is_disabled":false,"rental_uris":{"android":"levelo://app?vid=1da026b3-637d-4635-95ff-80257ec0b8e8","ios":"levelo://app?vid=1da026b3-637d-4635-95ff-80257ec0b8e8"},"vehicle_type_id":"4","last_reported":1759129885,"current_range_meters":13600,"station_id":"ce4bhn92rcd13ifvqgrg","pricing_plan_id":"cebpf4jnsgd1na2vs0mg"},{"bike_id":"5a608b60-4abc-4d69-b149-2a4a53712f5d","system_id":"levelo_inurba_marseille","lat":43.23147,"lon":5.4373,"is_reserved":false,"is_disabled":false,"rental_uris":{"android":"levelo://app?vid=5a608b60-4abc-4d69-b149-2a4a53712f5d","ios":"levelo://app?vid=5a608b60-4abc-4d69-b149-2a4a53712f5d"},"vehicle_type_id":"4","last_reported":1759129885,"current_range_meters":14000,"station_id":"ce4bhmp2rcd13ifvqgog","pricing_plan_id":"cebpf4jnsgd1na2vs0mg"},{"bike_id":"c66e069d-0ffb-450c-a1e3-2c05aff1f87b","system_id":"levelo_inurba_marseille","lat":43.26264,"lon":5.40464,"is_reserved":false,"is_disabled":false,"rental_uris":{"android":"levelo://app?vid=c66e069d-0ffb-450c-a1e3-2c05aff1f87b","ios":"levelo://app?vid=c66e069d-0ffb-450c-a1e3-2c05aff1f87b"},"vehicle_type_id":"4","last_reported":1759129885,"current_range_meters":14000,"station_id":"","pricing_plan_id":"cebpf4jnsgd1na2vs0mg"},{"bike_id":"7f46228e-4ed4-4fb2-9b7c-2773cead13c2","system_id":"levelo_inurba_marseille","lat":43.24171,"lon":5.3641,"is_reserved":false,"is_disabled":true,"rental_uris":{"android":"levelo://app?vid=7f46228e-4ed4-4fb2-9b7c-2773cead13c2","ios":"levelo://app?vid=7f46228e-4ed4-4fb2-9b7c-2773cead13c2"},"vehicle_type_id":"4","last_reported":1759129885,"current_range_meters":14000,"station_id":"cpo36qri1sfpv3e86is0","pricing_plan_id":"cebpf4jnsgd1na2vs0mg"},{"bike_id":"a07a513e-e5a9-4481-8592-d991379bc662","system_id":"levelo_inurba_marseille","lat":43.33735,"lon":5.37481,"is_reserved":false,"is_disabled":false,"rental_uris":{"android":"levelo://app?vid=a07a513e-e5a9-4481-8592-d991379bc662","ios":"levelo://app?vid=a07a513e-e5a9-4481-8592-d991379bc662"},"vehicle_type_id":"4","last_reported":1759129885,"current_range_meters":14000,"station_id":"","pricing_plan_id":"cebpf4jnsgd1na2vs0mg"},{"bike_id":"dc33dd5a-bc50-4efe-a4c3-d90415267d1a","system_id":"levelo_inurba_marseille","lat":43.31353,"lon":5.36708,"is_reserved":false,"is_disabled":false,"rental_uris":{"android":"levelo://app?vid=dc33dd5a-bc50-4efe-a4c3-d90415267d1a","ios":"levelo://app?vid=dc33dd5a-bc50-4efe-a4c3-d90415267d1a"},"vehicle_type_id":"4","last_reported":1759129885,"current_range_meters":14000,"station_id":"ce4bgr92rcd13ifvqc6g","pricing_plan_id":"cebpf4jnsgd1na2vs0mg"},{"bike_id":"7dc10ae7-7366-4aef-afb3-946c513f88ef","system_id":"levelo_inurba_marseille","lat":43.28,"lon":5.36417,"is_reserved":false,"is_disabled":false,"rental_uris":{"android":"levelo://app?vid=7dc10ae7-7366-4aef-afb3-946c513f88ef","ios":"levelo://app?vid=7dc10ae7-7366-4aef-afb3-946c513f88ef"},"vehicle_type_id":"4","last_reported":1759129885,"current_range_meters":14400,"station_id":"ce4bha12rcd13ifvqef0","pricing_plan_id":"cebpf4jnsgd1na2vs0mg"},{"bike_id":"8c986307-df22-41f8-9c2d-42ccabc665aa","system_id":"levelo_inurba_marseille","lat":43.30205,"lon":5.36629,"is_reserved":false,"is_disabled":false,"rental_uris":{"android":"levelo://app?vid=8c986307-df22-41f8-9c2d-42ccabc665aa","ios":"levelo://app?vid=8c986307-df22-41f8-9c2d-42ccabc665aa"},"vehicle_type_id":"4","last_reported":1759129885,"current_range_meters":14400,"station_id":"ce4bgrh2rcd13ifvqc8g","pricing_plan_id":"cebpf4jnsgd1na2vs0mg"},{"bike_id":"ea59b303-6900-42ad-9e79-5b0f95bedd6c","system_id":"levelo_inurba_marseille","lat":43.30453,"lon":5.36916,"is_reserved":false,"is_disabled":false,"rental_uris":{"android":"levelo://app?vid=ea59b303-6900-42ad-9e79-5b0f95bedd6c","ios":"levelo://app?vid=ea59b303-6900-42ad-9e79-5b0f95bedd6c"},"vehicle_type_id":"4","last_reported":1759129885,"current_range_meters":14400,"station_id":"","pricing_plan_id":"cebpf4jnsgd1na2vs0mg"},{"bike_id":"8c0227e3-55e8-4994-aa0c-9b6ee99b7e26","system_id":"levelo_inurba_marseille","lat":43.23045,"lon":5.35482,"is_reserved":false,"is_disabled":false,"rental_uris":{"android":"levelo://app?vid=8c0227e3-55e8-4994-aa0c-9b6ee99b7e26","ios":"levelo://app?vid=8c0227e3-55e8-4994-aa0c-9b6ee99b7e26"},"vehicle_type_id":"4","last_reported":1759129885,"current_range_meters":14800,"station_id":"cpo3342slgdg3j2ifvpg","pricing_plan_id":"cebpf4jnsgd1na2vs0mg"},{"bike_id":"9f8016d4-7cfd-4da9-98fe-979484415ac7","system_id":"levelo_inurba_marseille","lat":43.30513,"lon":5.3672,"is_reserved":false,"is_disabled":false,"rental_uris":{"android":"levelo://app?vid=9f8016d4-7cfd-4da9-98fe-979484415ac7","ios":"levelo://app?vid=9f8016d4-7cfd-4da9-98fe-979484415ac7"},"vehicle_type_id":"4","last_reported":1759129885,"current_range_meters":14800,"station_id":"ce4bgrp2rcd13ifvqc9g","pricing_plan_id":"cebpf4jnsgd1na2vs0mg"},{"bike_id":"45be7a00-1ea0-4450-8454-d0725d5a0d61","system_id":"levelo_inurba_marseille","lat":43.29227,"lon":5.36062,"is_reserved":false,"is_disabled":false,"rental_uris":{"android":"levelo://app?vid=45be7a00-1ea0-4450-8454-d0725d5a0d61","ios":"levelo://app?vid=45be7a00-1ea0-4450-8454-d0725d5a0d61"},"vehicle_type_id":"4","last_reported":1759129885,"current_range_meters":14800,"station_id":"ce4bhbh2rcd13ifvqeqg","pricing_plan_id":"cebpf4jnsgd1na2vs0mg"},{"bike_id":"383afe57-4b53-41a6-a42f-e0847ffc8f88","system_id":"levelo_inurba_marseille","lat":43.26214,"lon":5.37435,"is_reserved":false,"is_disabled":false,"rental_uris":{"android":"levelo://app?vid=383afe57-4b53-41a6-a42f-e0847ffc8f88","ios":"levelo://app?vid=383afe57-4b53-41a6-a42f-e0847ffc8f88"},"vehicle_type_id":"4","last_reported":1759129885,"current_range_meters":14800,"station_id":"ce4bhgp2rcd13ifvqfc0","pricing_plan_id":"cebpf4jnsgd1na2vs0mg"},{"bike_id":"c627b34a-8e81-4438-af3b-4fd0aab1c160","system_id":"levelo_inurba_marseille","lat":43.296602,"lon":5.360015,"is_reserved":false,"is_disabled":false,"rental_uris":{"android":"levelo://app?vid=c627b34a-8e81-4438-af3b-4fd0aab1c160","ios":"levelo://app?vid=c627b34a-8e81-4438-af3b-4fd0aab1c160"},"vehicle_type_id":"4","last_reported":1759129885,"current_range_meters":14800,"station_id":"","pricing_plan_id":"cebpf4jnsgd1na2vs0mg"},{"bike_id":"a63906d9-70e3-4694-a19f-f783d775e9bb","system_id":"levelo_inurba_marseille","lat":43.3128,"lon":5.37406,"is_reserved":false,"is_disabled":false,"rental_uris":{"android":"levelo://app?vid=a63906d9-70e3-4694-a19f-f783d775e9bb","ios":"levelo://app?vid=a63906d9-70e3-4694-a19f-f783d775e9bb"},"vehicle_type_id":"4","last_reported":1759129885,"current_range_meters":14800,"station_id":"","pricing_plan_id":"cebpf4jnsgd1na2vs0mg"},{"bike_id":"0030cf69-75f8-4719-a372-efc52bdb748a","system_id":"levelo_inurba_marseille","lat":43.32838,"lon":5.45362,"is_reserved":false,"is_disabled":false,"rental_uris":{"android":"levelo://app?vid=0030cf69-75f8-4719-a372-efc52bdb748a","ios":"levelo://app?vid=0030cf69-75f8-4719-a372-efc52bdb748a"},"vehicle_type_id":"4","last_reported":1759129885,"current_range_meters":15200,"station_id":"","pricing_plan_id":"cebpf4jnsgd1na2vs0mg"},{"bike_id":"9dab0dbb-99ad-48b0-9a34-3531b7753743","system_id":"levelo_inurba_marseille","lat":43.292837,"lon":5.368423,"is_reserved":false,"is_disabled":false,"rental_uris":{"android":"levelo://app?vid=9dab0dbb-99ad-48b0-9a34-3531b7753743","ios":"levelo://app?vid=9dab0dbb-99ad-48b0-9a34-3531b7753743"},"vehicle_type_id":"4","last_reported":1759129885,"current_range_meters":15200,"station_id":"ce4bhbp2rcd13ifvqesg","pricing_plan_id":"cebpf4jnsgd1na2vs0mg"},{"bike_id":"66e015af-f323-4b5c-b66c-d96027a78518","system_id":"levelo_inurba_marseille","lat":43.2984,"lon":5.36267,"is_reserved":false,"is_disabled":false,"rental_uris":{"android":"levelo://app?vid=66e015af-f323-4b5c-b66c-d96027a78518","ios":"levelo://app?vid=66e015af-f323-4b5c-b66c-d96027a78518"},"vehicle_type_id":"4","last_reported":1759129885,"current_range_meters":16000,"station_id":"ce4bgpp2rcd13ifvqc3g","pricing_plan_id":"cebpf4jnsgd1na2vs0mg"},{"bike_id":"385fa573-6758-43e7-a2f4-f27be30ea572","system_id":"levelo_inurba_marseille","lat":43.32104,"lon":5.36766,"is_reserved":false,"is_disabled":false,"rental_uris":{"android":"levelo://app?vid=385fa573-6758-43e7-a2f4-f27be30ea572","ios":"levelo://app?vid=385fa573-6758-43e7-a2f4-f27be30ea572"},"vehicle_type_id":"4","last_reported":1759129885,"current_range_meters":16000,"station_id":"ce4bhrh2rcd13ifvqhug","pricing_plan_id":"cebpf4jnsgd1na2vs0mg"},{"bike_id":"1a04738a-bd05-4e7f-b716-ba8d78a51904","system_id":"levelo_inurba_marseille","lat":43.28701,"lon":5.39324,"is_reserved":false,"is_disabled":false,"rental_uris":{"android":"levelo://app?vid=1a04738a-bd05-4e7f-b716-ba8d78a51904","ios":"levelo://app?vid=1a04738a-bd05-4e7f-b716-ba8d78a51904"},"vehicle_type_id":"4","last_reported":1759129885,"current_range_meters":16000,"station_id":"","pricing_plan_id":"cebpf4jnsgd1na2vs0mg"},{"bike_id":"aa123961-c527-4db0-9350-7d548f67905a","system_id":"levelo_inurba_marseille","lat":43.27946,"lon":5.38753,"is_reserved":false,"is_disabled":false,"rental_uris":{"android":"levelo://app?vid=aa123961-c527-4db0-9350-7d548f67905a","ios":"levelo://app?vid=aa123961-c527-4db0-9350-7d548f67905a"},"vehicle_type_id":"4","last_reported":1759129885,"current_range_meters":16000,"station_id":"ce4bh492rcd13ifvqdvg","pricing_plan_id":"cebpf4jnsgd1na2vs0mg"},{"bike_id":"ba1cfbb3-555c-4e6c-85db-b50e9395062e","system_id":"levelo_inurba_marseille","lat":43.246877,"lon":5.381936,"is_reserved":false,"is_disabled":false,"rental_uris":{"android":"levelo://app?vid=ba1cfbb3-555c-4e6c-85db-b50e9395062e","ios":"levelo://app?vid=ba1cfbb3-555c-4e6c-85db-b50e9395062e"},"vehicle_type_id":"4","last_reported":1759129885,"current_range_meters":16000,"station_id":"","pricing_plan_id":"cebpf4jnsgd1na2vs0mg"},{"bike_id":"799c3baf-23f3-4f39-a4a8-95303ac8c516","system_id":"levelo_inurba_marseille","lat":43.2594,"lon":5.409,"is_reserved":false,"is_disabled":false,"rental_uris":{"android":"levelo://app?vid=799c3baf-23f3-4f39-a4a8-95303ac8c516","ios":"levelo://app?vid=799c3baf-23f3-4f39-a4a8-95303ac8c516"},"vehicle_type_id":"4","last_reported":1759129885,"current_range_meters":16000,"station_id":"ce4bhm92rcd13ifvqglg","pricing_plan_id":"cebpf4jnsgd1na2vs0mg"},{"bike_id":"10baf174-97c7-4514-95bf-33ba4deb3e4f","system_id":"levelo_inurba_marseille","lat":43.2121,"lon":5.35066,"is_reserved":false,"is_disabled":true,"rental_uris":{"android":"levelo://app?vid=10baf174-97c7-4514-95bf-33ba4deb3e4f","ios":"levelo://app?vid=10baf174-97c7-4514-95bf-33ba4deb3e4f"},"vehicle_type_id":"4","last_reported":1759129885,"current_range_meters":16000,"station_id":"st_cvj6sg6p6f1abm77japg","pricing_plan_id":"cebpf4jnsgd1na2vs0mg"},{"bike_id":"ce5e157e-4ef2-4c41-9b3b-54d3eecbfa45","system_id":"levelo_inurba_marseille","lat":43.225355,"lon":5.348444,"is_reserved":false,"is_disabled":false,"rental_uris":{"android":"levelo://app?vid=ce5e157e-4ef2-4c41-9b3b-54d3eecbfa45","ios":"levelo://app?vid=ce5e157e-4ef2-4c41-9b3b-54d3eecbfa45"},"vehicle_type_id":"4","last_reported":1759129885,"current_range_meters":16000,"station_id":"","pricing_plan_id":"cebpf4jnsgd1na2vs0mg"},{"bike_id":"aebf0e68-ba27-412a-9ce2-11cc42127dee","system_id":"levelo_inurba_marseille","lat":43.337444,"lon":5.374475,"is_reserved":false,"is_disabled":false,"rental_uris":{"android":"levelo://app?vid=aebf0e68-ba27-412a-9ce2-11cc42127dee","ios":"levelo://app?vid=aebf0e68-ba27-412a-9ce2-11cc42127dee"},"vehicle_type_id":"4","last_reported":1759129885,"current_range_meters":16000,"station_id":"","pricing_plan_id":"cebpf4jnsgd1na2vs0mg"},{"bike_id":"6d011fec-0363-4458-90ce-0beb5fbecedf","system_id":"levelo_inurba_marseille","lat":43.301293,"lon":5.3986,"is_reserved":false,"is_disabled":false,"rental_uris":{"android":"levelo://app?vid=6d011fec-0363-4458-90ce-0beb5fbecedf","ios":"levelo://app?vid=6d011fec-0363-4458-90ce-0beb5fbecedf"},"vehicle_type_id":"4","last_reported":1759129885,"current_range_meters":16400,"station_id":"","pricing_plan_id":"cebpf4jnsgd1na2vs0mg"},{"bike_id":"e27e1b84-fcb9-4229-ab17-6ab0cecb8bea","system_id":"levelo_inurba_marseille","lat":43.30134,"lon":5.37408,"is_reserved":false,"is_disabled":false,"rental_uris":{"android":"levelo://app?vid=e27e1b84-fcb9-4229-ab17-6ab0cecb8bea","ios":"levelo://app?vid=e27e1b84-fcb9-4229-ab17-6ab0cecb8bea"},"vehicle_type_id":"4","last_reported":1759129885,"current_range_meters":16400,"station_id":"ce4bgs92rcd13ifvqcc0","pricing_plan_id":"cebpf4jnsgd1na2vs0mg"},{"bike_id":"8cbcf5e7-b804-4925-bbed-5f57e8580ccf","system_id":"levelo_inurba_marseille","lat":43.31519,"lon":5.36803,"is_reserved":false,"is_disabled":false,"rental_uris":{"android":"levelo://app?vid=8cbcf5e7-b804-4925-bbed-5f57e8580ccf","ios":"levelo://app?vid=8cbcf5e7-b804-4925-bbed-5f57e8580ccf"},"vehicle_type_id":"4","last_reported":1759129885,"current_range_meters":16400,"station_id":"","pricing_plan_id":"cebpf4jnsgd1na2vs0mg"},{"bike_id":"051eb41f-71c0-452f-8a8e-387b983bfecf","system_id":"levelo_inurba_marseille","lat":43.32223,"lon":5.36903,"is_reserved":false,"is_disabled":false,"rental_uris":{"android":"levelo://app?vid=051eb41f-71c0-452f-8a8e-387b983bfecf","ios":"levelo://app?vid=051eb41f-71c0-452f-8a8e-387b983bfecf"},"vehicle_type_id":"4","last_reported":1759129885,"current_range_meters":16400,"station_id":"","pricing_plan_id":"cebpf4jnsgd1na2vs0mg"},{"bike_id":"f11d13b2-3fb1-4881-bf70-a7de55eef17d","system_id":"levelo_inurba_marseille","lat":43.29528,"lon":5.38548,"is_reserved":false,"is_disabled":false,"rental_uris":{"android":"levelo://app?vid=f11d13b2-3fb1-4881-bf70-a7de55eef17d","ios":"levelo://app?vid=f11d13b2-3fb1-4881-bf70-a7de55eef17d"},"vehicle_type_id":"4","last_reported":1759129885,"current_range_meters":16400,"station_id":"ce4bgih2rcd13ifvqba0","pricing_plan_id":"cebpf4jnsgd1na2vs0mg"},{"bike_id":"56d6a008-a903-4bd5-8ee3-1cec5d05c634","system_id":"levelo_inurba_marseille","lat":43.31749,"lon":5.39024,"is_reserved":false,"is_disabled":false,"rental_uris":{"android":"levelo://app?vid=56d6a008-a903-4bd5-8ee3-1cec5d05c634","ios":"levelo://app?vid=56d6a008-a903-4bd5-8ee3-1cec5d05c634"},"vehicle_type_id":"4","last_reported":1759129885,"current_range_meters":16400,"station_id":"ce4bhqp2rcd13ifvqhng","pricing_plan_id":"cebpf4jnsgd1na2vs0mg"},{"bike_id":"872b098e-8d73-4e68-9657-856be53a7655","system_id":"levelo_inurba_marseille","lat":43.30895,"lon":5.36841,"is_reserved":false,"is_disabled":false,"rental_uris":{"android":"levelo://app?vid=872b098e-8d73-4e68-9657-856be53a7655","ios":"levelo://app?vid=872b098e-8d73-4e68-9657-856be53a7655"},"vehicle_type_id":"4","last_reported":1759129885,"current_range_meters":16400,"station_id":"ce4bgn92rcd13ifvqbvg","pricing_plan_id":"cebpf4jnsgd1na2vs0mg"},{"bike_id":"904a2447-c517-4f66-b10b-611abaa09843","system_id":"levelo_inurba_marseille","lat":43.25943,"lon":5.4091,"is_reserved":false,"is_disabled":false,"rental_uris":{"android":"levelo://app?vid=904a2447-c517-4f66-b10b-611abaa09843","ios":"levelo://app?vid=904a2447-c517-4f66-b10b-611abaa09843"},"vehicle_type_id":"4","last_reported":1759129885,"current_range_meters":16400,"station_id":"ce4bhm92rcd13ifvqglg","pricing_plan_id":"cebpf4jnsgd1na2vs0mg"},{"bike_id":"6ef86d80-c793-4394-b0e0-1422e47b4e67","system_id":"levelo_inurba_marseille","lat":43.25945,"lon":5.409,"is_reserved":false,"is_disabled":false,"rental_uris":{"android":"levelo://app?vid=6ef86d80-c793-4394-b0e0-1422e47b4e67","ios":"levelo://app?vid=6ef86d80-c793-4394-b0e0-1422e47b4e67"},"vehicle_type_id":"4","last_reported":1759129885,"current_range_meters":16400,"station_id":"ce4bhm92rcd13ifvqglg","pricing_plan_id":"cebpf4jnsgd1na2vs0mg"},{"bike_id":"1a9e03f3-138b-40a3-aa92-e3ded8efc89a","system_id":"levelo_inurba_marseille","lat":43.24179,"lon":5.39729,"is_reserved":false,"is_disabled":false,"rental_uris":{"android":"levelo://app?vid=1a9e03f3-138b-40a3-aa92-e3ded8efc89a","ios":"levelo://app?vid=1a9e03f3-138b-40a3-aa92-e3ded8efc89a"},"vehicle_type_id":"4","last_reported":1759129885,"current_range_meters":16800,"station_id":"ce4bhn12rcd13ifvqgpg","pricing_plan_id":"cebpf4jnsgd1na2vs0mg"},{"bike_id":"16839028-4773-4892-9cee-c6f17209ceea","system_id":"levelo_inurba_marseille","lat":43.31348,"lon":5.36693,"is_reserved":false,"is_disabled":false,"rental_uris":{"android":"levelo://app?vid=16839028-4773-4892-9cee-c6f17209ceea","ios":"levelo://app?vid=16839028-4773-4892-9cee-c6f17209ceea"},"vehicle_type_id":"4","last_reported":1759129885,"current_range_meters":16800,"station_id":"ce4bgr92rcd13ifvqc6g","pricing_plan_id":"cebpf4jnsgd1na2vs0mg"},{"bike_id":"78edd212-3bd8-4a45-bced-089e3907902a","system_id":"levelo_inurba_marseille","lat":43.32761,"lon":5.42348,"is_reserved":false,"is_disabled":false,"rental_uris":{"android":"levelo://app?vid=78edd212-3bd8-4a45-bced-089e3907902a","ios":"levelo://app?vid=78edd212-3bd8-4a45-bced-089e3907902a"},"vehicle_type_id":"4","last_reported":1759129885,"current_range_meters":16800,"station_id":"","pricing_plan_id":"cebpf4jnsgd1na2vs0mg"},{"bike_id":"775c5a0f-a1a7-4f9f-a797-c49e69e87e30","system_id":"levelo_inurba_marseille","lat":43.33611,"lon":5.41032,"is_reserved":false,"is_disabled":false,"rental_uris":{"android":"levelo://app?vid=775c5a0f-a1a7-4f9f-a797-c49e69e87e30","ios":"levelo://app?vid=775c5a0f-a1a7-4f9f-a797-c49e69e87e30"},"vehicle_type_id":"4","last_reported":1759129885,"current_range_meters":16400,"station_id":"ce4bhqh2rcd13ifvqhmg","pricing_plan_id":"cebpf4jnsgd1na2vs0mg"},{"bike_id":"64564d5e-14a3-4d82-9023-fe94efbb7d2e","system_id":"levelo_inurba_marseille","lat":43.26776,"lon":5.39441,"is_reserved":false,"is_disabled":false,"rental_uris":{"android":"levelo://app?vid=64564d5e-14a3-4d82-9023-fe94efbb7d2e","ios":"levelo://app?vid=64564d5e-14a3-4d82-9023-fe94efbb7d2e"},"vehicle_type_id":"4","last_reported":1759129885,"current_range_meters":16800,"station_id":"ce4bhh12rcd13ifvqfg0","pricing_plan_id":"cebpf4jnsgd1na2vs0mg"},{"bike_id":"91658db2-d6ae-4346-bb4d-02353c95c4ab","system_id":"levelo_inurba_marseille","lat":43.24076,"lon":5.37763,"is_reserved":false,"is_disabled":false,"rental_uris":{"android":"levelo://app?vid=91658db2-d6ae-4346-bb4d-02353c95c4ab","ios":"levelo://app?vid=91658db2-d6ae-4346-bb4d-02353c95c4ab"},"vehicle_type_id":"4","last_reported":1759129885,"current_range_meters":16800,"station_id":"ce4bhnp2rcd13ifvqgvg","pricing_plan_id":"cebpf4jnsgd1na2vs0mg"},{"bike_id":"ef283424-eb2d-486a-bb66-daba5845aaac","system_id":"levelo_inurba_marseille","lat":43.30146,"lon":5.38785,"is_reserved":false,"is_disabled":true,"rental_uris":{"android":"levelo://app?vid=ef283424-eb2d-486a-bb66-daba5845aaac","ios":"levelo://app?vid=ef283424-eb2d-486a-bb66-daba5845aaac"},"vehicle_type_id":"4","last_reported":1759129885,"current_range_meters":16800,"station_id":"ce4bghh2rcd13ifvqb60","pricing_plan_id":"cebpf4jnsgd1na2vs0mg"},{"bike_id":"af269fc0-dbd4-452d-b8d3-c79a300dbfd3","system_id":"levelo_inurba_marseille","lat":43.26776,"lon":5.39418,"is_reserved":false,"is_disabled":false,"rental_uris":{"android":"levelo://app?vid=af269fc0-dbd4-452d-b8d3-c79a300dbfd3","ios":"levelo://app?vid=af269fc0-dbd4-452d-b8d3-c79a300dbfd3"},"vehicle_type_id":"4","last_reported":1759129885,"current_range_meters":16800,"station_id":"ce4bhh12rcd13ifvqfg0","pricing_plan_id":"cebpf4jnsgd1na2vs0mg"},{"bike_id":"0b228ae1-a233-4edc-a739-700c62a5dad9","system_id":"levelo_inurba_marseille","lat":43.30194,"lon":5.40022,"is_reserved":false,"is_disabled":true,"rental_uris":{"android":"levelo://app?vid=0b228ae1-a233-4edc-a739-700c62a5dad9","ios":"levelo://app?vid=0b228ae1-a233-4edc-a739-700c62a5dad9"},"vehicle_type_id":"4","last_reported":1759129885,"current_range_meters":16800,"station_id":"","pricing_plan_id":"cebpf4jnsgd1na2vs0mg"},{"bike_id":"5a915109-04f7-4d8f-a4b5-d66c9c44b349","system_id":"levelo_inurba_marseille","lat":43.29608,"lon":5.37693,"is_reserved":false,"is_disabled":true,"rental_uris":{"android":"levelo://app?vid=5a915109-04f7-4d8f-a4b5-d66c9c44b349","ios":"levelo://app?vid=5a915109-04f7-4d8f-a4b5-d66c9c44b349"},"vehicle_type_id":"4","last_reported":1759129885,"current_range_meters":16800,"station_id":"ce4bgi92rcd13ifvqb90","pricing_plan_id":"cebpf4jnsgd1na2vs0mg"},{"bike_id":"46eeeac6-ae5a-48cb-b2c3-6907016efbe2","system_id":"levelo_inurba_marseille","lat":43.30891,"lon":5.37234,"is_reserved":false,"is_disabled":false,"rental_uris":{"android":"levelo://app?vid=46eeeac6-ae5a-48cb-b2c3-6907016efbe2","ios":"levelo://app?vid=46eeeac6-ae5a-48cb-b2c3-6907016efbe2"},"vehicle_type_id":"4","last_reported":1759129885,"current_range_meters":16800,"station_id":"ce4bguh2rcd13ifvqckg","pricing_plan_id":"cebpf4jnsgd1na2vs0mg"},{"bike_id":"d310fb3c-51fd-428a-947a-97a053af481f","system_id":"levelo_inurba_marseille","lat":43.31341,"lon":5.36736,"is_reserved":false,"is_disabled":false,"rental_uris":{"android":"levelo://app?vid=d310fb3c-51fd-428a-947a-97a053af481f","ios":"levelo://app?vid=d310fb3c-51fd-428a-947a-97a053af481f"},"vehicle_type_id":"4","last_reported":1759129885,"current_range_meters":16800,"station_id":"ce4bgr92rcd13ifvqc6g","pricing_plan_id":"cebpf4jnsgd1na2vs0mg"},{"bike_id":"99ce2063-5dfb-4ed3-a4a6-8fc3a54c4890","system_id":"levelo_inurba_marseille","lat":43.337444,"lon":5.374475,"is_reserved":false,"is_disabled":false,"rental_uris":{"android":"levelo://app?vid=99ce2063-5dfb-4ed3-a4a6-8fc3a54c4890","ios":"levelo://app?vid=99ce2063-5dfb-4ed3-a4a6-8fc3a54c4890"},"vehicle_type_id":"4","last_reported":1759129885,"current_range_meters":16800,"station_id":"","pricing_plan_id":"cebpf4jnsgd1na2vs0mg"},{"bike_id":"53e445d8-a3f1-42c4-9c47-70f78f8c528f","system_id":"levelo_inurba_marseille","lat":43.29262,"lon":5.36775,"is_reserved":false,"is_disabled":true,"rental_uris":{"android":"levelo://app?vid=53e445d8-a3f1-42c4-9c47-70f78f8c528f","ios":"levelo://app?vid=53e445d8-a3f1-42c4-9c47-70f78f8c528f"},"vehicle_type_id":"4","last_reported":1759129885,"current_range_meters":17200,"station_id":"","pricing_plan_id":"cebpf4jnsgd1na2vs0mg"},{"bike_id":"18dd01b8-81c6-48d0-97a5-6aa730792d80","system_id":"levelo_inurba_marseille","lat":43.27522,"lon":5.42484,"is_reserved":false,"is_disabled":false,"rental_uris":{"android":"levelo://app?vid=18dd01b8-81c6-48d0-97a5-6aa730792d80","ios":"levelo://app?vid=18dd01b8-81c6-48d0-97a5-6aa730792d80"},"vehicle_type_id":"4","last_reported":1759129885,"current_range_meters":17200,"station_id":"ce4bhn92rcd13ifvqgrg","pricing_plan_id":"cebpf4jnsgd1na2vs0mg"},{"bike_id":"c622f243-50cc-4435-98ad-aaac51ff224a","system_id":"levelo_inurba_marseille","lat":43.337681,"lon":5.374399,"is_reserved":false,"is_disabled":false,"rental_uris":{"android":"levelo://app?vid=c622f243-50cc-4435-98ad-aaac51ff224a","ios":"levelo://app?vid=c622f243-50cc-4435-98ad-aaac51ff224a"},"vehicle_type_id":"4","last_reported":1759129885,"current_range_meters":17200,"station_id":"","pricing_plan_id":"cebpf4jnsgd1na2vs0mg"},{"bike_id":"fb370b30-a194-4833-bdb8-856e7a2a298d","system_id":"levelo_inurba_marseille","lat":43.24173,"lon":5.39737,"is_reserved":false,"is_disabled":false,"rental_uris":{"android":"levelo://app?vid=fb370b30-a194-4833-bdb8-856e7a2a298d","ios":"levelo://app?vid=fb370b30-a194-4833-bdb8-856e7a2a298d"},"vehicle_type_id":"4","last_reported":1759129885,"current_range_meters":17200,"station_id":"ce4bhn12rcd13ifvqgpg","pricing_plan_id":"cebpf4jnsgd1na2vs0mg"},{"bike_id":"738a51a6-02d0-4def-8f3f-9c82f6a6dd05","system_id":"levelo_inurba_marseille","lat":43.32344,"lon":5.36706,"is_reserved":false,"is_disabled":false,"rental_uris":{"android":"levelo://app?vid=738a51a6-02d0-4def-8f3f-9c82f6a6dd05","ios":"levelo://app?vid=738a51a6-02d0-4def-8f3f-9c82f6a6dd05"},"vehicle_type_id":"4","last_reported":1759129885,"current_range_meters":17200,"station_id":"ce4bhsh2rcd13ifvqi2g","pricing_plan_id":"cebpf4jnsgd1na2vs0mg"},{"bike_id":"12a1a288-fa0f-4c32-be23-19ce8115ec55","system_id":"levelo_inurba_marseille","lat":43.31683,"lon":5.40473,"is_reserved":false,"is_disabled":false,"rental_uris":{"android":"levelo://app?vid=12a1a288-fa0f-4c32-be23-19ce8115ec55","ios":"levelo://app?vid=12a1a288-fa0f-4c32-be23-19ce8115ec55"},"vehicle_type_id":"4","last_reported":1759129885,"current_range_meters":17200,"station_id":"ce4bh012rcd13ifvqd00","pricing_plan_id":"cebpf4jnsgd1na2vs0mg"},{"bike_id":"00b3c5d5-9ad5-4872-b372-089fa3a04914","system_id":"levelo_inurba_marseille","lat":43.286376,"lon":5.354934,"is_reserved":false,"is_disabled":false,"rental_uris":{"android":"levelo://app?vid=00b3c5d5-9ad5-4872-b372-089fa3a04914","ios":"levelo://app?vid=00b3c5d5-9ad5-4872-b372-089fa3a04914"},"vehicle_type_id":"4","last_reported":1759129885,"current_range_meters":17200,"station_id":"","pricing_plan_id":"cebpf4jnsgd1na2vs0mg"},{"bike_id":"56ca0258-bee9-4eb2-b3c5-63b5cd0b9e67","system_id":"levelo_inurba_marseille","lat":43.33737,"lon":5.37445,"is_reserved":false,"is_disabled":false,"rental_uris":{"android":"levelo://app?vid=56ca0258-bee9-4eb2-b3c5-63b5cd0b9e67","ios":"levelo://app?vid=56ca0258-bee9-4eb2-b3c5-63b5cd0b9e67"},"vehicle_type_id":"4","last_reported":1759129885,"current_range_meters":17200,"station_id":"","pricing_plan_id":"cebpf4jnsgd1na2vs0mg"},{"bike_id":"92662833-c6ac-4b02-b7df-1638b54b1972","system_id":"levelo_inurba_marseille","lat":43.33742,"lon":5.37449,"is_reserved":false,"is_disabled":false,"rental_uris":{"android":"levelo://app?vid=92662833-c6ac-4b02-b7df-1638b54b1972","ios":"levelo://app?vid=92662833-c6ac-4b02-b7df-1638b54b1972"},"vehicle_type_id":"4","last_reported":1759129885,"current_range_meters":17200,"station_id":"","pricing_plan_id":"cebpf4jnsgd1na2vs0mg"},{"bike_id":"f8d78e5f-60e1-4623-939f-49e76ff16505","system_id":"levelo_inurba_marseille","lat":43.33742,"lon":5.37448,"is_reserved":false,"is_disabled":false,"rental_uris":{"android":"levelo://app?vid=f8d78e5f-60e1-4623-939f-49e76ff16505","ios":"levelo://app?vid=f8d78e5f-60e1-4623-939f-49e76ff16505"},"vehicle_type_id":"4","last_reported":1759129885,"current_range_meters":17200,"station_id":"","pricing_plan_id":"cebpf4jnsgd1na2vs0mg"},{"bike_id":"c64842eb-0f04-44f0-ab7e-8a910d80de06","system_id":"levelo_inurba_marseille","lat":43.3089,"lon":5.36819,"is_reserved":false,"is_disabled":false,"rental_uris":{"android":"levelo://app?vid=c64842eb-0f04-44f0-ab7e-8a910d80de06","ios":"levelo://app?vid=c64842eb-0f04-44f0-ab7e-8a910d80de06"},"vehicle_type_id":"4","last_reported":1759129885,"current_range_meters":17600,"station_id":"ce4bgn92rcd13ifvqbvg","pricing_plan_id":"cebpf4jnsgd1na2vs0mg"},{"bike_id":"d48aecbf-fbb8-4a01-989e-943a70b920d5","system_id":"levelo_inurba_marseille","lat":43.31308,"lon":5.37067,"is_reserved":false,"is_disabled":false,"rental_uris":{"android":"levelo://app?vid=d48aecbf-fbb8-4a01-989e-943a70b920d5","ios":"levelo://app?vid=d48aecbf-fbb8-4a01-989e-943a70b920d5"},"vehicle_type_id":"4","last_reported":1759129885,"current_range_meters":17600,"station_id":"","pricing_plan_id":"cebpf4jnsgd1na2vs0mg"},{"bike_id":"35674f30-45d2-4192-a400-f0f8445d4437","system_id":"levelo_inurba_marseille","lat":43.31059,"lon":5.40088,"is_reserved":false,"is_disabled":false,"rental_uris":{"android":"levelo://app?vid=35674f30-45d2-4192-a400-f0f8445d4437","ios":"levelo://app?vid=35674f30-45d2-4192-a400-f0f8445d4437"},"vehicle_type_id":"4","last_reported":1759129885,"current_range_meters":17600,"station_id":"","pricing_plan_id":"cebpf4jnsgd1na2vs0mg"},{"bike_id":"96520869-d013-4e0c-a355-f7bbd728ba84","system_id":"levelo_inurba_marseille","lat":43.32326,"lon":5.3672,"is_reserved":false,"is_disabled":false,"rental_uris":{"android":"levelo://app?vid=96520869-d013-4e0c-a355-f7bbd728ba84","ios":"levelo://app?vid=96520869-d013-4e0c-a355-f7bbd728ba84"},"vehicle_type_id":"4","last_reported":1759129885,"current_range_meters":17600,"station_id":"ce4bhsh2rcd13ifvqi2g","pricing_plan_id":"cebpf4jnsgd1na2vs0mg"},{"bike_id":"463c595e-bacc-4795-bc47-ee32036bc33a","system_id":"levelo_inurba_marseille","lat":43.31343,"lon":5.36737,"is_reserved":false,"is_disabled":false,"rental_uris":{"android":"levelo://app?vid=463c595e-bacc-4795-bc47-ee32036bc33a","ios":"levelo://app?vid=463c595e-bacc-4795-bc47-ee32036bc33a"},"vehicle_type_id":"4","last_reported":1759129885,"current_range_meters":17600,"station_id":"ce4bgr92rcd13ifvqc6g","pricing_plan_id":"cebpf4jnsgd1na2vs0mg"},{"bike_id":"63ff7eff-b80f-40dc-9515-f371a5193d97","system_id":"levelo_inurba_marseille","lat":43.27204,"lon":5.39192,"is_reserved":false,"is_disabled":false,"rental_uris":{"android":"levelo://app?vid=63ff7eff-b80f-40dc-9515-f371a5193d97","ios":"levelo://app?vid=63ff7eff-b80f-40dc-9515-f371a5193d97"},"vehicle_type_id":"4","last_reported":1759129885,"current_range_meters":17600,"station_id":"ce4bhhp2rcd13ifvqfm0","pricing_plan_id":"cebpf4jnsgd1na2vs0mg"},{"bike_id":"a05bd468-c6b8-49b8-ade3-15e52e32f754","system_id":"levelo_inurba_marseille","lat":43.24087,"lon":5.37774,"is_reserved":false,"is_disabled":false,"rental_uris":{"android":"levelo://app?vid=a05bd468-c6b8-49b8-ade3-15e52e32f754","ios":"levelo://app?vid=a05bd468-c6b8-49b8-ade3-15e52e32f754"},"vehicle_type_id":"4","last_reported":1759129885,"current_range_meters":17600,"station_id":"ce4bhnp2rcd13ifvqgvg","pricing_plan_id":"cebpf4jnsgd1na2vs0mg"},{"bike_id":"09dc7070-767f-485c-8bab-bf9eefcad225","system_id":"levelo_inurba_marseille","lat":43.294503,"lon":5.380715,"is_reserved":false,"is_disabled":false,"rental_uris":{"android":"levelo://app?vid=09dc7070-767f-485c-8bab-bf9eefcad225","ios":"levelo://app?vid=09dc7070-767f-485c-8bab-bf9eefcad225"},"vehicle_type_id":"4","last_reported":1759129885,"current_range_meters":17600,"station_id":"","pricing_plan_id":"cebpf4jnsgd1na2vs0mg"},{"bike_id":"ce4a38be-4d1a-4a44-bf81-1e1600a6c6c1","system_id":"levelo_inurba_marseille","lat":43.30123,"lon":5.37416,"is_reserved":false,"is_disabled":false,"rental_uris":{"android":"levelo://app?vid=ce4a38be-4d1a-4a44-bf81-1e1600a6c6c1","ios":"levelo://app?vid=ce4a38be-4d1a-4a44-bf81-1e1600a6c6c1"},"vehicle_type_id":"4","last_reported":1759129885,"current_range_meters":17600,"station_id":"ce4bgs92rcd13ifvqcc0","pricing_plan_id":"cebpf4jnsgd1na2vs0mg"},{"bike_id":"5c3b4228-b227-402c-a874-06485013760e","system_id":"levelo_inurba_marseille","lat":43.2315,"lon":5.43714,"is_reserved":false,"is_disabled":false,"rental_uris":{"android":"levelo://app?vid=5c3b4228-b227-402c-a874-06485013760e","ios":"levelo://app?vid=5c3b4228-b227-402c-a874-06485013760e"},"vehicle_type_id":"4","last_reported":1759129885,"current_range_meters":17600,"station_id":"ce4bhmp2rcd13ifvqgog","pricing_plan_id":"cebpf4jnsgd1na2vs0mg"},{"bike_id":"824b8d72-4ade-46d0-9dc4-22d5c8d261b6","system_id":"levelo_inurba_marseille","lat":43.2957,"lon":5.37528,"is_reserved":false,"is_disabled":false,"rental_uris":{"android":"levelo://app?vid=824b8d72-4ade-46d0-9dc4-22d5c8d261b6","ios":"levelo://app?vid=824b8d72-4ade-46d0-9dc4-22d5c8d261b6"},"vehicle_type_id":"4","last_reported":1759129885,"current_range_meters":18000,"station_id":"ce4bgh92rcd13ifvqb50","pricing_plan_id":"cebpf4jnsgd1na2vs0mg"},{"bike_id":"74898dc7-8c2d-4900-a548-e66777267953","system_id":"levelo_inurba_marseille","lat":43.27565,"lon":5.35944,"is_reserved":false,"is_disabled":false,"rental_uris":{"android":"levelo://app?vid=74898dc7-8c2d-4900-a548-e66777267953","ios":"levelo://app?vid=74898dc7-8c2d-4900-a548-e66777267953"},"vehicle_type_id":"4","last_reported":1759129885,"current_range_meters":18000,"station_id":"","pricing_plan_id":"cebpf4jnsgd1na2vs0mg"},{"bike_id":"6ca7f74e-0578-429c-8d66-5e02da2e17f6","system_id":"levelo_inurba_marseille","lat":43.30915,"lon":5.37292,"is_reserved":false,"is_disabled":false,"rental_uris":{"android":"levelo://app?vid=6ca7f74e-0578-429c-8d66-5e02da2e17f6","ios":"levelo://app?vid=6ca7f74e-0578-429c-8d66-5e02da2e17f6"},"vehicle_type_id":"4","last_reported":1759129885,"current_range_meters":18000,"station_id":"","pricing_plan_id":"cebpf4jnsgd1na2vs0mg"},{"bike_id":"390603f2-cb07-47f6-95ec-4470ea8b591b","system_id":"levelo_inurba_marseille","lat":43.298892,"lon":5.43647,"is_reserved":false,"is_disabled":false,"rental_uris":{"android":"levelo://app?vid=390603f2-cb07-47f6-95ec-4470ea8b591b","ios":"levelo://app?vid=390603f2-cb07-47f6-95ec-4470ea8b591b"},"vehicle_type_id":"4","last_reported":1759129885,"current_range_meters":18000,"station_id":"ce4bhpp2rcd13ifvqhfg","pricing_plan_id":"cebpf4jnsgd1na2vs0mg"},{"bike_id":"d02d0c4f-ab0c-416c-9396-9d6dddea1350","system_id":"levelo_inurba_marseille","lat":43.27318,"lon":5.39117,"is_reserved":false,"is_disabled":true,"rental_uris":{"android":"levelo://app?vid=d02d0c4f-ab0c-416c-9396-9d6dddea1350","ios":"levelo://app?vid=d02d0c4f-ab0c-416c-9396-9d6dddea1350"},"vehicle_type_id":"4","last_reported":1759129885,"current_range_meters":18000,"station_id":"ce4bhgp2rcd13ifvqfe0","pricing_plan_id":"cebpf4jnsgd1na2vs0mg"},{"bike_id":"3c87e70f-a488-4f94-a655-af84b8d478bf","system_id":"levelo_inurba_marseille","lat":43.2846,"lon":5.35891,"is_reserved":false,"is_disabled":true,"rental_uris":{"android":"levelo://app?vid=3c87e70f-a488-4f94-a655-af84b8d478bf","ios":"levelo://app?vid=3c87e70f-a488-4f94-a655-af84b8d478bf"},"vehicle_type_id":"4","last_reported":1759129885,"current_range_meters":18000,"station_id":"","pricing_plan_id":"cebpf4jnsgd1na2vs0mg"},{"bike_id":"23060896-6333-463c-a762-0dd3fb9f3d7b","system_id":"levelo_inurba_marseille","lat":43.24084,"lon":5.37771,"is_reserved":false,"is_disabled":false,"rental_uris":{"android":"levelo://app?vid=23060896-6333-463c-a762-0dd3fb9f3d7b","ios":"levelo://app?vid=23060896-6333-463c-a762-0dd3fb9f3d7b"},"vehicle_type_id":"4","last_reported":1759129885,"current_range_meters":18000,"station_id":"ce4bhnp2rcd13ifvqgvg","pricing_plan_id":"cebpf4jnsgd1na2vs0mg"},{"bike_id":"f44df0c8-3c0a-4103-982e-900169d96e81","system_id":"levelo_inurba_marseille","lat":43.32099,"lon":5.368,"is_reserved":false,"is_disabled":false,"rental_uris":{"android":"levelo://app?vid=f44df0c8-3c0a-4103-982e-900169d96e81","ios":"levelo://app?vid=f44df0c8-3c0a-4103-982e-900169d96e81"},"vehicle_type_id":"4","last_reported":1759129885,"current_range_meters":18000,"station_id":"ce4bhrh2rcd13ifvqhug","pricing_plan_id":"cebpf4jnsgd1na2vs0mg"},{"bike_id":"899af826-7c5d-4a2b-b0fd-d061ab2a7573","system_id":"levelo_inurba_marseille","lat":43.25712,"lon":5.41096,"is_reserved":false,"is_disabled":false,"rental_uris":{"android":"levelo://app?vid=899af826-7c5d-4a2b-b0fd-d061ab2a7573","ios":"levelo://app?vid=899af826-7c5d-4a2b-b0fd-d061ab2a7573"},"vehicle_type_id":"4","last_reported":1759129885,"current_range_meters":18000,"station_id":"","pricing_plan_id":"cebpf4jnsgd1na2vs0mg"},{"bike_id":"13604148-437a-4148-9ed9-019ca4e03ec3","system_id":"levelo_inurba_marseille","lat":43.24613,"lon":5.43145,"is_reserved":false,"is_disabled":false,"rental_uris":{"android":"levelo://app?vid=13604148-437a-4148-9ed9-019ca4e03ec3","ios":"levelo://app?vid=13604148-437a-4148-9ed9-019ca4e03ec3"},"vehicle_type_id":"4","last_reported":1759129885,"current_range_meters":18000,"station_id":"st_d2m6c4gdas8pm72e190g","pricing_plan_id":"cebpf4jnsgd1na2vs0mg"},{"bike_id":"23489098-c3a5-47de-8d30-0ef4676ad9ce","system_id":"levelo_inurba_marseille","lat":43.27494,"lon":5.42451,"is_reserved":false,"is_disabled":false,"rental_uris":{"android":"levelo://app?vid=23489098-c3a5-47de-8d30-0ef4676ad9ce","ios":"levelo://app?vid=23489098-c3a5-47de-8d30-0ef4676ad9ce"},"vehicle_type_id":"4","last_reported":1759129885,"current_range_meters":18000,"station_id":"ce4bhn92rcd13ifvqgrg","pricing_plan_id":"cebpf4jnsgd1na2vs0mg"},