{"last_updated":1784307487,"ttl":60,"version":"2.2","data":{"bikes":[{"bike_id":"ba0c28b1-8732-48e2-8079-f25b2b3fbc3c","system_id":"levelo_inurba_marseille","lat":43.337444,"lon":5.374475,"is_reserved":false,"is_disabled":false,"rental_uris":{"android":"levelo://app?vid=ba0c28b1-8732-48e2-8079-f25b2b3fbc3c","ios":"levelo://app?vid=ba0c28b1-8732-48e2-8079-f25b2b3fbc3c"},"vehicle_type_id":"4","last_reported":1784307488,"current_range_meters":0,"station_id":"","pricing_plan_id":"cebpf4jnsgd1na2vs0mg"},{"bike_id":"c3dc1f36-124b-43b3-bbd8-29c118b5de98","system_id":"levelo_inurba_marseille","lat":43.29489,"lon":5.43304,"is_reserved":false,"is_disabled":false,"rental_uris":{"android":"levelo://app?vid=c3dc1f36-124b-43b3-bbd8-29c118b5de98","ios":"levelo://app?vid=c3dc1f36-124b-43b3-bbd8-29c118b5de98"},"vehicle_type_id":"4","last_reported":1784307488,"current_range_meters":34800,"station_id":"st_d3j5ugp08ojc73fj9d10","pricing_plan_id":"cebpf4jnsgd1na2vs0mg"},{"bike_id":"749180df-0699-4b84-93ea-465b841d8c35","system_id":"levelo_inurba_marseille","lat":43.24627,"lon":5.43146,"is_reserved":false,"is_disabled":false,"rental_uris":{"android":"levelo://app?vid=749180df-0699-4b84-93ea-465b841d8c35","ios":"levelo://app?vid=749180df-0699-4b84-93ea-465b841d8c35"},"vehicle_type_id":"4","last_reported":1784307488,"current_range_meters":24400,"station_id":"st_d2m6c4gdas8pm72e190g","pricing_plan_id":"cebpf4jnsgd1na2vs0mg"},{"bike_id":"63dc20ac-90f4-4eae-ac6c-d24ae13a7929","system_id":"levelo_inurba_marseille","lat":43.25343,"lon":5.42167,"is_reserved":false,"is_disabled":false,"rental_uris":{"android":"levelo://app?vid=63dc20ac-90f4-4eae-ac6c-d24ae13a7929","ios":"levelo://app?vid=63dc20ac-90f4-4eae-ac6c-d24ae13a7929"},"vehicle_type_id":"4","last_reported":1784307488,"current_range_meters":36000,"station_id":"st_d2m65c5bi1j21697t3ng","pricing_plan_id":"cebpf4jnsgd1na2vs0mg"},{"bike_id":"e648e2a2-5326-48b6-ba40-1e3856de6d9c","system_id":"levelo_inurba_marseille","lat":43.21196,"lon":5.35064,"is_reserved":false,"is_disabled":false,"rental_uris":{"android":"levelo://app?vid=e648e2a2-5326-48b6-ba40-1e3856de6d9c","ios":"levelo://app?vid=e648e2a2-5326-48b6-ba40-1e3856de6d9c"},"vehicle_type_id":"4","last_reported":1784307488,"current_range_meters":27200,"station_id":"st_cvj6sg6p6f1abm77japg","pricing_plan_id":"cebpf4jnsgd1na2vs0mg"},{"bike_id":"76b63993-96f7-484a-8343-5ea3ca2d69bf","system_id":"levelo_inurba_marseille","lat":43.27452,"lon":5.36133,"is_reserved":false,"is_disabled":false,"rental_uris":{"android":"levelo://app?vid=76b63993-96f7-484a-8343-5ea3ca2d69bf","ios":"levelo://app?vid=76b63993-96f7-484a-8343-5ea3ca2d69bf"},"vehicle_type_id":"4","last_reported":1784307488,"current_range_meters":28800,"station_id":"","pricing_plan_id":"cebpf4jnsgd1na2vs0mg"},{"bike_id":"382bb15b-49be-4b4d-a782-042762a0883b","system_id":"levelo_inurba_marseille","lat":43.26386,"lon":5.41066,"is_reserved":false,"is_disabled":false,"rental_uris":{"android":"levelo://app?vid=382bb15b-49be-4b4d-a782-042762a0883b","ios":"levelo://app?vid=382bb15b-49be-4b4d-a782-042762a0883b"},"vehicle_type_id":"4","last_reported":1784307488,"current_range_meters":6800,"station_id":"st_d4e5ca6na9uc73bfl5fg","pricing_plan_id":"cebpf4jnsgd1na2vs0mg"},{"bike_id":"45b7c6a1-4fc8-420d-85b0-9955eeb3ace9","system_id":"levelo_inurba_marseille","lat":43.21758,"lon":5.34608,"is_reserved":false,"is_disabled":false,"rental_uris":{"android":"levelo://app?vid=45b7c6a1-4fc8-420d-85b0-9955eeb3ace9","ios":"levelo://app?vid=45b7c6a1-4fc8-420d-85b0-9955eeb3ace9"},"vehicle_type_id":"4","last_reported":1784307488,"current_range_meters":2800,"station_id":"st_cvj6r9ubvosntc0bgbag","pricing_plan_id":"cebpf4jnsgd1na2vs0mg"},{"bike_id":"c280c2e8-e90a-4cb2-ba33-ff355328b51f","system_id":"levelo_inurba_marseille","lat":43.23201,"lon":5.39987,"is_reserved":false,"is_disabled":false,"rental_uris":{"android":"levelo://app?vid=c280c2e8-e90a-4cb2-ba33-ff355328b51f","ios":"levelo://app?vid=c280c2e8-e90a-4cb2-ba33-ff355328b51f"},"vehicle_type_id":"4","last_reported":1784307488,"current_range_meters":16400,"station_id":"ce4bhn12rcd13ifvqgqg","pricing_plan_id":"cebpf4jnsgd1na2vs0mg"},{"bike_id":"db8bd5d3-bb99-4688-8de3-0b156a227ffe","system_id":"levelo_inurba_marseille","lat":43.29931,"lon":5.37479,"is_reserved":false,"is_disabled":true,"rental_uris":{"android":"levelo://app?vid=db8bd5d3-bb99-4688-8de3-0b156a227ffe","ios":"levelo://app?vid=db8bd5d3-bb99-4688-8de3-0b156a227ffe"},"vehicle_type_id":"4","last_reported":1784307488,"current_range_meters":10000,"station_id":"ce4bgjh2rcd13ifvqbg0","pricing_plan_id":"cebpf4jnsgd1na2vs0mg"},{"bike_id":"5be6349b-130c-4a8a-85e7-6ae7e5f0f4af","system_id":"levelo_inurba_marseille","lat":43.23258,"lon":5.40008,"is_reserved":false,"is_disabled":false,"rental_uris":{"android":"levelo://app?vid=5be6349b-130c-4a8a-85e7-6ae7e5f0f4af","ios":"levelo://app?vid=5be6349b-130c-4a8a-85e7-6ae7e5f0f4af"},"vehicle_type_id":"4","last_reported":1784307488,"current_range_meters":14400,"station_id":"","pricing_plan_id":"cebpf4jnsgd1na2vs0mg"},{"bike_id":"96849611-00d5-4884-b0dc-e03df79fa9c3","system_id":"levelo_inurba_marseille","lat":43.24378,"lon":5.3702,"is_reserved":false,"is_disabled":false,"rental_uris":{"android":"levelo://app?vid=96849611-00d5-4884-b0dc-e03df79fa9c3","ios":"levelo://app?vid=96849611-00d5-4884-b0dc-e03df79fa9c3"},"vehicle_type_id":"4","last_reported":1784307488,"current_range_meters":14000,"station_id":"ce4bhhh2rcd13ifvqfk0","pricing_plan_id":"cebpf4jnsgd1na2vs0mg"},{"bike_id":"e71494cd-d4a8-436a-a5c6-260a2924500e","system_id":"levelo_inurba_marseille","lat":43.26219,"lon":5.38777,"is_reserved":false,"is_disabled":true,"rental_uris":{"android":"levelo://app?vid=e71494cd-d4a8-436a-a5c6-260a2924500e","ios":"levelo://app?vid=e71494cd-d4a8-436a-a5c6-260a2924500e"},"vehicle_type_id":"4","last_reported":1784307488,"current_range_meters":30400,"station_id":"st_d8gjfg747rts73coq3b0","pricing_plan_id":"cebpf4jnsgd1na2vs0mg"},{"bike_id":"4dd83e35-73dd-44b8-9d3c-9c21e3418d4e","system_id":"levelo_inurba_marseille","lat":43.27486,"lon":5.42498,"is_reserved":false,"is_disabled":false,"rental_uris":{"android":"levelo://app?vid=4dd83e35-73dd-44b8-9d3c-9c21e3418d4e","ios":"levelo://app?vid=4dd83e35-73dd-44b8-9d3c-9c21e3418d4e"},"vehicle_type_id":"4","last_reported":1784307488,"current_range_meters":15200,"station_id":"st_d8t4bh7nbrqs73arha60","pricing_plan_id":"cebpf4jnsgd1na2vs0mg"},{"bike_id":"0bae1387-dbc4-4fe8-af80-0faa0716d47d","system_id":"levelo_inurba_marseille","lat":43.23968,"lon":5.36629,"is_reserved":false,"is_disabled":false,"rental_uris":{"android":"levelo://app?vid=0bae1387-dbc4-4fe8-af80-0faa0716d47d","ios":"levelo://app?vid=0bae1387-dbc4-4fe8-af80-0faa0716d47d"},"vehicle_type_id":"4","last_reported":1784307488,"current_range_meters":32800,"station_id":"ce4bhi12rcd13ifvqfp0","pricing_plan_id":"cebpf4jnsgd1na2vs0mg"},{"bike_id":"6666b766-2ccd-467a-ad53-5ec31fb4dec4","system_id":"levelo_inurba_marseille","lat":43.24807,"lon":5.37442,"is_reserved":false,"is_disabled":false,"rental_uris":{"android":"levelo://app?vid=6666b766-2ccd-467a-ad53-5ec31fb4dec4","ios":"levelo://app?vid=6666b766-2ccd-467a-ad53-5ec31fb4dec4"},"vehicle_type_id":"4","last_reported":1784307488,"current_range_meters":38000,"station_id":"ce4bhgh2rcd13ifvqfb0","pricing_plan_id":"cebpf4jnsgd1na2vs0mg"},{"bike_id":"5369b032-dcc5-484a-9b18-671fceb20e9f","system_id":"levelo_inurba_marseille","lat":43.25016,"lon":5.38929,"is_reserved":false,"is_disabled":false,"rental_uris":{"android":"levelo://app?vid=5369b032-dcc5-484a-9b18-671fceb20e9f","ios":"levelo://app?vid=5369b032-dcc5-484a-9b18-671fceb20e9f"},"vehicle_type_id":"4","last_reported":1784307488,"current_range_meters":20400,"station_id":"ce4bhgp2rcd13ifvqfd0","pricing_plan_id":"cebpf4jnsgd1na2vs0mg"},{"bike_id":"200f4f53-1f05-4ea8-b454-9152f34b39c3","system_id":"levelo_inurba_marseille","lat":43.2862,"lon":5.35106,"is_reserved":false,"is_disabled":false,"rental_uris":{"android":"levelo://app?vid=200f4f53-1f05-4ea8-b454-9152f34b39c3","ios":"levelo://app?vid=200f4f53-1f05-4ea8-b454-9152f34b39c3"},"vehicle_type_id":"4","last_reported":1784307488,"current_range_meters":11600,"station_id":"ce4bhch2rcd13ifvqeug","pricing_plan_id":"cebpf4jnsgd1na2vs0mg"},{"bike_id":"daf11da9-09e4-45d4-814b-e16971bc59a4","system_id":"levelo_inurba_marseille","lat":43.27965,"lon":5.3871,"is_reserved":false,"is_disabled":true,"rental_uris":{"android":"levelo://app?vid=daf11da9-09e4-45d4-814b-e16971bc59a4","ios":"levelo://app?vid=daf11da9-09e4-45d4-814b-e16971bc59a4"},"vehicle_type_id":"4","last_reported":1784307488,"current_range_meters":24000,"station_id":"ce4bhg12rcd13ifvqf80","pricing_plan_id":"cebpf4jnsgd1na2vs0mg"},{"bike_id":"acc1f62a-bcba-48db-87e6-f9904a68c9cf","system_id":"levelo_inurba_marseille","lat":43.29749,"lon":5.37701,"is_reserved":false,"is_disabled":true,"rental_uris":{"android":"levelo://app?vid=acc1f62a-bcba-48db-87e6-f9904a68c9cf","ios":"levelo://app?vid=acc1f62a-bcba-48db-87e6-f9904a68c9cf"},"vehicle_type_id":"4","last_reported":1784307488,"current_range_meters":4800,"station_id":"ce4bgkh2rcd13ifvqbl0","pricing_plan_id":"cebpf4jnsgd1na2vs0mg"},{"bike_id":"2e713f5f-0d30-4049-b21c-bfce54a23bd5","system_id":"levelo_inurba_marseille","lat":43.23907,"lon":5.37458,"is_reserved":false,"is_disabled":true,"rental_uris":{"android":"levelo://app?vid=2e713f5f-0d30-4049-b21c-bfce54a23bd5","ios":"levelo://app?vid=2e713f5f-0d30-4049-b21c-bfce54a23bd5"},"vehicle_type_id":"4","last_reported":1784307488,"current_range_meters":34800,"station_id":"st_d6sm7csbq4hs73f8fpjg","pricing_plan_id":"cebpf4jnsgd1na2vs0mg"},{"bike_id":"c180bc57-12f5-435a-8219-0c0ef26aa8c0","system_id":"levelo_inurba_marseille","lat":43.22532,"lon":5.34832,"is_reserved":false,"is_disabled":false,"rental_uris":{"android":"levelo://app?vid=c180bc57-12f5-435a-8219-0c0ef26aa8c0","ios":"levelo://app?vid=c180bc57-12f5-435a-8219-0c0ef26aa8c0"},"vehicle_type_id":"4","last_reported":1784307488,"current_range_meters":35600,"station_id":"st_cvj5dfep6f1abm77gieg","pricing_plan_id":"cebpf4jnsgd1na2vs0mg"},{"bike_id":"32c95016-82d3-4943-8193-1a98c4bf18c7","system_id":"levelo_inurba_marseille","lat":43.281,"lon":5.35643,"is_reserved":false,"is_disabled":false,"rental_uris":{"android":"levelo://app?vid=32c95016-82d3-4943-8193-1a98c4bf18c7","ios":"levelo://app?vid=32c95016-82d3-4943-8193-1a98c4bf18c7"},"vehicle_type_id":"4","last_reported":1784307488,"current_range_meters":12000,"station_id":"","pricing_plan_id":"cebpf4jnsgd1na2vs0mg"},{"bike_id":"e4064152-b01a-460a-934b-4b0ab157c51c","system_id":"levelo_inurba_marseille","lat":43.23066,"lon":5.35493,"is_reserved":false,"is_disabled":false,"rental_uris":{"android":"levelo://app?vid=e4064152-b01a-460a-934b-4b0ab157c51c","ios":"levelo://app?vid=e4064152-b01a-460a-934b-4b0ab157c51c"},"vehicle_type_id":"4","last_reported":1784307488,"current_range_meters":8800,"station_id":"cpo3342slgdg3j2ifvpg","pricing_plan_id":"cebpf4jnsgd1na2vs0mg"},{"bike_id":"4d103531-dc76-4632-9ed6-3b8eae789ecc","system_id":"levelo_inurba_marseille","lat":43.32102,"lon":5.36776,"is_reserved":false,"is_disabled":true,"rental_uris":{"android":"levelo://app?vid=4d103531-dc76-4632-9ed6-3b8eae789ecc","ios":"levelo://app?vid=4d103531-dc76-4632-9ed6-3b8eae789ecc"},"vehicle_type_id":"4","last_reported":1784307488,"current_range_meters":11200,"station_id":"ce4bhrh2rcd13ifvqhug","pricing_plan_id":"cebpf4jnsgd1na2vs0mg"},{"bike_id":"ef6880d0-6944-4f6a-8f40-6662368b8f75","system_id":"levelo_inurba_marseille","lat":43.31453,"lon":5.45409,"is_reserved":false,"is_disabled":false,"rental_uris":{"android":"levelo://app?vid=ef6880d0-6944-4f6a-8f40-6662368b8f75","ios":"levelo://app?vid=ef6880d0-6944-4f6a-8f40-6662368b8f75"},"vehicle_type_id":"4","last_reported":1784307488,"current_range_meters":14000,"station_id":"","pricing_plan_id":"cebpf4jnsgd1na2vs0mg"},{"bike_id":"667676d4-22f9-4a66-84e0-aff32a05b8da","system_id":"levelo_inurba_marseille","lat":43.24173,"lon":5.39749,"is_reserved":false,"is_disabled":false,"rental_uris":{"android":"levelo://app?vid=667676d4-22f9-4a66-84e0-aff32a05b8da","ios":"levelo://app?vid=667676d4-22f9-4a66-84e0-aff32a05b8da"},"vehicle_type_id":"4","last_reported":1784307488,"current_range_meters":24000,"station_id":"ce4bhn12rcd13ifvqgpg","pricing_plan_id":"cebpf4jnsgd1na2vs0mg"},{"bike_id":"ac73781c-7964-453a-82c7-5e417be13435","system_id":"levelo_inurba_marseille","lat":43.28614,"lon":5.37045,"is_reserved":false,"is_disabled":false,"rental_uris":{"android":"levelo://app?vid=ac73781c-7964-453a-82c7-5e417be13435","ios":"levelo://app?vid=ac73781c-7964-453a-82c7-5e417be13435"},"vehicle_type_id":"4","last_reported":1784307488,"current_range_meters":37600,"station_id":"ce4bht12rcd13ifvqi60","pricing_plan_id":"cebpf4jnsgd1na2vs0mg"},{"bike_id":"298a4738-d5ad-4b5a-a534-8cdc1028045e","system_id":"levelo_inurba_marseille","lat":43.31754,"lon":5.3901,"is_reserved":false,"is_disabled":false,"rental_uris":{"android":"levelo://app?vid=298a4738-d5ad-4b5a-a534-8cdc1028045e","ios":"levelo://app?vid=298a4738-d5ad-4b5a-a534-8cdc1028045e"},"vehicle_type_id":"4","last_reported":1784307488,"current_range_meters":8800,"station_id":"ce4bhqp2rcd13ifvqhng","pricing_plan_id":"cebpf4jnsgd1na2vs0mg"},{"bike_id":"864a38e5-18ed-497d-8a1d-3e425de9f388","system_id":"levelo_inurba_marseille","lat":43.31273,"lon":5.36871,"is_reserved":false,"is_disabled":false,"rental_uris":{"android":"levelo://app?vid=864a38e5-18ed-497d-8a1d-3e425de9f388","ios":"levelo://app?vid=864a38e5-18ed-497d-8a1d-3e425de9f388"},"vehicle_type_id":"4","last_reported":1784307488,"current_range_meters":37600,"station_id":"","pricing_plan_id":"cebpf4jnsgd1na2vs0mg"},{"bike_id":"69aa3890-8355-4668-9d7c-2b996f0dde78","system_id":"levelo_inurba_marseille","lat":43.29759,"lon":5.42754,"is_reserved":false,"is_disabled":false,"rental_uris":{"android":"levelo://app?vid=69aa3890-8355-4668-9d7c-2b996f0dde78","ios":"levelo://app?vid=69aa3890-8355-4668-9d7c-2b996f0dde78"},"vehicle_type_id":"4","last_reported":1784307488,"current_range_meters":6000,"station_id":"st_d3md5207bmas73dh9klg","pricing_plan_id":"cebpf4jnsgd1na2vs0mg"},{"bike_id":"d183c213-4177-4bf2-b9e0-24872be8a9c8","system_id":"levelo_inurba_marseille","lat":43.28486,"lon":5.48386,"is_reserved":false,"is_disabled":false,"rental_uris":{"android":"levelo://app?vid=d183c213-4177-4bf2-b9e0-24872be8a9c8","ios":"levelo://app?vid=d183c213-4177-4bf2-b9e0-24872be8a9c8"},"vehicle_type_id":"4","last_reported":1784307488,"current_range_meters":19600,"station_id":"st_d3svhcjqgbts73a3dn0g","pricing_plan_id":"cebpf4jnsgd1na2vs0mg"},{"bike_id":"326601ab-588c-4529-a231-cb0c420feb56","system_id":"levelo_inurba_marseille","lat":43.26372,"lon":5.41084,"is_reserved":false,"is_disabled":false,"rental_uris":{"android":"levelo://app?vid=326601ab-588c-4529-a231-cb0c420feb56","ios":"levelo://app?vid=326601ab-588c-4529-a231-cb0c420feb56"},"vehicle_type_id":"4","last_reported":1784307488,"current_range_meters":39200,"station_id":"st_d4e5ca6na9uc73bfl5fg","pricing_plan_id":"cebpf4jnsgd1na2vs0mg"},{"bike_id":"930a26e6-38b4-4fff-a16a-2d1b93308d5b","system_id":"levelo_inurba_marseille","lat":43.28693,"lon":5.37378,"is_reserved":false,"is_disabled":true,"rental_uris":{"android":"levelo://app?vid=930a26e6-38b4-4fff-a16a-2d1b93308d5b","ios":"levelo://app?vid=930a26e6-38b4-4fff-a16a-2d1b93308d5b"},"vehicle_type_id":"4","last_reported":1784307488,"current_range_meters":6400,"station_id":"ce4bh3p2rcd13ifvqdq0","pricing_plan_id":"cebpf4jnsgd1na2vs0mg"},{"bike_id":"beadfff1-d4e7-48d1-b1f8-574ebf66fa36","system_id":"levelo_inurba_marseille","lat":43.27319,"lon":5.39095,"is_reserved":false,"is_disabled":true,"rental_uris":{"android":"levelo://app?vid=beadfff1-d4e7-48d1-b1f8-574ebf66fa36","ios":"levelo://app?vid=beadfff1-d4e7-48d1-b1f8-574ebf66fa36"},"vehicle_type_id":"4","last_reported":1784307488,"current_range_meters":2000,"station_id":"ce4bhgp2rcd13ifvqfe0","pricing_plan_id":"cebpf4jnsgd1na2vs0mg"},{"bike_id":"e0c7065e-7f74-4b06-ae7b-f933c635df87","system_id":"levelo_inurba_marseille","lat":43.29547,"lon":5.42272,"is_reserved":false,"is_disabled":false,"rental_uris":{"android":"levelo://app?vid=e0c7065e-7f74-4b06-ae7b-f933c635df87","ios":"levelo://app?vid=e0c7065e-7f74-4b06-ae7b-f933c635df87"},"vehicle_type_id":"4","last_reported":1784307488,"current_range_meters":38800,"station_id":"ce4bhph2rcd13ifvqhdg","pricing_plan_id":"cebpf4jnsgd1na2vs0mg"},{"bike_id":"3d9d15ce-5804-4209-b92a-723f598d0341","system_id":"levelo_inurba_marseille","lat":43.212,"lon":5.35081,"is_reserved":false,"is_disabled":false,"rental_uris":{"android":"levelo://app?vid=3d9d15ce-5804-4209-b92a-723f598d0341","ios":"levelo://app?vid=3d9d15ce-5804-4209-b92a-723f598d0341"},"vehicle_type_id":"4","last_reported":1784307488,"current_range_meters":12000,"station_id":"st_cvj6sg6p6f1abm77japg","pricing_plan_id":"cebpf4jnsgd1na2vs0mg"},{"bike_id":"b25f7a4a-4973-4ba2-b0b3-582620aa79b3","system_id":"levelo_inurba_marseille","lat":43.29205,"lon":5.35806,"is_reserved":false,"is_disabled":false,"rental_uris":{"android":"levelo://app?vid=b25f7a4a-4973-4ba2-b0b3-582620aa79b3","ios":"levelo://app?vid=b25f7a4a-4973-4ba2-b0b3-582620aa79b3"},"vehicle_type_id":"4","last_reported":1784307488,"current_range_meters":34000,"station_id":"ce4bhb12rcd13ifvqel0","pricing_plan_id":"cebpf4jnsgd1na2vs0mg"},{"bike_id":"700689bb-703b-455a-a751-9c1e7f35a526","system_id":"levelo_inurba_marseille","lat":43.31043,"lon":5.39372,"is_reserved":false,"is_disabled":false,"rental_uris":{"android":"levelo://app?vid=700689bb-703b-455a-a751-9c1e7f35a526","ios":"levelo://app?vid=700689bb-703b-455a-a751-9c1e7f35a526"},"vehicle_type_id":"4","last_reported":1784307488,"current_range_meters":13600,"station_id":"","pricing_plan_id":"cebpf4jnsgd1na2vs0mg"},{"bike_id":"5bd2b55a-9d28-4f66-97a3-b68bd0f0bcb4","system_id":"levelo_inurba_marseille","lat":43.2978,"lon":5.38098,"is_reserved":false,"is_disabled":false,"rental_uris":{"android":"levelo://app?vid=5bd2b55a-9d28-4f66-97a3-b68bd0f0bcb4","ios":"levelo://app?vid=5bd2b55a-9d28-4f66-97a3-b68bd0f0bcb4"},"vehicle_type_id":"4","last_reported":1784307488,"current_range_meters":39200,"station_id":"ce4bgip2rcd13ifvqbb0","pricing_plan_id":"cebpf4jnsgd1na2vs0mg"},{"bike_id":"e1bb6861-ee59-438c-aa2a-2a553b2d6f43","system_id":"levelo_inurba_marseille","lat":43.27209,"lon":5.40998,"is_reserved":false,"is_disabled":true,"rental_uris":{"android":"levelo://app?vid=e1bb6861-ee59-438c-aa2a-2a553b2d6f43","ios":"levelo://app?vid=e1bb6861-ee59-438c-aa2a-2a553b2d6f43"},"vehicle_type_id":"4","last_reported":1784307488,"current_range_meters":33600,"station_id":"ce4bhl12rcd13ifvqgf0","pricing_plan_id":"cebpf4jnsgd1na2vs0mg"},{"bike_id":"c2e7fe27-d2b0-440e-b62d-ead50feed951","system_id":"levelo_inurba_marseille","lat":43.29545,"lon":5.43367,"is_reserved":false,"is_disabled":false,"rental_uris":{"android":"levelo://app?vid=c2e7fe27-d2b0-440e-b62d-ead50feed951","ios":"levelo://app?vid=c2e7fe27-d2b0-440e-b62d-ead50feed951"},"vehicle_type_id":"4","last_reported":1784307488,"current_range_meters":10800,"station_id":"","pricing_plan_id":"cebpf4jnsgd1na2vs0mg"},{"bike_id":"cd8636bf-4678-4336-a11c-b12b2f9a64d1","system_id":"levelo_inurba_marseille","lat":43.24467,"lon":5.42538,"is_reserved":false,"is_disabled":false,"rental_uris":{"android":"levelo://app?vid=cd8636bf-4678-4336-a11c-b12b2f9a64d1","ios":"levelo://app?vid=cd8636bf-4678-4336-a11c-b12b2f9a64d1"},"vehicle_type_id":"4","last_reported":1784307488,"current_range_meters":6800,"station_id":"st_d4a3vfp97mjs738cd8kg","pricing_plan_id":"cebpf4jnsgd1na2vs0mg"},{"bike_id":"0ae853c8-bb24-46ff-ab9e-13215f931e87","system_id":"levelo_inurba_marseille","lat":43.28632,"lon":5.35095,"is_reserved":false,"is_disabled":false,"rental_uris":{"android":"levelo://app?vid=0ae853c8-bb24-46ff-ab9e-13215f931e87","ios":"levelo://app?vid=0ae853c8-bb24-46ff-ab9e-13215f931e87"},"vehicle_type_id":"4","last_reported":1784307488,"current_range_meters":39200,"station_id":"ce4bhch2rcd13ifvqeug","pricing_plan_id":"cebpf4jnsgd1na2vs0mg"},{"bike_id":"2623e023-e953-40ac-8068-15d2169ca99d","system_id":"levelo_inurba_marseille","lat":43.28686,"lon":5.46673,"is_reserved":false,"is_disabled":false,"rental_uris":{"android":"levelo://app?vid=2623e023-e953-40ac-8068-15d2169ca99d","ios":"levelo://app?vid=2623e023-e953-40ac-8068-15d2169ca99d"},"vehicle_type_id":"4","last_reported":1784307488,"current_range_meters":5600,"station_id":"st_d6tc3vkotcvc738tfjhg","pricing_plan_id":"cebpf4jnsgd1na2vs0mg"},{"bike_id":"9d27f3aa-b353-4a7a-a0fa-132f296bb47c","system_id":"levelo_inurba_marseille","lat":43.21745,"lon":5.34601,"is_reserved":false,"is_disabled":false,"rental_uris":{"android":"levelo://app?vid=9d27f3aa-b353-4a7a-a0fa-132f296bb47c","ios":"levelo://app?vid=9d27f3aa-b353-4a7a-a0fa-132f296bb47c"},"vehicle_type_id":"4","last_reported":1784307488,"current_range_meters":15200,"station_id":"st_cvj6r9ubvosntc0bgbag","pricing_plan_id":"cebpf4jnsgd1na2vs0mg"},{"bike_id":"fbe27f70-0ca9-4c1c-ace5-95ee57c2faa1","system_id":"levelo_inurba_marseille","lat":43.28994,"lon":5.35604,"is_reserved":false,"is_disabled":true,"rental_uris":{"android":"levelo://app?vid=fbe27f70-0ca9-4c1c-ace5-95ee57c2faa1","ios":"levelo://app?vid=fbe27f70-0ca9-4c1c-ace5-95ee57c2faa1"},"vehicle_type_id":"4","last_reported":1784307488,"current_range_meters":400,"station_id":"ce4bhb92rcd13ifvqen0","pricing_plan_id":"cebpf4jnsgd1na2vs0mg"},{"bike_id":"94f36e25-dd9a-4854-80d4-688c3f5d241c","system_id":"levelo_inurba_marseille","lat":43.2848,"lon":5.38404,"is_reserved":false,"is_disabled":false,"rental_uris":{"android":"levelo://app?vid=94f36e25-dd9a-4854-80d4-688c3f5d241c","ios":"levelo://app?vid=94f36e25-dd9a-4854-80d4-688c3f5d241c"},"vehicle_type_id":"4","last_reported":1784307488,"current_range_meters":4000,"station_id":"ce4bh512rcd13ifvqe3g","pricing_plan_id":"cebpf4jnsgd1na2vs0mg"},{"bike_id":"b866f934-72c7-420c-9403-123aef002cac","system_id":"levelo_inurba_marseille","lat":43.29276,"lon":5.36838,"is_reserved":false,"is_disabled":false,"rental_uris":{"android":"levelo://app?vid=b866f934-72c7-420c-9403-123aef002cac","ios":"levelo://app?vid=b866f934-72c7-420c-9403-123aef002cac"},"vehicle_type_id":"4","last_reported":1784307488,"current_range_meters":11200,"station_id":"","pricing_plan_id":"cebpf4jnsgd1na2vs0mg"},{"bike_id":"530d5b81-1545-4b49-8624-2c00cc3d9834","system_id":"levelo_inurba_marseille","lat":43.25328,"lon":5.42165,"is_reserved":false,"is_disabled":false,"rental_uris":{"android":"levelo://app?vid=530d5b81-1545-4b49-8624-2c00cc3d9834","ios":"levelo://app?vid=530d5b81-1545-4b49-8624-2c00cc3d9834"},"vehicle_type_id":"4","last_reported":1784307488,"current_range_meters":16400,"station_id":"st_d2m65c5bi1j21697t3ng","pricing_plan_id":"cebpf4jnsgd1na2vs0mg"},{"bike_id":"863d0357-9100-4091-8be6-61d932e4e898","system_id":"levelo_inurba_marseille","lat":43.33744,"lon":5.37439,"is_reserved":false,"is_disabled":false,"rental_uris":{"android":"levelo://app?vid=863d0357-9100-4091-8be6-61d932e4e898","ios":"levelo://app?vid=863d0357-9100-4091-8be6-61d932e4e898"},"vehicle_type_id":"4","last_reported":1784307488,"current_range_meters":38800,"station_id":"","pricing_plan_id":"cebpf4jnsgd1na2vs0mg"},{"bike_id":"9d5ec48f-7fae-4865-9a1e-07159a6ca246","system_id":"levelo_inurba_marseille","lat":43.28011,"lon":5.38203,"is_reserved":false,"is_disabled":false,"rental_uris":{"android":"levelo://app?vid=9d5ec48f-7fae-4865-9a1e-07159a6ca246","ios":"levelo://app?vid=9d5ec48f-7fae-4865-9a1e-07159a6ca246"},"vehicle_type_id":"4","last_reported":1784307488,"current_range_meters":26800,"station_id":"","pricing_plan_id":"cebpf4jnsgd1na2vs0mg"},{"bike_id":"6b169cbe-5917-4018-be29-d425269d3d76","system_id":"levelo_inurba_marseille","lat":43.25874,"lon":5.39907,"is_reserved":false,"is_disabled":false,"rental_uris":{"android":"levelo://app?vid=6b169cbe-5917-4018-be29-d425269d3d76","ios":"levelo://app?vid=6b169cbe-5917-4018-be29-d425269d3d76"},"vehicle_type_id":"4","last_reported":1784307488,"current_range_meters":38400,"station_id":"ce4bhl92rcd13ifvqghg","pricing_plan_id":"cebpf4jnsgd1na2vs0mg"},{"bike_id":"87982f0d-6988-4043-a941-42ff831cd8b3","system_id":"levelo_inurba_marseille","lat":43.28623,"lon":5.35092,"is_reserved":false,"is_disabled":false,"rental_uris":{"android":"levelo://app?vid=87982f0d-6988-4043-a941-42ff831cd8b3","ios":"levelo://app?vid=87982f0d-6988-4043-a941-42ff831cd8b3"},"vehicle_type_id":"4","last_reported":1784307488,"current_range_meters":39200,"station_id":"ce4bhch2rcd13ifvqeug","pricing_plan_id":"cebpf4jnsgd1na2vs0mg"},{"bike_id":"0df42189-73d4-41a0-9d70-596fd6d775ee","system_id":"levelo_inurba_marseille","lat":43.28162,"lon":5.4264,"is_reserved":false,"is_disabled":false,"rental_uris":{"android":"levelo://app?vid=0df42189-73d4-41a0-9d70-596fd6d775ee","ios":"levelo://app?vid=0df42189-73d4-41a0-9d70-596fd6d775ee"},"vehicle_type_id":"4","last_reported":1784307488,"current_range_meters":31200,"station_id":"ce4bhnh2rcd13ifvqgug","pricing_plan_id":"cebpf4jnsgd1na2vs0mg"},{"bike_id":"d67227e9-c5e5-4bb3-9809-41d691c3977e","system_id":"levelo_inurba_marseille","lat":43.32486,"lon":5.36568,"is_reserved":false,"is_disabled":false,"rental_uris":{"android":"levelo://app?vid=d67227e9-c5e5-4bb3-9809-41d691c3977e","ios":"levelo://app?vid=d67227e9-c5e5-4bb3-9809-41d691c3977e"},"vehicle_type_id":"4","last_reported":1784307488,"current_range_meters":29600,"station_id":"ce4bhs12rcd13ifvqhvg","pricing_plan_id":"cebpf4jnsgd1na2vs0mg"},{"bike_id":"8ba7f2d6-52d3-4c56-b19a-19a142e62779","system_id":"levelo_inurba_marseille","lat":43.24065,"lon":5.37748,"is_reserved":false,"is_disabled":false,"rental_uris":{"android":"levelo://app?vid=8ba7f2d6-52d3-4c56-b19a-19a142e62779","ios":"levelo://app?vid=8ba7f2d6-52d3-4c56-b19a-19a142e62779"},"vehicle_type_id":"4","last_reported":1784307488,"current_range_meters":16400,"station_id":"ce4bhnp2rcd13ifvqgvg","pricing_plan_id":"cebpf4jnsgd1na2vs0mg"},{"bike_id":"3df7b3ee-3083-4a49-a1f1-8ec2f9d7ba3b","system_id":"levelo_inurba_marseille","lat":43.26033,"lon":5.39348,"is_reserved":false,"is_disabled":false,"rental_uris":{"android":"levelo://app?vid=3df7b3ee-3083-4a49-a1f1-8ec2f9d7ba3b","ios":"levelo://app?vid=3df7b3ee-3083-4a49-a1f1-8ec2f9d7ba3b"},"vehicle_type_id":"4","last_reported":1784307488,"current_range_meters":28000,"station_id":"","pricing_plan_id":"cebpf4jnsgd1na2vs0mg"},{"bike_id":"66afdf81-3bfc-4f74-a2b5-978630e17649","system_id":"levelo_inurba_marseille","lat":43.27919,"lon":5.37241,"is_reserved":false,"is_disabled":false,"rental_uris":{"android":"levelo://app?vid=66afdf81-3bfc-4f74-a2b5-978630e17649","ios":"levelo://app?vid=66afdf81-3bfc-4f74-a2b5-978630e17649"},"vehicle_type_id":"4","last_reported":1784307488,"current_range_meters":30000,"station_id":"","pricing_plan_id":"cebpf4jnsgd1na2vs0mg"},{"bike_id":"eeb5c708-3317-478c-b863-327e4a597320","system_id":"levelo_inurba_marseille","lat":43.28419,"lon":5.34958,"is_reserved":false,"is_disabled":false,"rental_uris":{"android":"levelo://app?vid=eeb5c708-3317-478c-b863-327e4a597320","ios":"levelo://app?vid=eeb5c708-3317-478c-b863-327e4a597320"},"vehicle_type_id":"4","last_reported":1784307488,"current_range_meters":32400,"station_id":"ce4bhbh2rcd13ifvqepg","pricing_plan_id":"cebpf4jnsgd1na2vs0mg"},{"bike_id":"053733ad-69ae-43ba-9759-fba9feff63cf","system_id":"levelo_inurba_marseille","lat":43.24391,"lon":5.37061,"is_reserved":false,"is_disabled":false,"rental_uris":{"android":"levelo://app?vid=053733ad-69ae-43ba-9759-fba9feff63cf","ios":"levelo://app?vid=053733ad-69ae-43ba-9759-fba9feff63cf"},"vehicle_type_id":"4","last_reported":1784307488,"current_range_meters":22000,"station_id":"ce4bhhh2rcd13ifvqfk0","pricing_plan_id":"cebpf4jnsgd1na2vs0mg"},{"bike_id":"3881a700-b2f5-47cf-af67-157f64684ce7","system_id":"levelo_inurba_marseille","lat":43.27266,"lon":5.38949,"is_reserved":false,"is_disabled":true,"rental_uris":{"android":"levelo://app?vid=3881a700-b2f5-47cf-af67-157f64684ce7","ios":"levelo://app?vid=3881a700-b2f5-47cf-af67-157f64684ce7"},"vehicle_type_id":"4","last_reported":1784307488,"current_range_meters":0,"station_id":"","pricing_plan_id":"cebpf4jnsgd1na2vs0mg"},{"bike_id":"e9700518-bfab-4e19-9c8e-e3cb6414cf72","system_id":"levelo_inurba_marseille","lat":43.29189,"lon":5.35799,"is_reserved":false,"is_disabled":true,"rental_uris":{"android":"levelo://app?vid=e9700518-bfab-4e19-9c8e-e3cb6414cf72","ios":"levelo://app?vid=e9700518-bfab-4e19-9c8e-e3cb6414cf72"},"vehicle_type_id":"4","last_reported":1784307488,"current_range_meters":11200,"station_id":"ce4bhb12rcd13ifvqel0","pricing_plan_id":"cebpf4jnsgd1na2vs0mg"},{"bike_id":"6e2fa25e-c4e4-473c-b5d3-3e0f51dcc142","system_id":"levelo_inurba_marseille","lat":43.29783,"lon":5.38097,"is_reserved":false,"is_disabled":true,"rental_uris":{"android":"levelo://app?vid=6e2fa25e-c4e4-473c-b5d3-3e0f51dcc142","ios":"levelo://app?vid=6e2fa25e-c4e4-473c-b5d3-3e0f51dcc142"},"vehicle_type_id":"4","last_reported":1784307488,"current_range_meters":35600,"station_id":"ce4bgip2rcd13ifvqbb0","pricing_plan_id":"cebpf4jnsgd1na2vs0mg"},{"bike_id":"cb5c8d0d-3a42-4a31-a1ff-d52c023bad1e","system_id":"levelo_inurba_marseille","lat":43.28019,"lon":5.38228,"is_reserved":false,"is_disabled":true,"rental_uris":{"android":"levelo://app?vid=cb5c8d0d-3a42-4a31-a1ff-d52c023bad1e","ios":"levelo://app?vid=cb5c8d0d-3a42-4a31-a1ff-d52c023bad1e"},"vehicle_type_id":"4","last_reported":1784307488,"current_range_meters":0,"station_id":"","pricing_plan_id":"cebpf4jnsgd1na2vs0mg"},{"bike_id":"e8372de4-55c4-4403-a00b-3f3fecde3bdf","system_id":"levelo_inurba_marseille","lat":43.28616,"lon":5.35101,"is_reserved":false,"is_disabled":false,"rental_uris":{"android":"levelo://app?vid=e8372de4-55c4-4403-a00b-3f3fecde3bdf","ios":"levelo://app?vid=e8372de4-55c4-4403-a00b-3f3fecde3bdf"},"vehicle_type_id":"4","last_reported":1784307488,"current_range_meters":38800,"station_id":"ce4bhch2rcd13ifvqeug","pricing_plan_id":"cebpf4jnsgd1na2vs0mg"},{"bike_id":"40133888-0505-4ab7-bf98-89cc8c9f1fbd","system_id":"levelo_inurba_marseille","lat":43.3126,"lon":5.38085,"is_reserved":false,"is_disabled":false,"rental_uris":{"android":"levelo://app?vid=40133888-0505-4ab7-bf98-89cc8c9f1fbd","ios":"levelo://app?vid=40133888-0505-4ab7-bf98-89cc8c9f1fbd"},"vehicle_type_id":"4","last_reported":1784307488,"current_range_meters":17200,"station_id":"","pricing_plan_id":"cebpf4jnsgd1na2vs0mg"},{"bike_id":"21e71573-8bf0-4106-b8c8-1a9a53e8a6b4","system_id":"levelo_inurba_marseille","lat":43.28427,"lon":5.34939,"is_reserved":false,"is_disabled":false,"rental_uris":{"android":"levelo://app?vid=21e71573-8bf0-4106-b8c8-1a9a53e8a6b4","ios":"levelo://app?vid=21e71573-8bf0-4106-b8c8-1a9a53e8a6b4"},"vehicle_type_id":"4","last_reported":1784307488,"current_range_meters":23200,"station_id":"ce4bhbh2rcd13ifvqepg","pricing_plan_id":"cebpf4jnsgd1na2vs0mg"},{"bike_id":"9e2c77a8-bc60-4d6c-8461-f8793608d17b","system_id":"levelo_inurba_marseille","lat":43.24693,"lon":5.38182,"is_reserved":false,"is_disabled":false,"rental_uris":{"android":"levelo://app?vid=9e2c77a8-bc60-4d6c-8461-f8793608d17b","ios":"levelo://app?vid=9e2c77a8-bc60-4d6c-8461-f8793608d17b"},"vehicle_type_id":"4","last_reported":1784307488,"current_range_meters":17200,"station_id":"ce4bhih2rcd13ifvqfr0","pricing_plan_id":"cebpf4jnsgd1na2vs0mg"},{"bike_id":"8c33414a-d486-4fd4-970a-a051fb482b24","system_id":"levelo_inurba_marseille","lat":43.24088,"lon":5.37728,"is_reserved":false,"is_disabled":false,"rental_uris":{"android":"levelo://app?vid=8c33414a-d486-4fd4-970a-a051fb482b24","ios":"levelo://app?vid=8c33414a-d486-4fd4-970a-a051fb482b24"},"vehicle_type_id":"4","last_reported":1784307488,"current_range_meters":38400,"station_id":"ce4bhnp2rcd13ifvqgvg","pricing_plan_id":"cebpf4jnsgd1na2vs0mg"},{"bike_id":"abf1de75-2068-43db-80fb-2accd8d0738a","system_id":"levelo_inurba_marseille","lat":43.28706,"lon":5.37934,"is_reserved":false,"is_disabled":false,"rental_uris":{"android":"levelo://app?vid=abf1de75-2068-43db-80fb-2accd8d0738a","ios":"levelo://app?vid=abf1de75-2068-43db-80fb-2accd8d0738a"},"vehicle_type_id":"4","last_reported":1784307488,"current_range_meters":25200,"station_id":"ce4bh9p2rcd13ifvqec0","pricing_plan_id":"cebpf4jnsgd1na2vs0mg"},{"bike_id":"865639b8-b1fe-40cb-8f37-368b97d6caca","system_id":"levelo_inurba_marseille","lat":43.27999,"lon":5.39988,"is_reserved":false,"is_disabled":false,"rental_uris":{"android":"levelo://app?vid=865639b8-b1fe-40cb-8f37-368b97d6caca","ios":"levelo://app?vid=865639b8-b1fe-40cb-8f37-368b97d6caca"},"vehicle_type_id":"4","last_reported":1784307488,"current_range_meters":37600,"station_id":"ce4bho92rcd13ifvqh4g","pricing_plan_id":"cebpf4jnsgd1na2vs0mg"},{"bike_id":"cda882e9-c1aa-4e19-94c1-2b199edc150c","system_id":"levelo_inurba_marseille","lat":43.29513,"lon":5.37491,"is_reserved":false,"is_disabled":false,"rental_uris":{"android":"levelo://app?vid=cda882e9-c1aa-4e19-94c1-2b199edc150c","ios":"levelo://app?vid=cda882e9-c1aa-4e19-94c1-2b199edc150c"},"vehicle_type_id":"4","last_reported":1784307488,"current_range_meters":9200,"station_id":"ce4bgkp2rcd13ifvqbmg","pricing_plan_id":"cebpf4jnsgd1na2vs0mg"},{"bike_id":"a7dc2bfa-363f-48af-8948-27abdaaedf44","system_id":"levelo_inurba_marseille","lat":43.28938,"lon":5.36633,"is_reserved":false,"is_disabled":false,"rental_uris":{"android":"levelo://app?vid=a7dc2bfa-363f-48af-8948-27abdaaedf44","ios":"levelo://app?vid=a7dc2bfa-363f-48af-8948-27abdaaedf44"},"vehicle_type_id":"4","last_reported":1784307488,"current_range_meters":11600,"station_id":"ce4bhap2rcd13ifvqek0","pricing_plan_id":"cebpf4jnsgd1na2vs0mg"},{"bike_id":"81587832-75ed-49cd-91c3-f57f9b8cec45","system_id":"levelo_inurba_marseille","lat":43.29037,"lon":5.35877,"is_reserved":false,"is_disabled":true,"rental_uris":{"android":"levelo://app?vid=81587832-75ed-49cd-91c3-f57f9b8cec45","ios":"levelo://app?vid=81587832-75ed-49cd-91c3-f57f9b8cec45"},"vehicle_type_id":"4","last_reported":1784307488,"current_range_meters":10000,"station_id":"ce4bha92rcd13ifvqeg0","pricing_plan_id":"cebpf4jnsgd1na2vs0mg"},{"bike_id":"df828084-afb0-441c-b9f4-53d157359196","system_id":"levelo_inurba_marseille","lat":43.284,"lon":5.34949,"is_reserved":false,"is_disabled":false,"rental_uris":{"android":"levelo://app?vid=df828084-afb0-441c-b9f4-53d157359196","ios":"levelo://app?vid=df828084-afb0-441c-b9f4-53d157359196"},"vehicle_type_id":"4","last_reported":1784307488,"current_range_meters":32000,"station_id":"ce4bhbh2rcd13ifvqepg","pricing_plan_id":"cebpf4jnsgd1na2vs0mg"},{"bike_id":"8a2ed306-8405-4822-b70f-abc1f81e1070","system_id":"levelo_inurba_marseille","lat":43.24542,"lon":5.3951,"is_reserved":false,"is_disabled":false,"rental_uris":{"android":"levelo://app?vid=8a2ed306-8405-4822-b70f-abc1f81e1070","ios":"levelo://app?vid=8a2ed306-8405-4822-b70f-abc1f81e1070"},"vehicle_type_id":"4","last_reported":1784307488,"current_range_meters":25200,"station_id":"ce4bhlp2rcd13ifvqgjg","pricing_plan_id":"cebpf4jnsgd1na2vs0mg"},{"bike_id":"258b2e09-b17d-4eb3-b2c1-8495aa9149d4","system_id":"levelo_inurba_marseille","lat":43.27974,"lon":5.38738,"is_reserved":false,"is_disabled":false,"rental_uris":{"android":"levelo://app?vid=258b2e09-b17d-4eb3-b2c1-8495aa9149d4","ios":"levelo://app?vid=258b2e09-b17d-4eb3-b2c1-8495aa9149d4"},"vehicle_type_id":"4","last_reported":1784307488,"current_range_meters":28400,"station_id":"ce4bhg12rcd13ifvqf80","pricing_plan_id":"cebpf4jnsgd1na2vs0mg"},{"bike_id":"a228663e-d758-4345-bba2-8b535ff34c84","system_id":"levelo_inurba_marseille","lat":43.29011,"lon":5.35621,"is_reserved":false,"is_disabled":false,"rental_uris":{"android":"levelo://app?vid=a228663e-d758-4345-bba2-8b535ff34c84","ios":"levelo://app?vid=a228663e-d758-4345-bba2-8b535ff34c84"},"vehicle_type_id":"4","last_reported":1784307488,"current_range_meters":9200,"station_id":"ce4bhb92rcd13ifvqen0","pricing_plan_id":"cebpf4jnsgd1na2vs0mg"},{"bike_id":"5dc61c06-bebd-4da3-baac-3c58ca456e4c","system_id":"levelo_inurba_marseille","lat":43.25703,"lon":5.41108,"is_reserved":false,"is_disabled":false,"rental_uris":{"android":"levelo://app?vid=5dc61c06-bebd-4da3-baac-3c58ca456e4c","ios":"levelo://app?vid=5dc61c06-bebd-4da3-baac-3c58ca456e4c"},"vehicle_type_id":"4","last_reported":1784307488,"current_range_meters":14800,"station_id":"ce4bhkp2rcd13ifvqgd0","pricing_plan_id":"cebpf4jnsgd1na2vs0mg"},{"bike_id":"e363b584-92a2-4c61-adfd-371a2577000d","system_id":"levelo_inurba_marseille","lat":43.29903,"lon":5.43608,"is_reserved":false,"is_disabled":false,"rental_uris":{"android":"levelo://app?vid=e363b584-92a2-4c61-adfd-371a2577000d","ios":"levelo://app?vid=e363b584-92a2-4c61-adfd-371a2577000d"},"vehicle_type_id":"4","last_reported":1784307488,"current_range_meters":38800,"station_id":"ce4bhpp2rcd13ifvqhfg","pricing_plan_id":"cebpf4jnsgd1na2vs0mg"},{"bike_id":"06c8057b-fe44-4576-9188-4ed641cdff79","system_id":"levelo_inurba_marseille","lat":43.24642,"lon":5.38119,"is_reserved":false,"is_disabled":false,"rental_uris":{"android":"levelo://app?vid=06c8057b-fe44-4576-9188-4ed641cdff79","ios":"levelo://app?vid=06c8057b-fe44-4576-9188-4ed641cdff79"},"vehicle_type_id":"4","last_reported":1784307488,"current_range_meters":30000,"station_id":"ce4bhih2rcd13ifvqfr0","pricing_plan_id":"cebpf4jnsgd1na2vs0mg"},{"bike_id":"26adac01-a48b-4b11-ab5f-b41497993b97","system_id":"levelo_inurba_marseille","lat":43.25368,"lon":5.42145,"is_reserved":false,"is_disabled":false,"rental_uris":{"android":"levelo://app?vid=26adac01-a48b-4b11-ab5f-b41497993b97","ios":"levelo://app?vid=26adac01-a48b-4b11-ab5f-b41497993b97"},"vehicle_type_id":"4","last_reported":1784307488,"current_range_meters":8000,"station_id":"","pricing_plan_id":"cebpf4jnsgd1na2vs0mg"},{"bike_id":"2322d216-5245-4f2d-b498-05459a3de200","system_id":"levelo_inurba_marseille","lat":43.25498,"lon":5.3766,"is_reserved":false,"is_disabled":false,"rental_uris":{"android":"levelo://app?vid=2322d216-5245-4f2d-b498-05459a3de200","ios":"levelo://app?vid=2322d216-5245-4f2d-b498-05459a3de200"},"vehicle_type_id":"4","last_reported":1784307488,"current_range_meters":38800,"station_id":"ce4bhh12rcd13ifvqff0","pricing_plan_id":"cebpf4jnsgd1na2vs0mg"},{"bike_id":"7ff8118f-6c81-4cdf-8a1d-4753d954065d","system_id":"levelo_inurba_marseille","lat":43.29609,"lon":5.37972,"is_reserved":false,"is_disabled":false,"rental_uris":{"android":"levelo://app?vid=7ff8118f-6c81-4cdf-8a1d-4753d954065d","ios":"levelo://app?vid=7ff8118f-6c81-4cdf-8a1d-4753d954065d"},"vehicle_type_id":"4","last_reported":1784307488,"current_range_meters":9600,"station_id":"","pricing_plan_id":"cebpf4jnsgd1na2vs0mg"},{"bike_id":"316e4975-504e-4a93-88d7-6432e20aea30","system_id":"levelo_inurba_marseille","lat":43.309387,"lon":5.40163,"is_reserved":false,"is_disabled":false,"rental_uris":{"android":"levelo://app?vid=316e4975-504e-4a93-88d7-6432e20aea30","ios":"levelo://app?vid=316e4975-504e-4a93-88d7-6432e20aea30"},"vehicle_type_id":"4","last_reported":1784307488,"current_range_meters":4000,"station_id":"ce4bgvp2rcd13ifvqct0","pricing_plan_id":"cebpf4jnsgd1na2vs0mg"},{"bike_id":"afee705d-16bd-449e-aa4b-5a927ff893c3","system_id":"levelo_inurba_marseille","lat":43.23964,"lon":5.36618,"is_reserved":false,"is_disabled":false,"rental_uris":{"android":"levelo://app?vid=afee705d-16bd-449e-aa4b-5a927ff893c3","ios":"levelo://app?vid=afee705d-16bd-449e-aa4b-5a927ff893c3"},"vehicle_type_id":"4","last_reported":1784307488,"current_range_meters":25600,"station_id":"ce4bhi12rcd13ifvqfp0","pricing_plan_id":"cebpf4jnsgd1na2vs0mg"},{"bike_id":"40b5412e-b3c4-44af-b474-719a31765490","system_id":"levelo_inurba_marseille","lat":43.29032,"lon":5.35902,"is_reserved":false,"is_disabled":false,"rental_uris":{"android":"levelo://app?vid=40b5412e-b3c4-44af-b474-719a31765490","ios":"levelo://app?vid=40b5412e-b3c4-44af-b474-719a31765490"},"vehicle_type_id":"4","last_reported":1784307488,"current_range_meters":16400,"station_id":"ce4bha92rcd13ifvqeg0","pricing_plan_id":"cebpf4jnsgd1na2vs0mg"},{"bike_id":"25a94663-ca29-4aea-b736-903685dbeed5","system_id":"levelo_inurba_marseille","lat":43.23959,"lon":5.36634,"is_reserved":false,"is_disabled":true,"rental_uris":{"android":"levelo://app?vid=25a94663-ca29-4aea-b736-903685dbeed5","ios":"levelo://app?vid=25a94663-ca29-4aea-b736-903685dbeed5"},"vehicle_type_id":"4","last_reported":1784307488,"current_range_meters":39200,"station_id":"ce4bhi12rcd13ifvqfp0","pricing_plan_id":"cebpf4jnsgd1na2vs0mg"},{"bike_id":"9e406c9d-76f3-499a-80e9-c4f4fd08eec5","system_id":"levelo_inurba_marseille","lat":43.28611,"lon":5.35114,"is_reserved":false,"is_disabled":false,"rental_uris":{"android":"levelo://app?vid=9e406c9d-76f3-499a-80e9-c4f4fd08eec5","ios":"levelo://app?vid=9e406c9d-76f3-499a-80e9-c4f4fd08eec5"},"vehicle_type_id":"4","last_reported":1784307488,"current_range_meters":17600,"station_id":"ce4bhch2rcd13ifvqeug","pricing_plan_id":"cebpf4jnsgd1na2vs0mg"},{"bike_id":"fd53f2a4-9976-40ee-b465-bc96dcc7f6a7","system_id":"levelo_inurba_marseille","lat":43.30883,"lon":5.39626,"is_reserved":false,"is_disabled":false,"rental_uris":{"android":"levelo://app?vid=fd53f2a4-9976-40ee-b465-bc96dcc7f6a7","ios":"levelo://app?vid=fd53f2a4-9976-40ee-b465-bc96dcc7f6a7"},"vehicle_type_id":"4","last_reported":1784307488,"current_range_meters":38000,"station_id":"ce4bh012rcd13ifvqcv0","pricing_plan_id":"cebpf4jnsgd1na2vs0mg"},{"bike_id":"1de5753c-f77d-4a34-b134-58bee8bc010c","system_id":"levelo_inurba_marseille","lat":43.2658,"lon":5.37276,"is_reserved":false,"is_disabled":true,"rental_uris":{"android":"levelo://app?vid=1de5753c-f77d-4a34-b134-58bee8bc010c","ios":"levelo://app?vid=1de5753c-f77d-4a34-b134-58bee8bc010c"},"vehicle_type_id":"4","last_reported":1784307488,"current_range_meters":24400,"station_id":"ce4bhg12rcd13ifvqf70","pricing_plan_id":"cebpf4jnsgd1na2vs0mg"},{"bike_id":"d92a0631-daee-46ef-8295-fefbb1e6a94a","system_id":"levelo_inurba_marseille","lat":43.31496,"lon":5.37304,"is_reserved":false,"is_disabled":false,"rental_uris":{"android":"levelo://app?vid=d92a0631-daee-46ef-8295-fefbb1e6a94a","ios":"levelo://app?vid=d92a0631-daee-46ef-8295-fefbb1e6a94a"},"vehicle_type_id":"4","last_reported":1784307488,"current_range_meters":38800,"station_id":"ce4bgt12rcd13ifvqcd0","pricing_plan_id":"cebpf4jnsgd1na2vs0mg"},{"bike_id":"8be2e633-a03f-4b78-840c-060869635527","system_id":"levelo_inurba_marseille","lat":43.28592,"lon":5.3507,"is_reserved":false,"is_disabled":false,"rental_uris":{"android":"levelo://app?vid=8be2e633-a03f-4b78-840c-060869635527","ios":"levelo://app?vid=8be2e633-a03f-4b78-840c-060869635527"},"vehicle_type_id":"4","last_reported":1784307488,"current_range_meters":29600,"station_id":"ce4bhch2rcd13ifvqeug","pricing_plan_id":"cebpf4jnsgd1na2vs0mg"},{"bike_id":"70b4266b-6f2a-4bb7-934f-a2a2bf37b44f","system_id":"levelo_inurba_marseille","lat":43.25104,"lon":5.403,"is_reserved":false,"is_disabled":true,"rental_uris":{"android":"levelo://app?vid=70b4266b-6f2a-4bb7-934f-a2a2bf37b44f","ios":"levelo://app?vid=70b4266b-6f2a-4bb7-934f-a2a2bf37b44f"},"vehicle_type_id":"4","last_reported":1784307488,"current_range_meters":39200,"station_id":"ce4bhlh2rcd13ifvqgig","pricing_plan_id":"cebpf4jnsgd1na2vs0mg"},{"bike_id":"a2e22e1c-01d9-44c4-8edb-2e7548de2436","system_id":"levelo_inurba_marseille","lat":43.28123,"lon":5.42765,"is_reserved":false,"is_disabled":true,"rental_uris":{"android":"levelo://app?vid=a2e22e1c-01d9-44c4-8edb-2e7548de2436","ios":"levelo://app?vid=a2e22e1c-01d9-44c4-8edb-2e7548de2436"},"vehicle_type_id":"4","last_reported":1784307488,"current_range_meters":0,"station_id":"","pricing_plan_id":"cebpf4jnsgd1na2vs0mg"},{"bike_id":"6f1b1d46-595b-478d-a07a-3d9589da78d8","system_id":"levelo_inurba_marseille","lat":43.28613,"lon":5.3511,"is_reserved":false,"is_disabled":false,"rental_uris":{"android":"levelo://app?vid=6f1b1d46-595b-478d-a07a-3d9589da78d8","ios":"levelo://app?vid=6f1b1d46-595b-478d-a07a-3d9589da78d8"},"vehicle_type_id":"4","last_reported":1784307488,"current_range_meters":39200,"station_id":"ce4bhch2rcd13ifvqeug","pricing_plan_id":"cebpf4jnsgd1na2vs0mg"},{"bike_id":"5366d360-d7dc-4e04-831f-62f49098b2c0","system_id":"levelo_inurba_marseille","lat":43.26218,"lon":5.39325,"is_reserved":false,"is_disabled":false,"rental_uris":{"android":"levelo://app?vid=5366d360-d7dc-4e04-831f-62f49098b2c0","ios":"levelo://app?vid=5366d360-d7dc-4e04-831f-62f49098b2c0"},"vehicle_type_id":"4","last_reported":1784307488,"current_range_meters":38000,"station_id":"","pricing_plan_id":"cebpf4jnsgd1na2vs0mg"},{"bike_id":"17ef7521-be57-48c8-a115-ded8df7df309","system_id":"levelo_inurba_marseille","lat":43.26188,"lon":5.3745,"is_reserved":false,"is_disabled":false,"rental_uris":{"android":"levelo://app?vid=17ef7521-be57-48c8-a115-ded8df7df309","ios":"levelo://app?vid=17ef7521-be57-48c8-a115-ded8df7df309"},"vehicle_type_id":"4","last_reported":1784307488,"current_range_meters":38000,"station_id":"ce4bhgp2rcd13ifvqfc0","pricing_plan_id":"cebpf4jnsgd1na2vs0mg"},{"bike_id":"0f6ff1da-c9e3-42e7-a8d3-8280d1c0addc","system_id":"levelo_inurba_marseille","lat":43.33721,"lon":5.37491,"is_reserved":false,"is_disabled":false,"rental_uris":{"android":"levelo://app?vid=0f6ff1da-c9e3-42e7-a8d3-8280d1c0addc","ios":"levelo://app?vid=0f6ff1da-c9e3-42e7-a8d3-8280d1c0addc"},"vehicle_type_id":"4","last_reported":1784307488,"current_range_meters":32400,"station_id":"","pricing_plan_id":"cebpf4jnsgd1na2vs0mg"},{"bike_id":"1e628dec-3141-48e0-b510-1c285ab03f4c","system_id":"levelo_inurba_marseille","lat":43.26404,"lon":5.41073,"is_reserved":false,"is_disabled":true,"rental_uris":{"android":"levelo://app?vid=1e628dec-3141-48e0-b510-1c285ab03f4c","ios":"levelo://app?vid=1e628dec-3141-48e0-b510-1c285ab03f4c"},"vehicle_type_id":"4","last_reported":1784307488,"current_range_meters":39200,"station_id":"st_d4e5ca6na9uc73bfl5fg","pricing_plan_id":"cebpf4jnsgd1na2vs0mg"},{"bike_id":"8c3e87cb-c1b3-4e1d-a15e-ba01973ff9da","system_id":"levelo_inurba_marseille","lat":43.2678,"lon":5.39417,"is_reserved":false,"is_disabled":false,"rental_uris":{"android":"levelo://app?vid=8c3e87cb-c1b3-4e1d-a15e-ba01973ff9da","ios":"levelo://app?vid=8c3e87cb-c1b3-4e1d-a15e-ba01973ff9da"},"vehicle_type_id":"4","last_reported":1784307488,"current_range_meters":34800,"station_id":"ce4bhh12rcd13ifvqfg0","pricing_plan_id":"cebpf4jnsgd1na2vs0mg"},{"bike_id":"94aea0f9-9bff-41a3-b0c2-d248c61f840b","system_id":"levelo_inurba_marseille","lat":43.23182,"lon":5.39987,"is_reserved":false,"is_disabled":false,"rental_uris":{"android":"levelo://app?vid=94aea0f9-9bff-41a3-b0c2-d248c61f840b","ios":"levelo://app?vid=94aea0f9-9bff-41a3-b0c2-d248c61f840b"},"vehicle_type_id":"4","last_reported":1784307488,"current_range_meters":32800,"station_id":"ce4bhn12rcd13ifvqgqg","pricing_plan_id":"cebpf4jnsgd1na2vs0mg"},{"bike_id":"7e1ec820-0ac2-4238-8cf1-ec7dbfdba514","system_id":"levelo_inurba_marseille","lat":43.28566,"lon":5.39453,"is_reserved":false,"is_disabled":false,"rental_uris":{"android":"levelo://app?vid=7e1ec820-0ac2-4238-8cf1-ec7dbfdba514","ios":"levelo://app?vid=7e1ec820-0ac2-4238-8cf1-ec7dbfdba514"},"vehicle_type_id":"4","last_reported":1784307488,"current_range_meters":37600,"station_id":"ce4bh292rcd13ifvqdg0","pricing_plan_id":"cebpf4jnsgd1na2vs0mg"},{"bike_id":"832a74fa-6640-4f4e-a94c-86b76477eb6c","system_id":"levelo_inurba_marseille","lat":43.29269,"lon":5.36826,"is_reserved":false,"is_disabled":false,"rental_uris":{"android":"levelo://app?vid=832a74fa-6640-4f4e-a94c-86b76477eb6c","ios":"levelo://app?vid=832a74fa-6640-4f4e-a94c-86b76477eb6c"},"vehicle_type_id":"4","last_reported":1784307488,"current_range_meters":16000,"station_id":"","pricing_plan_id":"cebpf4jnsgd1na2vs0mg"},{"bike_id":"e1a284f9-5e4e-407c-a907-36602c41246a","system_id":"levelo_inurba_marseille","lat":43.24193,"lon":5.3972,"is_reserved":false,"is_disabled":false,"rental_uris":{"android":"levelo://app?vid=e1a284f9-5e4e-407c-a907-36602c41246a","ios":"levelo://app?vid=e1a284f9-5e4e-407c-a907-36602c41246a"},"vehicle_type_id":"4","last_reported":1784307488,"current_range_meters":39200,"station_id":"ce4bhn12rcd13ifvqgpg","pricing_plan_id":"cebpf4jnsgd1na2vs0mg"},{"bike_id":"6eeebffa-a103-4bd0-938a-8e8411918217","system_id":"levelo_inurba_marseille","lat":43.2861,"lon":5.35093,"is_reserved":false,"is_disabled":false,"rental_uris":{"android":"levelo://app?vid=6eeebffa-a103-4bd0-938a-8e8411918217","ios":"levelo://app?vid=6eeebffa-a103-4bd0-938a-8e8411918217"},"vehicle_type_id":"4","last_reported":1784307488,"current_range_meters":17600,"station_id":"ce4bhch2rcd13ifvqeug","pricing_plan_id":"cebpf4jnsgd1na2vs0mg"},{"bike_id":"7bf3dcfc-2b44-44ff-a400-942a232aa5e7","system_id":"levelo_inurba_marseille","lat":43.29747,"lon":5.3656,"is_reserved":false,"is_disabled":false,"rental_uris":{"android":"levelo://app?vid=7bf3dcfc-2b44-44ff-a400-942a232aa5e7","ios":"levelo://app?vid=7bf3dcfc-2b44-44ff-a400-942a232aa5e7"},"vehicle_type_id":"4","last_reported":1784307488,"current_range_meters":10800,"station_id":"","pricing_plan_id":"cebpf4jnsgd1na2vs0mg"},{"bike_id":"942148f9-90f2-4171-8f05-98ba0ca85bcb","system_id":"levelo_inurba_marseille","lat":43.28468,"lon":5.48397,"is_reserved":false,"is_disabled":true,"rental_uris":{"android":"levelo://app?vid=942148f9-90f2-4171-8f05-98ba0ca85bcb","ios":"levelo://app?vid=942148f9-90f2-4171-8f05-98ba0ca85bcb"},"vehicle_type_id":"4","last_reported":1784307488,"current_range_meters":8800,"station_id":"st_d3svhcjqgbts73a3dn0g","pricing_plan_id":"cebpf4jnsgd1na2vs0mg"},{"bike_id":"fb2fd340-4653-467f-8051-d34d4f3fd73e","system_id":"levelo_inurba_marseille","lat":43.26553,"lon":5.37292,"is_reserved":false,"is_disabled":false,"rental_uris":{"android":"levelo://app?vid=fb2fd340-4653-467f-8051-d34d4f3fd73e","ios":"levelo://app?vid=fb2fd340-4653-467f-8051-d34d4f3fd73e"},"vehicle_type_id":"4","last_reported":1784307488,"current_range_meters":31200,"station_id":"ce4bhg12rcd13ifvqf70","pricing_plan_id":"cebpf4jnsgd1na2vs0mg"},{"bike_id":"b2b194ed-86a5-4dc8-b828-5b80e1681197","system_id":"levelo_inurba_marseille","lat":43.28587,"lon":5.44148,"is_reserved":false,"is_disabled":false,"rental_uris":{"android":"levelo://app?vid=b2b194ed-86a5-4dc8-b828-5b80e1681197","ios":"levelo://app?vid=b2b194ed-86a5-4dc8-b828-5b80e1681197"},"vehicle_type_id":"4","last_reported":1784307488,"current_range_meters":40000,"station_id":"st_d3j3df2ikq2c7380ej80","pricing_plan_id":"cebpf4jnsgd1na2vs0mg"},{"bike_id":"2a93def1-9840-4751-b465-b53bb0ce6123","system_id":"levelo_inurba_marseille","lat":43.22585,"lon":5.4163,"is_reserved":false,"is_disabled":false,"rental_uris":{"android":"levelo://app?vid=2a93def1-9840-4751-b465-b53bb0ce6123","ios":"levelo://app?vid=2a93def1-9840-4751-b465-b53bb0ce6123"},"vehicle_type_id":"4","last_reported":1784307488,"current_range_meters":16400,"station_id":"st_d2o4gvlbi1j2169b742g","pricing_plan_id":"cebpf4jnsgd1na2vs0mg"},{"bike_id":"d2b08bfe-8d05-4397-91e9-fe938a2b845f","system_id":"levelo_inurba_marseille","lat":43.27499,"lon":5.42454,"is_reserved":false,"is_disabled":false,"rental_uris":{"android":"levelo://app?vid=d2b08bfe-8d05-4397-91e9-fe938a2b845f","ios":"levelo://app?vid=d2b08bfe-8d05-4397-91e9-fe938a2b845f"},"vehicle_type_id":"4","last_reported":1784307488,"current_range_meters":34800,"station_id":"ce4bhn92rcd13ifvqgrg","pricing_plan_id":"cebpf4jnsgd1na2vs0mg"},{"bike_id":"7a32abe7-d0b1-4090-8b04-7cd6207dcbbd","system_id":"levelo_inurba_marseille","lat":43.2842,"lon":5.34966,"is_reserved":false,"is_disabled":false,"rental_uris":{"android":"levelo://app?vid=7a32abe7-d0b1-4090-8b04-7cd6207dcbbd","ios":"levelo://app?vid=7a32abe7-d0b1-4090-8b04-7cd6207dcbbd"},"vehicle_type_id":"4","last_reported":1784307488,"current_range_meters":34800,"station_id":"ce4bhbh2rcd13ifvqepg","pricing_plan_id":"cebpf4jnsgd1na2vs0mg"},{"bike_id":"5e38b9d4-e370-4d39-bb0e-f8ce139ec8f9","system_id":"levelo_inurba_marseille","lat":43.29031,"lon":5.38625,"is_reserved":false,"is_disabled":false,"rental_uris":{"android":"levelo://app?vid=5e38b9d4-e370-4d39-bb0e-f8ce139ec8f9","ios":"levelo://app?vid=5e38b9d4-e370-4d39-bb0e-f8ce139ec8f9"},"vehicle_type_id":"4","last_reported":1784307488,"current_range_meters":3200,"station_id":"ce4bh4p2rcd13ifvqe0g","pricing_plan_id":"cebpf4jnsgd1na2vs0mg"},{"bike_id":"e97d923d-d560-461e-94e7-6b746b3d8d92","system_id":"levelo_inurba_marseille","lat":43.32101,"lon":5.36769,"is_reserved":false,"is_disabled":false,"rental_uris":{"android":"levelo://app?vid=e97d923d-d560-461e-94e7-6b746b3d8d92","ios":"levelo://app?vid=e97d923d-d560-461e-94e7-6b746b3d8d92"},"vehicle_type_id":"4","last_reported":1784307488,"current_range_meters":28400,"station_id":"ce4bhrh2rcd13ifvqhug","pricing_plan_id":"cebpf4jnsgd1na2vs0mg"},{"bike_id":"ed742eca-6f01-42aa-8690-c704a6c8088f","system_id":"levelo_inurba_marseille","lat":43.30871,"lon":5.3719,"is_reserved":false,"is_disabled":false,"rental_uris":{"android":"levelo://app?vid=ed742eca-6f01-42aa-8690-c704a6c8088f","ios":"levelo://app?vid=ed742eca-6f01-42aa-8690-c704a6c8088f"},"vehicle_type_id":"4","last_reported":1784307488,"current_range_meters":38000,"station_id":"ce4bguh2rcd13ifvqckg","pricing_plan_id":"cebpf4jnsgd1na2vs0mg"},{"bike_id":"3a70c22d-0fa3-430a-8a93-cca4af961172","system_id":"levelo_inurba_marseille","lat":43.26936,"lon":5.38919,"is_reserved":false,"is_disabled":false,"rental_uris":{"android":"levelo://app?vid=3a70c22d-0fa3-430a-8a93-cca4af961172","ios":"levelo://app?vid=3a70c22d-0fa3-430a-8a93-cca4af961172"},"vehicle_type_id":"4","last_reported":1784307488,"current_range_meters":24800,"station_id":"ce4bhhh2rcd13ifvqfl0","pricing_plan_id":"cebpf4jnsgd1na2vs0mg"},{"bike_id":"246f78a2-abe6-4912-8290-5f58c0fb2a61","system_id":"levelo_inurba_marseille","lat":43.28711,"lon":5.35217,"is_reserved":false,"is_disabled":false,"rental_uris":{"android":"levelo://app?vid=246f78a2-abe6-4912-8290-5f58c0fb2a61","ios":"levelo://app?vid=246f78a2-abe6-4912-8290-5f58c0fb2a61"},"vehicle_type_id":"4","last_reported":1784307488,"current_range_meters":23200,"station_id":"","pricing_plan_id":"cebpf4jnsgd1na2vs0mg"},{"bike_id":"df5237e6-cd62-4014-ae7f-79eb317e6644","system_id":"levelo_inurba_marseille","lat":43.27616,"lon":5.36103,"is_reserved":false,"is_disabled":false,"rental_uris":{"android":"levelo://app?vid=df5237e6-cd62-4014-ae7f-79eb317e6644","ios":"levelo://app?vid=df5237e6-cd62-4014-ae7f-79eb317e6644"},"vehicle_type_id":"4","last_reported":1784307488,"current_range_meters":13600,"station_id":"ce4bgj92rcd13ifvqbe0","pricing_plan_id":"cebpf4jnsgd1na2vs0mg"},{"bike_id":"5dcd30ca-cf51-4a1d-b79a-c73dfa10ebc1","system_id":"levelo_inurba_marseille","lat":43.21765,"lon":5.34598,"is_reserved":false,"is_disabled":false,"rental_uris":{"android":"levelo://app?vid=5dcd30ca-cf51-4a1d-b79a-c73dfa10ebc1","ios":"levelo://app?vid=5dcd30ca-cf51-4a1d-b79a-c73dfa10ebc1"},"vehicle_type_id":"4","last_reported":1784307488,"current_range_meters":13600,"station_id":"st_cvj6r9ubvosntc0bgbag","pricing_plan_id":"cebpf4jnsgd1na2vs0mg"},{"bike_id":"b5306203-c67d-425d-bcd1-9b3c52e4bccc","system_id":"levelo_inurba_marseille","lat":43.23962,"lon":5.36636,"is_reserved":false,"is_disabled":false,"rental_uris":{"android":"levelo://app?vid=b5306203-c67d-425d-bcd1-9b3c52e4bccc","ios":"levelo://app?vid=b5306203-c67d-425d-bcd1-9b3c52e4bccc"},"vehicle_type_id":"4","last_reported":1784307488,"current_range_meters":21600,"station_id":"ce4bhi12rcd13ifvqfp0","pricing_plan_id":"cebpf4jnsgd1na2vs0mg"},{"bike_id":"57889d2e-37dd-4f8f-b3ab-1bc0a62b2215","system_id":"levelo_inurba_marseille","lat":43.30478,"lon":5.37895,"is_reserved":false,"is_disabled":true,"rental_uris":{"android":"levelo://app?vid=57889d2e-37dd-4f8f-b3ab-1bc0a62b2215","ios":"levelo://app?vid=57889d2e-37dd-4f8f-b3ab-1bc0a62b2215"},"vehicle_type_id":"4","last_reported":1784307488,"current_range_meters":25600,"station_id":"ce4bgup2rcd13ifvqcn0","pricing_plan_id":"cebpf4jnsgd1na2vs0mg"},{"bike_id":"0b19fb78-8e93-4124-9cd6-066d5a1843ff","system_id":"levelo_inurba_marseille","lat":43.27937,"lon":5.41034,"is_reserved":false,"is_disabled":false,"rental_uris":{"android":"levelo://app?vid=0b19fb78-8e93-4124-9cd6-066d5a1843ff","ios":"levelo://app?vid=0b19fb78-8e93-4124-9cd6-066d5a1843ff"},"vehicle_type_id":"4","last_reported":1784307488,"current_range_meters":36800,"station_id":"ce4bhnp2rcd13ifvqh0g","pricing_plan_id":"cebpf4jnsgd1na2vs0mg"},{"bike_id":"8946fedd-2e32-49ed-b51d-8d2209da3742","system_id":"levelo_inurba_marseille","lat":43.29429,"lon":5.38103,"is_reserved":false,"is_disabled":false,"rental_uris":{"android":"levelo://app?vid=8946fedd-2e32-49ed-b51d-8d2209da3742","ios":"levelo://app?vid=8946fedd-2e32-49ed-b51d-8d2209da3742"},"vehicle_type_id":"4","last_reported":1784307488,"current_range_meters":8400,"station_id":"","pricing_plan_id":"cebpf4jnsgd1na2vs0mg"},{"bike_id":"704368dc-7b01-46b2-aa54-0844eb2f1fc6","system_id":"levelo_inurba_marseille","lat":43.30122,"lon":5.39063,"is_reserved":false,"is_disabled":false,"rental_uris":{"android":"levelo://app?vid=704368dc-7b01-46b2-aa54-0844eb2f1fc6","ios":"levelo://app?vid=704368dc-7b01-46b2-aa54-0844eb2f1fc6"},"vehicle_type_id":"4","last_reported":1784307488,"current_range_meters":7200,"station_id":"ce4bh192rcd13ifvqdb0","pricing_plan_id":"cebpf4jnsgd1na2vs0mg"},{"bike_id":"51905566-557d-413c-97fd-b84daf11e827","system_id":"levelo_inurba_marseille","lat":43.27914,"lon":5.39586,"is_reserved":false,"is_disabled":true,"rental_uris":{"android":"levelo://app?vid=51905566-557d-413c-97fd-b84daf11e827","ios":"levelo://app?vid=51905566-557d-413c-97fd-b84daf11e827"},"vehicle_type_id":"4","last_reported":1784307488,"current_range_meters":29600,"station_id":"ce4bhf92rcd13ifvqf40","pricing_plan_id":"cebpf4jnsgd1na2vs0mg"},{"bike_id":"2116d610-7fe3-46de-8648-da9bac1d13d6","system_id":"levelo_inurba_marseille","lat":43.28691,"lon":5.3738,"is_reserved":false,"is_disabled":true,"rental_uris":{"android":"levelo://app?vid=2116d610-7fe3-46de-8648-da9bac1d13d6","ios":"levelo://app?vid=2116d610-7fe3-46de-8648-da9bac1d13d6"},"vehicle_type_id":"4","last_reported":1784307488,"current_range_meters":20800,"station_id":"ce4bh3p2rcd13ifvqdq0","pricing_plan_id":"cebpf4jnsgd1na2vs0mg"},{"bike_id":"04f79851-52e6-4303-9105-2ba3a3dca261","system_id":"levelo_inurba_marseille","lat":43.24393,"lon":5.37044,"is_reserved":false,"is_disabled":false,"rental_uris":{"android":"levelo://app?vid=04f79851-52e6-4303-9105-2ba3a3dca261","ios":"levelo://app?vid=04f79851-52e6-4303-9105-2ba3a3dca261"},"vehicle_type_id":"4","last_reported":1784307488,"current_range_meters":39200,"station_id":"ce4bhhh2rcd13ifvqfk0","pricing_plan_id":"cebpf4jnsgd1na2vs0mg"},{"bike_id":"78b472ae-7ca1-438d-a65f-f93d06645001","system_id":"levelo_inurba_marseille","lat":43.29222,"lon":5.36059,"is_reserved":false,"is_disabled":true,"rental_uris":{"android":"levelo://app?vid=78b472ae-7ca1-438d-a65f-f93d06645001","ios":"levelo://app?vid=78b472ae-7ca1-438d-a65f-f93d06645001"},"vehicle_type_id":"4","last_reported":1784307488,"current_range_meters":6400,"station_id":"","pricing_plan_id":"cebpf4jnsgd1na2vs0mg"},{"bike_id":"aea11bbc-2d6f-4be0-b121-dbc2d33dd165","system_id":"levelo_inurba_marseille","lat":43.32111,"lon":5.41596,"is_reserved":false,"is_disabled":false,"rental_uris":{"android":"levelo://app?vid=aea11bbc-2d6f-4be0-b121-dbc2d33dd165","ios":"levelo://app?vid=aea11bbc-2d6f-4be0-b121-dbc2d33dd165"},"vehicle_type_id":"4","last_reported":1784307488,"current_range_meters":38800,"station_id":"","pricing_plan_id":"cebpf4jnsgd1na2vs0mg"},{"bike_id":"b4946daf-69c3-40cd-9846-e8dc3a52f4e3","system_id":"levelo_inurba_marseille","lat":43.28479,"lon":5.34985,"is_reserved":false,"is_disabled":false,"rental_uris":{"android":"levelo://app?vid=b4946daf-69c3-40cd-9846-e8dc3a52f4e3","ios":"levelo://app?vid=b4946daf-69c3-40cd-9846-e8dc3a52f4e3"},"vehicle_type_id":"4","last_reported":1784307488,"current_range_meters":36800,"station_id":"","pricing_plan_id":"cebpf4jnsgd1na2vs0mg"},{"bike_id":"a561a24b-0b16-4267-a437-ca4e67d963a3","system_id":"levelo_inurba_marseille","lat":43.28401,"lon":5.34971,"is_reserved":false,"is_disabled":false,"rental_uris":{"android":"levelo://app?vid=a561a24b-0b16-4267-a437-ca4e67d963a3","ios":"levelo://app?vid=a561a24b-0b16-4267-a437-ca4e67d963a3"},"vehicle_type_id":"4","last_reported":1784307488,"current_range_meters":28400,"station_id":"ce4bhbh2rcd13ifvqepg","pricing_plan_id":"cebpf4jnsgd1na2vs0mg"},{"bike_id":"96825e0c-14e6-44a1-9638-22706c4a0540","system_id":"levelo_inurba_marseille","lat":43.272095,"lon":5.391833,"is_reserved":false,"is_disabled":true,"rental_uris":{"android":"levelo://app?vid=96825e0c-14e6-44a1-9638-22706c4a0540","ios":"levelo://app?vid=96825e0c-14e6-44a1-9638-22706c4a0540"},"vehicle_type_id":"4","last_reported":1784307488,"current_range_meters":0,"station_id":"ce4bhhp2rcd13ifvqfm0","pricing_plan_id":"cebpf4jnsgd1na2vs0mg"},{"bike_id":"7d5bb61e-ddd3-484c-ba54-94a8acce9b75","system_id":"levelo_inurba_marseille","lat":43.28971,"lon":5.36388,"is_reserved":false,"is_disabled":false,"rental_uris":{"android":"levelo://app?vid=7d5bb61e-ddd3-484c-ba54-94a8acce9b75","ios":"levelo://app?vid=7d5bb61e-ddd3-484c-ba54-94a8acce9b75"},"vehicle_type_id":"4","last_reported":1784307488,"current_range_meters":39200,"station_id":"ce4bhc92rcd13ifvqetg","pricing_plan_id":"cebpf4jnsgd1na2vs0mg"},{"bike_id":"9c43dd58-d57f-42a5-8b9c-583c359f4929","system_id":"levelo_inurba_marseille","lat":43.296783,"lon":5.37282,"is_reserved":false,"is_disabled":false,"rental_uris":{"android":"levelo://app?vid=9c43dd58-d57f-42a5-8b9c-583c359f4929","ios":"levelo://app?vid=9c43dd58-d57f-42a5-8b9c-583c359f4929"},"vehicle_type_id":"4","last_reported":1784307488,"current_range_meters":27600,"station_id":"ce4bgk12rcd13ifvqbj0","pricing_plan_id":"cebpf4jnsgd1na2vs0mg"},{"bike_id":"67e529c3-bd66-44d1-ae79-58e0704967c7","system_id":"levelo_inurba_marseille","lat":43.30139,"lon":5.38766,"is_reserved":false,"is_disabled":false,"rental_uris":{"android":"levelo://app?vid=67e529c3-bd66-44d1-ae79-58e0704967c7","ios":"levelo://app?vid=67e529c3-bd66-44d1-ae79-58e0704967c7"},"vehicle_type_id":"4","last_reported":1784307488,"current_range_meters":39200,"station_id":"ce4bghh2rcd13ifvqb60","pricing_plan_id":"cebpf4jnsgd1na2vs0mg"},{"bike_id":"cbf57bb6-373a-442c-9860-92cf9215a1bb","system_id":"levelo_inurba_marseille","lat":43.30543,"lon":5.36536,"is_reserved":false,"is_disabled":true,"rental_uris":{"android":"levelo://app?vid=cbf57bb6-373a-442c-9860-92cf9215a1bb","ios":"levelo://app?vid=cbf57bb6-373a-442c-9860-92cf9215a1bb"},"vehicle_type_id":"4","last_reported":1784307488,"current_range_meters":27600,"station_id":"ce4bgs12rcd13ifvqcag","pricing_plan_id":"cebpf4jnsgd1na2vs0mg"},{"bike_id":"f7517ec0-4d9f-4694-8867-75262bb49b5b","system_id":"levelo_inurba_marseille","lat":43.26206,"lon":5.37438,"is_reserved":false,"is_disabled":false,"rental_uris":{"android":"levelo://app?vid=f7517ec0-4d9f-4694-8867-75262bb49b5b","ios":"levelo://app?vid=f7517ec0-4d9f-4694-8867-75262bb49b5b"},"vehicle_type_id":"4","last_reported":1784307488,"current_range_meters":39200,"station_id":"ce4bhgp2rcd13ifvqfc0","pricing_plan_id":"cebpf4jnsgd1na2vs0mg"},{"bike_id":"ca553299-8d31-49bd-a6b4-332c888225b5","system_id":"levelo_inurba_marseille","lat":43.25687,"lon":5.41026,"is_reserved":false,"is_disabled":false,"rental_uris":{"android":"levelo://app?vid=ca553299-8d31-49bd-a6b4-332c888225b5","ios":"levelo://app?vid=ca553299-8d31-49bd-a6b4-332c888225b5"},"vehicle_type_id":"4","last_reported":1784307488,"current_range_meters":34000,"station_id":"","pricing_plan_id":"cebpf4jnsgd1na2vs0mg"},{"bike_id":"e8b2132e-2e2f-4678-bd27-ce3f9f11f158","system_id":"levelo_inurba_marseille","lat":43.30477,"lon":5.37885,"is_reserved":false,"is_disabled":true,"rental_uris":{"android":"levelo://app?vid=e8b2132e-2e2f-4678-bd27-ce3f9f11f158","ios":"levelo://app?vid=e8b2132e-2e2f-4678-bd27-ce3f9f11f158"},"vehicle_type_id":"4","last_reported":1784307488,"current_range_meters":18800,"station_id":"ce4bgup2rcd13ifvqcn0","pricing_plan_id":"cebpf4jnsgd1na2vs0mg"},{"bike_id":"17f00b12-f8d0-413a-b992-98dadbd11261","system_id":"levelo_inurba_marseille","lat":43.24998,"lon":5.38897,"is_reserved":false,"is_disabled":false,"rental_uris":{"android":"levelo://app?vid=17f00b12-f8d0-413a-b992-98dadbd11261","ios":"levelo://app?vid=17f00b12-f8d0-413a-b992-98dadbd11261"},"vehicle_type_id":"4","last_reported":1784307488,"current_range_meters":34800,"station_id":"ce4bhgp2rcd13ifvqfd0","pricing_plan_id":"cebpf4jnsgd1na2vs0mg"},{"bike_id":"87fddd0f-45f0-4bef-b28b-ddeb238fae59","system_id":"levelo_inurba_marseille","lat":43.28616,"lon":5.35103,"is_reserved":false,"is_disabled":false,"rental_uris":{"android":"levelo://app?vid=87fddd0f-45f0-4bef-b28b-ddeb238fae59","ios":"levelo://app?vid=87fddd0f-45f0-4bef-b28b-ddeb238fae59"},"vehicle_type_id":"4","last_reported":1784307488,"current_range_meters":8000,"station_id":"ce4bhch2rcd13ifvqeug","pricing_plan_id":"cebpf4jnsgd1na2vs0mg"},{"bike_id":"f96974ba-e6ad-4805-b9fc-bca3bdc6359f","system_id":"levelo_inurba_marseille","lat":43.24421,"lon":5.37036,"is_reserved":false,"is_disabled":false,"rental_uris":{"android":"levelo://app?vid=f96974ba-e6ad-4805-b9fc-bca3bdc6359f","ios":"levelo://app?vid=f96974ba-e6ad-4805-b9fc-bca3bdc6359f"},"vehicle_type_id":"4","last_reported":1784307488,"current_range_meters":25600,"station_id":"ce4bhhh2rcd13ifvqfk0","pricing_plan_id":"cebpf4jnsgd1na2vs0mg"},{"bike_id":"4f54c651-15d1-492f-8d09-70f1f809ad4f","system_id":"levelo_inurba_marseille","lat":43.27495,"lon":5.42535,"is_reserved":false,"is_disabled":false,"rental_uris":{"android":"levelo://app?vid=4f54c651-15d1-492f-8d09-70f1f809ad4f","ios":"levelo://app?vid=4f54c651-15d1-492f-8d09-70f1f809ad4f"},"vehicle_type_id":"4","last_reported":1784307488,"current_range_meters":28400,"station_id":"st_d8t4bh7nbrqs73arha60","pricing_plan_id":"cebpf4jnsgd1na2vs0mg"},{"bike_id":"f1627ae7-c41b-430a-8ec2-7ab8e9012c45","system_id":"levelo_inurba_marseille","lat":43.29274,"lon":5.36849,"is_reserved":false,"is_disabled":false,"rental_uris":{"android":"levelo://app?vid=f1627ae7-c41b-430a-8ec2-7ab8e9012c45","ios":"levelo://app?vid=f1627ae7-c41b-430a-8ec2-7ab8e9012c45"},"vehicle_type_id":"4","last_reported":1784307488,"current_range_meters":20000,"station_id":"","pricing_plan_id":"cebpf4jnsgd1na2vs0mg"},{"bike_id":"e1102441-6b3f-49e5-87d2-8b10eca1a676","system_id":"levelo_inurba_marseille","lat":43.26224,"lon":5.37423,"is_reserved":false,"is_disabled":false,"rental_uris":{"android":"levelo://app?vid=e1102441-6b3f-49e5-87d2-8b10eca1a676","ios":"levelo://app?vid=e1102441-6b3f-49e5-87d2-8b10eca1a676"},"vehicle_type_id":"4","last_reported":1784307488,"current_range_meters":26000,"station_id":"","pricing_plan_id":"cebpf4jnsgd1na2vs0mg"},{"bike_id":"2172d830-8b75-4dda-ac5a-41adc612b906","system_id":"levelo_inurba_marseille","lat":43.29162,"lon":5.37173,"is_reserved":false,"is_disabled":false,"rental_uris":{"android":"levelo://app?vid=2172d830-8b75-4dda-ac5a-41adc612b906","ios":"levelo://app?vid=2172d830-8b75-4dda-ac5a-41adc612b906"},"vehicle_type_id":"4","last_reported":1784307488,"current_range_meters":18800,"station_id":"ce4bha92rcd13ifvqeh0","pricing_plan_id":"cebpf4jnsgd1na2vs0mg"},{"bike_id":"c1324c9c-25ff-4be4-83c6-dc541ed3ad18","system_id":"levelo_inurba_marseille","lat":43.28403,"lon":5.34994,"is_reserved":false,"is_disabled":false,"rental_uris":{"android":"levelo://app?vid=c1324c9c-25ff-4be4-83c6-dc541ed3ad18","ios":"levelo://app?vid=c1324c9c-25ff-4be4-83c6-dc541ed3ad18"},"vehicle_type_id":"4","last_reported":1784307488,"current_range_meters":25200,"station_id":"ce4bhbh2rcd13ifvqepg","pricing_plan_id":"cebpf4jnsgd1na2vs0mg"},{"bike_id":"41b8ba85-2ee3-4963-b3fa-0dd2728cc9e4","system_id":"levelo_inurba_marseille","lat":43.27942,"lon":5.41033,"is_reserved":false,"is_disabled":false,"rental_uris":{"android":"levelo://app?vid=41b8ba85-2ee3-4963-b3fa-0dd2728cc9e4","ios":"levelo://app?vid=41b8ba85-2ee3-4963-b3fa-0dd2728cc9e4"},"vehicle_type_id":"4","last_reported":1784307488,"current_range_meters":17200,"station_id":"ce4bhnp2rcd13ifvqh0g","pricing_plan_id":"cebpf4jnsgd1na2vs0mg"},{"bike_id":"e35b3037-ccf2-48a7-b6f2-14a77143bba4","system_id":"levelo_inurba_marseille","lat":43.32345,"lon":5.36717,"is_reserved":false,"is_disabled":false,"rental_uris":{"android":"levelo://app?vid=e35b3037-ccf2-48a7-b6f2-14a77143bba4","ios":"levelo://app?vid=e35b3037-ccf2-48a7-b6f2-14a77143bba4"},"vehicle_type_id":"4","last_reported":1784307488,"current_range_meters":33600,"station_id":"ce4bhsh2rcd13ifvqi2g","pricing_plan_id":"cebpf4jnsgd1na2vs0mg"},{"bike_id":"0cc9064c-9e67-4dd7-b11e-84260d626c23","system_id":"levelo_inurba_marseille","lat":43.29923,"lon":5.38126,"is_reserved":false,"is_disabled":true,"rental_uris":{"android":"levelo://app?vid=0cc9064c-9e67-4dd7-b11e-84260d626c23","ios":"levelo://app?vid=0cc9064c-9e67-4dd7-b11e-84260d626c23"},"vehicle_type_id":"4","last_reported":1784307488,"current_range_meters":32800,"station_id":"ce4bgj12rcd13ifvqbc0","pricing_plan_id":"cebpf4jnsgd1na2vs0mg"},{"bike_id":"27e47b1c-c6c8-4c7a-9057-a30a031a40ae","system_id":"levelo_inurba_marseille","lat":43.28407,"lon":5.34978,"is_reserved":false,"is_disabled":true,"rental_uris":{"android":"levelo://app?vid=27e47b1c-c6c8-4c7a-9057-a30a031a40ae","ios":"levelo://app?vid=27e47b1c-c6c8-4c7a-9057-a30a031a40ae"},"vehicle_type_id":"4","last_reported":1784307488,"current_range_meters":30800,"station_id":"ce4bhbh2rcd13ifvqepg","pricing_plan_id":"cebpf4jnsgd1na2vs0mg"},{"bike_id":"fdc37cb7-c1cb-43ee-960e-e9764c5b3a2c","system_id":"levelo_inurba_marseille","lat":43.27624,"lon":5.36089,"is_reserved":false,"is_disabled":false,"rental_uris":{"android":"levelo://app?vid=fdc37cb7-c1cb-43ee-960e-e9764c5b3a2c","ios":"levelo://app?vid=fdc37cb7-c1cb-43ee-960e-e9764c5b3a2c"},"vehicle_type_id":"4","last_reported":1784307488,"current_range_meters":39200,"station_id":"ce4bgj92rcd13ifvqbe0","pricing_plan_id":"cebpf4jnsgd1na2vs0mg"},{"bike_id":"b4424ee8-7f60-4bb5-93f3-e312e94324d9","system_id":"levelo_inurba_marseille","lat":43.28192,"lon":5.34888,"is_reserved":false,"is_disabled":false,"rental_uris":{"android":"levelo://app?vid=b4424ee8-7f60-4bb5-93f3-e312e94324d9","ios":"levelo://app?vid=b4424ee8-7f60-4bb5-93f3-e312e94324d9"},"vehicle_type_id":"4","last_reported":1784307488,"current_range_meters":8400,"station_id":"","pricing_plan_id":"cebpf4jnsgd1na2vs0mg"},{"bike_id":"a118cb59-4a97-4231-a374-94d301c28c19","system_id":"levelo_inurba_marseille","lat":43.29528,"lon":5.38547,"is_reserved":false,"is_disabled":true,"rental_uris":{"android":"levelo://app?vid=a118cb59-4a97-4231-a374-94d301c28c19","ios":"levelo://app?vid=a118cb59-4a97-4231-a374-94d301c28c19"},"vehicle_type_id":"4","last_reported":1784307488,"current_range_meters":1600,"station_id":"ce4bgih2rcd13ifvqba0","pricing_plan_id":"cebpf4jnsgd1na2vs0mg"},{"bike_id":"b7c3b80c-fe32-491b-bb00-78a2c7a53dc9","system_id":"levelo_inurba_marseille","lat":43.25531,"lon":5.37639,"is_reserved":false,"is_disabled":false,"rental_uris":{"android":"levelo://app?vid=b7c3b80c-fe32-491b-bb00-78a2c7a53dc9","ios":"levelo://app?vid=b7c3b80c-fe32-491b-bb00-78a2c7a53dc9"},"vehicle_type_id":"4","last_reported":1784307488,"current_range_meters":19600,"station_id":"ce4bhh12rcd13ifvqff0","pricing_plan_id":"cebpf4jnsgd1na2vs0mg"},{"bike_id":"15e91d9b-9fe2-4547-b08c-8a6125244996","system_id":"levelo_inurba_marseille","lat":43.2841,"lon":5.3497,"is_reserved":false,"is_disabled":false,"rental_uris":{"android":"levelo://app?vid=15e91d9b-9fe2-4547-b08c-8a6125244996","ios":"levelo://app?vid=15e91d9b-9fe2-4547-b08c-8a6125244996"},"vehicle_type_id":"4","last_reported":1784307488,"current_range_meters":10000,"station_id":"ce4bhbh2rcd13ifvqepg","pricing_plan_id":"cebpf4jnsgd1na2vs0mg"},{"bike_id":"fabe11cc-fc61-480b-9f51-6e866f99e11d","system_id":"levelo_inurba_marseille","lat":43.27695,"lon":5.35768,"is_reserved":false,"is_disabled":false,"rental_uris":{"android":"levelo://app?vid=fabe11cc-fc61-480b-9f51-6e866f99e11d","ios":"levelo://app?vid=fabe11cc-fc61-480b-9f51-6e866f99e11d"},"vehicle_type_id":"4","last_reported":1784307488,"current_range_meters":21600,"station_id":"","pricing_plan_id":"cebpf4jnsgd1na2vs0mg"},{"bike_id":"202f9ad0-42a8-41b4-9ba7-c7ec0280e620","system_id":"levelo_inurba_marseille","lat":43.23189,"lon":5.35547,"is_reserved":false,"is_disabled":false,"rental_uris":{"android":"levelo://app?vid=202f9ad0-42a8-41b4-9ba7-c7ec0280e620","ios":"levelo://app?vid=202f9ad0-42a8-41b4-9ba7-c7ec0280e620"},"vehicle_type_id":"4","last_reported":1784307488,"current_range_meters":38000,"station_id":"ce4bhu92rcd13ifvqi70","pricing_plan_id":"cebpf4jnsgd1na2vs0mg"},{"bike_id":"aee50ef2-6fef-443e-be71-189e3c158389","system_id":"levelo_inurba_marseille","lat":43.30096,"lon":5.39065,"is_reserved":false,"is_disabled":true,"rental_uris":{"android":"levelo://app?vid=aee50ef2-6fef-443e-be71-189e3c158389","ios":"levelo://app?vid=aee50ef2-6fef-443e-be71-189e3c158389"},"vehicle_type_id":"4","last_reported":1784307488,"current_range_meters":2000,"station_id":"ce4bh192rcd13ifvqdb0","pricing_plan_id":"cebpf4jnsgd1na2vs0mg"},{"bike_id":"f3955824-bc9b-40e3-bb4b-91c4e41aa833","system_id":"levelo_inurba_marseille","lat":43.30145,"lon":5.37403,"is_reserved":false,"is_disabled":true,"rental_uris":{"android":"levelo://app?vid=f3955824-bc9b-40e3-bb4b-91c4e41aa833","ios":"levelo://app?vid=f3955824-bc9b-40e3-bb4b-91c4e41aa833"},"vehicle_type_id":"4","last_reported":1784307488,"current_range_meters":15200,"station_id":"ce4bgs92rcd13ifvqcc0","pricing_plan_id":"cebpf4jnsgd1na2vs0mg"},{"bike_id":"4f166448-d2a4-4ed7-99ce-660a23d803a9","system_id":"levelo_inurba_marseille","lat":43.29195,"lon":5.35776,"is_reserved":false,"is_disabled":false,"rental_uris":{"android":"levelo://app?vid=4f166448-d2a4-4ed7-99ce-660a23d803a9","ios":"levelo://app?vid=4f166448-d2a4-4ed7-99ce-660a23d803a9"},"vehicle_type_id":"4","last_reported":1784307488,"current_range_meters":28800,"station_id":"ce4bhb12rcd13ifvqel0","pricing_plan_id":"cebpf4jnsgd1na2vs0mg"},{"bike_id":"133e9a7a-34e3-4bb7-ac4a-7af542b625f5","system_id":"levelo_inurba_marseille","lat":43.27969,"lon":5.38739,"is_reserved":false,"is_disabled":true,"rental_uris":{"android":"levelo://app?vid=133e9a7a-34e3-4bb7-ac4a-7af542b625f5","ios":"levelo://app?vid=133e9a7a-34e3-4bb7-ac4a-7af542b625f5"},"vehicle_type_id":"4","last_reported":1784307488,"current_range_meters":0,"station_id":"ce4bhg12rcd13ifvqf80","pricing_plan_id":"cebpf4jnsgd1na2vs0mg"},{"bike_id":"e342b9f1-a6f4-474a-88a4-70e56cc058cc","system_id":"levelo_inurba_marseille","lat":43.31891,"lon":5.36812,"is_reserved":false,"is_disabled":true,"rental_uris":{"android":"levelo://app?vid=e342b9f1-a6f4-474a-88a4-70e56cc058cc","ios":"levelo://app?vid=e342b9f1-a6f4-474a-88a4-70e56cc058cc"},"vehicle_type_id":"4","last_reported":1784307488,"current_range_meters":0,"station_id":"st_d6o2h0d0559c73evc1b0","pricing_plan_id":"cebpf4jnsgd1na2vs0mg"},{"bike_id":"49adb36d-5b3d-4b5a-8bd8-559cc199bc08","system_id":"levelo_inurba_marseille","lat":43.260263,"lon":5.375491,"is_reserved":false,"is_disabled":false,"rental_uris":{"android":"levelo://app?vid=49adb36d-5b3d-4b5a-8bd8-559cc199bc08","ios":"levelo://app?vid=49adb36d-5b3d-4b5a-8bd8-559cc199bc08"},"vehicle_type_id":"4","last_reported":1784307488,"current_range_meters":28800,"station_id":"ce4bh392rcd13ifvqdm0","pricing_plan_id":"cebpf4jnsgd1na2vs0mg"},{"bike_id":"553fb599-9d9c-42b5-ab18-96881079f4d4","system_id":"levelo_inurba_marseille","lat":43.27377,"lon":5.36257,"is_reserved":false,"is_disabled":false,"rental_uris":{"android":"levelo://app?vid=553fb599-9d9c-42b5-ab18-96881079f4d4","ios":"levelo://app?vid=553fb599-9d9c-42b5-ab18-96881079f4d4"},"vehicle_type_id":"4","last_reported":1784307488,"current_range_meters":38800,"station_id":"ce4bhbh2rcd13ifvqeo0","pricing_plan_id":"cebpf4jnsgd1na2vs0mg"},{"bike_id":"0d3e100f-48fe-47e1-bef7-0a1dcfcc4955","system_id":"levelo_inurba_marseille","lat":43.33755,"lon":5.3918,"is_reserved":false,"is_disabled":false,"rental_uris":{"android":"levelo://app?vid=0d3e100f-48fe-47e1-bef7-0a1dcfcc4955","ios":"levelo://app?vid=0d3e100f-48fe-47e1-bef7-0a1dcfcc4955"},"vehicle_type_id":"4","last_reported":1784307488,"current_range_meters":30000,"station_id":"ce4bhr92rcd13ifvqhsg","pricing_plan_id":"cebpf4jnsgd1na2vs0mg"},{"bike_id":"a0e1310a-77b7-4fa2-b10c-f79e64839c34","system_id":"levelo_inurba_marseille","lat":43.3044,"lon":5.3816,"is_reserved":false,"is_disabled":true,"rental_uris":{"android":"levelo://app?vid=a0e1310a-77b7-4fa2-b10c-f79e64839c34","ios":"levelo://app?vid=a0e1310a-77b7-4fa2-b10c-f79e64839c34"},"vehicle_type_id":"4","last_reported":1784307488,"current_range_meters":0,"station_id":"","pricing_plan_id":"cebpf4jnsgd1na2vs0mg"},{"bike_id":"9e2381df-9792-4bfd-98d9-fe2d5288e6e6","system_id":"levelo_inurba_marseille","lat":43.29265,"lon":5.37622,"is_reserved":false,"is_disabled":false,"rental_uris":{"android":"levelo://app?vid=9e2381df-9792-4bfd-98d9-fe2d5288e6e6","ios":"levelo://app?vid=9e2381df-9792-4bfd-98d9-fe2d5288e6e6"},"vehicle_type_id":"4","last_reported":1784307488,"current_range_meters":8000,"station_id":"ce4bgi12rcd13ifvqb80","pricing_plan_id":"cebpf4jnsgd1na2vs0mg"},{"bike_id":"ddbfbc6e-9ea5-4164-b0a2-7cc31ec7c025","system_id":"levelo_inurba_marseille","lat":43.32104,"lon":5.36771,"is_reserved":false,"is_disabled":false,"rental_uris":{"android":"levelo://app?vid=ddbfbc6e-9ea5-4164-b0a2-7cc31ec7c025","ios":"levelo://app?vid=ddbfbc6e-9ea5-4164-b0a2-7cc31ec7c025"},"vehicle_type_id":"4","last_reported":1784307488,"current_range_meters":17600,"station_id":"ce4bhrh2rcd13ifvqhug","pricing_plan_id":"cebpf4jnsgd1na2vs0mg"},{"bike_id":"0cd68727-7cf8-4c90-8b58-f3c75eaebe31","system_id":"levelo_inurba_marseille","lat":43.2588,"lon":5.39896,"is_reserved":false,"is_disabled":false,"rental_uris":{"android":"levelo://app?vid=0cd68727-7cf8-4c90-8b58-f3c75eaebe31","ios":"levelo://app?vid=0cd68727-7cf8-4c90-8b58-f3c75eaebe31"},"vehicle_type_id":"4","last_reported":1784307488,"current_range_meters":15200,"station_id":"ce4bhl92rcd13ifvqghg","pricing_plan_id":"cebpf4jnsgd1na2vs0mg"},{"bike_id":"cdcecef8-b0a9-4fa5-92be-0bce979cfb87","system_id":"levelo_inurba_marseille","lat":43.29596,"lon":5.381,"is_reserved":false,"is_disabled":false,"rental_uris":{"android":"levelo://app?vid=cdcecef8-b0a9-4fa5-92be-0bce979cfb87","ios":"levelo://app?vid=cdcecef8-b0a9-4fa5-92be-0bce979cfb87"},"vehicle_type_id":"4","last_reported":1784307488,"current_range_meters":3600,"station_id":"ce4bgl12rcd13ifvqbo0","pricing_plan_id":"cebpf4jnsgd1na2vs0mg"},{"bike_id":"aeab2e6b-c97f-49a6-867a-67b7a279e8fb","system_id":"levelo_inurba_marseille","lat":43.28851,"lon":5.35845,"is_reserved":false,"is_disabled":false,"rental_uris":{"android":"levelo://app?vid=aeab2e6b-c97f-49a6-867a-67b7a279e8fb","ios":"levelo://app?vid=aeab2e6b-c97f-49a6-867a-67b7a279e8fb"},"vehicle_type_id":"4","last_reported":1784307488,"current_range_meters":23200,"station_id":"ce4bhb12rcd13ifvqem0","pricing_plan_id":"cebpf4jnsgd1na2vs0mg"},{"bike_id":"82023b68-46df-41b5-9d8b-ec4c67021220","system_id":"levelo_inurba_marseille","lat":43.30243,"lon":5.40063,"is_reserved":false,"is_disabled":true,"rental_uris":{"android":"levelo://app?vid=82023b68-46df-41b5-9d8b-ec4c67021220","ios":"levelo://app?vid=82023b68-46df-41b5-9d8b-ec4c67021220"},"vehicle_type_id":"4","last_reported":1784307488,"current_range_meters":35200,"station_id":"ce4bgvh2rcd13ifvqcs0","pricing_plan_id":"cebpf4jnsgd1na2vs0mg"},{"bike_id":"ed52919d-93b3-4291-a04f-8f6270205c6e","system_id":"levelo_inurba_marseille","lat":43.23976,"lon":5.36612,"is_reserved":false,"is_disabled":false,"rental_uris":{"android":"levelo://app?vid=ed52919d-93b3-4291-a04f-8f6270205c6e","ios":"levelo://app?vid=ed52919d-93b3-4291-a04f-8f6270205c6e"},"vehicle_type_id":"4","last_reported":1784307488,"current_range_meters":12800,"station_id":"ce4bhi12rcd13ifvqfp0","pricing_plan_id":"cebpf4jnsgd1na2vs0mg"},{"bike_id":"9add7d9b-214a-40dc-a324-5a0e81d35b67","system_id":"levelo_inurba_marseille","lat":43.26552,"lon":5.40302,"is_reserved":false,"is_disabled":true,"rental_uris":{"android":"levelo://app?vid=9add7d9b-214a-40dc-a324-5a0e81d35b67","ios":"levelo://app?vid=9add7d9b-214a-40dc-a324-5a0e81d35b67"},"vehicle_type_id":"4","last_reported":1784307488,"current_range_meters":16800,"station_id":"ce4bhmp2rcd13ifvqgng","pricing_plan_id":"cebpf4jnsgd1na2vs0mg"},{"bike_id":"f0243c8f-1958-4102-82c8-dfffa97290c3","system_id":"levelo_inurba_marseille","lat":43.30149,"lon":5.38773,"is_reserved":false,"is_disabled":false,"rental_uris":{"android":"levelo://app?vid=f0243c8f-1958-4102-82c8-dfffa97290c3","ios":"levelo://app?vid=f0243c8f-1958-4102-82c8-dfffa97290c3"},"vehicle_type_id":"4","last_reported":1784307488,"current_range_meters":17200,"station_id":"ce4bghh2rcd13ifvqb60","pricing_plan_id":"cebpf4jnsgd1na2vs0mg"},{"bike_id":"6ee73e46-4924-4e22-b765-feccd10ba2e7","system_id":"levelo_inurba_marseille","lat":43.24654,"lon":5.38878,"is_reserved":false,"is_disabled":false,"rental_uris":{"android":"levelo://app?vid=6ee73e46-4924-4e22-b765-feccd10ba2e7","ios":"levelo://app?vid=6ee73e46-4924-4e22-b765-feccd10ba2e7"},"vehicle_type_id":"4","last_reported":1784307488,"current_range_meters":8400,"station_id":"ce4bhg12rcd13ifvqf60","pricing_plan_id":"cebpf4jnsgd1na2vs0mg"},{"bike_id":"08e37548-b939-4c95-ad3e-38d80489c90b","system_id":"levelo_inurba_marseille","lat":43.21651,"lon":5.34324,"is_reserved":false,"is_disabled":false,"rental_uris":{"android":"levelo://app?vid=08e37548-b939-4c95-ad3e-38d80489c90b","ios":"levelo://app?vid=08e37548-b939-4c95-ad3e-38d80489c90b"},"vehicle_type_id":"4","last_reported":1784307488,"current_range_meters":5600,"station_id":"","pricing_plan_id":"cebpf4jnsgd1na2vs0mg"},{"bike_id":"2037f592-58b7-4898-9de4-5e1920a0f2f6","system_id":"levelo_inurba_marseille","lat":43.26197,"lon":5.37454,"is_reserved":false,"is_disabled":false,"rental_uris":{"android":"levelo://app?vid=2037f592-58b7-4898-9de4-5e1920a0f2f6","ios":"levelo://app?vid=2037f592-58b7-4898-9de4-5e1920a0f2f6"},"vehicle_type_id":"4","last_reported":1784307488,"current_range_meters":34000,"station_id":"ce4bhgp2rcd13ifvqfc0","pricing_plan_id":"cebpf4jnsgd1na2vs0mg"},{"bike_id":"46c245cb-ef6a-4279-ac1c-204e6c3e06a3","system_id":"levelo_inurba_marseille","lat":43.26931,"lon":5.389164,"is_reserved":false,"is_disabled":false,"rental_uris":{"android":"levelo://app?vid=46c245cb-ef6a-4279-ac1c-204e6c3e06a3","ios":"levelo://app?vid=46c245cb-ef6a-4279-ac1c-204e6c3e06a3"},"vehicle_type_id":"4","last_reported":1784307488,"current_range_meters":28400,"station_id":"ce4bhhh2rcd13ifvqfl0","pricing_plan_id":"cebpf4jnsgd1na2vs0mg"},{"bike_id":"44a2d414-1ac1-4189-b47c-dc4459103bc9","system_id":"levelo_inurba_marseille","lat":43.33757,"lon":5.37443,"is_reserved":false,"is_disabled":false,"rental_uris":{"android":"levelo://app?vid=44a2d414-1ac1-4189-b47c-dc4459103bc9","ios":"levelo://app?vid=44a2d414-1ac1-4189-b47c-dc4459103bc9"},"vehicle_type_id":"4","last_reported":1784307488,"current_range_meters":34800,"station_id":"","pricing_plan_id":"cebpf4jnsgd1na2vs0mg"},{"bike_id":"75d7e36d-35b7-4486-9872-b1f534a7dfd2","system_id":"levelo_inurba_marseille","lat":43.24384,"lon":5.37051,"is_reserved":false,"is_disabled":false,"rental_uris":{"android":"levelo://app?vid=75d7e36d-35b7-4486-9872-b1f534a7dfd2","ios":"levelo://app?vid=75d7e36d-35b7-4486-9872-b1f534a7dfd2"},"vehicle_type_id":"4","last_reported":1784307488,"current_range_meters":38800,"station_id":"ce4bhhh2rcd13ifvqfk0","pricing_plan_id":"cebpf4jnsgd1na2vs0mg"},{"bike_id":"299fcb45-83c7-494f-8147-20df8b9e7996","system_id":"levelo_inurba_marseille","lat":43.28932,"lon":5.36627,"is_reserved":false,"is_disabled":false,"rental_uris":{"android":"levelo://app?vid=299fcb45-83c7-494f-8147-20df8b9e7996","ios":"levelo://app?vid=299fcb45-83c7-494f-8147-20df8b9e7996"},"vehicle_type_id":"4","last_reported":1784307488,"current_range_meters":4400,"station_id":"ce4bhap2rcd13ifvqek0","pricing_plan_id":"cebpf4jnsgd1na2vs0mg"},{"bike_id":"3c5ffc7e-5f22-44bb-9587-c15e8e458634","system_id":"levelo_inurba_marseille","lat":43.30323,"lon":5.40429,"is_reserved":false,"is_disabled":false,"rental_uris":{"android":"levelo://app?vid=3c5ffc7e-5f22-44bb-9587-c15e8e458634","ios":"levelo://app?vid=3c5ffc7e-5f22-44bb-9587-c15e8e458634"},"vehicle_type_id":"4","last_reported":1784307488,"current_range_meters":38000,"station_id":"ce4bh012rcd13ifvqd10","pricing_plan_id":"cebpf4jnsgd1na2vs0mg"},{"bike_id":"aa899d6f-0408-4a23-8d3b-ffb1059b430c","system_id":"levelo_inurba_marseille","lat":43.23972,"lon":5.36639,"is_reserved":false,"is_disabled":false,"rental_uris":{"android":"levelo://app?vid=aa899d6f-0408-4a23-8d3b-ffb1059b430c","ios":"levelo://app?vid=aa899d6f-0408-4a23-8d3b-ffb1059b430c"},"vehicle_type_id":"4","last_reported":1784307488,"current_range_meters":11600,"station_id":"ce4bhi12rcd13ifvqfp0","pricing_plan_id":"cebpf4jnsgd1na2vs0mg"},{"bike_id":"9dcfdf96-578b-46e7-b429-1767b2ea8f00","system_id":"levelo_inurba_marseille","lat":43.247,"lon":5.3817,"is_reserved":false,"is_disabled":false,"rental_uris":{"android":"levelo://app?vid=9dcfdf96-578b-46e7-b429-1767b2ea8f00","ios":"levelo://app?vid=9dcfdf96-578b-46e7-b429-1767b2ea8f00"},"vehicle_type_id":"4","last_reported":1784307488,"current_range_meters":39200,"station_id":"ce4bhih2rcd13ifvqfr0","pricing_plan_id":"cebpf4jnsgd1na2vs0mg"},{"bike_id":"dc4c93a3-6501-4490-84f2-6b360c441e0b","system_id":"levelo_inurba_marseille","lat":43.29192,"lon":5.35782,"is_reserved":false,"is_disabled":false,"rental_uris":{"android":"levelo://app?vid=dc4c93a3-6501-4490-84f2-6b360c441e0b","ios":"levelo://app?vid=dc4c93a3-6501-4490-84f2-6b360c441e0b"},"vehicle_type_id":"4","last_reported":1784307488,"current_range_meters":28000,"station_id":"ce4bhb12rcd13ifvqel0","pricing_plan_id":"cebpf4jnsgd1na2vs0mg"},{"bike_id":"313bbed8-31cd-4778-8bec-89f0da621e3b","system_id":"levelo_inurba_marseille","lat":43.24814,"lon":5.37419,"is_reserved":false,"is_disabled":false,"rental_uris":{"android":"levelo://app?vid=313bbed8-31cd-4778-8bec-89f0da621e3b","ios":"levelo://app?vid=313bbed8-31cd-4778-8bec-89f0da621e3b"},"vehicle_type_id":"4","last_reported":1784307488,"current_range_meters":38000,"station_id":"ce4bhgh2rcd13ifvqfb0","pricing_plan_id":"cebpf4jnsgd1na2vs0mg"},{"bike_id":"7604574c-06cb-407e-9e16-b7858411e1bc","system_id":"levelo_inurba_marseille","lat":43.27817,"lon":5.40702,"is_reserved":false,"is_disabled":true,"rental_uris":{"android":"levelo://app?vid=7604574c-06cb-407e-9e16-b7858411e1bc","ios":"levelo://app?vid=7604574c-06cb-407e-9e16-b7858411e1bc"},"vehicle_type_id":"4","last_reported":1784307488,"current_range_meters":20800,"station_id":"ce4bhnh2rcd13ifvqgtg","pricing_plan_id":"cebpf4jnsgd1na2vs0mg"},{"bike_id":"600d3649-4b6d-473c-a715-d27921e00684","system_id":"levelo_inurba_marseille","lat":43.23188,"lon":5.35539,"is_reserved":false,"is_disabled":false,"rental_uris":{"android":"levelo://app?vid=600d3649-4b6d-473c-a715-d27921e00684","ios":"levelo://app?vid=600d3649-4b6d-473c-a715-d27921e00684"},"vehicle_type_id":"4","last_reported":1784307488,"current_range_meters":25200,"station_id":"ce4bhu92rcd13ifvqi70","pricing_plan_id":"cebpf4jnsgd1na2vs0mg"},{"bike_id":"8601b829-59f8-4eab-bab2-2f8e891d8617","system_id":"levelo_inurba_marseille","lat":43.254993,"lon":5.376487,"is_reserved":false,"is_disabled":false,"rental_uris":{"android":"levelo://app?vid=8601b829-59f8-4eab-bab2-2f8e891d8617","ios":"levelo://app?vid=8601b829-59f8-4eab-bab2-2f8e891d8617"},"vehicle_type_id":"4","last_reported":1784307488,"current_range_meters":28800,"station_id":"ce4bhh12rcd13ifvqff0","pricing_plan_id":"cebpf4jnsgd1na2vs0mg"},{"bike_id":"61f91879-6716-4daa-b1d6-e53cb45051b5","system_id":"levelo_inurba_marseille","lat":43.27378,"lon":5.36249,"is_reserved":false,"is_disabled":false,"rental_uris":{"android":"levelo://app?vid=61f91879-6716-4daa-b1d6-e53cb45051b5","ios":"levelo://app?vid=61f91879-6716-4daa-b1d6-e53cb45051b5"},"vehicle_type_id":"4","last_reported":1784307488,"current_range_meters":39200,"station_id":"ce4bhbh2rcd13ifvqeo0","pricing_plan_id":"cebpf4jnsgd1na2vs0mg"},{"bike_id":"d1210815-3b6f-46d9-8562-5a9f90c2f696","system_id":"levelo_inurba_marseille","lat":43.29193,"lon":5.358,"is_reserved":false,"is_disabled":true,"rental_uris":{"android":"levelo://app?vid=d1210815-3b6f-46d9-8562-5a9f90c2f696","ios":"levelo://app?vid=d1210815-3b6f-46d9-8562-5a9f90c2f696"},"vehicle_type_id":"4","last_reported":1784307488,"current_range_meters":9600,"station_id":"ce4bhb12rcd13ifvqel0","pricing_plan_id":"cebpf4jnsgd1na2vs0mg"},{"bike_id":"625b633d-f8de-424b-ba0e-8c9213c1a102","system_id":"levelo_inurba_marseille","lat":43.29957,"lon":5.41318,"is_reserved":false,"is_disabled":false,"rental_uris":{"android":"levelo://app?vid=625b633d-f8de-424b-ba0e-8c9213c1a102","ios":"levelo://app?vid=625b633d-f8de-424b-ba0e-8c9213c1a102"},"vehicle_type_id":"4","last_reported":1784307488,"current_range_meters":9200,"station_id":"ce4bhp12rcd13ifvqh9g","pricing_plan_id":"cebpf4jnsgd1na2vs0mg"},{"bike_id":"08ece367-f2bf-4bfe-ad49-8f2ead69141b","system_id":"levelo_inurba_marseille","lat":43.27371,"lon":5.36232,"is_reserved":false,"is_disabled":false,"rental_uris":{"android":"levelo://app?vid=08ece367-f2bf-4bfe-ad49-8f2ead69141b","ios":"levelo://app?vid=08ece367-f2bf-4bfe-ad49-8f2ead69141b"},"vehicle_type_id":"4","last_reported":1784307488,"current_range_meters":30800,"station_id":"ce4bhbh2rcd13ifvqeo0","pricing_plan_id":"cebpf4jnsgd1na2vs0mg"},{"bike_id":"4f68d89f-2860-4fe4-aeef-ae7316f7c98e","system_id":"levelo_inurba_marseille","lat":43.28942,"lon":5.42788,"is_reserved":false,"is_disabled":false,"rental_uris":{"android":"levelo://app?vid=4f68d89f-2860-4fe4-aeef-ae7316f7c98e","ios":"levelo://app?vid=4f68d89f-2860-4fe4-aeef-ae7316f7c98e"},"vehicle_type_id":"4","last_reported":1784307488,"current_range_meters":24800,"station_id":"","pricing_plan_id":"cebpf4jnsgd1na2vs0mg"},{"bike_id":"2a104c56-9723-43b0-ace1-dfc99a308b19","system_id":"levelo_inurba_marseille","lat":43.323581,"lon":5.367507,"is_reserved":false,"is_disabled":false,"rental_uris":{"android":"levelo://app?vid=2a104c56-9723-43b0-ace1-dfc99a308b19","ios":"levelo://app?vid=2a104c56-9723-43b0-ace1-dfc99a308b19"},"vehicle_type_id":"4","last_reported":1784307488,"current_range_meters":4400,"station_id":"st_d6o2h0d0559c73evc1b0","pricing_plan_id":"cebpf4jnsgd1na2vs0mg"},{"bike_id":"35bd0f1d-508e-41f7-83fa-f3e805aab35e","system_id":"levelo_inurba_marseille","lat":43.30284,"lon":5.3768,"is_reserved":false,"is_disabled":true,"rental_uris":{"android":"levelo://app?vid=35bd0f1d-508e-41f7-83fa-f3e805aab35e","ios":"levelo://app?vid=35bd0f1d-508e-41f7-83fa-f3e805aab35e"},"vehicle_type_id":"4","last_reported":1784307488,"current_range_meters":12000,"station_id":"ce4bguh2rcd13ifvqcj0","pricing_plan_id":"cebpf4jnsgd1na2vs0mg"},{"bike_id":"16d35d02-7447-43b0-ac6e-9b3ecf023a4a","system_id":"levelo_inurba_marseille","lat":43.26028,"lon":5.3754,"is_reserved":false,"is_disabled":false,"rental_uris":{"android":"levelo://app?vid=16d35d02-7447-43b0-ac6e-9b3ecf023a4a","ios":"levelo://app?vid=16d35d02-7447-43b0-ac6e-9b3ecf023a4a"},"vehicle_type_id":"4","last_reported":1784307488,"current_range_meters":25200,"station_id":"ce4bhgh2rcd13ifvqfa0","pricing_plan_id":"cebpf4jnsgd1na2vs0mg"},{"bike_id":"136782fe-0c34-4de8-8999-7c1bd197143c","system_id":"levelo_inurba_marseille","lat":43.26208,"lon":5.37444,"is_reserved":false,"is_disabled":false,"rental_uris":{"android":"levelo://app?vid=136782fe-0c34-4de8-8999-7c1bd197143c","ios":"levelo://app?vid=136782fe-0c34-4de8-8999-7c1bd197143c"},"vehicle_type_id":"4","last_reported":1784307488,"current_range_meters":17200,"station_id":"ce4bhgp2rcd13ifvqfc0","pricing_plan_id":"cebpf4jnsgd1na2vs0mg"},{"bike_id":"aa5d3c4c-9f33-4be5-be80-01a02d569199","system_id":"levelo_inurba_marseille","lat":43.26936,"lon":5.3891,"is_reserved":false,"is_disabled":true,"rental_uris":{"android":"levelo://app?vid=aa5d3c4c-9f33-4be5-be80-01a02d569199","ios":"levelo://app?vid=aa5d3c4c-9f33-4be5-be80-01a02d569199"},"vehicle_type_id":"4","last_reported":1784307488,"current_range_meters":35600,"station_id":"ce4bhhh2rcd13ifvqfl0","pricing_plan_id":"cebpf4jnsgd1na2vs0mg"},{"bike_id":"098cb1b0-aa89-454f-9bc2-2c4ea2f0e0ee","system_id":"levelo_inurba_marseille","lat":43.31558,"lon":5.40476,"is_reserved":false,"is_disabled":false,"rental_uris":{"android":"levelo://app?vid=098cb1b0-aa89-454f-9bc2-2c4ea2f0e0ee","ios":"levelo://app?vid=098cb1b0-aa89-454f-9bc2-2c4ea2f0e0ee"},"vehicle_type_id":"4","last_reported":1784307488,"current_range_meters":19200,"station_id":"","pricing_plan_id":"cebpf4jnsgd1na2vs0mg"},{"bike_id":"c6ef31dd-6b54-4ef0-9f19-8043d5720118","system_id":"levelo_inurba_marseille","lat":43.28272,"lon":5.35065,"is_reserved":false,"is_disabled":false,"rental_uris":{"android":"levelo://app?vid=c6ef31dd-6b54-4ef0-9f19-8043d5720118","ios":"levelo://app?vid=c6ef31dd-6b54-4ef0-9f19-8043d5720118"},"vehicle_type_id":"4","last_reported":1784307488,"current_range_meters":27200,"station_id":"ce4bhbp2rcd13ifvqerg","pricing_plan_id":"cebpf4jnsgd1na2vs0mg"},{"bike_id":"e6f9c658-d2d8-4403-8906-affa6dfc6faf","system_id":"levelo_inurba_marseille","lat":43.26568,"lon":5.37283,"is_reserved":false,"is_disabled":false,"rental_uris":{"android":"levelo://app?vid=e6f9c658-d2d8-4403-8906-affa6dfc6faf","ios":"levelo://app?vid=e6f9c658-d2d8-4403-8906-affa6dfc6faf"},"vehicle_type_id":"4","last_reported":1784307488,"current_range_meters":39200,"station_id":"ce4bhg12rcd13ifvqf70","pricing_plan_id":"cebpf4jnsgd1na2vs0mg"},{"bike_id":"5a29e6f3-d0ba-49e7-af5d-f8e60471c1fc","system_id":"levelo_inurba_marseille","lat":43.27443,"lon":5.42473,"is_reserved":false,"is_disabled":true,"rental_uris":{"android":"levelo://app?vid=5a29e6f3-d0ba-49e7-af5d-f8e60471c1fc","ios":"levelo://app?vid=5a29e6f3-d0ba-49e7-af5d-f8e60471c1fc"},"vehicle_type_id":"4","last_reported":1784307488,"current_range_meters":9600,"station_id":"","pricing_plan_id":"cebpf4jnsgd1na2vs0mg"},{"bike_id":"81ca3ada-0818-4f62-8bb9-e6024f14a74c","system_id":"levelo_inurba_marseille","lat":43.23201,"lon":5.35548,"is_reserved":false,"is_disabled":false,"rental_uris":{"android":"levelo://app?vid=81ca3ada-0818-4f62-8bb9-e6024f14a74c","ios":"levelo://app?vid=81ca3ada-0818-4f62-8bb9-e6024f14a74c"},"vehicle_type_id":"4","last_reported":1784307488,"current_range_meters":12000,"station_id":"ce4bhu92rcd13ifvqi70","pricing_plan_id":"cebpf4jnsgd1na2vs0mg"},{"bike_id":"d3b82640-d84c-42c7-8c57-b5a14f4fcab5","system_id":"levelo_inurba_marseille","lat":43.30872,"lon":5.37187,"is_reserved":false,"is_disabled":false,"rental_uris":{"android":"levelo://app?vid=d3b82640-d84c-42c7-8c57-b5a14f4fcab5","ios":"levelo://app?vid=d3b82640-d84c-42c7-8c57-b5a14f4fcab5"},"vehicle_type_id":"4","last_reported":1784307488,"current_range_meters":37600,"station_id":"ce4bguh2rcd13ifvqckg","pricing_plan_id":"cebpf4jnsgd1na2vs0mg"},{"bike_id":"36bbc6f1-ba1a-4a40-92ba-52995c481a95","system_id":"levelo_inurba_marseille","lat":43.28849,"lon":5.35814,"is_reserved":false,"is_disabled":false,"rental_uris":{"android":"levelo://app?vid=36bbc6f1-ba1a-4a40-92ba-52995c481a95","ios":"levelo://app?vid=36bbc6f1-ba1a-4a40-92ba-52995c481a95"},"vehicle_type_id":"4","last_reported":1784307488,"current_range_meters":4800,"station_id":"ce4bhb12rcd13ifvqem0","pricing_plan_id":"cebpf4jnsgd1na2vs0mg"},{"bike_id":"57c66e41-d905-4d3e-bdab-9d946f2a37e8","system_id":"levelo_inurba_marseille","lat":43.286134,"lon":5.350956,"is_reserved":false,"is_disabled":false,"rental_uris":{"android":"levelo://app?vid=57c66e41-d905-4d3e-bdab-9d946f2a37e8","ios":"levelo://app?vid=57c66e41-d905-4d3e-bdab-9d946f2a37e8"},"vehicle_type_id":"4","last_reported":1784307488,"current_range_meters":29600,"station_id":"ce4bhch2rcd13ifvqeug","pricing_plan_id":"cebpf4jnsgd1na2vs0mg"},{"bike_id":"c5aaf3f4-9765-46a7-8a97-a50fca8a2532","system_id":"levelo_inurba_marseille","lat":43.30543,"lon":5.36523,"is_reserved":false,"is_disabled":true,"rental_uris":{"android":"levelo://app?vid=c5aaf3f4-9765-46a7-8a97-a50fca8a2532","ios":"levelo://app?vid=c5aaf3f4-9765-46a7-8a97-a50fca8a2532"},"vehicle_type_id":"4","last_reported":1784307488,"current_range_meters":0,"station_id":"","pricing_plan_id":"cebpf4jnsgd1na2vs0mg"},{"bike_id":"50aa6815-cb65-48bd-999a-1d2dfbbe24c7","system_id":"levelo_inurba_marseille","lat":43.28481,"lon":5.48398,"is_reserved":false,"is_disabled":false,"rental_uris":{"android":"levelo://app?vid=50aa6815-cb65-48bd-999a-1d2dfbbe24c7","ios":"levelo://app?vid=50aa6815-cb65-48bd-999a-1d2dfbbe24c7"},"vehicle_type_id":"4","last_reported":1784307488,"current_range_meters":6400,"station_id":"st_d3svhcjqgbts73a3dn0g","pricing_plan_id":"cebpf4jnsgd1na2vs0mg"},{"bike_id":"9bb0fd1c-c37f-4b19-9d13-0a17680fd6fb","system_id":"levelo_inurba_marseille","lat":43.32111,"lon":5.3678,"is_reserved":false,"is_disabled":false,"rental_uris":{"android":"levelo://app?vid=9bb0fd1c-c37f-4b19-9d13-0a17680fd6fb","ios":"levelo://app?vid=9bb0fd1c-c37f-4b19-9d13-0a17680fd6fb"},"vehicle_type_id":"4","last_reported":1784307488,"current_range_meters":28000,"station_id":"ce4bhrh2rcd13ifvqhug","pricing_plan_id":"cebpf4jnsgd1na2vs0mg"},{"bike_id":"23e26343-ea32-4a2a-a2df-b0bec56c9bc8","system_id":"levelo_inurba_marseille","lat":43.29885,"lon":5.38887,"is_reserved":false,"is_disabled":false,"rental_uris":{"android":"levelo://app?vid=23e26343-ea32-4a2a-a2df-b0bec56c9bc8","ios":"levelo://app?vid=23e26343-ea32-4a2a-a2df-b0bec56c9bc8"},"vehicle_type_id":"4","last_reported":1784307488,"current_range_meters":14800,"station_id":"ce4bh392rcd13ifvqdl0","pricing_plan_id":"cebpf4jnsgd1na2vs0mg"},{"bike_id":"24edfabe-0d7c-415b-8cf6-84bf60d5e889","system_id":"levelo_inurba_marseille","lat":43.26987,"lon":5.42815,"is_reserved":false,"is_disabled":false,"rental_uris":{"android":"levelo://app?vid=24edfabe-0d7c-415b-8cf6-84bf60d5e889","ios":"levelo://app?vid=24edfabe-0d7c-415b-8cf6-84bf60d5e889"},"vehicle_type_id":"4","last_reported":1784307488,"current_range_meters":14400,"station_id":"","pricing_plan_id":"cebpf4jnsgd1na2vs0mg"},{"bike_id":"8c1cd3b0-887e-4ddf-9bd9-e3ceb7bcb046","system_id":"levelo_inurba_marseille","lat":43.29508,"lon":5.39384,"is_reserved":false,"is_disabled":true,"rental_uris":{"android":"levelo://app?vid=8c1cd3b0-887e-4ddf-9bd9-e3ceb7bcb046","ios":"levelo://app?vid=8c1cd3b0-887e-4ddf-9bd9-e3ceb7bcb046"},"vehicle_type_id":"4","last_reported":1784307488,"current_range_meters":32400,"station_id":"ce4bh292rcd13ifvqdf0","pricing_plan_id":"cebpf4jnsgd1na2vs0mg"},{"bike_id":"abf943ec-6634-4566-b183-6c6a32468bb4","system_id":"levelo_inurba_marseille","lat":43.30883,"lon":5.39658,"is_reserved":false,"is_disabled":false,"rental_uris":{"android":"levelo://app?vid=abf943ec-6634-4566-b183-6c6a32468bb4","ios":"levelo://app?vid=abf943ec-6634-4566-b183-6c6a32468bb4"},"vehicle_type_id":"4","last_reported":1784307488,"current_range_meters":19200,"station_id":"ce4bh012rcd13ifvqcv0","pricing_plan_id":"cebpf4jnsgd1na2vs0mg"},{"bike_id":"8ea951ae-3c04-4f4d-84ef-c50b8288b95d","system_id":"levelo_inurba_marseille","lat":43.27995,"lon":5.38242,"is_reserved":false,"is_disabled":false,"rental_uris":{"android":"levelo://app?vid=8ea951ae-3c04-4f4d-84ef-c50b8288b95d","ios":"levelo://app?vid=8ea951ae-3c04-4f4d-84ef-c50b8288b95d"},"vehicle_type_id":"4","last_reported":1784307488,"current_range_meters":24400,"station_id":"","pricing_plan_id":"cebpf4jnsgd1na2vs0mg"},{"bike_id":"16457c51-6d53-4dff-bc86-7ed0787a1c94","system_id":"levelo_inurba_marseille","lat":43.26209,"lon":5.37443,"is_reserved":false,"is_disabled":false,"rental_uris":{"android":"levelo://app?vid=16457c51-6d53-4dff-bc86-7ed0787a1c94","ios":"levelo://app?vid=16457c51-6d53-4dff-bc86-7ed0787a1c94"},"vehicle_type_id":"4","last_reported":1784307488,"current_range_meters":39200,"station_id":"ce4bhgp2rcd13ifvqfc0","pricing_plan_id":"cebpf4jnsgd1na2vs0mg"},{"bike_id":"a86deb64-24a8-41a6-a9c7-d169fc97becf","system_id":"levelo_inurba_marseille","lat":43.33759,"lon":5.37448,"is_reserved":false,"is_disabled":false,"rental_uris":{"android":"levelo://app?vid=a86deb64-24a8-41a6-a9c7-d169fc97becf","ios":"levelo://app?vid=a86deb64-24a8-41a6-a9c7-d169fc97becf"},