{"last_updated":1732889357,"ttl":60,"version":"2.2","data":{"bikes":[{"bike_id":"9e6f9084-0fc6-4021-b0ce-8d7ff0482f12","system_id":"levelo_inurba_marseille","lat":43.30427,"lon":5.39749,"is_reserved":false,"is_disabled":false,"rental_uris":{"android":"levelo://app?vid=9e6f9084-0fc6-4021-b0ce-8d7ff0482f12","ios":"levelo://app?vid=9e6f9084-0fc6-4021-b0ce-8d7ff0482f12"},"vehicle_type_id":"4","last_reported":1732889357,"current_range_meters":10000,"station_id":"ce4bh092rcd13ifvqd20","pricing_plan_id":"cebpf4jnsgd1na2vs0mg"},{"bike_id":"a6938546-9c24-4db5-ab33-e50997791d9c","system_id":"levelo_inurba_marseille","lat":43.28157,"lon":5.42645,"is_reserved":false,"is_disabled":true,"rental_uris":{"android":"levelo://app?vid=a6938546-9c24-4db5-ab33-e50997791d9c","ios":"levelo://app?vid=a6938546-9c24-4db5-ab33-e50997791d9c"},"vehicle_type_id":"4","last_reported":1732889357,"current_range_meters":0,"station_id":"ce4bhnh2rcd13ifvqgug","pricing_plan_id":"cebpf4jnsgd1na2vs0mg"},{"bike_id":"62697a81-127d-436c-8167-72b1b34826a6","system_id":"levelo_inurba_marseille","lat":43.2782,"lon":5.40721,"is_reserved":false,"is_disabled":false,"rental_uris":{"android":"levelo://app?vid=62697a81-127d-436c-8167-72b1b34826a6","ios":"levelo://app?vid=62697a81-127d-436c-8167-72b1b34826a6"},"vehicle_type_id":"4","last_reported":1732889357,"current_range_meters":14800,"station_id":"ce4bhnh2rcd13ifvqgtg","pricing_plan_id":"cebpf4jnsgd1na2vs0mg"},{"bike_id":"b856c8b4-412d-4c25-bdd4-e6b29aed04cb","system_id":"levelo_inurba_marseille","lat":43.22932,"lon":5.35378,"is_reserved":false,"is_disabled":false,"rental_uris":{"android":"levelo://app?vid=b856c8b4-412d-4c25-bdd4-e6b29aed04cb","ios":"levelo://app?vid=b856c8b4-412d-4c25-bdd4-e6b29aed04cb"},"vehicle_type_id":"4","last_reported":1732889357,"current_range_meters":38800,"station_id":"cpo3532slgdg3j2ikp40","pricing_plan_id":"cebpf4jnsgd1na2vs0mg"},{"bike_id":"6e0ee7c2-7afb-46ee-b0c4-535ee0ff47a8","system_id":"levelo_inurba_marseille","lat":43.297874,"lon":5.363696,"is_reserved":false,"is_disabled":false,"rental_uris":{"android":"levelo://app?vid=6e0ee7c2-7afb-46ee-b0c4-535ee0ff47a8","ios":"levelo://app?vid=6e0ee7c2-7afb-46ee-b0c4-535ee0ff47a8"},"vehicle_type_id":"4","last_reported":1732889357,"current_range_meters":32000,"station_id":"ce4bgpp2rcd13ifvqc3g","pricing_plan_id":"cebpf4jnsgd1na2vs0mg"},{"bike_id":"43602253-a5d2-4025-a10b-e226dca7b09e","system_id":"levelo_inurba_marseille","lat":43.31221,"lon":5.36864,"is_reserved":false,"is_disabled":false,"rental_uris":{"android":"levelo://app?vid=43602253-a5d2-4025-a10b-e226dca7b09e","ios":"levelo://app?vid=43602253-a5d2-4025-a10b-e226dca7b09e"},"vehicle_type_id":"4","last_reported":1732889357,"current_range_meters":39200,"station_id":"ce4bgl92rcd13ifvqbq0","pricing_plan_id":"cebpf4jnsgd1na2vs0mg"},{"bike_id":"9e9dcd02-879d-494d-96c6-4e4120f62a9f","system_id":"levelo_inurba_marseille","lat":43.28413,"lon":5.3499,"is_reserved":false,"is_disabled":false,"rental_uris":{"android":"levelo://app?vid=9e9dcd02-879d-494d-96c6-4e4120f62a9f","ios":"levelo://app?vid=9e9dcd02-879d-494d-96c6-4e4120f62a9f"},"vehicle_type_id":"4","last_reported":1732889357,"current_range_meters":23200,"station_id":"ce4bhbh2rcd13ifvqepg","pricing_plan_id":"cebpf4jnsgd1na2vs0mg"},{"bike_id":"30212023-fb77-4912-96b3-8d8de1c61064","system_id":"levelo_inurba_marseille","lat":43.32039,"lon":5.41571,"is_reserved":false,"is_disabled":false,"rental_uris":{"android":"levelo://app?vid=30212023-fb77-4912-96b3-8d8de1c61064","ios":"levelo://app?vid=30212023-fb77-4912-96b3-8d8de1c61064"},"vehicle_type_id":"4","last_reported":1732889357,"current_range_meters":38800,"station_id":"ce4bhq92rcd13ifvqhkg","pricing_plan_id":"cebpf4jnsgd1na2vs0mg"},{"bike_id":"f7e5dec7-3406-4737-8cf9-610c894cdb01","system_id":"levelo_inurba_marseille","lat":43.23968,"lon":5.36627,"is_reserved":false,"is_disabled":false,"rental_uris":{"android":"levelo://app?vid=f7e5dec7-3406-4737-8cf9-610c894cdb01","ios":"levelo://app?vid=f7e5dec7-3406-4737-8cf9-610c894cdb01"},"vehicle_type_id":"4","last_reported":1732889357,"current_range_meters":38400,"station_id":"ce4bhi12rcd13ifvqfp0","pricing_plan_id":"cebpf4jnsgd1na2vs0mg"},{"bike_id":"b68e4575-2d7c-4a35-ae3f-f8d5fcf2bebb","system_id":"levelo_inurba_marseille","lat":43.29933,"lon":5.36554,"is_reserved":false,"is_disabled":false,"rental_uris":{"android":"levelo://app?vid=b68e4575-2d7c-4a35-ae3f-f8d5fcf2bebb","ios":"levelo://app?vid=b68e4575-2d7c-4a35-ae3f-f8d5fcf2bebb"},"vehicle_type_id":"4","last_reported":1732889357,"current_range_meters":36400,"station_id":"ce4bgm92rcd13ifvqbr0","pricing_plan_id":"cebpf4jnsgd1na2vs0mg"},{"bike_id":"16150c1d-9d7d-4407-8b27-5c9743ca1040","system_id":"levelo_inurba_marseille","lat":43.30523,"lon":5.39222,"is_reserved":false,"is_disabled":false,"rental_uris":{"android":"levelo://app?vid=16150c1d-9d7d-4407-8b27-5c9743ca1040","ios":"levelo://app?vid=16150c1d-9d7d-4407-8b27-5c9743ca1040"},"vehicle_type_id":"4","last_reported":1732889357,"current_range_meters":26000,"station_id":"","pricing_plan_id":"cebpf4jnsgd1na2vs0mg"},{"bike_id":"7cbe6113-1b57-4d4f-bd28-9cbb1e9a9aba","system_id":"levelo_inurba_marseille","lat":43.26206,"lon":5.3793,"is_reserved":false,"is_disabled":false,"rental_uris":{"android":"levelo://app?vid=7cbe6113-1b57-4d4f-bd28-9cbb1e9a9aba","ios":"levelo://app?vid=7cbe6113-1b57-4d4f-bd28-9cbb1e9a9aba"},"vehicle_type_id":"4","last_reported":1732889357,"current_range_meters":19200,"station_id":"ce4bhjp2rcd13ifvqg90","pricing_plan_id":"cebpf4jnsgd1na2vs0mg"},{"bike_id":"e587a1bb-dc9f-463c-ae3f-6e431dc281cc","system_id":"levelo_inurba_marseille","lat":43.34139,"lon":5.40912,"is_reserved":false,"is_disabled":false,"rental_uris":{"android":"levelo://app?vid=e587a1bb-dc9f-463c-ae3f-6e431dc281cc","ios":"levelo://app?vid=e587a1bb-dc9f-463c-ae3f-6e431dc281cc"},"vehicle_type_id":"4","last_reported":1732889357,"current_range_meters":8400,"station_id":"ce4bhqh2rcd13ifvqhlg","pricing_plan_id":"cebpf4jnsgd1na2vs0mg"},{"bike_id":"b5600d7c-c614-4eb1-9670-99158f9d6037","system_id":"levelo_inurba_marseille","lat":43.32659,"lon":5.40992,"is_reserved":false,"is_disabled":false,"rental_uris":{"android":"levelo://app?vid=b5600d7c-c614-4eb1-9670-99158f9d6037","ios":"levelo://app?vid=b5600d7c-c614-4eb1-9670-99158f9d6037"},"vehicle_type_id":"4","last_reported":1732889357,"current_range_meters":39200,"station_id":"ce4bhpp2rcd13ifvqhgg","pricing_plan_id":"cebpf4jnsgd1na2vs0mg"},{"bike_id":"6a609512-d3a8-4df1-b5c7-3355a5b889de","system_id":"levelo_inurba_marseille","lat":43.28271,"lon":5.3509,"is_reserved":false,"is_disabled":true,"rental_uris":{"android":"levelo://app?vid=6a609512-d3a8-4df1-b5c7-3355a5b889de","ios":"levelo://app?vid=6a609512-d3a8-4df1-b5c7-3355a5b889de"},"vehicle_type_id":"4","last_reported":1732889357,"current_range_meters":26000,"station_id":"ce4bhbp2rcd13ifvqerg","pricing_plan_id":"cebpf4jnsgd1na2vs0mg"},{"bike_id":"05365ea2-e3db-44da-96aa-8aca19048c89","system_id":"levelo_inurba_marseille","lat":43.27569,"lon":5.38432,"is_reserved":false,"is_disabled":false,"rental_uris":{"android":"levelo://app?vid=05365ea2-e3db-44da-96aa-8aca19048c89","ios":"levelo://app?vid=05365ea2-e3db-44da-96aa-8aca19048c89"},"vehicle_type_id":"4","last_reported":1732889357,"current_range_meters":38000,"station_id":"ce4bhh92rcd13ifvqfi0","pricing_plan_id":"cebpf4jnsgd1na2vs0mg"},{"bike_id":"9b9b4866-f123-4e9b-bc92-12f1937e5433","system_id":"levelo_inurba_marseille","lat":43.2718,"lon":5.40999,"is_reserved":false,"is_disabled":false,"rental_uris":{"android":"levelo://app?vid=9b9b4866-f123-4e9b-bc92-12f1937e5433","ios":"levelo://app?vid=9b9b4866-f123-4e9b-bc92-12f1937e5433"},"vehicle_type_id":"4","last_reported":1732889357,"current_range_meters":24800,"station_id":"ce4bhl12rcd13ifvqgf0","pricing_plan_id":"cebpf4jnsgd1na2vs0mg"},{"bike_id":"310b9c25-7d37-4ab9-a23e-f40557e70aa4","system_id":"levelo_inurba_marseille","lat":43.24181,"lon":5.39735,"is_reserved":false,"is_disabled":false,"rental_uris":{"android":"levelo://app?vid=310b9c25-7d37-4ab9-a23e-f40557e70aa4","ios":"levelo://app?vid=310b9c25-7d37-4ab9-a23e-f40557e70aa4"},"vehicle_type_id":"4","last_reported":1732889357,"current_range_meters":28800,"station_id":"ce4bhn12rcd13ifvqgpg","pricing_plan_id":"cebpf4jnsgd1na2vs0mg"},{"bike_id":"9c3d00f9-3e45-4da9-b871-16244d4a2ffb","system_id":"levelo_inurba_marseille","lat":43.27056,"lon":5.40258,"is_reserved":false,"is_disabled":false,"rental_uris":{"android":"levelo://app?vid=9c3d00f9-3e45-4da9-b871-16244d4a2ffb","ios":"levelo://app?vid=9c3d00f9-3e45-4da9-b871-16244d4a2ffb"},"vehicle_type_id":"4","last_reported":1732889357,"current_range_meters":25600,"station_id":"ce4bhk92rcd13ifvqgc0","pricing_plan_id":"cebpf4jnsgd1na2vs0mg"},{"bike_id":"ba4022c0-30b9-42fe-bc65-2cf0fb08b7f3","system_id":"levelo_inurba_marseille","lat":43.31227,"lon":5.36862,"is_reserved":false,"is_disabled":false,"rental_uris":{"android":"levelo://app?vid=ba4022c0-30b9-42fe-bc65-2cf0fb08b7f3","ios":"levelo://app?vid=ba4022c0-30b9-42fe-bc65-2cf0fb08b7f3"},"vehicle_type_id":"4","last_reported":1732889357,"current_range_meters":10800,"station_id":"ce4bgl92rcd13ifvqbq0","pricing_plan_id":"cebpf4jnsgd1na2vs0mg"},{"bike_id":"b02cd3e8-db2f-456e-a574-07b36e2b5010","system_id":"levelo_inurba_marseille","lat":43.26928,"lon":5.38925,"is_reserved":false,"is_disabled":false,"rental_uris":{"android":"levelo://app?vid=b02cd3e8-db2f-456e-a574-07b36e2b5010","ios":"levelo://app?vid=b02cd3e8-db2f-456e-a574-07b36e2b5010"},"vehicle_type_id":"4","last_reported":1732889357,"current_range_meters":39200,"station_id":"ce4bhhh2rcd13ifvqfl0","pricing_plan_id":"cebpf4jnsgd1na2vs0mg"},{"bike_id":"6f7949e1-de87-4a49-8620-fec27e04447f","system_id":"levelo_inurba_marseille","lat":43.33728,"lon":5.39192,"is_reserved":false,"is_disabled":false,"rental_uris":{"android":"levelo://app?vid=6f7949e1-de87-4a49-8620-fec27e04447f","ios":"levelo://app?vid=6f7949e1-de87-4a49-8620-fec27e04447f"},"vehicle_type_id":"4","last_reported":1732889357,"current_range_meters":30800,"station_id":"ce4bhr92rcd13ifvqhsg","pricing_plan_id":"cebpf4jnsgd1na2vs0mg"},{"bike_id":"9e577497-d087-4b43-8ab2-941ed4deeb60","system_id":"levelo_inurba_marseille","lat":43.30464,"lon":5.37909,"is_reserved":false,"is_disabled":false,"rental_uris":{"android":"levelo://app?vid=9e577497-d087-4b43-8ab2-941ed4deeb60","ios":"levelo://app?vid=9e577497-d087-4b43-8ab2-941ed4deeb60"},"vehicle_type_id":"4","last_reported":1732889357,"current_range_meters":14400,"station_id":"ce4bgup2rcd13ifvqcn0","pricing_plan_id":"cebpf4jnsgd1na2vs0mg"},{"bike_id":"d6af473c-317d-44a4-ba58-092abf84584f","system_id":"levelo_inurba_marseille","lat":43.22933,"lon":5.3538,"is_reserved":false,"is_disabled":false,"rental_uris":{"android":"levelo://app?vid=d6af473c-317d-44a4-ba58-092abf84584f","ios":"levelo://app?vid=d6af473c-317d-44a4-ba58-092abf84584f"},"vehicle_type_id":"4","last_reported":1732889357,"current_range_meters":38800,"station_id":"cpo3532slgdg3j2ikp40","pricing_plan_id":"cebpf4jnsgd1na2vs0mg"},{"bike_id":"79da6e11-068f-4f85-891a-bf5d6033ae1b","system_id":"levelo_inurba_marseille","lat":43.29192,"lon":5.39322,"is_reserved":false,"is_disabled":true,"rental_uris":{"android":"levelo://app?vid=79da6e11-068f-4f85-891a-bf5d6033ae1b","ios":"levelo://app?vid=79da6e11-068f-4f85-891a-bf5d6033ae1b"},"vehicle_type_id":"4","last_reported":1732889357,"current_range_meters":28400,"station_id":"ce4bh192rcd13ifvqdd0","pricing_plan_id":"cebpf4jnsgd1na2vs0mg"},{"bike_id":"f8709e69-da11-4687-97f9-74409cee8d5c","system_id":"levelo_inurba_marseille","lat":43.31166,"lon":5.38717,"is_reserved":false,"is_disabled":false,"rental_uris":{"android":"levelo://app?vid=f8709e69-da11-4687-97f9-74409cee8d5c","ios":"levelo://app?vid=f8709e69-da11-4687-97f9-74409cee8d5c"},"vehicle_type_id":"4","last_reported":1732889357,"current_range_meters":14800,"station_id":"ce4bgv12rcd13ifvqcp0","pricing_plan_id":"cebpf4jnsgd1na2vs0mg"},{"bike_id":"3c6100c6-e168-46cf-93b7-3e5f63ed76d2","system_id":"levelo_inurba_marseille","lat":43.30535,"lon":5.36527,"is_reserved":false,"is_disabled":false,"rental_uris":{"android":"levelo://app?vid=3c6100c6-e168-46cf-93b7-3e5f63ed76d2","ios":"levelo://app?vid=3c6100c6-e168-46cf-93b7-3e5f63ed76d2"},"vehicle_type_id":"4","last_reported":1732889357,"current_range_meters":8800,"station_id":"ce4bgs12rcd13ifvqcag","pricing_plan_id":"cebpf4jnsgd1na2vs0mg"},{"bike_id":"624b0779-cf44-48d8-832a-09c31b200808","system_id":"levelo_inurba_marseille","lat":43.32651,"lon":5.41,"is_reserved":false,"is_disabled":false,"rental_uris":{"android":"levelo://app?vid=624b0779-cf44-48d8-832a-09c31b200808","ios":"levelo://app?vid=624b0779-cf44-48d8-832a-09c31b200808"},"vehicle_type_id":"4","last_reported":1732889357,"current_range_meters":21600,"station_id":"ce4bhpp2rcd13ifvqhgg","pricing_plan_id":"cebpf4jnsgd1na2vs0mg"},{"bike_id":"ea892bfc-250a-4bbc-826d-f378ba2b4d02","system_id":"levelo_inurba_marseille","lat":43.23063,"lon":5.35492,"is_reserved":false,"is_disabled":false,"rental_uris":{"android":"levelo://app?vid=ea892bfc-250a-4bbc-826d-f378ba2b4d02","ios":"levelo://app?vid=ea892bfc-250a-4bbc-826d-f378ba2b4d02"},"vehicle_type_id":"4","last_reported":1732889357,"current_range_meters":20400,"station_id":"cpo3342slgdg3j2ifvpg","pricing_plan_id":"cebpf4jnsgd1na2vs0mg"},{"bike_id":"c0cf1ea7-c7f3-4616-b6ae-cbaccaff862f","system_id":"levelo_inurba_marseille","lat":43.31346,"lon":5.36711,"is_reserved":false,"is_disabled":false,"rental_uris":{"android":"levelo://app?vid=c0cf1ea7-c7f3-4616-b6ae-cbaccaff862f","ios":"levelo://app?vid=c0cf1ea7-c7f3-4616-b6ae-cbaccaff862f"},"vehicle_type_id":"4","last_reported":1732889357,"current_range_meters":9200,"station_id":"ce4bgr92rcd13ifvqc6g","pricing_plan_id":"cebpf4jnsgd1na2vs0mg"},{"bike_id":"7b5f11cb-c0c4-485c-b2e8-819c7ab373aa","system_id":"levelo_inurba_marseille","lat":43.32481,"lon":5.36563,"is_reserved":false,"is_disabled":true,"rental_uris":{"android":"levelo://app?vid=7b5f11cb-c0c4-485c-b2e8-819c7ab373aa","ios":"levelo://app?vid=7b5f11cb-c0c4-485c-b2e8-819c7ab373aa"},"vehicle_type_id":"4","last_reported":1732889357,"current_range_meters":1200,"station_id":"ce4bhs12rcd13ifvqhvg","pricing_plan_id":"cebpf4jnsgd1na2vs0mg"},{"bike_id":"3c7429ac-c5ce-4d48-b743-8c27752cb3c1","system_id":"levelo_inurba_marseille","lat":43.26191,"lon":5.37933,"is_reserved":false,"is_disabled":false,"rental_uris":{"android":"levelo://app?vid=3c7429ac-c5ce-4d48-b743-8c27752cb3c1","ios":"levelo://app?vid=3c7429ac-c5ce-4d48-b743-8c27752cb3c1"},"vehicle_type_id":"4","last_reported":1732889357,"current_range_meters":32000,"station_id":"ce4bhjp2rcd13ifvqg90","pricing_plan_id":"cebpf4jnsgd1na2vs0mg"},{"bike_id":"16b19138-e468-403e-b0b7-71b326405eca","system_id":"levelo_inurba_marseille","lat":43.30297,"lon":5.39198,"is_reserved":false,"is_disabled":false,"rental_uris":{"android":"levelo://app?vid=16b19138-e468-403e-b0b7-71b326405eca","ios":"levelo://app?vid=16b19138-e468-403e-b0b7-71b326405eca"},"vehicle_type_id":"4","last_reported":1732889357,"current_range_meters":32000,"station_id":"ce4bgkh2rcd13ifvqbk0","pricing_plan_id":"cebpf4jnsgd1na2vs0mg"},{"bike_id":"88e865a9-6848-47f6-9795-872ed6237283","system_id":"levelo_inurba_marseille","lat":43.28104,"lon":5.37841,"is_reserved":false,"is_disabled":false,"rental_uris":{"android":"levelo://app?vid=88e865a9-6848-47f6-9795-872ed6237283","ios":"levelo://app?vid=88e865a9-6848-47f6-9795-872ed6237283"},"vehicle_type_id":"4","last_reported":1732889357,"current_range_meters":10000,"station_id":"ce4bha12rcd13ifvqee0","pricing_plan_id":"cebpf4jnsgd1na2vs0mg"},{"bike_id":"4709c438-f4af-415a-a919-d27302b75dca","system_id":"levelo_inurba_marseille","lat":43.23194,"lon":5.35553,"is_reserved":false,"is_disabled":false,"rental_uris":{"android":"levelo://app?vid=4709c438-f4af-415a-a919-d27302b75dca","ios":"levelo://app?vid=4709c438-f4af-415a-a919-d27302b75dca"},"vehicle_type_id":"4","last_reported":1732889357,"current_range_meters":38800,"station_id":"ce4bhu92rcd13ifvqi70","pricing_plan_id":"cebpf4jnsgd1na2vs0mg"},{"bike_id":"d1486dd5-23d4-40bc-bb61-4a3c8126196a","system_id":"levelo_inurba_marseille","lat":43.27364,"lon":5.36255,"is_reserved":false,"is_disabled":true,"rental_uris":{"android":"levelo://app?vid=d1486dd5-23d4-40bc-bb61-4a3c8126196a","ios":"levelo://app?vid=d1486dd5-23d4-40bc-bb61-4a3c8126196a"},"vehicle_type_id":"4","last_reported":1732889357,"current_range_meters":39200,"station_id":"ce4bhbh2rcd13ifvqeo0","pricing_plan_id":"cebpf4jnsgd1na2vs0mg"},{"bike_id":"c34ed66a-f76b-46d6-b519-b3726d77f086","system_id":"levelo_inurba_marseille","lat":43.26811,"lon":5.40263,"is_reserved":false,"is_disabled":false,"rental_uris":{"android":"levelo://app?vid=c34ed66a-f76b-46d6-b519-b3726d77f086","ios":"levelo://app?vid=c34ed66a-f76b-46d6-b519-b3726d77f086"},"vehicle_type_id":"4","last_reported":1732889357,"current_range_meters":38400,"station_id":"ce501612rcd8frsf0b60","pricing_plan_id":"cebpf4jnsgd1na2vs0mg"},{"bike_id":"0bfbcbbe-b0b2-425d-8b8c-5fdf5919caf9","system_id":"levelo_inurba_marseille","lat":43.32657,"lon":5.40992,"is_reserved":false,"is_disabled":false,"rental_uris":{"android":"levelo://app?vid=0bfbcbbe-b0b2-425d-8b8c-5fdf5919caf9","ios":"levelo://app?vid=0bfbcbbe-b0b2-425d-8b8c-5fdf5919caf9"},"vehicle_type_id":"4","last_reported":1732889357,"current_range_meters":14000,"station_id":"ce4bhpp2rcd13ifvqhgg","pricing_plan_id":"cebpf4jnsgd1na2vs0mg"},{"bike_id":"f28d92c7-d1e5-4258-b527-bb86d3b5fc16","system_id":"levelo_inurba_marseille","lat":43.30602,"lon":5.37222,"is_reserved":false,"is_disabled":false,"rental_uris":{"android":"levelo://app?vid=f28d92c7-d1e5-4258-b527-bb86d3b5fc16","ios":"levelo://app?vid=f28d92c7-d1e5-4258-b527-bb86d3b5fc16"},"vehicle_type_id":"4","last_reported":1732889357,"current_range_meters":4000,"station_id":"ce4bgqh2rcd13ifvqc4g","pricing_plan_id":"cebpf4jnsgd1na2vs0mg"},{"bike_id":"d1b1c6a5-0475-49f0-a9b3-06ea6651ce8b","system_id":"levelo_inurba_marseille","lat":43.29001,"lon":5.35615,"is_reserved":false,"is_disabled":false,"rental_uris":{"android":"levelo://app?vid=d1b1c6a5-0475-49f0-a9b3-06ea6651ce8b","ios":"levelo://app?vid=d1b1c6a5-0475-49f0-a9b3-06ea6651ce8b"},"vehicle_type_id":"4","last_reported":1732889357,"current_range_meters":17600,"station_id":"ce4bhb92rcd13ifvqen0","pricing_plan_id":"cebpf4jnsgd1na2vs0mg"},{"bike_id":"2c2dbeed-d8b9-4443-8bc1-facb2c0b2be9","system_id":"levelo_inurba_marseille","lat":43.30422,"lon":5.36851,"is_reserved":false,"is_disabled":false,"rental_uris":{"android":"levelo://app?vid=2c2dbeed-d8b9-4443-8bc1-facb2c0b2be9","ios":"levelo://app?vid=2c2dbeed-d8b9-4443-8bc1-facb2c0b2be9"},"vehicle_type_id":"4","last_reported":1732889357,"current_range_meters":7200,"station_id":"","pricing_plan_id":"cebpf4jnsgd1na2vs0mg"},{"bike_id":"8320af2a-9b04-4063-82ac-be7f3cdbffd9","system_id":"levelo_inurba_marseille","lat":43.29371,"lon":5.37847,"is_reserved":false,"is_disabled":true,"rental_uris":{"android":"levelo://app?vid=8320af2a-9b04-4063-82ac-be7f3cdbffd9","ios":"levelo://app?vid=8320af2a-9b04-4063-82ac-be7f3cdbffd9"},"vehicle_type_id":"4","last_reported":1732889357,"current_range_meters":800,"station_id":"ce4bgjh2rcd13ifvqbf0","pricing_plan_id":"cebpf4jnsgd1na2vs0mg"},{"bike_id":"ed691203-fdfe-4124-95c8-ef76707517b1","system_id":"levelo_inurba_marseille","lat":43.24177,"lon":5.3973,"is_reserved":false,"is_disabled":false,"rental_uris":{"android":"levelo://app?vid=ed691203-fdfe-4124-95c8-ef76707517b1","ios":"levelo://app?vid=ed691203-fdfe-4124-95c8-ef76707517b1"},"vehicle_type_id":"4","last_reported":1732889357,"current_range_meters":22800,"station_id":"ce4bhn12rcd13ifvqgpg","pricing_plan_id":"cebpf4jnsgd1na2vs0mg"},{"bike_id":"25c671bb-530f-4701-941f-f29d027a0db1","system_id":"levelo_inurba_marseille","lat":43.30428,"lon":5.39752,"is_reserved":false,"is_disabled":false,"rental_uris":{"android":"levelo://app?vid=25c671bb-530f-4701-941f-f29d027a0db1","ios":"levelo://app?vid=25c671bb-530f-4701-941f-f29d027a0db1"},"vehicle_type_id":"4","last_reported":1732889357,"current_range_meters":38800,"station_id":"ce4bh092rcd13ifvqd20","pricing_plan_id":"cebpf4jnsgd1na2vs0mg"},{"bike_id":"ffa4a609-12c2-4bcb-a232-bff214294d68","system_id":"levelo_inurba_marseille","lat":43.26202,"lon":5.37925,"is_reserved":false,"is_disabled":false,"rental_uris":{"android":"levelo://app?vid=ffa4a609-12c2-4bcb-a232-bff214294d68","ios":"levelo://app?vid=ffa4a609-12c2-4bcb-a232-bff214294d68"},"vehicle_type_id":"4","last_reported":1732889357,"current_range_meters":36400,"station_id":"ce4bhjp2rcd13ifvqg90","pricing_plan_id":"cebpf4jnsgd1na2vs0mg"},{"bike_id":"d43bcf0d-16aa-4132-bee9-932c9bcef8f2","system_id":"levelo_inurba_marseille","lat":43.323663,"lon":5.388825,"is_reserved":false,"is_disabled":false,"rental_uris":{"android":"levelo://app?vid=d43bcf0d-16aa-4132-bee9-932c9bcef8f2","ios":"levelo://app?vid=d43bcf0d-16aa-4132-bee9-932c9bcef8f2"},"vehicle_type_id":"4","last_reported":1732889357,"current_range_meters":37600,"station_id":"ce4bhqp2rcd13ifvqhog","pricing_plan_id":"cebpf4jnsgd1na2vs0mg"},{"bike_id":"fe2c00d6-fab6-472b-887d-35960cae9038","system_id":"levelo_inurba_marseille","lat":43.25933,"lon":5.40907,"is_reserved":false,"is_disabled":true,"rental_uris":{"android":"levelo://app?vid=fe2c00d6-fab6-472b-887d-35960cae9038","ios":"levelo://app?vid=fe2c00d6-fab6-472b-887d-35960cae9038"},"vehicle_type_id":"4","last_reported":1732889357,"current_range_meters":0,"station_id":"ce4bhm92rcd13ifvqglg","pricing_plan_id":"cebpf4jnsgd1na2vs0mg"},{"bike_id":"4035e70a-9b35-49ff-8763-9565717e2e74","system_id":"levelo_inurba_marseille","lat":43.28466,"lon":5.35885,"is_reserved":false,"is_disabled":true,"rental_uris":{"android":"levelo://app?vid=4035e70a-9b35-49ff-8763-9565717e2e74","ios":"levelo://app?vid=4035e70a-9b35-49ff-8763-9565717e2e74"},"vehicle_type_id":"4","last_reported":1732889357,"current_range_meters":9200,"station_id":"ce4bhah2rcd13ifvqei0","pricing_plan_id":"cebpf4jnsgd1na2vs0mg"},{"bike_id":"bc749360-3ce4-4dd6-a0ac-83aa82c323a7","system_id":"levelo_inurba_marseille","lat":43.28151,"lon":5.42646,"is_reserved":false,"is_disabled":true,"rental_uris":{"android":"levelo://app?vid=bc749360-3ce4-4dd6-a0ac-83aa82c323a7","ios":"levelo://app?vid=bc749360-3ce4-4dd6-a0ac-83aa82c323a7"},"vehicle_type_id":"4","last_reported":1732889357,"current_range_meters":38800,"station_id":"ce4bhnh2rcd13ifvqgug","pricing_plan_id":"cebpf4jnsgd1na2vs0mg"},{"bike_id":"59fe4578-5b7f-4a2d-af2e-29b4f5b3390e","system_id":"levelo_inurba_marseille","lat":43.29302,"lon":5.37155,"is_reserved":false,"is_disabled":false,"rental_uris":{"android":"levelo://app?vid=59fe4578-5b7f-4a2d-af2e-29b4f5b3390e","ios":"levelo://app?vid=59fe4578-5b7f-4a2d-af2e-29b4f5b3390e"},"vehicle_type_id":"4","last_reported":1732889357,"current_range_meters":17600,"station_id":"ce4bgh92rcd13ifvqb40","pricing_plan_id":"cebpf4jnsgd1na2vs0mg"},{"bike_id":"4d4c884f-6933-49c0-8899-f9856d90f44d","system_id":"levelo_inurba_marseille","lat":43.29748,"lon":5.37971,"is_reserved":false,"is_disabled":true,"rental_uris":{"android":"levelo://app?vid=4d4c884f-6933-49c0-8899-f9856d90f44d","ios":"levelo://app?vid=4d4c884f-6933-49c0-8899-f9856d90f44d"},"vehicle_type_id":"4","last_reported":1732889357,"current_range_meters":0,"station_id":"","pricing_plan_id":"cebpf4jnsgd1na2vs0mg"},{"bike_id":"2c7a1563-d0fd-43d7-b1c0-4dcaba9889ce","system_id":"levelo_inurba_marseille","lat":43.32289,"lon":5.38256,"is_reserved":false,"is_disabled":false,"rental_uris":{"android":"levelo://app?vid=2c7a1563-d0fd-43d7-b1c0-4dcaba9889ce","ios":"levelo://app?vid=2c7a1563-d0fd-43d7-b1c0-4dcaba9889ce"},"vehicle_type_id":"4","last_reported":1732889357,"current_range_meters":21600,"station_id":"ce4bhr12rcd13ifvqhqg","pricing_plan_id":"cebpf4jnsgd1na2vs0mg"},{"bike_id":"65f825c7-b9f9-4828-90bd-6b720312e953","system_id":"levelo_inurba_marseille","lat":43.279767,"lon":5.38739,"is_reserved":false,"is_disabled":false,"rental_uris":{"android":"levelo://app?vid=65f825c7-b9f9-4828-90bd-6b720312e953","ios":"levelo://app?vid=65f825c7-b9f9-4828-90bd-6b720312e953"},"vehicle_type_id":"4","last_reported":1732889357,"current_range_meters":38400,"station_id":"ce4bhg12rcd13ifvqf80","pricing_plan_id":"cebpf4jnsgd1na2vs0mg"},{"bike_id":"02895370-c40c-4c5d-869e-dbb8ac908e5c","system_id":"levelo_inurba_marseille","lat":43.27265,"lon":5.40913,"is_reserved":false,"is_disabled":false,"rental_uris":{"android":"levelo://app?vid=02895370-c40c-4c5d-869e-dbb8ac908e5c","ios":"levelo://app?vid=02895370-c40c-4c5d-869e-dbb8ac908e5c"},"vehicle_type_id":"4","last_reported":1732889357,"current_range_meters":38800,"station_id":"ce4bhl12rcd13ifvqgf0","pricing_plan_id":"cebpf4jnsgd1na2vs0mg"},{"bike_id":"9009be37-c6b1-406b-b0a8-fbab355f715e","system_id":"levelo_inurba_marseille","lat":43.33767,"lon":5.37492,"is_reserved":false,"is_disabled":false,"rental_uris":{"android":"levelo://app?vid=9009be37-c6b1-406b-b0a8-fbab355f715e","ios":"levelo://app?vid=9009be37-c6b1-406b-b0a8-fbab355f715e"},"vehicle_type_id":"4","last_reported":1732889357,"current_range_meters":36400,"station_id":"","pricing_plan_id":"cebpf4jnsgd1na2vs0mg"},{"bike_id":"303e957c-dbae-47f1-b523-bb16e7ec449c","system_id":"levelo_inurba_marseille","lat":43.2706,"lon":5.40256,"is_reserved":false,"is_disabled":true,"rental_uris":{"android":"levelo://app?vid=303e957c-dbae-47f1-b523-bb16e7ec449c","ios":"levelo://app?vid=303e957c-dbae-47f1-b523-bb16e7ec449c"},"vehicle_type_id":"4","last_reported":1732889357,"current_range_meters":0,"station_id":"ce4bhk92rcd13ifvqgc0","pricing_plan_id":"cebpf4jnsgd1na2vs0mg"},{"bike_id":"0709b9e4-a3fe-4b26-a01e-eb64d3d0c54a","system_id":"levelo_inurba_marseille","lat":43.31523,"lon":5.37444,"is_reserved":false,"is_disabled":false,"rental_uris":{"android":"levelo://app?vid=0709b9e4-a3fe-4b26-a01e-eb64d3d0c54a","ios":"levelo://app?vid=0709b9e4-a3fe-4b26-a01e-eb64d3d0c54a"},"vehicle_type_id":"4","last_reported":1732889357,"current_range_meters":36400,"station_id":"","pricing_plan_id":"cebpf4jnsgd1na2vs0mg"},{"bike_id":"8de9f462-5f48-43b9-a386-9d9803437c96","system_id":"levelo_inurba_marseille","lat":43.32035,"lon":5.41562,"is_reserved":false,"is_disabled":false,"rental_uris":{"android":"levelo://app?vid=8de9f462-5f48-43b9-a386-9d9803437c96","ios":"levelo://app?vid=8de9f462-5f48-43b9-a386-9d9803437c96"},"vehicle_type_id":"4","last_reported":1732889357,"current_range_meters":28800,"station_id":"ce4bhq92rcd13ifvqhkg","pricing_plan_id":"cebpf4jnsgd1na2vs0mg"},{"bike_id":"be1ea8ae-bb6c-4cc9-9878-4dd6e7c328d6","system_id":"levelo_inurba_marseille","lat":43.32106,"lon":5.36769,"is_reserved":false,"is_disabled":false,"rental_uris":{"android":"levelo://app?vid=be1ea8ae-bb6c-4cc9-9878-4dd6e7c328d6","ios":"levelo://app?vid=be1ea8ae-bb6c-4cc9-9878-4dd6e7c328d6"},"vehicle_type_id":"4","last_reported":1732889357,"current_range_meters":36000,"station_id":"ce4bhrh2rcd13ifvqhug","pricing_plan_id":"cebpf4jnsgd1na2vs0mg"},{"bike_id":"9589002c-1bab-46c5-9d09-a7efb8d9d194","system_id":"levelo_inurba_marseille","lat":43.28476,"lon":5.34961,"is_reserved":false,"is_disabled":false,"rental_uris":{"android":"levelo://app?vid=9589002c-1bab-46c5-9d09-a7efb8d9d194","ios":"levelo://app?vid=9589002c-1bab-46c5-9d09-a7efb8d9d194"},"vehicle_type_id":"4","last_reported":1732889357,"current_range_meters":19600,"station_id":"","pricing_plan_id":"cebpf4jnsgd1na2vs0mg"},{"bike_id":"d066c712-61f7-4b92-bd8c-bdb5c8647a97","system_id":"levelo_inurba_marseille","lat":43.28938,"lon":5.36638,"is_reserved":false,"is_disabled":false,"rental_uris":{"android":"levelo://app?vid=d066c712-61f7-4b92-bd8c-bdb5c8647a97","ios":"levelo://app?vid=d066c712-61f7-4b92-bd8c-bdb5c8647a97"},"vehicle_type_id":"4","last_reported":1732889357,"current_range_meters":28000,"station_id":"ce4bhap2rcd13ifvqek0","pricing_plan_id":"cebpf4jnsgd1na2vs0mg"},{"bike_id":"5cc87b7b-e8e2-4f57-bf4a-d5911689f04d","system_id":"levelo_inurba_marseille","lat":43.2918,"lon":5.40287,"is_reserved":false,"is_disabled":false,"rental_uris":{"android":"levelo://app?vid=5cc87b7b-e8e2-4f57-bf4a-d5911689f04d","ios":"levelo://app?vid=5cc87b7b-e8e2-4f57-bf4a-d5911689f04d"},"vehicle_type_id":"4","last_reported":1732889357,"current_range_meters":36400,"station_id":"","pricing_plan_id":"cebpf4jnsgd1na2vs0mg"},{"bike_id":"115b0319-5706-414c-8b99-46ab8ccfa358","system_id":"levelo_inurba_marseille","lat":43.27312,"lon":5.39116,"is_reserved":false,"is_disabled":false,"rental_uris":{"android":"levelo://app?vid=115b0319-5706-414c-8b99-46ab8ccfa358","ios":"levelo://app?vid=115b0319-5706-414c-8b99-46ab8ccfa358"},"vehicle_type_id":"4","last_reported":1732889357,"current_range_meters":32800,"station_id":"ce4bhgp2rcd13ifvqfe0","pricing_plan_id":"cebpf4jnsgd1na2vs0mg"},{"bike_id":"77be03dd-3d99-4535-adc0-1c7477c4a3a3","system_id":"levelo_inurba_marseille","lat":43.32292,"lon":5.38264,"is_reserved":false,"is_disabled":false,"rental_uris":{"android":"levelo://app?vid=77be03dd-3d99-4535-adc0-1c7477c4a3a3","ios":"levelo://app?vid=77be03dd-3d99-4535-adc0-1c7477c4a3a3"},"vehicle_type_id":"4","last_reported":1732889357,"current_range_meters":24000,"station_id":"ce4bhr12rcd13ifvqhqg","pricing_plan_id":"cebpf4jnsgd1na2vs0mg"},{"bike_id":"adc74574-271b-48e8-b9dc-cbc49a9fc774","system_id":"levelo_inurba_marseille","lat":43.2953,"lon":5.38546,"is_reserved":false,"is_disabled":false,"rental_uris":{"android":"levelo://app?vid=adc74574-271b-48e8-b9dc-cbc49a9fc774","ios":"levelo://app?vid=adc74574-271b-48e8-b9dc-cbc49a9fc774"},"vehicle_type_id":"4","last_reported":1732889357,"current_range_meters":17200,"station_id":"ce4bgih2rcd13ifvqba0","pricing_plan_id":"cebpf4jnsgd1na2vs0mg"},{"bike_id":"cf0d67d8-27c4-4387-8af2-671c546afcf3","system_id":"levelo_inurba_marseille","lat":43.32656,"lon":5.40998,"is_reserved":false,"is_disabled":false,"rental_uris":{"android":"levelo://app?vid=cf0d67d8-27c4-4387-8af2-671c546afcf3","ios":"levelo://app?vid=cf0d67d8-27c4-4387-8af2-671c546afcf3"},"vehicle_type_id":"4","last_reported":1732889357,"current_range_meters":14800,"station_id":"ce4bhpp2rcd13ifvqhgg","pricing_plan_id":"cebpf4jnsgd1na2vs0mg"},{"bike_id":"d8804d4f-3e56-40ff-90dc-698dfc248948","system_id":"levelo_inurba_marseille","lat":43.26562,"lon":5.39012,"is_reserved":false,"is_disabled":false,"rental_uris":{"android":"levelo://app?vid=d8804d4f-3e56-40ff-90dc-698dfc248948","ios":"levelo://app?vid=d8804d4f-3e56-40ff-90dc-698dfc248948"},"vehicle_type_id":"4","last_reported":1732889357,"current_range_meters":38000,"station_id":"ce4bhe12rcd13ifvqf30","pricing_plan_id":"cebpf4jnsgd1na2vs0mg"},{"bike_id":"65bec0cc-fe29-4934-b133-9e38a8aa46b9","system_id":"levelo_inurba_marseille","lat":43.26568,"lon":5.38999,"is_reserved":false,"is_disabled":false,"rental_uris":{"android":"levelo://app?vid=65bec0cc-fe29-4934-b133-9e38a8aa46b9","ios":"levelo://app?vid=65bec0cc-fe29-4934-b133-9e38a8aa46b9"},"vehicle_type_id":"4","last_reported":1732889357,"current_range_meters":16000,"station_id":"ce4bhe12rcd13ifvqf30","pricing_plan_id":"cebpf4jnsgd1na2vs0mg"},{"bike_id":"e8fa7be1-2407-41a7-b843-e7c70f1917ef","system_id":"levelo_inurba_marseille","lat":43.2761,"lon":5.36109,"is_reserved":false,"is_disabled":true,"rental_uris":{"android":"levelo://app?vid=e8fa7be1-2407-41a7-b843-e7c70f1917ef","ios":"levelo://app?vid=e8fa7be1-2407-41a7-b843-e7c70f1917ef"},"vehicle_type_id":"4","last_reported":1732889357,"current_range_meters":0,"station_id":"ce4bgj92rcd13ifvqbe0","pricing_plan_id":"cebpf4jnsgd1na2vs0mg"},{"bike_id":"98f72dff-cad6-4490-8b4a-718c458b836a","system_id":"levelo_inurba_marseille","lat":43.26957,"lon":5.38888,"is_reserved":false,"is_disabled":true,"rental_uris":{"android":"levelo://app?vid=98f72dff-cad6-4490-8b4a-718c458b836a","ios":"levelo://app?vid=98f72dff-cad6-4490-8b4a-718c458b836a"},"vehicle_type_id":"4","last_reported":1732889357,"current_range_meters":400,"station_id":"","pricing_plan_id":"cebpf4jnsgd1na2vs0mg"},{"bike_id":"efbc1bb2-e566-41bb-b022-38460ddce04c","system_id":"levelo_inurba_marseille","lat":43.30602,"lon":5.37244,"is_reserved":false,"is_disabled":false,"rental_uris":{"android":"levelo://app?vid=efbc1bb2-e566-41bb-b022-38460ddce04c","ios":"levelo://app?vid=efbc1bb2-e566-41bb-b022-38460ddce04c"},"vehicle_type_id":"4","last_reported":1732889357,"current_range_meters":28000,"station_id":"ce4bgqh2rcd13ifvqc4g","pricing_plan_id":"cebpf4jnsgd1na2vs0mg"},{"bike_id":"d6a0ff66-87dd-49de-a09b-bea530d1c972","system_id":"levelo_inurba_marseille","lat":43.25567,"lon":5.38244,"is_reserved":false,"is_disabled":true,"rental_uris":{"android":"levelo://app?vid=d6a0ff66-87dd-49de-a09b-bea530d1c972","ios":"levelo://app?vid=d6a0ff66-87dd-49de-a09b-bea530d1c972"},"vehicle_type_id":"4","last_reported":1732889357,"current_range_meters":32400,"station_id":"ce4bhih2rcd13ifvqfs0","pricing_plan_id":"cebpf4jnsgd1na2vs0mg"},{"bike_id":"c6987b7c-0a57-4f2a-9f67-21aaa65411ee","system_id":"levelo_inurba_marseille","lat":43.32286,"lon":5.38282,"is_reserved":false,"is_disabled":false,"rental_uris":{"android":"levelo://app?vid=c6987b7c-0a57-4f2a-9f67-21aaa65411ee","ios":"levelo://app?vid=c6987b7c-0a57-4f2a-9f67-21aaa65411ee"},"vehicle_type_id":"4","last_reported":1732889357,"current_range_meters":36400,"station_id":"ce4bhr12rcd13ifvqhqg","pricing_plan_id":"cebpf4jnsgd1na2vs0mg"},{"bike_id":"3d0470f0-afee-4b20-bad1-0cf30a5b48d2","system_id":"levelo_inurba_marseille","lat":43.29905,"lon":5.38152,"is_reserved":false,"is_disabled":false,"rental_uris":{"android":"levelo://app?vid=3d0470f0-afee-4b20-bad1-0cf30a5b48d2","ios":"levelo://app?vid=3d0470f0-afee-4b20-bad1-0cf30a5b48d2"},"vehicle_type_id":"4","last_reported":1732889357,"current_range_meters":39200,"station_id":"ce4bgj12rcd13ifvqbc0","pricing_plan_id":"cebpf4jnsgd1na2vs0mg"},{"bike_id":"e2fccdcc-8621-4fe7-9271-7b51c683628c","system_id":"levelo_inurba_marseille","lat":43.30536,"lon":5.36541,"is_reserved":false,"is_disabled":false,"rental_uris":{"android":"levelo://app?vid=e2fccdcc-8621-4fe7-9271-7b51c683628c","ios":"levelo://app?vid=e2fccdcc-8621-4fe7-9271-7b51c683628c"},"vehicle_type_id":"4","last_reported":1732889357,"current_range_meters":25200,"station_id":"ce4bgs12rcd13ifvqcag","pricing_plan_id":"cebpf4jnsgd1na2vs0mg"},{"bike_id":"3ca8d527-6c31-4160-8bc9-0dbae13780f9","system_id":"levelo_inurba_marseille","lat":43.28458,"lon":5.35897,"is_reserved":false,"is_disabled":true,"rental_uris":{"android":"levelo://app?vid=3ca8d527-6c31-4160-8bc9-0dbae13780f9","ios":"levelo://app?vid=3ca8d527-6c31-4160-8bc9-0dbae13780f9"},"vehicle_type_id":"4","last_reported":1732889357,"current_range_meters":23200,"station_id":"ce4bhah2rcd13ifvqei0","pricing_plan_id":"cebpf4jnsgd1na2vs0mg"},{"bike_id":"5db7852b-848c-49a3-a75a-53992ac78b27","system_id":"levelo_inurba_marseille","lat":43.28346,"lon":5.38093,"is_reserved":false,"is_disabled":false,"rental_uris":{"android":"levelo://app?vid=5db7852b-848c-49a3-a75a-53992ac78b27","ios":"levelo://app?vid=5db7852b-848c-49a3-a75a-53992ac78b27"},"vehicle_type_id":"4","last_reported":1732889357,"current_range_meters":22800,"station_id":"ce4bh412rcd13ifvqdr0","pricing_plan_id":"cebpf4jnsgd1na2vs0mg"},{"bike_id":"a985c880-13b0-471f-be68-7059b51df585","system_id":"levelo_inurba_marseille","lat":43.26804,"lon":5.4026,"is_reserved":false,"is_disabled":true,"rental_uris":{"android":"levelo://app?vid=a985c880-13b0-471f-be68-7059b51df585","ios":"levelo://app?vid=a985c880-13b0-471f-be68-7059b51df585"},"vehicle_type_id":"4","last_reported":1732889357,"current_range_meters":800,"station_id":"ce501612rcd8frsf0b60","pricing_plan_id":"cebpf4jnsgd1na2vs0mg"},{"bike_id":"47efd333-b353-465d-8400-56519602adc4","system_id":"levelo_inurba_marseille","lat":43.24668,"lon":5.38158,"is_reserved":false,"is_disabled":false,"rental_uris":{"android":"levelo://app?vid=47efd333-b353-465d-8400-56519602adc4","ios":"levelo://app?vid=47efd333-b353-465d-8400-56519602adc4"},"vehicle_type_id":"4","last_reported":1732889357,"current_range_meters":24800,"station_id":"ce4bhih2rcd13ifvqfr0","pricing_plan_id":"cebpf4jnsgd1na2vs0mg"},{"bike_id":"16fb8e17-b179-4d5a-add7-fbd05efe76fb","system_id":"levelo_inurba_marseille","lat":43.25933,"lon":5.40915,"is_reserved":false,"is_disabled":true,"rental_uris":{"android":"levelo://app?vid=16fb8e17-b179-4d5a-add7-fbd05efe76fb","ios":"levelo://app?vid=16fb8e17-b179-4d5a-add7-fbd05efe76fb"},"vehicle_type_id":"4","last_reported":1732889357,"current_range_meters":10000,"station_id":"ce4bhm92rcd13ifvqglg","pricing_plan_id":"cebpf4jnsgd1na2vs0mg"},{"bike_id":"5d7b6ee1-ed82-4e71-a41b-be1534ece393","system_id":"levelo_inurba_marseille","lat":43.29785,"lon":5.38105,"is_reserved":false,"is_disabled":false,"rental_uris":{"android":"levelo://app?vid=5d7b6ee1-ed82-4e71-a41b-be1534ece393","ios":"levelo://app?vid=5d7b6ee1-ed82-4e71-a41b-be1534ece393"},"vehicle_type_id":"4","last_reported":1732889357,"current_range_meters":37600,"station_id":"ce4bgip2rcd13ifvqbb0","pricing_plan_id":"cebpf4jnsgd1na2vs0mg"},{"bike_id":"2e77fc7a-0a18-424e-884d-b55fff6debb1","system_id":"levelo_inurba_marseille","lat":43.29627,"lon":5.40601,"is_reserved":false,"is_disabled":false,"rental_uris":{"android":"levelo://app?vid=2e77fc7a-0a18-424e-884d-b55fff6debb1","ios":"levelo://app?vid=2e77fc7a-0a18-424e-884d-b55fff6debb1"},"vehicle_type_id":"4","last_reported":1732889357,"current_range_meters":33200,"station_id":"ce4bh0h2rcd13ifvqd60","pricing_plan_id":"cebpf4jnsgd1na2vs0mg"},{"bike_id":"80ee5806-271f-4b24-a602-2dc27d804313","system_id":"levelo_inurba_marseille","lat":43.32104,"lon":5.36776,"is_reserved":false,"is_disabled":false,"rental_uris":{"android":"levelo://app?vid=80ee5806-271f-4b24-a602-2dc27d804313","ios":"levelo://app?vid=80ee5806-271f-4b24-a602-2dc27d804313"},"vehicle_type_id":"4","last_reported":1732889357,"current_range_meters":16000,"station_id":"ce4bhrh2rcd13ifvqhug","pricing_plan_id":"cebpf4jnsgd1na2vs0mg"},{"bike_id":"a99e441f-fcb3-4edf-8132-a5c34ea369bf","system_id":"levelo_inurba_marseille","lat":43.26937,"lon":5.40255,"is_reserved":false,"is_disabled":true,"rental_uris":{"android":"levelo://app?vid=a99e441f-fcb3-4edf-8132-a5c34ea369bf","ios":"levelo://app?vid=a99e441f-fcb3-4edf-8132-a5c34ea369bf"},"vehicle_type_id":"4","last_reported":1732889357,"current_range_meters":400,"station_id":"cjm6bp8fraef2m0cb0m0","pricing_plan_id":"cebpf4jnsgd1na2vs0mg"},{"bike_id":"91475a11-c126-482c-88c0-39201ca2c9ce","system_id":"levelo_inurba_marseille","lat":43.2827,"lon":5.35074,"is_reserved":false,"is_disabled":false,"rental_uris":{"android":"levelo://app?vid=91475a11-c126-482c-88c0-39201ca2c9ce","ios":"levelo://app?vid=91475a11-c126-482c-88c0-39201ca2c9ce"},"vehicle_type_id":"4","last_reported":1732889357,"current_range_meters":34800,"station_id":"ce4bhbp2rcd13ifvqerg","pricing_plan_id":"cebpf4jnsgd1na2vs0mg"},{"bike_id":"122c2ef2-24e4-45bc-ab46-50830887f94d","system_id":"levelo_inurba_marseille","lat":43.307617,"lon":5.400689,"is_reserved":false,"is_disabled":false,"rental_uris":{"android":"levelo://app?vid=122c2ef2-24e4-45bc-ab46-50830887f94d","ios":"levelo://app?vid=122c2ef2-24e4-45bc-ab46-50830887f94d"},"vehicle_type_id":"4","last_reported":1732889357,"current_range_meters":38800,"station_id":"ce4bgvp2rcd13ifvqct0","pricing_plan_id":"cebpf4jnsgd1na2vs0mg"},{"bike_id":"c7eca74c-245a-4b88-af33-20da6cdf137b","system_id":"levelo_inurba_marseille","lat":43.251,"lon":5.40326,"is_reserved":false,"is_disabled":true,"rental_uris":{"android":"levelo://app?vid=c7eca74c-245a-4b88-af33-20da6cdf137b","ios":"levelo://app?vid=c7eca74c-245a-4b88-af33-20da6cdf137b"},"vehicle_type_id":"4","last_reported":1732889357,"current_range_meters":2000,"station_id":"ce4bhlh2rcd13ifvqgig","pricing_plan_id":"cebpf4jnsgd1na2vs0mg"},{"bike_id":"a0accefe-c99e-4cb9-8f29-6e44170ffa13","system_id":"levelo_inurba_marseille","lat":43.30421,"lon":5.39751,"is_reserved":false,"is_disabled":true,"rental_uris":{"android":"levelo://app?vid=a0accefe-c99e-4cb9-8f29-6e44170ffa13","ios":"levelo://app?vid=a0accefe-c99e-4cb9-8f29-6e44170ffa13"},"vehicle_type_id":"4","last_reported":1732889357,"current_range_meters":39200,"station_id":"ce4bh092rcd13ifvqd20","pricing_plan_id":"cebpf4jnsgd1na2vs0mg"},{"bike_id":"90a7d43f-53fe-4889-9259-8a8be20683a4","system_id":"levelo_inurba_marseille","lat":43.31256,"lon":5.40205,"is_reserved":false,"is_disabled":false,"rental_uris":{"android":"levelo://app?vid=90a7d43f-53fe-4889-9259-8a8be20683a4","ios":"levelo://app?vid=90a7d43f-53fe-4889-9259-8a8be20683a4"},"vehicle_type_id":"4","last_reported":1732889357,"current_range_meters":38800,"station_id":"ce4bh092rcd13ifvqd30","pricing_plan_id":"cebpf4jnsgd1na2vs0mg"},{"bike_id":"23a074b8-8790-4336-8dd1-3a41f2c2c578","system_id":"levelo_inurba_marseille","lat":43.290265,"lon":5.386505,"is_reserved":false,"is_disabled":false,"rental_uris":{"android":"levelo://app?vid=23a074b8-8790-4336-8dd1-3a41f2c2c578","ios":"levelo://app?vid=23a074b8-8790-4336-8dd1-3a41f2c2c578"},"vehicle_type_id":"4","last_reported":1732889357,"current_range_meters":10800,"station_id":"ce4bh4p2rcd13ifvqe0g","pricing_plan_id":"cebpf4jnsgd1na2vs0mg"},{"bike_id":"6eaf9167-5116-4163-8b77-e0e9e5b35c42","system_id":"levelo_inurba_marseille","lat":43.23959,"lon":5.36643,"is_reserved":false,"is_disabled":false,"rental_uris":{"android":"levelo://app?vid=6eaf9167-5116-4163-8b77-e0e9e5b35c42","ios":"levelo://app?vid=6eaf9167-5116-4163-8b77-e0e9e5b35c42"},"vehicle_type_id":"4","last_reported":1732889357,"current_range_meters":36800,"station_id":"ce4bhi12rcd13ifvqfp0","pricing_plan_id":"cebpf4jnsgd1na2vs0mg"},{"bike_id":"81d9f7be-c3c6-4233-bf11-948e6f22debc","system_id":"levelo_inurba_marseille","lat":43.32365,"lon":5.38877,"is_reserved":false,"is_disabled":false,"rental_uris":{"android":"levelo://app?vid=81d9f7be-c3c6-4233-bf11-948e6f22debc","ios":"levelo://app?vid=81d9f7be-c3c6-4233-bf11-948e6f22debc"},"vehicle_type_id":"4","last_reported":1732889357,"current_range_meters":36800,"station_id":"ce4bhqp2rcd13ifvqhog","pricing_plan_id":"cebpf4jnsgd1na2vs0mg"},{"bike_id":"4d7df53f-89b5-4ac2-8e7e-9267a7bbffd4","system_id":"levelo_inurba_marseille","lat":43.28103,"lon":5.37835,"is_reserved":false,"is_disabled":false,"rental_uris":{"android":"levelo://app?vid=4d7df53f-89b5-4ac2-8e7e-9267a7bbffd4","ios":"levelo://app?vid=4d7df53f-89b5-4ac2-8e7e-9267a7bbffd4"},"vehicle_type_id":"4","last_reported":1732889357,"current_range_meters":16000,"station_id":"ce4bha12rcd13ifvqee0","pricing_plan_id":"cebpf4jnsgd1na2vs0mg"},{"bike_id":"f4edc5a9-19ce-4edd-8c15-67f25b52a2ad","system_id":"levelo_inurba_marseille","lat":43.29261,"lon":5.40897,"is_reserved":false,"is_disabled":true,"rental_uris":{"android":"levelo://app?vid=f4edc5a9-19ce-4edd-8c15-67f25b52a2ad","ios":"levelo://app?vid=f4edc5a9-19ce-4edd-8c15-67f25b52a2ad"},"vehicle_type_id":"4","last_reported":1732889357,"current_range_meters":0,"station_id":"ce4bh192rcd13ifvqdc0","pricing_plan_id":"cebpf4jnsgd1na2vs0mg"},{"bike_id":"11bdf964-2b86-402d-8161-d7ddb408f097","system_id":"levelo_inurba_marseille","lat":43.27374,"lon":5.36255,"is_reserved":false,"is_disabled":false,"rental_uris":{"android":"levelo://app?vid=11bdf964-2b86-402d-8161-d7ddb408f097","ios":"levelo://app?vid=11bdf964-2b86-402d-8161-d7ddb408f097"},"vehicle_type_id":"4","last_reported":1732889357,"current_range_meters":30000,"station_id":"ce4bhbh2rcd13ifvqeo0","pricing_plan_id":"cebpf4jnsgd1na2vs0mg"},{"bike_id":"29a80c71-9648-4a26-b6c9-5f69092eaa01","system_id":"levelo_inurba_marseille","lat":43.27067,"lon":5.42273,"is_reserved":false,"is_disabled":true,"rental_uris":{"android":"levelo://app?vid=29a80c71-9648-4a26-b6c9-5f69092eaa01","ios":"levelo://app?vid=29a80c71-9648-4a26-b6c9-5f69092eaa01"},"vehicle_type_id":"4","last_reported":1732889357,"current_range_meters":38800,"station_id":"ce4bhk92rcd13ifvqgb0","pricing_plan_id":"cebpf4jnsgd1na2vs0mg"},{"bike_id":"95f24313-c556-4d26-8f89-27b862c0036d","system_id":"levelo_inurba_marseille","lat":43.28351,"lon":5.38104,"is_reserved":false,"is_disabled":false,"rental_uris":{"android":"levelo://app?vid=95f24313-c556-4d26-8f89-27b862c0036d","ios":"levelo://app?vid=95f24313-c556-4d26-8f89-27b862c0036d"},"vehicle_type_id":"4","last_reported":1732889357,"current_range_meters":29600,"station_id":"ce4bh412rcd13ifvqdr0","pricing_plan_id":"cebpf4jnsgd1na2vs0mg"},{"bike_id":"2a60fd72-9cfa-415f-937e-d89edec4f374","system_id":"levelo_inurba_marseille","lat":43.25,"lon":5.38923,"is_reserved":false,"is_disabled":false,"rental_uris":{"android":"levelo://app?vid=2a60fd72-9cfa-415f-937e-d89edec4f374","ios":"levelo://app?vid=2a60fd72-9cfa-415f-937e-d89edec4f374"},"vehicle_type_id":"4","last_reported":1732889357,"current_range_meters":27200,"station_id":"ce4bhgp2rcd13ifvqfd0","pricing_plan_id":"cebpf4jnsgd1na2vs0mg"},{"bike_id":"5b6140a7-7f65-4ca3-a3f2-419ab04c93da","system_id":"levelo_inurba_marseille","lat":43.22929,"lon":5.35377,"is_reserved":false,"is_disabled":false,"rental_uris":{"android":"levelo://app?vid=5b6140a7-7f65-4ca3-a3f2-419ab04c93da","ios":"levelo://app?vid=5b6140a7-7f65-4ca3-a3f2-419ab04c93da"},"vehicle_type_id":"4","last_reported":1732889357,"current_range_meters":27600,"station_id":"cpo3532slgdg3j2ikp40","pricing_plan_id":"cebpf4jnsgd1na2vs0mg"},{"bike_id":"0174841e-8011-4a7b-bd18-480101bee765","system_id":"levelo_inurba_marseille","lat":43.23962,"lon":5.36639,"is_reserved":false,"is_disabled":true,"rental_uris":{"android":"levelo://app?vid=0174841e-8011-4a7b-bd18-480101bee765","ios":"levelo://app?vid=0174841e-8011-4a7b-bd18-480101bee765"},"vehicle_type_id":"4","last_reported":1732889357,"current_range_meters":1200,"station_id":"ce4bhi12rcd13ifvqfp0","pricing_plan_id":"cebpf4jnsgd1na2vs0mg"},{"bike_id":"aa8ae50f-424f-41a3-b71d-b37e9d45b499","system_id":"levelo_inurba_marseille","lat":43.29165,"lon":5.37169,"is_reserved":false,"is_disabled":false,"rental_uris":{"android":"levelo://app?vid=aa8ae50f-424f-41a3-b71d-b37e9d45b499","ios":"levelo://app?vid=aa8ae50f-424f-41a3-b71d-b37e9d45b499"},"vehicle_type_id":"4","last_reported":1732889357,"current_range_meters":36400,"station_id":"ce4bha92rcd13ifvqeh0","pricing_plan_id":"cebpf4jnsgd1na2vs0mg"},{"bike_id":"414ced6b-9457-41ed-a305-11df89f57c01","system_id":"levelo_inurba_marseille","lat":43.34144,"lon":5.40905,"is_reserved":false,"is_disabled":false,"rental_uris":{"android":"levelo://app?vid=414ced6b-9457-41ed-a305-11df89f57c01","ios":"levelo://app?vid=414ced6b-9457-41ed-a305-11df89f57c01"},"vehicle_type_id":"4","last_reported":1732889357,"current_range_meters":7200,"station_id":"ce4bhqh2rcd13ifvqhlg","pricing_plan_id":"cebpf4jnsgd1na2vs0mg"},{"bike_id":"6ac7ea5b-79b4-4fab-b189-7deeb408ea6d","system_id":"levelo_inurba_marseille","lat":43.30913,"lon":5.36855,"is_reserved":false,"is_disabled":false,"rental_uris":{"android":"levelo://app?vid=6ac7ea5b-79b4-4fab-b189-7deeb408ea6d","ios":"levelo://app?vid=6ac7ea5b-79b4-4fab-b189-7deeb408ea6d"},"vehicle_type_id":"4","last_reported":1732889357,"current_range_meters":30400,"station_id":"ce4bgn92rcd13ifvqbvg","pricing_plan_id":"cebpf4jnsgd1na2vs0mg"},{"bike_id":"759518f4-9f32-4b72-97fe-df61c6c7bd05","system_id":"levelo_inurba_marseille","lat":43.31057,"lon":5.40107,"is_reserved":false,"is_disabled":false,"rental_uris":{"android":"levelo://app?vid=759518f4-9f32-4b72-97fe-df61c6c7bd05","ios":"levelo://app?vid=759518f4-9f32-4b72-97fe-df61c6c7bd05"},"vehicle_type_id":"4","last_reported":1732889357,"current_range_meters":6800,"station_id":"","pricing_plan_id":"cebpf4jnsgd1na2vs0mg"},{"bike_id":"4d8c52a6-898a-483a-af2c-690fbaafb5d1","system_id":"levelo_inurba_marseille","lat":43.24988,"lon":5.38938,"is_reserved":false,"is_disabled":true,"rental_uris":{"android":"levelo://app?vid=4d8c52a6-898a-483a-af2c-690fbaafb5d1","ios":"levelo://app?vid=4d8c52a6-898a-483a-af2c-690fbaafb5d1"},"vehicle_type_id":"4","last_reported":1732889357,"current_range_meters":0,"station_id":"ce4bhgp2rcd13ifvqfd0","pricing_plan_id":"cebpf4jnsgd1na2vs0mg"},{"bike_id":"57dcc5a2-ed50-4a79-8fb5-537753eb8783","system_id":"levelo_inurba_marseille","lat":43.31491,"lon":5.37311,"is_reserved":false,"is_disabled":false,"rental_uris":{"android":"levelo://app?vid=57dcc5a2-ed50-4a79-8fb5-537753eb8783","ios":"levelo://app?vid=57dcc5a2-ed50-4a79-8fb5-537753eb8783"},"vehicle_type_id":"4","last_reported":1732889357,"current_range_meters":18000,"station_id":"ce4bgt12rcd13ifvqcd0","pricing_plan_id":"cebpf4jnsgd1na2vs0mg"},{"bike_id":"0631c7b3-dcd6-423a-b870-36ebe59297c3","system_id":"levelo_inurba_marseille","lat":43.30911,"lon":5.3687,"is_reserved":false,"is_disabled":false,"rental_uris":{"android":"levelo://app?vid=0631c7b3-dcd6-423a-b870-36ebe59297c3","ios":"levelo://app?vid=0631c7b3-dcd6-423a-b870-36ebe59297c3"},"vehicle_type_id":"4","last_reported":1732889357,"current_range_meters":38800,"station_id":"ce4bgn92rcd13ifvqbvg","pricing_plan_id":"cebpf4jnsgd1na2vs0mg"},{"bike_id":"90589d3c-c27d-41de-b7ab-7085b76b35f2","system_id":"levelo_inurba_marseille","lat":43.28038,"lon":5.36946,"is_reserved":false,"is_disabled":false,"rental_uris":{"android":"levelo://app?vid=90589d3c-c27d-41de-b7ab-7085b76b35f2","ios":"levelo://app?vid=90589d3c-c27d-41de-b7ab-7085b76b35f2"},"vehicle_type_id":"4","last_reported":1732889357,"current_range_meters":17200,"station_id":"ce4bha12rcd13ifvqef0","pricing_plan_id":"cebpf4jnsgd1na2vs0mg"},{"bike_id":"1f8b8a84-78e8-4f08-9d46-95b2c498bf39","system_id":"levelo_inurba_marseille","lat":43.29276,"lon":5.36846,"is_reserved":false,"is_disabled":false,"rental_uris":{"android":"levelo://app?vid=1f8b8a84-78e8-4f08-9d46-95b2c498bf39","ios":"levelo://app?vid=1f8b8a84-78e8-4f08-9d46-95b2c498bf39"},"vehicle_type_id":"4","last_reported":1732889357,"current_range_meters":32800,"station_id":"ce4bhbp2rcd13ifvqesg","pricing_plan_id":"cebpf4jnsgd1na2vs0mg"},{"bike_id":"9f71d9b1-f1c2-46eb-b001-c03b9e0d69c6","system_id":"levelo_inurba_marseille","lat":43.2993,"lon":5.36538,"is_reserved":false,"is_disabled":false,"rental_uris":{"android":"levelo://app?vid=9f71d9b1-f1c2-46eb-b001-c03b9e0d69c6","ios":"levelo://app?vid=9f71d9b1-f1c2-46eb-b001-c03b9e0d69c6"},"vehicle_type_id":"4","last_reported":1732889357,"current_range_meters":8400,"station_id":"ce4bgm92rcd13ifvqbr0","pricing_plan_id":"cebpf4jnsgd1na2vs0mg"},{"bike_id":"e0f751c1-e73d-4fd9-8fd5-b0800d31e948","system_id":"levelo_inurba_marseille","lat":43.25084,"lon":5.3951,"is_reserved":false,"is_disabled":false,"rental_uris":{"android":"levelo://app?vid=e0f751c1-e73d-4fd9-8fd5-b0800d31e948","ios":"levelo://app?vid=e0f751c1-e73d-4fd9-8fd5-b0800d31e948"},"vehicle_type_id":"4","last_reported":1732889357,"current_range_meters":16000,"station_id":"ce4bhm12rcd13ifvqgkg","pricing_plan_id":"cebpf4jnsgd1na2vs0mg"},{"bike_id":"606f4b92-39a8-4f88-978c-f3ff47b620c4","system_id":"levelo_inurba_marseille","lat":43.2717,"lon":5.41003,"is_reserved":false,"is_disabled":false,"rental_uris":{"android":"levelo://app?vid=606f4b92-39a8-4f88-978c-f3ff47b620c4","ios":"levelo://app?vid=606f4b92-39a8-4f88-978c-f3ff47b620c4"},"vehicle_type_id":"4","last_reported":1732889357,"current_range_meters":28400,"station_id":"ce4bhl12rcd13ifvqgf0","pricing_plan_id":"cebpf4jnsgd1na2vs0mg"},{"bike_id":"76cf05b8-b737-43a2-a8b0-2a3350d05016","system_id":"levelo_inurba_marseille","lat":43.27054,"lon":5.40258,"is_reserved":false,"is_disabled":true,"rental_uris":{"android":"levelo://app?vid=76cf05b8-b737-43a2-a8b0-2a3350d05016","ios":"levelo://app?vid=76cf05b8-b737-43a2-a8b0-2a3350d05016"},"vehicle_type_id":"4","last_reported":1732889357,"current_range_meters":0,"station_id":"ce4bhk92rcd13ifvqgc0","pricing_plan_id":"cebpf4jnsgd1na2vs0mg"},{"bike_id":"7184a4ca-d859-461e-9dc9-2b319088faed","system_id":"levelo_inurba_marseille","lat":43.29225,"lon":5.36054,"is_reserved":false,"is_disabled":false,"rental_uris":{"android":"levelo://app?vid=7184a4ca-d859-461e-9dc9-2b319088faed","ios":"levelo://app?vid=7184a4ca-d859-461e-9dc9-2b319088faed"},"vehicle_type_id":"4","last_reported":1732889357,"current_range_meters":30800,"station_id":"ce4bhbh2rcd13ifvqeqg","pricing_plan_id":"cebpf4jnsgd1na2vs0mg"},{"bike_id":"2839c06e-dfc6-4bb4-92dd-cd78c43581f0","system_id":"levelo_inurba_marseille","lat":43.23197,"lon":5.35555,"is_reserved":false,"is_disabled":false,"rental_uris":{"android":"levelo://app?vid=2839c06e-dfc6-4bb4-92dd-cd78c43581f0","ios":"levelo://app?vid=2839c06e-dfc6-4bb4-92dd-cd78c43581f0"},"vehicle_type_id":"4","last_reported":1732889357,"current_range_meters":19600,"station_id":"ce4bhu92rcd13ifvqi70","pricing_plan_id":"cebpf4jnsgd1na2vs0mg"},{"bike_id":"0d0d5df9-6015-4771-806e-2bb5c2a72077","system_id":"levelo_inurba_marseille","lat":43.30592,"lon":5.39353,"is_reserved":false,"is_disabled":false,"rental_uris":{"android":"levelo://app?vid=0d0d5df9-6015-4771-806e-2bb5c2a72077","ios":"levelo://app?vid=0d0d5df9-6015-4771-806e-2bb5c2a72077"},"vehicle_type_id":"4","last_reported":1732889357,"current_range_meters":12400,"station_id":"ce4bh0p2rcd13ifvqd80","pricing_plan_id":"cebpf4jnsgd1na2vs0mg"},{"bike_id":"f1eb81dc-28c7-4b84-ae5b-4c30f79e019c","system_id":"levelo_inurba_marseille","lat":43.28265,"lon":5.35078,"is_reserved":false,"is_disabled":false,"rental_uris":{"android":"levelo://app?vid=f1eb81dc-28c7-4b84-ae5b-4c30f79e019c","ios":"levelo://app?vid=f1eb81dc-28c7-4b84-ae5b-4c30f79e019c"},"vehicle_type_id":"4","last_reported":1732889357,"current_range_meters":30400,"station_id":"ce4bhbp2rcd13ifvqerg","pricing_plan_id":"cebpf4jnsgd1na2vs0mg"},{"bike_id":"f281979c-bfb0-4415-9d6c-7d0694855a6e","system_id":"levelo_inurba_marseille","lat":43.3035,"lon":5.41877,"is_reserved":false,"is_disabled":false,"rental_uris":{"android":"levelo://app?vid=f281979c-bfb0-4415-9d6c-7d0694855a6e","ios":"levelo://app?vid=f281979c-bfb0-4415-9d6c-7d0694855a6e"},"vehicle_type_id":"4","last_reported":1732889357,"current_range_meters":32400,"station_id":"ce4bhop2rcd13ifvqh7g","pricing_plan_id":"cebpf4jnsgd1na2vs0mg"},{"bike_id":"8e3b7e31-041f-4221-87ff-464216fcf0ab","system_id":"levelo_inurba_marseille","lat":43.29037,"lon":5.38114,"is_reserved":false,"is_disabled":false,"rental_uris":{"android":"levelo://app?vid=8e3b7e31-041f-4221-87ff-464216fcf0ab","ios":"levelo://app?vid=8e3b7e31-041f-4221-87ff-464216fcf0ab"},"vehicle_type_id":"4","last_reported":1732889357,"current_range_meters":26000,"station_id":"ce4bh4p2rcd13ifvqe1g","pricing_plan_id":"cebpf4jnsgd1na2vs0mg"},{"bike_id":"fe1c6c60-0f4f-4b5c-a7ea-9f2ff8347245","system_id":"levelo_inurba_marseille","lat":43.27616,"lon":5.36102,"is_reserved":false,"is_disabled":true,"rental_uris":{"android":"levelo://app?vid=fe1c6c60-0f4f-4b5c-a7ea-9f2ff8347245","ios":"levelo://app?vid=fe1c6c60-0f4f-4b5c-a7ea-9f2ff8347245"},"vehicle_type_id":"4","last_reported":1732889357,"current_range_meters":0,"station_id":"ce4bgj92rcd13ifvqbe0","pricing_plan_id":"cebpf4jnsgd1na2vs0mg"},{"bike_id":"4b51e46f-4a9f-4751-a5d8-7bd19fcdf41f","system_id":"levelo_inurba_marseille","lat":43.29967,"lon":5.3716,"is_reserved":false,"is_disabled":false,"rental_uris":{"android":"levelo://app?vid=4b51e46f-4a9f-4751-a5d8-7bd19fcdf41f","ios":"levelo://app?vid=4b51e46f-4a9f-4751-a5d8-7bd19fcdf41f"},"vehicle_type_id":"4","last_reported":1732889357,"current_range_meters":38800,"station_id":"ce4bgr92rcd13ifvqc7g","pricing_plan_id":"cebpf4jnsgd1na2vs0mg"},{"bike_id":"4e5da5f6-141a-40ea-85f9-0f2e729fec06","system_id":"levelo_inurba_marseille","lat":43.25723,"lon":5.41092,"is_reserved":false,"is_disabled":false,"rental_uris":{"android":"levelo://app?vid=4e5da5f6-141a-40ea-85f9-0f2e729fec06","ios":"levelo://app?vid=4e5da5f6-141a-40ea-85f9-0f2e729fec06"},"vehicle_type_id":"4","last_reported":1732889357,"current_range_meters":39200,"station_id":"ce4bhkp2rcd13ifvqgd0","pricing_plan_id":"cebpf4jnsgd1na2vs0mg"},{"bike_id":"e42249bf-1ff8-4abf-b6d4-85655a6f5f87","system_id":"levelo_inurba_marseille","lat":43.32028,"lon":5.4157,"is_reserved":false,"is_disabled":false,"rental_uris":{"android":"levelo://app?vid=e42249bf-1ff8-4abf-b6d4-85655a6f5f87","ios":"levelo://app?vid=e42249bf-1ff8-4abf-b6d4-85655a6f5f87"},"vehicle_type_id":"4","last_reported":1732889357,"current_range_meters":38800,"station_id":"ce4bhq92rcd13ifvqhkg","pricing_plan_id":"cebpf4jnsgd1na2vs0mg"},{"bike_id":"a22101fc-0ff6-4caf-8143-0a7cd2a9cd9c","system_id":"levelo_inurba_marseille","lat":43.26811,"lon":5.4027,"is_reserved":false,"is_disabled":false,"rental_uris":{"android":"levelo://app?vid=a22101fc-0ff6-4caf-8143-0a7cd2a9cd9c","ios":"levelo://app?vid=a22101fc-0ff6-4caf-8143-0a7cd2a9cd9c"},"vehicle_type_id":"4","last_reported":1732889357,"current_range_meters":38800,"station_id":"ce501612rcd8frsf0b60","pricing_plan_id":"cebpf4jnsgd1na2vs0mg"},{"bike_id":"9f358ae5-c405-4211-8190-692859e8e519","system_id":"levelo_inurba_marseille","lat":43.29038,"lon":5.35926,"is_reserved":false,"is_disabled":false,"rental_uris":{"android":"levelo://app?vid=9f358ae5-c405-4211-8190-692859e8e519","ios":"levelo://app?vid=9f358ae5-c405-4211-8190-692859e8e519"},"vehicle_type_id":"4","last_reported":1732889357,"current_range_meters":25200,"station_id":"ce4bha92rcd13ifvqeg0","pricing_plan_id":"cebpf4jnsgd1na2vs0mg"},{"bike_id":"7a247ca7-4c6f-4c8e-9fd8-33560b6e465f","system_id":"levelo_inurba_marseille","lat":43.28669,"lon":5.36354,"is_reserved":false,"is_disabled":false,"rental_uris":{"android":"levelo://app?vid=7a247ca7-4c6f-4c8e-9fd8-33560b6e465f","ios":"levelo://app?vid=7a247ca7-4c6f-4c8e-9fd8-33560b6e465f"},"vehicle_type_id":"4","last_reported":1732889357,"current_range_meters":25200,"station_id":"ce4bhah2rcd13ifvqej0","pricing_plan_id":"cebpf4jnsgd1na2vs0mg"},{"bike_id":"8e24f3f0-2806-4ddc-92b6-1dfa7a7076d3","system_id":"levelo_inurba_marseille","lat":43.27814,"lon":5.40717,"is_reserved":false,"is_disabled":true,"rental_uris":{"android":"levelo://app?vid=8e24f3f0-2806-4ddc-92b6-1dfa7a7076d3","ios":"levelo://app?vid=8e24f3f0-2806-4ddc-92b6-1dfa7a7076d3"},"vehicle_type_id":"4","last_reported":1732889357,"current_range_meters":0,"station_id":"ce4bhnh2rcd13ifvqgtg","pricing_plan_id":"cebpf4jnsgd1na2vs0mg"},{"bike_id":"41666e59-5070-45c1-96e9-65601dcad22f","system_id":"levelo_inurba_marseille","lat":43.25863,"lon":5.39901,"is_reserved":false,"is_disabled":false,"rental_uris":{"android":"levelo://app?vid=41666e59-5070-45c1-96e9-65601dcad22f","ios":"levelo://app?vid=41666e59-5070-45c1-96e9-65601dcad22f"},"vehicle_type_id":"4","last_reported":1732889357,"current_range_meters":28800,"station_id":"ce4bhl92rcd13ifvqghg","pricing_plan_id":"cebpf4jnsgd1na2vs0mg"},{"bike_id":"c60ac7ff-2baf-40c2-84ea-5c74b8eec6a0","system_id":"levelo_inurba_marseille","lat":43.27916,"lon":5.41189,"is_reserved":false,"is_disabled":false,"rental_uris":{"android":"levelo://app?vid=c60ac7ff-2baf-40c2-84ea-5c74b8eec6a0","ios":"levelo://app?vid=c60ac7ff-2baf-40c2-84ea-5c74b8eec6a0"},"vehicle_type_id":"4","last_reported":1732889357,"current_range_meters":4400,"station_id":"","pricing_plan_id":"cebpf4jnsgd1na2vs0mg"},{"bike_id":"5cbf1539-18e9-4c34-b3ac-bb7a0181213c","system_id":"levelo_inurba_marseille","lat":43.29927,"lon":5.36543,"is_reserved":false,"is_disabled":false,"rental_uris":{"android":"levelo://app?vid=5cbf1539-18e9-4c34-b3ac-bb7a0181213c","ios":"levelo://app?vid=5cbf1539-18e9-4c34-b3ac-bb7a0181213c"},"vehicle_type_id":"4","last_reported":1732889357,"current_range_meters":36800,"station_id":"ce4bgm92rcd13ifvqbr0","pricing_plan_id":"cebpf4jnsgd1na2vs0mg"},{"bike_id":"a7d03a36-f2d2-4ec9-b8cc-dcb186ac26fd","system_id":"levelo_inurba_marseille","lat":43.3054,"lon":5.36706,"is_reserved":false,"is_disabled":false,"rental_uris":{"android":"levelo://app?vid=a7d03a36-f2d2-4ec9-b8cc-dcb186ac26fd","ios":"levelo://app?vid=a7d03a36-f2d2-4ec9-b8cc-dcb186ac26fd"},"vehicle_type_id":"4","last_reported":1732889357,"current_range_meters":37600,"station_id":"ce4bgrp2rcd13ifvqc9g","pricing_plan_id":"cebpf4jnsgd1na2vs0mg"},{"bike_id":"372dcf13-a9c5-4d94-8b71-13decc646750","system_id":"levelo_inurba_marseille","lat":43.30532,"lon":5.36544,"is_reserved":false,"is_disabled":false,"rental_uris":{"android":"levelo://app?vid=372dcf13-a9c5-4d94-8b71-13decc646750","ios":"levelo://app?vid=372dcf13-a9c5-4d94-8b71-13decc646750"},"vehicle_type_id":"4","last_reported":1732889357,"current_range_meters":6800,"station_id":"ce4bgs12rcd13ifvqcag","pricing_plan_id":"cebpf4jnsgd1na2vs0mg"},{"bike_id":"3886e6b9-5152-4a0b-aade-a052bcd9fc42","system_id":"levelo_inurba_marseille","lat":43.308,"lon":5.38151,"is_reserved":false,"is_disabled":false,"rental_uris":{"android":"levelo://app?vid=3886e6b9-5152-4a0b-aade-a052bcd9fc42","ios":"levelo://app?vid=3886e6b9-5152-4a0b-aade-a052bcd9fc42"},"vehicle_type_id":"4","last_reported":1732889357,"current_range_meters":24000,"station_id":"ce4bgt12rcd13ifvqce0","pricing_plan_id":"cebpf4jnsgd1na2vs0mg"},{"bike_id":"0f7e00ba-10cd-4ab8-beb7-4d22b6243429","system_id":"levelo_inurba_marseille","lat":43.30424,"lon":5.41283,"is_reserved":false,"is_disabled":false,"rental_uris":{"android":"levelo://app?vid=0f7e00ba-10cd-4ab8-beb7-4d22b6243429","ios":"levelo://app?vid=0f7e00ba-10cd-4ab8-beb7-4d22b6243429"},"vehicle_type_id":"4","last_reported":1732889357,"current_range_meters":35200,"station_id":"ce4bhop2rcd13ifvqh8g","pricing_plan_id":"cebpf4jnsgd1na2vs0mg"},{"bike_id":"a5909545-3e09-4859-9fda-9ffe4e6e4883","system_id":"levelo_inurba_marseille","lat":43.23066,"lon":5.35491,"is_reserved":false,"is_disabled":false,"rental_uris":{"android":"levelo://app?vid=a5909545-3e09-4859-9fda-9ffe4e6e4883","ios":"levelo://app?vid=a5909545-3e09-4859-9fda-9ffe4e6e4883"},"vehicle_type_id":"4","last_reported":1732889357,"current_range_meters":17200,"station_id":"cpo3342slgdg3j2ifvpg","pricing_plan_id":"cebpf4jnsgd1na2vs0mg"},{"bike_id":"c79e9016-c771-4ca5-97b0-4cb56342be14","system_id":"levelo_inurba_marseille","lat":43.32477,"lon":5.36577,"is_reserved":false,"is_disabled":false,"rental_uris":{"android":"levelo://app?vid=c79e9016-c771-4ca5-97b0-4cb56342be14","ios":"levelo://app?vid=c79e9016-c771-4ca5-97b0-4cb56342be14"},"vehicle_type_id":"4","last_reported":1732889357,"current_range_meters":38400,"station_id":"ce4bhs12rcd13ifvqhvg","pricing_plan_id":"cebpf4jnsgd1na2vs0mg"},{"bike_id":"e71aee6f-0ed1-40d6-a695-8b49d63c5526","system_id":"levelo_inurba_marseille","lat":43.30352,"lon":5.41884,"is_reserved":false,"is_disabled":false,"rental_uris":{"android":"levelo://app?vid=e71aee6f-0ed1-40d6-a695-8b49d63c5526","ios":"levelo://app?vid=e71aee6f-0ed1-40d6-a695-8b49d63c5526"},"vehicle_type_id":"4","last_reported":1732889357,"current_range_meters":14800,"station_id":"ce4bhop2rcd13ifvqh7g","pricing_plan_id":"cebpf4jnsgd1na2vs0mg"},{"bike_id":"1f3be82a-39fb-49be-9f70-2df7092d6f3c","system_id":"levelo_inurba_marseille","lat":43.3245,"lon":5.36553,"is_reserved":false,"is_disabled":false,"rental_uris":{"android":"levelo://app?vid=1f3be82a-39fb-49be-9f70-2df7092d6f3c","ios":"levelo://app?vid=1f3be82a-39fb-49be-9f70-2df7092d6f3c"},"vehicle_type_id":"4","last_reported":1732889357,"current_range_meters":12000,"station_id":"ce4bhs12rcd13ifvqhvg","pricing_plan_id":"cebpf4jnsgd1na2vs0mg"},{"bike_id":"fed709e1-6df5-4117-876e-9a579ab2a60b","system_id":"levelo_inurba_marseille","lat":43.29524,"lon":5.38539,"is_reserved":false,"is_disabled":false,"rental_uris":{"android":"levelo://app?vid=fed709e1-6df5-4117-876e-9a579ab2a60b","ios":"levelo://app?vid=fed709e1-6df5-4117-876e-9a579ab2a60b"},"vehicle_type_id":"4","last_reported":1732889357,"current_range_meters":24000,"station_id":"ce4bgih2rcd13ifvqba0","pricing_plan_id":"cebpf4jnsgd1na2vs0mg"},{"bike_id":"d232b51f-8a91-4fe2-8e93-1d5ea369822b","system_id":"levelo_inurba_marseille","lat":43.23145,"lon":5.4371,"is_reserved":false,"is_disabled":false,"rental_uris":{"android":"levelo://app?vid=d232b51f-8a91-4fe2-8e93-1d5ea369822b","ios":"levelo://app?vid=d232b51f-8a91-4fe2-8e93-1d5ea369822b"},"vehicle_type_id":"4","last_reported":1732889357,"current_range_meters":32800,"station_id":"ce4bhmp2rcd13ifvqgog","pricing_plan_id":"cebpf4jnsgd1na2vs0mg"},{"bike_id":"e5951ee3-4a5a-4ebb-b469-096c5188dfa3","system_id":"levelo_inurba_marseille","lat":43.23179,"lon":5.35568,"is_reserved":false,"is_disabled":false,"rental_uris":{"android":"levelo://app?vid=e5951ee3-4a5a-4ebb-b469-096c5188dfa3","ios":"levelo://app?vid=e5951ee3-4a5a-4ebb-b469-096c5188dfa3"},"vehicle_type_id":"4","last_reported":1732889357,"current_range_meters":24000,"station_id":"ce4bhu92rcd13ifvqi70","pricing_plan_id":"cebpf4jnsgd1na2vs0mg"},{"bike_id":"f9a63393-5401-4f98-ae5a-dfbb8291ab6d","system_id":"levelo_inurba_marseille","lat":43.3004,"lon":5.37551,"is_reserved":false,"is_disabled":true,"rental_uris":{"android":"levelo://app?vid=f9a63393-5401-4f98-ae5a-dfbb8291ab6d","ios":"levelo://app?vid=f9a63393-5401-4f98-ae5a-dfbb8291ab6d"},"vehicle_type_id":"4","last_reported":1732889357,"current_range_meters":0,"station_id":"","pricing_plan_id":"cebpf4jnsgd1na2vs0mg"},{"bike_id":"f2440173-a5a6-49b6-b6e6-e5e11d12dd84","system_id":"levelo_inurba_marseille","lat":43.30315,"lon":5.36907,"is_reserved":false,"is_disabled":false,"rental_uris":{"android":"levelo://app?vid=f2440173-a5a6-49b6-b6e6-e5e11d12dd84","ios":"levelo://app?vid=f2440173-a5a6-49b6-b6e6-e5e11d12dd84"},"vehicle_type_id":"4","last_reported":1732889357,"current_range_meters":22000,"station_id":"ce4bgqh2rcd13ifvqc5g","pricing_plan_id":"cebpf4jnsgd1na2vs0mg"},{"bike_id":"4f0c1e85-c49b-4785-bb85-73966461f965","system_id":"levelo_inurba_marseille","lat":43.30553,"lon":5.36545,"is_reserved":false,"is_disabled":false,"rental_uris":{"android":"levelo://app?vid=4f0c1e85-c49b-4785-bb85-73966461f965","ios":"levelo://app?vid=4f0c1e85-c49b-4785-bb85-73966461f965"},"vehicle_type_id":"4","last_reported":1732889357,"current_range_meters":18000,"station_id":"ce4bgs12rcd13ifvqcag","pricing_plan_id":"cebpf4jnsgd1na2vs0mg"},{"bike_id":"c010f690-823a-487a-92be-52c148a40608","system_id":"levelo_inurba_marseille","lat":43.28855,"lon":5.35864,"is_reserved":false,"is_disabled":false,"rental_uris":{"android":"levelo://app?vid=c010f690-823a-487a-92be-52c148a40608","ios":"levelo://app?vid=c010f690-823a-487a-92be-52c148a40608"},"vehicle_type_id":"4","last_reported":1732889357,"current_range_meters":37600,"station_id":"ce4bhb12rcd13ifvqem0","pricing_plan_id":"cebpf4jnsgd1na2vs0mg"},{"bike_id":"ca4a62cc-0162-4867-baae-5fed586cc0f8","system_id":"levelo_inurba_marseille","lat":43.27176,"lon":5.40993,"is_reserved":false,"is_disabled":false,"rental_uris":{"android":"levelo://app?vid=ca4a62cc-0162-4867-baae-5fed586cc0f8","ios":"levelo://app?vid=ca4a62cc-0162-4867-baae-5fed586cc0f8"},"vehicle_type_id":"4","last_reported":1732889357,"current_range_meters":19200,"station_id":"ce4bhl12rcd13ifvqgf0","pricing_plan_id":"cebpf4jnsgd1na2vs0mg"},{"bike_id":"209edce5-94bd-42b7-894c-233f806592a5","system_id":"levelo_inurba_marseille","lat":43.3236,"lon":5.36759,"is_reserved":false,"is_disabled":false,"rental_uris":{"android":"levelo://app?vid=209edce5-94bd-42b7-894c-233f806592a5","ios":"levelo://app?vid=209edce5-94bd-42b7-894c-233f806592a5"},"vehicle_type_id":"4","last_reported":1732889357,"current_range_meters":34000,"station_id":"ce4bhsh2rcd13ifvqi2g","pricing_plan_id":"cebpf4jnsgd1na2vs0mg"},{"bike_id":"cb90edb8-6b97-4f13-aaf4-7fc553c35336","system_id":"levelo_inurba_marseille","lat":43.31721,"lon":5.37795,"is_reserved":false,"is_disabled":false,"rental_uris":{"android":"levelo://app?vid=cb90edb8-6b97-4f13-aaf4-7fc553c35336","ios":"levelo://app?vid=cb90edb8-6b97-4f13-aaf4-7fc553c35336"},"vehicle_type_id":"4","last_reported":1732889357,"current_range_meters":38000,"station_id":"ce4bgth2rcd13ifvqch0","pricing_plan_id":"cebpf4jnsgd1na2vs0mg"},{"bike_id":"cb591b45-0e8e-463f-b18b-b318f5f30bcf","system_id":"levelo_inurba_marseille","lat":43.303406,"lon":5.404368,"is_reserved":false,"is_disabled":false,"rental_uris":{"android":"levelo://app?vid=cb591b45-0e8e-463f-b18b-b318f5f30bcf","ios":"levelo://app?vid=cb591b45-0e8e-463f-b18b-b318f5f30bcf"},"vehicle_type_id":"4","last_reported":1732889357,"current_range_meters":34800,"station_id":"ce4bh012rcd13ifvqd10","pricing_plan_id":"cebpf4jnsgd1na2vs0mg"},{"bike_id":"c8431049-eb58-43fc-8ced-defaa9f7383d","system_id":"levelo_inurba_marseille","lat":43.29372,"lon":5.37831,"is_reserved":false,"is_disabled":false,"rental_uris":{"android":"levelo://app?vid=c8431049-eb58-43fc-8ced-defaa9f7383d","ios":"levelo://app?vid=c8431049-eb58-43fc-8ced-defaa9f7383d"},"vehicle_type_id":"4","last_reported":1732889357,"current_range_meters":7200,"station_id":"ce4bgjh2rcd13ifvqbf0","pricing_plan_id":"cebpf4jnsgd1na2vs0mg"},{"bike_id":"908d9660-25dd-4544-8964-7abc05e033d6","system_id":"levelo_inurba_marseille","lat":43.28464,"lon":5.35893,"is_reserved":false,"is_disabled":false,"rental_uris":{"android":"levelo://app?vid=908d9660-25dd-4544-8964-7abc05e033d6","ios":"levelo://app?vid=908d9660-25dd-4544-8964-7abc05e033d6"},"vehicle_type_id":"4","last_reported":1732889357,"current_range_meters":3600,"station_id":"ce4bhah2rcd13ifvqei0","pricing_plan_id":"cebpf4jnsgd1na2vs0mg"},{"bike_id":"574ba74e-ea23-46d4-a8f2-5a26caa49dfa","system_id":"levelo_inurba_marseille","lat":43.29889,"lon":5.43665,"is_reserved":false,"is_disabled":false,"rental_uris":{"android":"levelo://app?vid=574ba74e-ea23-46d4-a8f2-5a26caa49dfa","ios":"levelo://app?vid=574ba74e-ea23-46d4-a8f2-5a26caa49dfa"},"vehicle_type_id":"4","last_reported":1732889357,"current_range_meters":30000,"station_id":"ce4bhpp2rcd13ifvqhfg","pricing_plan_id":"cebpf4jnsgd1na2vs0mg"},{"bike_id":"de8dedfd-c65e-4ce5-b8ec-b5ab34a22a6e","system_id":"levelo_inurba_marseille","lat":43.27068,"lon":5.42282,"is_reserved":false,"is_disabled":true,"rental_uris":{"android":"levelo://app?vid=de8dedfd-c65e-4ce5-b8ec-b5ab34a22a6e","ios":"levelo://app?vid=de8dedfd-c65e-4ce5-b8ec-b5ab34a22a6e"},"vehicle_type_id":"4","last_reported":1732889357,"current_range_meters":38800,"station_id":"ce4bhk92rcd13ifvqgb0","pricing_plan_id":"cebpf4jnsgd1na2vs0mg"},{"bike_id":"71293330-7555-4297-ad94-3a6b9a5ca4c3","system_id":"levelo_inurba_marseille","lat":43.3149,"lon":5.37303,"is_reserved":false,"is_disabled":false,"rental_uris":{"android":"levelo://app?vid=71293330-7555-4297-ad94-3a6b9a5ca4c3","ios":"levelo://app?vid=71293330-7555-4297-ad94-3a6b9a5ca4c3"},"vehicle_type_id":"4","last_reported":1732889357,"current_range_meters":28400,"station_id":"ce4bgt12rcd13ifvqcd0","pricing_plan_id":"cebpf4jnsgd1na2vs0mg"},{"bike_id":"24a27293-1ad3-4a39-a277-4f59d677eb34","system_id":"levelo_inurba_marseille","lat":43.2836,"lon":5.38642,"is_reserved":false,"is_disabled":false,"rental_uris":{"android":"levelo://app?vid=24a27293-1ad3-4a39-a277-4f59d677eb34","ios":"levelo://app?vid=24a27293-1ad3-4a39-a277-4f59d677eb34"},"vehicle_type_id":"4","last_reported":1732889357,"current_range_meters":21600,"station_id":"ce4bh492rcd13ifvqdvg","pricing_plan_id":"cebpf4jnsgd1na2vs0mg"},{"bike_id":"f576f1ac-9441-4aaf-9239-99d550cb7b55","system_id":"levelo_inurba_marseille","lat":43.31695,"lon":5.37762,"is_reserved":false,"is_disabled":false,"rental_uris":{"android":"levelo://app?vid=f576f1ac-9441-4aaf-9239-99d550cb7b55","ios":"levelo://app?vid=f576f1ac-9441-4aaf-9239-99d550cb7b55"},"vehicle_type_id":"4","last_reported":1732889357,"current_range_meters":37600,"station_id":"ce4bgth2rcd13ifvqch0","pricing_plan_id":"cebpf4jnsgd1na2vs0mg"},{"bike_id":"47a43e08-c0ab-48e4-8264-39798859023a","system_id":"levelo_inurba_marseille","lat":43.29236,"lon":5.3609,"is_reserved":false,"is_disabled":false,"rental_uris":{"android":"levelo://app?vid=47a43e08-c0ab-48e4-8264-39798859023a","ios":"levelo://app?vid=47a43e08-c0ab-48e4-8264-39798859023a"},"vehicle_type_id":"4","last_reported":1732889357,"current_range_meters":27600,"station_id":"ce4bhbh2rcd13ifvqeqg","pricing_plan_id":"cebpf4jnsgd1na2vs0mg"},{"bike_id":"d1fd7c18-081f-4165-90f6-fbb5157ea749","system_id":"levelo_inurba_marseille","lat":43.27968,"lon":5.38764,"is_reserved":false,"is_disabled":true,"rental_uris":{"android":"levelo://app?vid=d1fd7c18-081f-4165-90f6-fbb5157ea749","ios":"levelo://app?vid=d1fd7c18-081f-4165-90f6-fbb5157ea749"},"vehicle_type_id":"4","last_reported":1732889357,"current_range_meters":0,"station_id":"ce4bhg12rcd13ifvqf80","pricing_plan_id":"cebpf4jnsgd1na2vs0mg"},{"bike_id":"e1efa15f-4296-459f-a0d4-bad717df92dd","system_id":"levelo_inurba_marseille","lat":43.28351,"lon":5.38134,"is_reserved":false,"is_disabled":false,"rental_uris":{"android":"levelo://app?vid=e1efa15f-4296-459f-a0d4-bad717df92dd","ios":"levelo://app?vid=e1efa15f-4296-459f-a0d4-bad717df92dd"},"vehicle_type_id":"4","last_reported":1732889357,"current_range_meters":4000,"station_id":"ce4bh412rcd13ifvqdr0","pricing_plan_id":"cebpf4jnsgd1na2vs0mg"},{"bike_id":"6566ed95-6be6-4f77-aa33-c02f465823a7","system_id":"levelo_inurba_marseille","lat":43.33887,"lon":5.38096,"is_reserved":false,"is_disabled":true,"rental_uris":{"android":"levelo://app?vid=6566ed95-6be6-4f77-aa33-c02f465823a7","ios":"levelo://app?vid=6566ed95-6be6-4f77-aa33-c02f465823a7"},"vehicle_type_id":"4","last_reported":1732889357,"current_range_meters":8000,"station_id":"","pricing_plan_id":"cebpf4jnsgd1na2vs0mg"},{"bike_id":"cf002d38-17c9-44fd-9354-c7910c4bd3ff","system_id":"levelo_inurba_marseille","lat":43.33028,"lon":5.3904,"is_reserved":false,"is_disabled":false,"rental_uris":{"android":"levelo://app?vid=cf002d38-17c9-44fd-9354-c7910c4bd3ff","ios":"levelo://app?vid=cf002d38-17c9-44fd-9354-c7910c4bd3ff"},"vehicle_type_id":"4","last_reported":1732889357,"current_range_meters":28000,"station_id":"ce4bhr92rcd13ifvqhrg","pricing_plan_id":"cebpf4jnsgd1na2vs0mg"},{"bike_id":"13e49c0d-8782-48c4-aa62-5b9e33c13a67","system_id":"levelo_inurba_marseille","lat":43.27371,"lon":5.36258,"is_reserved":false,"is_disabled":true,"rental_uris":{"android":"levelo://app?vid=13e49c0d-8782-48c4-aa62-5b9e33c13a67","ios":"levelo://app?vid=13e49c0d-8782-48c4-aa62-5b9e33c13a67"},"vehicle_type_id":"4","last_reported":1732889357,"current_range_meters":0,"station_id":"ce4bhbh2rcd13ifvqeo0","pricing_plan_id":"cebpf4jnsgd1na2vs0mg"},{"bike_id":"c0091e9d-d71c-485d-a091-a465eed155dc","system_id":"levelo_inurba_marseille","lat":43.23961,"lon":5.36634,"is_reserved":false,"is_disabled":false,"rental_uris":{"android":"levelo://app?vid=c0091e9d-d71c-485d-a091-a465eed155dc","ios":"levelo://app?vid=c0091e9d-d71c-485d-a091-a465eed155dc"},"vehicle_type_id":"4","last_reported":1732889357,"current_range_meters":19600,"station_id":"ce4bhi12rcd13ifvqfp0","pricing_plan_id":"cebpf4jnsgd1na2vs0mg"},{"bike_id":"d3e0e600-72ae-4731-b888-e8215be670e2","system_id":"levelo_inurba_marseille","lat":43.288533,"lon":5.358466,"is_reserved":false,"is_disabled":false,"rental_uris":{"android":"levelo://app?vid=d3e0e600-72ae-4731-b888-e8215be670e2","ios":"levelo://app?vid=d3e0e600-72ae-4731-b888-e8215be670e2"},"vehicle_type_id":"4","last_reported":1732889357,"current_range_meters":22800,"station_id":"ce4bhb12rcd13ifvqem0","pricing_plan_id":"cebpf4jnsgd1na2vs0mg"},{"bike_id":"43746d86-8a13-4845-9faf-ae69b548d714","system_id":"levelo_inurba_marseille","lat":43.29459,"lon":5.37917,"is_reserved":false,"is_disabled":true,"rental_uris":{"android":"levelo://app?vid=43746d86-8a13-4845-9faf-ae69b548d714","ios":"levelo://app?vid=43746d86-8a13-4845-9faf-ae69b548d714"},"vehicle_type_id":"4","last_reported":1732889357,"current_range_meters":0,"station_id":"","pricing_plan_id":"cebpf4jnsgd1na2vs0mg"},{"bike_id":"816defba-6b2f-4b8c-b0e9-81bbe92e3610","system_id":"levelo_inurba_marseille","lat":43.28356,"lon":5.38113,"is_reserved":false,"is_disabled":false,"rental_uris":{"android":"levelo://app?vid=816defba-6b2f-4b8c-b0e9-81bbe92e3610","ios":"levelo://app?vid=816defba-6b2f-4b8c-b0e9-81bbe92e3610"},"vehicle_type_id":"4","last_reported":1732889357,"current_range_meters":39200,"station_id":"ce4bh412rcd13ifvqdr0","pricing_plan_id":"cebpf4jnsgd1na2vs0mg"},{"bike_id":"c41e9656-284b-4495-ac9b-461982f10d89","system_id":"levelo_inurba_marseille","lat":43.267988,"lon":5.402673,"is_reserved":false,"is_disabled":false,"rental_uris":{"android":"levelo://app?vid=c41e9656-284b-4495-ac9b-461982f10d89","ios":"levelo://app?vid=c41e9656-284b-4495-ac9b-461982f10d89"},"vehicle_type_id":"4","last_reported":1732889357,"current_range_meters":35600,"station_id":"ce501612rcd8frsf0b60","pricing_plan_id":"cebpf4jnsgd1na2vs0mg"},{"bike_id":"b3d47772-058e-4a8e-91f3-3d5c2a953fbb","system_id":"levelo_inurba_marseille","lat":43.25861,"lon":5.39905,"is_reserved":false,"is_disabled":false,"rental_uris":{"android":"levelo://app?vid=b3d47772-058e-4a8e-91f3-3d5c2a953fbb","ios":"levelo://app?vid=b3d47772-058e-4a8e-91f3-3d5c2a953fbb"},"vehicle_type_id":"4","last_reported":1732889357,"current_range_meters":37600,"station_id":"ce4bhl92rcd13ifvqghg","pricing_plan_id":"cebpf4jnsgd1na2vs0mg"},{"bike_id":"124ff083-de96-48c3-be8a-967f23c1e374","system_id":"levelo_inurba_marseille","lat":43.25083,"lon":5.39519,"is_reserved":false,"is_disabled":false,"rental_uris":{"android":"levelo://app?vid=124ff083-de96-48c3-be8a-967f23c1e374","ios":"levelo://app?vid=124ff083-de96-48c3-be8a-967f23c1e374"},"vehicle_type_id":"4","last_reported":1732889357,"current_range_meters":32000,"station_id":"ce4bhm12rcd13ifvqgkg","pricing_plan_id":"cebpf4jnsgd1na2vs0mg"},{"bike_id":"5dde6864-6705-4fe1-9e79-ee4ed65a6a50","system_id":"levelo_inurba_marseille","lat":43.24544,"lon":5.39528,"is_reserved":false,"is_disabled":false,"rental_uris":{"android":"levelo://app?vid=5dde6864-6705-4fe1-9e79-ee4ed65a6a50","ios":"levelo://app?vid=5dde6864-6705-4fe1-9e79-ee4ed65a6a50"},"vehicle_type_id":"4","last_reported":1732889357,"current_range_meters":38800,"station_id":"ce4bhlp2rcd13ifvqgjg","pricing_plan_id":"cebpf4jnsgd1na2vs0mg"},{"bike_id":"4196d931-ad46-48ad-9039-a7812c7788f1","system_id":"levelo_inurba_marseille","lat":43.31257,"lon":5.40174,"is_reserved":false,"is_disabled":false,"rental_uris":{"android":"levelo://app?vid=4196d931-ad46-48ad-9039-a7812c7788f1","ios":"levelo://app?vid=4196d931-ad46-48ad-9039-a7812c7788f1"},"vehicle_type_id":"4","last_reported":1732889357,"current_range_meters":25600,"station_id":"ce4bh092rcd13ifvqd30","pricing_plan_id":"cebpf4jnsgd1na2vs0mg"},{"bike_id":"6f153e73-3d01-4342-b210-e0e82e57276a","system_id":"levelo_inurba_marseille","lat":43.30908,"lon":5.36848,"is_reserved":false,"is_disabled":false,"rental_uris":{"android":"levelo://app?vid=6f153e73-3d01-4342-b210-e0e82e57276a","ios":"levelo://app?vid=6f153e73-3d01-4342-b210-e0e82e57276a"},"vehicle_type_id":"4","last_reported":1732889357,"current_range_meters":28800,"station_id":"ce4bgn92rcd13ifvqbvg","pricing_plan_id":"cebpf4jnsgd1na2vs0mg"},{"bike_id":"ce2cbe83-d655-42ce-9474-8c63e0a4885d","system_id":"levelo_inurba_marseille","lat":43.25502,"lon":5.37652,"is_reserved":false,"is_disabled":false,"rental_uris":{"android":"levelo://app?vid=ce2cbe83-d655-42ce-9474-8c63e0a4885d","ios":"levelo://app?vid=ce2cbe83-d655-42ce-9474-8c63e0a4885d"},"vehicle_type_id":"4","last_reported":1732889357,"current_range_meters":36800,"station_id":"ce4bhh12rcd13ifvqff0","pricing_plan_id":"cebpf4jnsgd1na2vs0mg"},{"bike_id":"99460486-9bd1-4f0b-a63b-49daf1ddb249","system_id":"levelo_inurba_marseille","lat":43.26937,"lon":5.40262,"is_reserved":false,"is_disabled":false,"rental_uris":{"android":"levelo://app?vid=99460486-9bd1-4f0b-a63b-49daf1ddb249","ios":"levelo://app?vid=99460486-9bd1-4f0b-a63b-49daf1ddb249"},"vehicle_type_id":"4","last_reported":1732889357,"current_range_meters":36800,"station_id":"cjm6bp8fraef2m0cb0m0","pricing_plan_id":"cebpf4jnsgd1na2vs0mg"},{"bike_id":"9244d9fe-8890-4efa-bf2a-6d9fc44453ad","system_id":"levelo_inurba_marseille","lat":43.26783,"lon":5.39371,"is_reserved":false,"is_disabled":true,"rental_uris":{"android":"levelo://app?vid=9244d9fe-8890-4efa-bf2a-6d9fc44453ad","ios":"levelo://app?vid=9244d9fe-8890-4efa-bf2a-6d9fc44453ad"},"vehicle_type_id":"4","last_reported":1732889357,"current_range_meters":0,"station_id":"ce4bhh12rcd13ifvqfg0","pricing_plan_id":"cebpf4jnsgd1na2vs0mg"},{"bike_id":"fc4d15f5-6256-45a3-90d6-77bb4c676955","system_id":"levelo_inurba_marseille","lat":43.296284,"lon":5.377877,"is_reserved":false,"is_disabled":true,"rental_uris":{"android":"levelo://app?vid=fc4d15f5-6256-45a3-90d6-77bb4c676955","ios":"levelo://app?vid=fc4d15f5-6256-45a3-90d6-77bb4c676955"},"vehicle_type_id":"4","last_reported":1732889357,"current_range_meters":28800,"station_id":"","pricing_plan_id":"cebpf4jnsgd1na2vs0mg"},{"bike_id":"c88f8730-1176-4717-97e2-17c27b15274f","system_id":"levelo_inurba_marseille","lat":43.23189,"lon":5.35548,"is_reserved":false,"is_disabled":false,"rental_uris":{"android":"levelo://app?vid=c88f8730-1176-4717-97e2-17c27b15274f","ios":"levelo://app?vid=c88f8730-1176-4717-97e2-17c27b15274f"},"vehicle_type_id":"4","last_reported":1732889357,"current_range_meters":38800,"station_id":"ce4bhu92rcd13ifvqi70","pricing_plan_id":"cebpf4jnsgd1na2vs0mg"},{"bike_id":"c58127e0-6982-4595-bcc2-4d612696ac82","system_id":"levelo_inurba_marseille","lat":43.29572,"lon":5.37512,"is_reserved":false,"is_disabled":false,"rental_uris":{"android":"levelo://app?vid=c58127e0-6982-4595-bcc2-4d612696ac82","ios":"levelo://app?vid=c58127e0-6982-4595-bcc2-4d612696ac82"},"vehicle_type_id":"4","last_reported":1732889357,"current_range_meters":21600,"station_id":"ce4bgh92rcd13ifvqb50","pricing_plan_id":"cebpf4jnsgd1na2vs0mg"},{"bike_id":"5547a441-9653-482c-905c-97a54076438b","system_id":"levelo_inurba_marseille","lat":43.32363,"lon":5.36757,"is_reserved":false,"is_disabled":false,"rental_uris":{"android":"levelo://app?vid=5547a441-9653-482c-905c-97a54076438b","ios":"levelo://app?vid=5547a441-9653-482c-905c-97a54076438b"},"vehicle_type_id":"4","last_reported":1732889357,"current_range_meters":21600,"station_id":"ce4bhsh2rcd13ifvqi2g","pricing_plan_id":"cebpf4jnsgd1na2vs0mg"},{"bike_id":"5f893577-45d4-46cf-94f1-38a612a854fc","system_id":"levelo_inurba_marseille","lat":43.30709,"lon":5.4001,"is_reserved":false,"is_disabled":false,"rental_uris":{"android":"levelo://app?vid=5f893577-45d4-46cf-94f1-38a612a854fc","ios":"levelo://app?vid=5f893577-45d4-46cf-94f1-38a612a854fc"},"vehicle_type_id":"4","last_reported":1732889357,"current_range_meters":16800,"station_id":"ce4bh192rcd13ifvqdc0","pricing_plan_id":"cebpf4jnsgd1na2vs0mg"},{"bike_id":"e2e99e42-ed6d-4f02-abba-c3f5cf725b4e","system_id":"levelo_inurba_marseille","lat":43.27981,"lon":5.41665,"is_reserved":false,"is_disabled":true,"rental_uris":{"android":"levelo://app?vid=e2e99e42-ed6d-4f02-abba-c3f5cf725b4e","ios":"levelo://app?vid=e2e99e42-ed6d-4f02-abba-c3f5cf725b4e"},"vehicle_type_id":"4","last_reported":1732889357,"current_range_meters":1600,"station_id":"ce4bho12rcd13ifvqh1g","pricing_plan_id":"cebpf4jnsgd1na2vs0mg"},{"bike_id":"de556ebc-bcd3-4bf0-9bda-141b331718a2","system_id":"levelo_inurba_marseille","lat":43.24985,"lon":5.38971,"is_reserved":false,"is_disabled":false,"rental_uris":{"android":"levelo://app?vid=de556ebc-bcd3-4bf0-9bda-141b331718a2","ios":"levelo://app?vid=de556ebc-bcd3-4bf0-9bda-141b331718a2"},"vehicle_type_id":"4","last_reported":1732889357,"current_range_meters":26800,"station_id":"","pricing_plan_id":"cebpf4jnsgd1na2vs0mg"},{"bike_id":"3a4e6c41-3f77-4254-abd4-29776dd71545","system_id":"levelo_inurba_marseille","lat":43.30534,"lon":5.3655,"is_reserved":false,"is_disabled":false,"rental_uris":{"android":"levelo://app?vid=3a4e6c41-3f77-4254-abd4-29776dd71545","ios":"levelo://app?vid=3a4e6c41-3f77-4254-abd4-29776dd71545"},"vehicle_type_id":"4","last_reported":1732889357,"current_range_meters":38800,"station_id":"ce4bgs12rcd13ifvqcag","pricing_plan_id":"cebpf4jnsgd1na2vs0mg"},{"bike_id":"2545b486-f597-4ecd-8508-05df785b0c49","system_id":"levelo_inurba_marseille","lat":43.33022,"lon":5.39042,"is_reserved":false,"is_disabled":false,"rental_uris":{"android":"levelo://app?vid=2545b486-f597-4ecd-8508-05df785b0c49","ios":"levelo://app?vid=2545b486-f597-4ecd-8508-05df785b0c49"},"vehicle_type_id":"4","last_reported":1732889357,"current_range_meters":36000,"station_id":"ce4bhr92rcd13ifvqhrg","pricing_plan_id":"cebpf4jnsgd1na2vs0mg"},{"bike_id":"53832248-7ea6-4cc6-856c-2b60c3f17998","system_id":"levelo_inurba_marseille","lat":43.2955,"lon":5.42286,"is_reserved":false,"is_disabled":true,"rental_uris":{"android":"levelo://app?vid=53832248-7ea6-4cc6-856c-2b60c3f17998","ios":"levelo://app?vid=53832248-7ea6-4cc6-856c-2b60c3f17998"},"vehicle_type_id":"4","last_reported":1732889357,"current_range_meters":38800,"station_id":"ce4bhph2rcd13ifvqhdg","pricing_plan_id":"cebpf4jnsgd1na2vs0mg"},{"bike_id":"fec8a7a8-325a-4d39-ae6b-65442fb71483","system_id":"levelo_inurba_marseille","lat":43.3042,"lon":5.41278,"is_reserved":false,"is_disabled":false,"rental_uris":{"android":"levelo://app?vid=fec8a7a8-325a-4d39-ae6b-65442fb71483","ios":"levelo://app?vid=fec8a7a8-325a-4d39-ae6b-65442fb71483"},"vehicle_type_id":"4","last_reported":1732889357,"current_range_meters":28800,"station_id":"ce4bhop2rcd13ifvqh8g","pricing_plan_id":"cebpf4jnsgd1na2vs0mg"},{"bike_id":"e540d39f-f384-4f93-9d9a-3423da1e5b7d","system_id":"levelo_inurba_marseille","lat":43.26053,"lon":5.39393,"is_reserved":false,"is_disabled":false,"rental_uris":{"android":"levelo://app?vid=e540d39f-f384-4f93-9d9a-3423da1e5b7d","ios":"levelo://app?vid=e540d39f-f384-4f93-9d9a-3423da1e5b7d"},"vehicle_type_id":"4","last_reported":1732889357,"current_range_meters":27600,"station_id":"ce4bhh92rcd13ifvqfj0","pricing_plan_id":"cebpf4jnsgd1na2vs0mg"},{"bike_id":"92defe58-ac95-4158-a899-a1890c4e5262","system_id":"levelo_inurba_marseille","lat":43.26552,"lon":5.37284,"is_reserved":false,"is_disabled":true,"rental_uris":{"android":"levelo://app?vid=92defe58-ac95-4158-a899-a1890c4e5262","ios":"levelo://app?vid=92defe58-ac95-4158-a899-a1890c4e5262"},"vehicle_type_id":"4","last_reported":1732889357,"current_range_meters":0,"station_id":"ce4bhg12rcd13ifvqf70","pricing_plan_id":"cebpf4jnsgd1na2vs0mg"},{"bike_id":"86cad3ad-a2e3-4259-ba19-4be3dfe7ef8a","system_id":"levelo_inurba_marseille","lat":43.31358,"lon":5.38496,"is_reserved":false,"is_disabled":false,"rental_uris":{"android":"levelo://app?vid=86cad3ad-a2e3-4259-ba19-4be3dfe7ef8a","ios":"levelo://app?vid=86cad3ad-a2e3-4259-ba19-4be3dfe7ef8a"},"vehicle_type_id":"4","last_reported":1732889357,"current_range_meters":26800,"station_id":"ce4bgt92rcd13ifvqcf0","pricing_plan_id":"cebpf4jnsgd1na2vs0mg"},{"bike_id":"801d6fa7-20c3-4d2f-a606-397f784396cc","system_id":"levelo_inurba_marseille","lat":43.30526,"lon":5.36548,"is_reserved":false,"is_disabled":false,"rental_uris":{"android":"levelo://app?vid=801d6fa7-20c3-4d2f-a606-397f784396cc","ios":"levelo://app?vid=801d6fa7-20c3-4d2f-a606-397f784396cc"},"vehicle_type_id":"4","last_reported":1732889357,"current_range_meters":38800,"station_id":"ce4bgs12rcd13ifvqcag","pricing_plan_id":"cebpf4jnsgd1na2vs0mg"},{"bike_id":"c6f1f556-1599-48dc-a5bd-6fe7c02974b9","system_id":"levelo_inurba_marseille","lat":43.30142,"lon":5.38082,"is_reserved":false,"is_disabled":false,"rental_uris":{"android":"levelo://app?vid=c6f1f556-1599-48dc-a5bd-6fe7c02974b9","ios":"levelo://app?vid=c6f1f556-1599-48dc-a5bd-6fe7c02974b9"},"vehicle_type_id":"4","last_reported":1732889357,"current_range_meters":10800,"station_id":"ce4bgjp2rcd13ifvqbh0","pricing_plan_id":"cebpf4jnsgd1na2vs0mg"},{"bike_id":"5561d8d2-5b80-45be-85e3-5900dadb75d8","system_id":"levelo_inurba_marseille","lat":43.28407,"lon":5.34996,"is_reserved":false,"is_disabled":false,"rental_uris":{"android":"levelo://app?vid=5561d8d2-5b80-45be-85e3-5900dadb75d8","ios":"levelo://app?vid=5561d8d2-5b80-45be-85e3-5900dadb75d8"},"vehicle_type_id":"4","last_reported":1732889357,"current_range_meters":35200,"station_id":"ce4bhbh2rcd13ifvqepg","pricing_plan_id":"cebpf4jnsgd1na2vs0mg"},{"bike_id":"3737c6cd-3a0a-48ec-9094-b2e0caf11430","system_id":"levelo_inurba_marseille","lat":43.32655,"lon":5.40996,"is_reserved":false,"is_disabled":false,"rental_uris":{"android":"levelo://app?vid=3737c6cd-3a0a-48ec-9094-b2e0caf11430","ios":"levelo://app?vid=3737c6cd-3a0a-48ec-9094-b2e0caf11430"},"vehicle_type_id":"4","last_reported":1732889357,"current_range_meters":19200,"station_id":"ce4bhpp2rcd13ifvqhgg","pricing_plan_id":"cebpf4jnsgd1na2vs0mg"},{"bike_id":"28cbf73b-8ad9-47d7-8117-514533a0f537","system_id":"levelo_inurba_marseille","lat":43.32337,"lon":5.40626,"is_reserved":false,"is_disabled":true,"rental_uris":{"android":"levelo://app?vid=28cbf73b-8ad9-47d7-8117-514533a0f537","ios":"levelo://app?vid=28cbf73b-8ad9-47d7-8117-514533a0f537"},"vehicle_type_id":"4","last_reported":1732889357,"current_range_meters":0,"station_id":"ce4bhq92rcd13ifvqhjg","pricing_plan_id":"cebpf4jnsgd1na2vs0mg"},{"bike_id":"10bd7429-3f56-4a14-9f0c-a2d1b9a51f6b","system_id":"levelo_inurba_marseille","lat":43.26667,"lon":5.38272,"is_reserved":false,"is_disabled":false,"rental_uris":{"android":"levelo://app?vid=10bd7429-3f56-4a14-9f0c-a2d1b9a51f6b","ios":"levelo://app?vid=10bd7429-3f56-4a14-9f0c-a2d1b9a51f6b"},"vehicle_type_id":"4","last_reported":1732889357,"current_range_meters":24400,"station_id":"ce4bhg92rcd13ifvqf90","pricing_plan_id":"cebpf4jnsgd1na2vs0mg"},{"bike_id":"0bbddeff-1520-4828-89c8-a17125b6a8a4","system_id":"levelo_inurba_marseille","lat":43.294192,"lon":5.386234,"is_reserved":false,"is_disabled":false,"rental_uris":{"android":"levelo://app?vid=0bbddeff-1520-4828-89c8-a17125b6a8a4","ios":"levelo://app?vid=0bbddeff-1520-4828-89c8-a17125b6a8a4"},"vehicle_type_id":"4","last_reported":1732889357,"current_range_meters":16800,"station_id":"ce4bhoh2rcd13ifvqh5g","pricing_plan_id":"cebpf4jnsgd1na2vs0mg"},{"bike_id":"6b383577-fb8d-4c92-9bd4-fc137f4c2981","system_id":"levelo_inurba_marseille","lat":43.33711,"lon":5.39195,"is_reserved":false,"is_disabled":false,"rental_uris":{"android":"levelo://app?vid=6b383577-fb8d-4c92-9bd4-fc137f4c2981","ios":"levelo://app?vid=6b383577-fb8d-4c92-9bd4-fc137f4c2981"},"vehicle_type_id":"4","last_reported":1732889357,"current_range_meters":20400,"station_id":"ce4bhr92rcd13ifvqhsg","pricing_plan_id":"cebpf4jnsgd1na2vs0mg"},{"bike_id":"7178b995-3b44-41c2-9727-cb760795eb44","system_id":"levelo_inurba_marseille","lat":43.30432,"lon":5.38888,"is_reserved":false,"is_disabled":false,"rental_uris":{"android":"levelo://app?vid=7178b995-3b44-41c2-9727-cb760795eb44","ios":"levelo://app?vid=7178b995-3b44-41c2-9727-cb760795eb44"},"vehicle_type_id":"4","last_reported":1732889357,"current_range_meters":23200,"station_id":"ce4bgk12rcd13ifvqbi0","pricing_plan_id":"cebpf4jnsgd1na2vs0mg"},{"bike_id":"897ef8f6-5a21-4002-a25e-703eaa8a9b46","system_id":"levelo_inurba_marseille","lat":43.29415,"lon":5.38619,"is_reserved":false,"is_disabled":false,"rental_uris":{"android":"levelo://app?vid=897ef8f6-5a21-4002-a25e-703eaa8a9b46","ios":"levelo://app?vid=897ef8f6-5a21-4002-a25e-703eaa8a9b46"},"vehicle_type_id":"4","last_reported":1732889357,"current_range_meters":38400,"station_id":"ce4bh2h2rcd13ifvqdh0","pricing_plan_id":"cebpf4jnsgd1na2vs0mg"},{"bike_id":"8da00c91-5c50-4e89-a866-9cc01848d01c","system_id":"levelo_inurba_marseille","lat":43.32337,"lon":5.40633,"is_reserved":false,"is_disabled":false,"rental_uris":{"android":"levelo://app?vid=8da00c91-5c50-4e89-a866-9cc01848d01c","ios":"levelo://app?vid=8da00c91-5c50-4e89-a866-9cc01848d01c"},"vehicle_type_id":"4","last_reported":1732889357,"current_range_meters":30800,"station_id":"ce4bhq92rcd13ifvqhjg","pricing_plan_id":"cebpf4jnsgd1na2vs0mg"},{"bike_id":"7bf0630e-a191-4679-8b6b-6e32a5aa994a","system_id":"levelo_inurba_marseille","lat":43.28079,"lon":5.39667,"is_reserved":false,"is_disabled":false,"rental_uris":{"android":"levelo://app?vid=7bf0630e-a191-4679-8b6b-6e32a5aa994a","ios":"levelo://app?vid=7bf0630e-a191-4679-8b6b-6e32a5aa994a"},"vehicle_type_id":"4","last_reported":1732889357,"current_range_meters":26000,"station_id":"ce4bho12rcd13ifvqh2g","pricing_plan_id":"cebpf4jnsgd1na2vs0mg"},{"bike_id":"fbb69a76-9f06-4ea3-954f-7f4b2f1d4bea","system_id":"levelo_inurba_marseille","lat":43.22926,"lon":5.35376,"is_reserved":false,"is_disabled":false,"rental_uris":{"android":"levelo://app?vid=fbb69a76-9f06-4ea3-954f-7f4b2f1d4bea","ios":"levelo://app?vid=fbb69a76-9f06-4ea3-954f-7f4b2f1d4bea"},"vehicle_type_id":"4","last_reported":1732889357,"current_range_meters":37600,"station_id":"cpo3532slgdg3j2ikp40","pricing_plan_id":"cebpf4jnsgd1na2vs0mg"},{"bike_id":"7f40d311-925e-4569-bfac-14159180b7a5","system_id":"levelo_inurba_marseille","lat":43.25868,"lon":5.399,"is_reserved":false,"is_disabled":false,"rental_uris":{"android":"levelo://app?vid=7f40d311-925e-4569-bfac-14159180b7a5","ios":"levelo://app?vid=7f40d311-925e-4569-bfac-14159180b7a5"},"vehicle_type_id":"4","last_reported":1732889357,"current_range_meters":38400,"station_id":"ce4bhl92rcd13ifvqghg","pricing_plan_id":"cebpf4jnsgd1na2vs0mg"},{"bike_id":"9e944db9-d48e-4848-b5fa-4af701aee80b","system_id":"levelo_inurba_marseille","lat":48.80797,"lon":2.40127,"is_reserved":false,"is_disabled":true,"rental_uris":{"android":"levelo://app?vid=9e944db9-d48e-4848-b5fa-4af701aee80b","ios":"levelo://app?vid=9e944db9-d48e-4848-b5fa-4af701aee80b"},"vehicle_type_id":"4","last_reported":1732889357,"current_range_meters":19200,"station_id":"","pricing_plan_id":"cebpf4jnsgd1na2vs0mg"},{"bike_id":"4455a78f-0893-4871-adb5-cb36246e80c9","system_id":"levelo_inurba_marseille","lat":43.23154,"lon":5.43719,"is_reserved":false,"is_disabled":false,"rental_uris":{"android":"levelo://app?vid=4455a78f-0893-4871-adb5-cb36246e80c9","ios":"levelo://app?vid=4455a78f-0893-4871-adb5-cb36246e80c9"},"vehicle_type_id":"4","last_reported":1732889357,"current_range_meters":7200,"station_id":"ce4bhmp2rcd13ifvqgog","pricing_plan_id":"cebpf4jnsgd1na2vs0mg"},{"bike_id":"ab91641f-6936-4a1b-a0e8-95e1e8828c8b","system_id":"levelo_inurba_marseille","lat":43.31362,"lon":5.38487,"is_reserved":false,"is_disabled":false,"rental_uris":{"android":"levelo://app?vid=ab91641f-6936-4a1b-a0e8-95e1e8828c8b","ios":"levelo://app?vid=ab91641f-6936-4a1b-a0e8-95e1e8828c8b"},"vehicle_type_id":"4","last_reported":1732889357,"current_range_meters":12400,"station_id":"ce4bgt92rcd13ifvqcf0","pricing_plan_id":"cebpf4jnsgd1na2vs0mg"},{"bike_id":"25c2546d-5b59-4abc-b714-fb50f385550c","system_id":"levelo_inurba_marseille","lat":43.2905,"lon":5.35915,"is_reserved":false,"is_disabled":false,"rental_uris":{"android":"levelo://app?vid=25c2546d-5b59-4abc-b714-fb50f385550c","ios":"levelo://app?vid=25c2546d-5b59-4abc-b714-fb50f385550c"},"vehicle_type_id":"4","last_reported":1732889357,"current_range_meters":27200,"station_id":"ce4bha92rcd13ifvqeg0","pricing_plan_id":"cebpf4jnsgd1na2vs0mg"},{"bike_id":"bd0a8af7-1f3e-4512-8f92-c4ad8dfe2e23","system_id":"levelo_inurba_marseille","lat":43.29847,"lon":5.36287,"is_reserved":false,"is_disabled":false,"rental_uris":{"android":"levelo://app?vid=bd0a8af7-1f3e-4512-8f92-c4ad8dfe2e23","ios":"levelo://app?vid=bd0a8af7-1f3e-4512-8f92-c4ad8dfe2e23"},"vehicle_type_id":"4","last_reported":1732889357,"current_range_meters":32800,"station_id":"ce4bgpp2rcd13ifvqc3g","pricing_plan_id":"cebpf4jnsgd1na2vs0mg"},{"bike_id":"7731b2c5-0fb8-4613-a545-5c706fc6c9f2","system_id":"levelo_inurba_marseille","lat":43.28824,"lon":5.38817,"is_reserved":false,"is_disabled":false,"rental_uris":{"android":"levelo://app?vid=7731b2c5-0fb8-4613-a545-5c706fc6c9f2","ios":"levelo://app?vid=7731b2c5-0fb8-4613-a545-5c706fc6c9f2"},"vehicle_type_id":"4","last_reported":1732889357,"current_range_meters":38800,"station_id":"ce4bho12rcd13ifvqh2g","pricing_plan_id":"cebpf4jnsgd1na2vs0mg"},{"bike_id":"751555f6-d0ae-4f9c-af75-edcce904256b","system_id":"levelo_inurba_marseille","lat":43.22927,"lon":5.35378,"is_reserved":false,"is_disabled":true,"rental_uris":{"android":"levelo://app?vid=751555f6-d0ae-4f9c-af75-edcce904256b","ios":"levelo://app?vid=751555f6-d0ae-4f9c-af75-edcce904256b"},"vehicle_type_id":"4","last_reported":1732889357,"current_range_meters":1600,"station_id":"cpo3532slgdg3j2ikp40","pricing_plan_id":"cebpf4jnsgd1na2vs0mg"},{"bike_id":"f1c20837-0b54-47e9-be8c-f6778461e72e","system_id":"levelo_inurba_marseille","lat":43.28477,"lon":5.38409,"is_reserved":false,"is_disabled":false,"rental_uris":{"android":"levelo://app?vid=f1c20837-0b54-47e9-be8c-f6778461e72e","ios":"levelo://app?vid=f1c20837-0b54-47e9-be8c-f6778461e72e"},"vehicle_type_id":"4","last_reported":1732889357,"current_range_meters":24400,"station_id":"ce4bh512rcd13ifvqe3g","pricing_plan_id":"cebpf4jnsgd1na2vs0mg"},{"bike_id":"c357b476-34b1-4241-b06a-701851e1e8a2","system_id":"levelo_inurba_marseille","lat":43.2958,"lon":5.36743,"is_reserved":false,"is_disabled":false,"rental_uris":{"android":"levelo://app?vid=c357b476-34b1-4241-b06a-701851e1e8a2","ios":"levelo://app?vid=c357b476-34b1-4241-b06a-701851e1e8a2"},"vehicle_type_id":"4","last_reported":1732889357,"current_range_meters":38800,"station_id":"ce4bgph2rcd13ifvqc2g","pricing_plan_id":"cebpf4jnsgd1na2vs0mg"},{"bike_id":"37ad5339-659b-4a5a-8a77-7c1eb5b7f0f6","system_id":"levelo_inurba_marseille","lat":43.337444,"lon":5.374475,"is_reserved":false,"is_disabled":false,"rental_uris":{"android":"levelo://app?vid=37ad5339-659b-4a5a-8a77-7c1eb5b7f0f6","ios":"levelo://app?vid=37ad5339-659b-4a5a-8a77-7c1eb5b7f0f6"},"vehicle_type_id":"4","last_reported":1732889357,"current_range_meters":36000,"station_id":"ce4bh092rcd13ifvqd20","pricing_plan_id":"cebpf4jnsgd1na2vs0mg"},{"bike_id":"98d4a0f1-4cd5-4351-b127-4a6cfd93c7cf","system_id":"levelo_inurba_marseille","lat":43.27169,"lon":5.40995,"is_reserved":false,"is_disabled":false,"rental_uris":{"android":"levelo://app?vid=98d4a0f1-4cd5-4351-b127-4a6cfd93c7cf","ios":"levelo://app?vid=98d4a0f1-4cd5-4351-b127-4a6cfd93c7cf"},"vehicle_type_id":"4","last_reported":1732889357,"current_range_meters":22000,"station_id":"ce4bhl12rcd13ifvqgf0","pricing_plan_id":"cebpf4jnsgd1na2vs0mg"},{"bike_id":"b4a8605d-c615-4b87-8f90-59fb9a8a944e","system_id":"levelo_inurba_marseille","lat":43.27175,"lon":5.4099,"is_reserved":false,"is_disabled":false,"rental_uris":{"android":"levelo://app?vid=b4a8605d-c615-4b87-8f90-59fb9a8a944e","ios":"levelo://app?vid=b4a8605d-c615-4b87-8f90-59fb9a8a944e"},"vehicle_type_id":"4","last_reported":1732889357,"current_range_meters":10800,"station_id":"ce4bhl12rcd13ifvqgf0","pricing_plan_id":"cebpf4jnsgd1na2vs0mg"},{"bike_id":"c78ba70e-b929-4f11-b512-66f0cae3d090","system_id":"levelo_inurba_marseille","lat":43.29532,"lon":5.38544,"is_reserved":false,"is_disabled":false,"rental_uris":{"android":"levelo://app?vid=c78ba70e-b929-4f11-b512-66f0cae3d090","ios":"levelo://app?vid=c78ba70e-b929-4f11-b512-66f0cae3d090"},"vehicle_type_id":"4","last_reported":1732889357,"current_range_meters":34800,"station_id":"ce4bgih2rcd13ifvqba0","pricing_plan_id":"cebpf4jnsgd1na2vs0mg"},{"bike_id":"3fb0cd18-492b-4404-8c66-d85138ed9acc","system_id":"levelo_inurba_marseille","lat":43.28282,"lon":5.35073,"is_reserved":false,"is_disabled":false,"rental_uris":{"android":"levelo://app?vid=3fb0cd18-492b-4404-8c66-d85138ed9acc","ios":"levelo://app?vid=3fb0cd18-492b-4404-8c66-d85138ed9acc"},"vehicle_type_id":"4","last_reported":1732889357,"current_range_meters":22000,"station_id":"ce4bhbp2rcd13ifvqerg","pricing_plan_id":"cebpf4jnsgd1na2vs0mg"},{"bike_id":"e992ddc2-85e7-4753-8a06-1e0bdf6ae135","system_id":"levelo_inurba_marseille","lat":43.29001,"lon":5.35615,"is_reserved":false,"is_disabled":false,"rental_uris":{"android":"levelo://app?vid=e992ddc2-85e7-4753-8a06-1e0bdf6ae135","ios":"levelo://app?vid=e992ddc2-85e7-4753-8a06-1e0bdf6ae135"},"vehicle_type_id":"4","last_reported":1732889357,"current_range_meters":4400,"station_id":"ce4bhb92rcd13ifvqen0","pricing_plan_id":"cebpf4jnsgd1na2vs0mg"},{"bike_id":"1054ccf0-b78f-43e5-b035-af988f16a9e1","system_id":"levelo_inurba_marseille","lat":43.28248,"lon":5.35069,"is_reserved":false,"is_disabled":false,"rental_uris":{"android":"levelo://app?vid=1054ccf0-b78f-43e5-b035-af988f16a9e1","ios":"levelo://app?vid=1054ccf0-b78f-43e5-b035-af988f16a9e1"},"vehicle_type_id":"4","last_reported":1732889357,"current_range_meters":26000,"station_id":"ce4bhbh2rcd13ifvqeo0","pricing_plan_id":"cebpf4jnsgd1na2vs0mg"},{"bike_id":"95f0b1d7-3bab-4e66-b219-aa890b69b102","system_id":"levelo_inurba_marseille","lat":43.29705,"lon":5.36609,"is_reserved":false,"is_disabled":false,"rental_uris":{"android":"levelo://app?vid=95f0b1d7-3bab-4e66-b219-aa890b69b102","ios":"levelo://app?vid=95f0b1d7-3bab-4e66-b219-aa890b69b102"},