{"last_updated":1744441753,"ttl":60,"version":"2.2","data":{"bikes":[{"bike_id":"81eede7f-1481-4c08-a548-29f2e38fcd7f","system_id":"levelo_inurba_marseille","lat":43.29291,"lon":5.40146,"is_reserved":false,"is_disabled":false,"rental_uris":{"android":"levelo://app?vid=81eede7f-1481-4c08-a548-29f2e38fcd7f","ios":"levelo://app?vid=81eede7f-1481-4c08-a548-29f2e38fcd7f"},"vehicle_type_id":"4","last_reported":1744441753,"current_range_meters":2800,"station_id":"ce4bh312rcd13ifvqdk0","pricing_plan_id":"cebpf4jnsgd1na2vs0mg"},{"bike_id":"f1d79617-14c3-478a-85a7-a7ce3e31c092","system_id":"levelo_inurba_marseille","lat":43.31676,"lon":5.40479,"is_reserved":false,"is_disabled":false,"rental_uris":{"android":"levelo://app?vid=f1d79617-14c3-478a-85a7-a7ce3e31c092","ios":"levelo://app?vid=f1d79617-14c3-478a-85a7-a7ce3e31c092"},"vehicle_type_id":"4","last_reported":1744441753,"current_range_meters":2800,"station_id":"ce4bh012rcd13ifvqd00","pricing_plan_id":"cebpf4jnsgd1na2vs0mg"},{"bike_id":"a5becb92-263b-45ce-91a9-29d6ac7446fc","system_id":"levelo_inurba_marseille","lat":43.32335,"lon":5.40624,"is_reserved":false,"is_disabled":false,"rental_uris":{"android":"levelo://app?vid=a5becb92-263b-45ce-91a9-29d6ac7446fc","ios":"levelo://app?vid=a5becb92-263b-45ce-91a9-29d6ac7446fc"},"vehicle_type_id":"4","last_reported":1744441753,"current_range_meters":2800,"station_id":"ce4bhq92rcd13ifvqhjg","pricing_plan_id":"cebpf4jnsgd1na2vs0mg"},{"bike_id":"4eecf626-738e-49bc-8da3-6eb60d57ea2f","system_id":"levelo_inurba_marseille","lat":43.304705,"lon":5.37907,"is_reserved":false,"is_disabled":false,"rental_uris":{"android":"levelo://app?vid=4eecf626-738e-49bc-8da3-6eb60d57ea2f","ios":"levelo://app?vid=4eecf626-738e-49bc-8da3-6eb60d57ea2f"},"vehicle_type_id":"4","last_reported":1744441753,"current_range_meters":2800,"station_id":"ce4bgup2rcd13ifvqcn0","pricing_plan_id":"cebpf4jnsgd1na2vs0mg"},{"bike_id":"ee730426-99d0-4463-9e31-13ee571eb3b3","system_id":"levelo_inurba_marseille","lat":43.2919,"lon":5.39307,"is_reserved":false,"is_disabled":false,"rental_uris":{"android":"levelo://app?vid=ee730426-99d0-4463-9e31-13ee571eb3b3","ios":"levelo://app?vid=ee730426-99d0-4463-9e31-13ee571eb3b3"},"vehicle_type_id":"4","last_reported":1744441753,"current_range_meters":3200,"station_id":"ce4bh192rcd13ifvqdd0","pricing_plan_id":"cebpf4jnsgd1na2vs0mg"},{"bike_id":"904a7234-c628-4969-a68b-d07658140415","system_id":"levelo_inurba_marseille","lat":43.308951,"lon":5.391378,"is_reserved":false,"is_disabled":false,"rental_uris":{"android":"levelo://app?vid=904a7234-c628-4969-a68b-d07658140415","ios":"levelo://app?vid=904a7234-c628-4969-a68b-d07658140415"},"vehicle_type_id":"4","last_reported":1744441753,"current_range_meters":3200,"station_id":"ce4bgup2rcd13ifvqco0","pricing_plan_id":"cebpf4jnsgd1na2vs0mg"},{"bike_id":"1f1931dc-ca45-43df-bb99-8ca2d278bd56","system_id":"levelo_inurba_marseille","lat":43.24173,"lon":5.36397,"is_reserved":false,"is_disabled":false,"rental_uris":{"android":"levelo://app?vid=1f1931dc-ca45-43df-bb99-8ca2d278bd56","ios":"levelo://app?vid=1f1931dc-ca45-43df-bb99-8ca2d278bd56"},"vehicle_type_id":"4","last_reported":1744441753,"current_range_meters":3200,"station_id":"cpo36qri1sfpv3e86is0","pricing_plan_id":"cebpf4jnsgd1na2vs0mg"},{"bike_id":"aaf0bea2-a073-4f6c-a7b6-3956f84fd9d6","system_id":"levelo_inurba_marseille","lat":43.301573,"lon":5.367645,"is_reserved":false,"is_disabled":false,"rental_uris":{"android":"levelo://app?vid=aaf0bea2-a073-4f6c-a7b6-3956f84fd9d6","ios":"levelo://app?vid=aaf0bea2-a073-4f6c-a7b6-3956f84fd9d6"},"vehicle_type_id":"4","last_reported":1744441753,"current_range_meters":3200,"station_id":"","pricing_plan_id":"cebpf4jnsgd1na2vs0mg"},{"bike_id":"56646f68-a96a-448a-a880-c914b4c75030","system_id":"levelo_inurba_marseille","lat":43.31309,"lon":5.37545,"is_reserved":false,"is_disabled":false,"rental_uris":{"android":"levelo://app?vid=56646f68-a96a-448a-a880-c914b4c75030","ios":"levelo://app?vid=56646f68-a96a-448a-a880-c914b4c75030"},"vehicle_type_id":"4","last_reported":1744441753,"current_range_meters":3200,"station_id":"","pricing_plan_id":"cebpf4jnsgd1na2vs0mg"},{"bike_id":"746882f3-3ca4-4d59-b993-6b1f5c3920bf","system_id":"levelo_inurba_marseille","lat":43.29249,"lon":5.4091,"is_reserved":false,"is_disabled":true,"rental_uris":{"android":"levelo://app?vid=746882f3-3ca4-4d59-b993-6b1f5c3920bf","ios":"levelo://app?vid=746882f3-3ca4-4d59-b993-6b1f5c3920bf"},"vehicle_type_id":"4","last_reported":1744441753,"current_range_meters":3200,"station_id":"ce4bh192rcd13ifvqdc0","pricing_plan_id":"cebpf4jnsgd1na2vs0mg"},{"bike_id":"c94566c5-b231-48ed-a928-55bbfffee4fc","system_id":"levelo_inurba_marseille","lat":43.29525,"lon":5.39028,"is_reserved":false,"is_disabled":false,"rental_uris":{"android":"levelo://app?vid=c94566c5-b231-48ed-a928-55bbfffee4fc","ios":"levelo://app?vid=c94566c5-b231-48ed-a928-55bbfffee4fc"},"vehicle_type_id":"4","last_reported":1744441753,"current_range_meters":3600,"station_id":"ce4bh3p2rcd13ifvqdp0","pricing_plan_id":"cebpf4jnsgd1na2vs0mg"},{"bike_id":"cc469b23-8a12-438b-a3d8-d55a8efe2f1d","system_id":"levelo_inurba_marseille","lat":43.24387,"lon":5.37062,"is_reserved":false,"is_disabled":false,"rental_uris":{"android":"levelo://app?vid=cc469b23-8a12-438b-a3d8-d55a8efe2f1d","ios":"levelo://app?vid=cc469b23-8a12-438b-a3d8-d55a8efe2f1d"},"vehicle_type_id":"4","last_reported":1744441753,"current_range_meters":3600,"station_id":"ce4bhhh2rcd13ifvqfk0","pricing_plan_id":"cebpf4jnsgd1na2vs0mg"},{"bike_id":"e3eeca74-f839-4815-ab5b-79a75009aa62","system_id":"levelo_inurba_marseille","lat":43.29182,"lon":5.39342,"is_reserved":false,"is_disabled":false,"rental_uris":{"android":"levelo://app?vid=e3eeca74-f839-4815-ab5b-79a75009aa62","ios":"levelo://app?vid=e3eeca74-f839-4815-ab5b-79a75009aa62"},"vehicle_type_id":"4","last_reported":1744441753,"current_range_meters":3600,"station_id":"ce4bh192rcd13ifvqdd0","pricing_plan_id":"cebpf4jnsgd1na2vs0mg"},{"bike_id":"ec2979e9-317f-40bc-8cda-27b6976f3bb5","system_id":"levelo_inurba_marseille","lat":43.29037,"lon":5.39957,"is_reserved":false,"is_disabled":false,"rental_uris":{"android":"levelo://app?vid=ec2979e9-317f-40bc-8cda-27b6976f3bb5","ios":"levelo://app?vid=ec2979e9-317f-40bc-8cda-27b6976f3bb5"},"vehicle_type_id":"4","last_reported":1744441753,"current_range_meters":3600,"station_id":"ce4bh392rcd13ifvqdm0","pricing_plan_id":"cebpf4jnsgd1na2vs0mg"},{"bike_id":"9b124832-5aac-48fc-ab26-489a32057271","system_id":"levelo_inurba_marseille","lat":43.25493,"lon":5.37673,"is_reserved":false,"is_disabled":true,"rental_uris":{"android":"levelo://app?vid=9b124832-5aac-48fc-ab26-489a32057271","ios":"levelo://app?vid=9b124832-5aac-48fc-ab26-489a32057271"},"vehicle_type_id":"4","last_reported":1744441753,"current_range_meters":3600,"station_id":"ce4bhh12rcd13ifvqff0","pricing_plan_id":"cebpf4jnsgd1na2vs0mg"},{"bike_id":"e99f5290-1466-47b7-987b-c1ba64057cd2","system_id":"levelo_inurba_marseille","lat":43.246847,"lon":5.411906,"is_reserved":false,"is_disabled":true,"rental_uris":{"android":"levelo://app?vid=e99f5290-1466-47b7-987b-c1ba64057cd2","ios":"levelo://app?vid=e99f5290-1466-47b7-987b-c1ba64057cd2"},"vehicle_type_id":"4","last_reported":1744441753,"current_range_meters":3600,"station_id":"","pricing_plan_id":"cebpf4jnsgd1na2vs0mg"},{"bike_id":"460b2ebc-000e-4ea6-86da-9cfcf42a52fd","system_id":"levelo_inurba_marseille","lat":43.24687,"lon":5.38167,"is_reserved":false,"is_disabled":false,"rental_uris":{"android":"levelo://app?vid=460b2ebc-000e-4ea6-86da-9cfcf42a52fd","ios":"levelo://app?vid=460b2ebc-000e-4ea6-86da-9cfcf42a52fd"},"vehicle_type_id":"4","last_reported":1744441753,"current_range_meters":3600,"station_id":"ce4bhih2rcd13ifvqfr0","pricing_plan_id":"cebpf4jnsgd1na2vs0mg"},{"bike_id":"a7b22e2e-0c80-4693-ad23-d6caf4917341","system_id":"levelo_inurba_marseille","lat":43.30856,"lon":5.37355,"is_reserved":false,"is_disabled":false,"rental_uris":{"android":"levelo://app?vid=a7b22e2e-0c80-4693-ad23-d6caf4917341","ios":"levelo://app?vid=a7b22e2e-0c80-4693-ad23-d6caf4917341"},"vehicle_type_id":"4","last_reported":1744441753,"current_range_meters":4000,"station_id":"","pricing_plan_id":"cebpf4jnsgd1na2vs0mg"},{"bike_id":"0bf2e17b-de76-43af-a911-86674f1ad492","system_id":"levelo_inurba_marseille","lat":43.29792,"lon":5.39354,"is_reserved":false,"is_disabled":false,"rental_uris":{"android":"levelo://app?vid=0bf2e17b-de76-43af-a911-86674f1ad492","ios":"levelo://app?vid=0bf2e17b-de76-43af-a911-86674f1ad492"},"vehicle_type_id":"4","last_reported":1744441753,"current_range_meters":4400,"station_id":"chh1huq6cuj3fo74tm60","pricing_plan_id":"cebpf4jnsgd1na2vs0mg"},{"bike_id":"32726013-757e-4d24-9225-04536f20d299","system_id":"levelo_inurba_marseille","lat":43.26216,"lon":5.37479,"is_reserved":false,"is_disabled":true,"rental_uris":{"android":"levelo://app?vid=32726013-757e-4d24-9225-04536f20d299","ios":"levelo://app?vid=32726013-757e-4d24-9225-04536f20d299"},"vehicle_type_id":"4","last_reported":1744441753,"current_range_meters":4400,"station_id":"ce4bhgp2rcd13ifvqfc0","pricing_plan_id":"cebpf4jnsgd1na2vs0mg"},{"bike_id":"fec4ce55-a98a-408d-955a-7216ba9e0363","system_id":"levelo_inurba_marseille","lat":43.246635,"lon":5.381699,"is_reserved":false,"is_disabled":false,"rental_uris":{"android":"levelo://app?vid=fec4ce55-a98a-408d-955a-7216ba9e0363","ios":"levelo://app?vid=fec4ce55-a98a-408d-955a-7216ba9e0363"},"vehicle_type_id":"4","last_reported":1744441753,"current_range_meters":4400,"station_id":"ce4bhih2rcd13ifvqfr0","pricing_plan_id":"cebpf4jnsgd1na2vs0mg"},{"bike_id":"b04f1536-b3a6-4ea1-8de9-10a4a27b0d36","system_id":"levelo_inurba_marseille","lat":43.30657,"lon":5.40072,"is_reserved":false,"is_disabled":false,"rental_uris":{"android":"levelo://app?vid=b04f1536-b3a6-4ea1-8de9-10a4a27b0d36","ios":"levelo://app?vid=b04f1536-b3a6-4ea1-8de9-10a4a27b0d36"},"vehicle_type_id":"4","last_reported":1744441753,"current_range_meters":4400,"station_id":"ce4bh112rcd13ifvqda0","pricing_plan_id":"cebpf4jnsgd1na2vs0mg"},{"bike_id":"1cb22f0f-15b3-4c3d-ad85-eb2946bd7b12","system_id":"levelo_inurba_marseille","lat":43.31763,"lon":5.4354,"is_reserved":false,"is_disabled":true,"rental_uris":{"android":"levelo://app?vid=1cb22f0f-15b3-4c3d-ad85-eb2946bd7b12","ios":"levelo://app?vid=1cb22f0f-15b3-4c3d-ad85-eb2946bd7b12"},"vehicle_type_id":"4","last_reported":1744441753,"current_range_meters":4800,"station_id":"","pricing_plan_id":"cebpf4jnsgd1na2vs0mg"},{"bike_id":"a8827283-5cb2-4c69-8f92-cabeabffb47c","system_id":"levelo_inurba_marseille","lat":43.24171,"lon":5.36396,"is_reserved":false,"is_disabled":false,"rental_uris":{"android":"levelo://app?vid=a8827283-5cb2-4c69-8f92-cabeabffb47c","ios":"levelo://app?vid=a8827283-5cb2-4c69-8f92-cabeabffb47c"},"vehicle_type_id":"4","last_reported":1744441753,"current_range_meters":4800,"station_id":"cpo36qri1sfpv3e86is0","pricing_plan_id":"cebpf4jnsgd1na2vs0mg"},{"bike_id":"082d62f9-0ec2-4bb6-9b0a-4f39ce7a16e0","system_id":"levelo_inurba_marseille","lat":43.292755,"lon":5.401156,"is_reserved":false,"is_disabled":false,"rental_uris":{"android":"levelo://app?vid=082d62f9-0ec2-4bb6-9b0a-4f39ce7a16e0","ios":"levelo://app?vid=082d62f9-0ec2-4bb6-9b0a-4f39ce7a16e0"},"vehicle_type_id":"4","last_reported":1744441753,"current_range_meters":4800,"station_id":"ce4bh312rcd13ifvqdk0","pricing_plan_id":"cebpf4jnsgd1na2vs0mg"},{"bike_id":"62c1f836-7b45-44f7-9721-a260943a8081","system_id":"levelo_inurba_marseille","lat":43.27501,"lon":5.42471,"is_reserved":false,"is_disabled":false,"rental_uris":{"android":"levelo://app?vid=62c1f836-7b45-44f7-9721-a260943a8081","ios":"levelo://app?vid=62c1f836-7b45-44f7-9721-a260943a8081"},"vehicle_type_id":"4","last_reported":1744441753,"current_range_meters":5600,"station_id":"ce4bhn92rcd13ifvqgrg","pricing_plan_id":"cebpf4jnsgd1na2vs0mg"},{"bike_id":"984bb2aa-d82a-4281-90f1-1529bbc61000","system_id":"levelo_inurba_marseille","lat":43.2991,"lon":5.39317,"is_reserved":false,"is_disabled":false,"rental_uris":{"android":"levelo://app?vid=984bb2aa-d82a-4281-90f1-1529bbc61000","ios":"levelo://app?vid=984bb2aa-d82a-4281-90f1-1529bbc61000"},"vehicle_type_id":"4","last_reported":1744441753,"current_range_meters":5600,"station_id":"","pricing_plan_id":"cebpf4jnsgd1na2vs0mg"},{"bike_id":"90c5052a-c545-4ec1-a849-c2971b38aaf8","system_id":"levelo_inurba_marseille","lat":43.29859,"lon":5.39743,"is_reserved":false,"is_disabled":false,"rental_uris":{"android":"levelo://app?vid=90c5052a-c545-4ec1-a849-c2971b38aaf8","ios":"levelo://app?vid=90c5052a-c545-4ec1-a849-c2971b38aaf8"},"vehicle_type_id":"4","last_reported":1744441753,"current_range_meters":5600,"station_id":"ce4bh0h2rcd13ifvqd50","pricing_plan_id":"cebpf4jnsgd1na2vs0mg"},{"bike_id":"acc8ca2d-def4-41ab-9acf-fb6ed632c9ac","system_id":"levelo_inurba_marseille","lat":43.24687,"lon":5.38165,"is_reserved":false,"is_disabled":false,"rental_uris":{"android":"levelo://app?vid=acc8ca2d-def4-41ab-9acf-fb6ed632c9ac","ios":"levelo://app?vid=acc8ca2d-def4-41ab-9acf-fb6ed632c9ac"},"vehicle_type_id":"4","last_reported":1744441753,"current_range_meters":5600,"station_id":"ce4bhih2rcd13ifvqfr0","pricing_plan_id":"cebpf4jnsgd1na2vs0mg"},{"bike_id":"457be3cf-e1e1-4d11-8d7c-377dc0cb03e9","system_id":"levelo_inurba_marseille","lat":43.30859,"lon":5.3683,"is_reserved":false,"is_disabled":false,"rental_uris":{"android":"levelo://app?vid=457be3cf-e1e1-4d11-8d7c-377dc0cb03e9","ios":"levelo://app?vid=457be3cf-e1e1-4d11-8d7c-377dc0cb03e9"},"vehicle_type_id":"4","last_reported":1744441753,"current_range_meters":5600,"station_id":"","pricing_plan_id":"cebpf4jnsgd1na2vs0mg"},{"bike_id":"78ab7a9f-bf35-49bd-ab5c-fe2fc76995e7","system_id":"levelo_inurba_marseille","lat":43.28942,"lon":5.39635,"is_reserved":false,"is_disabled":false,"rental_uris":{"android":"levelo://app?vid=78ab7a9f-bf35-49bd-ab5c-fe2fc76995e7","ios":"levelo://app?vid=78ab7a9f-bf35-49bd-ab5c-fe2fc76995e7"},"vehicle_type_id":"4","last_reported":1744441753,"current_range_meters":5600,"station_id":"ce4bh3h2rcd13ifvqdn0","pricing_plan_id":"cebpf4jnsgd1na2vs0mg"},{"bike_id":"e34764a5-a7b4-4fab-b315-bb98cdfe6e30","system_id":"levelo_inurba_marseille","lat":43.281646,"lon":5.426488,"is_reserved":false,"is_disabled":false,"rental_uris":{"android":"levelo://app?vid=e34764a5-a7b4-4fab-b315-bb98cdfe6e30","ios":"levelo://app?vid=e34764a5-a7b4-4fab-b315-bb98cdfe6e30"},"vehicle_type_id":"4","last_reported":1744441753,"current_range_meters":5600,"station_id":"ce4bhnh2rcd13ifvqgug","pricing_plan_id":"cebpf4jnsgd1na2vs0mg"},{"bike_id":"fe28dfa0-9b65-433b-b2f9-7689b7c2ca43","system_id":"levelo_inurba_marseille","lat":43.32334,"lon":5.40626,"is_reserved":false,"is_disabled":false,"rental_uris":{"android":"levelo://app?vid=fe28dfa0-9b65-433b-b2f9-7689b7c2ca43","ios":"levelo://app?vid=fe28dfa0-9b65-433b-b2f9-7689b7c2ca43"},"vehicle_type_id":"4","last_reported":1744441753,"current_range_meters":5600,"station_id":"ce4bhq92rcd13ifvqhjg","pricing_plan_id":"cebpf4jnsgd1na2vs0mg"},{"bike_id":"36098a99-8123-4237-a988-267cc90ee95f","system_id":"levelo_inurba_marseille","lat":43.29778,"lon":5.37088,"is_reserved":false,"is_disabled":false,"rental_uris":{"android":"levelo://app?vid=36098a99-8123-4237-a988-267cc90ee95f","ios":"levelo://app?vid=36098a99-8123-4237-a988-267cc90ee95f"},"vehicle_type_id":"4","last_reported":1744441753,"current_range_meters":5600,"station_id":"ce4bgop2rcd13ifvqc1g","pricing_plan_id":"cebpf4jnsgd1na2vs0mg"},{"bike_id":"7a780092-3e4f-46aa-804a-08f3dd93fc71","system_id":"levelo_inurba_marseille","lat":43.29273,"lon":5.36855,"is_reserved":false,"is_disabled":false,"rental_uris":{"android":"levelo://app?vid=7a780092-3e4f-46aa-804a-08f3dd93fc71","ios":"levelo://app?vid=7a780092-3e4f-46aa-804a-08f3dd93fc71"},"vehicle_type_id":"4","last_reported":1744441753,"current_range_meters":6000,"station_id":"ce4bhbp2rcd13ifvqesg","pricing_plan_id":"cebpf4jnsgd1na2vs0mg"},{"bike_id":"6cb91f57-d317-405e-91ca-888bfe127245","system_id":"levelo_inurba_marseille","lat":43.29516,"lon":5.39025,"is_reserved":false,"is_disabled":false,"rental_uris":{"android":"levelo://app?vid=6cb91f57-d317-405e-91ca-888bfe127245","ios":"levelo://app?vid=6cb91f57-d317-405e-91ca-888bfe127245"},"vehicle_type_id":"4","last_reported":1744441753,"current_range_meters":6000,"station_id":"ce4bh3p2rcd13ifvqdp0","pricing_plan_id":"cebpf4jnsgd1na2vs0mg"},{"bike_id":"361a5c63-2e72-4ef2-b92b-728174fdc1f4","system_id":"levelo_inurba_marseille","lat":43.29566,"lon":5.37515,"is_reserved":false,"is_disabled":false,"rental_uris":{"android":"levelo://app?vid=361a5c63-2e72-4ef2-b92b-728174fdc1f4","ios":"levelo://app?vid=361a5c63-2e72-4ef2-b92b-728174fdc1f4"},"vehicle_type_id":"4","last_reported":1744441753,"current_range_meters":6000,"station_id":"ce4bgh92rcd13ifvqb50","pricing_plan_id":"cebpf4jnsgd1na2vs0mg"},{"bike_id":"a9f344a9-b5c4-4c6f-adc4-6177f6c8159a","system_id":"levelo_inurba_marseille","lat":43.32787,"lon":5.39751,"is_reserved":false,"is_disabled":false,"rental_uris":{"android":"levelo://app?vid=a9f344a9-b5c4-4c6f-adc4-6177f6c8159a","ios":"levelo://app?vid=a9f344a9-b5c4-4c6f-adc4-6177f6c8159a"},"vehicle_type_id":"4","last_reported":1744441753,"current_range_meters":6000,"station_id":"","pricing_plan_id":"cebpf4jnsgd1na2vs0mg"},{"bike_id":"e8f23bd1-6475-4f0d-ac07-b33c21f52437","system_id":"levelo_inurba_marseille","lat":43.304638,"lon":5.379102,"is_reserved":false,"is_disabled":false,"rental_uris":{"android":"levelo://app?vid=e8f23bd1-6475-4f0d-ac07-b33c21f52437","ios":"levelo://app?vid=e8f23bd1-6475-4f0d-ac07-b33c21f52437"},"vehicle_type_id":"4","last_reported":1744441753,"current_range_meters":6000,"station_id":"ce4bgup2rcd13ifvqcn0","pricing_plan_id":"cebpf4jnsgd1na2vs0mg"},{"bike_id":"5fdd3298-d376-47aa-b5b3-d838ecbf8db4","system_id":"levelo_inurba_marseille","lat":43.279955,"lon":5.40038,"is_reserved":false,"is_disabled":false,"rental_uris":{"android":"levelo://app?vid=5fdd3298-d376-47aa-b5b3-d838ecbf8db4","ios":"levelo://app?vid=5fdd3298-d376-47aa-b5b3-d838ecbf8db4"},"vehicle_type_id":"4","last_reported":1744441753,"current_range_meters":6400,"station_id":"ce4bho92rcd13ifvqh4g","pricing_plan_id":"cebpf4jnsgd1na2vs0mg"},{"bike_id":"38682804-f3e9-4669-b2ec-4efeb899e65b","system_id":"levelo_inurba_marseille","lat":43.27373,"lon":5.36251,"is_reserved":false,"is_disabled":false,"rental_uris":{"android":"levelo://app?vid=38682804-f3e9-4669-b2ec-4efeb899e65b","ios":"levelo://app?vid=38682804-f3e9-4669-b2ec-4efeb899e65b"},"vehicle_type_id":"4","last_reported":1744441753,"current_range_meters":6400,"station_id":"ce4bhbh2rcd13ifvqeo0","pricing_plan_id":"cebpf4jnsgd1na2vs0mg"},{"bike_id":"19dfba69-f46c-4568-ab05-af2207517b60","system_id":"levelo_inurba_marseille","lat":43.2695,"lon":5.40261,"is_reserved":false,"is_disabled":false,"rental_uris":{"android":"levelo://app?vid=19dfba69-f46c-4568-ab05-af2207517b60","ios":"levelo://app?vid=19dfba69-f46c-4568-ab05-af2207517b60"},"vehicle_type_id":"4","last_reported":1744441753,"current_range_meters":6400,"station_id":"cjm6bp8fraef2m0cb0m0","pricing_plan_id":"cebpf4jnsgd1na2vs0mg"},{"bike_id":"2a7a7f79-beef-4115-bb1c-3454a3bc9321","system_id":"levelo_inurba_marseille","lat":43.24649,"lon":5.389,"is_reserved":false,"is_disabled":false,"rental_uris":{"android":"levelo://app?vid=2a7a7f79-beef-4115-bb1c-3454a3bc9321","ios":"levelo://app?vid=2a7a7f79-beef-4115-bb1c-3454a3bc9321"},"vehicle_type_id":"4","last_reported":1744441753,"current_range_meters":6400,"station_id":"ce4bhg12rcd13ifvqf60","pricing_plan_id":"cebpf4jnsgd1na2vs0mg"},{"bike_id":"eab73918-3f7e-45cc-8c4f-4f1d5d485704","system_id":"levelo_inurba_marseille","lat":43.30443,"lon":5.37916,"is_reserved":false,"is_disabled":false,"rental_uris":{"android":"levelo://app?vid=eab73918-3f7e-45cc-8c4f-4f1d5d485704","ios":"levelo://app?vid=eab73918-3f7e-45cc-8c4f-4f1d5d485704"},"vehicle_type_id":"4","last_reported":1744441753,"current_range_meters":6400,"station_id":"ce4bgup2rcd13ifvqcn0","pricing_plan_id":"cebpf4jnsgd1na2vs0mg"},{"bike_id":"bc076f99-16a6-4a07-9243-affbec6b121f","system_id":"levelo_inurba_marseille","lat":43.29801,"lon":5.38101,"is_reserved":false,"is_disabled":false,"rental_uris":{"android":"levelo://app?vid=bc076f99-16a6-4a07-9243-affbec6b121f","ios":"levelo://app?vid=bc076f99-16a6-4a07-9243-affbec6b121f"},"vehicle_type_id":"4","last_reported":1744441753,"current_range_meters":6400,"station_id":"ce4bgip2rcd13ifvqbb0","pricing_plan_id":"cebpf4jnsgd1na2vs0mg"},{"bike_id":"ce1b1142-9327-4d65-9036-d543a43b1fdc","system_id":"levelo_inurba_marseille","lat":43.29804,"lon":5.40404,"is_reserved":false,"is_disabled":false,"rental_uris":{"android":"levelo://app?vid=ce1b1142-9327-4d65-9036-d543a43b1fdc","ios":"levelo://app?vid=ce1b1142-9327-4d65-9036-d543a43b1fdc"},"vehicle_type_id":"4","last_reported":1744441753,"current_range_meters":6400,"station_id":"ce4bh112rcd13ifvqd90","pricing_plan_id":"cebpf4jnsgd1na2vs0mg"},{"bike_id":"eab6cbfa-cb8e-47d7-b0d6-226ab7facec7","system_id":"levelo_inurba_marseille","lat":43.31709,"lon":5.42403,"is_reserved":false,"is_disabled":true,"rental_uris":{"android":"levelo://app?vid=eab6cbfa-cb8e-47d7-b0d6-226ab7facec7","ios":"levelo://app?vid=eab6cbfa-cb8e-47d7-b0d6-226ab7facec7"},"vehicle_type_id":"4","last_reported":1744441753,"current_range_meters":6400,"station_id":"ce4bhp92rcd13ifvqhbg","pricing_plan_id":"cebpf4jnsgd1na2vs0mg"},{"bike_id":"926fb0a7-820c-4f62-bd23-584e294815aa","system_id":"levelo_inurba_marseille","lat":43.24175,"lon":5.39771,"is_reserved":false,"is_disabled":false,"rental_uris":{"android":"levelo://app?vid=926fb0a7-820c-4f62-bd23-584e294815aa","ios":"levelo://app?vid=926fb0a7-820c-4f62-bd23-584e294815aa"},"vehicle_type_id":"4","last_reported":1744441753,"current_range_meters":6400,"station_id":"ce4bhn12rcd13ifvqgpg","pricing_plan_id":"cebpf4jnsgd1na2vs0mg"},{"bike_id":"48ce90a6-ad06-48b8-8a50-53394a4d9dc1","system_id":"levelo_inurba_marseille","lat":43.31475,"lon":5.37326,"is_reserved":false,"is_disabled":false,"rental_uris":{"android":"levelo://app?vid=48ce90a6-ad06-48b8-8a50-53394a4d9dc1","ios":"levelo://app?vid=48ce90a6-ad06-48b8-8a50-53394a4d9dc1"},"vehicle_type_id":"4","last_reported":1744441753,"current_range_meters":6800,"station_id":"ce4bgt12rcd13ifvqcd0","pricing_plan_id":"cebpf4jnsgd1na2vs0mg"},{"bike_id":"f973a48a-93d7-4351-ac20-4f62d6298af7","system_id":"levelo_inurba_marseille","lat":43.25706,"lon":5.41108,"is_reserved":false,"is_disabled":false,"rental_uris":{"android":"levelo://app?vid=f973a48a-93d7-4351-ac20-4f62d6298af7","ios":"levelo://app?vid=f973a48a-93d7-4351-ac20-4f62d6298af7"},"vehicle_type_id":"4","last_reported":1744441753,"current_range_meters":6800,"station_id":"ce4bhkp2rcd13ifvqgd0","pricing_plan_id":"cebpf4jnsgd1na2vs0mg"},{"bike_id":"f76d12dc-ebdf-46e3-89d0-897a377cfadf","system_id":"levelo_inurba_marseille","lat":43.29268,"lon":5.38435,"is_reserved":false,"is_disabled":true,"rental_uris":{"android":"levelo://app?vid=f76d12dc-ebdf-46e3-89d0-897a377cfadf","ios":"levelo://app?vid=f76d12dc-ebdf-46e3-89d0-897a377cfadf"},"vehicle_type_id":"4","last_reported":1744441753,"current_range_meters":6800,"station_id":"ce4bh692rcd13ifvqea0","pricing_plan_id":"cebpf4jnsgd1na2vs0mg"},{"bike_id":"820eae00-4001-4b93-98cd-bfbd5fc6ebfe","system_id":"levelo_inurba_marseille","lat":43.26801,"lon":5.40264,"is_reserved":false,"is_disabled":false,"rental_uris":{"android":"levelo://app?vid=820eae00-4001-4b93-98cd-bfbd5fc6ebfe","ios":"levelo://app?vid=820eae00-4001-4b93-98cd-bfbd5fc6ebfe"},"vehicle_type_id":"4","last_reported":1744441753,"current_range_meters":6800,"station_id":"ce501612rcd8frsf0b60","pricing_plan_id":"cebpf4jnsgd1na2vs0mg"},{"bike_id":"3c79d7e0-9630-42ba-86c1-c8b7b373d6de","system_id":"levelo_inurba_marseille","lat":43.30409,"lon":5.41278,"is_reserved":false,"is_disabled":true,"rental_uris":{"android":"levelo://app?vid=3c79d7e0-9630-42ba-86c1-c8b7b373d6de","ios":"levelo://app?vid=3c79d7e0-9630-42ba-86c1-c8b7b373d6de"},"vehicle_type_id":"4","last_reported":1744441753,"current_range_meters":6800,"station_id":"ce4bhop2rcd13ifvqh8g","pricing_plan_id":"cebpf4jnsgd1na2vs0mg"},{"bike_id":"dee958f8-d40c-446d-a76e-03c7e8652123","system_id":"levelo_inurba_marseille","lat":43.253349,"lon":5.380594,"is_reserved":false,"is_disabled":true,"rental_uris":{"android":"levelo://app?vid=dee958f8-d40c-446d-a76e-03c7e8652123","ios":"levelo://app?vid=dee958f8-d40c-446d-a76e-03c7e8652123"},"vehicle_type_id":"4","last_reported":1744441753,"current_range_meters":7200,"station_id":"ce4bhbp2rcd13ifvqerg","pricing_plan_id":"cebpf4jnsgd1na2vs0mg"},{"bike_id":"d334824f-7d21-463a-98af-4ab8281df10e","system_id":"levelo_inurba_marseille","lat":43.241614,"lon":5.363943,"is_reserved":false,"is_disabled":false,"rental_uris":{"android":"levelo://app?vid=d334824f-7d21-463a-98af-4ab8281df10e","ios":"levelo://app?vid=d334824f-7d21-463a-98af-4ab8281df10e"},"vehicle_type_id":"4","last_reported":1744441753,"current_range_meters":7200,"station_id":"cpo36qri1sfpv3e86is0","pricing_plan_id":"cebpf4jnsgd1na2vs0mg"},{"bike_id":"eff9a0c2-3ca5-44c7-92de-6cbeadab50b7","system_id":"levelo_inurba_marseille","lat":43.31331,"lon":5.39691,"is_reserved":false,"is_disabled":false,"rental_uris":{"android":"levelo://app?vid=eff9a0c2-3ca5-44c7-92de-6cbeadab50b7","ios":"levelo://app?vid=eff9a0c2-3ca5-44c7-92de-6cbeadab50b7"},"vehicle_type_id":"4","last_reported":1744441753,"current_range_meters":7200,"station_id":"ce4bgvp2rcd13ifvqcu0","pricing_plan_id":"cebpf4jnsgd1na2vs0mg"},{"bike_id":"59500660-8529-4266-bbfa-d5f7a7a7a6b0","system_id":"levelo_inurba_marseille","lat":43.29197,"lon":5.39325,"is_reserved":false,"is_disabled":true,"rental_uris":{"android":"levelo://app?vid=59500660-8529-4266-bbfa-d5f7a7a7a6b0","ios":"levelo://app?vid=59500660-8529-4266-bbfa-d5f7a7a7a6b0"},"vehicle_type_id":"4","last_reported":1744441753,"current_range_meters":7200,"station_id":"ce4bh192rcd13ifvqdd0","pricing_plan_id":"cebpf4jnsgd1na2vs0mg"},{"bike_id":"1ea57ed5-c453-4030-800f-f7ccf97d8658","system_id":"levelo_inurba_marseille","lat":43.25746,"lon":5.41121,"is_reserved":false,"is_disabled":false,"rental_uris":{"android":"levelo://app?vid=1ea57ed5-c453-4030-800f-f7ccf97d8658","ios":"levelo://app?vid=1ea57ed5-c453-4030-800f-f7ccf97d8658"},"vehicle_type_id":"4","last_reported":1744441753,"current_range_meters":8000,"station_id":"ce4bhkp2rcd13ifvqgd0","pricing_plan_id":"cebpf4jnsgd1na2vs0mg"},{"bike_id":"10d7317a-220c-4500-9539-bba6e5c8946b","system_id":"levelo_inurba_marseille","lat":43.30493,"lon":5.37882,"is_reserved":false,"is_disabled":false,"rental_uris":{"android":"levelo://app?vid=10d7317a-220c-4500-9539-bba6e5c8946b","ios":"levelo://app?vid=10d7317a-220c-4500-9539-bba6e5c8946b"},"vehicle_type_id":"4","last_reported":1744441753,"current_range_meters":8000,"station_id":"ce4bgup2rcd13ifvqcn0","pricing_plan_id":"cebpf4jnsgd1na2vs0mg"},{"bike_id":"7a6ccf65-2a8c-44ea-9b00-69370d6c9c96","system_id":"levelo_inurba_marseille","lat":43.31486,"lon":5.37297,"is_reserved":false,"is_disabled":false,"rental_uris":{"android":"levelo://app?vid=7a6ccf65-2a8c-44ea-9b00-69370d6c9c96","ios":"levelo://app?vid=7a6ccf65-2a8c-44ea-9b00-69370d6c9c96"},"vehicle_type_id":"4","last_reported":1744441753,"current_range_meters":8000,"station_id":"ce4bgt12rcd13ifvqcd0","pricing_plan_id":"cebpf4jnsgd1na2vs0mg"},{"bike_id":"eb113507-1b5d-4d7a-b91c-d596662895e6","system_id":"levelo_inurba_marseille","lat":43.295547,"lon":5.393871,"is_reserved":false,"is_disabled":false,"rental_uris":{"android":"levelo://app?vid=eb113507-1b5d-4d7a-b91c-d596662895e6","ios":"levelo://app?vid=eb113507-1b5d-4d7a-b91c-d596662895e6"},"vehicle_type_id":"4","last_reported":1744441753,"current_range_meters":8000,"station_id":"ce4bh292rcd13ifvqdf0","pricing_plan_id":"cebpf4jnsgd1na2vs0mg"},{"bike_id":"fdf7d4db-19e0-47d7-a5af-a029f1e5481a","system_id":"levelo_inurba_marseille","lat":43.29028,"lon":5.39983,"is_reserved":false,"is_disabled":false,"rental_uris":{"android":"levelo://app?vid=fdf7d4db-19e0-47d7-a5af-a029f1e5481a","ios":"levelo://app?vid=fdf7d4db-19e0-47d7-a5af-a029f1e5481a"},"vehicle_type_id":"4","last_reported":1744441753,"current_range_meters":7200,"station_id":"ce4bh392rcd13ifvqdm0","pricing_plan_id":"cebpf4jnsgd1na2vs0mg"},{"bike_id":"8b4c8d12-5212-410c-bdd4-63122234f668","system_id":"levelo_inurba_marseille","lat":43.2293,"lon":5.35394,"is_reserved":false,"is_disabled":false,"rental_uris":{"android":"levelo://app?vid=8b4c8d12-5212-410c-bdd4-63122234f668","ios":"levelo://app?vid=8b4c8d12-5212-410c-bdd4-63122234f668"},"vehicle_type_id":"4","last_reported":1744441753,"current_range_meters":8000,"station_id":"cpo3532slgdg3j2ikp40","pricing_plan_id":"cebpf4jnsgd1na2vs0mg"},{"bike_id":"d7553ce9-0fd0-4673-9c5d-9aaa4d1a9b3f","system_id":"levelo_inurba_marseille","lat":43.30462,"lon":5.37913,"is_reserved":false,"is_disabled":false,"rental_uris":{"android":"levelo://app?vid=d7553ce9-0fd0-4673-9c5d-9aaa4d1a9b3f","ios":"levelo://app?vid=d7553ce9-0fd0-4673-9c5d-9aaa4d1a9b3f"},"vehicle_type_id":"4","last_reported":1744441753,"current_range_meters":8000,"station_id":"ce4bgup2rcd13ifvqcn0","pricing_plan_id":"cebpf4jnsgd1na2vs0mg"},{"bike_id":"6694fe4e-a9f4-42d0-aec4-571947c3c7e0","system_id":"levelo_inurba_marseille","lat":43.290367,"lon":5.359262,"is_reserved":false,"is_disabled":false,"rental_uris":{"android":"levelo://app?vid=6694fe4e-a9f4-42d0-aec4-571947c3c7e0","ios":"levelo://app?vid=6694fe4e-a9f4-42d0-aec4-571947c3c7e0"},"vehicle_type_id":"4","last_reported":1744441753,"current_range_meters":8000,"station_id":"ce4bhb12rcd13ifvqel0","pricing_plan_id":"cebpf4jnsgd1na2vs0mg"},{"bike_id":"5a745208-2db7-4b93-b18e-ee599d2192b6","system_id":"levelo_inurba_marseille","lat":43.25704,"lon":5.41122,"is_reserved":false,"is_disabled":false,"rental_uris":{"android":"levelo://app?vid=5a745208-2db7-4b93-b18e-ee599d2192b6","ios":"levelo://app?vid=5a745208-2db7-4b93-b18e-ee599d2192b6"},"vehicle_type_id":"4","last_reported":1744441753,"current_range_meters":8000,"station_id":"ce4bhkp2rcd13ifvqgd0","pricing_plan_id":"cebpf4jnsgd1na2vs0mg"},{"bike_id":"12191d9f-7bab-4e7d-8e5e-01efd0f5407b","system_id":"levelo_inurba_marseille","lat":43.29968,"lon":5.37173,"is_reserved":false,"is_disabled":false,"rental_uris":{"android":"levelo://app?vid=12191d9f-7bab-4e7d-8e5e-01efd0f5407b","ios":"levelo://app?vid=12191d9f-7bab-4e7d-8e5e-01efd0f5407b"},"vehicle_type_id":"4","last_reported":1744441753,"current_range_meters":8000,"station_id":"ce4bgr92rcd13ifvqc7g","pricing_plan_id":"cebpf4jnsgd1na2vs0mg"},{"bike_id":"7e287c76-4f19-4b6c-bb36-ea54c2b11237","system_id":"levelo_inurba_marseille","lat":43.32319,"lon":5.40623,"is_reserved":false,"is_disabled":false,"rental_uris":{"android":"levelo://app?vid=7e287c76-4f19-4b6c-bb36-ea54c2b11237","ios":"levelo://app?vid=7e287c76-4f19-4b6c-bb36-ea54c2b11237"},"vehicle_type_id":"4","last_reported":1744441753,"current_range_meters":8400,"station_id":"ce4bhq92rcd13ifvqhjg","pricing_plan_id":"cebpf4jnsgd1na2vs0mg"},{"bike_id":"6d239a60-5c37-4036-b60e-d60628d139cf","system_id":"levelo_inurba_marseille","lat":43.287054,"lon":5.373961,"is_reserved":false,"is_disabled":false,"rental_uris":{"android":"levelo://app?vid=6d239a60-5c37-4036-b60e-d60628d139cf","ios":"levelo://app?vid=6d239a60-5c37-4036-b60e-d60628d139cf"},"vehicle_type_id":"4","last_reported":1744441753,"current_range_meters":8400,"station_id":"ce4bh3p2rcd13ifvqdq0","pricing_plan_id":"cebpf4jnsgd1na2vs0mg"},{"bike_id":"25a2b2fe-9a8e-40f1-a384-cefdb66419ae","system_id":"levelo_inurba_marseille","lat":43.27814,"lon":5.40724,"is_reserved":false,"is_disabled":false,"rental_uris":{"android":"levelo://app?vid=25a2b2fe-9a8e-40f1-a384-cefdb66419ae","ios":"levelo://app?vid=25a2b2fe-9a8e-40f1-a384-cefdb66419ae"},"vehicle_type_id":"4","last_reported":1744441753,"current_range_meters":8400,"station_id":"ce4bhnh2rcd13ifvqgtg","pricing_plan_id":"cebpf4jnsgd1na2vs0mg"},{"bike_id":"20eb53d5-dc7b-4fbe-a6da-7e0a348438c0","system_id":"levelo_inurba_marseille","lat":43.27915,"lon":5.39602,"is_reserved":false,"is_disabled":true,"rental_uris":{"android":"levelo://app?vid=20eb53d5-dc7b-4fbe-a6da-7e0a348438c0","ios":"levelo://app?vid=20eb53d5-dc7b-4fbe-a6da-7e0a348438c0"},"vehicle_type_id":"4","last_reported":1744441753,"current_range_meters":8400,"station_id":"ce4bhf92rcd13ifvqf40","pricing_plan_id":"cebpf4jnsgd1na2vs0mg"},{"bike_id":"94455896-0f19-4fae-bd72-9879f01fcd6e","system_id":"levelo_inurba_marseille","lat":43.29537,"lon":5.42309,"is_reserved":false,"is_disabled":true,"rental_uris":{"android":"levelo://app?vid=94455896-0f19-4fae-bd72-9879f01fcd6e","ios":"levelo://app?vid=94455896-0f19-4fae-bd72-9879f01fcd6e"},"vehicle_type_id":"4","last_reported":1744441753,"current_range_meters":8400,"station_id":"ce4bhph2rcd13ifvqhdg","pricing_plan_id":"cebpf4jnsgd1na2vs0mg"},{"bike_id":"e0487cbb-6aa7-4fe8-9aa7-7b771d7aec2a","system_id":"levelo_inurba_marseille","lat":43.26211,"lon":5.40484,"is_reserved":false,"is_disabled":false,"rental_uris":{"android":"levelo://app?vid=e0487cbb-6aa7-4fe8-9aa7-7b771d7aec2a","ios":"levelo://app?vid=e0487cbb-6aa7-4fe8-9aa7-7b771d7aec2a"},"vehicle_type_id":"4","last_reported":1744441753,"current_range_meters":8400,"station_id":"ce4bhmh2rcd13ifvqgmg","pricing_plan_id":"cebpf4jnsgd1na2vs0mg"},{"bike_id":"1ac19b6a-4c6f-4d4d-901c-dd1716ba1b48","system_id":"levelo_inurba_marseille","lat":43.30954,"lon":5.4047,"is_reserved":false,"is_disabled":false,"rental_uris":{"android":"levelo://app?vid=1ac19b6a-4c6f-4d4d-901c-dd1716ba1b48","ios":"levelo://app?vid=1ac19b6a-4c6f-4d4d-901c-dd1716ba1b48"},"vehicle_type_id":"4","last_reported":1744441753,"current_range_meters":8800,"station_id":"","pricing_plan_id":"cebpf4jnsgd1na2vs0mg"},{"bike_id":"cc83a7aa-57a1-4769-9137-8531613b4691","system_id":"levelo_inurba_marseille","lat":43.312433,"lon":5.373105,"is_reserved":false,"is_disabled":false,"rental_uris":{"android":"levelo://app?vid=cc83a7aa-57a1-4769-9137-8531613b4691","ios":"levelo://app?vid=cc83a7aa-57a1-4769-9137-8531613b4691"},"vehicle_type_id":"4","last_reported":1744441753,"current_range_meters":8800,"station_id":"","pricing_plan_id":"cebpf4jnsgd1na2vs0mg"},{"bike_id":"89b8a470-4f24-4334-8ed0-df6eb4272b3d","system_id":"levelo_inurba_marseille","lat":43.30444,"lon":5.39752,"is_reserved":false,"is_disabled":false,"rental_uris":{"android":"levelo://app?vid=89b8a470-4f24-4334-8ed0-df6eb4272b3d","ios":"levelo://app?vid=89b8a470-4f24-4334-8ed0-df6eb4272b3d"},"vehicle_type_id":"4","last_reported":1744441753,"current_range_meters":8800,"station_id":"ce4bh092rcd13ifvqd20","pricing_plan_id":"cebpf4jnsgd1na2vs0mg"},{"bike_id":"3f08cc69-711e-4264-b923-68891203ffa4","system_id":"levelo_inurba_marseille","lat":43.32285,"lon":5.38243,"is_reserved":false,"is_disabled":false,"rental_uris":{"android":"levelo://app?vid=3f08cc69-711e-4264-b923-68891203ffa4","ios":"levelo://app?vid=3f08cc69-711e-4264-b923-68891203ffa4"},"vehicle_type_id":"4","last_reported":1744441753,"current_range_meters":8800,"station_id":"ce4bhr12rcd13ifvqhqg","pricing_plan_id":"cebpf4jnsgd1na2vs0mg"},{"bike_id":"c0478c87-f1e0-4868-83cb-84ec281be2b8","system_id":"levelo_inurba_marseille","lat":43.33604,"lon":5.41049,"is_reserved":false,"is_disabled":false,"rental_uris":{"android":"levelo://app?vid=c0478c87-f1e0-4868-83cb-84ec281be2b8","ios":"levelo://app?vid=c0478c87-f1e0-4868-83cb-84ec281be2b8"},"vehicle_type_id":"4","last_reported":1744441753,"current_range_meters":8800,"station_id":"ce4bhqh2rcd13ifvqhmg","pricing_plan_id":"cebpf4jnsgd1na2vs0mg"},{"bike_id":"9221d150-2b7c-49b1-921d-0cd476018673","system_id":"levelo_inurba_marseille","lat":43.300966,"lon":5.370981,"is_reserved":false,"is_disabled":false,"rental_uris":{"android":"levelo://app?vid=9221d150-2b7c-49b1-921d-0cd476018673","ios":"levelo://app?vid=9221d150-2b7c-49b1-921d-0cd476018673"},"vehicle_type_id":"4","last_reported":1744441753,"current_range_meters":8800,"station_id":"","pricing_plan_id":"cebpf4jnsgd1na2vs0mg"},{"bike_id":"4614ddd5-5aac-42b1-b3d4-905343369df1","system_id":"levelo_inurba_marseille","lat":43.27957,"lon":5.41057,"is_reserved":false,"is_disabled":false,"rental_uris":{"android":"levelo://app?vid=4614ddd5-5aac-42b1-b3d4-905343369df1","ios":"levelo://app?vid=4614ddd5-5aac-42b1-b3d4-905343369df1"},"vehicle_type_id":"4","last_reported":1744441753,"current_range_meters":8800,"station_id":"ce4bhnp2rcd13ifvqh0g","pricing_plan_id":"cebpf4jnsgd1na2vs0mg"},{"bike_id":"9b0093a9-79e0-4880-82c2-96b353b4de72","system_id":"levelo_inurba_marseille","lat":43.30319,"lon":5.40444,"is_reserved":false,"is_disabled":false,"rental_uris":{"android":"levelo://app?vid=9b0093a9-79e0-4880-82c2-96b353b4de72","ios":"levelo://app?vid=9b0093a9-79e0-4880-82c2-96b353b4de72"},"vehicle_type_id":"4","last_reported":1744441753,"current_range_meters":8800,"station_id":"ce4bh012rcd13ifvqd10","pricing_plan_id":"cebpf4jnsgd1na2vs0mg"},{"bike_id":"a91984a3-a6ce-4421-8b70-93389255e88f","system_id":"levelo_inurba_marseille","lat":43.32991,"lon":5.43872,"is_reserved":false,"is_disabled":false,"rental_uris":{"android":"levelo://app?vid=a91984a3-a6ce-4421-8b70-93389255e88f","ios":"levelo://app?vid=a91984a3-a6ce-4421-8b70-93389255e88f"},"vehicle_type_id":"4","last_reported":1744441753,"current_range_meters":9200,"station_id":"","pricing_plan_id":"cebpf4jnsgd1na2vs0mg"},{"bike_id":"d6c423ad-693a-42e8-bcad-89087df9e68f","system_id":"levelo_inurba_marseille","lat":43.241824,"lon":5.397309,"is_reserved":false,"is_disabled":false,"rental_uris":{"android":"levelo://app?vid=d6c423ad-693a-42e8-bcad-89087df9e68f","ios":"levelo://app?vid=d6c423ad-693a-42e8-bcad-89087df9e68f"},"vehicle_type_id":"4","last_reported":1744441753,"current_range_meters":9200,"station_id":"ce4bhn12rcd13ifvqgpg","pricing_plan_id":"cebpf4jnsgd1na2vs0mg"},{"bike_id":"463b41fd-37bb-48c0-a6e4-12f737a3d7cf","system_id":"levelo_inurba_marseille","lat":43.26953,"lon":5.40266,"is_reserved":false,"is_disabled":true,"rental_uris":{"android":"levelo://app?vid=463b41fd-37bb-48c0-a6e4-12f737a3d7cf","ios":"levelo://app?vid=463b41fd-37bb-48c0-a6e4-12f737a3d7cf"},"vehicle_type_id":"4","last_reported":1744441753,"current_range_meters":9200,"station_id":"cjm6bp8fraef2m0cb0m0","pricing_plan_id":"cebpf4jnsgd1na2vs0mg"},{"bike_id":"9e128e8c-c526-4301-bc99-6fdaa04a15c9","system_id":"levelo_inurba_marseille","lat":43.27543,"lon":5.38435,"is_reserved":false,"is_disabled":false,"rental_uris":{"android":"levelo://app?vid=9e128e8c-c526-4301-bc99-6fdaa04a15c9","ios":"levelo://app?vid=9e128e8c-c526-4301-bc99-6fdaa04a15c9"},"vehicle_type_id":"4","last_reported":1744441753,"current_range_meters":9200,"station_id":"ce4bhh92rcd13ifvqfi0","pricing_plan_id":"cebpf4jnsgd1na2vs0mg"},{"bike_id":"3ac73e63-1619-4c1b-a7d0-7311424e94ef","system_id":"levelo_inurba_marseille","lat":43.2895,"lon":5.37639,"is_reserved":false,"is_disabled":false,"rental_uris":{"android":"levelo://app?vid=3ac73e63-1619-4c1b-a7d0-7311424e94ef","ios":"levelo://app?vid=3ac73e63-1619-4c1b-a7d0-7311424e94ef"},"vehicle_type_id":"4","last_reported":1744441753,"current_range_meters":9200,"station_id":"","pricing_plan_id":"cebpf4jnsgd1na2vs0mg"},{"bike_id":"173bc9a4-de98-43a8-b692-4fbb90439da0","system_id":"levelo_inurba_marseille","lat":43.31986,"lon":5.38167,"is_reserved":false,"is_disabled":false,"rental_uris":{"android":"levelo://app?vid=173bc9a4-de98-43a8-b692-4fbb90439da0","ios":"levelo://app?vid=173bc9a4-de98-43a8-b692-4fbb90439da0"},"vehicle_type_id":"4","last_reported":1744441753,"current_range_meters":9200,"station_id":"ce4bhr12rcd13ifvqhpg","pricing_plan_id":"cebpf4jnsgd1na2vs0mg"},{"bike_id":"b105010c-b749-48b7-8743-e65c5024e2fe","system_id":"levelo_inurba_marseille","lat":43.25127,"lon":5.40316,"is_reserved":false,"is_disabled":false,"rental_uris":{"android":"levelo://app?vid=b105010c-b749-48b7-8743-e65c5024e2fe","ios":"levelo://app?vid=b105010c-b749-48b7-8743-e65c5024e2fe"},"vehicle_type_id":"4","last_reported":1744441753,"current_range_meters":9200,"station_id":"ce4bhlh2rcd13ifvqgig","pricing_plan_id":"cebpf4jnsgd1na2vs0mg"},{"bike_id":"6537ccf9-107e-4326-8e5a-fcbac0275db5","system_id":"levelo_inurba_marseille","lat":43.30527,"lon":5.36544,"is_reserved":false,"is_disabled":true,"rental_uris":{"android":"levelo://app?vid=6537ccf9-107e-4326-8e5a-fcbac0275db5","ios":"levelo://app?vid=6537ccf9-107e-4326-8e5a-fcbac0275db5"},"vehicle_type_id":"4","last_reported":1744441753,"current_range_meters":9200,"station_id":"ce4bgs12rcd13ifvqcag","pricing_plan_id":"cebpf4jnsgd1na2vs0mg"},{"bike_id":"72adaa87-94dc-4774-aca0-5147bc57bd16","system_id":"levelo_inurba_marseille","lat":43.26016,"lon":5.41736,"is_reserved":false,"is_disabled":false,"rental_uris":{"android":"levelo://app?vid=72adaa87-94dc-4774-aca0-5147bc57bd16","ios":"levelo://app?vid=72adaa87-94dc-4774-aca0-5147bc57bd16"},"vehicle_type_id":"4","last_reported":1744441753,"current_range_meters":9200,"station_id":"","pricing_plan_id":"cebpf4jnsgd1na2vs0mg"},{"bike_id":"6f1a11d8-ae2c-4f9d-9804-9dfa1d01882d","system_id":"levelo_inurba_marseille","lat":43.302001,"lon":5.39466,"is_reserved":false,"is_disabled":false,"rental_uris":{"android":"levelo://app?vid=6f1a11d8-ae2c-4f9d-9804-9dfa1d01882d","ios":"levelo://app?vid=6f1a11d8-ae2c-4f9d-9804-9dfa1d01882d"},"vehicle_type_id":"4","last_reported":1744441753,"current_range_meters":8800,"station_id":"ce4bh0p2rcd13ifvqd70","pricing_plan_id":"cebpf4jnsgd1na2vs0mg"},{"bike_id":"d31220a3-32a8-4f17-a637-d5fb857c1a28","system_id":"levelo_inurba_marseille","lat":43.30106,"lon":5.39075,"is_reserved":false,"is_disabled":false,"rental_uris":{"android":"levelo://app?vid=d31220a3-32a8-4f17-a637-d5fb857c1a28","ios":"levelo://app?vid=d31220a3-32a8-4f17-a637-d5fb857c1a28"},"vehicle_type_id":"4","last_reported":1744441753,"current_range_meters":9600,"station_id":"ce4bh192rcd13ifvqdb0","pricing_plan_id":"cebpf4jnsgd1na2vs0mg"},{"bike_id":"ab5f291f-2dd1-4659-b6d7-718a1cf98fd2","system_id":"levelo_inurba_marseille","lat":43.28464,"lon":5.35878,"is_reserved":false,"is_disabled":false,"rental_uris":{"android":"levelo://app?vid=ab5f291f-2dd1-4659-b6d7-718a1cf98fd2","ios":"levelo://app?vid=ab5f291f-2dd1-4659-b6d7-718a1cf98fd2"},"vehicle_type_id":"4","last_reported":1744441753,"current_range_meters":9600,"station_id":"ce4bhah2rcd13ifvqei0","pricing_plan_id":"cebpf4jnsgd1na2vs0mg"},{"bike_id":"80f5992c-b183-460d-8d1b-4c42a2b4d72f","system_id":"levelo_inurba_marseille","lat":43.24196,"lon":5.39748,"is_reserved":false,"is_disabled":false,"rental_uris":{"android":"levelo://app?vid=80f5992c-b183-460d-8d1b-4c42a2b4d72f","ios":"levelo://app?vid=80f5992c-b183-460d-8d1b-4c42a2b4d72f"},"vehicle_type_id":"4","last_reported":1744441753,"current_range_meters":9600,"station_id":"ce4bhn12rcd13ifvqgpg","pricing_plan_id":"cebpf4jnsgd1na2vs0mg"},{"bike_id":"abc21657-d913-4bb2-a8bb-366f612ceb84","system_id":"levelo_inurba_marseille","lat":43.31331,"lon":5.39728,"is_reserved":false,"is_disabled":false,"rental_uris":{"android":"levelo://app?vid=abc21657-d913-4bb2-a8bb-366f612ceb84","ios":"levelo://app?vid=abc21657-d913-4bb2-a8bb-366f612ceb84"},"vehicle_type_id":"4","last_reported":1744441753,"current_range_meters":9600,"station_id":"ce4bgvp2rcd13ifvqcu0","pricing_plan_id":"cebpf4jnsgd1na2vs0mg"},{"bike_id":"55475846-4826-4e39-aef5-c665d76d0159","system_id":"levelo_inurba_marseille","lat":43.32087,"lon":5.36817,"is_reserved":false,"is_disabled":false,"rental_uris":{"android":"levelo://app?vid=55475846-4826-4e39-aef5-c665d76d0159","ios":"levelo://app?vid=55475846-4826-4e39-aef5-c665d76d0159"},"vehicle_type_id":"4","last_reported":1744441753,"current_range_meters":9600,"station_id":"ce4bhrh2rcd13ifvqhug","pricing_plan_id":"cebpf4jnsgd1na2vs0mg"},{"bike_id":"3b991e41-1da7-4423-a369-dae028e8b01b","system_id":"levelo_inurba_marseille","lat":43.248099,"lon":5.374518,"is_reserved":false,"is_disabled":false,"rental_uris":{"android":"levelo://app?vid=3b991e41-1da7-4423-a369-dae028e8b01b","ios":"levelo://app?vid=3b991e41-1da7-4423-a369-dae028e8b01b"},"vehicle_type_id":"4","last_reported":1744441753,"current_range_meters":9600,"station_id":"ce4bhgh2rcd13ifvqfb0","pricing_plan_id":"cebpf4jnsgd1na2vs0mg"},{"bike_id":"faf90879-3987-4c10-8151-7535004adf0a","system_id":"levelo_inurba_marseille","lat":43.295264,"lon":5.390409,"is_reserved":false,"is_disabled":false,"rental_uris":{"android":"levelo://app?vid=faf90879-3987-4c10-8151-7535004adf0a","ios":"levelo://app?vid=faf90879-3987-4c10-8151-7535004adf0a"},"vehicle_type_id":"4","last_reported":1744441753,"current_range_meters":9600,"station_id":"ce4bh3p2rcd13ifvqdp0","pricing_plan_id":"cebpf4jnsgd1na2vs0mg"},{"bike_id":"9a048efe-3f5b-45ef-bee6-80524b1147f3","system_id":"levelo_inurba_marseille","lat":43.33069,"lon":5.40839,"is_reserved":false,"is_disabled":false,"rental_uris":{"android":"levelo://app?vid=9a048efe-3f5b-45ef-bee6-80524b1147f3","ios":"levelo://app?vid=9a048efe-3f5b-45ef-bee6-80524b1147f3"},"vehicle_type_id":"4","last_reported":1744441753,"current_range_meters":10000,"station_id":"","pricing_plan_id":"cebpf4jnsgd1na2vs0mg"},{"bike_id":"f21cce43-7e86-42c4-8a4d-3c922080ab5c","system_id":"levelo_inurba_marseille","lat":43.2896,"lon":5.36649,"is_reserved":false,"is_disabled":true,"rental_uris":{"android":"levelo://app?vid=f21cce43-7e86-42c4-8a4d-3c922080ab5c","ios":"levelo://app?vid=f21cce43-7e86-42c4-8a4d-3c922080ab5c"},"vehicle_type_id":"4","last_reported":1744441753,"current_range_meters":10000,"station_id":"ce4bhap2rcd13ifvqek0","pricing_plan_id":"cebpf4jnsgd1na2vs0mg"},{"bike_id":"c98d8b38-ccb8-4e2a-893f-a8daa657e381","system_id":"levelo_inurba_marseille","lat":43.313268,"lon":5.396979,"is_reserved":false,"is_disabled":false,"rental_uris":{"android":"levelo://app?vid=c98d8b38-ccb8-4e2a-893f-a8daa657e381","ios":"levelo://app?vid=c98d8b38-ccb8-4e2a-893f-a8daa657e381"},"vehicle_type_id":"4","last_reported":1744441753,"current_range_meters":10000,"station_id":"ce4bgvp2rcd13ifvqcu0","pricing_plan_id":"cebpf4jnsgd1na2vs0mg"},{"bike_id":"6dc2c6d1-9c29-46f1-831f-679aa012aec9","system_id":"levelo_inurba_marseille","lat":43.30896,"lon":5.37205,"is_reserved":false,"is_disabled":false,"rental_uris":{"android":"levelo://app?vid=6dc2c6d1-9c29-46f1-831f-679aa012aec9","ios":"levelo://app?vid=6dc2c6d1-9c29-46f1-831f-679aa012aec9"},"vehicle_type_id":"4","last_reported":1744441753,"current_range_meters":10000,"station_id":"ce4bguh2rcd13ifvqckg","pricing_plan_id":"cebpf4jnsgd1na2vs0mg"},{"bike_id":"88776c62-0a09-436a-b4e5-10b5baa5aae5","system_id":"levelo_inurba_marseille","lat":43.27056,"lon":5.40254,"is_reserved":false,"is_disabled":false,"rental_uris":{"android":"levelo://app?vid=88776c62-0a09-436a-b4e5-10b5baa5aae5","ios":"levelo://app?vid=88776c62-0a09-436a-b4e5-10b5baa5aae5"},"vehicle_type_id":"4","last_reported":1744441753,"current_range_meters":10000,"station_id":"ce4bhk92rcd13ifvqgc0","pricing_plan_id":"cebpf4jnsgd1na2vs0mg"},{"bike_id":"411f282c-b696-41a4-888f-752e1134c529","system_id":"levelo_inurba_marseille","lat":43.261929,"lon":5.374436,"is_reserved":false,"is_disabled":true,"rental_uris":{"android":"levelo://app?vid=411f282c-b696-41a4-888f-752e1134c529","ios":"levelo://app?vid=411f282c-b696-41a4-888f-752e1134c529"},"vehicle_type_id":"4","last_reported":1744441753,"current_range_meters":10000,"station_id":"ce4bhgp2rcd13ifvqfc0","pricing_plan_id":"cebpf4jnsgd1na2vs0mg"},{"bike_id":"79f3eafb-e05d-410b-b18f-d5263a1f3a11","system_id":"levelo_inurba_marseille","lat":43.295255,"lon":5.39043,"is_reserved":false,"is_disabled":false,"rental_uris":{"android":"levelo://app?vid=79f3eafb-e05d-410b-b18f-d5263a1f3a11","ios":"levelo://app?vid=79f3eafb-e05d-410b-b18f-d5263a1f3a11"},"vehicle_type_id":"4","last_reported":1744441753,"current_range_meters":10000,"station_id":"ce4bh3p2rcd13ifvqdp0","pricing_plan_id":"cebpf4jnsgd1na2vs0mg"},{"bike_id":"8c58f2fa-99e1-41f8-bf90-9c1648b679b1","system_id":"levelo_inurba_marseille","lat":43.27315,"lon":5.41419,"is_reserved":false,"is_disabled":false,"rental_uris":{"android":"levelo://app?vid=8c58f2fa-99e1-41f8-bf90-9c1648b679b1","ios":"levelo://app?vid=8c58f2fa-99e1-41f8-bf90-9c1648b679b1"},"vehicle_type_id":"4","last_reported":1744441753,"current_range_meters":10000,"station_id":"","pricing_plan_id":"cebpf4jnsgd1na2vs0mg"},{"bike_id":"37864421-51e4-4d5e-801c-7ac32e01e722","system_id":"levelo_inurba_marseille","lat":43.3129,"lon":5.37759,"is_reserved":false,"is_disabled":false,"rental_uris":{"android":"levelo://app?vid=37864421-51e4-4d5e-801c-7ac32e01e722","ios":"levelo://app?vid=37864421-51e4-4d5e-801c-7ac32e01e722"},"vehicle_type_id":"4","last_reported":1744441753,"current_range_meters":10000,"station_id":"","pricing_plan_id":"cebpf4jnsgd1na2vs0mg"},{"bike_id":"23259ef2-badd-48f2-a7c8-5bd7ac1c2fc8","system_id":"levelo_inurba_marseille","lat":43.30241,"lon":5.40061,"is_reserved":false,"is_disabled":false,"rental_uris":{"android":"levelo://app?vid=23259ef2-badd-48f2-a7c8-5bd7ac1c2fc8","ios":"levelo://app?vid=23259ef2-badd-48f2-a7c8-5bd7ac1c2fc8"},"vehicle_type_id":"4","last_reported":1744441753,"current_range_meters":10800,"station_id":"ce4bgvh2rcd13ifvqcs0","pricing_plan_id":"cebpf4jnsgd1na2vs0mg"},{"bike_id":"cec65770-a28a-483a-9f89-0b34654f8037","system_id":"levelo_inurba_marseille","lat":43.25723,"lon":5.41119,"is_reserved":false,"is_disabled":false,"rental_uris":{"android":"levelo://app?vid=cec65770-a28a-483a-9f89-0b34654f8037","ios":"levelo://app?vid=cec65770-a28a-483a-9f89-0b34654f8037"},"vehicle_type_id":"4","last_reported":1744441753,"current_range_meters":10800,"station_id":"ce4bhkp2rcd13ifvqgd0","pricing_plan_id":"cebpf4jnsgd1na2vs0mg"},{"bike_id":"4c893399-b4ed-40ed-a49f-713da320f269","system_id":"levelo_inurba_marseille","lat":43.29861,"lon":5.37841,"is_reserved":false,"is_disabled":false,"rental_uris":{"android":"levelo://app?vid=4c893399-b4ed-40ed-a49f-713da320f269","ios":"levelo://app?vid=4c893399-b4ed-40ed-a49f-713da320f269"},"vehicle_type_id":"4","last_reported":1744441753,"current_range_meters":10800,"station_id":"","pricing_plan_id":"cebpf4jnsgd1na2vs0mg"},{"bike_id":"4651fc10-fe57-460e-89c6-9ba891098581","system_id":"levelo_inurba_marseille","lat":43.24167,"lon":5.36408,"is_reserved":false,"is_disabled":false,"rental_uris":{"android":"levelo://app?vid=4651fc10-fe57-460e-89c6-9ba891098581","ios":"levelo://app?vid=4651fc10-fe57-460e-89c6-9ba891098581"},"vehicle_type_id":"4","last_reported":1744441753,"current_range_meters":10800,"station_id":"cpo36qri1sfpv3e86is0","pricing_plan_id":"cebpf4jnsgd1na2vs0mg"},{"bike_id":"c90a2010-f5fb-47d3-a1bd-ce2f60fa33c3","system_id":"levelo_inurba_marseille","lat":43.28853,"lon":5.35843,"is_reserved":false,"is_disabled":false,"rental_uris":{"android":"levelo://app?vid=c90a2010-f5fb-47d3-a1bd-ce2f60fa33c3","ios":"levelo://app?vid=c90a2010-f5fb-47d3-a1bd-ce2f60fa33c3"},"vehicle_type_id":"4","last_reported":1744441753,"current_range_meters":10800,"station_id":"ce4bhb12rcd13ifvqem0","pricing_plan_id":"cebpf4jnsgd1na2vs0mg"},{"bike_id":"16fd30b1-cad6-4fc5-9de5-c7170be035f0","system_id":"levelo_inurba_marseille","lat":43.25717,"lon":5.41114,"is_reserved":false,"is_disabled":false,"rental_uris":{"android":"levelo://app?vid=16fd30b1-cad6-4fc5-9de5-c7170be035f0","ios":"levelo://app?vid=16fd30b1-cad6-4fc5-9de5-c7170be035f0"},"vehicle_type_id":"4","last_reported":1744441753,"current_range_meters":10800,"station_id":"ce4bhkp2rcd13ifvqgd0","pricing_plan_id":"cebpf4jnsgd1na2vs0mg"},{"bike_id":"43b63c9f-fb1f-4606-8585-f3fcef52c739","system_id":"levelo_inurba_marseille","lat":43.25722,"lon":5.41115,"is_reserved":false,"is_disabled":false,"rental_uris":{"android":"levelo://app?vid=43b63c9f-fb1f-4606-8585-f3fcef52c739","ios":"levelo://app?vid=43b63c9f-fb1f-4606-8585-f3fcef52c739"},"vehicle_type_id":"4","last_reported":1744441753,"current_range_meters":11200,"station_id":"ce4bhkp2rcd13ifvqgd0","pricing_plan_id":"cebpf4jnsgd1na2vs0mg"},{"bike_id":"bc81dc9b-4bd7-4f93-95fa-078f47ed1cd9","system_id":"levelo_inurba_marseille","lat":43.29505,"lon":5.37502,"is_reserved":false,"is_disabled":false,"rental_uris":{"android":"levelo://app?vid=bc81dc9b-4bd7-4f93-95fa-078f47ed1cd9","ios":"levelo://app?vid=bc81dc9b-4bd7-4f93-95fa-078f47ed1cd9"},"vehicle_type_id":"4","last_reported":1744441753,"current_range_meters":11200,"station_id":"ce4bgkp2rcd13ifvqbmg","pricing_plan_id":"cebpf4jnsgd1na2vs0mg"},{"bike_id":"1cb849f5-4018-4c76-a075-268f516482d1","system_id":"levelo_inurba_marseille","lat":43.292703,"lon":5.401372,"is_reserved":false,"is_disabled":false,"rental_uris":{"android":"levelo://app?vid=1cb849f5-4018-4c76-a075-268f516482d1","ios":"levelo://app?vid=1cb849f5-4018-4c76-a075-268f516482d1"},"vehicle_type_id":"4","last_reported":1744441753,"current_range_meters":11200,"station_id":"ce4bh312rcd13ifvqdk0","pricing_plan_id":"cebpf4jnsgd1na2vs0mg"},{"bike_id":"4a0973b0-92a0-41e8-9b0d-a99e944bafe0","system_id":"levelo_inurba_marseille","lat":43.34476,"lon":5.41293,"is_reserved":false,"is_disabled":false,"rental_uris":{"android":"levelo://app?vid=4a0973b0-92a0-41e8-9b0d-a99e944bafe0","ios":"levelo://app?vid=4a0973b0-92a0-41e8-9b0d-a99e944bafe0"},"vehicle_type_id":"4","last_reported":1744441753,"current_range_meters":11200,"station_id":"","pricing_plan_id":"cebpf4jnsgd1na2vs0mg"},{"bike_id":"e91ebdae-a6fc-4100-9a9d-1e8263645ef3","system_id":"levelo_inurba_marseille","lat":43.32653,"lon":5.40985,"is_reserved":false,"is_disabled":false,"rental_uris":{"android":"levelo://app?vid=e91ebdae-a6fc-4100-9a9d-1e8263645ef3","ios":"levelo://app?vid=e91ebdae-a6fc-4100-9a9d-1e8263645ef3"},"vehicle_type_id":"4","last_reported":1744441753,"current_range_meters":11200,"station_id":"ce4bhpp2rcd13ifvqhgg","pricing_plan_id":"cebpf4jnsgd1na2vs0mg"},{"bike_id":"18606129-1f46-4387-94fd-b9b77f87f6a9","system_id":"levelo_inurba_marseille","lat":43.23186,"lon":5.39986,"is_reserved":false,"is_disabled":false,"rental_uris":{"android":"levelo://app?vid=18606129-1f46-4387-94fd-b9b77f87f6a9","ios":"levelo://app?vid=18606129-1f46-4387-94fd-b9b77f87f6a9"},"vehicle_type_id":"4","last_reported":1744441753,"current_range_meters":11200,"station_id":"ce4bhn12rcd13ifvqgqg","pricing_plan_id":"cebpf4jnsgd1na2vs0mg"},{"bike_id":"e854defc-8e33-40ed-a4f3-45bab2707a87","system_id":"levelo_inurba_marseille","lat":43.30923,"lon":5.4016,"is_reserved":false,"is_disabled":false,"rental_uris":{"android":"levelo://app?vid=e854defc-8e33-40ed-a4f3-45bab2707a87","ios":"levelo://app?vid=e854defc-8e33-40ed-a4f3-45bab2707a87"},"vehicle_type_id":"4","last_reported":1744441753,"current_range_meters":11200,"station_id":"ce4bgvp2rcd13ifvqct0","pricing_plan_id":"cebpf4jnsgd1na2vs0mg"},{"bike_id":"1d756239-d4a3-4049-bdd2-ce061b4abe48","system_id":"levelo_inurba_marseille","lat":43.24161,"lon":5.39717,"is_reserved":false,"is_disabled":false,"rental_uris":{"android":"levelo://app?vid=1d756239-d4a3-4049-bdd2-ce061b4abe48","ios":"levelo://app?vid=1d756239-d4a3-4049-bdd2-ce061b4abe48"},"vehicle_type_id":"4","last_reported":1744441753,"current_range_meters":11600,"station_id":"ce4bhn12rcd13ifvqgpg","pricing_plan_id":"cebpf4jnsgd1na2vs0mg"},{"bike_id":"e969488d-14ef-497d-82f7-7bfa655804e9","system_id":"levelo_inurba_marseille","lat":43.25,"lon":5.38922,"is_reserved":false,"is_disabled":false,"rental_uris":{"android":"levelo://app?vid=e969488d-14ef-497d-82f7-7bfa655804e9","ios":"levelo://app?vid=e969488d-14ef-497d-82f7-7bfa655804e9"},"vehicle_type_id":"4","last_reported":1744441753,"current_range_meters":11200,"station_id":"ce4bhgp2rcd13ifvqfd0","pricing_plan_id":"cebpf4jnsgd1na2vs0mg"},{"bike_id":"c013d600-5e08-48f0-830e-8c965978436b","system_id":"levelo_inurba_marseille","lat":43.30431,"lon":5.38896,"is_reserved":false,"is_disabled":false,"rental_uris":{"android":"levelo://app?vid=c013d600-5e08-48f0-830e-8c965978436b","ios":"levelo://app?vid=c013d600-5e08-48f0-830e-8c965978436b"},"vehicle_type_id":"4","last_reported":1744441753,"current_range_meters":11600,"station_id":"ce4bgk12rcd13ifvqbi0","pricing_plan_id":"cebpf4jnsgd1na2vs0mg"},{"bike_id":"47df54fa-9868-413c-a07b-a88614eb280e","system_id":"levelo_inurba_marseille","lat":43.27064,"lon":5.40267,"is_reserved":false,"is_disabled":false,"rental_uris":{"android":"levelo://app?vid=47df54fa-9868-413c-a07b-a88614eb280e","ios":"levelo://app?vid=47df54fa-9868-413c-a07b-a88614eb280e"},"vehicle_type_id":"4","last_reported":1744441753,"current_range_meters":11600,"station_id":"ce4bhk92rcd13ifvqgc0","pricing_plan_id":"cebpf4jnsgd1na2vs0mg"},{"bike_id":"29fd9406-b872-4408-b90c-f1d9e5190468","system_id":"levelo_inurba_marseille","lat":43.23142,"lon":5.43712,"is_reserved":false,"is_disabled":false,"rental_uris":{"android":"levelo://app?vid=29fd9406-b872-4408-b90c-f1d9e5190468","ios":"levelo://app?vid=29fd9406-b872-4408-b90c-f1d9e5190468"},"vehicle_type_id":"4","last_reported":1744441753,"current_range_meters":11600,"station_id":"ce4bhmp2rcd13ifvqgog","pricing_plan_id":"cebpf4jnsgd1na2vs0mg"},{"bike_id":"639201f0-47a7-4504-a4be-a892419e8ebf","system_id":"levelo_inurba_marseille","lat":43.27937,"lon":5.41046,"is_reserved":false,"is_disabled":false,"rental_uris":{"android":"levelo://app?vid=639201f0-47a7-4504-a4be-a892419e8ebf","ios":"levelo://app?vid=639201f0-47a7-4504-a4be-a892419e8ebf"},"vehicle_type_id":"4","last_reported":1744441753,"current_range_meters":11600,"station_id":"ce4bhnp2rcd13ifvqh0g","pricing_plan_id":"cebpf4jnsgd1na2vs0mg"},{"bike_id":"bfb2c659-3d42-47a4-9a9e-9d3da710fbc4","system_id":"levelo_inurba_marseille","lat":43.29192,"lon":5.35797,"is_reserved":false,"is_disabled":false,"rental_uris":{"android":"levelo://app?vid=bfb2c659-3d42-47a4-9a9e-9d3da710fbc4","ios":"levelo://app?vid=bfb2c659-3d42-47a4-9a9e-9d3da710fbc4"},"vehicle_type_id":"4","last_reported":1744441753,"current_range_meters":12000,"station_id":"ce4bhb12rcd13ifvqel0","pricing_plan_id":"cebpf4jnsgd1na2vs0mg"},{"bike_id":"15f8c481-5ec3-42a7-b25f-f4089fa537c4","system_id":"levelo_inurba_marseille","lat":43.24176,"lon":5.39729,"is_reserved":false,"is_disabled":false,"rental_uris":{"android":"levelo://app?vid=15f8c481-5ec3-42a7-b25f-f4089fa537c4","ios":"levelo://app?vid=15f8c481-5ec3-42a7-b25f-f4089fa537c4"},"vehicle_type_id":"4","last_reported":1744441753,"current_range_meters":12000,"station_id":"ce4bhn12rcd13ifvqgpg","pricing_plan_id":"cebpf4jnsgd1na2vs0mg"},{"bike_id":"ef291804-1477-432e-b153-82ea15725418","system_id":"levelo_inurba_marseille","lat":43.33742,"lon":5.37454,"is_reserved":false,"is_disabled":false,"rental_uris":{"android":"levelo://app?vid=ef291804-1477-432e-b153-82ea15725418","ios":"levelo://app?vid=ef291804-1477-432e-b153-82ea15725418"},"vehicle_type_id":"4","last_reported":1744441753,"current_range_meters":12000,"station_id":"","pricing_plan_id":"cebpf4jnsgd1na2vs0mg"},{"bike_id":"2e845506-0ec9-43b5-9c91-deaab92936dd","system_id":"levelo_inurba_marseille","lat":43.25729,"lon":5.41155,"is_reserved":false,"is_disabled":false,"rental_uris":{"android":"levelo://app?vid=2e845506-0ec9-43b5-9c91-deaab92936dd","ios":"levelo://app?vid=2e845506-0ec9-43b5-9c91-deaab92936dd"},"vehicle_type_id":"4","last_reported":1744441753,"current_range_meters":12000,"station_id":"ce4bhkp2rcd13ifvqgd0","pricing_plan_id":"cebpf4jnsgd1na2vs0mg"},{"bike_id":"2b02df73-fc0b-4244-8ce5-cd6ae7ba5c74","system_id":"levelo_inurba_marseille","lat":43.29915,"lon":5.37473,"is_reserved":false,"is_disabled":false,"rental_uris":{"android":"levelo://app?vid=2b02df73-fc0b-4244-8ce5-cd6ae7ba5c74","ios":"levelo://app?vid=2b02df73-fc0b-4244-8ce5-cd6ae7ba5c74"},"vehicle_type_id":"4","last_reported":1744441753,"current_range_meters":12000,"station_id":"ce4bgjh2rcd13ifvqbg0","pricing_plan_id":"cebpf4jnsgd1na2vs0mg"},{"bike_id":"cfa05593-02c0-4361-b7cb-d147d92b27a4","system_id":"levelo_inurba_marseille","lat":43.24152,"lon":5.36392,"is_reserved":false,"is_disabled":false,"rental_uris":{"android":"levelo://app?vid=cfa05593-02c0-4361-b7cb-d147d92b27a4","ios":"levelo://app?vid=cfa05593-02c0-4361-b7cb-d147d92b27a4"},"vehicle_type_id":"4","last_reported":1744441753,"current_range_meters":12400,"station_id":"cpo36qri1sfpv3e86is0","pricing_plan_id":"cebpf4jnsgd1na2vs0mg"},{"bike_id":"d38e0e5e-1441-423a-9774-3196b1a1cb17","system_id":"levelo_inurba_marseille","lat":43.30034,"lon":5.3999,"is_reserved":false,"is_disabled":false,"rental_uris":{"android":"levelo://app?vid=d38e0e5e-1441-423a-9774-3196b1a1cb17","ios":"levelo://app?vid=d38e0e5e-1441-423a-9774-3196b1a1cb17"},"vehicle_type_id":"4","last_reported":1744441753,"current_range_meters":12400,"station_id":"","pricing_plan_id":"cebpf4jnsgd1na2vs0mg"},{"bike_id":"72008f80-264b-4684-91b7-bafdcee25ea0","system_id":"levelo_inurba_marseille","lat":43.28051,"lon":5.36937,"is_reserved":false,"is_disabled":false,"rental_uris":{"android":"levelo://app?vid=72008f80-264b-4684-91b7-bafdcee25ea0","ios":"levelo://app?vid=72008f80-264b-4684-91b7-bafdcee25ea0"},"vehicle_type_id":"4","last_reported":1744441753,"current_range_meters":12400,"station_id":"ce4bha12rcd13ifvqef0","pricing_plan_id":"cebpf4jnsgd1na2vs0mg"},{"bike_id":"a314c335-a251-4975-b772-9aab21153591","system_id":"levelo_inurba_marseille","lat":43.25809,"lon":5.39452,"is_reserved":false,"is_disabled":false,"rental_uris":{"android":"levelo://app?vid=a314c335-a251-4975-b772-9aab21153591","ios":"levelo://app?vid=a314c335-a251-4975-b772-9aab21153591"},"vehicle_type_id":"4","last_reported":1744441753,"current_range_meters":12400,"station_id":"ce4bhip2rcd13ifvqft0","pricing_plan_id":"cebpf4jnsgd1na2vs0mg"},{"bike_id":"a8d99482-a057-469f-bd2e-b289d8ded2a5","system_id":"levelo_inurba_marseille","lat":43.29821,"lon":5.40399,"is_reserved":false,"is_disabled":false,"rental_uris":{"android":"levelo://app?vid=a8d99482-a057-469f-bd2e-b289d8ded2a5","ios":"levelo://app?vid=a8d99482-a057-469f-bd2e-b289d8ded2a5"},"vehicle_type_id":"4","last_reported":1744441753,"current_range_meters":12400,"station_id":"ce4bh112rcd13ifvqd90","pricing_plan_id":"cebpf4jnsgd1na2vs0mg"},{"bike_id":"c9aa49b6-dfff-45a5-aada-a9b66a79c5ac","system_id":"levelo_inurba_marseille","lat":43.24674,"lon":5.38164,"is_reserved":false,"is_disabled":false,"rental_uris":{"android":"levelo://app?vid=c9aa49b6-dfff-45a5-aada-a9b66a79c5ac","ios":"levelo://app?vid=c9aa49b6-dfff-45a5-aada-a9b66a79c5ac"},"vehicle_type_id":"4","last_reported":1744441753,"current_range_meters":12800,"station_id":"ce4bhih2rcd13ifvqfr0","pricing_plan_id":"cebpf4jnsgd1na2vs0mg"},{"bike_id":"f7d1eee0-1715-419d-beac-1b98ec9e62ed","system_id":"levelo_inurba_marseille","lat":43.30955,"lon":5.39056,"is_reserved":false,"is_disabled":true,"rental_uris":{"android":"levelo://app?vid=f7d1eee0-1715-419d-beac-1b98ec9e62ed","ios":"levelo://app?vid=f7d1eee0-1715-419d-beac-1b98ec9e62ed"},"vehicle_type_id":"4","last_reported":1744441753,"current_range_meters":12800,"station_id":"ce4bgup2rcd13ifvqco0","pricing_plan_id":"cebpf4jnsgd1na2vs0mg"},{"bike_id":"e071258e-77bd-49c5-9a15-372d91036f1f","system_id":"levelo_inurba_marseille","lat":43.29941,"lon":5.36551,"is_reserved":false,"is_disabled":false,"rental_uris":{"android":"levelo://app?vid=e071258e-77bd-49c5-9a15-372d91036f1f","ios":"levelo://app?vid=e071258e-77bd-49c5-9a15-372d91036f1f"},"vehicle_type_id":"4","last_reported":1744441753,"current_range_meters":12800,"station_id":"ce4bgm92rcd13ifvqbr0","pricing_plan_id":"cebpf4jnsgd1na2vs0mg"},{"bike_id":"0e7bf4ae-5aed-4055-a1f8-96debbb9847e","system_id":"levelo_inurba_marseille","lat":43.24159,"lon":5.364,"is_reserved":false,"is_disabled":true,"rental_uris":{"android":"levelo://app?vid=0e7bf4ae-5aed-4055-a1f8-96debbb9847e","ios":"levelo://app?vid=0e7bf4ae-5aed-4055-a1f8-96debbb9847e"},"vehicle_type_id":"4","last_reported":1744441753,"current_range_meters":12800,"station_id":"cpo36qri1sfpv3e86is0","pricing_plan_id":"cebpf4jnsgd1na2vs0mg"},{"bike_id":"d8f603cd-3b83-4148-bab8-3a185ad2a59f","system_id":"levelo_inurba_marseille","lat":43.32367,"lon":5.38941,"is_reserved":false,"is_disabled":false,"rental_uris":{"android":"levelo://app?vid=d8f603cd-3b83-4148-bab8-3a185ad2a59f","ios":"levelo://app?vid=d8f603cd-3b83-4148-bab8-3a185ad2a59f"},"vehicle_type_id":"4","last_reported":1744441753,"current_range_meters":13600,"station_id":"ce4bhqp2rcd13ifvqhog","pricing_plan_id":"cebpf4jnsgd1na2vs0mg"},{"bike_id":"6ef441f1-06f7-4c4b-b868-6de3c8a751c3","system_id":"levelo_inurba_marseille","lat":43.29006,"lon":5.35614,"is_reserved":false,"is_disabled":false,"rental_uris":{"android":"levelo://app?vid=6ef441f1-06f7-4c4b-b868-6de3c8a751c3","ios":"levelo://app?vid=6ef441f1-06f7-4c4b-b868-6de3c8a751c3"},"vehicle_type_id":"4","last_reported":1744441753,"current_range_meters":13600,"station_id":"ce4bhb92rcd13ifvqen0","pricing_plan_id":"cebpf4jnsgd1na2vs0mg"},{"bike_id":"9145946e-59e1-420d-9f32-4fce0d813211","system_id":"levelo_inurba_marseille","lat":43.25721,"lon":5.41095,"is_reserved":false,"is_disabled":false,"rental_uris":{"android":"levelo://app?vid=9145946e-59e1-420d-9f32-4fce0d813211","ios":"levelo://app?vid=9145946e-59e1-420d-9f32-4fce0d813211"},"vehicle_type_id":"4","last_reported":1744441753,"current_range_meters":13600,"station_id":"ce4bhkp2rcd13ifvqgd0","pricing_plan_id":"cebpf4jnsgd1na2vs0mg"},{"bike_id":"047e2d26-c924-4ec8-ab9b-033cb13956a5","system_id":"levelo_inurba_marseille","lat":43.30602,"lon":5.37245,"is_reserved":false,"is_disabled":false,"rental_uris":{"android":"levelo://app?vid=047e2d26-c924-4ec8-ab9b-033cb13956a5","ios":"levelo://app?vid=047e2d26-c924-4ec8-ab9b-033cb13956a5"},"vehicle_type_id":"4","last_reported":1744441753,"current_range_meters":13600,"station_id":"ce4bgqh2rcd13ifvqc4g","pricing_plan_id":"cebpf4jnsgd1na2vs0mg"},{"bike_id":"5b77a833-8185-45c2-9fe3-07eb40df54ca","system_id":"levelo_inurba_marseille","lat":43.33995,"lon":5.38057,"is_reserved":false,"is_disabled":false,"rental_uris":{"android":"levelo://app?vid=5b77a833-8185-45c2-9fe3-07eb40df54ca","ios":"levelo://app?vid=5b77a833-8185-45c2-9fe3-07eb40df54ca"},"vehicle_type_id":"4","last_reported":1744441753,"current_range_meters":13600,"station_id":"","pricing_plan_id":"cebpf4jnsgd1na2vs0mg"},{"bike_id":"96609dea-246d-449d-bfba-212fadbe7075","system_id":"levelo_inurba_marseille","lat":43.29224,"lon":5.36062,"is_reserved":false,"is_disabled":false,"rental_uris":{"android":"levelo://app?vid=96609dea-246d-449d-bfba-212fadbe7075","ios":"levelo://app?vid=96609dea-246d-449d-bfba-212fadbe7075"},"vehicle_type_id":"4","last_reported":1744441753,"current_range_meters":14000,"station_id":"ce4bhbh2rcd13ifvqeqg","pricing_plan_id":"cebpf4jnsgd1na2vs0mg"},{"bike_id":"f1156f3a-0f56-4f66-b201-9f61c3049e13","system_id":"levelo_inurba_marseille","lat":43.29498,"lon":5.39046,"is_reserved":false,"is_disabled":false,"rental_uris":{"android":"levelo://app?vid=f1156f3a-0f56-4f66-b201-9f61c3049e13","ios":"levelo://app?vid=f1156f3a-0f56-4f66-b201-9f61c3049e13"},"vehicle_type_id":"4","last_reported":1744441753,"current_range_meters":14000,"station_id":"ce4bh3p2rcd13ifvqdp0","pricing_plan_id":"cebpf4jnsgd1na2vs0mg"},{"bike_id":"ec60b769-c06b-4e12-b095-823ea8034735","system_id":"levelo_inurba_marseille","lat":43.30318,"lon":5.40445,"is_reserved":false,"is_disabled":false,"rental_uris":{"android":"levelo://app?vid=ec60b769-c06b-4e12-b095-823ea8034735","ios":"levelo://app?vid=ec60b769-c06b-4e12-b095-823ea8034735"},"vehicle_type_id":"4","last_reported":1744441753,"current_range_meters":14400,"station_id":"ce4bh012rcd13ifvqd10","pricing_plan_id":"cebpf4jnsgd1na2vs0mg"},{"bike_id":"3383469d-bf04-4b83-befe-8d91b97ef6f7","system_id":"levelo_inurba_marseille","lat":43.32149,"lon":5.37959,"is_reserved":false,"is_disabled":false,"rental_uris":{"android":"levelo://app?vid=3383469d-bf04-4b83-befe-8d91b97ef6f7","ios":"levelo://app?vid=3383469d-bf04-4b83-befe-8d91b97ef6f7"},"vehicle_type_id":"4","last_reported":1744441753,"current_range_meters":14400,"station_id":"","pricing_plan_id":"cebpf4jnsgd1na2vs0mg"},{"bike_id":"61bc6256-8380-4638-bd27-1e2c56ecc87d","system_id":"levelo_inurba_marseille","lat":43.29688,"lon":5.37685,"is_reserved":false,"is_disabled":false,"rental_uris":{"android":"levelo://app?vid=61bc6256-8380-4638-bd27-1e2c56ecc87d","ios":"levelo://app?vid=61bc6256-8380-4638-bd27-1e2c56ecc87d"},"vehicle_type_id":"4","last_reported":1744441753,"current_range_meters":14400,"station_id":"ce4bgkh2rcd13ifvqbl0","pricing_plan_id":"cebpf4jnsgd1na2vs0mg"},{"bike_id":"f5978509-db06-47ea-8b21-850d320f3654","system_id":"levelo_inurba_marseille","lat":43.30398,"lon":5.41293,"is_reserved":false,"is_disabled":false,"rental_uris":{"android":"levelo://app?vid=f5978509-db06-47ea-8b21-850d320f3654","ios":"levelo://app?vid=f5978509-db06-47ea-8b21-850d320f3654"},"vehicle_type_id":"4","last_reported":1744441753,"current_range_meters":14800,"station_id":"ce4bhop2rcd13ifvqh8g","pricing_plan_id":"cebpf4jnsgd1na2vs0mg"},{"bike_id":"2f5bc015-0a98-4a0d-a50f-f7181e1d6abe","system_id":"levelo_inurba_marseille","lat":43.23383,"lon":5.41234,"is_reserved":false,"is_disabled":false,"rental_uris":{"android":"levelo://app?vid=2f5bc015-0a98-4a0d-a50f-f7181e1d6abe","ios":"levelo://app?vid=2f5bc015-0a98-4a0d-a50f-f7181e1d6abe"},"vehicle_type_id":"4","last_reported":1744441753,"current_range_meters":14800,"station_id":"","pricing_plan_id":"cebpf4jnsgd1na2vs0mg"},{"bike_id":"493cde9e-7859-4c26-a2e6-f744ee5d8553","system_id":"levelo_inurba_marseille","lat":43.31802,"lon":5.36832,"is_reserved":false,"is_disabled":false,"rental_uris":{"android":"levelo://app?vid=493cde9e-7859-4c26-a2e6-f744ee5d8553","ios":"levelo://app?vid=493cde9e-7859-4c26-a2e6-f744ee5d8553"},"vehicle_type_id":"4","last_reported":1744441753,"current_range_meters":14800,"station_id":"","pricing_plan_id":"cebpf4jnsgd1na2vs0mg"},{"bike_id":"0f0bbc91-b617-454f-9cfa-90d9ac38a763","system_id":"levelo_inurba_marseille","lat":43.30789,"lon":5.37657,"is_reserved":false,"is_disabled":false,"rental_uris":{"android":"levelo://app?vid=0f0bbc91-b617-454f-9cfa-90d9ac38a763","ios":"levelo://app?vid=0f0bbc91-b617-454f-9cfa-90d9ac38a763"},"vehicle_type_id":"4","last_reported":1744441753,"current_range_meters":14800,"station_id":"ce4bgv92rcd13ifvqcq0","pricing_plan_id":"cebpf4jnsgd1na2vs0mg"},{"bike_id":"58746f7a-9dd0-4440-ba8f-b23a461dbd7d","system_id":"levelo_inurba_marseille","lat":43.28674,"lon":5.38678,"is_reserved":false,"is_disabled":false,"rental_uris":{"android":"levelo://app?vid=58746f7a-9dd0-4440-ba8f-b23a461dbd7d","ios":"levelo://app?vid=58746f7a-9dd0-4440-ba8f-b23a461dbd7d"},"vehicle_type_id":"4","last_reported":1744441753,"current_range_meters":14800,"station_id":"ce4bh492rcd13ifvqdug","pricing_plan_id":"cebpf4jnsgd1na2vs0mg"},{"bike_id":"90cddebc-2506-42ee-9df1-36a6154dff75","system_id":"levelo_inurba_marseille","lat":43.24166,"lon":5.36422,"is_reserved":false,"is_disabled":false,"rental_uris":{"android":"levelo://app?vid=90cddebc-2506-42ee-9df1-36a6154dff75","ios":"levelo://app?vid=90cddebc-2506-42ee-9df1-36a6154dff75"},"vehicle_type_id":"4","last_reported":1744441753,"current_range_meters":14800,"station_id":"cpo36qri1sfpv3e86is0","pricing_plan_id":"cebpf4jnsgd1na2vs0mg"},{"bike_id":"88749d90-8770-41b8-bdcd-6fbbf0b2e167","system_id":"levelo_inurba_marseille","lat":43.2593,"lon":5.40895,"is_reserved":false,"is_disabled":false,"rental_uris":{"android":"levelo://app?vid=88749d90-8770-41b8-bdcd-6fbbf0b2e167","ios":"levelo://app?vid=88749d90-8770-41b8-bdcd-6fbbf0b2e167"},"vehicle_type_id":"4","last_reported":1744441753,"current_range_meters":15200,"station_id":"ce4bhm92rcd13ifvqglg","pricing_plan_id":"cebpf4jnsgd1na2vs0mg"},{"bike_id":"0ba9d0cc-ce32-477f-be98-1e07250dde09","system_id":"levelo_inurba_marseille","lat":43.30664,"lon":5.40061,"is_reserved":false,"is_disabled":false,"rental_uris":{"android":"levelo://app?vid=0ba9d0cc-ce32-477f-be98-1e07250dde09","ios":"levelo://app?vid=0ba9d0cc-ce32-477f-be98-1e07250dde09"},"vehicle_type_id":"4","last_reported":1744441753,"current_range_meters":15200,"station_id":"ce4bh112rcd13ifvqda0","pricing_plan_id":"cebpf4jnsgd1na2vs0mg"},{"bike_id":"a5ef902d-c8ee-418f-976b-ad30eed26e1c","system_id":"levelo_inurba_marseille","lat":43.28087,"lon":5.37863,"is_reserved":false,"is_disabled":false,"rental_uris":{"android":"levelo://app?vid=a5ef902d-c8ee-418f-976b-ad30eed26e1c","ios":"levelo://app?vid=a5ef902d-c8ee-418f-976b-ad30eed26e1c"},"vehicle_type_id":"4","last_reported":1744441753,"current_range_meters":15200,"station_id":"ce4bha12rcd13ifvqee0","pricing_plan_id":"cebpf4jnsgd1na2vs0mg"},{"bike_id":"faa47fa3-4737-426d-a021-4b787008aea9","system_id":"levelo_inurba_marseille","lat":43.31254,"lon":5.40182,"is_reserved":false,"is_disabled":false,"rental_uris":{"android":"levelo://app?vid=faa47fa3-4737-426d-a021-4b787008aea9","ios":"levelo://app?vid=faa47fa3-4737-426d-a021-4b787008aea9"},"vehicle_type_id":"4","last_reported":1744441753,"current_range_meters":15200,"station_id":"ce4bh092rcd13ifvqd30","pricing_plan_id":"cebpf4jnsgd1na2vs0mg"},{"bike_id":"f7843f46-58aa-4cf6-a1d0-1b94b16f71c2","system_id":"levelo_inurba_marseille","lat":43.29842,"lon":5.39664,"is_reserved":false,"is_disabled":false,"rental_uris":{"android":"levelo://app?vid=f7843f46-58aa-4cf6-a1d0-1b94b16f71c2","ios":"levelo://app?vid=f7843f46-58aa-4cf6-a1d0-1b94b16f71c2"},"vehicle_type_id":"4","last_reported":1744441753,"current_range_meters":16000,"station_id":"","pricing_plan_id":"cebpf4jnsgd1na2vs0mg"},{"bike_id":"ddfb92ce-d20d-4336-b6a0-56e0540b65c6","system_id":"levelo_inurba_marseille","lat":43.28578,"lon":5.39496,"is_reserved":false,"is_disabled":true,"rental_uris":{"android":"levelo://app?vid=ddfb92ce-d20d-4336-b6a0-56e0540b65c6","ios":"levelo://app?vid=ddfb92ce-d20d-4336-b6a0-56e0540b65c6"},"vehicle_type_id":"4","last_reported":1744441753,"current_range_meters":16000,"station_id":"ce4bh292rcd13ifvqdg0","pricing_plan_id":"cebpf4jnsgd1na2vs0mg"},{"bike_id":"04697f1c-f402-4cec-ad92-d8e40094fc77","system_id":"levelo_inurba_marseille","lat":43.312744,"lon":5.401759,"is_reserved":false,"is_disabled":false,"rental_uris":{"android":"levelo://app?vid=04697f1c-f402-4cec-ad92-d8e40094fc77","ios":"levelo://app?vid=04697f1c-f402-4cec-ad92-d8e40094fc77"},"vehicle_type_id":"4","last_reported":1744441753,"current_range_meters":16000,"station_id":"ce4bh092rcd13ifvqd30","pricing_plan_id":"cebpf4jnsgd1na2vs0mg"},{"bike_id":"3e64ba0d-bb65-4d6e-9f9c-8236f65520bd","system_id":"levelo_inurba_marseille","lat":43.3035,"lon":5.38587,"is_reserved":false,"is_disabled":false,"rental_uris":{"android":"levelo://app?vid=3e64ba0d-bb65-4d6e-9f9c-8236f65520bd","ios":"levelo://app?vid=3e64ba0d-bb65-4d6e-9f9c-8236f65520bd"},"vehicle_type_id":"4","last_reported":1744441753,"current_range_meters":16000,"station_id":"","pricing_plan_id":"cebpf4jnsgd1na2vs0mg"},{"bike_id":"a43a47e0-ea2e-45d3-909a-7843b1a7d26c","system_id":"levelo_inurba_marseille","lat":43.3119,"lon":5.36856,"is_reserved":false,"is_disabled":false,"rental_uris":{"android":"levelo://app?vid=a43a47e0-ea2e-45d3-909a-7843b1a7d26c","ios":"levelo://app?vid=a43a47e0-ea2e-45d3-909a-7843b1a7d26c"},"vehicle_type_id":"4","last_reported":1744441753,"current_range_meters":16000,"station_id":"ce4bgl92rcd13ifvqbq0","pricing_plan_id":"cebpf4jnsgd1na2vs0mg"},{"bike_id":"2a768501-9320-4bc9-a417-15b58706b922","system_id":"levelo_inurba_marseille","lat":43.27561,"lon":5.38435,"is_reserved":false,"is_disabled":false,"rental_uris":{"android":"levelo://app?vid=2a768501-9320-4bc9-a417-15b58706b922","ios":"levelo://app?vid=2a768501-9320-4bc9-a417-15b58706b922"},"vehicle_type_id":"4","last_reported":1744441753,"current_range_meters":16000,"station_id":"ce4bhh92rcd13ifvqfi0","pricing_plan_id":"cebpf4jnsgd1na2vs0mg"},{"bike_id":"a5d137fa-283d-4f94-822e-c26529ef4836","system_id":"levelo_inurba_marseille","lat":43.28834,"lon":5.35852,"is_reserved":false,"is_disabled":true,"rental_uris":{"android":"levelo://app?vid=a5d137fa-283d-4f94-822e-c26529ef4836","ios":"levelo://app?vid=a5d137fa-283d-4f94-822e-c26529ef4836"},"vehicle_type_id":"4","last_reported":1744441753,"current_range_meters":16400,"station_id":"ce4bhb12rcd13ifvqem0","pricing_plan_id":"cebpf4jnsgd1na2vs0mg"},{"bike_id":"073f07c1-2207-4f4e-95a5-1a4c8bf3a4ea","system_id":"levelo_inurba_marseille","lat":43.26224,"lon":5.40453,"is_reserved":false,"is_disabled":false,"rental_uris":{"android":"levelo://app?vid=073f07c1-2207-4f4e-95a5-1a4c8bf3a4ea","ios":"levelo://app?vid=073f07c1-2207-4f4e-95a5-1a4c8bf3a4ea"},"vehicle_type_id":"4","last_reported":1744441753,"current_range_meters":16400,"station_id":"ce4bhmh2rcd13ifvqgmg","pricing_plan_id":"cebpf4jnsgd1na2vs0mg"},{"bike_id":"9cf87fb0-cff5-4ebe-a637-84289ad55a45","system_id":"levelo_inurba_marseille","lat":43.295247,"lon":5.39037,"is_reserved":false,"is_disabled":false,"rental_uris":{"android":"levelo://app?vid=9cf87fb0-cff5-4ebe-a637-84289ad55a45","ios":"levelo://app?vid=9cf87fb0-cff5-4ebe-a637-84289ad55a45"},"vehicle_type_id":"4","last_reported":1744441753,"current_range_meters":16400,"station_id":"ce4bh3p2rcd13ifvqdp0","pricing_plan_id":"cebpf4jnsgd1na2vs0mg"},{"bike_id":"7f644a61-24f9-4d37-acb8-2899f669d662","system_id":"levelo_inurba_marseille","lat":43.29625,"lon":5.3773,"is_reserved":false,"is_disabled":false,"rental_uris":{"android":"levelo://app?vid=7f644a61-24f9-4d37-acb8-2899f669d662","ios":"levelo://app?vid=7f644a61-24f9-4d37-acb8-2899f669d662"},"vehicle_type_id":"4","last_reported":1744441753,"current_range_meters":16400,"station_id":"ce4bgi92rcd13ifvqb90","pricing_plan_id":"cebpf4jnsgd1na2vs0mg"},{"bike_id":"105397ee-6cc6-477a-93a9-82999179f7fc","system_id":"levelo_inurba_marseille","lat":43.293728,"lon":5.378843,"is_reserved":false,"is_disabled":false,"rental_uris":{"android":"levelo://app?vid=105397ee-6cc6-477a-93a9-82999179f7fc","ios":"levelo://app?vid=105397ee-6cc6-477a-93a9-82999179f7fc"},"vehicle_type_id":"4","last_reported":1744441753,"current_range_meters":16400,"station_id":"ce4bgjh2rcd13ifvqbf0","pricing_plan_id":"cebpf4jnsgd1na2vs0mg"},{"bike_id":"912f62b3-de73-4f21-a57b-0b06972881fd","system_id":"levelo_inurba_marseille","lat":43.29195,"lon":5.39324,"is_reserved":false,"is_disabled":false,"rental_uris":{"android":"levelo://app?vid=912f62b3-de73-4f21-a57b-0b06972881fd","ios":"levelo://app?vid=912f62b3-de73-4f21-a57b-0b06972881fd"},"vehicle_type_id":"4","last_reported":1744441753,"current_range_meters":16400,"station_id":"ce4bh192rcd13ifvqdd0","pricing_plan_id":"cebpf4jnsgd1na2vs0mg"},{"bike_id":"9c2e56bd-2b20-4e10-bdad-a43b3a4c4d78","system_id":"levelo_inurba_marseille","lat":43.27935,"lon":5.41069,"is_reserved":false,"is_disabled":false,"rental_uris":{"android":"levelo://app?vid=9c2e56bd-2b20-4e10-bdad-a43b3a4c4d78","ios":"levelo://app?vid=9c2e56bd-2b20-4e10-bdad-a43b3a4c4d78"},"vehicle_type_id":"4","last_reported":1744441753,"current_range_meters":16400,"station_id":"ce4bhnp2rcd13ifvqh0g","pricing_plan_id":"cebpf4jnsgd1na2vs0mg"},{"bike_id":"eb1d4b7d-30fc-495b-a6a7-af63f85b9171","system_id":"levelo_inurba_marseille","lat":43.30108,"lon":5.3907,"is_reserved":false,"is_disabled":false,"rental_uris":{"android":"levelo://app?vid=eb1d4b7d-30fc-495b-a6a7-af63f85b9171","ios":"levelo://app?vid=eb1d4b7d-30fc-495b-a6a7-af63f85b9171"},"vehicle_type_id":"4","last_reported":1744441753,"current_range_meters":16400,"station_id":"ce4bh192rcd13ifvqdb0","pricing_plan_id":"cebpf4jnsgd1na2vs0mg"},{"bike_id":"f1a81939-e24e-4b4d-bb9f-d960ee871735","system_id":"levelo_inurba_marseille","lat":43.24173,"lon":5.39706,"is_reserved":false,"is_disabled":true,"rental_uris":{"android":"levelo://app?vid=f1a81939-e24e-4b4d-bb9f-d960ee871735","ios":"levelo://app?vid=f1a81939-e24e-4b4d-bb9f-d960ee871735"},"vehicle_type_id":"4","last_reported":1744441753,"current_range_meters":16400,"station_id":"ce4bhn12rcd13ifvqgpg","pricing_plan_id":"cebpf4jnsgd1na2vs0mg"},{"bike_id":"7cfc985a-caf3-40bb-840d-c6a0b61b2ce0","system_id":"levelo_inurba_marseille","lat":43.30465,"lon":5.37903,"is_reserved":false,"is_disabled":false,"rental_uris":{"android":"levelo://app?vid=7cfc985a-caf3-40bb-840d-c6a0b61b2ce0","ios":"levelo://app?vid=7cfc985a-caf3-40bb-840d-c6a0b61b2ce0"},"vehicle_type_id":"4","last_reported":1744441753,"current_range_meters":16400,"station_id":"ce4bgup2rcd13ifvqcn0","pricing_plan_id":"cebpf4jnsgd1na2vs0mg"},{"bike_id":"7a158ba0-3247-4869-8550-eefb990c046b","system_id":"levelo_inurba_marseille","lat":43.27958,"lon":5.41051,"is_reserved":false,"is_disabled":false,"rental_uris":{"android":"levelo://app?vid=7a158ba0-3247-4869-8550-eefb990c046b","ios":"levelo://app?vid=7a158ba0-3247-4869-8550-eefb990c046b"},"vehicle_type_id":"4","last_reported":1744441753,"current_range_meters":16400,"station_id":"ce4bhnp2rcd13ifvqh0g","pricing_plan_id":"cebpf4jnsgd1na2vs0mg"},{"bike_id":"f6870c00-473a-40e5-a7e6-3a2a8e252b2c","system_id":"levelo_inurba_marseille","lat":43.24152,"lon":5.36415,"is_reserved":false,"is_disabled":false,"rental_uris":{"android":"levelo://app?vid=f6870c00-473a-40e5-a7e6-3a2a8e252b2c","ios":"levelo://app?vid=f6870c00-473a-40e5-a7e6-3a2a8e252b2c"},"vehicle_type_id":"4","last_reported":1744441753,"current_range_meters":16800,"station_id":"cpo36qri1sfpv3e86is0","pricing_plan_id":"cebpf4jnsgd1na2vs0mg"},{"bike_id":"61a3d5d1-9d16-4507-a934-21de523ba06e","system_id":"levelo_inurba_marseille","lat":43.29688,"lon":5.36749,"is_reserved":false,"is_disabled":false,"rental_uris":{"android":"levelo://app?vid=61a3d5d1-9d16-4507-a934-21de523ba06e","ios":"levelo://app?vid=61a3d5d1-9d16-4507-a934-21de523ba06e"},"vehicle_type_id":"4","last_reported":1744441753,"current_range_meters":16800,"station_id":"","pricing_plan_id":"cebpf4jnsgd1na2vs0mg"},{"bike_id":"2f08f388-8bf5-4764-ac6b-af318ddbcd1a","system_id":"levelo_inurba_marseille","lat":43.25721,"lon":5.41105,"is_reserved":false,"is_disabled":false,"rental_uris":{"android":"levelo://app?vid=2f08f388-8bf5-4764-ac6b-af318ddbcd1a","ios":"levelo://app?vid=2f08f388-8bf5-4764-ac6b-af318ddbcd1a"},"vehicle_type_id":"4","last_reported":1744441753,"current_range_meters":16800,"station_id":"ce4bhkp2rcd13ifvqgd0","pricing_plan_id":"cebpf4jnsgd1na2vs0mg"},{"bike_id":"048de837-7464-4706-a095-e4bff09b9116","system_id":"levelo_inurba_marseille","lat":43.32344,"lon":5.40625,"is_reserved":false,"is_disabled":false,"rental_uris":{"android":"levelo://app?vid=048de837-7464-4706-a095-e4bff09b9116","ios":"levelo://app?vid=048de837-7464-4706-a095-e4bff09b9116"},"vehicle_type_id":"4","last_reported":1744441753,"current_range_meters":16800,"station_id":"ce4bhq92rcd13ifvqhjg","pricing_plan_id":"cebpf4jnsgd1na2vs0mg"},{"bike_id":"a945cbf3-38e6-4aa3-9aa1-d414d6c834b5","system_id":"levelo_inurba_marseille","lat":43.31907,"lon":5.40733,"is_reserved":false,"is_disabled":true,"rental_uris":{"android":"levelo://app?vid=a945cbf3-38e6-4aa3-9aa1-d414d6c834b5","ios":"levelo://app?vid=a945cbf3-38e6-4aa3-9aa1-d414d6c834b5"},"vehicle_type_id":"4","last_reported":1744441753,"current_range_meters":16800,"station_id":"ce4bhq12rcd13ifvqhig","pricing_plan_id":"cebpf4jnsgd1na2vs0mg"},{"bike_id":"314429f1-c809-42c0-9c65-97f12ea53ea4","system_id":"levelo_inurba_marseille","lat":43.3086,"lon":5.37323,"is_reserved":false,"is_disabled":false,"rental_uris":{"android":"levelo://app?vid=314429f1-c809-42c0-9c65-97f12ea53ea4","ios":"levelo://app?vid=314429f1-c809-42c0-9c65-97f12ea53ea4"},"vehicle_type_id":"4","last_reported":1744441753,"current_range_meters":16800,"station_id":"","pricing_plan_id":"cebpf4jnsgd1na2vs0mg"},{"bike_id":"bc79a30a-d563-4c6d-8414-022ae8bc29da","system_id":"levelo_inurba_marseille","lat":43.31288,"lon":5.40157,"is_reserved":false,"is_disabled":false,"rental_uris":{"android":"levelo://app?vid=bc79a30a-d563-4c6d-8414-022ae8bc29da","ios":"levelo://app?vid=bc79a30a-d563-4c6d-8414-022ae8bc29da"},"vehicle_type_id":"4","last_reported":1744441753,"current_range_meters":16800,"station_id":"ce4bh092rcd13ifvqd30","pricing_plan_id":"cebpf4jnsgd1na2vs0mg"},{"bike_id":"b3dda8bf-2899-4bd5-8d7e-b862b5348b72","system_id":"levelo_inurba_marseille","lat":43.31889,"lon":5.40766,"is_reserved":false,"is_disabled":true,"rental_uris":{"android":"levelo://app?vid=b3dda8bf-2899-4bd5-8d7e-b862b5348b72","ios":"levelo://app?vid=b3dda8bf-2899-4bd5-8d7e-b862b5348b72"},"vehicle_type_id":"4","last_reported":1744441753,"current_range_meters":16800,"station_id":"ce4bhq12rcd13ifvqhig","pricing_plan_id":"cebpf4jnsgd1na2vs0mg"},{"bike_id":"9ec83034-1f6f-44b9-9fc5-c54efb6768a8","system_id":"levelo_inurba_marseille","lat":43.26258,"lon":5.37584,"is_reserved":false,"is_disabled":true,"rental_uris":{"android":"levelo://app?vid=9ec83034-1f6f-44b9-9fc5-c54efb6768a8","ios":"levelo://app?vid=9ec83034-1f6f-44b9-9fc5-c54efb6768a8"},"vehicle_type_id":"4","last_reported":1744441753,"current_range_meters":16800,"station_id":"","pricing_plan_id":"cebpf4jnsgd1na2vs0mg"},{"bike_id":"c6bcdbcf-eb32-41e9-96c4-8169636d1d14","system_id":"levelo_inurba_marseille","lat":43.29948,"lon":5.37166,"is_reserved":false,"is_disabled":false,"rental_uris":{"android":"levelo://app?vid=c6bcdbcf-eb32-41e9-96c4-8169636d1d14","ios":"levelo://app?vid=c6bcdbcf-eb32-41e9-96c4-8169636d1d14"},"vehicle_type_id":"4","last_reported":1744441753,"current_range_meters":16800,"station_id":"ce4bgr92rcd13ifvqc7g","pricing_plan_id":"cebpf4jnsgd1na2vs0mg"},{"bike_id":"534b5b81-01fb-48e1-8332-0d13dec35f23","system_id":"levelo_inurba_marseille","lat":43.32353,"lon":5.40618,"is_reserved":false,"is_disabled":false,"rental_uris":{"android":"levelo://app?vid=534b5b81-01fb-48e1-8332-0d13dec35f23","ios":"levelo://app?vid=534b5b81-01fb-48e1-8332-0d13dec35f23"},"vehicle_type_id":"4","last_reported":1744441753,"current_range_meters":17200,"station_id":"ce4bhq92rcd13ifvqhjg","pricing_plan_id":"cebpf4jnsgd1na2vs0mg"},{"bike_id":"dc0fc37b-245c-4040-8686-f32b8a543409","system_id":"levelo_inurba_marseille","lat":43.24393,"lon":5.37075,"is_reserved":false,"is_disabled":false,"rental_uris":{"android":"levelo://app?vid=dc0fc37b-245c-4040-8686-f32b8a543409","ios":"levelo://app?vid=dc0fc37b-245c-4040-8686-f32b8a543409"},"vehicle_type_id":"4","last_reported":1744441753,"current_range_meters":17200,"station_id":"ce4bhhh2rcd13ifvqfk0","pricing_plan_id":"cebpf4jnsgd1na2vs0mg"},{"bike_id":"9a50f154-227c-495b-8c95-951351ef5186","system_id":"levelo_inurba_marseille","lat":43.292309,"lon":5.360534,"is_reserved":false,"is_disabled":false,"rental_uris":{"android":"levelo://app?vid=9a50f154-227c-495b-8c95-951351ef5186","ios":"levelo://app?vid=9a50f154-227c-495b-8c95-951351ef5186"},"vehicle_type_id":"4","last_reported":1744441753,"current_range_meters":17200,"station_id":"ce4bhb92rcd13ifvqen0","pricing_plan_id":"cebpf4jnsgd1na2vs0mg"},{"bike_id":"4012a78d-eb1b-44d8-8c36-17909b4ca04e","system_id":"levelo_inurba_marseille","lat":43.31257,"lon":5.40168,"is_reserved":false,"is_disabled":false,"rental_uris":{"android":"levelo://app?vid=4012a78d-eb1b-44d8-8c36-17909b4ca04e","ios":"levelo://app?vid=4012a78d-eb1b-44d8-8c36-17909b4ca04e"},"vehicle_type_id":"4","last_reported":1744441753,"current_range_meters":17200,"station_id":"ce4bh092rcd13ifvqd30","pricing_plan_id":"cebpf4jnsgd1na2vs0mg"},{"bike_id":"0663e361-5ecb-4ca0-bfaa-c01a2f66fe21","system_id":"levelo_inurba_marseille","lat":43.31996,"lon":5.38145,"is_reserved":false,"is_disabled":false,"rental_uris":{"android":"levelo://app?vid=0663e361-5ecb-4ca0-bfaa-c01a2f66fe21","ios":"levelo://app?vid=0663e361-5ecb-4ca0-bfaa-c01a2f66fe21"},"vehicle_type_id":"4","last_reported":1744441753,"current_range_meters":17200,"station_id":"ce4bhr12rcd13ifvqhpg","pricing_plan_id":"cebpf4jnsgd1na2vs0mg"},{"bike_id":"020e9999-d552-48d0-ae5f-b725af0dbea2","system_id":"levelo_inurba_marseille","lat":43.29905,"lon":5.4377,"is_reserved":false,"is_disabled":false,"rental_uris":{"android":"levelo://app?vid=020e9999-d552-48d0-ae5f-b725af0dbea2","ios":"levelo://app?vid=020e9999-d552-48d0-ae5f-b725af0dbea2"},"vehicle_type_id":"4","last_reported":1744441753,"current_range_meters":17200,"station_id":"","pricing_plan_id":"cebpf4jnsgd1na2vs0mg"},{"bike_id":"440c5b43-1d09-4bf2-b49b-0619d44919ca","system_id":"levelo_inurba_marseille","lat":43.2921,"lon":5.39319,"is_reserved":false,"is_disabled":false,"rental_uris":{"android":"levelo://app?vid=440c5b43-1d09-4bf2-b49b-0619d44919ca","ios":"levelo://app?vid=440c5b43-1d09-4bf2-b49b-0619d44919ca"},"vehicle_type_id":"4","last_reported":1744441753,"current_range_meters":17600,"station_id":"ce4bh192rcd13ifvqdd0","pricing_plan_id":"cebpf4jnsgd1na2vs0mg"},{"bike_id":"756f935e-2d26-4f8e-b1ec-0842359f0edd","system_id":"levelo_inurba_marseille","lat":43.279477,"lon":5.410448,"is_reserved":false,"is_disabled":false,"rental_uris":{"android":"levelo://app?vid=756f935e-2d26-4f8e-b1ec-0842359f0edd","ios":"levelo://app?vid=756f935e-2d26-4f8e-b1ec-0842359f0edd"},"vehicle_type_id":"4","last_reported":1744441753,"current_range_meters":17600,"station_id":"ce4bhnp2rcd13ifvqh0g","pricing_plan_id":"cebpf4jnsgd1na2vs0mg"},{"bike_id":"1b4d684a-8525-4dcc-8d4b-0d7f1d3ab0a3","system_id":"levelo_inurba_marseille","lat":43.27848,"lon":5.38496,"is_reserved":false,"is_disabled":false,"rental_uris":{"android":"levelo://app?vid=1b4d684a-8525-4dcc-8d4b-0d7f1d3ab0a3","ios":"levelo://app?vid=1b4d684a-8525-4dcc-8d4b-0d7f1d3ab0a3"},"vehicle_type_id":"4","last_reported":1744441753,"current_range_meters":17600,"station_id":"","pricing_plan_id":"cebpf4jnsgd1na2vs0mg"},{"bike_id":"ec13aa36-feb8-4fc6-a26e-70419bb84a9c","system_id":"levelo_inurba_marseille","lat":43.29262,"lon":5.40171,"is_reserved":false,"is_disabled":false,"rental_uris":{"android":"levelo://app?vid=ec13aa36-feb8-4fc6-a26e-70419bb84a9c","ios":"levelo://app?vid=ec13aa36-feb8-4fc6-a26e-70419bb84a9c"},"vehicle_type_id":"4","last_reported":1744441753,"current_range_meters":17600,"station_id":"ce4bh312rcd13ifvqdk0","pricing_plan_id":"cebpf4jnsgd1na2vs0mg"},{"bike_id":"9a259559-2d3a-4465-82d4-3e775e5d7792","system_id":"levelo_inurba_marseille","lat":43.28077,"lon":5.39655,"is_reserved":false,"is_disabled":false,"rental_uris":{"android":"levelo://app?vid=9a259559-2d3a-4465-82d4-3e775e5d7792","ios":"levelo://app?vid=9a259559-2d3a-4465-82d4-3e775e5d7792"},"vehicle_type_id":"4","last_reported":1744441753,"current_range_meters":17600,"station_id":"ce4bho12rcd13ifvqh2g","pricing_plan_id":"cebpf4jnsgd1na2vs0mg"},{"bike_id":"c42dddff-3fb7-496e-b8a5-07131d2e4777","system_id":"levelo_inurba_marseille","lat":43.24826,"lon":5.37457,"is_reserved":false,"is_disabled":true,"rental_uris":{"android":"levelo://app?vid=c42dddff-3fb7-496e-b8a5-07131d2e4777","ios":"levelo://app?vid=c42dddff-3fb7-496e-b8a5-07131d2e4777"},"vehicle_type_id":"4","last_reported":1744441753,"current_range_meters":17600,"station_id":"ce4bhgh2rcd13ifvqfb0","pricing_plan_id":"cebpf4jnsgd1na2vs0mg"},{"bike_id":"b5e0f5ed-abd8-4590-89cb-9766da61d8a1","system_id":"levelo_inurba_marseille","lat":43.31705,"lon":5.37727,"is_reserved":false,"is_disabled":false,"rental_uris":{"android":"levelo://app?vid=b5e0f5ed-abd8-4590-89cb-9766da61d8a1","ios":"levelo://app?vid=b5e0f5ed-abd8-4590-89cb-9766da61d8a1"},"vehicle_type_id":"4","last_reported":1744441753,"current_range_meters":17600,"station_id":"ce4bgth2rcd13ifvqch0","pricing_plan_id":"cebpf4jnsgd1na2vs0mg"},{"bike_id":"b5325a51-599c-4538-ad32-d93429c0575c","system_id":"levelo_inurba_marseille","lat":43.30615,"lon":5.37252,"is_reserved":false,"is_disabled":false,"rental_uris":{"android":"levelo://app?vid=b5325a51-599c-4538-ad32-d93429c0575c","ios":"levelo://app?vid=b5325a51-599c-4538-ad32-d93429c0575c"},"vehicle_type_id":"4","last_reported":1744441753,"current_range_meters":17600,"station_id":"ce4bgqh2rcd13ifvqc4g","pricing_plan_id":"cebpf4jnsgd1na2vs0mg"},{"bike_id":"cbd077b7-792f-43f2-b760-f4d40dbf06b5","system_id":"levelo_inurba_marseille","lat":43.29934,"lon":5.36549,"is_reserved":false,"is_disabled":false,"rental_uris":{"android":"levelo://app?vid=cbd077b7-792f-43f2-b760-f4d40dbf06b5","ios":"levelo://app?vid=cbd077b7-792f-43f2-b760-f4d40dbf06b5"},"vehicle_type_id":"4","last_reported":1744441753,"current_range_meters":17600,"station_id":"ce4bgm92rcd13ifvqbr0","pricing_plan_id":"cebpf4jnsgd1na2vs0mg"},{"bike_id":"aa66075d-9b75-4298-9acd-38b4971a1eae","system_id":"levelo_inurba_marseille","lat":43.29273,"lon":5.40141,"is_reserved":false,"is_disabled":false,"rental_uris":{"android":"levelo://app?vid=aa66075d-9b75-4298-9acd-38b4971a1eae","ios":"levelo://app?vid=aa66075d-9b75-4298-9acd-38b4971a1eae"},"vehicle_type_id":"4","last_reported":1744441753,"current_range_meters":17600,"station_id":"ce4bh312rcd13ifvqdk0","pricing_plan_id":"cebpf4jnsgd1na2vs0mg"},{"bike_id":"eafb9ca7-0bb6-4d8a-95cc-3632d4ad2457","system_id":"levelo_inurba_marseille","lat":43.26797,"lon":5.4027,"is_reserved":false,"is_disabled":false,"rental_uris":{"android":"levelo://app?vid=eafb9ca7-0bb6-4d8a-95cc-3632d4ad2457","ios":"levelo://app?vid=eafb9ca7-0bb6-4d8a-95cc-3632d4ad2457"},"vehicle_type_id":"4","last_reported":1744441753,"current_range_meters":17600,"station_id":"ce501612rcd8frsf0b60","pricing_plan_id":"cebpf4jnsgd1na2vs0mg"},{"bike_id":"74f20b53-2cb7-4b91-98f1-de444f9394fb","system_id":"levelo_inurba_marseille","lat":43.28742,"lon":5.39964,"is_reserved":false,"is_disabled":false,"rental_uris":{"android":"levelo://app?vid=74f20b53-2cb7-4b91-98f1-de444f9394fb","ios":"levelo://app?vid=74f20b53-2cb7-4b91-98f1-de444f9394fb"},"vehicle_type_id":"4","last_reported":1744441753,"current_range_meters":17600,"station_id":"ce4bho92rcd13ifvqh3g","pricing_plan_id":"cebpf4jnsgd1na2vs0mg"},{"bike_id":"d1862b2c-e49a-4253-8cb5-d4ccdbce3581","system_id":"levelo_inurba_marseille","lat":43.30593,"lon":5.3936,"is_reserved":false,"is_disabled":true,"rental_uris":{"android":"levelo://app?vid=d1862b2c-e49a-4253-8cb5-d4ccdbce3581","ios":"levelo://app?vid=d1862b2c-e49a-4253-8cb5-d4ccdbce3581"},"vehicle_type_id":"4","last_reported":1744441753,"current_range_meters":18000,"station_id":"ce4bh0p2rcd13ifvqd80","pricing_plan_id":"cebpf4jnsgd1na2vs0mg"},{"bike_id":"b55dd5e7-54b2-4035-b945-7b626dd7afc7","system_id":"levelo_inurba_marseille","lat":43.27532,"lon":5.40923,"is_reserved":false,"is_disabled":false,"rental_uris":{"android":"levelo://app?vid=b55dd5e7-54b2-4035-b945-7b626dd7afc7","ios":"levelo://app?vid=b55dd5e7-54b2-4035-b945-7b626dd7afc7"},"vehicle_type_id":"4","last_reported":1744441753,"current_range_meters":18000,"station_id":"","pricing_plan_id":"cebpf4jnsgd1na2vs0mg"},{"bike_id":"982bb1bc-457f-43d7-ae21-85035c856353","system_id":"levelo_inurba_marseille","lat":43.22491,"lon":5.34779,"is_reserved":false,"is_disabled":false,"rental_uris":{"android":"levelo://app?vid=982bb1bc-457f-43d7-ae21-85035c856353","ios":"levelo://app?vid=982bb1bc-457f-43d7-ae21-85035c856353"},"vehicle_type_id":"4","last_reported":1744441753,"current_range_meters":18000,"station_id":"st_cvj5dfep6f1abm77gieg","pricing_plan_id":"cebpf4jnsgd1na2vs0mg"},{"bike_id":"db9cdcec-b5ee-409b-adf3-2fb9b83088c4","system_id":"levelo_inurba_marseille","lat":43.30958,"lon":5.3737,"is_reserved":false,"is_disabled":false,"rental_uris":{"android":"levelo://app?vid=db9cdcec-b5ee-409b-adf3-2fb9b83088c4","ios":"levelo://app?vid=db9cdcec-b5ee-409b-adf3-2fb9b83088c4"},"vehicle_type_id":"4","last_reported":1744441753,"current_range_meters":18000,"station_id":"","pricing_plan_id":"cebpf4jnsgd1na2vs0mg"},{"bike_id":"f5b1490e-7841-4200-b186-30d280315197","system_id":"levelo_inurba_marseille","lat":43.30418,"lon":5.413,"is_reserved":false,"is_disabled":false,"rental_uris":{"android":"levelo://app?vid=f5b1490e-7841-4200-b186-30d280315197","ios":"levelo://app?vid=f5b1490e-7841-4200-b186-30d280315197"},"vehicle_type_id":"4","last_reported":1744441753,"current_range_meters":18000,"station_id":"ce4bhop2rcd13ifvqh8g","pricing_plan_id":"cebpf4jnsgd1na2vs0mg"},{"bike_id":"af203199-ebae-41f8-9c9d-2de102d14f53","system_id":"levelo_inurba_marseille","lat":43.30244,"lon":5.40049,"is_reserved":false,"is_disabled":false,"rental_uris":{"android":"levelo://app?vid=af203199-ebae-41f8-9c9d-2de102d14f53","ios":"levelo://app?vid=af203199-ebae-41f8-9c9d-2de102d14f53"},"vehicle_type_id":"4","last_reported":1744441753,"current_range_meters":18800,"station_id":"ce4bgvh2rcd13ifvqcs0","pricing_plan_id":"cebpf4jnsgd1na2vs0mg"},{"bike_id":"d8b9884b-4022-4710-9f87-50e0dbfd421d","system_id":"levelo_inurba_marseille","lat":43.24164,"lon":5.36399,"is_reserved":false,"is_disabled":false,"rental_uris":{"android":"levelo://app?vid=d8b9884b-4022-4710-9f87-50e0dbfd421d","ios":"levelo://app?vid=d8b9884b-4022-4710-9f87-50e0dbfd421d"},"vehicle_type_id":"4","last_reported":1744441753,"current_range_meters":18000,"station_id":"cpo36qri1sfpv3e86is0","pricing_plan_id":"cebpf4jnsgd1na2vs0mg"},{"bike_id":"9a96855e-d3da-4ed5-b7f6-75ba49c2da44","system_id":"levelo_inurba_marseille","lat":43.29932,"lon":5.37467,"is_reserved":false,"is_disabled":false,"rental_uris":{"android":"levelo://app?vid=9a96855e-d3da-4ed5-b7f6-75ba49c2da44","ios":"levelo://app?vid=9a96855e-d3da-4ed5-b7f6-75ba49c2da44"},"vehicle_type_id":"4","last_reported":1744441753,"current_range_meters":18000,"station_id":"ce4bgjh2rcd13ifvqbg0","pricing_plan_id":"cebpf4jnsgd1na2vs0mg"},{"bike_id":"3d49ac63-71c7-4c60-b7ff-2df416190e5a","system_id":"levelo_inurba_marseille","lat":43.304431,"lon":5.389039,"is_reserved":false,"is_disabled":false,"rental_uris":{"android":"levelo://app?vid=3d49ac63-71c7-4c60-b7ff-2df416190e5a","ios":"levelo://app?vid=3d49ac63-71c7-4c60-b7ff-2df416190e5a"},"vehicle_type_id":"4","last_reported":1744441753,"current_range_meters":18000,"station_id":"ce4bgk12rcd13ifvqbi0","pricing_plan_id":"cebpf4jnsgd1na2vs0mg"},{"bike_id":"df5a1254-a9f6-4eca-b359-0fba72a4a21a","system_id":"levelo_inurba_marseille","lat":43.31263,"lon":5.40178,"is_reserved":false,"is_disabled":false,"rental_uris":{"android":"levelo://app?vid=df5a1254-a9f6-4eca-b359-0fba72a4a21a","ios":"levelo://app?vid=df5a1254-a9f6-4eca-b359-0fba72a4a21a"},"vehicle_type_id":"4","last_reported":1744441753,"current_range_meters":18000,"station_id":"ce4bh092rcd13ifvqd30","pricing_plan_id":"cebpf4jnsgd1na2vs0mg"},{"bike_id":"ab5f815b-268f-4742-9b0b-6bc0ca89b3fc","system_id":"levelo_inurba_marseille","lat":43.30729,"lon":5.42446,"is_reserved":false,"is_disabled":false,"rental_uris":{"android":"levelo://app?vid=ab5f815b-268f-4742-9b0b-6bc0ca89b3fc","ios":"levelo://app?vid=ab5f815b-268f-4742-9b0b-6bc0ca89b3fc"},"vehicle_type_id":"4","last_reported":1744441753,"current_range_meters":18000,"station_id":"st_cvj6ca6bvosntc0bfgr0","pricing_plan_id":"cebpf4jnsgd1na2vs0mg"},{"bike_id":"dd63f3f0-05e7-4f6d-9e6a-7306ecd1ef08","system_id":"levelo_inurba_marseille","lat":43.29528,"lon":5.390457,"is_reserved":false,"is_disabled":false,"rental_uris":{"android":"levelo://app?vid=dd63f3f0-05e7-4f6d-9e6a-7306ecd1ef08","ios":"levelo://app?vid=dd63f3f0-05e7-4f6d-9e6a-7306ecd1ef08"},"vehicle_type_id":"4","last_reported":1744441753,"current_range_meters":18800,"station_id":"ce4bh3p2rcd13ifvqdp0","pricing_plan_id":"cebpf4jnsgd1na2vs0mg"},{"bike_id":"8bd2d7a4-cd55-43e8-bebe-156d750b2de9","system_id":"levelo_inurba_marseille","lat":43.29521,"lon":5.37511,"is_reserved":false,"is_disabled":false,"rental_uris":{"android":"levelo://app?vid=8bd2d7a4-cd55-43e8-bebe-156d750b2de9","ios":"levelo://app?vid=8bd2d7a4-cd55-43e8-bebe-156d750b2de9"},"vehicle_type_id":"4","last_reported":1744441753,"current_range_meters":8800,"station_id":"ce4bgkp2rcd13ifvqbmg","pricing_plan_id":"cebpf4jnsgd1na2vs0mg"},{"bike_id":"718d056f-ef05-4d45-ac7c-b6c5dce021d8","system_id":"levelo_inurba_marseille","lat":43.2796,"lon":5.41661,"is_reserved":false,"is_disabled":false,"rental_uris":{"android":"levelo://app?vid=718d056f-ef05-4d45-ac7c-b6c5dce021d8","ios":"levelo://app?vid=718d056f-ef05-4d45-ac7c-b6c5dce021d8"},"vehicle_type_id":"4","last_reported":1744441753,"current_range_meters":18800,"station_id":"ce4bho12rcd13ifvqh1g","pricing_plan_id":"cebpf4jnsgd1na2vs0mg"},{"bike_id":"95e59f1f-4d59-4266-8b3f-582f63a06ec8","system_id":"levelo_inurba_marseille","lat":43.26137,"lon":5.4156,"is_reserved":false,"is_disabled":false,"rental_uris":{"android":"levelo://app?vid=95e59f1f-4d59-4266-8b3f-582f63a06ec8","ios":"levelo://app?vid=95e59f1f-4d59-4266-8b3f-582f63a06ec8"},"vehicle_type_id":"4","last_reported":1744441753,"current_range_meters":18800,"station_id":"","pricing_plan_id":"cebpf4jnsgd1na2vs0mg"},