{"last_updated":1727064699,"ttl":30,"version":"2.2","data":{"bikes":[{"bike_id":"fd84f170-c075-4570-a556-c5e617e29406","system_id":"levelo_inurba_marseille","lat":43.28275,"lon":5.40883,"is_reserved":false,"is_disabled":false,"rental_uris":{"android":"levelo://app?vid=fd84f170-c075-4570-a556-c5e617e29406","ios":"levelo://app?vid=fd84f170-c075-4570-a556-c5e617e29406"},"vehicle_type_id":"4","last_reported":1727064699,"current_range_meters":12800,"station_id":"","pricing_plan_id":"cebpf4jnsgd1na2vs0mg"},{"bike_id":"aff0c6cb-554e-4b16-8e39-06587389be86","system_id":"levelo_inurba_marseille","lat":43.30471,"lon":5.37904,"is_reserved":false,"is_disabled":false,"rental_uris":{"android":"levelo://app?vid=aff0c6cb-554e-4b16-8e39-06587389be86","ios":"levelo://app?vid=aff0c6cb-554e-4b16-8e39-06587389be86"},"vehicle_type_id":"4","last_reported":1727064699,"current_range_meters":37600,"station_id":"ce4bgup2rcd13ifvqcn0","pricing_plan_id":"cebpf4jnsgd1na2vs0mg"},{"bike_id":"c3092ca8-ae64-4d17-8b92-19e1ce991720","system_id":"levelo_inurba_marseille","lat":43.26059,"lon":5.39393,"is_reserved":false,"is_disabled":false,"rental_uris":{"android":"levelo://app?vid=c3092ca8-ae64-4d17-8b92-19e1ce991720","ios":"levelo://app?vid=c3092ca8-ae64-4d17-8b92-19e1ce991720"},"vehicle_type_id":"4","last_reported":1727064699,"current_range_meters":30000,"station_id":"ce4bhh92rcd13ifvqfj0","pricing_plan_id":"cebpf4jnsgd1na2vs0mg"},{"bike_id":"d7ac5f77-1333-4b77-afc8-a0ac1683b9c1","system_id":"levelo_inurba_marseille","lat":43.30592,"lon":5.37213,"is_reserved":false,"is_disabled":false,"rental_uris":{"android":"levelo://app?vid=d7ac5f77-1333-4b77-afc8-a0ac1683b9c1","ios":"levelo://app?vid=d7ac5f77-1333-4b77-afc8-a0ac1683b9c1"},"vehicle_type_id":"4","last_reported":1727064699,"current_range_meters":39200,"station_id":"ce4bgqh2rcd13ifvqc4g","pricing_plan_id":"cebpf4jnsgd1na2vs0mg"},{"bike_id":"d7e56aa3-747f-4f88-904f-52d503b8a4b3","system_id":"levelo_inurba_marseille","lat":43.30638,"lon":5.40063,"is_reserved":false,"is_disabled":false,"rental_uris":{"android":"levelo://app?vid=d7e56aa3-747f-4f88-904f-52d503b8a4b3","ios":"levelo://app?vid=d7e56aa3-747f-4f88-904f-52d503b8a4b3"},"vehicle_type_id":"4","last_reported":1727064699,"current_range_meters":6400,"station_id":"ce4bh112rcd13ifvqda0","pricing_plan_id":"cebpf4jnsgd1na2vs0mg"},{"bike_id":"b01a99de-0cd7-44ca-a0fe-4bca85edf27b","system_id":"levelo_inurba_marseille","lat":43.27952,"lon":5.41044,"is_reserved":false,"is_disabled":false,"rental_uris":{"android":"levelo://app?vid=b01a99de-0cd7-44ca-a0fe-4bca85edf27b","ios":"levelo://app?vid=b01a99de-0cd7-44ca-a0fe-4bca85edf27b"},"vehicle_type_id":"4","last_reported":1727064699,"current_range_meters":38800,"station_id":"ce4bhnp2rcd13ifvqh0g","pricing_plan_id":"cebpf4jnsgd1na2vs0mg"},{"bike_id":"184b35f6-f4a6-413f-818e-4fcb736211a1","system_id":"levelo_inurba_marseille","lat":43.32655,"lon":5.4099,"is_reserved":false,"is_disabled":false,"rental_uris":{"android":"levelo://app?vid=184b35f6-f4a6-413f-818e-4fcb736211a1","ios":"levelo://app?vid=184b35f6-f4a6-413f-818e-4fcb736211a1"},"vehicle_type_id":"4","last_reported":1727064699,"current_range_meters":28400,"station_id":"ce4bhpp2rcd13ifvqhgg","pricing_plan_id":"cebpf4jnsgd1na2vs0mg"},{"bike_id":"70f31ad7-b57f-4170-a83d-5873b2a1f7f2","system_id":"levelo_inurba_marseille","lat":43.31327,"lon":5.39694,"is_reserved":false,"is_disabled":false,"rental_uris":{"android":"levelo://app?vid=70f31ad7-b57f-4170-a83d-5873b2a1f7f2","ios":"levelo://app?vid=70f31ad7-b57f-4170-a83d-5873b2a1f7f2"},"vehicle_type_id":"4","last_reported":1727064699,"current_range_meters":26800,"station_id":"ce4bgvp2rcd13ifvqcu0","pricing_plan_id":"cebpf4jnsgd1na2vs0mg"},{"bike_id":"036ab996-f6bf-4c60-9b33-c9580ef44614","system_id":"levelo_inurba_marseille","lat":43.32357,"lon":5.38876,"is_reserved":false,"is_disabled":false,"rental_uris":{"android":"levelo://app?vid=036ab996-f6bf-4c60-9b33-c9580ef44614","ios":"levelo://app?vid=036ab996-f6bf-4c60-9b33-c9580ef44614"},"vehicle_type_id":"4","last_reported":1727064699,"current_range_meters":33600,"station_id":"ce4bhqp2rcd13ifvqhog","pricing_plan_id":"cebpf4jnsgd1na2vs0mg"},{"bike_id":"adbcb13b-1d6e-44b3-b317-bd8e6ba5c8c5","system_id":"levelo_inurba_marseille","lat":43.31703,"lon":5.37727,"is_reserved":false,"is_disabled":false,"rental_uris":{"android":"levelo://app?vid=adbcb13b-1d6e-44b3-b317-bd8e6ba5c8c5","ios":"levelo://app?vid=adbcb13b-1d6e-44b3-b317-bd8e6ba5c8c5"},"vehicle_type_id":"4","last_reported":1727064699,"current_range_meters":10000,"station_id":"ce4bgth2rcd13ifvqch0","pricing_plan_id":"cebpf4jnsgd1na2vs0mg"},{"bike_id":"c7cedb14-e616-4402-bcdb-80a5883b72b1","system_id":"levelo_inurba_marseille","lat":43.29004,"lon":5.35606,"is_reserved":false,"is_disabled":false,"rental_uris":{"android":"levelo://app?vid=c7cedb14-e616-4402-bcdb-80a5883b72b1","ios":"levelo://app?vid=c7cedb14-e616-4402-bcdb-80a5883b72b1"},"vehicle_type_id":"4","last_reported":1727064699,"current_range_meters":37600,"station_id":"ce4bhb92rcd13ifvqen0","pricing_plan_id":"cebpf4jnsgd1na2vs0mg"},{"bike_id":"2375269c-1ee0-4177-a574-bcc26e16eb27","system_id":"levelo_inurba_marseille","lat":43.31712,"lon":5.43704,"is_reserved":false,"is_disabled":false,"rental_uris":{"android":"levelo://app?vid=2375269c-1ee0-4177-a574-bcc26e16eb27","ios":"levelo://app?vid=2375269c-1ee0-4177-a574-bcc26e16eb27"},"vehicle_type_id":"4","last_reported":1727064699,"current_range_meters":17200,"station_id":"ce4bhp92rcd13ifvqhcg","pricing_plan_id":"cebpf4jnsgd1na2vs0mg"},{"bike_id":"26928311-73e0-4a04-a1f4-c5d8a6b46043","system_id":"levelo_inurba_marseille","lat":43.28665,"lon":5.36353,"is_reserved":false,"is_disabled":false,"rental_uris":{"android":"levelo://app?vid=26928311-73e0-4a04-a1f4-c5d8a6b46043","ios":"levelo://app?vid=26928311-73e0-4a04-a1f4-c5d8a6b46043"},"vehicle_type_id":"4","last_reported":1727064699,"current_range_meters":18000,"station_id":"ce4bhah2rcd13ifvqej0","pricing_plan_id":"cebpf4jnsgd1na2vs0mg"},{"bike_id":"92b0e5ad-a7f8-432d-9dda-c8ade8173e42","system_id":"levelo_inurba_marseille","lat":43.29621,"lon":5.37166,"is_reserved":false,"is_disabled":false,"rental_uris":{"android":"levelo://app?vid=92b0e5ad-a7f8-432d-9dda-c8ade8173e42","ios":"levelo://app?vid=92b0e5ad-a7f8-432d-9dda-c8ade8173e42"},"vehicle_type_id":"4","last_reported":1727064699,"current_range_meters":28800,"station_id":"ce4bgnh2rcd13ifvqc0g","pricing_plan_id":"cebpf4jnsgd1na2vs0mg"},{"bike_id":"6b97b311-01f6-4da4-8541-32e924b4d4c5","system_id":"levelo_inurba_marseille","lat":43.26695,"lon":5.38269,"is_reserved":false,"is_disabled":false,"rental_uris":{"android":"levelo://app?vid=6b97b311-01f6-4da4-8541-32e924b4d4c5","ios":"levelo://app?vid=6b97b311-01f6-4da4-8541-32e924b4d4c5"},"vehicle_type_id":"4","last_reported":1727064699,"current_range_meters":38800,"station_id":"ce4bhg92rcd13ifvqf90","pricing_plan_id":"cebpf4jnsgd1na2vs0mg"},{"bike_id":"3088b933-0eb0-44a5-81e7-422b8bfe6707","system_id":"levelo_inurba_marseille","lat":43.24074,"lon":5.3776,"is_reserved":false,"is_disabled":false,"rental_uris":{"android":"levelo://app?vid=3088b933-0eb0-44a5-81e7-422b8bfe6707","ios":"levelo://app?vid=3088b933-0eb0-44a5-81e7-422b8bfe6707"},"vehicle_type_id":"4","last_reported":1727064699,"current_range_meters":16800,"station_id":"ce4bhnp2rcd13ifvqgvg","pricing_plan_id":"cebpf4jnsgd1na2vs0mg"},{"bike_id":"c5a75e30-0283-4bf4-aba8-39ccae5f427b","system_id":"levelo_inurba_marseille","lat":43.29259,"lon":5.40912,"is_reserved":false,"is_disabled":false,"rental_uris":{"android":"levelo://app?vid=c5a75e30-0283-4bf4-aba8-39ccae5f427b","ios":"levelo://app?vid=c5a75e30-0283-4bf4-aba8-39ccae5f427b"},"vehicle_type_id":"4","last_reported":1727064699,"current_range_meters":30400,"station_id":"ce4bh192rcd13ifvqdc0","pricing_plan_id":"cebpf4jnsgd1na2vs0mg"},{"bike_id":"a1df6bef-8573-4247-ad4b-de77871636bc","system_id":"levelo_inurba_marseille","lat":43.30316,"lon":5.36908,"is_reserved":false,"is_disabled":false,"rental_uris":{"android":"levelo://app?vid=a1df6bef-8573-4247-ad4b-de77871636bc","ios":"levelo://app?vid=a1df6bef-8573-4247-ad4b-de77871636bc"},"vehicle_type_id":"4","last_reported":1727064699,"current_range_meters":37600,"station_id":"ce4bgqh2rcd13ifvqc5g","pricing_plan_id":"cebpf4jnsgd1na2vs0mg"},{"bike_id":"57e929c2-8009-41e6-a843-5ee23c88dbe0","system_id":"levelo_inurba_marseille","lat":43.30318,"lon":5.36893,"is_reserved":false,"is_disabled":false,"rental_uris":{"android":"levelo://app?vid=57e929c2-8009-41e6-a843-5ee23c88dbe0","ios":"levelo://app?vid=57e929c2-8009-41e6-a843-5ee23c88dbe0"},"vehicle_type_id":"4","last_reported":1727064699,"current_range_meters":38800,"station_id":"ce4bgqh2rcd13ifvqc5g","pricing_plan_id":"cebpf4jnsgd1na2vs0mg"},{"bike_id":"ea26366c-a551-4c10-9152-4df8d51191c6","system_id":"levelo_inurba_marseille","lat":43.28936,"lon":5.36387,"is_reserved":false,"is_disabled":false,"rental_uris":{"android":"levelo://app?vid=ea26366c-a551-4c10-9152-4df8d51191c6","ios":"levelo://app?vid=ea26366c-a551-4c10-9152-4df8d51191c6"},"vehicle_type_id":"4","last_reported":1727064699,"current_range_meters":27200,"station_id":"ce4bhc92rcd13ifvqetg","pricing_plan_id":"cebpf4jnsgd1na2vs0mg"},{"bike_id":"a29fcceb-ed67-44c6-9c36-6b042b20ebb7","system_id":"levelo_inurba_marseille","lat":43.29892,"lon":5.3815,"is_reserved":false,"is_disabled":false,"rental_uris":{"android":"levelo://app?vid=a29fcceb-ed67-44c6-9c36-6b042b20ebb7","ios":"levelo://app?vid=a29fcceb-ed67-44c6-9c36-6b042b20ebb7"},"vehicle_type_id":"4","last_reported":1727064699,"current_range_meters":38800,"station_id":"ce4bgj12rcd13ifvqbc0","pricing_plan_id":"cebpf4jnsgd1na2vs0mg"},{"bike_id":"20a042f1-81aa-4cde-8548-4f002e395336","system_id":"levelo_inurba_marseille","lat":43.30205,"lon":5.39828,"is_reserved":false,"is_disabled":false,"rental_uris":{"android":"levelo://app?vid=20a042f1-81aa-4cde-8548-4f002e395336","ios":"levelo://app?vid=20a042f1-81aa-4cde-8548-4f002e395336"},"vehicle_type_id":"4","last_reported":1727064699,"current_range_meters":34000,"station_id":"ce4bgvp2rcd13ifvqct0","pricing_plan_id":"cebpf4jnsgd1na2vs0mg"},{"bike_id":"a6c10d51-6eba-4149-97af-7fb12d950cfe","system_id":"levelo_inurba_marseille","lat":43.31118,"lon":5.37773,"is_reserved":false,"is_disabled":false,"rental_uris":{"android":"levelo://app?vid=a6c10d51-6eba-4149-97af-7fb12d950cfe","ios":"levelo://app?vid=a6c10d51-6eba-4149-97af-7fb12d950cfe"},"vehicle_type_id":"4","last_reported":1727064699,"current_range_meters":24400,"station_id":"ce4bgt92rcd13ifvqcg0","pricing_plan_id":"cebpf4jnsgd1na2vs0mg"},{"bike_id":"eba66bb8-485a-4a36-900e-7a7af5e48d0c","system_id":"levelo_inurba_marseille","lat":43.27989,"lon":5.41661,"is_reserved":false,"is_disabled":false,"rental_uris":{"android":"levelo://app?vid=eba66bb8-485a-4a36-900e-7a7af5e48d0c","ios":"levelo://app?vid=eba66bb8-485a-4a36-900e-7a7af5e48d0c"},"vehicle_type_id":"4","last_reported":1727064699,"current_range_meters":30000,"station_id":"ce4bho12rcd13ifvqh1g","pricing_plan_id":"cebpf4jnsgd1na2vs0mg"},{"bike_id":"f49f82d9-312f-4085-88f9-4b707dfa1d67","system_id":"levelo_inurba_marseille","lat":43.25006,"lon":5.38932,"is_reserved":false,"is_disabled":false,"rental_uris":{"android":"levelo://app?vid=f49f82d9-312f-4085-88f9-4b707dfa1d67","ios":"levelo://app?vid=f49f82d9-312f-4085-88f9-4b707dfa1d67"},"vehicle_type_id":"4","last_reported":1727064699,"current_range_meters":30000,"station_id":"ce4bhgp2rcd13ifvqfd0","pricing_plan_id":"cebpf4jnsgd1na2vs0mg"},{"bike_id":"cbe1d532-4808-44ee-b9d0-83fa9f257b96","system_id":"levelo_inurba_marseille","lat":43.26061,"lon":5.39399,"is_reserved":false,"is_disabled":false,"rental_uris":{"android":"levelo://app?vid=cbe1d532-4808-44ee-b9d0-83fa9f257b96","ios":"levelo://app?vid=cbe1d532-4808-44ee-b9d0-83fa9f257b96"},"vehicle_type_id":"4","last_reported":1727064699,"current_range_meters":28000,"station_id":"ce4bhh92rcd13ifvqfj0","pricing_plan_id":"cebpf4jnsgd1na2vs0mg"},{"bike_id":"00cfd47b-de1a-4b6f-b0e2-f74687dafbd1","system_id":"levelo_inurba_marseille","lat":43.29983,"lon":5.38485,"is_reserved":false,"is_disabled":false,"rental_uris":{"android":"levelo://app?vid=00cfd47b-de1a-4b6f-b0e2-f74687dafbd1","ios":"levelo://app?vid=00cfd47b-de1a-4b6f-b0e2-f74687dafbd1"},"vehicle_type_id":"4","last_reported":1727064699,"current_range_meters":27200,"station_id":"ce4bgj92rcd13ifvqbd0","pricing_plan_id":"cebpf4jnsgd1na2vs0mg"},{"bike_id":"16e98190-d448-44bb-9c71-6c79b9fce1c8","system_id":"levelo_inurba_marseille","lat":43.25869,"lon":5.39895,"is_reserved":false,"is_disabled":false,"rental_uris":{"android":"levelo://app?vid=16e98190-d448-44bb-9c71-6c79b9fce1c8","ios":"levelo://app?vid=16e98190-d448-44bb-9c71-6c79b9fce1c8"},"vehicle_type_id":"4","last_reported":1727064699,"current_range_meters":18000,"station_id":"ce4bhl92rcd13ifvqghg","pricing_plan_id":"cebpf4jnsgd1na2vs0mg"},{"bike_id":"78e4bd76-42bd-4322-9d4d-d7cb06debbc6","system_id":"levelo_inurba_marseille","lat":43.29041,"lon":5.39952,"is_reserved":false,"is_disabled":false,"rental_uris":{"android":"levelo://app?vid=78e4bd76-42bd-4322-9d4d-d7cb06debbc6","ios":"levelo://app?vid=78e4bd76-42bd-4322-9d4d-d7cb06debbc6"},"vehicle_type_id":"4","last_reported":1727064699,"current_range_meters":30400,"station_id":"ce4bh392rcd13ifvqdm0","pricing_plan_id":"cebpf4jnsgd1na2vs0mg"},{"bike_id":"97b7499d-11e3-48e1-94b6-68f637f3e323","system_id":"levelo_inurba_marseille","lat":43.26503,"lon":5.39533,"is_reserved":false,"is_disabled":false,"rental_uris":{"android":"levelo://app?vid=97b7499d-11e3-48e1-94b6-68f637f3e323","ios":"levelo://app?vid=97b7499d-11e3-48e1-94b6-68f637f3e323"},"vehicle_type_id":"4","last_reported":1727064699,"current_range_meters":8800,"station_id":"ce4bhi12rcd13ifvqfq0","pricing_plan_id":"cebpf4jnsgd1na2vs0mg"},{"bike_id":"8c174498-b846-405d-a78b-746976f46acb","system_id":"levelo_inurba_marseille","lat":43.31488,"lon":5.37306,"is_reserved":false,"is_disabled":false,"rental_uris":{"android":"levelo://app?vid=8c174498-b846-405d-a78b-746976f46acb","ios":"levelo://app?vid=8c174498-b846-405d-a78b-746976f46acb"},"vehicle_type_id":"4","last_reported":1727064699,"current_range_meters":38800,"station_id":"ce4bgt12rcd13ifvqcd0","pricing_plan_id":"cebpf4jnsgd1na2vs0mg"},{"bike_id":"3bfdae3a-f55b-415c-8240-fa96c7c821b0","system_id":"levelo_inurba_marseille","lat":43.29619,"lon":5.37168,"is_reserved":false,"is_disabled":false,"rental_uris":{"android":"levelo://app?vid=3bfdae3a-f55b-415c-8240-fa96c7c821b0","ios":"levelo://app?vid=3bfdae3a-f55b-415c-8240-fa96c7c821b0"},"vehicle_type_id":"4","last_reported":1727064699,"current_range_meters":36800,"station_id":"ce4bgnh2rcd13ifvqc0g","pricing_plan_id":"cebpf4jnsgd1na2vs0mg"},{"bike_id":"55371f94-6b8f-44c9-aebe-3d4ed6530093","system_id":"levelo_inurba_marseille","lat":43.28608,"lon":5.37064,"is_reserved":false,"is_disabled":false,"rental_uris":{"android":"levelo://app?vid=55371f94-6b8f-44c9-aebe-3d4ed6530093","ios":"levelo://app?vid=55371f94-6b8f-44c9-aebe-3d4ed6530093"},"vehicle_type_id":"4","last_reported":1727064699,"current_range_meters":37600,"station_id":"ce4bht12rcd13ifvqi60","pricing_plan_id":"cebpf4jnsgd1na2vs0mg"},{"bike_id":"c8451f37-27ce-4a17-82dc-e5d9b4f3811c","system_id":"levelo_inurba_marseille","lat":43.3176,"lon":5.39015,"is_reserved":false,"is_disabled":false,"rental_uris":{"android":"levelo://app?vid=c8451f37-27ce-4a17-82dc-e5d9b4f3811c","ios":"levelo://app?vid=c8451f37-27ce-4a17-82dc-e5d9b4f3811c"},"vehicle_type_id":"4","last_reported":1727064699,"current_range_meters":37600,"station_id":"ce4bhqp2rcd13ifvqhng","pricing_plan_id":"cebpf4jnsgd1na2vs0mg"},{"bike_id":"6fb5c5d3-6aa9-4d3c-a0e6-f1f095d5520e","system_id":"levelo_inurba_marseille","lat":43.28661,"lon":5.36356,"is_reserved":false,"is_disabled":false,"rental_uris":{"android":"levelo://app?vid=6fb5c5d3-6aa9-4d3c-a0e6-f1f095d5520e","ios":"levelo://app?vid=6fb5c5d3-6aa9-4d3c-a0e6-f1f095d5520e"},"vehicle_type_id":"4","last_reported":1727064699,"current_range_meters":25600,"station_id":"ce4bhah2rcd13ifvqej0","pricing_plan_id":"cebpf4jnsgd1na2vs0mg"},{"bike_id":"bf9495db-1220-4cb4-9d3f-7433d3b4f386","system_id":"levelo_inurba_marseille","lat":43.28262,"lon":5.35072,"is_reserved":false,"is_disabled":false,"rental_uris":{"android":"levelo://app?vid=bf9495db-1220-4cb4-9d3f-7433d3b4f386","ios":"levelo://app?vid=bf9495db-1220-4cb4-9d3f-7433d3b4f386"},"vehicle_type_id":"4","last_reported":1727064699,"current_range_meters":38400,"station_id":"ce4bhbp2rcd13ifvqerg","pricing_plan_id":"cebpf4jnsgd1na2vs0mg"},{"bike_id":"8b8ee6e6-256b-4ecc-ac5f-60cac70f9ca9","system_id":"levelo_inurba_marseille","lat":43.2781,"lon":5.40712,"is_reserved":false,"is_disabled":false,"rental_uris":{"android":"levelo://app?vid=8b8ee6e6-256b-4ecc-ac5f-60cac70f9ca9","ios":"levelo://app?vid=8b8ee6e6-256b-4ecc-ac5f-60cac70f9ca9"},"vehicle_type_id":"4","last_reported":1727064699,"current_range_meters":38800,"station_id":"ce4bhnh2rcd13ifvqgtg","pricing_plan_id":"cebpf4jnsgd1na2vs0mg"},{"bike_id":"16d4bd0d-6e6e-43a3-8409-201ee974ca78","system_id":"levelo_inurba_marseille","lat":43.28564,"lon":5.39498,"is_reserved":false,"is_disabled":false,"rental_uris":{"android":"levelo://app?vid=16d4bd0d-6e6e-43a3-8409-201ee974ca78","ios":"levelo://app?vid=16d4bd0d-6e6e-43a3-8409-201ee974ca78"},"vehicle_type_id":"4","last_reported":1727064699,"current_range_meters":27600,"station_id":"ce4bh292rcd13ifvqdg0","pricing_plan_id":"cebpf4jnsgd1na2vs0mg"},{"bike_id":"e35f0e97-2b9f-438d-b1bc-2da44bc851c0","system_id":"levelo_inurba_marseille","lat":43.31702,"lon":5.43707,"is_reserved":false,"is_disabled":false,"rental_uris":{"android":"levelo://app?vid=e35f0e97-2b9f-438d-b1bc-2da44bc851c0","ios":"levelo://app?vid=e35f0e97-2b9f-438d-b1bc-2da44bc851c0"},"vehicle_type_id":"4","last_reported":1727064699,"current_range_meters":39200,"station_id":"ce4bhp92rcd13ifvqhcg","pricing_plan_id":"cebpf4jnsgd1na2vs0mg"},{"bike_id":"1f9b60ca-1533-4152-ab34-e0e723e13f55","system_id":"levelo_inurba_marseille","lat":43.30573,"lon":5.37263,"is_reserved":false,"is_disabled":false,"rental_uris":{"android":"levelo://app?vid=1f9b60ca-1533-4152-ab34-e0e723e13f55","ios":"levelo://app?vid=1f9b60ca-1533-4152-ab34-e0e723e13f55"},"vehicle_type_id":"4","last_reported":1727064699,"current_range_meters":36800,"station_id":"ce4bgqh2rcd13ifvqc4g","pricing_plan_id":"cebpf4jnsgd1na2vs0mg"},{"bike_id":"b51ce446-611a-42c6-8797-bda05e34d07b","system_id":"levelo_inurba_marseille","lat":43.3133,"lon":5.39696,"is_reserved":false,"is_disabled":false,"rental_uris":{"android":"levelo://app?vid=b51ce446-611a-42c6-8797-bda05e34d07b","ios":"levelo://app?vid=b51ce446-611a-42c6-8797-bda05e34d07b"},"vehicle_type_id":"4","last_reported":1727064699,"current_range_meters":39200,"station_id":"ce4bgvp2rcd13ifvqcu0","pricing_plan_id":"cebpf4jnsgd1na2vs0mg"},{"bike_id":"3ce59b6f-7686-4b2b-8d52-a069173b32ca","system_id":"levelo_inurba_marseille","lat":43.31168,"lon":5.38733,"is_reserved":false,"is_disabled":false,"rental_uris":{"android":"levelo://app?vid=3ce59b6f-7686-4b2b-8d52-a069173b32ca","ios":"levelo://app?vid=3ce59b6f-7686-4b2b-8d52-a069173b32ca"},"vehicle_type_id":"4","last_reported":1727064699,"current_range_meters":38400,"station_id":"ce4bgv12rcd13ifvqcp0","pricing_plan_id":"cebpf4jnsgd1na2vs0mg"},{"bike_id":"52df1d85-3291-428a-925f-cee2a58e073e","system_id":"levelo_inurba_marseille","lat":43.27905,"lon":5.38005,"is_reserved":false,"is_disabled":false,"rental_uris":{"android":"levelo://app?vid=52df1d85-3291-428a-925f-cee2a58e073e","ios":"levelo://app?vid=52df1d85-3291-428a-925f-cee2a58e073e"},"vehicle_type_id":"4","last_reported":1727064699,"current_range_meters":6800,"station_id":"ce4bhf92rcd13ifvqf50","pricing_plan_id":"cebpf4jnsgd1na2vs0mg"},{"bike_id":"468dec7e-4f89-473d-ab2e-61ee7d247c61","system_id":"levelo_inurba_marseille","lat":43.24176,"lon":5.39734,"is_reserved":false,"is_disabled":false,"rental_uris":{"android":"levelo://app?vid=468dec7e-4f89-473d-ab2e-61ee7d247c61","ios":"levelo://app?vid=468dec7e-4f89-473d-ab2e-61ee7d247c61"},"vehicle_type_id":"4","last_reported":1727064699,"current_range_meters":40000,"station_id":"ce4bhn12rcd13ifvqgpg","pricing_plan_id":"cebpf4jnsgd1na2vs0mg"},{"bike_id":"be2a89fa-cecd-485a-9913-28757ab58a7d","system_id":"levelo_inurba_marseille","lat":43.30143,"lon":5.37419,"is_reserved":false,"is_disabled":false,"rental_uris":{"android":"levelo://app?vid=be2a89fa-cecd-485a-9913-28757ab58a7d","ios":"levelo://app?vid=be2a89fa-cecd-485a-9913-28757ab58a7d"},"vehicle_type_id":"4","last_reported":1727064699,"current_range_meters":37600,"station_id":"ce4bgs92rcd13ifvqcc0","pricing_plan_id":"cebpf4jnsgd1na2vs0mg"},{"bike_id":"2107d4b5-0634-4724-9370-86b46858fbfe","system_id":"levelo_inurba_marseille","lat":43.31279,"lon":5.40169,"is_reserved":false,"is_disabled":false,"rental_uris":{"android":"levelo://app?vid=2107d4b5-0634-4724-9370-86b46858fbfe","ios":"levelo://app?vid=2107d4b5-0634-4724-9370-86b46858fbfe"},"vehicle_type_id":"4","last_reported":1727064699,"current_range_meters":37600,"station_id":"ce4bh092rcd13ifvqd30","pricing_plan_id":"cebpf4jnsgd1na2vs0mg"},{"bike_id":"30b8e9c3-5723-4a20-84bd-68900eaadaa7","system_id":"levelo_inurba_marseille","lat":43.31172,"lon":5.38714,"is_reserved":false,"is_disabled":false,"rental_uris":{"android":"levelo://app?vid=30b8e9c3-5723-4a20-84bd-68900eaadaa7","ios":"levelo://app?vid=30b8e9c3-5723-4a20-84bd-68900eaadaa7"},"vehicle_type_id":"4","last_reported":1727064699,"current_range_meters":29600,"station_id":"ce4bgv12rcd13ifvqcp0","pricing_plan_id":"cebpf4jnsgd1na2vs0mg"},{"bike_id":"7ea6f11e-bb74-4722-bd77-c4a2c92da2c7","system_id":"levelo_inurba_marseille","lat":43.25869,"lon":5.39896,"is_reserved":false,"is_disabled":false,"rental_uris":{"android":"levelo://app?vid=7ea6f11e-bb74-4722-bd77-c4a2c92da2c7","ios":"levelo://app?vid=7ea6f11e-bb74-4722-bd77-c4a2c92da2c7"},"vehicle_type_id":"4","last_reported":1727064699,"current_range_meters":8000,"station_id":"ce4bhl92rcd13ifvqghg","pricing_plan_id":"cebpf4jnsgd1na2vs0mg"},{"bike_id":"5bf4fa55-561d-41a9-ac75-043f452ea403","system_id":"levelo_inurba_marseille","lat":43.28079,"lon":5.39657,"is_reserved":false,"is_disabled":false,"rental_uris":{"android":"levelo://app?vid=5bf4fa55-561d-41a9-ac75-043f452ea403","ios":"levelo://app?vid=5bf4fa55-561d-41a9-ac75-043f452ea403"},"vehicle_type_id":"4","last_reported":1727064699,"current_range_meters":39200,"station_id":"ce4bho12rcd13ifvqh2g","pricing_plan_id":"cebpf4jnsgd1na2vs0mg"},{"bike_id":"e68b94cf-f394-4560-9c0b-52865583d26a","system_id":"levelo_inurba_marseille","lat":43.23181,"lon":5.39979,"is_reserved":false,"is_disabled":false,"rental_uris":{"android":"levelo://app?vid=e68b94cf-f394-4560-9c0b-52865583d26a","ios":"levelo://app?vid=e68b94cf-f394-4560-9c0b-52865583d26a"},"vehicle_type_id":"4","last_reported":1727064699,"current_range_meters":15200,"station_id":"ce4bhn12rcd13ifvqgqg","pricing_plan_id":"cebpf4jnsgd1na2vs0mg"},{"bike_id":"59ef8af9-5faf-4cf8-b630-4a07ff51688b","system_id":"levelo_inurba_marseille","lat":43.31085,"lon":5.42429,"is_reserved":false,"is_disabled":false,"rental_uris":{"android":"levelo://app?vid=59ef8af9-5faf-4cf8-b630-4a07ff51688b","ios":"levelo://app?vid=59ef8af9-5faf-4cf8-b630-4a07ff51688b"},"vehicle_type_id":"4","last_reported":1727064699,"current_range_meters":36400,"station_id":"ce4bhp92rcd13ifvqhag","pricing_plan_id":"cebpf4jnsgd1na2vs0mg"},{"bike_id":"1a25ca21-21da-4895-b0d1-5c5690fe7fd5","system_id":"levelo_inurba_marseille","lat":43.28571,"lon":5.39493,"is_reserved":false,"is_disabled":false,"rental_uris":{"android":"levelo://app?vid=1a25ca21-21da-4895-b0d1-5c5690fe7fd5","ios":"levelo://app?vid=1a25ca21-21da-4895-b0d1-5c5690fe7fd5"},"vehicle_type_id":"4","last_reported":1727064699,"current_range_meters":36000,"station_id":"ce4bh292rcd13ifvqdg0","pricing_plan_id":"cebpf4jnsgd1na2vs0mg"},{"bike_id":"c3c75fe1-eb7c-4fd3-8288-5a707dbf6005","system_id":"levelo_inurba_marseille","lat":43.32045,"lon":5.41554,"is_reserved":false,"is_disabled":false,"rental_uris":{"android":"levelo://app?vid=c3c75fe1-eb7c-4fd3-8288-5a707dbf6005","ios":"levelo://app?vid=c3c75fe1-eb7c-4fd3-8288-5a707dbf6005"},"vehicle_type_id":"4","last_reported":1727064699,"current_range_meters":28000,"station_id":"ce4bhq92rcd13ifvqhkg","pricing_plan_id":"cebpf4jnsgd1na2vs0mg"},{"bike_id":"3ebaaaec-15d2-494c-ab9e-13e8bcbe1874","system_id":"levelo_inurba_marseille","lat":43.29276,"lon":5.3686,"is_reserved":false,"is_disabled":false,"rental_uris":{"android":"levelo://app?vid=3ebaaaec-15d2-494c-ab9e-13e8bcbe1874","ios":"levelo://app?vid=3ebaaaec-15d2-494c-ab9e-13e8bcbe1874"},"vehicle_type_id":"4","last_reported":1727064699,"current_range_meters":32400,"station_id":"ce4bhbp2rcd13ifvqesg","pricing_plan_id":"cebpf4jnsgd1na2vs0mg"},{"bike_id":"05c0ed50-b713-483e-819b-f8e0cb56b48b","system_id":"levelo_inurba_marseille","lat":43.28728,"lon":5.3609,"is_reserved":false,"is_disabled":false,"rental_uris":{"android":"levelo://app?vid=05c0ed50-b713-483e-819b-f8e0cb56b48b","ios":"levelo://app?vid=05c0ed50-b713-483e-819b-f8e0cb56b48b"},"vehicle_type_id":"4","last_reported":1727064699,"current_range_meters":38800,"station_id":"cki0cbj6b192h4jlfktg","pricing_plan_id":"cebpf4jnsgd1na2vs0mg"},{"bike_id":"e4d543d8-a48b-426c-bf4e-54b5d4e9a4f3","system_id":"levelo_inurba_marseille","lat":43.28709,"lon":5.37942,"is_reserved":false,"is_disabled":false,"rental_uris":{"android":"levelo://app?vid=e4d543d8-a48b-426c-bf4e-54b5d4e9a4f3","ios":"levelo://app?vid=e4d543d8-a48b-426c-bf4e-54b5d4e9a4f3"},"vehicle_type_id":"4","last_reported":1727064699,"current_range_meters":19200,"station_id":"ce4bh9p2rcd13ifvqec0","pricing_plan_id":"cebpf4jnsgd1na2vs0mg"},{"bike_id":"2b26ac36-e341-4854-a9d6-915450d3500a","system_id":"levelo_inurba_marseille","lat":43.27064,"lon":5.42279,"is_reserved":false,"is_disabled":false,"rental_uris":{"android":"levelo://app?vid=2b26ac36-e341-4854-a9d6-915450d3500a","ios":"levelo://app?vid=2b26ac36-e341-4854-a9d6-915450d3500a"},"vehicle_type_id":"4","last_reported":1727064699,"current_range_meters":38400,"station_id":"ce4bhk92rcd13ifvqgb0","pricing_plan_id":"cebpf4jnsgd1na2vs0mg"},{"bike_id":"959147eb-b90e-422c-9e06-fd10a43765c1","system_id":"levelo_inurba_marseille","lat":43.28657,"lon":5.36357,"is_reserved":false,"is_disabled":false,"rental_uris":{"android":"levelo://app?vid=959147eb-b90e-422c-9e06-fd10a43765c1","ios":"levelo://app?vid=959147eb-b90e-422c-9e06-fd10a43765c1"},"vehicle_type_id":"4","last_reported":1727064699,"current_range_meters":30000,"station_id":"ce4bhah2rcd13ifvqej0","pricing_plan_id":"cebpf4jnsgd1na2vs0mg"},{"bike_id":"2c71b872-d0b6-44e8-815a-8288b9982996","system_id":"levelo_inurba_marseille","lat":43.30958,"lon":5.39047,"is_reserved":false,"is_disabled":false,"rental_uris":{"android":"levelo://app?vid=2c71b872-d0b6-44e8-815a-8288b9982996","ios":"levelo://app?vid=2c71b872-d0b6-44e8-815a-8288b9982996"},"vehicle_type_id":"4","last_reported":1727064699,"current_range_meters":29600,"station_id":"ce4bgup2rcd13ifvqco0","pricing_plan_id":"cebpf4jnsgd1na2vs0mg"},{"bike_id":"90890cf4-4c81-4003-ba44-9a9a23207e3d","system_id":"levelo_inurba_marseille","lat":43.25859,"lon":5.399,"is_reserved":false,"is_disabled":false,"rental_uris":{"android":"levelo://app?vid=90890cf4-4c81-4003-ba44-9a9a23207e3d","ios":"levelo://app?vid=90890cf4-4c81-4003-ba44-9a9a23207e3d"},"vehicle_type_id":"4","last_reported":1727064699,"current_range_meters":38400,"station_id":"ce4bhl92rcd13ifvqghg","pricing_plan_id":"cebpf4jnsgd1na2vs0mg"},{"bike_id":"663b5592-7b4e-4d56-8fee-d5f53d3ee839","system_id":"levelo_inurba_marseille","lat":43.26565,"lon":5.39014,"is_reserved":false,"is_disabled":false,"rental_uris":{"android":"levelo://app?vid=663b5592-7b4e-4d56-8fee-d5f53d3ee839","ios":"levelo://app?vid=663b5592-7b4e-4d56-8fee-d5f53d3ee839"},"vehicle_type_id":"4","last_reported":1727064699,"current_range_meters":27200,"station_id":"ce4bhe12rcd13ifvqf30","pricing_plan_id":"cebpf4jnsgd1na2vs0mg"},{"bike_id":"a3108788-6dbe-4135-a9c6-12d545d1be39","system_id":"levelo_inurba_marseille","lat":43.25581,"lon":5.38237,"is_reserved":false,"is_disabled":false,"rental_uris":{"android":"levelo://app?vid=a3108788-6dbe-4135-a9c6-12d545d1be39","ios":"levelo://app?vid=a3108788-6dbe-4135-a9c6-12d545d1be39"},"vehicle_type_id":"4","last_reported":1727064699,"current_range_meters":38400,"station_id":"ce4bhih2rcd13ifvqfs0","pricing_plan_id":"cebpf4jnsgd1na2vs0mg"},{"bike_id":"bfbe047e-5d05-4c55-b710-84245f400681","system_id":"levelo_inurba_marseille","lat":43.28854,"lon":5.39323,"is_reserved":false,"is_disabled":false,"rental_uris":{"android":"levelo://app?vid=bfbe047e-5d05-4c55-b710-84245f400681","ios":"levelo://app?vid=bfbe047e-5d05-4c55-b710-84245f400681"},"vehicle_type_id":"4","last_reported":1727064699,"current_range_meters":38800,"station_id":"ce4bh2p2rcd13ifvqdi0","pricing_plan_id":"cebpf4jnsgd1na2vs0mg"},{"bike_id":"36c416da-9158-44af-aa3a-06b103bea7bf","system_id":"levelo_inurba_marseille","lat":43.337444,"lon":5.374475,"is_reserved":false,"is_disabled":false,"rental_uris":{"android":"levelo://app?vid=36c416da-9158-44af-aa3a-06b103bea7bf","ios":"levelo://app?vid=36c416da-9158-44af-aa3a-06b103bea7bf"},"vehicle_type_id":"4","last_reported":1727064699,"current_range_meters":25200,"station_id":"","pricing_plan_id":"cebpf4jnsgd1na2vs0mg"},{"bike_id":"3ad8999c-8bbb-4cc4-8d18-4437b8fa64c7","system_id":"levelo_inurba_marseille","lat":43.25574,"lon":5.38237,"is_reserved":false,"is_disabled":false,"rental_uris":{"android":"levelo://app?vid=3ad8999c-8bbb-4cc4-8d18-4437b8fa64c7","ios":"levelo://app?vid=3ad8999c-8bbb-4cc4-8d18-4437b8fa64c7"},"vehicle_type_id":"4","last_reported":1727064699,"current_range_meters":20400,"station_id":"ce4bhih2rcd13ifvqfs0","pricing_plan_id":"cebpf4jnsgd1na2vs0mg"},{"bike_id":"5ec9cf8a-fdf5-4011-8d40-525f2aab5ccc","system_id":"levelo_inurba_marseille","lat":43.30807,"lon":5.3815,"is_reserved":false,"is_disabled":false,"rental_uris":{"android":"levelo://app?vid=5ec9cf8a-fdf5-4011-8d40-525f2aab5ccc","ios":"levelo://app?vid=5ec9cf8a-fdf5-4011-8d40-525f2aab5ccc"},"vehicle_type_id":"4","last_reported":1727064699,"current_range_meters":12400,"station_id":"ce4bgt12rcd13ifvqce0","pricing_plan_id":"cebpf4jnsgd1na2vs0mg"},{"bike_id":"e7ba8be8-bb54-4ee1-83ab-ce479a272181","system_id":"levelo_inurba_marseille","lat":43.31329,"lon":5.39693,"is_reserved":false,"is_disabled":false,"rental_uris":{"android":"levelo://app?vid=e7ba8be8-bb54-4ee1-83ab-ce479a272181","ios":"levelo://app?vid=e7ba8be8-bb54-4ee1-83ab-ce479a272181"},"vehicle_type_id":"4","last_reported":1727064699,"current_range_meters":37600,"station_id":"ce4bgvp2rcd13ifvqcu0","pricing_plan_id":"cebpf4jnsgd1na2vs0mg"},{"bike_id":"dcf3d7bc-c35f-4647-a9ab-733122a04faf","system_id":"levelo_inurba_marseille","lat":43.25104,"lon":5.40322,"is_reserved":false,"is_disabled":false,"rental_uris":{"android":"levelo://app?vid=dcf3d7bc-c35f-4647-a9ab-733122a04faf","ios":"levelo://app?vid=dcf3d7bc-c35f-4647-a9ab-733122a04faf"},"vehicle_type_id":"4","last_reported":1727064699,"current_range_meters":38400,"station_id":"ce4bhlh2rcd13ifvqgig","pricing_plan_id":"cebpf4jnsgd1na2vs0mg"},{"bike_id":"bc08d377-8934-49f9-a16b-d231e67a2261","system_id":"levelo_inurba_marseille","lat":43.28151,"lon":5.42649,"is_reserved":false,"is_disabled":false,"rental_uris":{"android":"levelo://app?vid=bc08d377-8934-49f9-a16b-d231e67a2261","ios":"levelo://app?vid=bc08d377-8934-49f9-a16b-d231e67a2261"},"vehicle_type_id":"4","last_reported":1727064699,"current_range_meters":22400,"station_id":"ce4bhnh2rcd13ifvqgug","pricing_plan_id":"cebpf4jnsgd1na2vs0mg"},{"bike_id":"a946714b-2b93-4282-8940-2934c541cd65","system_id":"levelo_inurba_marseille","lat":43.29553,"lon":5.42282,"is_reserved":false,"is_disabled":false,"rental_uris":{"android":"levelo://app?vid=a946714b-2b93-4282-8940-2934c541cd65","ios":"levelo://app?vid=a946714b-2b93-4282-8940-2934c541cd65"},"vehicle_type_id":"4","last_reported":1727064699,"current_range_meters":10800,"station_id":"ce4bhph2rcd13ifvqhdg","pricing_plan_id":"cebpf4jnsgd1na2vs0mg"},{"bike_id":"f72b4ee5-3b6a-4bba-8e4b-bc24bda6e341","system_id":"levelo_inurba_marseille","lat":43.28567,"lon":5.395,"is_reserved":false,"is_disabled":false,"rental_uris":{"android":"levelo://app?vid=f72b4ee5-3b6a-4bba-8e4b-bc24bda6e341","ios":"levelo://app?vid=f72b4ee5-3b6a-4bba-8e4b-bc24bda6e341"},"vehicle_type_id":"4","last_reported":1727064699,"current_range_meters":26000,"station_id":"ce4bh292rcd13ifvqdg0","pricing_plan_id":"cebpf4jnsgd1na2vs0mg"},{"bike_id":"d6391691-de65-45d3-b374-0c65a866bbce","system_id":"levelo_inurba_marseille","lat":43.31702,"lon":5.40471,"is_reserved":false,"is_disabled":false,"rental_uris":{"android":"levelo://app?vid=d6391691-de65-45d3-b374-0c65a866bbce","ios":"levelo://app?vid=d6391691-de65-45d3-b374-0c65a866bbce"},"vehicle_type_id":"4","last_reported":1727064699,"current_range_meters":33600,"station_id":"ce4bh012rcd13ifvqd00","pricing_plan_id":"cebpf4jnsgd1na2vs0mg"},{"bike_id":"fee847b2-684e-4f0f-b3c3-0910bdb1f06e","system_id":"levelo_inurba_marseille","lat":43.28153,"lon":5.42638,"is_reserved":false,"is_disabled":false,"rental_uris":{"android":"levelo://app?vid=fee847b2-684e-4f0f-b3c3-0910bdb1f06e","ios":"levelo://app?vid=fee847b2-684e-4f0f-b3c3-0910bdb1f06e"},"vehicle_type_id":"4","last_reported":1727064699,"current_range_meters":10000,"station_id":"ce4bhnh2rcd13ifvqgug","pricing_plan_id":"cebpf4jnsgd1na2vs0mg"},{"bike_id":"d894223a-4e7a-4950-afa3-fc457a96210b","system_id":"levelo_inurba_marseille","lat":43.23179,"lon":5.39984,"is_reserved":false,"is_disabled":false,"rental_uris":{"android":"levelo://app?vid=d894223a-4e7a-4950-afa3-fc457a96210b","ios":"levelo://app?vid=d894223a-4e7a-4950-afa3-fc457a96210b"},"vehicle_type_id":"4","last_reported":1727064699,"current_range_meters":40000,"station_id":"ce4bhn12rcd13ifvqgqg","pricing_plan_id":"cebpf4jnsgd1na2vs0mg"},{"bike_id":"41c90b48-de93-4d56-a965-3b11fc010bd5","system_id":"levelo_inurba_marseille","lat":43.24646,"lon":5.38894,"is_reserved":false,"is_disabled":false,"rental_uris":{"android":"levelo://app?vid=41c90b48-de93-4d56-a965-3b11fc010bd5","ios":"levelo://app?vid=41c90b48-de93-4d56-a965-3b11fc010bd5"},"vehicle_type_id":"4","last_reported":1727064699,"current_range_meters":38000,"station_id":"ce4bhg12rcd13ifvqf60","pricing_plan_id":"cebpf4jnsgd1na2vs0mg"},{"bike_id":"2bb75a02-89e0-43aa-a0f8-77e8c9eba3e8","system_id":"levelo_inurba_marseille","lat":43.26927,"lon":5.38911,"is_reserved":false,"is_disabled":false,"rental_uris":{"android":"levelo://app?vid=2bb75a02-89e0-43aa-a0f8-77e8c9eba3e8","ios":"levelo://app?vid=2bb75a02-89e0-43aa-a0f8-77e8c9eba3e8"},"vehicle_type_id":"4","last_reported":1727064699,"current_range_meters":19200,"station_id":"ce4bhhh2rcd13ifvqfl0","pricing_plan_id":"cebpf4jnsgd1na2vs0mg"},{"bike_id":"05cfe6f3-b07f-4f5d-bad3-9f31a71c2e22","system_id":"levelo_inurba_marseille","lat":43.28703,"lon":5.39974,"is_reserved":false,"is_disabled":false,"rental_uris":{"android":"levelo://app?vid=05cfe6f3-b07f-4f5d-bad3-9f31a71c2e22","ios":"levelo://app?vid=05cfe6f3-b07f-4f5d-bad3-9f31a71c2e22"},"vehicle_type_id":"4","last_reported":1727064699,"current_range_meters":39200,"station_id":"ce4bho92rcd13ifvqh3g","pricing_plan_id":"cebpf4jnsgd1na2vs0mg"},{"bike_id":"e6b9b167-7fdc-4225-a85e-7fea6cfd4f4e","system_id":"levelo_inurba_marseille","lat":43.29088,"lon":5.35605,"is_reserved":false,"is_disabled":false,"rental_uris":{"android":"levelo://app?vid=e6b9b167-7fdc-4225-a85e-7fea6cfd4f4e","ios":"levelo://app?vid=e6b9b167-7fdc-4225-a85e-7fea6cfd4f4e"},"vehicle_type_id":"4","last_reported":1727064699,"current_range_meters":20400,"station_id":"","pricing_plan_id":"cebpf4jnsgd1na2vs0mg"},{"bike_id":"61c022e5-cd84-4c2b-a558-1467f05607da","system_id":"levelo_inurba_marseille","lat":43.28854,"lon":5.35848,"is_reserved":false,"is_disabled":false,"rental_uris":{"android":"levelo://app?vid=61c022e5-cd84-4c2b-a558-1467f05607da","ios":"levelo://app?vid=61c022e5-cd84-4c2b-a558-1467f05607da"},"vehicle_type_id":"4","last_reported":1727064699,"current_range_meters":38800,"station_id":"ce4bhb12rcd13ifvqem0","pricing_plan_id":"cebpf4jnsgd1na2vs0mg"},{"bike_id":"149779fc-bc45-458a-857f-33707eedaf6a","system_id":"levelo_inurba_marseille","lat":43.23199,"lon":5.3555,"is_reserved":false,"is_disabled":false,"rental_uris":{"android":"levelo://app?vid=149779fc-bc45-458a-857f-33707eedaf6a","ios":"levelo://app?vid=149779fc-bc45-458a-857f-33707eedaf6a"},"vehicle_type_id":"4","last_reported":1727064699,"current_range_meters":10800,"station_id":"ce4bhu92rcd13ifvqi70","pricing_plan_id":"cebpf4jnsgd1na2vs0mg"},{"bike_id":"8d44644c-2ba3-4a8a-ade7-0f2ba96b1986","system_id":"levelo_inurba_marseille","lat":43.30357,"lon":5.41872,"is_reserved":false,"is_disabled":false,"rental_uris":{"android":"levelo://app?vid=8d44644c-2ba3-4a8a-ade7-0f2ba96b1986","ios":"levelo://app?vid=8d44644c-2ba3-4a8a-ade7-0f2ba96b1986"},"vehicle_type_id":"4","last_reported":1727064699,"current_range_meters":39200,"station_id":"ce4bhop2rcd13ifvqh7g","pricing_plan_id":"cebpf4jnsgd1na2vs0mg"},{"bike_id":"43df60f0-901e-45e8-a739-2918ae0ece83","system_id":"levelo_inurba_marseille","lat":43.24668,"lon":5.38153,"is_reserved":false,"is_disabled":false,"rental_uris":{"android":"levelo://app?vid=43df60f0-901e-45e8-a739-2918ae0ece83","ios":"levelo://app?vid=43df60f0-901e-45e8-a739-2918ae0ece83"},"vehicle_type_id":"4","last_reported":1727064699,"current_range_meters":38000,"station_id":"ce4bhih2rcd13ifvqfr0","pricing_plan_id":"cebpf4jnsgd1na2vs0mg"},{"bike_id":"912ae138-dc06-4bf0-9015-0aababb7e10a","system_id":"levelo_inurba_marseille","lat":43.299225,"lon":5.39698,"is_reserved":false,"is_disabled":false,"rental_uris":{"android":"levelo://app?vid=912ae138-dc06-4bf0-9015-0aababb7e10a","ios":"levelo://app?vid=912ae138-dc06-4bf0-9015-0aababb7e10a"},"vehicle_type_id":"4","last_reported":1727064699,"current_range_meters":36400,"station_id":"","pricing_plan_id":"cebpf4jnsgd1na2vs0mg"},{"bike_id":"50ba4f8c-d7e3-421b-a3d3-9d4c75fe8e26","system_id":"levelo_inurba_marseille","lat":43.29033,"lon":5.39964,"is_reserved":false,"is_disabled":false,"rental_uris":{"android":"levelo://app?vid=50ba4f8c-d7e3-421b-a3d3-9d4c75fe8e26","ios":"levelo://app?vid=50ba4f8c-d7e3-421b-a3d3-9d4c75fe8e26"},"vehicle_type_id":"4","last_reported":1727064699,"current_range_meters":38800,"station_id":"ce4bh392rcd13ifvqdm0","pricing_plan_id":"cebpf4jnsgd1na2vs0mg"},{"bike_id":"70dd97d8-c4ac-43bf-8e44-5962519a633a","system_id":"levelo_inurba_marseille","lat":43.31751,"lon":5.39016,"is_reserved":false,"is_disabled":false,"rental_uris":{"android":"levelo://app?vid=70dd97d8-c4ac-43bf-8e44-5962519a633a","ios":"levelo://app?vid=70dd97d8-c4ac-43bf-8e44-5962519a633a"},"vehicle_type_id":"4","last_reported":1727064699,"current_range_meters":38800,"station_id":"ce4bhqp2rcd13ifvqhng","pricing_plan_id":"cebpf4jnsgd1na2vs0mg"},{"bike_id":"aa6b3320-f4b4-47ac-b9e1-6322f4823ed3","system_id":"levelo_inurba_marseille","lat":43.30466,"lon":5.3791,"is_reserved":false,"is_disabled":false,"rental_uris":{"android":"levelo://app?vid=aa6b3320-f4b4-47ac-b9e1-6322f4823ed3","ios":"levelo://app?vid=aa6b3320-f4b4-47ac-b9e1-6322f4823ed3"},"vehicle_type_id":"4","last_reported":1727064699,"current_range_meters":30400,"station_id":"ce4bgup2rcd13ifvqcn0","pricing_plan_id":"cebpf4jnsgd1na2vs0mg"},{"bike_id":"a5487fcd-e8c9-4379-b683-ed5f5657469c","system_id":"levelo_inurba_marseille","lat":43.31171,"lon":5.3872,"is_reserved":false,"is_disabled":false,"rental_uris":{"android":"levelo://app?vid=a5487fcd-e8c9-4379-b683-ed5f5657469c","ios":"levelo://app?vid=a5487fcd-e8c9-4379-b683-ed5f5657469c"},"vehicle_type_id":"4","last_reported":1727064699,"current_range_meters":38000,"station_id":"ce4bgv12rcd13ifvqcp0","pricing_plan_id":"cebpf4jnsgd1na2vs0mg"},{"bike_id":"88652ec3-2459-4db5-982c-12577594f1fa","system_id":"levelo_inurba_marseille","lat":43.3189,"lon":5.40739,"is_reserved":false,"is_disabled":false,"rental_uris":{"android":"levelo://app?vid=88652ec3-2459-4db5-982c-12577594f1fa","ios":"levelo://app?vid=88652ec3-2459-4db5-982c-12577594f1fa"},"vehicle_type_id":"4","last_reported":1727064699,"current_range_meters":38800,"station_id":"ce4bhq12rcd13ifvqhig","pricing_plan_id":"cebpf4jnsgd1na2vs0mg"},{"bike_id":"3e957764-45b7-4516-a70f-8965b70fa960","system_id":"levelo_inurba_marseille","lat":43.27073,"lon":5.42281,"is_reserved":false,"is_disabled":false,"rental_uris":{"android":"levelo://app?vid=3e957764-45b7-4516-a70f-8965b70fa960","ios":"levelo://app?vid=3e957764-45b7-4516-a70f-8965b70fa960"},"vehicle_type_id":"4","last_reported":1727064699,"current_range_meters":38800,"station_id":"ce4bhk92rcd13ifvqgb0","pricing_plan_id":"cebpf4jnsgd1na2vs0mg"},{"bike_id":"da1dd4fc-e1a1-46f1-b3bd-d9fa1cbb9b1a","system_id":"levelo_inurba_marseille","lat":43.29244,"lon":5.40897,"is_reserved":false,"is_disabled":false,"rental_uris":{"android":"levelo://app?vid=da1dd4fc-e1a1-46f1-b3bd-d9fa1cbb9b1a","ios":"levelo://app?vid=da1dd4fc-e1a1-46f1-b3bd-d9fa1cbb9b1a"},"vehicle_type_id":"4","last_reported":1727064699,"current_range_meters":37600,"station_id":"ce4bh192rcd13ifvqdc0","pricing_plan_id":"cebpf4jnsgd1na2vs0mg"},{"bike_id":"5a2e81b1-03d6-462f-9a7b-dd1cbe502ec3","system_id":"levelo_inurba_marseille","lat":43.23197,"lon":5.35552,"is_reserved":false,"is_disabled":false,"rental_uris":{"android":"levelo://app?vid=5a2e81b1-03d6-462f-9a7b-dd1cbe502ec3","ios":"levelo://app?vid=5a2e81b1-03d6-462f-9a7b-dd1cbe502ec3"},"vehicle_type_id":"4","last_reported":1727064699,"current_range_meters":38800,"station_id":"ce4bhu92rcd13ifvqi70","pricing_plan_id":"cebpf4jnsgd1na2vs0mg"},{"bike_id":"28722042-4008-4eba-a31f-3995a1d12a10","system_id":"levelo_inurba_marseille","lat":43.29276,"lon":5.40117,"is_reserved":false,"is_disabled":false,"rental_uris":{"android":"levelo://app?vid=28722042-4008-4eba-a31f-3995a1d12a10","ios":"levelo://app?vid=28722042-4008-4eba-a31f-3995a1d12a10"},"vehicle_type_id":"4","last_reported":1727064699,"current_range_meters":39200,"station_id":"ce4bh312rcd13ifvqdk0","pricing_plan_id":"cebpf4jnsgd1na2vs0mg"},{"bike_id":"76ac7a00-1538-40b8-9656-611a15972685","system_id":"levelo_inurba_marseille","lat":43.28434,"lon":5.3919,"is_reserved":false,"is_disabled":false,"rental_uris":{"android":"levelo://app?vid=76ac7a00-1538-40b8-9656-611a15972685","ios":"levelo://app?vid=76ac7a00-1538-40b8-9656-611a15972685"},"vehicle_type_id":"4","last_reported":1727064699,"current_range_meters":39200,"station_id":"ce4bhoh2rcd13ifvqh5g","pricing_plan_id":"cebpf4jnsgd1na2vs0mg"},{"bike_id":"cafc1892-d38a-400e-9753-0536b0eb5bd7","system_id":"levelo_inurba_marseille","lat":43.27493,"lon":5.42454,"is_reserved":false,"is_disabled":false,"rental_uris":{"android":"levelo://app?vid=cafc1892-d38a-400e-9753-0536b0eb5bd7","ios":"levelo://app?vid=cafc1892-d38a-400e-9753-0536b0eb5bd7"},"vehicle_type_id":"4","last_reported":1727064699,"current_range_meters":11600,"station_id":"ce4bhn92rcd13ifvqgrg","pricing_plan_id":"cebpf4jnsgd1na2vs0mg"},{"bike_id":"ab53795f-5404-4f9e-b16e-6b273164588e","system_id":"levelo_inurba_marseille","lat":43.33022,"lon":5.39044,"is_reserved":false,"is_disabled":false,"rental_uris":{"android":"levelo://app?vid=ab53795f-5404-4f9e-b16e-6b273164588e","ios":"levelo://app?vid=ab53795f-5404-4f9e-b16e-6b273164588e"},"vehicle_type_id":"4","last_reported":1727064699,"current_range_meters":24000,"station_id":"ce4bhr92rcd13ifvqhrg","pricing_plan_id":"cebpf4jnsgd1na2vs0mg"},{"bike_id":"a1130285-14c1-471d-a411-fb2eed577eff","system_id":"levelo_inurba_marseille","lat":43.23164,"lon":5.43687,"is_reserved":false,"is_disabled":false,"rental_uris":{"android":"levelo://app?vid=a1130285-14c1-471d-a411-fb2eed577eff","ios":"levelo://app?vid=a1130285-14c1-471d-a411-fb2eed577eff"},"vehicle_type_id":"4","last_reported":1727064699,"current_range_meters":28800,"station_id":"ce4bhmp2rcd13ifvqgog","pricing_plan_id":"cebpf4jnsgd1na2vs0mg"},{"bike_id":"6ea9348a-376a-4865-b15d-1cc34e14a9e7","system_id":"levelo_inurba_marseille","lat":43.30591,"lon":5.39358,"is_reserved":false,"is_disabled":false,"rental_uris":{"android":"levelo://app?vid=6ea9348a-376a-4865-b15d-1cc34e14a9e7","ios":"levelo://app?vid=6ea9348a-376a-4865-b15d-1cc34e14a9e7"},"vehicle_type_id":"4","last_reported":1727064699,"current_range_meters":38000,"station_id":"ce4bh0p2rcd13ifvqd80","pricing_plan_id":"cebpf4jnsgd1na2vs0mg"},{"bike_id":"d71aaa7a-c83f-4f2e-9c67-cd373eea6523","system_id":"levelo_inurba_marseille","lat":43.32651,"lon":5.40988,"is_reserved":false,"is_disabled":false,"rental_uris":{"android":"levelo://app?vid=d71aaa7a-c83f-4f2e-9c67-cd373eea6523","ios":"levelo://app?vid=d71aaa7a-c83f-4f2e-9c67-cd373eea6523"},"vehicle_type_id":"4","last_reported":1727064699,"current_range_meters":38800,"station_id":"ce4bhpp2rcd13ifvqhgg","pricing_plan_id":"cebpf4jnsgd1na2vs0mg"},{"bike_id":"d4cd02a2-8196-45a0-ade7-083f2b1cddee","system_id":"levelo_inurba_marseille","lat":43.24184,"lon":5.39723,"is_reserved":false,"is_disabled":false,"rental_uris":{"android":"levelo://app?vid=d4cd02a2-8196-45a0-ade7-083f2b1cddee","ios":"levelo://app?vid=d4cd02a2-8196-45a0-ade7-083f2b1cddee"},"vehicle_type_id":"4","last_reported":1727064699,"current_range_meters":36000,"station_id":"ce4bhn12rcd13ifvqgpg","pricing_plan_id":"cebpf4jnsgd1na2vs0mg"},{"bike_id":"c77d3159-d214-4bf3-9cdb-392138c35ac1","system_id":"levelo_inurba_marseille","lat":43.3414,"lon":5.40899,"is_reserved":false,"is_disabled":false,"rental_uris":{"android":"levelo://app?vid=c77d3159-d214-4bf3-9cdb-392138c35ac1","ios":"levelo://app?vid=c77d3159-d214-4bf3-9cdb-392138c35ac1"},"vehicle_type_id":"4","last_reported":1727064699,"current_range_meters":12400,"station_id":"ce4bhqh2rcd13ifvqhlg","pricing_plan_id":"cebpf4jnsgd1na2vs0mg"},{"bike_id":"8a1d17d2-6998-4d93-83ce-788a384c7bd2","system_id":"levelo_inurba_marseille","lat":43.24178,"lon":5.3973,"is_reserved":false,"is_disabled":false,"rental_uris":{"android":"levelo://app?vid=8a1d17d2-6998-4d93-83ce-788a384c7bd2","ios":"levelo://app?vid=8a1d17d2-6998-4d93-83ce-788a384c7bd2"},"vehicle_type_id":"4","last_reported":1727064699,"current_range_meters":8400,"station_id":"ce4bhn12rcd13ifvqgpg","pricing_plan_id":"cebpf4jnsgd1na2vs0mg"},{"bike_id":"fb3f4093-9422-43c2-a0cb-5d6da8e76d3b","system_id":"levelo_inurba_marseille","lat":43.31708,"lon":5.37752,"is_reserved":false,"is_disabled":false,"rental_uris":{"android":"levelo://app?vid=fb3f4093-9422-43c2-a0cb-5d6da8e76d3b","ios":"levelo://app?vid=fb3f4093-9422-43c2-a0cb-5d6da8e76d3b"},"vehicle_type_id":"4","last_reported":1727064699,"current_range_meters":34000,"station_id":"ce4bgth2rcd13ifvqch0","pricing_plan_id":"cebpf4jnsgd1na2vs0mg"},{"bike_id":"ac5a0061-a88b-44b5-a5f7-d387c83073a5","system_id":"levelo_inurba_marseille","lat":43.28702,"lon":5.3738,"is_reserved":false,"is_disabled":false,"rental_uris":{"android":"levelo://app?vid=ac5a0061-a88b-44b5-a5f7-d387c83073a5","ios":"levelo://app?vid=ac5a0061-a88b-44b5-a5f7-d387c83073a5"},"vehicle_type_id":"4","last_reported":1727064699,"current_range_meters":38800,"station_id":"ce4bh3p2rcd13ifvqdq0","pricing_plan_id":"cebpf4jnsgd1na2vs0mg"},{"bike_id":"6fe1cbeb-b95e-4907-8bc9-5622e3103893","system_id":"levelo_inurba_marseille","lat":43.28713,"lon":5.39974,"is_reserved":false,"is_disabled":false,"rental_uris":{"android":"levelo://app?vid=6fe1cbeb-b95e-4907-8bc9-5622e3103893","ios":"levelo://app?vid=6fe1cbeb-b95e-4907-8bc9-5622e3103893"},"vehicle_type_id":"4","last_reported":1727064699,"current_range_meters":38800,"station_id":"ce4bho92rcd13ifvqh3g","pricing_plan_id":"cebpf4jnsgd1na2vs0mg"},{"bike_id":"44b50cd5-9fec-40b7-88e0-c89ccba3762c","system_id":"levelo_inurba_marseille","lat":43.2315,"lon":5.43707,"is_reserved":false,"is_disabled":false,"rental_uris":{"android":"levelo://app?vid=44b50cd5-9fec-40b7-88e0-c89ccba3762c","ios":"levelo://app?vid=44b50cd5-9fec-40b7-88e0-c89ccba3762c"},"vehicle_type_id":"4","last_reported":1727064699,"current_range_meters":37600,"station_id":"ce4bhmp2rcd13ifvqgog","pricing_plan_id":"cebpf4jnsgd1na2vs0mg"},{"bike_id":"a9fbe5c6-9416-4266-8b17-344d4952648e","system_id":"levelo_inurba_marseille","lat":43.30439,"lon":5.38888,"is_reserved":false,"is_disabled":false,"rental_uris":{"android":"levelo://app?vid=a9fbe5c6-9416-4266-8b17-344d4952648e","ios":"levelo://app?vid=a9fbe5c6-9416-4266-8b17-344d4952648e"},"vehicle_type_id":"4","last_reported":1727064699,"current_range_meters":26000,"station_id":"ce4bgk12rcd13ifvqbi0","pricing_plan_id":"cebpf4jnsgd1na2vs0mg"},{"bike_id":"8495d9eb-0df1-4c0d-b837-ecf6b4ab9089","system_id":"levelo_inurba_marseille","lat":43.30117,"lon":5.380825,"is_reserved":false,"is_disabled":false,"rental_uris":{"android":"levelo://app?vid=8495d9eb-0df1-4c0d-b837-ecf6b4ab9089","ios":"levelo://app?vid=8495d9eb-0df1-4c0d-b837-ecf6b4ab9089"},"vehicle_type_id":"4","last_reported":1727064699,"current_range_meters":37600,"station_id":"ce4bgjp2rcd13ifvqbh0","pricing_plan_id":"cebpf4jnsgd1na2vs0mg"},{"bike_id":"48452f50-63af-4cd0-8824-2230a94962bf","system_id":"levelo_inurba_marseille","lat":43.25937,"lon":5.40896,"is_reserved":false,"is_disabled":false,"rental_uris":{"android":"levelo://app?vid=48452f50-63af-4cd0-8824-2230a94962bf","ios":"levelo://app?vid=48452f50-63af-4cd0-8824-2230a94962bf"},"vehicle_type_id":"4","last_reported":1727064699,"current_range_meters":38400,"station_id":"ce4bhm92rcd13ifvqglg","pricing_plan_id":"cebpf4jnsgd1na2vs0mg"},{"bike_id":"2823eae7-0480-4214-8c1f-396feb105876","system_id":"levelo_inurba_marseille","lat":43.30083,"lon":5.39078,"is_reserved":false,"is_disabled":false,"rental_uris":{"android":"levelo://app?vid=2823eae7-0480-4214-8c1f-396feb105876","ios":"levelo://app?vid=2823eae7-0480-4214-8c1f-396feb105876"},"vehicle_type_id":"4","last_reported":1727064699,"current_range_meters":38400,"station_id":"ce4bh192rcd13ifvqdb0","pricing_plan_id":"cebpf4jnsgd1na2vs0mg"},{"bike_id":"6cbc2fdc-96a1-4bca-b822-56394ecb85a1","system_id":"levelo_inurba_marseille","lat":43.29558,"lon":5.4229,"is_reserved":false,"is_disabled":false,"rental_uris":{"android":"levelo://app?vid=6cbc2fdc-96a1-4bca-b822-56394ecb85a1","ios":"levelo://app?vid=6cbc2fdc-96a1-4bca-b822-56394ecb85a1"},"vehicle_type_id":"4","last_reported":1727064699,"current_range_meters":39200,"station_id":"ce4bhph2rcd13ifvqhdg","pricing_plan_id":"cebpf4jnsgd1na2vs0mg"},{"bike_id":"a7a2630d-54d4-495a-8506-d0472b9b9a1a","system_id":"levelo_inurba_marseille","lat":43.29556,"lon":5.42287,"is_reserved":false,"is_disabled":false,"rental_uris":{"android":"levelo://app?vid=a7a2630d-54d4-495a-8506-d0472b9b9a1a","ios":"levelo://app?vid=a7a2630d-54d4-495a-8506-d0472b9b9a1a"},"vehicle_type_id":"4","last_reported":1727064699,"current_range_meters":36800,"station_id":"ce4bhph2rcd13ifvqhdg","pricing_plan_id":"cebpf4jnsgd1na2vs0mg"},{"bike_id":"2f2b1929-b699-467b-9772-662c41c4eaec","system_id":"levelo_inurba_marseille","lat":43.287,"lon":5.39977,"is_reserved":false,"is_disabled":false,"rental_uris":{"android":"levelo://app?vid=2f2b1929-b699-467b-9772-662c41c4eaec","ios":"levelo://app?vid=2f2b1929-b699-467b-9772-662c41c4eaec"},"vehicle_type_id":"4","last_reported":1727064699,"current_range_meters":28800,"station_id":"ce4bho92rcd13ifvqh3g","pricing_plan_id":"cebpf4jnsgd1na2vs0mg"},{"bike_id":"cb20367d-1ab1-4914-91c5-3f3b398b1ba5","system_id":"levelo_inurba_marseille","lat":43.29876,"lon":5.38913,"is_reserved":false,"is_disabled":false,"rental_uris":{"android":"levelo://app?vid=cb20367d-1ab1-4914-91c5-3f3b398b1ba5","ios":"levelo://app?vid=cb20367d-1ab1-4914-91c5-3f3b398b1ba5"},"vehicle_type_id":"4","last_reported":1727064699,"current_range_meters":32400,"station_id":"ce4bh392rcd13ifvqdl0","pricing_plan_id":"cebpf4jnsgd1na2vs0mg"},{"bike_id":"6e49deb9-b42e-4695-aec6-d03ac884effc","system_id":"levelo_inurba_marseille","lat":43.24167,"lon":5.39732,"is_reserved":false,"is_disabled":false,"rental_uris":{"android":"levelo://app?vid=6e49deb9-b42e-4695-aec6-d03ac884effc","ios":"levelo://app?vid=6e49deb9-b42e-4695-aec6-d03ac884effc"},"vehicle_type_id":"4","last_reported":1727064699,"current_range_meters":29600,"station_id":"ce4bhn12rcd13ifvqgpg","pricing_plan_id":"cebpf4jnsgd1na2vs0mg"},{"bike_id":"ed54be99-fc57-4d5a-a64d-283a09df8194","system_id":"levelo_inurba_marseille","lat":43.27418,"lon":5.36198,"is_reserved":false,"is_disabled":false,"rental_uris":{"android":"levelo://app?vid=ed54be99-fc57-4d5a-a64d-283a09df8194","ios":"levelo://app?vid=ed54be99-fc57-4d5a-a64d-283a09df8194"},"vehicle_type_id":"4","last_reported":1727064699,"current_range_meters":38800,"station_id":"ce4bhbh2rcd13ifvqeo0","pricing_plan_id":"cebpf4jnsgd1na2vs0mg"},{"bike_id":"37733b1d-1f93-451c-9353-89fb5821cbba","system_id":"levelo_inurba_marseille","lat":43.31114,"lon":5.37771,"is_reserved":false,"is_disabled":false,"rental_uris":{"android":"levelo://app?vid=37733b1d-1f93-451c-9353-89fb5821cbba","ios":"levelo://app?vid=37733b1d-1f93-451c-9353-89fb5821cbba"},"vehicle_type_id":"4","last_reported":1727064699,"current_range_meters":27600,"station_id":"ce4bgt92rcd13ifvqcg0","pricing_plan_id":"cebpf4jnsgd1na2vs0mg"},{"bike_id":"2c18dff2-fa71-477e-b0ed-b58f04595fac","system_id":"levelo_inurba_marseille","lat":43.28437,"lon":5.39181,"is_reserved":false,"is_disabled":false,"rental_uris":{"android":"levelo://app?vid=2c18dff2-fa71-477e-b0ed-b58f04595fac","ios":"levelo://app?vid=2c18dff2-fa71-477e-b0ed-b58f04595fac"},"vehicle_type_id":"4","last_reported":1727064699,"current_range_meters":10000,"station_id":"ce4bhoh2rcd13ifvqh5g","pricing_plan_id":"cebpf4jnsgd1na2vs0mg"},{"bike_id":"0108a6f1-5990-42c7-9b68-c70f60ae0414","system_id":"levelo_inurba_marseille","lat":43.28004,"lon":5.41655,"is_reserved":false,"is_disabled":false,"rental_uris":{"android":"levelo://app?vid=0108a6f1-5990-42c7-9b68-c70f60ae0414","ios":"levelo://app?vid=0108a6f1-5990-42c7-9b68-c70f60ae0414"},"vehicle_type_id":"4","last_reported":1727064699,"current_range_meters":38800,"station_id":"ce4bho12rcd13ifvqh1g","pricing_plan_id":"cebpf4jnsgd1na2vs0mg"},{"bike_id":"b52d2e5c-a05c-409f-8fee-a8cb641ddcf0","system_id":"levelo_inurba_marseille","lat":43.29292,"lon":5.40109,"is_reserved":false,"is_disabled":false,"rental_uris":{"android":"levelo://app?vid=b52d2e5c-a05c-409f-8fee-a8cb641ddcf0","ios":"levelo://app?vid=b52d2e5c-a05c-409f-8fee-a8cb641ddcf0"},"vehicle_type_id":"4","last_reported":1727064699,"current_range_meters":38800,"station_id":"ce4bh312rcd13ifvqdk0","pricing_plan_id":"cebpf4jnsgd1na2vs0mg"},{"bike_id":"8ea3ea29-5c01-4016-a590-e853cf837830","system_id":"levelo_inurba_marseille","lat":43.24652,"lon":5.38901,"is_reserved":false,"is_disabled":false,"rental_uris":{"android":"levelo://app?vid=8ea3ea29-5c01-4016-a590-e853cf837830","ios":"levelo://app?vid=8ea3ea29-5c01-4016-a590-e853cf837830"},"vehicle_type_id":"4","last_reported":1727064699,"current_range_meters":38400,"station_id":"ce4bhg12rcd13ifvqf60","pricing_plan_id":"cebpf4jnsgd1na2vs0mg"},{"bike_id":"3b2b32b1-081b-464a-b5e2-ce0b7792839b","system_id":"levelo_inurba_marseille","lat":43.26816,"lon":5.38017,"is_reserved":false,"is_disabled":false,"rental_uris":{"android":"levelo://app?vid=3b2b32b1-081b-464a-b5e2-ce0b7792839b","ios":"levelo://app?vid=3b2b32b1-081b-464a-b5e2-ce0b7792839b"},"vehicle_type_id":"4","last_reported":1727064699,"current_range_meters":26000,"station_id":"","pricing_plan_id":"cebpf4jnsgd1na2vs0mg"},{"bike_id":"71aa8592-ddf7-4343-aed4-c00d3433340f","system_id":"levelo_inurba_marseille","lat":43.337444,"lon":5.374475,"is_reserved":false,"is_disabled":false,"rental_uris":{"android":"levelo://app?vid=71aa8592-ddf7-4343-aed4-c00d3433340f","ios":"levelo://app?vid=71aa8592-ddf7-4343-aed4-c00d3433340f"},"vehicle_type_id":"4","last_reported":1727064699,"current_range_meters":28400,"station_id":"","pricing_plan_id":"cebpf4jnsgd1na2vs0mg"},{"bike_id":"3740c6df-06cd-419b-9ae6-b8d9e5eff548","system_id":"levelo_inurba_marseille","lat":43.2753,"lon":5.40935,"is_reserved":false,"is_disabled":false,"rental_uris":{"android":"levelo://app?vid=3740c6df-06cd-419b-9ae6-b8d9e5eff548","ios":"levelo://app?vid=3740c6df-06cd-419b-9ae6-b8d9e5eff548"},"vehicle_type_id":"4","last_reported":1727064699,"current_range_meters":10800,"station_id":"","pricing_plan_id":"cebpf4jnsgd1na2vs0mg"},{"bike_id":"29d7ab3c-43b3-4b3f-9c8a-d73e5bafd264","system_id":"levelo_inurba_marseille","lat":43.30772,"lon":5.37648,"is_reserved":false,"is_disabled":false,"rental_uris":{"android":"levelo://app?vid=29d7ab3c-43b3-4b3f-9c8a-d73e5bafd264","ios":"levelo://app?vid=29d7ab3c-43b3-4b3f-9c8a-d73e5bafd264"},"vehicle_type_id":"4","last_reported":1727064699,"current_range_meters":34800,"station_id":"ce4bgv92rcd13ifvqcq0","pricing_plan_id":"cebpf4jnsgd1na2vs0mg"},{"bike_id":"46807c42-7e0f-41de-b136-7e715e0b4142","system_id":"levelo_inurba_marseille","lat":43.30928,"lon":5.40143,"is_reserved":false,"is_disabled":false,"rental_uris":{"android":"levelo://app?vid=46807c42-7e0f-41de-b136-7e715e0b4142","ios":"levelo://app?vid=46807c42-7e0f-41de-b136-7e715e0b4142"},"vehicle_type_id":"4","last_reported":1727064699,"current_range_meters":29600,"station_id":"ce4bgvp2rcd13ifvqct0","pricing_plan_id":"cebpf4jnsgd1na2vs0mg"},{"bike_id":"37cfea08-a4a9-4194-96d9-f325f70d9e4d","system_id":"levelo_inurba_marseille","lat":43.25581,"lon":5.38234,"is_reserved":false,"is_disabled":false,"rental_uris":{"android":"levelo://app?vid=37cfea08-a4a9-4194-96d9-f325f70d9e4d","ios":"levelo://app?vid=37cfea08-a4a9-4194-96d9-f325f70d9e4d"},"vehicle_type_id":"4","last_reported":1727064699,"current_range_meters":8800,"station_id":"ce4bhih2rcd13ifvqfs0","pricing_plan_id":"cebpf4jnsgd1na2vs0mg"},{"bike_id":"c45c54a2-85ba-45c7-bb62-8a08cffc4b74","system_id":"levelo_inurba_marseille","lat":43.27941,"lon":5.41038,"is_reserved":false,"is_disabled":false,"rental_uris":{"android":"levelo://app?vid=c45c54a2-85ba-45c7-bb62-8a08cffc4b74","ios":"levelo://app?vid=c45c54a2-85ba-45c7-bb62-8a08cffc4b74"},"vehicle_type_id":"4","last_reported":1727064699,"current_range_meters":38800,"station_id":"ce4bhnp2rcd13ifvqh0g","pricing_plan_id":"cebpf4jnsgd1na2vs0mg"},{"bike_id":"37129aa8-05a3-4467-8fa1-1fc6f7f9028c","system_id":"levelo_inurba_marseille","lat":43.30954,"lon":5.39047,"is_reserved":false,"is_disabled":false,"rental_uris":{"android":"levelo://app?vid=37129aa8-05a3-4467-8fa1-1fc6f7f9028c","ios":"levelo://app?vid=37129aa8-05a3-4467-8fa1-1fc6f7f9028c"},"vehicle_type_id":"4","last_reported":1727064699,"current_range_meters":38800,"station_id":"ce4bgup2rcd13ifvqco0","pricing_plan_id":"cebpf4jnsgd1na2vs0mg"},{"bike_id":"6b1bfc7c-4a19-4e40-a1e6-7bc55c265373","system_id":"levelo_inurba_marseille","lat":43.27855,"lon":5.38656,"is_reserved":false,"is_disabled":false,"rental_uris":{"android":"levelo://app?vid=6b1bfc7c-4a19-4e40-a1e6-7bc55c265373","ios":"levelo://app?vid=6b1bfc7c-4a19-4e40-a1e6-7bc55c265373"},"vehicle_type_id":"4","last_reported":1727064699,"current_range_meters":35200,"station_id":"","pricing_plan_id":"cebpf4jnsgd1na2vs0mg"},{"bike_id":"38e55ba7-c26c-4b9c-8404-9f7cec825759","system_id":"levelo_inurba_marseille","lat":43.22931,"lon":5.35373,"is_reserved":false,"is_disabled":false,"rental_uris":{"android":"levelo://app?vid=38e55ba7-c26c-4b9c-8404-9f7cec825759","ios":"levelo://app?vid=38e55ba7-c26c-4b9c-8404-9f7cec825759"},"vehicle_type_id":"4","last_reported":1727064699,"current_range_meters":36400,"station_id":"cpo3532slgdg3j2ikp40","pricing_plan_id":"cebpf4jnsgd1na2vs0mg"},{"bike_id":"80ef7279-b375-4587-b39b-77c91fd7500b","system_id":"levelo_inurba_marseille","lat":43.33605,"lon":5.41015,"is_reserved":false,"is_disabled":false,"rental_uris":{"android":"levelo://app?vid=80ef7279-b375-4587-b39b-77c91fd7500b","ios":"levelo://app?vid=80ef7279-b375-4587-b39b-77c91fd7500b"},"vehicle_type_id":"4","last_reported":1727064699,"current_range_meters":39200,"station_id":"ce4bhqh2rcd13ifvqhmg","pricing_plan_id":"cebpf4jnsgd1na2vs0mg"},{"bike_id":"4f9e9b1f-e826-448a-912b-700a95196389","system_id":"levelo_inurba_marseille","lat":43.31489,"lon":5.37296,"is_reserved":false,"is_disabled":false,"rental_uris":{"android":"levelo://app?vid=4f9e9b1f-e826-448a-912b-700a95196389","ios":"levelo://app?vid=4f9e9b1f-e826-448a-912b-700a95196389"},"vehicle_type_id":"4","last_reported":1727064699,"current_range_meters":39200,"station_id":"ce4bgt12rcd13ifvqcd0","pricing_plan_id":"cebpf4jnsgd1na2vs0mg"},{"bike_id":"2d6ee101-a58f-40c9-b8c4-31c05bff39c7","system_id":"levelo_inurba_marseille","lat":43.30322,"lon":5.40444,"is_reserved":false,"is_disabled":false,"rental_uris":{"android":"levelo://app?vid=2d6ee101-a58f-40c9-b8c4-31c05bff39c7","ios":"levelo://app?vid=2d6ee101-a58f-40c9-b8c4-31c05bff39c7"},"vehicle_type_id":"4","last_reported":1727064699,"current_range_meters":8400,"station_id":"ce4bh012rcd13ifvqd10","pricing_plan_id":"cebpf4jnsgd1na2vs0mg"},{"bike_id":"c11ed82c-1d9e-425d-9840-8ef40b737a69","system_id":"levelo_inurba_marseille","lat":43.2606,"lon":5.3939,"is_reserved":false,"is_disabled":false,"rental_uris":{"android":"levelo://app?vid=c11ed82c-1d9e-425d-9840-8ef40b737a69","ios":"levelo://app?vid=c11ed82c-1d9e-425d-9840-8ef40b737a69"},"vehicle_type_id":"4","last_reported":1727064699,"current_range_meters":20000,"station_id":"ce4bhh92rcd13ifvqfj0","pricing_plan_id":"cebpf4jnsgd1na2vs0mg"},{"bike_id":"66970e56-2097-48b0-a677-6535f6ec87c3","system_id":"levelo_inurba_marseille","lat":43.28154,"lon":5.42634,"is_reserved":false,"is_disabled":false,"rental_uris":{"android":"levelo://app?vid=66970e56-2097-48b0-a677-6535f6ec87c3","ios":"levelo://app?vid=66970e56-2097-48b0-a677-6535f6ec87c3"},"vehicle_type_id":"4","last_reported":1727064699,"current_range_meters":38400,"station_id":"ce4bhnh2rcd13ifvqgug","pricing_plan_id":"cebpf4jnsgd1na2vs0mg"},{"bike_id":"518b8ead-6bb1-4f89-8f16-beb04e98b2c2","system_id":"levelo_inurba_marseille","lat":43.30934,"lon":5.40141,"is_reserved":false,"is_disabled":false,"rental_uris":{"android":"levelo://app?vid=518b8ead-6bb1-4f89-8f16-beb04e98b2c2","ios":"levelo://app?vid=518b8ead-6bb1-4f89-8f16-beb04e98b2c2"},"vehicle_type_id":"4","last_reported":1727064699,"current_range_meters":32800,"station_id":"ce4bgvp2rcd13ifvqct0","pricing_plan_id":"cebpf4jnsgd1na2vs0mg"},{"bike_id":"abd16d25-6848-4cfd-b0ca-335dc7909ee6","system_id":"levelo_inurba_marseille","lat":43.30962,"lon":5.39048,"is_reserved":false,"is_disabled":false,"rental_uris":{"android":"levelo://app?vid=abd16d25-6848-4cfd-b0ca-335dc7909ee6","ios":"levelo://app?vid=abd16d25-6848-4cfd-b0ca-335dc7909ee6"},"vehicle_type_id":"4","last_reported":1727064699,"current_range_meters":36800,"station_id":"ce4bgup2rcd13ifvqco0","pricing_plan_id":"cebpf4jnsgd1na2vs0mg"},{"bike_id":"f2c752a1-56a8-478a-bfde-d550e6225907","system_id":"levelo_inurba_marseille","lat":43.31273,"lon":5.40163,"is_reserved":false,"is_disabled":false,"rental_uris":{"android":"levelo://app?vid=f2c752a1-56a8-478a-bfde-d550e6225907","ios":"levelo://app?vid=f2c752a1-56a8-478a-bfde-d550e6225907"},"vehicle_type_id":"4","last_reported":1727064699,"current_range_meters":38800,"station_id":"ce4bh092rcd13ifvqd30","pricing_plan_id":"cebpf4jnsgd1na2vs0mg"},{"bike_id":"e68923eb-9d1a-4a01-8786-5cb089bf8e8f","system_id":"levelo_inurba_marseille","lat":43.33023,"lon":5.39054,"is_reserved":false,"is_disabled":false,"rental_uris":{"android":"levelo://app?vid=e68923eb-9d1a-4a01-8786-5cb089bf8e8f","ios":"levelo://app?vid=e68923eb-9d1a-4a01-8786-5cb089bf8e8f"},"vehicle_type_id":"4","last_reported":1727064699,"current_range_meters":38000,"station_id":"ce4bhr92rcd13ifvqhrg","pricing_plan_id":"cebpf4jnsgd1na2vs0mg"},{"bike_id":"b6be7281-305f-4cff-b5d9-59ddfbbdef54","system_id":"levelo_inurba_marseille","lat":43.2826,"lon":5.35062,"is_reserved":false,"is_disabled":false,"rental_uris":{"android":"levelo://app?vid=b6be7281-305f-4cff-b5d9-59ddfbbdef54","ios":"levelo://app?vid=b6be7281-305f-4cff-b5d9-59ddfbbdef54"},"vehicle_type_id":"4","last_reported":1727064699,"current_range_meters":22000,"station_id":"ce4bhbp2rcd13ifvqerg","pricing_plan_id":"cebpf4jnsgd1na2vs0mg"},{"bike_id":"34bac9de-afcc-485f-a901-124a385dd441","system_id":"levelo_inurba_marseille","lat":43.2454,"lon":5.39526,"is_reserved":false,"is_disabled":false,"rental_uris":{"android":"levelo://app?vid=34bac9de-afcc-485f-a901-124a385dd441","ios":"levelo://app?vid=34bac9de-afcc-485f-a901-124a385dd441"},"vehicle_type_id":"4","last_reported":1727064699,"current_range_meters":36400,"station_id":"ce4bhlp2rcd13ifvqgjg","pricing_plan_id":"cebpf4jnsgd1na2vs0mg"},{"bike_id":"2ee07ada-3085-496d-98ef-ceb76f26f88d","system_id":"levelo_inurba_marseille","lat":43.24646,"lon":5.38892,"is_reserved":false,"is_disabled":false,"rental_uris":{"android":"levelo://app?vid=2ee07ada-3085-496d-98ef-ceb76f26f88d","ios":"levelo://app?vid=2ee07ada-3085-496d-98ef-ceb76f26f88d"},"vehicle_type_id":"4","last_reported":1727064699,"current_range_meters":8400,"station_id":"ce4bhg12rcd13ifvqf60","pricing_plan_id":"cebpf4jnsgd1na2vs0mg"},{"bike_id":"a53869a3-1513-403b-a98d-4b025ee2b884","system_id":"levelo_inurba_marseille","lat":43.28266,"lon":5.3507,"is_reserved":false,"is_disabled":false,"rental_uris":{"android":"levelo://app?vid=a53869a3-1513-403b-a98d-4b025ee2b884","ios":"levelo://app?vid=a53869a3-1513-403b-a98d-4b025ee2b884"},"vehicle_type_id":"4","last_reported":1727064699,"current_range_meters":38800,"station_id":"ce4bhbp2rcd13ifvqerg","pricing_plan_id":"cebpf4jnsgd1na2vs0mg"},{"bike_id":"4fa34960-decf-4eb1-8010-8d4d7c9724e5","system_id":"levelo_inurba_marseille","lat":43.27373,"lon":5.36259,"is_reserved":false,"is_disabled":false,"rental_uris":{"android":"levelo://app?vid=4fa34960-decf-4eb1-8010-8d4d7c9724e5","ios":"levelo://app?vid=4fa34960-decf-4eb1-8010-8d4d7c9724e5"},"vehicle_type_id":"4","last_reported":1727064699,"current_range_meters":37600,"station_id":"ce4bhbh2rcd13ifvqeo0","pricing_plan_id":"cebpf4jnsgd1na2vs0mg"},{"bike_id":"1575e777-51f8-479e-bd95-714cef91a125","system_id":"levelo_inurba_marseille","lat":43.24178,"lon":5.39718,"is_reserved":false,"is_disabled":false,"rental_uris":{"android":"levelo://app?vid=1575e777-51f8-479e-bd95-714cef91a125","ios":"levelo://app?vid=1575e777-51f8-479e-bd95-714cef91a125"},"vehicle_type_id":"4","last_reported":1727064699,"current_range_meters":24000,"station_id":"ce4bhn12rcd13ifvqgpg","pricing_plan_id":"cebpf4jnsgd1na2vs0mg"},{"bike_id":"a636234e-572f-46e5-a527-73d727d52b0f","system_id":"levelo_inurba_marseille","lat":43.29553,"lon":5.42293,"is_reserved":false,"is_disabled":false,"rental_uris":{"android":"levelo://app?vid=a636234e-572f-46e5-a527-73d727d52b0f","ios":"levelo://app?vid=a636234e-572f-46e5-a527-73d727d52b0f"},"vehicle_type_id":"4","last_reported":1727064699,"current_range_meters":2000,"station_id":"ce4bhph2rcd13ifvqhdg","pricing_plan_id":"cebpf4jnsgd1na2vs0mg"},{"bike_id":"83c8f2ac-76da-43d1-b697-b4eea819e0ce","system_id":"levelo_inurba_marseille","lat":43.2572,"lon":5.41111,"is_reserved":false,"is_disabled":false,"rental_uris":{"android":"levelo://app?vid=83c8f2ac-76da-43d1-b697-b4eea819e0ce","ios":"levelo://app?vid=83c8f2ac-76da-43d1-b697-b4eea819e0ce"},"vehicle_type_id":"4","last_reported":1727064699,"current_range_meters":37600,"station_id":"ce4bhkp2rcd13ifvqgd0","pricing_plan_id":"cebpf4jnsgd1na2vs0mg"},{"bike_id":"8fbc3666-7cbe-41b2-8652-ddf896878b2b","system_id":"levelo_inurba_marseille","lat":43.24999,"lon":5.38937,"is_reserved":false,"is_disabled":false,"rental_uris":{"android":"levelo://app?vid=8fbc3666-7cbe-41b2-8652-ddf896878b2b","ios":"levelo://app?vid=8fbc3666-7cbe-41b2-8652-ddf896878b2b"},"vehicle_type_id":"4","last_reported":1727064699,"current_range_meters":28000,"station_id":"ce4bhgp2rcd13ifvqfd0","pricing_plan_id":"cebpf4jnsgd1na2vs0mg"},{"bike_id":"c92db725-6c08-4bad-a265-5d68ad5ce6a2","system_id":"levelo_inurba_marseille","lat":43.24674,"lon":5.3815,"is_reserved":false,"is_disabled":false,"rental_uris":{"android":"levelo://app?vid=c92db725-6c08-4bad-a265-5d68ad5ce6a2","ios":"levelo://app?vid=c92db725-6c08-4bad-a265-5d68ad5ce6a2"},"vehicle_type_id":"4","last_reported":1727064699,"current_range_meters":26800,"station_id":"ce4bhih2rcd13ifvqfr0","pricing_plan_id":"cebpf4jnsgd1na2vs0mg"},{"bike_id":"3722c61d-e05c-4ceb-aa29-986ba2623a8f","system_id":"levelo_inurba_marseille","lat":43.30413,"lon":5.41288,"is_reserved":false,"is_disabled":false,"rental_uris":{"android":"levelo://app?vid=3722c61d-e05c-4ceb-aa29-986ba2623a8f","ios":"levelo://app?vid=3722c61d-e05c-4ceb-aa29-986ba2623a8f"},"vehicle_type_id":"4","last_reported":1727064699,"current_range_meters":38800,"station_id":"ce4bhop2rcd13ifvqh8g","pricing_plan_id":"cebpf4jnsgd1na2vs0mg"},{"bike_id":"d38f29ac-483f-4615-8611-042a55d41219","system_id":"levelo_inurba_marseille","lat":43.27427,"lon":5.39411,"is_reserved":false,"is_disabled":false,"rental_uris":{"android":"levelo://app?vid=d38f29ac-483f-4615-8611-042a55d41219","ios":"levelo://app?vid=d38f29ac-483f-4615-8611-042a55d41219"},"vehicle_type_id":"4","last_reported":1727064699,"current_range_meters":12800,"station_id":"ce4bhdp2rcd13ifvqf20","pricing_plan_id":"cebpf4jnsgd1na2vs0mg"},{"bike_id":"f3ad7f27-7b4f-46d2-8c13-ba5faf3e4338","system_id":"levelo_inurba_marseille","lat":43.287,"lon":5.39975,"is_reserved":false,"is_disabled":false,"rental_uris":{"android":"levelo://app?vid=f3ad7f27-7b4f-46d2-8c13-ba5faf3e4338","ios":"levelo://app?vid=f3ad7f27-7b4f-46d2-8c13-ba5faf3e4338"},"vehicle_type_id":"4","last_reported":1727064699,"current_range_meters":34000,"station_id":"ce4bho92rcd13ifvqh3g","pricing_plan_id":"cebpf4jnsgd1na2vs0mg"},{"bike_id":"1452c4a9-61ae-4e36-80bc-305f2209f473","system_id":"levelo_inurba_marseille","lat":43.25936,"lon":5.40897,"is_reserved":false,"is_disabled":false,"rental_uris":{"android":"levelo://app?vid=1452c4a9-61ae-4e36-80bc-305f2209f473","ios":"levelo://app?vid=1452c4a9-61ae-4e36-80bc-305f2209f473"},"vehicle_type_id":"4","last_reported":1727064699,"current_range_meters":3600,"station_id":"ce4bhm92rcd13ifvqglg","pricing_plan_id":"cebpf4jnsgd1na2vs0mg"},{"bike_id":"eb180e3f-798f-45ba-b557-391f0bdfd2af","system_id":"levelo_inurba_marseille","lat":43.28676,"lon":5.38659,"is_reserved":false,"is_disabled":false,"rental_uris":{"android":"levelo://app?vid=eb180e3f-798f-45ba-b557-391f0bdfd2af","ios":"levelo://app?vid=eb180e3f-798f-45ba-b557-391f0bdfd2af"},"vehicle_type_id":"4","last_reported":1727064699,"current_range_meters":2800,"station_id":"ce4bh492rcd13ifvqdug","pricing_plan_id":"cebpf4jnsgd1na2vs0mg"},{"bike_id":"dd3c0f29-d873-4e84-8878-f89933268bee","system_id":"levelo_inurba_marseille","lat":43.30773,"lon":5.37648,"is_reserved":false,"is_disabled":false,"rental_uris":{"android":"levelo://app?vid=dd3c0f29-d873-4e84-8878-f89933268bee","ios":"levelo://app?vid=dd3c0f29-d873-4e84-8878-f89933268bee"},"vehicle_type_id":"4","last_reported":1727064699,"current_range_meters":16000,"station_id":"ce4bgv92rcd13ifvqcq0","pricing_plan_id":"cebpf4jnsgd1na2vs0mg"},{"bike_id":"8f234d07-88cf-4b46-a0f1-cb37492ad8ff","system_id":"levelo_inurba_marseille","lat":43.31529,"lon":5.38026,"is_reserved":false,"is_disabled":false,"rental_uris":{"android":"levelo://app?vid=8f234d07-88cf-4b46-a0f1-cb37492ad8ff","ios":"levelo://app?vid=8f234d07-88cf-4b46-a0f1-cb37492ad8ff"},"vehicle_type_id":"4","last_reported":1727064699,"current_range_meters":38800,"station_id":"ce4bhsp2rcd13ifvqi50","pricing_plan_id":"cebpf4jnsgd1na2vs0mg"},{"bike_id":"d765ecc6-f24e-4e18-aeb0-429ef33b50a7","system_id":"levelo_inurba_marseille","lat":43.23188,"lon":5.39975,"is_reserved":false,"is_disabled":false,"rental_uris":{"android":"levelo://app?vid=d765ecc6-f24e-4e18-aeb0-429ef33b50a7","ios":"levelo://app?vid=d765ecc6-f24e-4e18-aeb0-429ef33b50a7"},"vehicle_type_id":"4","last_reported":1727064699,"current_range_meters":39200,"station_id":"ce4bhn12rcd13ifvqgqg","pricing_plan_id":"cebpf4jnsgd1na2vs0mg"},{"bike_id":"97280a24-d09c-40fe-909b-98f5b3c47bc1","system_id":"levelo_inurba_marseille","lat":43.30541,"lon":5.38425,"is_reserved":false,"is_disabled":false,"rental_uris":{"android":"levelo://app?vid=97280a24-d09c-40fe-909b-98f5b3c47bc1","ios":"levelo://app?vid=97280a24-d09c-40fe-909b-98f5b3c47bc1"},"vehicle_type_id":"4","last_reported":1727064699,"current_range_meters":16800,"station_id":"ce4bgg92rcd13ifvqb30","pricing_plan_id":"cebpf4jnsgd1na2vs0mg"},{"bike_id":"feb42740-c719-4916-9efa-d99f861e0e6d","system_id":"levelo_inurba_marseille","lat":43.32478,"lon":5.3656,"is_reserved":false,"is_disabled":false,"rental_uris":{"android":"levelo://app?vid=feb42740-c719-4916-9efa-d99f861e0e6d","ios":"levelo://app?vid=feb42740-c719-4916-9efa-d99f861e0e6d"},"vehicle_type_id":"4","last_reported":1727064699,"current_range_meters":32000,"station_id":"ce4bhs12rcd13ifvqhvg","pricing_plan_id":"cebpf4jnsgd1na2vs0mg"},{"bike_id":"c5ffc1c0-381a-458f-a127-016acbeaf92f","system_id":"levelo_inurba_marseille","lat":43.27899,"lon":5.38003,"is_reserved":false,"is_disabled":false,"rental_uris":{"android":"levelo://app?vid=c5ffc1c0-381a-458f-a127-016acbeaf92f","ios":"levelo://app?vid=c5ffc1c0-381a-458f-a127-016acbeaf92f"},"vehicle_type_id":"4","last_reported":1727064699,"current_range_meters":38800,"station_id":"ce4bhf92rcd13ifvqf50","pricing_plan_id":"cebpf4jnsgd1na2vs0mg"},{"bike_id":"3a31c119-84a0-49c4-94c3-ca79a3308e67","system_id":"levelo_inurba_marseille","lat":43.3236,"lon":5.38883,"is_reserved":false,"is_disabled":false,"rental_uris":{"android":"levelo://app?vid=3a31c119-84a0-49c4-94c3-ca79a3308e67","ios":"levelo://app?vid=3a31c119-84a0-49c4-94c3-ca79a3308e67"},"vehicle_type_id":"4","last_reported":1727064699,"current_range_meters":32800,"station_id":"ce4bhqp2rcd13ifvqhog","pricing_plan_id":"cebpf4jnsgd1na2vs0mg"},{"bike_id":"ffb3eff3-3eab-4aee-8214-41780d8a8a9e","system_id":"levelo_inurba_marseille","lat":43.2606,"lon":5.39394,"is_reserved":false,"is_disabled":false,"rental_uris":{"android":"levelo://app?vid=ffb3eff3-3eab-4aee-8214-41780d8a8a9e","ios":"levelo://app?vid=ffb3eff3-3eab-4aee-8214-41780d8a8a9e"},"vehicle_type_id":"4","last_reported":1727064699,"current_range_meters":28400,"station_id":"ce4bhh92rcd13ifvqfj0","pricing_plan_id":"cebpf4jnsgd1na2vs0mg"},{"bike_id":"d88c04c9-5e62-4d5d-851d-643f064c8972","system_id":"levelo_inurba_marseille","lat":43.2656,"lon":5.39003,"is_reserved":false,"is_disabled":false,"rental_uris":{"android":"levelo://app?vid=d88c04c9-5e62-4d5d-851d-643f064c8972","ios":"levelo://app?vid=d88c04c9-5e62-4d5d-851d-643f064c8972"},"vehicle_type_id":"4","last_reported":1727064699,"current_range_meters":38400,"station_id":"ce4bhe12rcd13ifvqf30","pricing_plan_id":"cebpf4jnsgd1na2vs0mg"},{"bike_id":"51223c2a-5e34-4b0d-8824-3f9cbd3a8c00","system_id":"levelo_inurba_marseille","lat":43.28715,"lon":5.37933,"is_reserved":false,"is_disabled":false,"rental_uris":{"android":"levelo://app?vid=51223c2a-5e34-4b0d-8824-3f9cbd3a8c00","ios":"levelo://app?vid=51223c2a-5e34-4b0d-8824-3f9cbd3a8c00"},"vehicle_type_id":"4","last_reported":1727064699,"current_range_meters":26000,"station_id":"ce4bh9p2rcd13ifvqec0","pricing_plan_id":"cebpf4jnsgd1na2vs0mg"},{"bike_id":"fce734b4-6c36-4cb6-983c-c95238702258","system_id":"levelo_inurba_marseille","lat":43.3108,"lon":5.381,"is_reserved":false,"is_disabled":false,"rental_uris":{"android":"levelo://app?vid=fce734b4-6c36-4cb6-983c-c95238702258","ios":"levelo://app?vid=fce734b4-6c36-4cb6-983c-c95238702258"},"vehicle_type_id":"4","last_reported":1727064699,"current_range_meters":9200,"station_id":"","pricing_plan_id":"cebpf4jnsgd1na2vs0mg"},{"bike_id":"e8f8ab27-f77d-4bf9-8271-d23d8528a026","system_id":"levelo_inurba_marseille","lat":43.27962,"lon":5.38705,"is_reserved":false,"is_disabled":false,"rental_uris":{"android":"levelo://app?vid=e8f8ab27-f77d-4bf9-8271-d23d8528a026","ios":"levelo://app?vid=e8f8ab27-f77d-4bf9-8271-d23d8528a026"},"vehicle_type_id":"4","last_reported":1727064699,"current_range_meters":34800,"station_id":"ce4bhg12rcd13ifvqf80","pricing_plan_id":"cebpf4jnsgd1na2vs0mg"},{"bike_id":"45490ac8-623c-4551-a999-bb2c395916cf","system_id":"levelo_inurba_marseille","lat":43.306,"lon":5.37222,"is_reserved":false,"is_disabled":false,"rental_uris":{"android":"levelo://app?vid=45490ac8-623c-4551-a999-bb2c395916cf","ios":"levelo://app?vid=45490ac8-623c-4551-a999-bb2c395916cf"},"vehicle_type_id":"4","last_reported":1727064699,"current_range_meters":25600,"station_id":"ce4bgqh2rcd13ifvqc4g","pricing_plan_id":"cebpf4jnsgd1na2vs0mg"},{"bike_id":"0f08bb21-cbbd-4eab-b6b5-6eba8e91ec1b","system_id":"levelo_inurba_marseille","lat":43.31885,"lon":5.40727,"is_reserved":false,"is_disabled":false,"rental_uris":{"android":"levelo://app?vid=0f08bb21-cbbd-4eab-b6b5-6eba8e91ec1b","ios":"levelo://app?vid=0f08bb21-cbbd-4eab-b6b5-6eba8e91ec1b"},"vehicle_type_id":"4","last_reported":1727064699,"current_range_meters":38000,"station_id":"ce4bhq12rcd13ifvqhig","pricing_plan_id":"cebpf4jnsgd1na2vs0mg"},{"bike_id":"4c3e92e3-3d2a-4b80-8f64-9e0ca57de5c6","system_id":"levelo_inurba_marseille","lat":43.31499,"lon":5.37312,"is_reserved":false,"is_disabled":false,"rental_uris":{"android":"levelo://app?vid=4c3e92e3-3d2a-4b80-8f64-9e0ca57de5c6","ios":"levelo://app?vid=4c3e92e3-3d2a-4b80-8f64-9e0ca57de5c6"},"vehicle_type_id":"4","last_reported":1727064699,"current_range_meters":33200,"station_id":"ce4bgt12rcd13ifvqcd0","pricing_plan_id":"cebpf4jnsgd1na2vs0mg"},{"bike_id":"e9ff8a04-d08a-4e53-ba15-13ed3974ebbf","system_id":"levelo_inurba_marseille","lat":43.29902,"lon":5.43672,"is_reserved":false,"is_disabled":false,"rental_uris":{"android":"levelo://app?vid=e9ff8a04-d08a-4e53-ba15-13ed3974ebbf","ios":"levelo://app?vid=e9ff8a04-d08a-4e53-ba15-13ed3974ebbf"},"vehicle_type_id":"4","last_reported":1727064699,"current_range_meters":11200,"station_id":"ce4bhpp2rcd13ifvqhfg","pricing_plan_id":"cebpf4jnsgd1na2vs0mg"},{"bike_id":"d0b13778-a7e3-482d-8599-6f8ea9d93aa3","system_id":"levelo_inurba_marseille","lat":43.2742,"lon":5.39404,"is_reserved":false,"is_disabled":false,"rental_uris":{"android":"levelo://app?vid=d0b13778-a7e3-482d-8599-6f8ea9d93aa3","ios":"levelo://app?vid=d0b13778-a7e3-482d-8599-6f8ea9d93aa3"},"vehicle_type_id":"4","last_reported":1727064699,"current_range_meters":37600,"station_id":"ce4bhdp2rcd13ifvqf20","pricing_plan_id":"cebpf4jnsgd1na2vs0mg"},{"bike_id":"b8901bf2-fc56-49ba-8703-896e1e8b899c","system_id":"levelo_inurba_marseille","lat":43.31326,"lon":5.39694,"is_reserved":false,"is_disabled":false,"rental_uris":{"android":"levelo://app?vid=b8901bf2-fc56-49ba-8703-896e1e8b899c","ios":"levelo://app?vid=b8901bf2-fc56-49ba-8703-896e1e8b899c"},"vehicle_type_id":"4","last_reported":1727064699,"current_range_meters":7200,"station_id":"ce4bgvp2rcd13ifvqcu0","pricing_plan_id":"cebpf4jnsgd1na2vs0mg"},{"bike_id":"372bfd1b-c960-4eea-832a-a45e5215a4c5","system_id":"levelo_inurba_marseille","lat":43.23182,"lon":5.39989,"is_reserved":false,"is_disabled":false,"rental_uris":{"android":"levelo://app?vid=372bfd1b-c960-4eea-832a-a45e5215a4c5","ios":"levelo://app?vid=372bfd1b-c960-4eea-832a-a45e5215a4c5"},"vehicle_type_id":"4","last_reported":1727064699,"current_range_meters":34000,"station_id":"ce4bhn12rcd13ifvqgqg","pricing_plan_id":"cebpf4jnsgd1na2vs0mg"},{"bike_id":"96cdf3d4-51e4-484c-b4a5-a5fb6c0d77b8","system_id":"levelo_inurba_marseille","lat":43.2512,"lon":5.40321,"is_reserved":false,"is_disabled":false,"rental_uris":{"android":"levelo://app?vid=96cdf3d4-51e4-484c-b4a5-a5fb6c0d77b8","ios":"levelo://app?vid=96cdf3d4-51e4-484c-b4a5-a5fb6c0d77b8"},"vehicle_type_id":"4","last_reported":1727064699,"current_range_meters":30000,"station_id":"ce4bhlh2rcd13ifvqgig","pricing_plan_id":"cebpf4jnsgd1na2vs0mg"},{"bike_id":"b39ebe60-aa4e-4957-9785-7cdebbf1ef23","system_id":"levelo_inurba_marseille","lat":43.28345,"lon":5.38106,"is_reserved":false,"is_disabled":false,"rental_uris":{"android":"levelo://app?vid=b39ebe60-aa4e-4957-9785-7cdebbf1ef23","ios":"levelo://app?vid=b39ebe60-aa4e-4957-9785-7cdebbf1ef23"},"vehicle_type_id":"4","last_reported":1727064699,"current_range_meters":32800,"station_id":"ce4bh412rcd13ifvqdr0","pricing_plan_id":"cebpf4jnsgd1na2vs0mg"},{"bike_id":"509b148d-0503-40c2-a2c5-19db187c5f80","system_id":"levelo_inurba_marseille","lat":43.24665,"lon":5.38156,"is_reserved":false,"is_disabled":false,"rental_uris":{"android":"levelo://app?vid=509b148d-0503-40c2-a2c5-19db187c5f80","ios":"levelo://app?vid=509b148d-0503-40c2-a2c5-19db187c5f80"},"vehicle_type_id":"4","last_reported":1727064699,"current_range_meters":8800,"station_id":"ce4bhih2rcd13ifvqfr0","pricing_plan_id":"cebpf4jnsgd1na2vs0mg"},{"bike_id":"80417826-0fa5-4ddb-a448-776c2aec83c1","system_id":"levelo_inurba_marseille","lat":43.25941,"lon":5.409,"is_reserved":false,"is_disabled":false,"rental_uris":{"android":"levelo://app?vid=80417826-0fa5-4ddb-a448-776c2aec83c1","ios":"levelo://app?vid=80417826-0fa5-4ddb-a448-776c2aec83c1"},"vehicle_type_id":"4","last_reported":1727064699,"current_range_meters":37600,"station_id":"ce4bhm92rcd13ifvqglg","pricing_plan_id":"cebpf4jnsgd1na2vs0mg"},{"bike_id":"b8551345-00a8-413b-a6da-b44b1e50d1de","system_id":"levelo_inurba_marseille","lat":43.27498,"lon":5.42451,"is_reserved":false,"is_disabled":false,"rental_uris":{"android":"levelo://app?vid=b8551345-00a8-413b-a6da-b44b1e50d1de","ios":"levelo://app?vid=b8551345-00a8-413b-a6da-b44b1e50d1de"},"vehicle_type_id":"4","last_reported":1727064699,"current_range_meters":36400,"station_id":"ce4bhn92rcd13ifvqgrg","pricing_plan_id":"cebpf4jnsgd1na2vs0mg"},{"bike_id":"13ab3718-9783-4db8-97e8-46509ea5f5da","system_id":"levelo_inurba_marseille","lat":43.2871,"lon":5.37934,"is_reserved":false,"is_disabled":false,"rental_uris":{"android":"levelo://app?vid=13ab3718-9783-4db8-97e8-46509ea5f5da","ios":"levelo://app?vid=13ab3718-9783-4db8-97e8-46509ea5f5da"},"vehicle_type_id":"4","last_reported":1727064699,"current_range_meters":38800,"station_id":"ce4bh9p2rcd13ifvqec0","pricing_plan_id":"cebpf4jnsgd1na2vs0mg"},{"bike_id":"e43e6310-a348-41cd-8943-af09fa3133d4","system_id":"levelo_inurba_marseille","lat":43.25863,"lon":5.39901,"is_reserved":false,"is_disabled":false,"rental_uris":{"android":"levelo://app?vid=e43e6310-a348-41cd-8943-af09fa3133d4","ios":"levelo://app?vid=e43e6310-a348-41cd-8943-af09fa3133d4"},"vehicle_type_id":"4","last_reported":1727064699,"current_range_meters":24800,"station_id":"ce4bhl92rcd13ifvqghg","pricing_plan_id":"cebpf4jnsgd1na2vs0mg"},{"bike_id":"b1b730e5-d886-4df1-a799-9883809c0631","system_id":"levelo_inurba_marseille","lat":43.28664,"lon":5.36349,"is_reserved":false,"is_disabled":false,"rental_uris":{"android":"levelo://app?vid=b1b730e5-d886-4df1-a799-9883809c0631","ios":"levelo://app?vid=b1b730e5-d886-4df1-a799-9883809c0631"},"vehicle_type_id":"4","last_reported":1727064699,"current_range_meters":38800,"station_id":"ce4bhah2rcd13ifvqej0","pricing_plan_id":"cebpf4jnsgd1na2vs0mg"},{"bike_id":"62017b31-9ca7-482e-a8fc-465f859e701f","system_id":"levelo_inurba_marseille","lat":43.29065,"lon":5.3716,"is_reserved":false,"is_disabled":false,"rental_uris":{"android":"levelo://app?vid=62017b31-9ca7-482e-a8fc-465f859e701f","ios":"levelo://app?vid=62017b31-9ca7-482e-a8fc-465f859e701f"},"vehicle_type_id":"4","last_reported":1727064699,"current_range_meters":37600,"station_id":"ce4bh5p2rcd13ifvqe4g","pricing_plan_id":"cebpf4jnsgd1na2vs0mg"},{"bike_id":"113b10fb-1b14-408a-97a3-970b058150a0","system_id":"levelo_inurba_marseille","lat":43.25863,"lon":5.39901,"is_reserved":false,"is_disabled":false,"rental_uris":{"android":"levelo://app?vid=113b10fb-1b14-408a-97a3-970b058150a0","ios":"levelo://app?vid=113b10fb-1b14-408a-97a3-970b058150a0"},"vehicle_type_id":"4","last_reported":1727064699,"current_range_meters":38400,"station_id":"ce4bhl92rcd13ifvqghg","pricing_plan_id":"cebpf4jnsgd1na2vs0mg"},{"bike_id":"37449279-2a9d-4c8e-986a-14e23da64700","system_id":"levelo_inurba_marseille","lat":43.30888,"lon":5.39639,"is_reserved":false,"is_disabled":false,"rental_uris":{"android":"levelo://app?vid=37449279-2a9d-4c8e-986a-14e23da64700","ios":"levelo://app?vid=37449279-2a9d-4c8e-986a-14e23da64700"},"vehicle_type_id":"4","last_reported":1727064699,"current_range_meters":39200,"station_id":"ce4bh012rcd13ifvqcv0","pricing_plan_id":"cebpf4jnsgd1na2vs0mg"},{"bike_id":"1b2633c7-3231-4e7d-89e9-a2c8e8cd897a","system_id":"levelo_inurba_marseille","lat":43.28117,"lon":5.35171,"is_reserved":false,"is_disabled":false,"rental_uris":{"android":"levelo://app?vid=1b2633c7-3231-4e7d-89e9-a2c8e8cd897a","ios":"levelo://app?vid=1b2633c7-3231-4e7d-89e9-a2c8e8cd897a"},"vehicle_type_id":"4","last_reported":1727064699,"current_range_meters":7200,"station_id":"","pricing_plan_id":"cebpf4jnsgd1na2vs0mg"},{"bike_id":"07b0f0cb-0dad-49cb-980e-811d9cf97497","system_id":"levelo_inurba_marseille","lat":43.33602,"lon":5.41021,"is_reserved":false,"is_disabled":false,"rental_uris":{"android":"levelo://app?vid=07b0f0cb-0dad-49cb-980e-811d9cf97497","ios":"levelo://app?vid=07b0f0cb-0dad-49cb-980e-811d9cf97497"},"vehicle_type_id":"4","last_reported":1727064699,"current_range_meters":29600,"station_id":"ce4bhqh2rcd13ifvqhmg","pricing_plan_id":"cebpf4jnsgd1na2vs0mg"},{"bike_id":"6fdfc26d-204f-41df-8c69-757bbbdf58dc","system_id":"levelo_inurba_marseille","lat":43.31331,"lon":5.3969,"is_reserved":false,"is_disabled":false,"rental_uris":{"android":"levelo://app?vid=6fdfc26d-204f-41df-8c69-757bbbdf58dc","ios":"levelo://app?vid=6fdfc26d-204f-41df-8c69-757bbbdf58dc"},"vehicle_type_id":"4","last_reported":1727064699,"current_range_meters":37600,"station_id":"ce4bgvp2rcd13ifvqcu0","pricing_plan_id":"cebpf4jnsgd1na2vs0mg"},{"bike_id":"4fbb5250-9647-470b-8d93-052750ba4685","system_id":"levelo_inurba_marseille","lat":43.287806,"lon":5.373697,"is_reserved":false,"is_disabled":false,"rental_uris":{"android":"levelo://app?vid=4fbb5250-9647-470b-8d93-052750ba4685","ios":"levelo://app?vid=4fbb5250-9647-470b-8d93-052750ba4685"},"vehicle_type_id":"4","last_reported":1727064699,"current_range_meters":22400,"station_id":"ce4bh692rcd13ifvqe90","pricing_plan_id":"cebpf4jnsgd1na2vs0mg"},{"bike_id":"0eb217a3-5ed2-45df-ad80-b3daa128f04c","system_id":"levelo_inurba_marseille","lat":43.33019,"lon":5.3904,"is_reserved":false,"is_disabled":false,"rental_uris":{"android":"levelo://app?vid=0eb217a3-5ed2-45df-ad80-b3daa128f04c","ios":"levelo://app?vid=0eb217a3-5ed2-45df-ad80-b3daa128f04c"},"vehicle_type_id":"4","last_reported":1727064699,"current_range_meters":38000,"station_id":"ce4bhr92rcd13ifvqhrg","pricing_plan_id":"cebpf4jnsgd1na2vs0mg"},{"bike_id":"e306ad54-fdd8-4a2c-aa8f-ad4ddf2b4af9","system_id":"levelo_inurba_marseille","lat":43.2885,"lon":5.39305,"is_reserved":false,"is_disabled":false,"rental_uris":{"android":"levelo://app?vid=e306ad54-fdd8-4a2c-aa8f-ad4ddf2b4af9","ios":"levelo://app?vid=e306ad54-fdd8-4a2c-aa8f-ad4ddf2b4af9"},"vehicle_type_id":"4","last_reported":1727064699,"current_range_meters":15200,"station_id":"ce4bh2p2rcd13ifvqdi0","pricing_plan_id":"cebpf4jnsgd1na2vs0mg"},{"bike_id":"4c663f1e-5e42-477b-bd9b-b06bad22a598","system_id":"levelo_inurba_marseille","lat":43.24389,"lon":5.37054,"is_reserved":false,"is_disabled":false,"rental_uris":{"android":"levelo://app?vid=4c663f1e-5e42-477b-bd9b-b06bad22a598","ios":"levelo://app?vid=4c663f1e-5e42-477b-bd9b-b06bad22a598"},"vehicle_type_id":"4","last_reported":1727064699,"current_range_meters":38800,"station_id":"ce4bhhh2rcd13ifvqfk0","pricing_plan_id":"cebpf4jnsgd1na2vs0mg"},{"bike_id":"208d887e-d590-4457-b1cf-a5124e5ee7ea","system_id":"levelo_inurba_marseille","lat":43.30888,"lon":5.39642,"is_reserved":false,"is_disabled":false,"rental_uris":{"android":"levelo://app?vid=208d887e-d590-4457-b1cf-a5124e5ee7ea","ios":"levelo://app?vid=208d887e-d590-4457-b1cf-a5124e5ee7ea"},"vehicle_type_id":"4","last_reported":1727064699,"current_range_meters":33200,"station_id":"ce4bh012rcd13ifvqcv0","pricing_plan_id":"cebpf4jnsgd1na2vs0mg"},{"bike_id":"fa690805-233a-4a70-a9f3-33f1b67cdb1f","system_id":"levelo_inurba_marseille","lat":43.32295,"lon":5.38265,"is_reserved":false,"is_disabled":false,"rental_uris":{"android":"levelo://app?vid=fa690805-233a-4a70-a9f3-33f1b67cdb1f","ios":"levelo://app?vid=fa690805-233a-4a70-a9f3-33f1b67cdb1f"},"vehicle_type_id":"4","last_reported":1727064699,"current_range_meters":38800,"station_id":"ce4bhr12rcd13ifvqhqg","pricing_plan_id":"cebpf4jnsgd1na2vs0mg"},{"bike_id":"6b376f83-ed6b-472f-8e6c-ba4d8a7bae7f","system_id":"levelo_inurba_marseille","lat":43.29441,"lon":5.39749,"is_reserved":false,"is_disabled":false,"rental_uris":{"android":"levelo://app?vid=6b376f83-ed6b-472f-8e6c-ba4d8a7bae7f","ios":"levelo://app?vid=6b376f83-ed6b-472f-8e6c-ba4d8a7bae7f"},"vehicle_type_id":"4","last_reported":1727064699,"current_range_meters":13600,"station_id":"ce4bh3h2rcd13ifvqdo0","pricing_plan_id":"cebpf4jnsgd1na2vs0mg"},{"bike_id":"c7a5c9a2-9c90-4677-8e5f-4be40a154f91","system_id":"levelo_inurba_marseille","lat":43.30317,"lon":5.36895,"is_reserved":false,"is_disabled":false,"rental_uris":{"android":"levelo://app?vid=c7a5c9a2-9c90-4677-8e5f-4be40a154f91","ios":"levelo://app?vid=c7a5c9a2-9c90-4677-8e5f-4be40a154f91"},"vehicle_type_id":"4","last_reported":1727064699,"current_range_meters":39200,"station_id":"ce4bgqh2rcd13ifvqc5g","pricing_plan_id":"cebpf4jnsgd1na2vs0mg"},{"bike_id":"0300a662-c9c8-4a25-9b7d-43e350c17960","system_id":"levelo_inurba_marseille","lat":43.26029,"lon":5.37549,"is_reserved":false,"is_disabled":false,"rental_uris":{"android":"levelo://app?vid=0300a662-c9c8-4a25-9b7d-43e350c17960","ios":"levelo://app?vid=0300a662-c9c8-4a25-9b7d-43e350c17960"},"vehicle_type_id":"4","last_reported":1727064699,"current_range_meters":38000,"station_id":"ce4bhgh2rcd13ifvqfa0","pricing_plan_id":"cebpf4jnsgd1na2vs0mg"},{"bike_id":"ac75444e-cc51-4669-a3cc-bb12b679f442","system_id":"levelo_inurba_marseille","lat":43.30906,"lon":5.36852,"is_reserved":false,"is_disabled":false,"rental_uris":{"android":"levelo://app?vid=ac75444e-cc51-4669-a3cc-bb12b679f442","ios":"levelo://app?vid=ac75444e-cc51-4669-a3cc-bb12b679f442"},"vehicle_type_id":"4","last_reported":1727064699,"current_range_meters":38400,"station_id":"ce4bgn92rcd13ifvqbvg","pricing_plan_id":"cebpf4jnsgd1na2vs0mg"},{"bike_id":"093caf09-4e78-481c-9a1b-0fa03af1ce8f","system_id":"levelo_inurba_marseille","lat":43.31169,"lon":5.38721,"is_reserved":false,"is_disabled":false,"rental_uris":{"android":"levelo://app?vid=093caf09-4e78-481c-9a1b-0fa03af1ce8f","ios":"levelo://app?vid=093caf09-4e78-481c-9a1b-0fa03af1ce8f"},"vehicle_type_id":"4","last_reported":1727064699,"current_range_meters":38400,"station_id":"ce4bgv12rcd13ifvqcp0","pricing_plan_id":"cebpf4jnsgd1na2vs0mg"},{"bike_id":"8c5e8b2c-ef05-4b9d-b647-6aadec459648","system_id":"levelo_inurba_marseille","lat":43.25116,"lon":5.40319,"is_reserved":false,"is_disabled":false,"rental_uris":{"android":"levelo://app?vid=8c5e8b2c-ef05-4b9d-b647-6aadec459648","ios":"levelo://app?vid=8c5e8b2c-ef05-4b9d-b647-6aadec459648"},"vehicle_type_id":"4","last_reported":1727064699,"current_range_meters":22800,"station_id":"ce4bhlh2rcd13ifvqgig","pricing_plan_id":"cebpf4jnsgd1na2vs0mg"},{"bike_id":"73c5d51c-d9c6-4d26-8529-a77237aefff6","system_id":"levelo_inurba_marseille","lat":43.30146,"lon":5.38074,"is_reserved":false,"is_disabled":false,"rental_uris":{"android":"levelo://app?vid=73c5d51c-d9c6-4d26-8529-a77237aefff6","ios":"levelo://app?vid=73c5d51c-d9c6-4d26-8529-a77237aefff6"},"vehicle_type_id":"4","last_reported":1727064699,"current_range_meters":30800,"station_id":"ce4bgjp2rcd13ifvqbh0","pricing_plan_id":"cebpf4jnsgd1na2vs0mg"},{"bike_id":"0065c80b-56b2-4666-99f7-7dd93d37aba1","system_id":"levelo_inurba_marseille","lat":43.31726,"lon":5.42404,"is_reserved":false,"is_disabled":false,"rental_uris":{"android":"levelo://app?vid=0065c80b-56b2-4666-99f7-7dd93d37aba1","ios":"levelo://app?vid=0065c80b-56b2-4666-99f7-7dd93d37aba1"},"vehicle_type_id":"4","last_reported":1727064699,"current_range_meters":38800,"station_id":"ce4bhp92rcd13ifvqhbg","pricing_plan_id":"cebpf4jnsgd1na2vs0mg"},{"bike_id":"63837e2f-9e9e-4ca3-8127-3738fe4726e5","system_id":"levelo_inurba_marseille","lat":43.27489,"lon":5.42456,"is_reserved":false,"is_disabled":false,"rental_uris":{"android":"levelo://app?vid=63837e2f-9e9e-4ca3-8127-3738fe4726e5","ios":"levelo://app?vid=63837e2f-9e9e-4ca3-8127-3738fe4726e5"},"vehicle_type_id":"4","last_reported":1727064699,"current_range_meters":38800,"station_id":"ce4bhn92rcd13ifvqgrg","pricing_plan_id":"cebpf4jnsgd1na2vs0mg"},{"bike_id":"b703e12f-126c-4dd7-b099-204d01de747f","system_id":"levelo_inurba_marseille","lat":43.30795,"lon":5.38155,"is_reserved":false,"is_disabled":false,"rental_uris":{"android":"levelo://app?vid=b703e12f-126c-4dd7-b099-204d01de747f","ios":"levelo://app?vid=b703e12f-126c-4dd7-b099-204d01de747f"},"vehicle_type_id":"4","last_reported":1727064699,"current_range_meters":32000,"station_id":"ce4bgt12rcd13ifvqce0","pricing_plan_id":"cebpf4jnsgd1na2vs0mg"},{"bike_id":"40ef26d8-f5a9-4624-a700-e2660dbf1c30","system_id":"levelo_inurba_marseille","lat":43.24669,"lon":5.38162,"is_reserved":false,"is_disabled":false,"rental_uris":{"android":"levelo://app?vid=40ef26d8-f5a9-4624-a700-e2660dbf1c30","ios":"levelo://app?vid=40ef26d8-f5a9-4624-a700-e2660dbf1c30"},"vehicle_type_id":"4","last_reported":1727064699,"current_range_meters":38000,"station_id":"ce4bhih2rcd13ifvqfr0","pricing_plan_id":"cebpf4jnsgd1na2vs0mg"},{"bike_id":"c1ae40a9-7c9f-4e43-8329-42066edb9c8f","system_id":"levelo_inurba_marseille","lat":43.30327,"lon":5.40449,"is_reserved":false,"is_disabled":false,"rental_uris":{"android":"levelo://app?vid=c1ae40a9-7c9f-4e43-8329-42066edb9c8f","ios":"levelo://app?vid=c1ae40a9-7c9f-4e43-8329-42066edb9c8f"},"vehicle_type_id":"4","last_reported":1727064699,"current_range_meters":17200,"station_id":"ce4bh012rcd13ifvqd10","pricing_plan_id":"cebpf4jnsgd1na2vs0mg"},{"bike_id":"95ca20ac-5cee-44fc-b9a8-a88935a9daf7","system_id":"levelo_inurba_marseille","lat":43.27812,"lon":5.40707,"is_reserved":false,"is_disabled":false,"rental_uris":{"android":"levelo://app?vid=95ca20ac-5cee-44fc-b9a8-a88935a9daf7","ios":"levelo://app?vid=95ca20ac-5cee-44fc-b9a8-a88935a9daf7"},"vehicle_type_id":"4","last_reported":1727064699,"current_range_meters":38800,"station_id":"ce4bhnh2rcd13ifvqgtg","pricing_plan_id":"cebpf4jnsgd1na2vs0mg"},{"bike_id":"777e5742-83c8-4f45-b5da-1b5ade28f3f6","system_id":"levelo_inurba_marseille","lat":43.25111,"lon":5.40321,"is_reserved":false,"is_disabled":false,"rental_uris":{"android":"levelo://app?vid=777e5742-83c8-4f45-b5da-1b5ade28f3f6","ios":"levelo://app?vid=777e5742-83c8-4f45-b5da-1b5ade28f3f6"},"vehicle_type_id":"4","last_reported":1727064699,"current_range_meters":39200,"station_id":"ce4bhlh2rcd13ifvqgig","pricing_plan_id":"cebpf4jnsgd1na2vs0mg"},{"bike_id":"60852675-60d7-4c99-904b-608050650790","system_id":"levelo_inurba_marseille","lat":43.30308,"lon":5.36893,"is_reserved":false,"is_disabled":false,"rental_uris":{"android":"levelo://app?vid=60852675-60d7-4c99-904b-608050650790","ios":"levelo://app?vid=60852675-60d7-4c99-904b-608050650790"},"vehicle_type_id":"4","last_reported":1727064699,"current_range_meters":18800,"station_id":"ce4bgqh2rcd13ifvqc5g","pricing_plan_id":"cebpf4jnsgd1na2vs0mg"},{"bike_id":"b2b35de5-2177-4df5-afd2-8ec2d030fd4a","system_id":"levelo_inurba_marseille","lat":43.25822,"lon":5.39428,"is_reserved":false,"is_disabled":false,"rental_uris":{"android":"levelo://app?vid=b2b35de5-2177-4df5-afd2-8ec2d030fd4a","ios":"levelo://app?vid=b2b35de5-2177-4df5-afd2-8ec2d030fd4a"},"vehicle_type_id":"4","last_reported":1727064699,"current_range_meters":37600,"station_id":"ce4bhip2rcd13ifvqft0","pricing_plan_id":"cebpf4jnsgd1na2vs0mg"},{"bike_id":"95ffd6c6-bc96-4cdf-b445-be60c20d987d","system_id":"levelo_inurba_marseille","lat":43.28398,"lon":5.37539,"is_reserved":false,"is_disabled":false,"rental_uris":{"android":"levelo://app?vid=95ffd6c6-bc96-4cdf-b445-be60c20d987d","ios":"levelo://app?vid=95ffd6c6-bc96-4cdf-b445-be60c20d987d"},"vehicle_type_id":"4","last_reported":1727064699,"current_range_meters":36000,"station_id":"ce4bh412rcd13ifvqds0","pricing_plan_id":"cebpf4jnsgd1na2vs0mg"},{"bike_id":"5ecfdc9e-875b-4597-a1f0-3a52a4f104da","system_id":"levelo_inurba_marseille","lat":43.30345,"lon":5.41872,"is_reserved":false,"is_disabled":false,"rental_uris":{"android":"levelo://app?vid=5ecfdc9e-875b-4597-a1f0-3a52a4f104da","ios":"levelo://app?vid=5ecfdc9e-875b-4597-a1f0-3a52a4f104da"},"vehicle_type_id":"4","last_reported":1727064699,"current_range_meters":10000,"station_id":"ce4bhop2rcd13ifvqh7g","pricing_plan_id":"cebpf4jnsgd1na2vs0mg"},{"bike_id":"73c95d91-4339-4d75-b1c4-461a3daf1b5f","system_id":"levelo_inurba_marseille","lat":43.29556,"lon":5.42293,"is_reserved":false,"is_disabled":false,"rental_uris":{"android":"levelo://app?vid=73c95d91-4339-4d75-b1c4-461a3daf1b5f","ios":"levelo://app?vid=73c95d91-4339-4d75-b1c4-461a3daf1b5f"},"vehicle_type_id":"4","last_reported":1727064699,"current_range_meters":38400,"station_id":"ce4bhph2rcd13ifvqhdg","pricing_plan_id":"cebpf4jnsgd1na2vs0mg"},{"bike_id":"a18ab7b7-a6f9-4eb0-9ad1-dd7ee1f578dd","system_id":"levelo_inurba_marseille","lat":43.33603,"lon":5.41031,"is_reserved":false,"is_disabled":false,"rental_uris":{"android":"levelo://app?vid=a18ab7b7-a6f9-4eb0-9ad1-dd7ee1f578dd","ios":"levelo://app?vid=a18ab7b7-a6f9-4eb0-9ad1-dd7ee1f578dd"},"vehicle_type_id":"4","last_reported":1727064699,"current_range_meters":27600,"station_id":"ce4bhqh2rcd13ifvqhmg","pricing_plan_id":"cebpf4jnsgd1na2vs0mg"},{"bike_id":"bec92394-8860-4fe2-8433-524cc1554a7a","system_id":"levelo_inurba_marseille","lat":43.31718,"lon":5.43704,"is_reserved":false,"is_disabled":false,"rental_uris":{"android":"levelo://app?vid=bec92394-8860-4fe2-8433-524cc1554a7a","ios":"levelo://app?vid=bec92394-8860-4fe2-8433-524cc1554a7a"},"vehicle_type_id":"4","last_reported":1727064699,"current_range_meters":39200,"station_id":"ce4bhp92rcd13ifvqhcg","pricing_plan_id":"cebpf4jnsgd1na2vs0mg"},{"bike_id":"41e3be79-0483-4710-aecf-a207e49d16f8","system_id":"levelo_inurba_marseille","lat":43.29554,"lon":5.42294,"is_reserved":false,"is_disabled":false,"rental_uris":{"android":"levelo://app?vid=41e3be79-0483-4710-aecf-a207e49d16f8","ios":"levelo://app?vid=41e3be79-0483-4710-aecf-a207e49d16f8"},"vehicle_type_id":"4","last_reported":1727064699,"current_range_meters":16800,"station_id":"ce4bhph2rcd13ifvqhdg","pricing_plan_id":"cebpf4jnsgd1na2vs0mg"},{"bike_id":"c1bdabdb-5634-49d5-b483-d995eec1212a","system_id":"levelo_inurba_marseille","lat":43.33607,"lon":5.41027,"is_reserved":false,"is_disabled":false,"rental_uris":{"android":"levelo://app?vid=c1bdabdb-5634-49d5-b483-d995eec1212a","ios":"levelo://app?vid=c1bdabdb-5634-49d5-b483-d995eec1212a"},"vehicle_type_id":"4","last_reported":1727064699,"current_range_meters":17600,"station_id":"ce4bhqh2rcd13ifvqhmg","pricing_plan_id":"cebpf4jnsgd1na2vs0mg"},{"bike_id":"573da8cc-92ed-45e0-95ff-36fa97d84a8a","system_id":"levelo_inurba_marseille","lat":43.31329,"lon":5.39685,"is_reserved":false,"is_disabled":false,"rental_uris":{"android":"levelo://app?vid=573da8cc-92ed-45e0-95ff-36fa97d84a8a","ios":"levelo://app?vid=573da8cc-92ed-45e0-95ff-36fa97d84a8a"},"vehicle_type_id":"4","last_reported":1727064699,"current_range_meters":36800,"station_id":"ce4bgvp2rcd13ifvqcu0","pricing_plan_id":"cebpf4jnsgd1na2vs0mg"},{"bike_id":"dfc22b50-b218-4747-a361-fb0b583ffac2","system_id":"levelo_inurba_marseille","lat":43.3127,"lon":5.40163,"is_reserved":false,"is_disabled":false,"rental_uris":{"android":"levelo://app?vid=dfc22b50-b218-4747-a361-fb0b583ffac2","ios":"levelo://app?vid=dfc22b50-b218-4747-a361-fb0b583ffac2"},"vehicle_type_id":"4","last_reported":1727064699,"current_range_meters":37600,"station_id":"ce4bh092rcd13ifvqd30","pricing_plan_id":"cebpf4jnsgd1na2vs0mg"},{"bike_id":"6a0925ec-b413-4e49-929f-c184083981fe","system_id":"levelo_inurba_marseille","lat":43.29785,"lon":5.39334,"is_reserved":false,"is_disabled":false,"rental_uris":{"android":"levelo://app?vid=6a0925ec-b413-4e49-929f-c184083981fe","ios":"levelo://app?vid=6a0925ec-b413-4e49-929f-c184083981fe"},"vehicle_type_id":"4","last_reported":1727064699,"current_range_meters":39200,"station_id":"chh1huq6cuj3fo74tm60","pricing_plan_id":"cebpf4jnsgd1na2vs0mg"},