{"last_updated":1737569569,"ttl":60,"version":"2.2","data":{"bikes":[{"bike_id":"3c3ccabd-91d5-4e6f-80c3-770c5ae6e2d1","system_id":"levelo_inurba_marseille","lat":43.2656,"lon":5.38999,"is_reserved":false,"is_disabled":false,"rental_uris":{"android":"levelo://app?vid=3c3ccabd-91d5-4e6f-80c3-770c5ae6e2d1","ios":"levelo://app?vid=3c3ccabd-91d5-4e6f-80c3-770c5ae6e2d1"},"vehicle_type_id":"4","last_reported":1737569569,"current_range_meters":8000,"station_id":"ce4bhe12rcd13ifvqf30","pricing_plan_id":"cebpf4jnsgd1na2vs0mg"},{"bike_id":"bc87ebb9-79d8-48ae-98f1-73024abdc038","system_id":"levelo_inurba_marseille","lat":43.29207,"lon":5.36024,"is_reserved":false,"is_disabled":true,"rental_uris":{"android":"levelo://app?vid=bc87ebb9-79d8-48ae-98f1-73024abdc038","ios":"levelo://app?vid=bc87ebb9-79d8-48ae-98f1-73024abdc038"},"vehicle_type_id":"4","last_reported":1737569569,"current_range_meters":1200,"station_id":"ce4bhbh2rcd13ifvqeqg","pricing_plan_id":"cebpf4jnsgd1na2vs0mg"},{"bike_id":"fad71a3f-bd9e-4c26-82d7-089e277e18c0","system_id":"levelo_inurba_marseille","lat":43.27052,"lon":5.40255,"is_reserved":false,"is_disabled":true,"rental_uris":{"android":"levelo://app?vid=fad71a3f-bd9e-4c26-82d7-089e277e18c0","ios":"levelo://app?vid=fad71a3f-bd9e-4c26-82d7-089e277e18c0"},"vehicle_type_id":"4","last_reported":1737569569,"current_range_meters":0,"station_id":"ce4bhk92rcd13ifvqgc0","pricing_plan_id":"cebpf4jnsgd1na2vs0mg"},{"bike_id":"5fe5e92b-23bb-4860-a2fe-86743e81fb05","system_id":"levelo_inurba_marseille","lat":43.28454,"lon":5.35887,"is_reserved":false,"is_disabled":false,"rental_uris":{"android":"levelo://app?vid=5fe5e92b-23bb-4860-a2fe-86743e81fb05","ios":"levelo://app?vid=5fe5e92b-23bb-4860-a2fe-86743e81fb05"},"vehicle_type_id":"4","last_reported":1737569569,"current_range_meters":24400,"station_id":"ce4bhah2rcd13ifvqei0","pricing_plan_id":"cebpf4jnsgd1na2vs0mg"},{"bike_id":"a4fa50ac-f498-48af-a472-624159680442","system_id":"levelo_inurba_marseille","lat":43.27362,"lon":5.36232,"is_reserved":false,"is_disabled":false,"rental_uris":{"android":"levelo://app?vid=a4fa50ac-f498-48af-a472-624159680442","ios":"levelo://app?vid=a4fa50ac-f498-48af-a472-624159680442"},"vehicle_type_id":"4","last_reported":1737569569,"current_range_meters":35600,"station_id":"ce4bhbh2rcd13ifvqeo0","pricing_plan_id":"cebpf4jnsgd1na2vs0mg"},{"bike_id":"f65cb317-3039-48c1-a2c7-1869597a6357","system_id":"levelo_inurba_marseille","lat":43.289863,"lon":5.398197,"is_reserved":false,"is_disabled":false,"rental_uris":{"android":"levelo://app?vid=f65cb317-3039-48c1-a2c7-1869597a6357","ios":"levelo://app?vid=f65cb317-3039-48c1-a2c7-1869597a6357"},"vehicle_type_id":"4","last_reported":1737569569,"current_range_meters":16800,"station_id":"ce4bgn12rcd13ifvqbt0","pricing_plan_id":"cebpf4jnsgd1na2vs0mg"},{"bike_id":"4d9af203-3667-4745-ac7f-03559c37ec70","system_id":"levelo_inurba_marseille","lat":43.31477,"lon":5.3726,"is_reserved":false,"is_disabled":false,"rental_uris":{"android":"levelo://app?vid=4d9af203-3667-4745-ac7f-03559c37ec70","ios":"levelo://app?vid=4d9af203-3667-4745-ac7f-03559c37ec70"},"vehicle_type_id":"4","last_reported":1737569569,"current_range_meters":30400,"station_id":"ce4bgt12rcd13ifvqcd0","pricing_plan_id":"cebpf4jnsgd1na2vs0mg"},{"bike_id":"21f1aed0-517d-44fe-acc4-af2df5aa40a3","system_id":"levelo_inurba_marseille","lat":43.31072,"lon":5.38358,"is_reserved":false,"is_disabled":false,"rental_uris":{"android":"levelo://app?vid=21f1aed0-517d-44fe-acc4-af2df5aa40a3","ios":"levelo://app?vid=21f1aed0-517d-44fe-acc4-af2df5aa40a3"},"vehicle_type_id":"4","last_reported":1737569569,"current_range_meters":27600,"station_id":"ce4bgv92rcd13ifvqcr0","pricing_plan_id":"cebpf4jnsgd1na2vs0mg"},{"bike_id":"247e53d3-55f9-4385-9948-6adb42f1828e","system_id":"levelo_inurba_marseille","lat":43.26781,"lon":5.39418,"is_reserved":false,"is_disabled":false,"rental_uris":{"android":"levelo://app?vid=247e53d3-55f9-4385-9948-6adb42f1828e","ios":"levelo://app?vid=247e53d3-55f9-4385-9948-6adb42f1828e"},"vehicle_type_id":"4","last_reported":1737569569,"current_range_meters":8000,"station_id":"ce4bhh12rcd13ifvqfg0","pricing_plan_id":"cebpf4jnsgd1na2vs0mg"},{"bike_id":"f9509cf3-61c9-4e98-a3dc-ab6e052fedb5","system_id":"levelo_inurba_marseille","lat":43.24074,"lon":5.37755,"is_reserved":false,"is_disabled":false,"rental_uris":{"android":"levelo://app?vid=f9509cf3-61c9-4e98-a3dc-ab6e052fedb5","ios":"levelo://app?vid=f9509cf3-61c9-4e98-a3dc-ab6e052fedb5"},"vehicle_type_id":"4","last_reported":1737569569,"current_range_meters":22000,"station_id":"ce4bhnp2rcd13ifvqgvg","pricing_plan_id":"cebpf4jnsgd1na2vs0mg"},{"bike_id":"9e2164b9-5286-455d-bf49-d1d0b494b67f","system_id":"levelo_inurba_marseille","lat":43.26934,"lon":5.38917,"is_reserved":false,"is_disabled":false,"rental_uris":{"android":"levelo://app?vid=9e2164b9-5286-455d-bf49-d1d0b494b67f","ios":"levelo://app?vid=9e2164b9-5286-455d-bf49-d1d0b494b67f"},"vehicle_type_id":"4","last_reported":1737569569,"current_range_meters":37600,"station_id":"ce4bhhh2rcd13ifvqfl0","pricing_plan_id":"cebpf4jnsgd1na2vs0mg"},{"bike_id":"1d112a4c-9e7e-41d8-8ffb-8c02b95439bd","system_id":"levelo_inurba_marseille","lat":43.28411,"lon":5.37513,"is_reserved":false,"is_disabled":false,"rental_uris":{"android":"levelo://app?vid=1d112a4c-9e7e-41d8-8ffb-8c02b95439bd","ios":"levelo://app?vid=1d112a4c-9e7e-41d8-8ffb-8c02b95439bd"},"vehicle_type_id":"4","last_reported":1737569569,"current_range_meters":37600,"station_id":"ce4bh412rcd13ifvqds0","pricing_plan_id":"cebpf4jnsgd1na2vs0mg"},{"bike_id":"31ae3073-1386-4275-978a-19018719abb2","system_id":"levelo_inurba_marseille","lat":43.2908,"lon":5.37184,"is_reserved":false,"is_disabled":false,"rental_uris":{"android":"levelo://app?vid=31ae3073-1386-4275-978a-19018719abb2","ios":"levelo://app?vid=31ae3073-1386-4275-978a-19018719abb2"},"vehicle_type_id":"4","last_reported":1737569569,"current_range_meters":38800,"station_id":"ce4bh5p2rcd13ifvqe4g","pricing_plan_id":"cebpf4jnsgd1na2vs0mg"},{"bike_id":"f80daf71-64ee-49e9-aa12-8ec2343a46ac","system_id":"levelo_inurba_marseille","lat":43.33021,"lon":5.39034,"is_reserved":false,"is_disabled":false,"rental_uris":{"android":"levelo://app?vid=f80daf71-64ee-49e9-aa12-8ec2343a46ac","ios":"levelo://app?vid=f80daf71-64ee-49e9-aa12-8ec2343a46ac"},"vehicle_type_id":"4","last_reported":1737569569,"current_range_meters":39200,"station_id":"ce4bhr92rcd13ifvqhrg","pricing_plan_id":"cebpf4jnsgd1na2vs0mg"},{"bike_id":"2f8f0868-4f5a-4095-a1e8-8e04cc0c5981","system_id":"levelo_inurba_marseille","lat":43.26682,"lon":5.3831,"is_reserved":false,"is_disabled":false,"rental_uris":{"android":"levelo://app?vid=2f8f0868-4f5a-4095-a1e8-8e04cc0c5981","ios":"levelo://app?vid=2f8f0868-4f5a-4095-a1e8-8e04cc0c5981"},"vehicle_type_id":"4","last_reported":1737569569,"current_range_meters":37600,"station_id":"ce4bhg92rcd13ifvqf90","pricing_plan_id":"cebpf4jnsgd1na2vs0mg"},{"bike_id":"1e97f69a-8420-4fb9-a64e-a395e773d2e1","system_id":"levelo_inurba_marseille","lat":43.25585,"lon":5.38236,"is_reserved":false,"is_disabled":false,"rental_uris":{"android":"levelo://app?vid=1e97f69a-8420-4fb9-a64e-a395e773d2e1","ios":"levelo://app?vid=1e97f69a-8420-4fb9-a64e-a395e773d2e1"},"vehicle_type_id":"4","last_reported":1737569569,"current_range_meters":18000,"station_id":"ce4bhih2rcd13ifvqfs0","pricing_plan_id":"cebpf4jnsgd1na2vs0mg"},{"bike_id":"47a5c903-d960-4eec-b908-6451b150f9f7","system_id":"levelo_inurba_marseille","lat":43.24063,"lon":5.37768,"is_reserved":false,"is_disabled":false,"rental_uris":{"android":"levelo://app?vid=47a5c903-d960-4eec-b908-6451b150f9f7","ios":"levelo://app?vid=47a5c903-d960-4eec-b908-6451b150f9f7"},"vehicle_type_id":"4","last_reported":1737569569,"current_range_meters":36800,"station_id":"ce4bhnp2rcd13ifvqgvg","pricing_plan_id":"cebpf4jnsgd1na2vs0mg"},{"bike_id":"6dbdc8f6-fdbc-4f19-a4ae-c257ba10594d","system_id":"levelo_inurba_marseille","lat":43.30305,"lon":5.39219,"is_reserved":false,"is_disabled":false,"rental_uris":{"android":"levelo://app?vid=6dbdc8f6-fdbc-4f19-a4ae-c257ba10594d","ios":"levelo://app?vid=6dbdc8f6-fdbc-4f19-a4ae-c257ba10594d"},"vehicle_type_id":"4","last_reported":1737569569,"current_range_meters":27600,"station_id":"ce4bgkh2rcd13ifvqbk0","pricing_plan_id":"cebpf4jnsgd1na2vs0mg"},{"bike_id":"2d89806f-db31-45f9-ab39-70b15ff8deae","system_id":"levelo_inurba_marseille","lat":43.29791,"lon":5.39342,"is_reserved":false,"is_disabled":false,"rental_uris":{"android":"levelo://app?vid=2d89806f-db31-45f9-ab39-70b15ff8deae","ios":"levelo://app?vid=2d89806f-db31-45f9-ab39-70b15ff8deae"},"vehicle_type_id":"4","last_reported":1737569569,"current_range_meters":38800,"station_id":"chh1huq6cuj3fo74tm60","pricing_plan_id":"cebpf4jnsgd1na2vs0mg"},{"bike_id":"e4102f6c-1a9f-48fa-854c-436d23052b6a","system_id":"levelo_inurba_marseille","lat":43.27944,"lon":5.4104,"is_reserved":false,"is_disabled":false,"rental_uris":{"android":"levelo://app?vid=e4102f6c-1a9f-48fa-854c-436d23052b6a","ios":"levelo://app?vid=e4102f6c-1a9f-48fa-854c-436d23052b6a"},"vehicle_type_id":"4","last_reported":1737569569,"current_range_meters":6000,"station_id":"ce4bhnp2rcd13ifvqh0g","pricing_plan_id":"cebpf4jnsgd1na2vs0mg"},{"bike_id":"c8b7aed7-c47b-4197-99ca-6b34bfddf40f","system_id":"levelo_inurba_marseille","lat":43.2407,"lon":5.37756,"is_reserved":false,"is_disabled":false,"rental_uris":{"android":"levelo://app?vid=c8b7aed7-c47b-4197-99ca-6b34bfddf40f","ios":"levelo://app?vid=c8b7aed7-c47b-4197-99ca-6b34bfddf40f"},"vehicle_type_id":"4","last_reported":1737569569,"current_range_meters":36000,"station_id":"ce4bhnp2rcd13ifvqgvg","pricing_plan_id":"cebpf4jnsgd1na2vs0mg"},{"bike_id":"7792c5de-3fdf-4c5a-9835-f0f4e024768f","system_id":"levelo_inurba_marseille","lat":43.3149,"lon":5.37316,"is_reserved":false,"is_disabled":false,"rental_uris":{"android":"levelo://app?vid=7792c5de-3fdf-4c5a-9835-f0f4e024768f","ios":"levelo://app?vid=7792c5de-3fdf-4c5a-9835-f0f4e024768f"},"vehicle_type_id":"4","last_reported":1737569569,"current_range_meters":16000,"station_id":"ce4bgt12rcd13ifvqcd0","pricing_plan_id":"cebpf4jnsgd1na2vs0mg"},{"bike_id":"03029508-7ed2-4693-b735-f7deaf763344","system_id":"levelo_inurba_marseille","lat":43.25571,"lon":5.38235,"is_reserved":false,"is_disabled":false,"rental_uris":{"android":"levelo://app?vid=03029508-7ed2-4693-b735-f7deaf763344","ios":"levelo://app?vid=03029508-7ed2-4693-b735-f7deaf763344"},"vehicle_type_id":"4","last_reported":1737569569,"current_range_meters":20400,"station_id":"ce4bhih2rcd13ifvqfs0","pricing_plan_id":"cebpf4jnsgd1na2vs0mg"},{"bike_id":"9d269b04-f90d-4988-b55d-01cdd2a0d975","system_id":"levelo_inurba_marseille","lat":43.29571,"lon":5.39968,"is_reserved":false,"is_disabled":true,"rental_uris":{"android":"levelo://app?vid=9d269b04-f90d-4988-b55d-01cdd2a0d975","ios":"levelo://app?vid=9d269b04-f90d-4988-b55d-01cdd2a0d975"},"vehicle_type_id":"4","last_reported":1737569569,"current_range_meters":0,"station_id":"ce4bh312rcd13ifvqdj0","pricing_plan_id":"cebpf4jnsgd1na2vs0mg"},{"bike_id":"4920d6f6-8670-4936-b3f9-eca676954082","system_id":"levelo_inurba_marseille","lat":43.28,"lon":5.40019,"is_reserved":false,"is_disabled":false,"rental_uris":{"android":"levelo://app?vid=4920d6f6-8670-4936-b3f9-eca676954082","ios":"levelo://app?vid=4920d6f6-8670-4936-b3f9-eca676954082"},"vehicle_type_id":"4","last_reported":1737569569,"current_range_meters":8800,"station_id":"ce4bho92rcd13ifvqh4g","pricing_plan_id":"cebpf4jnsgd1na2vs0mg"},{"bike_id":"57f78879-3285-4372-8280-be0d5b9070ca","system_id":"levelo_inurba_marseille","lat":43.3211,"lon":5.36777,"is_reserved":false,"is_disabled":true,"rental_uris":{"android":"levelo://app?vid=57f78879-3285-4372-8280-be0d5b9070ca","ios":"levelo://app?vid=57f78879-3285-4372-8280-be0d5b9070ca"},"vehicle_type_id":"4","last_reported":1737569569,"current_range_meters":1600,"station_id":"ce4bhrh2rcd13ifvqhug","pricing_plan_id":"cebpf4jnsgd1na2vs0mg"},{"bike_id":"5500cb61-e40b-4a6f-b9a3-311fe034d473","system_id":"levelo_inurba_marseille","lat":43.26787,"lon":5.39413,"is_reserved":false,"is_disabled":false,"rental_uris":{"android":"levelo://app?vid=5500cb61-e40b-4a6f-b9a3-311fe034d473","ios":"levelo://app?vid=5500cb61-e40b-4a6f-b9a3-311fe034d473"},"vehicle_type_id":"4","last_reported":1737569569,"current_range_meters":30400,"station_id":"ce4bhh12rcd13ifvqfg0","pricing_plan_id":"cebpf4jnsgd1na2vs0mg"},{"bike_id":"30f8e998-3060-41db-a385-d6fba3d9d833","system_id":"levelo_inurba_marseille","lat":43.27997,"lon":5.40027,"is_reserved":false,"is_disabled":false,"rental_uris":{"android":"levelo://app?vid=30f8e998-3060-41db-a385-d6fba3d9d833","ios":"levelo://app?vid=30f8e998-3060-41db-a385-d6fba3d9d833"},"vehicle_type_id":"4","last_reported":1737569569,"current_range_meters":39200,"station_id":"ce4bho92rcd13ifvqh4g","pricing_plan_id":"cebpf4jnsgd1na2vs0mg"},{"bike_id":"0e4e533b-17e4-4d29-931a-2d1a5bf56e89","system_id":"levelo_inurba_marseille","lat":43.27426,"lon":5.39404,"is_reserved":false,"is_disabled":false,"rental_uris":{"android":"levelo://app?vid=0e4e533b-17e4-4d29-931a-2d1a5bf56e89","ios":"levelo://app?vid=0e4e533b-17e4-4d29-931a-2d1a5bf56e89"},"vehicle_type_id":"4","last_reported":1737569569,"current_range_meters":3200,"station_id":"ce4bhdp2rcd13ifvqf20","pricing_plan_id":"cebpf4jnsgd1na2vs0mg"},{"bike_id":"d512cf3c-0033-4ab5-aeb5-3eca06916915","system_id":"levelo_inurba_marseille","lat":43.30142,"lon":5.38794,"is_reserved":false,"is_disabled":false,"rental_uris":{"android":"levelo://app?vid=d512cf3c-0033-4ab5-aeb5-3eca06916915","ios":"levelo://app?vid=d512cf3c-0033-4ab5-aeb5-3eca06916915"},"vehicle_type_id":"4","last_reported":1737569569,"current_range_meters":8400,"station_id":"ce4bhoh2rcd13ifvqh6g","pricing_plan_id":"cebpf4jnsgd1na2vs0mg"},{"bike_id":"cac15169-486f-43a5-9e95-33c702c4876b","system_id":"levelo_inurba_marseille","lat":43.30804,"lon":5.43527,"is_reserved":false,"is_disabled":false,"rental_uris":{"android":"levelo://app?vid=cac15169-486f-43a5-9e95-33c702c4876b","ios":"levelo://app?vid=cac15169-486f-43a5-9e95-33c702c4876b"},"vehicle_type_id":"4","last_reported":1737569569,"current_range_meters":38800,"station_id":"ce4bhph2rcd13ifvqheg","pricing_plan_id":"cebpf4jnsgd1na2vs0mg"},{"bike_id":"0fd77b24-9641-4f85-ad37-0e79c1de1769","system_id":"levelo_inurba_marseille","lat":43.27824,"lon":5.40721,"is_reserved":false,"is_disabled":false,"rental_uris":{"android":"levelo://app?vid=0fd77b24-9641-4f85-ad37-0e79c1de1769","ios":"levelo://app?vid=0fd77b24-9641-4f85-ad37-0e79c1de1769"},"vehicle_type_id":"4","last_reported":1737569569,"current_range_meters":17600,"station_id":"ce4bhnh2rcd13ifvqgtg","pricing_plan_id":"cebpf4jnsgd1na2vs0mg"},{"bike_id":"1867e00d-f575-4b47-871e-082fe451b449","system_id":"levelo_inurba_marseille","lat":43.2837,"lon":5.38613,"is_reserved":false,"is_disabled":false,"rental_uris":{"android":"levelo://app?vid=1867e00d-f575-4b47-871e-082fe451b449","ios":"levelo://app?vid=1867e00d-f575-4b47-871e-082fe451b449"},"vehicle_type_id":"4","last_reported":1737569569,"current_range_meters":32000,"station_id":"ce4bh492rcd13ifvqdvg","pricing_plan_id":"cebpf4jnsgd1na2vs0mg"},{"bike_id":"5a874f97-e53a-486b-bf03-022b93e71acd","system_id":"levelo_inurba_marseille","lat":43.25496,"lon":5.37623,"is_reserved":false,"is_disabled":false,"rental_uris":{"android":"levelo://app?vid=5a874f97-e53a-486b-bf03-022b93e71acd","ios":"levelo://app?vid=5a874f97-e53a-486b-bf03-022b93e71acd"},"vehicle_type_id":"4","last_reported":1737569569,"current_range_meters":26000,"station_id":"ce4bhh12rcd13ifvqff0","pricing_plan_id":"cebpf4jnsgd1na2vs0mg"},{"bike_id":"6f76e31e-4981-4f7c-8e10-696db8c8e6e4","system_id":"levelo_inurba_marseille","lat":43.33024,"lon":5.39041,"is_reserved":false,"is_disabled":false,"rental_uris":{"android":"levelo://app?vid=6f76e31e-4981-4f7c-8e10-696db8c8e6e4","ios":"levelo://app?vid=6f76e31e-4981-4f7c-8e10-696db8c8e6e4"},"vehicle_type_id":"4","last_reported":1737569569,"current_range_meters":28000,"station_id":"ce4bhr92rcd13ifvqhrg","pricing_plan_id":"cebpf4jnsgd1na2vs0mg"},{"bike_id":"7ab51a43-683e-4bd7-a5aa-dd0cb59be96b","system_id":"levelo_inurba_marseille","lat":43.29792,"lon":5.39349,"is_reserved":false,"is_disabled":false,"rental_uris":{"android":"levelo://app?vid=7ab51a43-683e-4bd7-a5aa-dd0cb59be96b","ios":"levelo://app?vid=7ab51a43-683e-4bd7-a5aa-dd0cb59be96b"},"vehicle_type_id":"4","last_reported":1737569569,"current_range_meters":38800,"station_id":"chh1huq6cuj3fo74tm60","pricing_plan_id":"cebpf4jnsgd1na2vs0mg"},{"bike_id":"1a7ae9b9-108c-498f-8bac-48904d23f7bc","system_id":"levelo_inurba_marseille","lat":43.28478,"lon":5.38437,"is_reserved":false,"is_disabled":true,"rental_uris":{"android":"levelo://app?vid=1a7ae9b9-108c-498f-8bac-48904d23f7bc","ios":"levelo://app?vid=1a7ae9b9-108c-498f-8bac-48904d23f7bc"},"vehicle_type_id":"4","last_reported":1737569569,"current_range_meters":36800,"station_id":"ce4bh512rcd13ifvqe3g","pricing_plan_id":"cebpf4jnsgd1na2vs0mg"},{"bike_id":"212ed2e6-f694-4453-a9b8-263502261c77","system_id":"levelo_inurba_marseille","lat":43.29277,"lon":5.38445,"is_reserved":false,"is_disabled":false,"rental_uris":{"android":"levelo://app?vid=212ed2e6-f694-4453-a9b8-263502261c77","ios":"levelo://app?vid=212ed2e6-f694-4453-a9b8-263502261c77"},"vehicle_type_id":"4","last_reported":1737569569,"current_range_meters":8000,"station_id":"ce4bh692rcd13ifvqea0","pricing_plan_id":"cebpf4jnsgd1na2vs0mg"},{"bike_id":"4a1877ac-0eba-4d1d-a5b6-5c57a0d326b7","system_id":"levelo_inurba_marseille","lat":43.31075,"lon":5.42456,"is_reserved":false,"is_disabled":false,"rental_uris":{"android":"levelo://app?vid=4a1877ac-0eba-4d1d-a5b6-5c57a0d326b7","ios":"levelo://app?vid=4a1877ac-0eba-4d1d-a5b6-5c57a0d326b7"},"vehicle_type_id":"4","last_reported":1737569569,"current_range_meters":16800,"station_id":"ce4bhp92rcd13ifvqhag","pricing_plan_id":"cebpf4jnsgd1na2vs0mg"},{"bike_id":"1c5350bc-b85e-4a3a-a39b-e473b0f89be6","system_id":"levelo_inurba_marseille","lat":43.31734,"lon":5.39009,"is_reserved":false,"is_disabled":false,"rental_uris":{"android":"levelo://app?vid=1c5350bc-b85e-4a3a-a39b-e473b0f89be6","ios":"levelo://app?vid=1c5350bc-b85e-4a3a-a39b-e473b0f89be6"},"vehicle_type_id":"4","last_reported":1737569569,"current_range_meters":22400,"station_id":"ce4bhqp2rcd13ifvqhng","pricing_plan_id":"cebpf4jnsgd1na2vs0mg"},{"bike_id":"a2a3717c-0128-442c-a71e-f199be5b1805","system_id":"levelo_inurba_marseille","lat":43.26956,"lon":5.38634,"is_reserved":false,"is_disabled":false,"rental_uris":{"android":"levelo://app?vid=a2a3717c-0128-442c-a71e-f199be5b1805","ios":"levelo://app?vid=a2a3717c-0128-442c-a71e-f199be5b1805"},"vehicle_type_id":"4","last_reported":1737569569,"current_range_meters":30800,"station_id":"ce4bhh92rcd13ifvqfh0","pricing_plan_id":"cebpf4jnsgd1na2vs0mg"},{"bike_id":"19a38770-5a1e-4474-b815-85767a0c0d4d","system_id":"levelo_inurba_marseille","lat":43.30288,"lon":5.36858,"is_reserved":false,"is_disabled":false,"rental_uris":{"android":"levelo://app?vid=19a38770-5a1e-4474-b815-85767a0c0d4d","ios":"levelo://app?vid=19a38770-5a1e-4474-b815-85767a0c0d4d"},"vehicle_type_id":"4","last_reported":1737569569,"current_range_meters":16400,"station_id":"ce4bgqh2rcd13ifvqc5g","pricing_plan_id":"cebpf4jnsgd1na2vs0mg"},{"bike_id":"59c15a5f-79c0-47dd-a538-3926582f19cf","system_id":"levelo_inurba_marseille","lat":43.28039,"lon":5.36948,"is_reserved":false,"is_disabled":false,"rental_uris":{"android":"levelo://app?vid=59c15a5f-79c0-47dd-a538-3926582f19cf","ios":"levelo://app?vid=59c15a5f-79c0-47dd-a538-3926582f19cf"},"vehicle_type_id":"4","last_reported":1737569569,"current_range_meters":24000,"station_id":"ce4bha12rcd13ifvqef0","pricing_plan_id":"cebpf4jnsgd1na2vs0mg"},{"bike_id":"f4064b91-d50f-4faa-b80a-c4b38df2d08b","system_id":"levelo_inurba_marseille","lat":43.229334,"lon":5.353798,"is_reserved":false,"is_disabled":false,"rental_uris":{"android":"levelo://app?vid=f4064b91-d50f-4faa-b80a-c4b38df2d08b","ios":"levelo://app?vid=f4064b91-d50f-4faa-b80a-c4b38df2d08b"},"vehicle_type_id":"4","last_reported":1737569569,"current_range_meters":38800,"station_id":"cpo3532slgdg3j2ikp40","pricing_plan_id":"cebpf4jnsgd1na2vs0mg"},{"bike_id":"c608a355-799a-42b0-8df8-e6a61a956853","system_id":"levelo_inurba_marseille","lat":43.31721,"lon":5.42417,"is_reserved":false,"is_disabled":false,"rental_uris":{"android":"levelo://app?vid=c608a355-799a-42b0-8df8-e6a61a956853","ios":"levelo://app?vid=c608a355-799a-42b0-8df8-e6a61a956853"},"vehicle_type_id":"4","last_reported":1737569569,"current_range_meters":38800,"station_id":"ce4bhp92rcd13ifvqhbg","pricing_plan_id":"cebpf4jnsgd1na2vs0mg"},{"bike_id":"5e75dd30-ab3b-44d3-8dcb-cb5fd4a0eb65","system_id":"levelo_inurba_marseille","lat":43.24643,"lon":5.3889,"is_reserved":false,"is_disabled":false,"rental_uris":{"android":"levelo://app?vid=5e75dd30-ab3b-44d3-8dcb-cb5fd4a0eb65","ios":"levelo://app?vid=5e75dd30-ab3b-44d3-8dcb-cb5fd4a0eb65"},"vehicle_type_id":"4","last_reported":1737569569,"current_range_meters":38800,"station_id":"ce4bhg12rcd13ifvqf60","pricing_plan_id":"cebpf4jnsgd1na2vs0mg"},{"bike_id":"06ecf364-e981-48f8-8aab-7d9ef4682789","system_id":"levelo_inurba_marseille","lat":43.2894,"lon":5.36409,"is_reserved":false,"is_disabled":false,"rental_uris":{"android":"levelo://app?vid=06ecf364-e981-48f8-8aab-7d9ef4682789","ios":"levelo://app?vid=06ecf364-e981-48f8-8aab-7d9ef4682789"},"vehicle_type_id":"4","last_reported":1737569569,"current_range_meters":32800,"station_id":"ce4bhc92rcd13ifvqetg","pricing_plan_id":"cebpf4jnsgd1na2vs0mg"},{"bike_id":"b209af36-1ed7-4b13-ae39-413106d8b115","system_id":"levelo_inurba_marseille","lat":43.31712,"lon":5.43708,"is_reserved":false,"is_disabled":false,"rental_uris":{"android":"levelo://app?vid=b209af36-1ed7-4b13-ae39-413106d8b115","ios":"levelo://app?vid=b209af36-1ed7-4b13-ae39-413106d8b115"},"vehicle_type_id":"4","last_reported":1737569569,"current_range_meters":28000,"station_id":"ce4bhp92rcd13ifvqhcg","pricing_plan_id":"cebpf4jnsgd1na2vs0mg"},{"bike_id":"dd2b08a3-feaf-44bc-b5d8-32bb5bef076e","system_id":"levelo_inurba_marseille","lat":43.30545,"lon":5.38426,"is_reserved":false,"is_disabled":false,"rental_uris":{"android":"levelo://app?vid=dd2b08a3-feaf-44bc-b5d8-32bb5bef076e","ios":"levelo://app?vid=dd2b08a3-feaf-44bc-b5d8-32bb5bef076e"},"vehicle_type_id":"4","last_reported":1737569569,"current_range_meters":11200,"station_id":"ce4bgg92rcd13ifvqb30","pricing_plan_id":"cebpf4jnsgd1na2vs0mg"},{"bike_id":"65094a7f-b962-43c6-b0af-b51087b9f16f","system_id":"levelo_inurba_marseille","lat":43.28932,"lon":5.36614,"is_reserved":false,"is_disabled":false,"rental_uris":{"android":"levelo://app?vid=65094a7f-b962-43c6-b0af-b51087b9f16f","ios":"levelo://app?vid=65094a7f-b962-43c6-b0af-b51087b9f16f"},"vehicle_type_id":"4","last_reported":1737569569,"current_range_meters":32800,"station_id":"ce4bhap2rcd13ifvqek0","pricing_plan_id":"cebpf4jnsgd1na2vs0mg"},{"bike_id":"7f8bd4de-5bff-4276-aecd-3b4aa9e249f5","system_id":"levelo_inurba_marseille","lat":43.31764,"lon":5.39009,"is_reserved":false,"is_disabled":false,"rental_uris":{"android":"levelo://app?vid=7f8bd4de-5bff-4276-aecd-3b4aa9e249f5","ios":"levelo://app?vid=7f8bd4de-5bff-4276-aecd-3b4aa9e249f5"},"vehicle_type_id":"4","last_reported":1737569569,"current_range_meters":38000,"station_id":"ce4bhqp2rcd13ifvqhng","pricing_plan_id":"cebpf4jnsgd1na2vs0mg"},{"bike_id":"d2becd91-19a0-4c1f-986a-3f96e1bdbabc","system_id":"levelo_inurba_marseille","lat":43.31331,"lon":5.39701,"is_reserved":false,"is_disabled":false,"rental_uris":{"android":"levelo://app?vid=d2becd91-19a0-4c1f-986a-3f96e1bdbabc","ios":"levelo://app?vid=d2becd91-19a0-4c1f-986a-3f96e1bdbabc"},"vehicle_type_id":"4","last_reported":1737569569,"current_range_meters":27200,"station_id":"ce4bgvp2rcd13ifvqcu0","pricing_plan_id":"cebpf4jnsgd1na2vs0mg"},{"bike_id":"a688ca01-f96f-4879-85c1-8fab79de6b22","system_id":"levelo_inurba_marseille","lat":43.31505,"lon":5.37273,"is_reserved":false,"is_disabled":false,"rental_uris":{"android":"levelo://app?vid=a688ca01-f96f-4879-85c1-8fab79de6b22","ios":"levelo://app?vid=a688ca01-f96f-4879-85c1-8fab79de6b22"},"vehicle_type_id":"4","last_reported":1737569569,"current_range_meters":38000,"station_id":"ce4bgt12rcd13ifvqcd0","pricing_plan_id":"cebpf4jnsgd1na2vs0mg"},{"bike_id":"13e0b39a-008c-4aba-8fbf-7090b2570fad","system_id":"levelo_inurba_marseille","lat":43.28679,"lon":5.38658,"is_reserved":false,"is_disabled":false,"rental_uris":{"android":"levelo://app?vid=13e0b39a-008c-4aba-8fbf-7090b2570fad","ios":"levelo://app?vid=13e0b39a-008c-4aba-8fbf-7090b2570fad"},"vehicle_type_id":"4","last_reported":1737569569,"current_range_meters":36400,"station_id":"ce4bh492rcd13ifvqdug","pricing_plan_id":"cebpf4jnsgd1na2vs0mg"},{"bike_id":"0095f608-c8a3-464a-9e01-fb511f5fe6c3","system_id":"levelo_inurba_marseille","lat":43.31504,"lon":5.37305,"is_reserved":false,"is_disabled":false,"rental_uris":{"android":"levelo://app?vid=0095f608-c8a3-464a-9e01-fb511f5fe6c3","ios":"levelo://app?vid=0095f608-c8a3-464a-9e01-fb511f5fe6c3"},"vehicle_type_id":"4","last_reported":1737569569,"current_range_meters":29600,"station_id":"ce4bgt12rcd13ifvqcd0","pricing_plan_id":"cebpf4jnsgd1na2vs0mg"},{"bike_id":"ef8f0fd2-90ea-4cde-a030-2ed26ea43a64","system_id":"levelo_inurba_marseille","lat":43.2862,"lon":5.35104,"is_reserved":false,"is_disabled":false,"rental_uris":{"android":"levelo://app?vid=ef8f0fd2-90ea-4cde-a030-2ed26ea43a64","ios":"levelo://app?vid=ef8f0fd2-90ea-4cde-a030-2ed26ea43a64"},"vehicle_type_id":"4","last_reported":1737569569,"current_range_meters":14400,"station_id":"ce4bhch2rcd13ifvqeug","pricing_plan_id":"cebpf4jnsgd1na2vs0mg"},{"bike_id":"2d3bc297-d5b6-49a9-90d0-7fda3fff0ed7","system_id":"levelo_inurba_marseille","lat":43.31494,"lon":5.37312,"is_reserved":false,"is_disabled":false,"rental_uris":{"android":"levelo://app?vid=2d3bc297-d5b6-49a9-90d0-7fda3fff0ed7","ios":"levelo://app?vid=2d3bc297-d5b6-49a9-90d0-7fda3fff0ed7"},"vehicle_type_id":"4","last_reported":1737569569,"current_range_meters":8000,"station_id":"ce4bgt12rcd13ifvqcd0","pricing_plan_id":"cebpf4jnsgd1na2vs0mg"},{"bike_id":"bb18fbad-30fe-4fc5-ba25-f651ad521972","system_id":"levelo_inurba_marseille","lat":43.248,"lon":5.37449,"is_reserved":false,"is_disabled":false,"rental_uris":{"android":"levelo://app?vid=bb18fbad-30fe-4fc5-ba25-f651ad521972","ios":"levelo://app?vid=bb18fbad-30fe-4fc5-ba25-f651ad521972"},"vehicle_type_id":"4","last_reported":1737569569,"current_range_meters":34000,"station_id":"ce4bhgh2rcd13ifvqfb0","pricing_plan_id":"cebpf4jnsgd1na2vs0mg"},{"bike_id":"3325dbd1-27ed-4cd9-ba91-0feff7fdaa22","system_id":"levelo_inurba_marseille","lat":43.30325,"lon":5.40441,"is_reserved":false,"is_disabled":false,"rental_uris":{"android":"levelo://app?vid=3325dbd1-27ed-4cd9-ba91-0feff7fdaa22","ios":"levelo://app?vid=3325dbd1-27ed-4cd9-ba91-0feff7fdaa22"},"vehicle_type_id":"4","last_reported":1737569569,"current_range_meters":27600,"station_id":"ce4bh012rcd13ifvqd10","pricing_plan_id":"cebpf4jnsgd1na2vs0mg"},{"bike_id":"2aa8a242-3616-46c6-abfd-6cf012bd07d4","system_id":"levelo_inurba_marseille","lat":43.29975,"lon":5.38493,"is_reserved":false,"is_disabled":false,"rental_uris":{"android":"levelo://app?vid=2aa8a242-3616-46c6-abfd-6cf012bd07d4","ios":"levelo://app?vid=2aa8a242-3616-46c6-abfd-6cf012bd07d4"},"vehicle_type_id":"4","last_reported":1737569569,"current_range_meters":14800,"station_id":"ce4bgj92rcd13ifvqbd0","pricing_plan_id":"cebpf4jnsgd1na2vs0mg"},{"bike_id":"6a9e6fb3-1965-43ab-a598-cf1f58670842","system_id":"levelo_inurba_marseille","lat":43.23181,"lon":5.39982,"is_reserved":false,"is_disabled":false,"rental_uris":{"android":"levelo://app?vid=6a9e6fb3-1965-43ab-a598-cf1f58670842","ios":"levelo://app?vid=6a9e6fb3-1965-43ab-a598-cf1f58670842"},"vehicle_type_id":"4","last_reported":1737569569,"current_range_meters":30400,"station_id":"ce4bhn12rcd13ifvqgqg","pricing_plan_id":"cebpf4jnsgd1na2vs0mg"},{"bike_id":"110f4d36-27c9-49b8-86bf-d85558408b80","system_id":"levelo_inurba_marseille","lat":43.3236,"lon":5.38888,"is_reserved":false,"is_disabled":false,"rental_uris":{"android":"levelo://app?vid=110f4d36-27c9-49b8-86bf-d85558408b80","ios":"levelo://app?vid=110f4d36-27c9-49b8-86bf-d85558408b80"},"vehicle_type_id":"4","last_reported":1737569569,"current_range_meters":23200,"station_id":"ce4bhqp2rcd13ifvqhog","pricing_plan_id":"cebpf4jnsgd1na2vs0mg"},{"bike_id":"e2151eb3-314b-404c-b259-cf12a3a3e0c6","system_id":"levelo_inurba_marseille","lat":43.31595,"lon":5.40255,"is_reserved":false,"is_disabled":false,"rental_uris":{"android":"levelo://app?vid=e2151eb3-314b-404c-b259-cf12a3a3e0c6","ios":"levelo://app?vid=e2151eb3-314b-404c-b259-cf12a3a3e0c6"},"vehicle_type_id":"4","last_reported":1737569569,"current_range_meters":25200,"station_id":"","pricing_plan_id":"cebpf4jnsgd1na2vs0mg"},{"bike_id":"f9c7e2d1-3fc3-43b7-b011-8c99482e2f0a","system_id":"levelo_inurba_marseille","lat":43.28717,"lon":5.37933,"is_reserved":false,"is_disabled":false,"rental_uris":{"android":"levelo://app?vid=f9c7e2d1-3fc3-43b7-b011-8c99482e2f0a","ios":"levelo://app?vid=f9c7e2d1-3fc3-43b7-b011-8c99482e2f0a"},"vehicle_type_id":"4","last_reported":1737569569,"current_range_meters":11600,"station_id":"ce4bh9p2rcd13ifvqec0","pricing_plan_id":"cebpf4jnsgd1na2vs0mg"},{"bike_id":"3bcd921d-810c-4845-87ab-d96c2ac5451e","system_id":"levelo_inurba_marseille","lat":43.27814,"lon":5.40722,"is_reserved":false,"is_disabled":false,"rental_uris":{"android":"levelo://app?vid=3bcd921d-810c-4845-87ab-d96c2ac5451e","ios":"levelo://app?vid=3bcd921d-810c-4845-87ab-d96c2ac5451e"},"vehicle_type_id":"4","last_reported":1737569569,"current_range_meters":11600,"station_id":"ce4bhnh2rcd13ifvqgtg","pricing_plan_id":"cebpf4jnsgd1na2vs0mg"},{"bike_id":"c01ff322-934e-4fed-b8ab-096213fbdb3c","system_id":"levelo_inurba_marseille","lat":43.31991,"lon":5.38179,"is_reserved":false,"is_disabled":false,"rental_uris":{"android":"levelo://app?vid=c01ff322-934e-4fed-b8ab-096213fbdb3c","ios":"levelo://app?vid=c01ff322-934e-4fed-b8ab-096213fbdb3c"},"vehicle_type_id":"4","last_reported":1737569569,"current_range_meters":39200,"station_id":"ce4bhr12rcd13ifvqhpg","pricing_plan_id":"cebpf4jnsgd1na2vs0mg"},{"bike_id":"25121805-ce5f-411c-90c2-51347bcc7d50","system_id":"levelo_inurba_marseille","lat":43.29959,"lon":5.37162,"is_reserved":false,"is_disabled":false,"rental_uris":{"android":"levelo://app?vid=25121805-ce5f-411c-90c2-51347bcc7d50","ios":"levelo://app?vid=25121805-ce5f-411c-90c2-51347bcc7d50"},"vehicle_type_id":"4","last_reported":1737569569,"current_range_meters":24400,"station_id":"ce4bgr92rcd13ifvqc7g","pricing_plan_id":"cebpf4jnsgd1na2vs0mg"},{"bike_id":"69db6415-9707-42d2-aff6-bddac8adc810","system_id":"levelo_inurba_marseille","lat":43.28412,"lon":5.37516,"is_reserved":false,"is_disabled":false,"rental_uris":{"android":"levelo://app?vid=69db6415-9707-42d2-aff6-bddac8adc810","ios":"levelo://app?vid=69db6415-9707-42d2-aff6-bddac8adc810"},"vehicle_type_id":"4","last_reported":1737569569,"current_range_meters":38400,"station_id":"ce4bh412rcd13ifvqds0","pricing_plan_id":"cebpf4jnsgd1na2vs0mg"},{"bike_id":"3f63e53d-3b46-4782-a190-92b6b8762f64","system_id":"levelo_inurba_marseille","lat":43.31893,"lon":5.40756,"is_reserved":false,"is_disabled":false,"rental_uris":{"android":"levelo://app?vid=3f63e53d-3b46-4782-a190-92b6b8762f64","ios":"levelo://app?vid=3f63e53d-3b46-4782-a190-92b6b8762f64"},"vehicle_type_id":"4","last_reported":1737569569,"current_range_meters":17200,"station_id":"ce4bhq12rcd13ifvqhig","pricing_plan_id":"cebpf4jnsgd1na2vs0mg"},{"bike_id":"8cf72ef7-e99d-4251-a909-d1924caef0b7","system_id":"levelo_inurba_marseille","lat":43.295776,"lon":5.367445,"is_reserved":false,"is_disabled":false,"rental_uris":{"android":"levelo://app?vid=8cf72ef7-e99d-4251-a909-d1924caef0b7","ios":"levelo://app?vid=8cf72ef7-e99d-4251-a909-d1924caef0b7"},"vehicle_type_id":"4","last_reported":1737569569,"current_range_meters":38800,"station_id":"ce4bgph2rcd13ifvqc2g","pricing_plan_id":"cebpf4jnsgd1na2vs0mg"},{"bike_id":"6440f376-b0ac-4979-8b74-813c76d7599b","system_id":"levelo_inurba_marseille","lat":43.24169,"lon":5.39714,"is_reserved":false,"is_disabled":false,"rental_uris":{"android":"levelo://app?vid=6440f376-b0ac-4979-8b74-813c76d7599b","ios":"levelo://app?vid=6440f376-b0ac-4979-8b74-813c76d7599b"},"vehicle_type_id":"4","last_reported":1737569569,"current_range_meters":28000,"station_id":"ce4bhn12rcd13ifvqgpg","pricing_plan_id":"cebpf4jnsgd1na2vs0mg"},{"bike_id":"07222054-6bcd-45e4-8545-43979da21269","system_id":"levelo_inurba_marseille","lat":43.30141,"lon":5.39876,"is_reserved":false,"is_disabled":false,"rental_uris":{"android":"levelo://app?vid=07222054-6bcd-45e4-8545-43979da21269","ios":"levelo://app?vid=07222054-6bcd-45e4-8545-43979da21269"},"vehicle_type_id":"4","last_reported":1737569569,"current_range_meters":38800,"station_id":"ce4bh0h2rcd13ifvqd40","pricing_plan_id":"cebpf4jnsgd1na2vs0mg"},{"bike_id":"53608539-8cd0-47e7-9cfb-d1161556d6fb","system_id":"levelo_inurba_marseille","lat":43.25505,"lon":5.37659,"is_reserved":false,"is_disabled":false,"rental_uris":{"android":"levelo://app?vid=53608539-8cd0-47e7-9cfb-d1161556d6fb","ios":"levelo://app?vid=53608539-8cd0-47e7-9cfb-d1161556d6fb"},"vehicle_type_id":"4","last_reported":1737569569,"current_range_meters":24800,"station_id":"ce4bhh12rcd13ifvqff0","pricing_plan_id":"cebpf4jnsgd1na2vs0mg"},{"bike_id":"f98a7ee0-f9fe-4556-933e-ecf6827038e5","system_id":"levelo_inurba_marseille","lat":43.29194,"lon":5.35731,"is_reserved":false,"is_disabled":false,"rental_uris":{"android":"levelo://app?vid=f98a7ee0-f9fe-4556-933e-ecf6827038e5","ios":"levelo://app?vid=f98a7ee0-f9fe-4556-933e-ecf6827038e5"},"vehicle_type_id":"4","last_reported":1737569569,"current_range_meters":18800,"station_id":"ce4bhb12rcd13ifvqel0","pricing_plan_id":"cebpf4jnsgd1na2vs0mg"},{"bike_id":"8fca4091-c5fa-4154-84ea-a7460f617841","system_id":"levelo_inurba_marseille","lat":43.30209,"lon":5.39472,"is_reserved":false,"is_disabled":false,"rental_uris":{"android":"levelo://app?vid=8fca4091-c5fa-4154-84ea-a7460f617841","ios":"levelo://app?vid=8fca4091-c5fa-4154-84ea-a7460f617841"},"vehicle_type_id":"4","last_reported":1737569569,"current_range_meters":10800,"station_id":"ce4bh0p2rcd13ifvqd70","pricing_plan_id":"cebpf4jnsgd1na2vs0mg"},{"bike_id":"c1b9a20a-b484-4b04-8fbf-bea2f1ecaf7b","system_id":"levelo_inurba_marseille","lat":43.261884,"lon":5.374161,"is_reserved":false,"is_disabled":false,"rental_uris":{"android":"levelo://app?vid=c1b9a20a-b484-4b04-8fbf-bea2f1ecaf7b","ios":"levelo://app?vid=c1b9a20a-b484-4b04-8fbf-bea2f1ecaf7b"},"vehicle_type_id":"4","last_reported":1737569569,"current_range_meters":15200,"station_id":"ce4bhhh2rcd13ifvqfk0","pricing_plan_id":"cebpf4jnsgd1na2vs0mg"},{"bike_id":"91f957bd-7ae6-4841-8ac4-1ecdcd0c697e","system_id":"levelo_inurba_marseille","lat":43.31541,"lon":5.4016,"is_reserved":false,"is_disabled":false,"rental_uris":{"android":"levelo://app?vid=91f957bd-7ae6-4841-8ac4-1ecdcd0c697e","ios":"levelo://app?vid=91f957bd-7ae6-4841-8ac4-1ecdcd0c697e"},"vehicle_type_id":"4","last_reported":1737569569,"current_range_meters":28400,"station_id":"","pricing_plan_id":"cebpf4jnsgd1na2vs0mg"},{"bike_id":"5d2b98bf-d716-479d-babd-715899ae790e","system_id":"levelo_inurba_marseille","lat":43.28678,"lon":5.38688,"is_reserved":false,"is_disabled":false,"rental_uris":{"android":"levelo://app?vid=5d2b98bf-d716-479d-babd-715899ae790e","ios":"levelo://app?vid=5d2b98bf-d716-479d-babd-715899ae790e"},"vehicle_type_id":"4","last_reported":1737569569,"current_range_meters":4000,"station_id":"ce4bh492rcd13ifvqdug","pricing_plan_id":"cebpf4jnsgd1na2vs0mg"},{"bike_id":"eff6d6ad-9118-49b9-b839-4f654fb7a2f0","system_id":"levelo_inurba_marseille","lat":43.28862,"lon":5.3584,"is_reserved":false,"is_disabled":true,"rental_uris":{"android":"levelo://app?vid=eff6d6ad-9118-49b9-b839-4f654fb7a2f0","ios":"levelo://app?vid=eff6d6ad-9118-49b9-b839-4f654fb7a2f0"},"vehicle_type_id":"4","last_reported":1737569569,"current_range_meters":1600,"station_id":"ce4bhb12rcd13ifvqem0","pricing_plan_id":"cebpf4jnsgd1na2vs0mg"},{"bike_id":"96663138-92b9-4343-9a11-314ee4531fc0","system_id":"levelo_inurba_marseille","lat":43.30773,"lon":5.37661,"is_reserved":false,"is_disabled":true,"rental_uris":{"android":"levelo://app?vid=96663138-92b9-4343-9a11-314ee4531fc0","ios":"levelo://app?vid=96663138-92b9-4343-9a11-314ee4531fc0"},"vehicle_type_id":"4","last_reported":1737569569,"current_range_meters":18000,"station_id":"ce4bgv92rcd13ifvqcq0","pricing_plan_id":"cebpf4jnsgd1na2vs0mg"},{"bike_id":"a9d08443-71b6-4ab7-93ae-f8d5b6602792","system_id":"levelo_inurba_marseille","lat":43.30782,"lon":5.43554,"is_reserved":false,"is_disabled":false,"rental_uris":{"android":"levelo://app?vid=a9d08443-71b6-4ab7-93ae-f8d5b6602792","ios":"levelo://app?vid=a9d08443-71b6-4ab7-93ae-f8d5b6602792"},"vehicle_type_id":"4","last_reported":1737569569,"current_range_meters":14800,"station_id":"ce4bhph2rcd13ifvqheg","pricing_plan_id":"cebpf4jnsgd1na2vs0mg"},{"bike_id":"d79eae9e-9374-4c18-b9cc-1cc0e4262676","system_id":"levelo_inurba_marseille","lat":43.27618,"lon":5.36115,"is_reserved":false,"is_disabled":false,"rental_uris":{"android":"levelo://app?vid=d79eae9e-9374-4c18-b9cc-1cc0e4262676","ios":"levelo://app?vid=d79eae9e-9374-4c18-b9cc-1cc0e4262676"},"vehicle_type_id":"4","last_reported":1737569569,"current_range_meters":23200,"station_id":"ce4bgj92rcd13ifvqbe0","pricing_plan_id":"cebpf4jnsgd1na2vs0mg"},{"bike_id":"e13ed6f9-6579-440a-94ff-a4a69dc14fb2","system_id":"levelo_inurba_marseille","lat":43.29005,"lon":5.35607,"is_reserved":false,"is_disabled":false,"rental_uris":{"android":"levelo://app?vid=e13ed6f9-6579-440a-94ff-a4a69dc14fb2","ios":"levelo://app?vid=e13ed6f9-6579-440a-94ff-a4a69dc14fb2"},"vehicle_type_id":"4","last_reported":1737569569,"current_range_meters":38000,"station_id":"ce4bhb92rcd13ifvqen0","pricing_plan_id":"cebpf4jnsgd1na2vs0mg"},{"bike_id":"671a624e-4572-4a73-878a-56cac04af55b","system_id":"levelo_inurba_marseille","lat":43.290208,"lon":5.386405,"is_reserved":false,"is_disabled":false,"rental_uris":{"android":"levelo://app?vid=671a624e-4572-4a73-878a-56cac04af55b","ios":"levelo://app?vid=671a624e-4572-4a73-878a-56cac04af55b"},"vehicle_type_id":"4","last_reported":1737569569,"current_range_meters":21600,"station_id":"ce4bh4p2rcd13ifvqe0g","pricing_plan_id":"cebpf4jnsgd1na2vs0mg"},{"bike_id":"b657a756-1477-49c4-a8ff-7db2f86ec3c4","system_id":"levelo_inurba_marseille","lat":43.29788,"lon":5.39336,"is_reserved":false,"is_disabled":false,"rental_uris":{"android":"levelo://app?vid=b657a756-1477-49c4-a8ff-7db2f86ec3c4","ios":"levelo://app?vid=b657a756-1477-49c4-a8ff-7db2f86ec3c4"},"vehicle_type_id":"4","last_reported":1737569569,"current_range_meters":20800,"station_id":"chh1huq6cuj3fo74tm60","pricing_plan_id":"cebpf4jnsgd1na2vs0mg"},{"bike_id":"8ab0346c-8001-4067-8852-009244e2b53d","system_id":"levelo_inurba_marseille","lat":43.31086,"lon":5.42427,"is_reserved":false,"is_disabled":false,"rental_uris":{"android":"levelo://app?vid=8ab0346c-8001-4067-8852-009244e2b53d","ios":"levelo://app?vid=8ab0346c-8001-4067-8852-009244e2b53d"},"vehicle_type_id":"4","last_reported":1737569569,"current_range_meters":38800,"station_id":"ce4bhp92rcd13ifvqhag","pricing_plan_id":"cebpf4jnsgd1na2vs0mg"},{"bike_id":"80fe8ffe-d43c-442b-a228-9c041694be6c","system_id":"levelo_inurba_marseille","lat":43.30088,"lon":5.390656,"is_reserved":false,"is_disabled":false,"rental_uris":{"android":"levelo://app?vid=80fe8ffe-d43c-442b-a228-9c041694be6c","ios":"levelo://app?vid=80fe8ffe-d43c-442b-a228-9c041694be6c"},"vehicle_type_id":"4","last_reported":1737569569,"current_range_meters":37600,"station_id":"ce4bh192rcd13ifvqdb0","pricing_plan_id":"cebpf4jnsgd1na2vs0mg"},{"bike_id":"49b72580-0a1d-4edc-bc96-4de0de30e7b4","system_id":"levelo_inurba_marseille","lat":43.3107,"lon":5.38355,"is_reserved":false,"is_disabled":false,"rental_uris":{"android":"levelo://app?vid=49b72580-0a1d-4edc-bc96-4de0de30e7b4","ios":"levelo://app?vid=49b72580-0a1d-4edc-bc96-4de0de30e7b4"},"vehicle_type_id":"4","last_reported":1737569569,"current_range_meters":38800,"station_id":"ce4bgv92rcd13ifvqcr0","pricing_plan_id":"cebpf4jnsgd1na2vs0mg"},{"bike_id":"03f65ec4-487a-4a60-a6b7-d28a834120f4","system_id":"levelo_inurba_marseille","lat":43.2815,"lon":5.42642,"is_reserved":false,"is_disabled":false,"rental_uris":{"android":"levelo://app?vid=03f65ec4-487a-4a60-a6b7-d28a834120f4","ios":"levelo://app?vid=03f65ec4-487a-4a60-a6b7-d28a834120f4"},"vehicle_type_id":"4","last_reported":1737569569,"current_range_meters":30800,"station_id":"ce4bhnh2rcd13ifvqgug","pricing_plan_id":"cebpf4jnsgd1na2vs0mg"},{"bike_id":"e14baba4-7381-4ad7-9450-30b4b09a275b","system_id":"levelo_inurba_marseille","lat":43.31083,"lon":5.42432,"is_reserved":false,"is_disabled":false,"rental_uris":{"android":"levelo://app?vid=e14baba4-7381-4ad7-9450-30b4b09a275b","ios":"levelo://app?vid=e14baba4-7381-4ad7-9450-30b4b09a275b"},"vehicle_type_id":"4","last_reported":1737569569,"current_range_meters":38000,"station_id":"ce4bhp92rcd13ifvqhag","pricing_plan_id":"cebpf4jnsgd1na2vs0mg"},{"bike_id":"46df303c-af7b-4bd6-88dd-7d9758a3ac21","system_id":"levelo_inurba_marseille","lat":43.30442,"lon":5.38884,"is_reserved":false,"is_disabled":true,"rental_uris":{"android":"levelo://app?vid=46df303c-af7b-4bd6-88dd-7d9758a3ac21","ios":"levelo://app?vid=46df303c-af7b-4bd6-88dd-7d9758a3ac21"},"vehicle_type_id":"4","last_reported":1737569569,"current_range_meters":24000,"station_id":"ce4bgk12rcd13ifvqbi0","pricing_plan_id":"cebpf4jnsgd1na2vs0mg"},{"bike_id":"4a4d7389-6cbd-4fb4-901a-7ae516093a77","system_id":"levelo_inurba_marseille","lat":43.29302,"lon":5.37454,"is_reserved":false,"is_disabled":false,"rental_uris":{"android":"levelo://app?vid=4a4d7389-6cbd-4fb4-901a-7ae516093a77","ios":"levelo://app?vid=4a4d7389-6cbd-4fb4-901a-7ae516093a77"},"vehicle_type_id":"4","last_reported":1737569569,"current_range_meters":30000,"station_id":"ce4bgi12rcd13ifvqb70","pricing_plan_id":"cebpf4jnsgd1na2vs0mg"},{"bike_id":"dc25515f-2516-4d8e-8ff7-eaa9f571f705","system_id":"levelo_inurba_marseille","lat":43.30097,"lon":5.39093,"is_reserved":false,"is_disabled":true,"rental_uris":{"android":"levelo://app?vid=dc25515f-2516-4d8e-8ff7-eaa9f571f705","ios":"levelo://app?vid=dc25515f-2516-4d8e-8ff7-eaa9f571f705"},"vehicle_type_id":"4","last_reported":1737569569,"current_range_meters":400,"station_id":"ce4bh192rcd13ifvqdb0","pricing_plan_id":"cebpf4jnsgd1na2vs0mg"},{"bike_id":"23f9750a-dc87-4a1a-9fed-2c1c3a6130a9","system_id":"levelo_inurba_marseille","lat":43.29516,"lon":5.39424,"is_reserved":false,"is_disabled":false,"rental_uris":{"android":"levelo://app?vid=23f9750a-dc87-4a1a-9fed-2c1c3a6130a9","ios":"levelo://app?vid=23f9750a-dc87-4a1a-9fed-2c1c3a6130a9"},"vehicle_type_id":"4","last_reported":1737569569,"current_range_meters":25600,"station_id":"ce4bh292rcd13ifvqdf0","pricing_plan_id":"cebpf4jnsgd1na2vs0mg"},{"bike_id":"6a43f7c6-5cb1-4019-aadc-092e87ce2763","system_id":"levelo_inurba_marseille","lat":43.27818,"lon":5.39212,"is_reserved":false,"is_disabled":false,"rental_uris":{"android":"levelo://app?vid=6a43f7c6-5cb1-4019-aadc-092e87ce2763","ios":"levelo://app?vid=6a43f7c6-5cb1-4019-aadc-092e87ce2763"},"vehicle_type_id":"4","last_reported":1737569569,"current_range_meters":14400,"station_id":"ce4bhjp2rcd13ifvqga0","pricing_plan_id":"cebpf4jnsgd1na2vs0mg"},{"bike_id":"8967e85a-3e41-4bc0-8027-6de87f527f5d","system_id":"levelo_inurba_marseille","lat":43.30255,"lon":5.401,"is_reserved":false,"is_disabled":false,"rental_uris":{"android":"levelo://app?vid=8967e85a-3e41-4bc0-8027-6de87f527f5d","ios":"levelo://app?vid=8967e85a-3e41-4bc0-8027-6de87f527f5d"},"vehicle_type_id":"4","last_reported":1737569569,"current_range_meters":24800,"station_id":"ce4bgvh2rcd13ifvqcs0","pricing_plan_id":"cebpf4jnsgd1na2vs0mg"},{"bike_id":"fa6e5f43-8522-4c3f-914b-c83c46b342d8","system_id":"levelo_inurba_marseille","lat":43.27947,"lon":5.41056,"is_reserved":false,"is_disabled":false,"rental_uris":{"android":"levelo://app?vid=fa6e5f43-8522-4c3f-914b-c83c46b342d8","ios":"levelo://app?vid=fa6e5f43-8522-4c3f-914b-c83c46b342d8"},"vehicle_type_id":"4","last_reported":1737569569,"current_range_meters":12000,"station_id":"ce4bhnp2rcd13ifvqh0g","pricing_plan_id":"cebpf4jnsgd1na2vs0mg"},{"bike_id":"15503ea3-af88-46dc-98ce-74f54620fbfb","system_id":"levelo_inurba_marseille","lat":43.30233,"lon":5.39444,"is_reserved":false,"is_disabled":false,"rental_uris":{"android":"levelo://app?vid=15503ea3-af88-46dc-98ce-74f54620fbfb","ios":"levelo://app?vid=15503ea3-af88-46dc-98ce-74f54620fbfb"},"vehicle_type_id":"4","last_reported":1737569569,"current_range_meters":38800,"station_id":"ce4bh0p2rcd13ifvqd70","pricing_plan_id":"cebpf4jnsgd1na2vs0mg"},{"bike_id":"e86533f2-13f1-4641-8205-2eff668c57b8","system_id":"levelo_inurba_marseille","lat":43.29271,"lon":5.3685,"is_reserved":false,"is_disabled":false,"rental_uris":{"android":"levelo://app?vid=e86533f2-13f1-4641-8205-2eff668c57b8","ios":"levelo://app?vid=e86533f2-13f1-4641-8205-2eff668c57b8"},"vehicle_type_id":"4","last_reported":1737569569,"current_range_meters":23200,"station_id":"ce4bhbp2rcd13ifvqesg","pricing_plan_id":"cebpf4jnsgd1na2vs0mg"},{"bike_id":"8ed91db9-89c2-4775-8627-8fc676f91e65","system_id":"levelo_inurba_marseille","lat":43.30422,"lon":5.39747,"is_reserved":false,"is_disabled":false,"rental_uris":{"android":"levelo://app?vid=8ed91db9-89c2-4775-8627-8fc676f91e65","ios":"levelo://app?vid=8ed91db9-89c2-4775-8627-8fc676f91e65"},"vehicle_type_id":"4","last_reported":1737569569,"current_range_meters":36800,"station_id":"ce4bh092rcd13ifvqd20","pricing_plan_id":"cebpf4jnsgd1na2vs0mg"},{"bike_id":"ee394eed-356e-4b89-a199-59b1d0af1fe3","system_id":"levelo_inurba_marseille","lat":43.2979,"lon":5.39346,"is_reserved":false,"is_disabled":false,"rental_uris":{"android":"levelo://app?vid=ee394eed-356e-4b89-a199-59b1d0af1fe3","ios":"levelo://app?vid=ee394eed-356e-4b89-a199-59b1d0af1fe3"},"vehicle_type_id":"4","last_reported":1737569569,"current_range_meters":27200,"station_id":"chh1huq6cuj3fo74tm60","pricing_plan_id":"cebpf4jnsgd1na2vs0mg"},{"bike_id":"9350501d-47b5-4e7c-9544-3cfbcfda09ef","system_id":"levelo_inurba_marseille","lat":43.26565,"lon":5.39021,"is_reserved":false,"is_disabled":false,"rental_uris":{"android":"levelo://app?vid=9350501d-47b5-4e7c-9544-3cfbcfda09ef","ios":"levelo://app?vid=9350501d-47b5-4e7c-9544-3cfbcfda09ef"},"vehicle_type_id":"4","last_reported":1737569569,"current_range_meters":28400,"station_id":"ce4bhe12rcd13ifvqf30","pricing_plan_id":"cebpf4jnsgd1na2vs0mg"},{"bike_id":"7f7971a4-3309-4c4c-ba6d-ee74a73d6b07","system_id":"levelo_inurba_marseille","lat":43.30435,"lon":5.38889,"is_reserved":false,"is_disabled":true,"rental_uris":{"android":"levelo://app?vid=7f7971a4-3309-4c4c-ba6d-ee74a73d6b07","ios":"levelo://app?vid=7f7971a4-3309-4c4c-ba6d-ee74a73d6b07"},"vehicle_type_id":"4","last_reported":1737569569,"current_range_meters":34800,"station_id":"ce4bgk12rcd13ifvqbi0","pricing_plan_id":"cebpf4jnsgd1na2vs0mg"},{"bike_id":"af02c659-1ca8-415a-9424-64163b3e562f","system_id":"levelo_inurba_marseille","lat":43.29064,"lon":5.3717,"is_reserved":false,"is_disabled":false,"rental_uris":{"android":"levelo://app?vid=af02c659-1ca8-415a-9424-64163b3e562f","ios":"levelo://app?vid=af02c659-1ca8-415a-9424-64163b3e562f"},"vehicle_type_id":"4","last_reported":1737569569,"current_range_meters":16400,"station_id":"ce4bh5p2rcd13ifvqe4g","pricing_plan_id":"cebpf4jnsgd1na2vs0mg"},{"bike_id":"fe5283d4-ad50-4326-875d-e657e7e908e3","system_id":"levelo_inurba_marseille","lat":43.31464,"lon":5.37306,"is_reserved":false,"is_disabled":false,"rental_uris":{"android":"levelo://app?vid=fe5283d4-ad50-4326-875d-e657e7e908e3","ios":"levelo://app?vid=fe5283d4-ad50-4326-875d-e657e7e908e3"},"vehicle_type_id":"4","last_reported":1737569569,"current_range_meters":33200,"station_id":"ce4bgt12rcd13ifvqcd0","pricing_plan_id":"cebpf4jnsgd1na2vs0mg"},{"bike_id":"2242bb51-c452-4b77-a3b1-0cb2df7c6a34","system_id":"levelo_inurba_marseille","lat":43.29571,"lon":5.39974,"is_reserved":false,"is_disabled":false,"rental_uris":{"android":"levelo://app?vid=2242bb51-c452-4b77-a3b1-0cb2df7c6a34","ios":"levelo://app?vid=2242bb51-c452-4b77-a3b1-0cb2df7c6a34"},"vehicle_type_id":"4","last_reported":1737569569,"current_range_meters":6400,"station_id":"ce4bh312rcd13ifvqdj0","pricing_plan_id":"cebpf4jnsgd1na2vs0mg"},{"bike_id":"7e877559-6add-47ef-b6e5-fc1c6cc4fcf7","system_id":"levelo_inurba_marseille","lat":43.26792,"lon":5.39409,"is_reserved":false,"is_disabled":false,"rental_uris":{"android":"levelo://app?vid=7e877559-6add-47ef-b6e5-fc1c6cc4fcf7","ios":"levelo://app?vid=7e877559-6add-47ef-b6e5-fc1c6cc4fcf7"},"vehicle_type_id":"4","last_reported":1737569569,"current_range_meters":28000,"station_id":"ce4bhh12rcd13ifvqfg0","pricing_plan_id":"cebpf4jnsgd1na2vs0mg"},{"bike_id":"76a8a7e0-6de0-4f3c-ad98-338ec9ce50dc","system_id":"levelo_inurba_marseille","lat":43.26556,"lon":5.39017,"is_reserved":false,"is_disabled":false,"rental_uris":{"android":"levelo://app?vid=76a8a7e0-6de0-4f3c-ad98-338ec9ce50dc","ios":"levelo://app?vid=76a8a7e0-6de0-4f3c-ad98-338ec9ce50dc"},"vehicle_type_id":"4","last_reported":1737569569,"current_range_meters":27600,"station_id":"ce4bhe12rcd13ifvqf30","pricing_plan_id":"cebpf4jnsgd1na2vs0mg"},{"bike_id":"f4f0bb5b-d280-444f-a04a-6cef2bf9bee3","system_id":"levelo_inurba_marseille","lat":43.2794,"lon":5.4104,"is_reserved":false,"is_disabled":false,"rental_uris":{"android":"levelo://app?vid=f4f0bb5b-d280-444f-a04a-6cef2bf9bee3","ios":"levelo://app?vid=f4f0bb5b-d280-444f-a04a-6cef2bf9bee3"},"vehicle_type_id":"4","last_reported":1737569569,"current_range_meters":27200,"station_id":"ce4bhnp2rcd13ifvqh0g","pricing_plan_id":"cebpf4jnsgd1na2vs0mg"},{"bike_id":"4e99ddeb-211b-4f65-a943-2e0091e9028b","system_id":"levelo_inurba_marseille","lat":43.29276,"lon":5.38443,"is_reserved":false,"is_disabled":false,"rental_uris":{"android":"levelo://app?vid=4e99ddeb-211b-4f65-a943-2e0091e9028b","ios":"levelo://app?vid=4e99ddeb-211b-4f65-a943-2e0091e9028b"},"vehicle_type_id":"4","last_reported":1737569569,"current_range_meters":14400,"station_id":"ce4bh692rcd13ifvqea0","pricing_plan_id":"cebpf4jnsgd1na2vs0mg"},{"bike_id":"5d312da2-6ad6-4db6-beb3-cfd31a392314","system_id":"levelo_inurba_marseille","lat":43.262358,"lon":5.378981,"is_reserved":false,"is_disabled":false,"rental_uris":{"android":"levelo://app?vid=5d312da2-6ad6-4db6-beb3-cfd31a392314","ios":"levelo://app?vid=5d312da2-6ad6-4db6-beb3-cfd31a392314"},"vehicle_type_id":"4","last_reported":1737569569,"current_range_meters":28800,"station_id":"ce4bhjp2rcd13ifvqg90","pricing_plan_id":"cebpf4jnsgd1na2vs0mg"},{"bike_id":"273414ea-1401-4794-b313-34930b6f0ad8","system_id":"levelo_inurba_marseille","lat":43.29977,"lon":5.38501,"is_reserved":false,"is_disabled":false,"rental_uris":{"android":"levelo://app?vid=273414ea-1401-4794-b313-34930b6f0ad8","ios":"levelo://app?vid=273414ea-1401-4794-b313-34930b6f0ad8"},"vehicle_type_id":"4","last_reported":1737569569,"current_range_meters":38400,"station_id":"ce4bgj92rcd13ifvqbd0","pricing_plan_id":"cebpf4jnsgd1na2vs0mg"},{"bike_id":"cc7c3071-962f-4b64-b728-a68ed33e51bb","system_id":"levelo_inurba_marseille","lat":43.28693,"lon":5.37404,"is_reserved":false,"is_disabled":false,"rental_uris":{"android":"levelo://app?vid=cc7c3071-962f-4b64-b728-a68ed33e51bb","ios":"levelo://app?vid=cc7c3071-962f-4b64-b728-a68ed33e51bb"},"vehicle_type_id":"4","last_reported":1737569569,"current_range_meters":6800,"station_id":"ce4bh3p2rcd13ifvqdq0","pricing_plan_id":"cebpf4jnsgd1na2vs0mg"},{"bike_id":"13a64475-e4c7-493c-900a-0bcfe86942ca","system_id":"levelo_inurba_marseille","lat":43.30801,"lon":5.4352,"is_reserved":false,"is_disabled":false,"rental_uris":{"android":"levelo://app?vid=13a64475-e4c7-493c-900a-0bcfe86942ca","ios":"levelo://app?vid=13a64475-e4c7-493c-900a-0bcfe86942ca"},"vehicle_type_id":"4","last_reported":1737569569,"current_range_meters":16400,"station_id":"ce4bhph2rcd13ifvqheg","pricing_plan_id":"cebpf4jnsgd1na2vs0mg"},{"bike_id":"f9461512-936e-4039-b4fa-a38b5e63b619","system_id":"levelo_inurba_marseille","lat":43.29874,"lon":5.3891,"is_reserved":false,"is_disabled":false,"rental_uris":{"android":"levelo://app?vid=f9461512-936e-4039-b4fa-a38b5e63b619","ios":"levelo://app?vid=f9461512-936e-4039-b4fa-a38b5e63b619"},"vehicle_type_id":"4","last_reported":1737569569,"current_range_meters":6400,"station_id":"ce4bh392rcd13ifvqdl0","pricing_plan_id":"cebpf4jnsgd1na2vs0mg"},{"bike_id":"ac3fa518-fef3-4a6f-9e1e-03befa6efc87","system_id":"levelo_inurba_marseille","lat":43.27959,"lon":5.41061,"is_reserved":false,"is_disabled":false,"rental_uris":{"android":"levelo://app?vid=ac3fa518-fef3-4a6f-9e1e-03befa6efc87","ios":"levelo://app?vid=ac3fa518-fef3-4a6f-9e1e-03befa6efc87"},"vehicle_type_id":"4","last_reported":1737569569,"current_range_meters":13600,"station_id":"ce4bhnp2rcd13ifvqh0g","pricing_plan_id":"cebpf4jnsgd1na2vs0mg"},{"bike_id":"30f20e47-f505-4aed-8e79-2ff592263105","system_id":"levelo_inurba_marseille","lat":43.29597,"lon":5.38094,"is_reserved":false,"is_disabled":false,"rental_uris":{"android":"levelo://app?vid=30f20e47-f505-4aed-8e79-2ff592263105","ios":"levelo://app?vid=30f20e47-f505-4aed-8e79-2ff592263105"},"vehicle_type_id":"4","last_reported":1737569569,"current_range_meters":9600,"station_id":"ce4bgl12rcd13ifvqbo0","pricing_plan_id":"cebpf4jnsgd1na2vs0mg"},{"bike_id":"b0ee3244-b915-4f05-8704-8eb07d0c50b6","system_id":"levelo_inurba_marseille","lat":43.31705,"lon":5.37708,"is_reserved":false,"is_disabled":false,"rental_uris":{"android":"levelo://app?vid=b0ee3244-b915-4f05-8704-8eb07d0c50b6","ios":"levelo://app?vid=b0ee3244-b915-4f05-8704-8eb07d0c50b6"},"vehicle_type_id":"4","last_reported":1737569569,"current_range_meters":38800,"station_id":"ce4bgth2rcd13ifvqch0","pricing_plan_id":"cebpf4jnsgd1na2vs0mg"},{"bike_id":"5bad554d-f511-4da7-8db1-c6587c3059ff","system_id":"levelo_inurba_marseille","lat":43.28691,"lon":5.37396,"is_reserved":false,"is_disabled":false,"rental_uris":{"android":"levelo://app?vid=5bad554d-f511-4da7-8db1-c6587c3059ff","ios":"levelo://app?vid=5bad554d-f511-4da7-8db1-c6587c3059ff"},"vehicle_type_id":"4","last_reported":1737569569,"current_range_meters":31200,"station_id":"ce4bh3p2rcd13ifvqdq0","pricing_plan_id":"cebpf4jnsgd1na2vs0mg"},{"bike_id":"2a54c0d8-fa25-4cec-b555-38b6dfc4694a","system_id":"levelo_inurba_marseille","lat":43.2908,"lon":5.3718,"is_reserved":false,"is_disabled":false,"rental_uris":{"android":"levelo://app?vid=2a54c0d8-fa25-4cec-b555-38b6dfc4694a","ios":"levelo://app?vid=2a54c0d8-fa25-4cec-b555-38b6dfc4694a"},"vehicle_type_id":"4","last_reported":1737569569,"current_range_meters":2800,"station_id":"ce4bh5p2rcd13ifvqe4g","pricing_plan_id":"cebpf4jnsgd1na2vs0mg"},{"bike_id":"58bd67b2-eea0-4ad2-8092-8cb589d6733b","system_id":"levelo_inurba_marseille","lat":43.30803,"lon":5.43507,"is_reserved":false,"is_disabled":false,"rental_uris":{"android":"levelo://app?vid=58bd67b2-eea0-4ad2-8092-8cb589d6733b","ios":"levelo://app?vid=58bd67b2-eea0-4ad2-8092-8cb589d6733b"},"vehicle_type_id":"4","last_reported":1737569569,"current_range_meters":8400,"station_id":"ce4bhph2rcd13ifvqheg","pricing_plan_id":"cebpf4jnsgd1na2vs0mg"},{"bike_id":"f8216a2b-e7c5-4eea-8c3d-912daef0d729","system_id":"levelo_inurba_marseille","lat":43.298986,"lon":5.436737,"is_reserved":false,"is_disabled":false,"rental_uris":{"android":"levelo://app?vid=f8216a2b-e7c5-4eea-8c3d-912daef0d729","ios":"levelo://app?vid=f8216a2b-e7c5-4eea-8c3d-912daef0d729"},"vehicle_type_id":"4","last_reported":1737569569,"current_range_meters":23200,"station_id":"ce4bhpp2rcd13ifvqhfg","pricing_plan_id":"cebpf4jnsgd1na2vs0mg"},{"bike_id":"86fce387-d25e-46bb-928c-c6923257e7fb","system_id":"levelo_inurba_marseille","lat":43.28418,"lon":5.37516,"is_reserved":false,"is_disabled":false,"rental_uris":{"android":"levelo://app?vid=86fce387-d25e-46bb-928c-c6923257e7fb","ios":"levelo://app?vid=86fce387-d25e-46bb-928c-c6923257e7fb"},"vehicle_type_id":"4","last_reported":1737569569,"current_range_meters":38400,"station_id":"ce4bh412rcd13ifvqds0","pricing_plan_id":"cebpf4jnsgd1na2vs0mg"},{"bike_id":"f69be3dd-5c08-41a5-a494-c4d2892249c1","system_id":"levelo_inurba_marseille","lat":43.33737,"lon":5.39184,"is_reserved":false,"is_disabled":false,"rental_uris":{"android":"levelo://app?vid=f69be3dd-5c08-41a5-a494-c4d2892249c1","ios":"levelo://app?vid=f69be3dd-5c08-41a5-a494-c4d2892249c1"},"vehicle_type_id":"4","last_reported":1737569569,"current_range_meters":39200,"station_id":"ce4bhr92rcd13ifvqhsg","pricing_plan_id":"cebpf4jnsgd1na2vs0mg"},{"bike_id":"372937d6-93d0-42e5-bc7c-51687f040a60","system_id":"levelo_inurba_marseille","lat":43.31719,"lon":5.4241,"is_reserved":false,"is_disabled":false,"rental_uris":{"android":"levelo://app?vid=372937d6-93d0-42e5-bc7c-51687f040a60","ios":"levelo://app?vid=372937d6-93d0-42e5-bc7c-51687f040a60"},"vehicle_type_id":"4","last_reported":1737569569,"current_range_meters":38800,"station_id":"ce4bhp92rcd13ifvqhbg","pricing_plan_id":"cebpf4jnsgd1na2vs0mg"},{"bike_id":"fa86212b-b092-4008-96d3-f4a4266c241a","system_id":"levelo_inurba_marseille","lat":43.30646,"lon":5.36537,"is_reserved":false,"is_disabled":true,"rental_uris":{"android":"levelo://app?vid=fa86212b-b092-4008-96d3-f4a4266c241a","ios":"levelo://app?vid=fa86212b-b092-4008-96d3-f4a4266c241a"},"vehicle_type_id":"4","last_reported":1737569569,"current_range_meters":1600,"station_id":"","pricing_plan_id":"cebpf4jnsgd1na2vs0mg"},{"bike_id":"a43310e2-1908-44e7-acd1-fa2cac064eeb","system_id":"levelo_inurba_marseille","lat":43.33717,"lon":5.39189,"is_reserved":false,"is_disabled":false,"rental_uris":{"android":"levelo://app?vid=a43310e2-1908-44e7-acd1-fa2cac064eeb","ios":"levelo://app?vid=a43310e2-1908-44e7-acd1-fa2cac064eeb"},"vehicle_type_id":"4","last_reported":1737569569,"current_range_meters":39200,"station_id":"ce4bhr92rcd13ifvqhsg","pricing_plan_id":"cebpf4jnsgd1na2vs0mg"},{"bike_id":"a7239622-729f-4aad-9c1c-b8db3157fe13","system_id":"levelo_inurba_marseille","lat":43.28699,"lon":5.37399,"is_reserved":false,"is_disabled":false,"rental_uris":{"android":"levelo://app?vid=a7239622-729f-4aad-9c1c-b8db3157fe13","ios":"levelo://app?vid=a7239622-729f-4aad-9c1c-b8db3157fe13"},"vehicle_type_id":"4","last_reported":1737569569,"current_range_meters":32400,"station_id":"ce4bh3p2rcd13ifvqdq0","pricing_plan_id":"cebpf4jnsgd1na2vs0mg"},{"bike_id":"b4b8b8ad-4ad7-4155-943f-90d66aac77c6","system_id":"levelo_inurba_marseille","lat":43.28688,"lon":5.38691,"is_reserved":false,"is_disabled":false,"rental_uris":{"android":"levelo://app?vid=b4b8b8ad-4ad7-4155-943f-90d66aac77c6","ios":"levelo://app?vid=b4b8b8ad-4ad7-4155-943f-90d66aac77c6"},"vehicle_type_id":"4","last_reported":1737569569,"current_range_meters":34000,"station_id":"ce4bh492rcd13ifvqdug","pricing_plan_id":"cebpf4jnsgd1na2vs0mg"},{"bike_id":"9863b7f9-4316-4322-9f6c-3cc66b0448e2","system_id":"levelo_inurba_marseille","lat":43.279439,"lon":5.389008,"is_reserved":false,"is_disabled":true,"rental_uris":{"android":"levelo://app?vid=9863b7f9-4316-4322-9f6c-3cc66b0448e2","ios":"levelo://app?vid=9863b7f9-4316-4322-9f6c-3cc66b0448e2"},"vehicle_type_id":"4","last_reported":1737569569,"current_range_meters":28000,"station_id":"","pricing_plan_id":"cebpf4jnsgd1na2vs0mg"},{"bike_id":"41558aff-4493-4695-8a6b-37d89836b9c2","system_id":"levelo_inurba_marseille","lat":43.27566,"lon":5.38425,"is_reserved":false,"is_disabled":true,"rental_uris":{"android":"levelo://app?vid=41558aff-4493-4695-8a6b-37d89836b9c2","ios":"levelo://app?vid=41558aff-4493-4695-8a6b-37d89836b9c2"},"vehicle_type_id":"4","last_reported":1737569569,"current_range_meters":0,"station_id":"ce4bhh92rcd13ifvqfi0","pricing_plan_id":"cebpf4jnsgd1na2vs0mg"},{"bike_id":"eddb6b89-082b-479c-b34f-44c352a03897","system_id":"levelo_inurba_marseille","lat":43.255,"lon":5.37667,"is_reserved":false,"is_disabled":false,"rental_uris":{"android":"levelo://app?vid=eddb6b89-082b-479c-b34f-44c352a03897","ios":"levelo://app?vid=eddb6b89-082b-479c-b34f-44c352a03897"},"vehicle_type_id":"4","last_reported":1737569569,"current_range_meters":38800,"station_id":"ce4bhh12rcd13ifvqff0","pricing_plan_id":"cebpf4jnsgd1na2vs0mg"},{"bike_id":"795016d8-3d99-4697-be28-e44e10ed86a8","system_id":"levelo_inurba_marseille","lat":43.27906,"lon":5.38032,"is_reserved":false,"is_disabled":false,"rental_uris":{"android":"levelo://app?vid=795016d8-3d99-4697-be28-e44e10ed86a8","ios":"levelo://app?vid=795016d8-3d99-4697-be28-e44e10ed86a8"},"vehicle_type_id":"4","last_reported":1737569569,"current_range_meters":11200,"station_id":"ce4bhf92rcd13ifvqf50","pricing_plan_id":"cebpf4jnsgd1na2vs0mg"},{"bike_id":"f315bc93-4512-466f-b8ea-ac633e98ac21","system_id":"levelo_inurba_marseille","lat":43.28424,"lon":5.34966,"is_reserved":false,"is_disabled":false,"rental_uris":{"android":"levelo://app?vid=f315bc93-4512-466f-b8ea-ac633e98ac21","ios":"levelo://app?vid=f315bc93-4512-466f-b8ea-ac633e98ac21"},"vehicle_type_id":"4","last_reported":1737569569,"current_range_meters":38400,"station_id":"ce4bhbh2rcd13ifvqepg","pricing_plan_id":"cebpf4jnsgd1na2vs0mg"},{"bike_id":"3c3a7ef9-6af7-4b28-917e-e6ba18feb67f","system_id":"levelo_inurba_marseille","lat":43.30249,"lon":5.40067,"is_reserved":false,"is_disabled":false,"rental_uris":{"android":"levelo://app?vid=3c3a7ef9-6af7-4b28-917e-e6ba18feb67f","ios":"levelo://app?vid=3c3a7ef9-6af7-4b28-917e-e6ba18feb67f"},"vehicle_type_id":"4","last_reported":1737569569,"current_range_meters":37600,"station_id":"ce4bgvh2rcd13ifvqcs0","pricing_plan_id":"cebpf4jnsgd1na2vs0mg"},{"bike_id":"71dadf1d-7daf-40cc-84d2-9745b102a8dc","system_id":"levelo_inurba_marseille","lat":43.31515,"lon":5.37304,"is_reserved":false,"is_disabled":false,"rental_uris":{"android":"levelo://app?vid=71dadf1d-7daf-40cc-84d2-9745b102a8dc","ios":"levelo://app?vid=71dadf1d-7daf-40cc-84d2-9745b102a8dc"},"vehicle_type_id":"4","last_reported":1737569569,"current_range_meters":38400,"station_id":"ce4bgt12rcd13ifvqcd0","pricing_plan_id":"cebpf4jnsgd1na2vs0mg"},{"bike_id":"5185fcee-7713-43db-98b3-7f67aa1031c6","system_id":"levelo_inurba_marseille","lat":43.28101,"lon":5.37863,"is_reserved":false,"is_disabled":false,"rental_uris":{"android":"levelo://app?vid=5185fcee-7713-43db-98b3-7f67aa1031c6","ios":"levelo://app?vid=5185fcee-7713-43db-98b3-7f67aa1031c6"},"vehicle_type_id":"4","last_reported":1737569569,"current_range_meters":33600,"station_id":"ce4bha12rcd13ifvqee0","pricing_plan_id":"cebpf4jnsgd1na2vs0mg"},{"bike_id":"8e2fe138-ff09-4b92-834b-8fe11a686c0f","system_id":"levelo_inurba_marseille","lat":43.30158,"lon":5.39893,"is_reserved":false,"is_disabled":false,"rental_uris":{"android":"levelo://app?vid=8e2fe138-ff09-4b92-834b-8fe11a686c0f","ios":"levelo://app?vid=8e2fe138-ff09-4b92-834b-8fe11a686c0f"},"vehicle_type_id":"4","last_reported":1737569569,"current_range_meters":16000,"station_id":"ce4bh0h2rcd13ifvqd40","pricing_plan_id":"cebpf4jnsgd1na2vs0mg"},{"bike_id":"e1d0098d-4445-44de-8122-239d13e4b205","system_id":"levelo_inurba_marseille","lat":43.29231,"lon":5.36097,"is_reserved":false,"is_disabled":false,"rental_uris":{"android":"levelo://app?vid=e1d0098d-4445-44de-8122-239d13e4b205","ios":"levelo://app?vid=e1d0098d-4445-44de-8122-239d13e4b205"},"vehicle_type_id":"4","last_reported":1737569569,"current_range_meters":33600,"station_id":"ce4bhbh2rcd13ifvqeqg","pricing_plan_id":"cebpf4jnsgd1na2vs0mg"},{"bike_id":"219ad3c6-1426-4bdc-a11b-eb543a9af6b4","system_id":"levelo_inurba_marseille","lat":43.29507,"lon":5.39053,"is_reserved":false,"is_disabled":false,"rental_uris":{"android":"levelo://app?vid=219ad3c6-1426-4bdc-a11b-eb543a9af6b4","ios":"levelo://app?vid=219ad3c6-1426-4bdc-a11b-eb543a9af6b4"},"vehicle_type_id":"4","last_reported":1737569569,"current_range_meters":36800,"station_id":"ce4bh3p2rcd13ifvqdp0","pricing_plan_id":"cebpf4jnsgd1na2vs0mg"},{"bike_id":"0d555cab-a3ac-493c-97d1-05fb30170afc","system_id":"levelo_inurba_marseille","lat":43.27808,"lon":5.40715,"is_reserved":false,"is_disabled":false,"rental_uris":{"android":"levelo://app?vid=0d555cab-a3ac-493c-97d1-05fb30170afc","ios":"levelo://app?vid=0d555cab-a3ac-493c-97d1-05fb30170afc"},"vehicle_type_id":"4","last_reported":1737569569,"current_range_meters":9600,"station_id":"ce4bhnh2rcd13ifvqgtg","pricing_plan_id":"cebpf4jnsgd1na2vs0mg"},{"bike_id":"49052dc3-4d8a-4007-89e4-6a2b13d47195","system_id":"levelo_inurba_marseille","lat":43.24392,"lon":5.37062,"is_reserved":false,"is_disabled":true,"rental_uris":{"android":"levelo://app?vid=49052dc3-4d8a-4007-89e4-6a2b13d47195","ios":"levelo://app?vid=49052dc3-4d8a-4007-89e4-6a2b13d47195"},"vehicle_type_id":"4","last_reported":1737569569,"current_range_meters":13600,"station_id":"ce4bhhh2rcd13ifvqfk0","pricing_plan_id":"cebpf4jnsgd1na2vs0mg"},{"bike_id":"0c693133-9842-4410-8e66-ecf8ddf34ae4","system_id":"levelo_inurba_marseille","lat":43.3043,"lon":5.39739,"is_reserved":false,"is_disabled":false,"rental_uris":{"android":"levelo://app?vid=0c693133-9842-4410-8e66-ecf8ddf34ae4","ios":"levelo://app?vid=0c693133-9842-4410-8e66-ecf8ddf34ae4"},"vehicle_type_id":"4","last_reported":1737569569,"current_range_meters":2800,"station_id":"ce4bh092rcd13ifvqd20","pricing_plan_id":"cebpf4jnsgd1na2vs0mg"},{"bike_id":"115b114d-8f9f-4503-8de2-b2a7ad2f3c24","system_id":"levelo_inurba_marseille","lat":43.27995,"lon":5.40021,"is_reserved":false,"is_disabled":false,"rental_uris":{"android":"levelo://app?vid=115b114d-8f9f-4503-8de2-b2a7ad2f3c24","ios":"levelo://app?vid=115b114d-8f9f-4503-8de2-b2a7ad2f3c24"},"vehicle_type_id":"4","last_reported":1737569569,"current_range_meters":38800,"station_id":"ce4bho92rcd13ifvqh4g","pricing_plan_id":"cebpf4jnsgd1na2vs0mg"},{"bike_id":"dd0f15cd-123f-4d48-8259-bed14253e065","system_id":"levelo_inurba_marseille","lat":43.30332,"lon":5.40456,"is_reserved":false,"is_disabled":false,"rental_uris":{"android":"levelo://app?vid=dd0f15cd-123f-4d48-8259-bed14253e065","ios":"levelo://app?vid=dd0f15cd-123f-4d48-8259-bed14253e065"},"vehicle_type_id":"4","last_reported":1737569569,"current_range_meters":20400,"station_id":"ce4bh012rcd13ifvqd10","pricing_plan_id":"cebpf4jnsgd1na2vs0mg"},{"bike_id":"fcd4837f-6e09-4786-bcf5-c3a686cbcfef","system_id":"levelo_inurba_marseille","lat":43.29899,"lon":5.43672,"is_reserved":false,"is_disabled":false,"rental_uris":{"android":"levelo://app?vid=fcd4837f-6e09-4786-bcf5-c3a686cbcfef","ios":"levelo://app?vid=fcd4837f-6e09-4786-bcf5-c3a686cbcfef"},"vehicle_type_id":"4","last_reported":1737569569,"current_range_meters":31200,"station_id":"ce4bhpp2rcd13ifvqhfg","pricing_plan_id":"cebpf4jnsgd1na2vs0mg"},{"bike_id":"638946a2-0e30-4dd4-9789-1eca0982a54f","system_id":"levelo_inurba_marseille","lat":43.30126,"lon":5.39848,"is_reserved":false,"is_disabled":false,"rental_uris":{"android":"levelo://app?vid=638946a2-0e30-4dd4-9789-1eca0982a54f","ios":"levelo://app?vid=638946a2-0e30-4dd4-9789-1eca0982a54f"},"vehicle_type_id":"4","last_reported":1737569569,"current_range_meters":36000,"station_id":"ce4bh0h2rcd13ifvqd40","pricing_plan_id":"cebpf4jnsgd1na2vs0mg"},{"bike_id":"690952aa-4cf6-4ec8-a1ef-02ddc0138251","system_id":"levelo_inurba_marseille","lat":43.26158,"lon":5.4207,"is_reserved":false,"is_disabled":false,"rental_uris":{"android":"levelo://app?vid=690952aa-4cf6-4ec8-a1ef-02ddc0138251","ios":"levelo://app?vid=690952aa-4cf6-4ec8-a1ef-02ddc0138251"},"vehicle_type_id":"4","last_reported":1737569569,"current_range_meters":32000,"station_id":"","pricing_plan_id":"cebpf4jnsgd1na2vs0mg"},{"bike_id":"ae7cee51-1b4d-40b0-a72a-6860b41bc32a","system_id":"levelo_inurba_marseille","lat":43.28341,"lon":5.38109,"is_reserved":false,"is_disabled":false,"rental_uris":{"android":"levelo://app?vid=ae7cee51-1b4d-40b0-a72a-6860b41bc32a","ios":"levelo://app?vid=ae7cee51-1b4d-40b0-a72a-6860b41bc32a"},"vehicle_type_id":"4","last_reported":1737569569,"current_range_meters":29600,"station_id":"ce4bh412rcd13ifvqdr0","pricing_plan_id":"cebpf4jnsgd1na2vs0mg"},{"bike_id":"b53c18a2-a474-4f77-9f6d-9ede28552ceb","system_id":"levelo_inurba_marseille","lat":43.29167,"lon":5.37133,"is_reserved":false,"is_disabled":false,"rental_uris":{"android":"levelo://app?vid=b53c18a2-a474-4f77-9f6d-9ede28552ceb","ios":"levelo://app?vid=b53c18a2-a474-4f77-9f6d-9ede28552ceb"},"vehicle_type_id":"4","last_reported":1737569569,"current_range_meters":8000,"station_id":"ce4bha92rcd13ifvqeh0","pricing_plan_id":"cebpf4jnsgd1na2vs0mg"},{"bike_id":"03af5a1d-20f6-4b21-b63e-8bec9df4705a","system_id":"levelo_inurba_marseille","lat":43.27568,"lon":5.38595,"is_reserved":false,"is_disabled":false,"rental_uris":{"android":"levelo://app?vid=03af5a1d-20f6-4b21-b63e-8bec9df4705a","ios":"levelo://app?vid=03af5a1d-20f6-4b21-b63e-8bec9df4705a"},"vehicle_type_id":"4","last_reported":1737569569,"current_range_meters":21600,"station_id":"ce4bhh92rcd13ifvqfi0","pricing_plan_id":"cebpf4jnsgd1na2vs0mg"},{"bike_id":"2ad6627a-0938-46e0-b34c-6ee7709c1711","system_id":"levelo_inurba_marseille","lat":43.27069,"lon":5.40261,"is_reserved":false,"is_disabled":false,"rental_uris":{"android":"levelo://app?vid=2ad6627a-0938-46e0-b34c-6ee7709c1711","ios":"levelo://app?vid=2ad6627a-0938-46e0-b34c-6ee7709c1711"},"vehicle_type_id":"4","last_reported":1737569569,"current_range_meters":7200,"station_id":"ce4bhk92rcd13ifvqgc0","pricing_plan_id":"cebpf4jnsgd1na2vs0mg"},{"bike_id":"abc941ac-5452-4eb7-8a25-528c43a14f52","system_id":"levelo_inurba_marseille","lat":43.29265,"lon":5.38448,"is_reserved":false,"is_disabled":false,"rental_uris":{"android":"levelo://app?vid=abc941ac-5452-4eb7-8a25-528c43a14f52","ios":"levelo://app?vid=abc941ac-5452-4eb7-8a25-528c43a14f52"},"vehicle_type_id":"4","last_reported":1737569569,"current_range_meters":38800,"station_id":"ce4bh692rcd13ifvqea0","pricing_plan_id":"cebpf4jnsgd1na2vs0mg"},{"bike_id":"587483c9-2e76-4dd6-8e62-cfbf184f34f9","system_id":"levelo_inurba_marseille","lat":43.28151,"lon":5.42641,"is_reserved":false,"is_disabled":false,"rental_uris":{"android":"levelo://app?vid=587483c9-2e76-4dd6-8e62-cfbf184f34f9","ios":"levelo://app?vid=587483c9-2e76-4dd6-8e62-cfbf184f34f9"},"vehicle_type_id":"4","last_reported":1737569569,"current_range_meters":38000,"station_id":"ce4bhnh2rcd13ifvqgug","pricing_plan_id":"cebpf4jnsgd1na2vs0mg"},{"bike_id":"477a9bbc-d0b1-4f23-920e-fab66e06cb8f","system_id":"levelo_inurba_marseille","lat":43.26946,"lon":5.38909,"is_reserved":false,"is_disabled":false,"rental_uris":{"android":"levelo://app?vid=477a9bbc-d0b1-4f23-920e-fab66e06cb8f","ios":"levelo://app?vid=477a9bbc-d0b1-4f23-920e-fab66e06cb8f"},"vehicle_type_id":"4","last_reported":1737569569,"current_range_meters":39200,"station_id":"ce4bhhh2rcd13ifvqfl0","pricing_plan_id":"cebpf4jnsgd1na2vs0mg"},{"bike_id":"38407c28-1185-4e1c-abe5-d9790277c14e","system_id":"levelo_inurba_marseille","lat":43.29788,"lon":5.38094,"is_reserved":false,"is_disabled":false,"rental_uris":{"android":"levelo://app?vid=38407c28-1185-4e1c-abe5-d9790277c14e","ios":"levelo://app?vid=38407c28-1185-4e1c-abe5-d9790277c14e"},"vehicle_type_id":"4","last_reported":1737569569,"current_range_meters":38800,"station_id":"ce4bgip2rcd13ifvqbb0","pricing_plan_id":"cebpf4jnsgd1na2vs0mg"},{"bike_id":"e0b0df49-b51e-4837-a195-4c07702fa2c6","system_id":"levelo_inurba_marseille","lat":43.312741,"lon":5.401755,"is_reserved":false,"is_disabled":false,"rental_uris":{"android":"levelo://app?vid=e0b0df49-b51e-4837-a195-4c07702fa2c6","ios":"levelo://app?vid=e0b0df49-b51e-4837-a195-4c07702fa2c6"},"vehicle_type_id":"4","last_reported":1737569569,"current_range_meters":33200,"station_id":"ce4bh092rcd13ifvqd30","pricing_plan_id":"cebpf4jnsgd1na2vs0mg"},{"bike_id":"ecfe0849-2f1e-4c58-a36a-7bd4025a5822","system_id":"levelo_inurba_marseille","lat":43.29975,"lon":5.38492,"is_reserved":false,"is_disabled":false,"rental_uris":{"android":"levelo://app?vid=ecfe0849-2f1e-4c58-a36a-7bd4025a5822","ios":"levelo://app?vid=ecfe0849-2f1e-4c58-a36a-7bd4025a5822"},"vehicle_type_id":"4","last_reported":1737569569,"current_range_meters":26000,"station_id":"ce4bgj92rcd13ifvqbd0","pricing_plan_id":"cebpf4jnsgd1na2vs0mg"},{"bike_id":"2161ddd9-23fd-42ca-859c-7eed58a8af4a","system_id":"levelo_inurba_marseille","lat":43.2996,"lon":5.37142,"is_reserved":false,"is_disabled":false,"rental_uris":{"android":"levelo://app?vid=2161ddd9-23fd-42ca-859c-7eed58a8af4a","ios":"levelo://app?vid=2161ddd9-23fd-42ca-859c-7eed58a8af4a"},"vehicle_type_id":"4","last_reported":1737569569,"current_range_meters":11200,"station_id":"ce4bgr92rcd13ifvqc7g","pricing_plan_id":"cebpf4jnsgd1na2vs0mg"},{"bike_id":"51a36b3c-6a3c-4a10-8421-cf3855c7a215","system_id":"levelo_inurba_marseille","lat":43.25586,"lon":5.38229,"is_reserved":false,"is_disabled":false,"rental_uris":{"android":"levelo://app?vid=51a36b3c-6a3c-4a10-8421-cf3855c7a215","ios":"levelo://app?vid=51a36b3c-6a3c-4a10-8421-cf3855c7a215"},"vehicle_type_id":"4","last_reported":1737569569,"current_range_meters":9600,"station_id":"ce4bhih2rcd13ifvqfs0","pricing_plan_id":"cebpf4jnsgd1na2vs0mg"},{"bike_id":"7a2f2b20-b008-4a43-9610-ce8d32002e7f","system_id":"levelo_inurba_marseille","lat":43.28847,"lon":5.35872,"is_reserved":false,"is_disabled":false,"rental_uris":{"android":"levelo://app?vid=7a2f2b20-b008-4a43-9610-ce8d32002e7f","ios":"levelo://app?vid=7a2f2b20-b008-4a43-9610-ce8d32002e7f"},"vehicle_type_id":"4","last_reported":1737569569,"current_range_meters":6400,"station_id":"ce4bhb12rcd13ifvqem0","pricing_plan_id":"cebpf4jnsgd1na2vs0mg"},{"bike_id":"13ff516e-16cf-4543-8540-9030b8b296b4","system_id":"levelo_inurba_marseille","lat":43.23197,"lon":5.35563,"is_reserved":false,"is_disabled":false,"rental_uris":{"android":"levelo://app?vid=13ff516e-16cf-4543-8540-9030b8b296b4","ios":"levelo://app?vid=13ff516e-16cf-4543-8540-9030b8b296b4"},"vehicle_type_id":"4","last_reported":1737569569,"current_range_meters":32800,"station_id":"ce4bhu92rcd13ifvqi70","pricing_plan_id":"cebpf4jnsgd1na2vs0mg"},{"bike_id":"6a3f11ae-19cd-4d89-806e-94dec7d182bb","system_id":"levelo_inurba_marseille","lat":43.25951,"lon":5.396383,"is_reserved":false,"is_disabled":false,"rental_uris":{"android":"levelo://app?vid=6a3f11ae-19cd-4d89-806e-94dec7d182bb","ios":"levelo://app?vid=6a3f11ae-19cd-4d89-806e-94dec7d182bb"},"vehicle_type_id":"4","last_reported":1737569569,"current_range_meters":34800,"station_id":"ce4bhip2rcd13ifvqft0","pricing_plan_id":"cebpf4jnsgd1na2vs0mg"},{"bike_id":"9984a19d-448e-4ed2-8c95-d1103fd0e167","system_id":"levelo_inurba_marseille","lat":43.31753,"lon":5.39015,"is_reserved":false,"is_disabled":false,"rental_uris":{"android":"levelo://app?vid=9984a19d-448e-4ed2-8c95-d1103fd0e167","ios":"levelo://app?vid=9984a19d-448e-4ed2-8c95-d1103fd0e167"},"vehicle_type_id":"4","last_reported":1737569569,"current_range_meters":38800,"station_id":"ce4bhqp2rcd13ifvqhng","pricing_plan_id":"cebpf4jnsgd1na2vs0mg"},{"bike_id":"dc9afc0d-d533-431b-a32f-6f6423d7880b","system_id":"levelo_inurba_marseille","lat":43.317309,"lon":5.423926,"is_reserved":false,"is_disabled":false,"rental_uris":{"android":"levelo://app?vid=dc9afc0d-d533-431b-a32f-6f6423d7880b","ios":"levelo://app?vid=dc9afc0d-d533-431b-a32f-6f6423d7880b"},"vehicle_type_id":"4","last_reported":1737569569,"current_range_meters":34000,"station_id":"ce4bhp92rcd13ifvqhbg","pricing_plan_id":"cebpf4jnsgd1na2vs0mg"},{"bike_id":"bfc7d970-e019-4665-84d5-e5a81d0af44a","system_id":"levelo_inurba_marseille","lat":43.27942,"lon":5.41046,"is_reserved":false,"is_disabled":false,"rental_uris":{"android":"levelo://app?vid=bfc7d970-e019-4665-84d5-e5a81d0af44a","ios":"levelo://app?vid=bfc7d970-e019-4665-84d5-e5a81d0af44a"},"vehicle_type_id":"4","last_reported":1737569569,"current_range_meters":24800,"station_id":"ce4bhnp2rcd13ifvqh0g","pricing_plan_id":"cebpf4jnsgd1na2vs0mg"},{"bike_id":"1876537c-c9d8-4160-b31c-e17d644f44c6","system_id":"levelo_inurba_marseille","lat":43.32484,"lon":5.36564,"is_reserved":false,"is_disabled":false,"rental_uris":{"android":"levelo://app?vid=1876537c-c9d8-4160-b31c-e17d644f44c6","ios":"levelo://app?vid=1876537c-c9d8-4160-b31c-e17d644f44c6"},"vehicle_type_id":"4","last_reported":1737569569,"current_range_meters":4400,"station_id":"ce4bhs12rcd13ifvqhvg","pricing_plan_id":"cebpf4jnsgd1na2vs0mg"},{"bike_id":"3ca427d4-897d-4f96-8e6b-de1063edad3d","system_id":"levelo_inurba_marseille","lat":43.28465,"lon":5.3588,"is_reserved":false,"is_disabled":false,"rental_uris":{"android":"levelo://app?vid=3ca427d4-897d-4f96-8e6b-de1063edad3d","ios":"levelo://app?vid=3ca427d4-897d-4f96-8e6b-de1063edad3d"},"vehicle_type_id":"4","last_reported":1737569569,"current_range_meters":3200,"station_id":"ce4bhah2rcd13ifvqei0","pricing_plan_id":"cebpf4jnsgd1na2vs0mg"},{"bike_id":"388eb34f-6129-4d8e-899b-5cc6e1157370","system_id":"levelo_inurba_marseille","lat":43.29534,"lon":5.39403,"is_reserved":false,"is_disabled":false,"rental_uris":{"android":"levelo://app?vid=388eb34f-6129-4d8e-899b-5cc6e1157370","ios":"levelo://app?vid=388eb34f-6129-4d8e-899b-5cc6e1157370"},"vehicle_type_id":"4","last_reported":1737569569,"current_range_meters":14000,"station_id":"ce4bh292rcd13ifvqdf0","pricing_plan_id":"cebpf4jnsgd1na2vs0mg"},{"bike_id":"427ec049-7bdc-415e-93a1-e025c8b36d89","system_id":"levelo_inurba_marseille","lat":43.27983,"lon":5.40003,"is_reserved":false,"is_disabled":false,"rental_uris":{"android":"levelo://app?vid=427ec049-7bdc-415e-93a1-e025c8b36d89","ios":"levelo://app?vid=427ec049-7bdc-415e-93a1-e025c8b36d89"},"vehicle_type_id":"4","last_reported":1737569569,"current_range_meters":38800,"station_id":"ce4bho92rcd13ifvqh4g","pricing_plan_id":"cebpf4jnsgd1na2vs0mg"},{"bike_id":"e6ec3baf-a07c-4f6c-9b8c-628ea76affc0","system_id":"levelo_inurba_marseille","lat":43.29281,"lon":5.36846,"is_reserved":false,"is_disabled":false,"rental_uris":{"android":"levelo://app?vid=e6ec3baf-a07c-4f6c-9b8c-628ea76affc0","ios":"levelo://app?vid=e6ec3baf-a07c-4f6c-9b8c-628ea76affc0"},"vehicle_type_id":"4","last_reported":1737569569,"current_range_meters":6400,"station_id":"ce4bhbp2rcd13ifvqesg","pricing_plan_id":"cebpf4jnsgd1na2vs0mg"},{"bike_id":"c355606a-44fe-4448-8d82-d0d7fc581621","system_id":"levelo_inurba_marseille","lat":43.296294,"lon":5.370558,"is_reserved":false,"is_disabled":false,"rental_uris":{"android":"levelo://app?vid=c355606a-44fe-4448-8d82-d0d7fc581621","ios":"levelo://app?vid=c355606a-44fe-4448-8d82-d0d7fc581621"},"vehicle_type_id":"4","last_reported":1737569569,"current_range_meters":30400,"station_id":"ce4bgpp2rcd13ifvqc3g","pricing_plan_id":"cebpf4jnsgd1na2vs0mg"},{"bike_id":"d25bd425-6815-43e4-975a-24891a0a0ca0","system_id":"levelo_inurba_marseille","lat":43.30414,"lon":5.41308,"is_reserved":false,"is_disabled":false,"rental_uris":{"android":"levelo://app?vid=d25bd425-6815-43e4-975a-24891a0a0ca0","ios":"levelo://app?vid=d25bd425-6815-43e4-975a-24891a0a0ca0"},"vehicle_type_id":"4","last_reported":1737569569,"current_range_meters":38800,"station_id":"ce4bhop2rcd13ifvqh8g","pricing_plan_id":"cebpf4jnsgd1na2vs0mg"},{"bike_id":"68e9c31c-ad3e-43bf-9dd6-a2db62b95ef7","system_id":"levelo_inurba_marseille","lat":43.32476,"lon":5.36572,"is_reserved":false,"is_disabled":false,"rental_uris":{"android":"levelo://app?vid=68e9c31c-ad3e-43bf-9dd6-a2db62b95ef7","ios":"levelo://app?vid=68e9c31c-ad3e-43bf-9dd6-a2db62b95ef7"},"vehicle_type_id":"4","last_reported":1737569569,"current_range_meters":24800,"station_id":"ce4bhs12rcd13ifvqhvg","pricing_plan_id":"cebpf4jnsgd1na2vs0mg"},{"bike_id":"e9b76b67-af76-475a-9807-67d07a0f4a1b","system_id":"levelo_inurba_marseille","lat":43.33606,"lon":5.41036,"is_reserved":false,"is_disabled":false,"rental_uris":{"android":"levelo://app?vid=e9b76b67-af76-475a-9807-67d07a0f4a1b","ios":"levelo://app?vid=e9b76b67-af76-475a-9807-67d07a0f4a1b"},"vehicle_type_id":"4","last_reported":1737569569,"current_range_meters":23200,"station_id":"ce4bhqh2rcd13ifvqhmg","pricing_plan_id":"cebpf4jnsgd1na2vs0mg"},{"bike_id":"a8f619ef-8db1-4312-9c2f-1f19846a3d2d","system_id":"levelo_inurba_marseille","lat":43.28462,"lon":5.3589,"is_reserved":false,"is_disabled":false,"rental_uris":{"android":"levelo://app?vid=a8f619ef-8db1-4312-9c2f-1f19846a3d2d","ios":"levelo://app?vid=a8f619ef-8db1-4312-9c2f-1f19846a3d2d"},"vehicle_type_id":"4","last_reported":1737569569,"current_range_meters":22800,"station_id":"ce4bhah2rcd13ifvqei0","pricing_plan_id":"cebpf4jnsgd1na2vs0mg"},{"bike_id":"127a26b6-ed39-4c2e-9fc7-31005f453be1","system_id":"levelo_inurba_marseille","lat":43.30684,"lon":5.40081,"is_reserved":false,"is_disabled":false,"rental_uris":{"android":"levelo://app?vid=127a26b6-ed39-4c2e-9fc7-31005f453be1","ios":"levelo://app?vid=127a26b6-ed39-4c2e-9fc7-31005f453be1"},"vehicle_type_id":"4","last_reported":1737569569,"current_range_meters":4000,"station_id":"","pricing_plan_id":"cebpf4jnsgd1na2vs0mg"},{"bike_id":"d44e0181-8fda-48f6-8535-2fda924ce2fd","system_id":"levelo_inurba_marseille","lat":43.299,"lon":5.43636,"is_reserved":false,"is_disabled":true,"rental_uris":{"android":"levelo://app?vid=d44e0181-8fda-48f6-8535-2fda924ce2fd","ios":"levelo://app?vid=d44e0181-8fda-48f6-8535-2fda924ce2fd"},"vehicle_type_id":"4","last_reported":1737569569,"current_range_meters":2000,"station_id":"ce4bhpp2rcd13ifvqhfg","pricing_plan_id":"cebpf4jnsgd1na2vs0mg"},{"bike_id":"bd771a8e-666c-4f89-bb31-e000a937060f","system_id":"levelo_inurba_marseille","lat":43.28415,"lon":5.37528,"is_reserved":false,"is_disabled":true,"rental_uris":{"android":"levelo://app?vid=bd771a8e-666c-4f89-bb31-e000a937060f","ios":"levelo://app?vid=bd771a8e-666c-4f89-bb31-e000a937060f"},"vehicle_type_id":"4","last_reported":1737569569,"current_range_meters":8000,"station_id":"ce4bh412rcd13ifvqds0","pricing_plan_id":"cebpf4jnsgd1na2vs0mg"},{"bike_id":"d8ce4ac7-3548-4c99-80c2-54448a2f2a6a","system_id":"levelo_inurba_marseille","lat":43.29271,"lon":5.36859,"is_reserved":false,"is_disabled":true,"rental_uris":{"android":"levelo://app?vid=d8ce4ac7-3548-4c99-80c2-54448a2f2a6a","ios":"levelo://app?vid=d8ce4ac7-3548-4c99-80c2-54448a2f2a6a"},"vehicle_type_id":"4","last_reported":1737569569,"current_range_meters":30400,"station_id":"ce4bhbp2rcd13ifvqesg","pricing_plan_id":"cebpf4jnsgd1na2vs0mg"},{"bike_id":"0df41b72-3dd9-4673-81c2-75bd58c5fac6","system_id":"levelo_inurba_marseille","lat":43.285691,"lon":5.395024,"is_reserved":false,"is_disabled":false,"rental_uris":{"android":"levelo://app?vid=0df41b72-3dd9-4673-81c2-75bd58c5fac6","ios":"levelo://app?vid=0df41b72-3dd9-4673-81c2-75bd58c5fac6"},"vehicle_type_id":"4","last_reported":1737569569,"current_range_meters":16800,"station_id":"ce4bh292rcd13ifvqdg0","pricing_plan_id":"cebpf4jnsgd1na2vs0mg"},{"bike_id":"1784c1c9-4d0c-401c-8d3d-b6e6a87dbd8d","system_id":"levelo_inurba_marseille","lat":43.2943,"lon":5.38629,"is_reserved":false,"is_disabled":false,"rental_uris":{"android":"levelo://app?vid=1784c1c9-4d0c-401c-8d3d-b6e6a87dbd8d","ios":"levelo://app?vid=1784c1c9-4d0c-401c-8d3d-b6e6a87dbd8d"},"vehicle_type_id":"4","last_reported":1737569569,"current_range_meters":20000,"station_id":"ce4bh2h2rcd13ifvqdh0","pricing_plan_id":"cebpf4jnsgd1na2vs0mg"},{"bike_id":"f5b52696-dada-4db8-ac63-486420d431ea","system_id":"levelo_inurba_marseille","lat":43.24647,"lon":5.38895,"is_reserved":false,"is_disabled":false,"rental_uris":{"android":"levelo://app?vid=f5b52696-dada-4db8-ac63-486420d431ea","ios":"levelo://app?vid=f5b52696-dada-4db8-ac63-486420d431ea"},"vehicle_type_id":"4","last_reported":1737569569,"current_range_meters":38800,"station_id":"ce4bhg12rcd13ifvqf60","pricing_plan_id":"cebpf4jnsgd1na2vs0mg"},{"bike_id":"3d2884c8-e678-49ea-8adc-aa1053c2bea5","system_id":"levelo_inurba_marseille","lat":43.302463,"lon":5.400543,"is_reserved":false,"is_disabled":false,"rental_uris":{"android":"levelo://app?vid=3d2884c8-e678-49ea-8adc-aa1053c2bea5","ios":"levelo://app?vid=3d2884c8-e678-49ea-8adc-aa1053c2bea5"},"vehicle_type_id":"4","last_reported":1737569569,"current_range_meters":39200,"station_id":"ce4bgvh2rcd13ifvqcs0","pricing_plan_id":"cebpf4jnsgd1na2vs0mg"},{"bike_id":"9715b434-26d8-4839-88d9-a4ec76fe9304","system_id":"levelo_inurba_marseille","lat":43.28486,"lon":5.3842,"is_reserved":false,"is_disabled":false,"rental_uris":{"android":"levelo://app?vid=9715b434-26d8-4839-88d9-a4ec76fe9304","ios":"levelo://app?vid=9715b434-26d8-4839-88d9-a4ec76fe9304"},"vehicle_type_id":"4","last_reported":1737569569,"current_range_meters":11600,"station_id":"ce4bh512rcd13ifvqe3g","pricing_plan_id":"cebpf4jnsgd1na2vs0mg"},{"bike_id":"f063be15-019e-4d40-b84f-472d1faee30b","system_id":"levelo_inurba_marseille","lat":43.30424,"lon":5.39748,"is_reserved":false,"is_disabled":false,"rental_uris":{"android":"levelo://app?vid=f063be15-019e-4d40-b84f-472d1faee30b","ios":"levelo://app?vid=f063be15-019e-4d40-b84f-472d1faee30b"},"vehicle_type_id":"4","last_reported":1737569569,"current_range_meters":38400,"station_id":"ce4bh092rcd13ifvqd20","pricing_plan_id":"cebpf4jnsgd1na2vs0mg"},{"bike_id":"62126633-6db5-48fa-8960-d4ae58a1c980","system_id":"levelo_inurba_marseille","lat":43.28168,"lon":5.42647,"is_reserved":false,"is_disabled":false,"rental_uris":{"android":"levelo://app?vid=62126633-6db5-48fa-8960-d4ae58a1c980","ios":"levelo://app?vid=62126633-6db5-48fa-8960-d4ae58a1c980"},"vehicle_type_id":"4","last_reported":1737569569,"current_range_meters":9200,"station_id":"ce4bhnh2rcd13ifvqgug","pricing_plan_id":"cebpf4jnsgd1na2vs0mg"},{"bike_id":"eac3ba27-1288-4022-8f78-81346854f56f","system_id":"levelo_inurba_marseille","lat":43.30262,"lon":5.3945,"is_reserved":false,"is_disabled":false,"rental_uris":{"android":"levelo://app?vid=eac3ba27-1288-4022-8f78-81346854f56f","ios":"levelo://app?vid=eac3ba27-1288-4022-8f78-81346854f56f"},"vehicle_type_id":"4","last_reported":1737569569,"current_range_meters":9600,"station_id":"ce4bh0p2rcd13ifvqd70","pricing_plan_id":"cebpf4jnsgd1na2vs0mg"},{"bike_id":"042c81f1-2110-4f12-b85d-b022f9486e42","system_id":"levelo_inurba_marseille","lat":43.28414,"lon":5.3751,"is_reserved":false,"is_disabled":false,"rental_uris":{"android":"levelo://app?vid=042c81f1-2110-4f12-b85d-b022f9486e42","ios":"levelo://app?vid=042c81f1-2110-4f12-b85d-b022f9486e42"},"vehicle_type_id":"4","last_reported":1737569569,"current_range_meters":21600,"station_id":"ce4bh412rcd13ifvqds0","pricing_plan_id":"cebpf4jnsgd1na2vs0mg"},{"bike_id":"ebdd864c-7126-489f-b386-60dc52d588f1","system_id":"levelo_inurba_marseille","lat":43.28108,"lon":5.3784,"is_reserved":false,"is_disabled":false,"rental_uris":{"android":"levelo://app?vid=ebdd864c-7126-489f-b386-60dc52d588f1","ios":"levelo://app?vid=ebdd864c-7126-489f-b386-60dc52d588f1"},"vehicle_type_id":"4","last_reported":1737569569,"current_range_meters":38000,"station_id":"ce4bha12rcd13ifvqee0","pricing_plan_id":"cebpf4jnsgd1na2vs0mg"},{"bike_id":"252d198a-cb62-4aff-8378-b7dedc97192a","system_id":"levelo_inurba_marseille","lat":43.31082,"lon":5.4243,"is_reserved":false,"is_disabled":false,"rental_uris":{"android":"levelo://app?vid=252d198a-cb62-4aff-8378-b7dedc97192a","ios":"levelo://app?vid=252d198a-cb62-4aff-8378-b7dedc97192a"},"vehicle_type_id":"4","last_reported":1737569569,"current_range_meters":38800,"station_id":"ce4bhp92rcd13ifvqhag","pricing_plan_id":"cebpf4jnsgd1na2vs0mg"},{"bike_id":"6f04209d-0d8b-4bac-884f-364b7f4ac743","system_id":"levelo_inurba_marseille","lat":43.27947,"lon":5.41041,"is_reserved":false,"is_disabled":false,"rental_uris":{"android":"levelo://app?vid=6f04209d-0d8b-4bac-884f-364b7f4ac743","ios":"levelo://app?vid=6f04209d-0d8b-4bac-884f-364b7f4ac743"},"vehicle_type_id":"4","last_reported":1737569569,"current_range_meters":22400,"station_id":"ce4bhnp2rcd13ifvqh0g","pricing_plan_id":"cebpf4jnsgd1na2vs0mg"},{"bike_id":"2094d673-56a1-4b76-a92d-894a34210788","system_id":"levelo_inurba_marseille","lat":43.29201,"lon":5.36035,"is_reserved":false,"is_disabled":false,"rental_uris":{"android":"levelo://app?vid=2094d673-56a1-4b76-a92d-894a34210788","ios":"levelo://app?vid=2094d673-56a1-4b76-a92d-894a34210788"},"vehicle_type_id":"4","last_reported":1737569569,"current_range_meters":20400,"station_id":"ce4bhbh2rcd13ifvqeqg","pricing_plan_id":"cebpf4jnsgd1na2vs0mg"},{"bike_id":"713b4e02-a459-45c2-8b7f-670ded946bdb","system_id":"levelo_inurba_marseille","lat":43.29626,"lon":5.3714,"is_reserved":false,"is_disabled":false,"rental_uris":{"android":"levelo://app?vid=713b4e02-a459-45c2-8b7f-670ded946bdb","ios":"levelo://app?vid=713b4e02-a459-45c2-8b7f-670ded946bdb"},"vehicle_type_id":"4","last_reported":1737569569,"current_range_meters":38800,"station_id":"ce4bgnh2rcd13ifvqc0g","pricing_plan_id":"cebpf4jnsgd1na2vs0mg"},{"bike_id":"d78b3ec5-5c95-4c8f-9ee6-2256d23e1750","system_id":"levelo_inurba_marseille","lat":43.29784,"lon":5.39352,"is_reserved":false,"is_disabled":false,"rental_uris":{"android":"levelo://app?vid=d78b3ec5-5c95-4c8f-9ee6-2256d23e1750","ios":"levelo://app?vid=d78b3ec5-5c95-4c8f-9ee6-2256d23e1750"},"vehicle_type_id":"4","last_reported":1737569569,"current_range_meters":16400,"station_id":"chh1huq6cuj3fo74tm60","pricing_plan_id":"cebpf4jnsgd1na2vs0mg"},{"bike_id":"2210897f-5c1c-4cde-9ef4-7d66d65ace48","system_id":"levelo_inurba_marseille","lat":43.28349,"lon":5.3812,"is_reserved":false,"is_disabled":false,"rental_uris":{"android":"levelo://app?vid=2210897f-5c1c-4cde-9ef4-7d66d65ace48","ios":"levelo://app?vid=2210897f-5c1c-4cde-9ef4-7d66d65ace48"},"vehicle_type_id":"4","last_reported":1737569569,"current_range_meters":15200,"station_id":"ce4bh412rcd13ifvqdr0","pricing_plan_id":"cebpf4jnsgd1na2vs0mg"},{"bike_id":"38a62f0f-5642-4b4d-ab65-8ce22514d290","system_id":"levelo_inurba_marseille","lat":43.24659,"lon":5.38885,"is_reserved":false,"is_disabled":false,"rental_uris":{"android":"levelo://app?vid=38a62f0f-5642-4b4d-ab65-8ce22514d290","ios":"levelo://app?vid=38a62f0f-5642-4b4d-ab65-8ce22514d290"},"vehicle_type_id":"4","last_reported":1737569569,"current_range_meters":38800,"station_id":"ce4bhg12rcd13ifvqf60","pricing_plan_id":"cebpf4jnsgd1na2vs0mg"},{"bike_id":"a7862ece-c5c1-4cc9-b43f-50ffa7276ce9","system_id":"levelo_inurba_marseille","lat":43.26791,"lon":5.39415,"is_reserved":false,"is_disabled":false,"rental_uris":{"android":"levelo://app?vid=a7862ece-c5c1-4cc9-b43f-50ffa7276ce9","ios":"levelo://app?vid=a7862ece-c5c1-4cc9-b43f-50ffa7276ce9"},"vehicle_type_id":"4","last_reported":1737569569,"current_range_meters":25200,"station_id":"ce4bhh12rcd13ifvqfg0","pricing_plan_id":"cebpf4jnsgd1na2vs0mg"},{"bike_id":"a0acf759-f286-48a0-a1a6-60eccd903b1f","system_id":"levelo_inurba_marseille","lat":43.25819,"lon":5.39435,"is_reserved":false,"is_disabled":false,"rental_uris":{"android":"levelo://app?vid=a0acf759-f286-48a0-a1a6-60eccd903b1f","ios":"levelo://app?vid=a0acf759-f286-48a0-a1a6-60eccd903b1f"},"vehicle_type_id":"4","last_reported":1737569569,"current_range_meters":34000,"station_id":"ce4bhip2rcd13ifvqft0","pricing_plan_id":"cebpf4jnsgd1na2vs0mg"},{"bike_id":"667e8587-049c-49ea-8524-5b3a76b72cf6","system_id":"levelo_inurba_marseille","lat":43.30951,"lon":5.40152,"is_reserved":false,"is_disabled":false,"rental_uris":{"android":"levelo://app?vid=667e8587-049c-49ea-8524-5b3a76b72cf6","ios":"levelo://app?vid=667e8587-049c-49ea-8524-5b3a76b72cf6"},"vehicle_type_id":"4","last_reported":1737569569,"current_range_meters":20800,"station_id":"ce4bgvp2rcd13ifvqct0","pricing_plan_id":"cebpf4jnsgd1na2vs0mg"},{"bike_id":"4328dbba-3ef1-4733-8a15-d20249674885","system_id":"levelo_inurba_marseille","lat":43.25009,"lon":5.38907,"is_reserved":false,"is_disabled":false,"rental_uris":{"android":"levelo://app?vid=4328dbba-3ef1-4733-8a15-d20249674885","ios":"levelo://app?vid=4328dbba-3ef1-4733-8a15-d20249674885"},"vehicle_type_id":"4","last_reported":1737569569,"current_range_meters":4400,"station_id":"ce4bhgp2rcd13ifvqfd0","pricing_plan_id":"cebpf4jnsgd1na2vs0mg"},{"bike_id":"6fa1466d-6a51-466c-8ae6-715092a8d118","system_id":"levelo_inurba_marseille","lat":43.28426,"lon":5.37535,"is_reserved":false,"is_disabled":false,"rental_uris":{"android":"levelo://app?vid=6fa1466d-6a51-466c-8ae6-715092a8d118","ios":"levelo://app?vid=6fa1466d-6a51-466c-8ae6-715092a8d118"},"vehicle_type_id":"4","last_reported":1737569569,"current_range_meters":20400,"station_id":"ce4bh412rcd13ifvqds0","pricing_plan_id":"cebpf4jnsgd1na2vs0mg"},{"bike_id":"0cd8f480-0db4-40e9-a62e-cbcce5cc7708","system_id":"levelo_inurba_marseille","lat":43.28365,"lon":5.38623,"is_reserved":false,"is_disabled":false,"rental_uris":{"android":"levelo://app?vid=0cd8f480-0db4-40e9-a62e-cbcce5cc7708","ios":"levelo://app?vid=0cd8f480-0db4-40e9-a62e-cbcce5cc7708"},"vehicle_type_id":"4","last_reported":1737569569,"current_range_meters":2800,"station_id":"ce4bh492rcd13ifvqdvg","pricing_plan_id":"cebpf4jnsgd1na2vs0mg"},{"bike_id":"9dea427a-253b-4905-a6ae-1b6d9893fb2b","system_id":"levelo_inurba_marseille","lat":43.28,"lon":5.40017,"is_reserved":false,"is_disabled":false,"rental_uris":{"android":"levelo://app?vid=9dea427a-253b-4905-a6ae-1b6d9893fb2b","ios":"levelo://app?vid=9dea427a-253b-4905-a6ae-1b6d9893fb2b"},"vehicle_type_id":"4","last_reported":1737569569,"current_range_meters":31200,"station_id":"ce4bho92rcd13ifvqh4g","pricing_plan_id":"cebpf4jnsgd1na2vs0mg"},{"bike_id":"f9f2c9ef-e923-472d-bfd6-d2921fe6d57b","system_id":"levelo_inurba_marseille","lat":43.271721,"lon":5.40998,"is_reserved":false,"is_disabled":false,"rental_uris":{"android":"levelo://app?vid=f9f2c9ef-e923-472d-bfd6-d2921fe6d57b","ios":"levelo://app?vid=f9f2c9ef-e923-472d-bfd6-d2921fe6d57b"},"vehicle_type_id":"4","last_reported":1737569569,"current_range_meters":22800,"station_id":"ce4bhl12rcd13ifvqgf0","pricing_plan_id":"cebpf4jnsgd1na2vs0mg"},{"bike_id":"3c9d5d82-e531-4fce-b24d-74c2797405a3","system_id":"levelo_inurba_marseille","lat":43.32362,"lon":5.36761,"is_reserved":false,"is_disabled":false,"rental_uris":{"android":"levelo://app?vid=3c9d5d82-e531-4fce-b24d-74c2797405a3","ios":"levelo://app?vid=3c9d5d82-e531-4fce-b24d-74c2797405a3"},"vehicle_type_id":"4","last_reported":1737569569,"current_range_meters":20000,"station_id":"ce4bhsh2rcd13ifvqi2g","pricing_plan_id":"cebpf4jnsgd1na2vs0mg"},{"bike_id":"e7ac4ec6-432e-4ab9-a340-7a0f45957c4e","system_id":"levelo_inurba_marseille","lat":43.33734,"lon":5.39186,"is_reserved":false,"is_disabled":false,"rental_uris":{"android":"levelo://app?vid=e7ac4ec6-432e-4ab9-a340-7a0f45957c4e","ios":"levelo://app?vid=e7ac4ec6-432e-4ab9-a340-7a0f45957c4e"},"vehicle_type_id":"4","last_reported":1737569569,"current_range_meters":38400,"station_id":"ce4bhr92rcd13ifvqhsg","pricing_plan_id":"cebpf4jnsgd1na2vs0mg"},{"bike_id":"2c115182-c42c-491c-9297-b7a7447bfbd5","system_id":"levelo_inurba_marseille","lat":43.29229,"lon":5.36056,"is_reserved":false,"is_disabled":false,"rental_uris":{"android":"levelo://app?vid=2c115182-c42c-491c-9297-b7a7447bfbd5","ios":"levelo://app?vid=2c115182-c42c-491c-9297-b7a7447bfbd5"},"vehicle_type_id":"4","last_reported":1737569569,"current_range_meters":33200,"station_id":"ce4bhbh2rcd13ifvqeqg","pricing_plan_id":"cebpf4jnsgd1na2vs0mg"},{"bike_id":"a7322f25-c3d9-431d-9398-93f60a01ff0f","system_id":"levelo_inurba_marseille","lat":43.29789,"lon":5.39353,"is_reserved":false,"is_disabled":false,"rental_uris":{"android":"levelo://app?vid=a7322f25-c3d9-431d-9398-93f60a01ff0f","ios":"levelo://app?vid=a7322f25-c3d9-431d-9398-93f60a01ff0f"},"vehicle_type_id":"4","last_reported":1737569569,"current_range_meters":38800,"station_id":"chh1huq6cuj3fo74tm60","pricing_plan_id":"cebpf4jnsgd1na2vs0mg"},{"bike_id":"b5f6fe8f-e3f5-4874-b18c-a983c46310a8","system_id":"levelo_inurba_marseille","lat":43.30254,"lon":5.40061,"is_reserved":false,"is_disabled":false,"rental_uris":{"android":"levelo://app?vid=b5f6fe8f-e3f5-4874-b18c-a983c46310a8","ios":"levelo://app?vid=b5f6fe8f-e3f5-4874-b18c-a983c46310a8"},"vehicle_type_id":"4","last_reported":1737569569,"current_range_meters":11200,"station_id":"ce4bgvh2rcd13ifvqcs0","pricing_plan_id":"cebpf4jnsgd1na2vs0mg"},{"bike_id":"71f4c1a2-daf1-4e48-974d-08f1aa148807","system_id":"levelo_inurba_marseille","lat":43.25491,"lon":5.37653,"is_reserved":false,"is_disabled":false,"rental_uris":{"android":"levelo://app?vid=71f4c1a2-daf1-4e48-974d-08f1aa148807","ios":"levelo://app?vid=71f4c1a2-daf1-4e48-974d-08f1aa148807"},"vehicle_type_id":"4","last_reported":1737569569,"current_range_meters":32400,"station_id":"ce4bhh12rcd13ifvqff0","pricing_plan_id":"cebpf4jnsgd1na2vs0mg"},{"bike_id":"4907b1f1-6ba1-46eb-ab21-d2b0a18f5c47","system_id":"levelo_inurba_marseille","lat":43.26782,"lon":5.39417,"is_reserved":false,"is_disabled":true,"rental_uris":{"android":"levelo://app?vid=4907b1f1-6ba1-46eb-ab21-d2b0a18f5c47","ios":"levelo://app?vid=4907b1f1-6ba1-46eb-ab21-d2b0a18f5c47"},"vehicle_type_id":"4","last_reported":1737569569,"current_range_meters":800,"station_id":"ce4bhh12rcd13ifvqfg0","pricing_plan_id":"cebpf4jnsgd1na2vs0mg"},{"bike_id":"3a41f5a7-b09d-4422-9053-f9fa12cc84ab","system_id":"levelo_inurba_marseille","lat":43.29979,"lon":5.3849,"is_reserved":false,"is_disabled":false,"rental_uris":{"android":"levelo://app?vid=3a41f5a7-b09d-4422-9053-f9fa12cc84ab","ios":"levelo://app?vid=3a41f5a7-b09d-4422-9053-f9fa12cc84ab"},"vehicle_type_id":"4","last_reported":1737569569,"current_range_meters":4000,"station_id":"ce4bgj92rcd13ifvqbd0","pricing_plan_id":"cebpf4jnsgd1na2vs0mg"},{"bike_id":"8d795092-8d42-4d0c-8117-7692dec732c3","system_id":"levelo_inurba_marseille","lat":43.30213,"lon":5.39466,"is_reserved":false,"is_disabled":false,"rental_uris":{"android":"levelo://app?vid=8d795092-8d42-4d0c-8117-7692dec732c3","ios":"levelo://app?vid=8d795092-8d42-4d0c-8117-7692dec732c3"},"vehicle_type_id":"4","last_reported":1737569569,"current_range_meters":20400,"station_id":"ce4bh0p2rcd13ifvqd70","pricing_plan_id":"cebpf4jnsgd1na2vs0mg"},{"bike_id":"16f4719a-0e80-485c-847e-3c9422e54b51","system_id":"levelo_inurba_marseille","lat":43.31332,"lon":5.39701,"is_reserved":false,"is_disabled":false,"rental_uris":{"android":"levelo://app?vid=16f4719a-0e80-485c-847e-3c9422e54b51","ios":"levelo://app?vid=16f4719a-0e80-485c-847e-3c9422e54b51"},"vehicle_type_id":"4","last_reported":1737569569,"current_range_meters":30400,"station_id":"ce4bgvp2rcd13ifvqcu0","pricing_plan_id":"cebpf4jnsgd1na2vs0mg"},{"bike_id":"64cdc2d3-d6ec-4254-8a08-fc3c9a17f77c","system_id":"levelo_inurba_marseille","lat":43.23181,"lon":5.39992,"is_reserved":false,"is_disabled":false,"rental_uris":{"android":"levelo://app?vid=64cdc2d3-d6ec-4254-8a08-fc3c9a17f77c","ios":"levelo://app?vid=64cdc2d3-d6ec-4254-8a08-fc3c9a17f77c"},"vehicle_type_id":"4","last_reported":1737569569,"current_range_meters":19200,"station_id":"ce4bhn12rcd13ifvqgqg","pricing_plan_id":"cebpf4jnsgd1na2vs0mg"},{"bike_id":"29a3c9ed-9ab3-4abe-8c16-be8b28420c26","system_id":"levelo_inurba_marseille","lat":43.2957,"lon":5.39978,"is_reserved":false,"is_disabled":false,"rental_uris":{"android":"levelo://app?vid=29a3c9ed-9ab3-4abe-8c16-be8b28420c26","ios":"levelo://app?vid=29a3c9ed-9ab3-4abe-8c16-be8b28420c26"},"vehicle_type_id":"4","last_reported":1737569569,"current_range_meters":30400,"station_id":"ce4bh312rcd13ifvqdj0","pricing_plan_id":"cebpf4jnsgd1na2vs0mg"},{"bike_id":"fa564d17-182c-47f1-805c-0e51b5649cd6","system_id":"levelo_inurba_marseille","lat":43.33021,"lon":5.3904,"is_reserved":false,"is_disabled":false,"rental_uris":{"android":"levelo://app?vid=fa564d17-182c-47f1-805c-0e51b5649cd6","ios":"levelo://app?vid=fa564d17-182c-47f1-805c-0e51b5649cd6"},"vehicle_type_id":"4","last_reported":1737569569,"current_range_meters":20800,"station_id":"ce4bhr92rcd13ifvqhrg","pricing_plan_id":"cebpf4jnsgd1na2vs0mg"},{"bike_id":"5c4ec1c4-6e48-42fe-b248-be430dd45ed3","system_id":"levelo_inurba_marseille","lat":43.28411,"lon":5.37514,"is_reserved":false,"is_disabled":false,"rental_uris":{"android":"levelo://app?vid=5c4ec1c4-6e48-42fe-b248-be430dd45ed3","ios":"levelo://app?vid=5c4ec1c4-6e48-42fe-b248-be430dd45ed3"},"vehicle_type_id":"4","last_reported":1737569569,"current_range_meters":20400,"station_id":"ce4bh412rcd13ifvqds0","pricing_plan_id":"cebpf4jnsgd1na2vs0mg"},