{"last_updated":1762390456,"ttl":60,"version":"2.2","data":{"bikes":[{"bike_id":"b7c5e96f-2666-418c-b8cc-36dfc613348c","system_id":"levelo_inurba_marseille","lat":43.337444,"lon":5.374475,"is_reserved":false,"is_disabled":false,"rental_uris":{"android":"levelo://app?vid=b7c5e96f-2666-418c-b8cc-36dfc613348c","ios":"levelo://app?vid=b7c5e96f-2666-418c-b8cc-36dfc613348c"},"vehicle_type_id":"4","last_reported":1762390457,"current_range_meters":0,"station_id":"","pricing_plan_id":"cebpf4jnsgd1na2vs0mg"},{"bike_id":"9c46a9f5-39cb-461a-ac28-286dc216524b","system_id":"levelo_inurba_marseille","lat":43.337444,"lon":5.374475,"is_reserved":false,"is_disabled":false,"rental_uris":{"android":"levelo://app?vid=9c46a9f5-39cb-461a-ac28-286dc216524b","ios":"levelo://app?vid=9c46a9f5-39cb-461a-ac28-286dc216524b"},"vehicle_type_id":"4","last_reported":1762390457,"current_range_meters":0,"station_id":"","pricing_plan_id":"cebpf4jnsgd1na2vs0mg"},{"bike_id":"2aa95e42-5a8c-4825-81d0-40d356e0168e","system_id":"levelo_inurba_marseille","lat":43.337444,"lon":5.374475,"is_reserved":false,"is_disabled":false,"rental_uris":{"android":"levelo://app?vid=2aa95e42-5a8c-4825-81d0-40d356e0168e","ios":"levelo://app?vid=2aa95e42-5a8c-4825-81d0-40d356e0168e"},"vehicle_type_id":"4","last_reported":1762390457,"current_range_meters":0,"station_id":"","pricing_plan_id":"cebpf4jnsgd1na2vs0mg"},{"bike_id":"23f7c00c-abd3-4b9e-b454-b625ef68ddce","system_id":"levelo_inurba_marseille","lat":43.337444,"lon":5.374475,"is_reserved":false,"is_disabled":false,"rental_uris":{"android":"levelo://app?vid=23f7c00c-abd3-4b9e-b454-b625ef68ddce","ios":"levelo://app?vid=23f7c00c-abd3-4b9e-b454-b625ef68ddce"},"vehicle_type_id":"4","last_reported":1762390457,"current_range_meters":0,"station_id":"","pricing_plan_id":"cebpf4jnsgd1na2vs0mg"},{"bike_id":"a3451d83-9c80-4ffa-96f9-a14c25634465","system_id":"levelo_inurba_marseille","lat":43.337444,"lon":5.374475,"is_reserved":false,"is_disabled":false,"rental_uris":{"android":"levelo://app?vid=a3451d83-9c80-4ffa-96f9-a14c25634465","ios":"levelo://app?vid=a3451d83-9c80-4ffa-96f9-a14c25634465"},"vehicle_type_id":"4","last_reported":1762390457,"current_range_meters":0,"station_id":"","pricing_plan_id":"cebpf4jnsgd1na2vs0mg"},{"bike_id":"19649598-fd0f-4237-a302-8b748132eb30","system_id":"levelo_inurba_marseille","lat":43.337444,"lon":5.374475,"is_reserved":false,"is_disabled":false,"rental_uris":{"android":"levelo://app?vid=19649598-fd0f-4237-a302-8b748132eb30","ios":"levelo://app?vid=19649598-fd0f-4237-a302-8b748132eb30"},"vehicle_type_id":"4","last_reported":1762390457,"current_range_meters":0,"station_id":"","pricing_plan_id":"cebpf4jnsgd1na2vs0mg"},{"bike_id":"79f0199f-1fbb-40b2-9337-191d82b520a7","system_id":"levelo_inurba_marseille","lat":43.337444,"lon":5.374475,"is_reserved":false,"is_disabled":false,"rental_uris":{"android":"levelo://app?vid=79f0199f-1fbb-40b2-9337-191d82b520a7","ios":"levelo://app?vid=79f0199f-1fbb-40b2-9337-191d82b520a7"},"vehicle_type_id":"4","last_reported":1762390457,"current_range_meters":0,"station_id":"","pricing_plan_id":"cebpf4jnsgd1na2vs0mg"},{"bike_id":"34a0d96e-bbf5-4ab6-8de8-a56cc767fd57","system_id":"levelo_inurba_marseille","lat":43.337444,"lon":5.374475,"is_reserved":false,"is_disabled":false,"rental_uris":{"android":"levelo://app?vid=34a0d96e-bbf5-4ab6-8de8-a56cc767fd57","ios":"levelo://app?vid=34a0d96e-bbf5-4ab6-8de8-a56cc767fd57"},"vehicle_type_id":"4","last_reported":1762390457,"current_range_meters":0,"station_id":"","pricing_plan_id":"cebpf4jnsgd1na2vs0mg"},{"bike_id":"30c4756b-2e3a-4ac9-b1fb-aa08283eecaa","system_id":"levelo_inurba_marseille","lat":43.337444,"lon":5.374475,"is_reserved":false,"is_disabled":false,"rental_uris":{"android":"levelo://app?vid=30c4756b-2e3a-4ac9-b1fb-aa08283eecaa","ios":"levelo://app?vid=30c4756b-2e3a-4ac9-b1fb-aa08283eecaa"},"vehicle_type_id":"4","last_reported":1762390457,"current_range_meters":0,"station_id":"","pricing_plan_id":"cebpf4jnsgd1na2vs0mg"},{"bike_id":"cb5b6ee7-3ef8-4299-a38d-cc32f035098b","system_id":"levelo_inurba_marseille","lat":43.337444,"lon":5.374475,"is_reserved":false,"is_disabled":false,"rental_uris":{"android":"levelo://app?vid=cb5b6ee7-3ef8-4299-a38d-cc32f035098b","ios":"levelo://app?vid=cb5b6ee7-3ef8-4299-a38d-cc32f035098b"},"vehicle_type_id":"4","last_reported":1762390457,"current_range_meters":0,"station_id":"","pricing_plan_id":"cebpf4jnsgd1na2vs0mg"},{"bike_id":"0dbf8834-1963-4427-879a-60d5139a1252","system_id":"levelo_inurba_marseille","lat":43.337444,"lon":5.374475,"is_reserved":false,"is_disabled":false,"rental_uris":{"android":"levelo://app?vid=0dbf8834-1963-4427-879a-60d5139a1252","ios":"levelo://app?vid=0dbf8834-1963-4427-879a-60d5139a1252"},"vehicle_type_id":"4","last_reported":1762390457,"current_range_meters":0,"station_id":"","pricing_plan_id":"cebpf4jnsgd1na2vs0mg"},{"bike_id":"c3d3ce5c-8075-4b42-9455-beadd1468f17","system_id":"levelo_inurba_marseille","lat":43.337444,"lon":5.374475,"is_reserved":false,"is_disabled":false,"rental_uris":{"android":"levelo://app?vid=c3d3ce5c-8075-4b42-9455-beadd1468f17","ios":"levelo://app?vid=c3d3ce5c-8075-4b42-9455-beadd1468f17"},"vehicle_type_id":"4","last_reported":1762390457,"current_range_meters":0,"station_id":"","pricing_plan_id":"cebpf4jnsgd1na2vs0mg"},{"bike_id":"2177a091-7ad7-4fcd-ad08-e78406d1a8ef","system_id":"levelo_inurba_marseille","lat":43.337444,"lon":5.374475,"is_reserved":false,"is_disabled":false,"rental_uris":{"android":"levelo://app?vid=2177a091-7ad7-4fcd-ad08-e78406d1a8ef","ios":"levelo://app?vid=2177a091-7ad7-4fcd-ad08-e78406d1a8ef"},"vehicle_type_id":"4","last_reported":1762390457,"current_range_meters":0,"station_id":"","pricing_plan_id":"cebpf4jnsgd1na2vs0mg"},{"bike_id":"ed2dc6ad-7a96-47d2-b4d0-3deee38fd62c","system_id":"levelo_inurba_marseille","lat":43.337444,"lon":5.374475,"is_reserved":false,"is_disabled":false,"rental_uris":{"android":"levelo://app?vid=ed2dc6ad-7a96-47d2-b4d0-3deee38fd62c","ios":"levelo://app?vid=ed2dc6ad-7a96-47d2-b4d0-3deee38fd62c"},"vehicle_type_id":"4","last_reported":1762390457,"current_range_meters":0,"station_id":"","pricing_plan_id":"cebpf4jnsgd1na2vs0mg"},{"bike_id":"42735ee1-244b-4d96-8480-f9806199924f","system_id":"levelo_inurba_marseille","lat":43.337444,"lon":5.374475,"is_reserved":false,"is_disabled":false,"rental_uris":{"android":"levelo://app?vid=42735ee1-244b-4d96-8480-f9806199924f","ios":"levelo://app?vid=42735ee1-244b-4d96-8480-f9806199924f"},"vehicle_type_id":"4","last_reported":1762390457,"current_range_meters":0,"station_id":"","pricing_plan_id":"cebpf4jnsgd1na2vs0mg"},{"bike_id":"0d7ab61a-02ec-456f-ab23-ba92f34594d5","system_id":"levelo_inurba_marseille","lat":43.337444,"lon":5.374475,"is_reserved":false,"is_disabled":false,"rental_uris":{"android":"levelo://app?vid=0d7ab61a-02ec-456f-ab23-ba92f34594d5","ios":"levelo://app?vid=0d7ab61a-02ec-456f-ab23-ba92f34594d5"},"vehicle_type_id":"4","last_reported":1762390457,"current_range_meters":0,"station_id":"","pricing_plan_id":"cebpf4jnsgd1na2vs0mg"},{"bike_id":"f68022fa-eb0a-4aac-8aea-6f2e14d0afb9","system_id":"levelo_inurba_marseille","lat":43.337444,"lon":5.374475,"is_reserved":false,"is_disabled":false,"rental_uris":{"android":"levelo://app?vid=f68022fa-eb0a-4aac-8aea-6f2e14d0afb9","ios":"levelo://app?vid=f68022fa-eb0a-4aac-8aea-6f2e14d0afb9"},"vehicle_type_id":"4","last_reported":1762390457,"current_range_meters":0,"station_id":"","pricing_plan_id":"cebpf4jnsgd1na2vs0mg"},{"bike_id":"386a9781-f1f4-4d33-8679-4d1163c3b9de","system_id":"levelo_inurba_marseille","lat":43.337444,"lon":5.374475,"is_reserved":false,"is_disabled":false,"rental_uris":{"android":"levelo://app?vid=386a9781-f1f4-4d33-8679-4d1163c3b9de","ios":"levelo://app?vid=386a9781-f1f4-4d33-8679-4d1163c3b9de"},"vehicle_type_id":"4","last_reported":1762390457,"current_range_meters":0,"station_id":"","pricing_plan_id":"cebpf4jnsgd1na2vs0mg"},{"bike_id":"4692d694-8a80-47c7-a7c6-1264ca94c6df","system_id":"levelo_inurba_marseille","lat":43.337444,"lon":5.374475,"is_reserved":false,"is_disabled":false,"rental_uris":{"android":"levelo://app?vid=4692d694-8a80-47c7-a7c6-1264ca94c6df","ios":"levelo://app?vid=4692d694-8a80-47c7-a7c6-1264ca94c6df"},"vehicle_type_id":"4","last_reported":1762390457,"current_range_meters":0,"station_id":"","pricing_plan_id":"cebpf4jnsgd1na2vs0mg"},{"bike_id":"4706d18d-408c-4dc1-a44f-b0f99f27bdf0","system_id":"levelo_inurba_marseille","lat":43.337444,"lon":5.374475,"is_reserved":false,"is_disabled":false,"rental_uris":{"android":"levelo://app?vid=4706d18d-408c-4dc1-a44f-b0f99f27bdf0","ios":"levelo://app?vid=4706d18d-408c-4dc1-a44f-b0f99f27bdf0"},"vehicle_type_id":"4","last_reported":1762390457,"current_range_meters":0,"station_id":"","pricing_plan_id":"cebpf4jnsgd1na2vs0mg"},{"bike_id":"abb77335-fe7b-4b75-9b2f-be4bb45cbb0d","system_id":"levelo_inurba_marseille","lat":43.337444,"lon":5.374475,"is_reserved":false,"is_disabled":false,"rental_uris":{"android":"levelo://app?vid=abb77335-fe7b-4b75-9b2f-be4bb45cbb0d","ios":"levelo://app?vid=abb77335-fe7b-4b75-9b2f-be4bb45cbb0d"},"vehicle_type_id":"4","last_reported":1762390457,"current_range_meters":0,"station_id":"","pricing_plan_id":"cebpf4jnsgd1na2vs0mg"},{"bike_id":"4bde9393-6919-41f3-8fef-f4b40f375cc0","system_id":"levelo_inurba_marseille","lat":43.337444,"lon":5.374475,"is_reserved":false,"is_disabled":false,"rental_uris":{"android":"levelo://app?vid=4bde9393-6919-41f3-8fef-f4b40f375cc0","ios":"levelo://app?vid=4bde9393-6919-41f3-8fef-f4b40f375cc0"},"vehicle_type_id":"4","last_reported":1762390457,"current_range_meters":0,"station_id":"","pricing_plan_id":"cebpf4jnsgd1na2vs0mg"},{"bike_id":"51f4e824-5009-4c5b-9283-cfda2d34404c","system_id":"levelo_inurba_marseille","lat":43.337444,"lon":5.374475,"is_reserved":false,"is_disabled":false,"rental_uris":{"android":"levelo://app?vid=51f4e824-5009-4c5b-9283-cfda2d34404c","ios":"levelo://app?vid=51f4e824-5009-4c5b-9283-cfda2d34404c"},"vehicle_type_id":"4","last_reported":1762390457,"current_range_meters":0,"station_id":"","pricing_plan_id":"cebpf4jnsgd1na2vs0mg"},{"bike_id":"d155d58c-f50a-4469-b126-b5af1b8d3f8a","system_id":"levelo_inurba_marseille","lat":43.337444,"lon":5.374475,"is_reserved":false,"is_disabled":false,"rental_uris":{"android":"levelo://app?vid=d155d58c-f50a-4469-b126-b5af1b8d3f8a","ios":"levelo://app?vid=d155d58c-f50a-4469-b126-b5af1b8d3f8a"},"vehicle_type_id":"4","last_reported":1762390457,"current_range_meters":0,"station_id":"","pricing_plan_id":"cebpf4jnsgd1na2vs0mg"},{"bike_id":"16f471c2-a8ed-4e61-ba2a-d83085a9c284","system_id":"levelo_inurba_marseille","lat":43.337444,"lon":5.374475,"is_reserved":false,"is_disabled":false,"rental_uris":{"android":"levelo://app?vid=16f471c2-a8ed-4e61-ba2a-d83085a9c284","ios":"levelo://app?vid=16f471c2-a8ed-4e61-ba2a-d83085a9c284"},"vehicle_type_id":"4","last_reported":1762390457,"current_range_meters":0,"station_id":"","pricing_plan_id":"cebpf4jnsgd1na2vs0mg"},{"bike_id":"b8bd4cc4-f519-43de-b194-2cc2cf75483c","system_id":"levelo_inurba_marseille","lat":43.337444,"lon":5.374475,"is_reserved":false,"is_disabled":false,"rental_uris":{"android":"levelo://app?vid=b8bd4cc4-f519-43de-b194-2cc2cf75483c","ios":"levelo://app?vid=b8bd4cc4-f519-43de-b194-2cc2cf75483c"},"vehicle_type_id":"4","last_reported":1762390457,"current_range_meters":0,"station_id":"","pricing_plan_id":"cebpf4jnsgd1na2vs0mg"},{"bike_id":"591b062c-0423-40a0-9120-f7c30f97e98f","system_id":"levelo_inurba_marseille","lat":43.337444,"lon":5.374475,"is_reserved":false,"is_disabled":false,"rental_uris":{"android":"levelo://app?vid=591b062c-0423-40a0-9120-f7c30f97e98f","ios":"levelo://app?vid=591b062c-0423-40a0-9120-f7c30f97e98f"},"vehicle_type_id":"4","last_reported":1762390457,"current_range_meters":0,"station_id":"","pricing_plan_id":"cebpf4jnsgd1na2vs0mg"},{"bike_id":"8fbb8d57-565e-4232-a867-846a316b3375","system_id":"levelo_inurba_marseille","lat":43.337444,"lon":5.374475,"is_reserved":false,"is_disabled":false,"rental_uris":{"android":"levelo://app?vid=8fbb8d57-565e-4232-a867-846a316b3375","ios":"levelo://app?vid=8fbb8d57-565e-4232-a867-846a316b3375"},"vehicle_type_id":"4","last_reported":1762390457,"current_range_meters":0,"station_id":"","pricing_plan_id":"cebpf4jnsgd1na2vs0mg"},{"bike_id":"e6134458-396f-46c5-87ab-a79cf2b6424c","system_id":"levelo_inurba_marseille","lat":43.337444,"lon":5.374475,"is_reserved":false,"is_disabled":false,"rental_uris":{"android":"levelo://app?vid=e6134458-396f-46c5-87ab-a79cf2b6424c","ios":"levelo://app?vid=e6134458-396f-46c5-87ab-a79cf2b6424c"},"vehicle_type_id":"4","last_reported":1762390457,"current_range_meters":0,"station_id":"","pricing_plan_id":"cebpf4jnsgd1na2vs0mg"},{"bike_id":"0a0d4295-fe5b-4614-b2ca-f5579d5190b0","system_id":"levelo_inurba_marseille","lat":43.337444,"lon":5.374475,"is_reserved":false,"is_disabled":false,"rental_uris":{"android":"levelo://app?vid=0a0d4295-fe5b-4614-b2ca-f5579d5190b0","ios":"levelo://app?vid=0a0d4295-fe5b-4614-b2ca-f5579d5190b0"},"vehicle_type_id":"4","last_reported":1762390457,"current_range_meters":0,"station_id":"","pricing_plan_id":"cebpf4jnsgd1na2vs0mg"},{"bike_id":"28b85111-1e3c-4e94-9d4a-5a837507bfee","system_id":"levelo_inurba_marseille","lat":43.2972,"lon":5.42632,"is_reserved":false,"is_disabled":false,"rental_uris":{"android":"levelo://app?vid=28b85111-1e3c-4e94-9d4a-5a837507bfee","ios":"levelo://app?vid=28b85111-1e3c-4e94-9d4a-5a837507bfee"},"vehicle_type_id":"4","last_reported":1762390457,"current_range_meters":2800,"station_id":"","pricing_plan_id":"cebpf4jnsgd1na2vs0mg"},{"bike_id":"d6774697-4070-4515-80ab-0dd1eb8c00bd","system_id":"levelo_inurba_marseille","lat":43.28351,"lon":5.38097,"is_reserved":false,"is_disabled":false,"rental_uris":{"android":"levelo://app?vid=d6774697-4070-4515-80ab-0dd1eb8c00bd","ios":"levelo://app?vid=d6774697-4070-4515-80ab-0dd1eb8c00bd"},"vehicle_type_id":"4","last_reported":1762390457,"current_range_meters":2800,"station_id":"","pricing_plan_id":"cebpf4jnsgd1na2vs0mg"},{"bike_id":"e2475ec6-8309-4cea-bc9e-90594367d45d","system_id":"levelo_inurba_marseille","lat":43.2804,"lon":5.36939,"is_reserved":false,"is_disabled":false,"rental_uris":{"android":"levelo://app?vid=e2475ec6-8309-4cea-bc9e-90594367d45d","ios":"levelo://app?vid=e2475ec6-8309-4cea-bc9e-90594367d45d"},"vehicle_type_id":"4","last_reported":1762390457,"current_range_meters":3200,"station_id":"ce4bha12rcd13ifvqef0","pricing_plan_id":"cebpf4jnsgd1na2vs0mg"},{"bike_id":"93cfde39-365a-412e-9374-1e0800e6f2e4","system_id":"levelo_inurba_marseille","lat":43.29573,"lon":5.39964,"is_reserved":false,"is_disabled":false,"rental_uris":{"android":"levelo://app?vid=93cfde39-365a-412e-9374-1e0800e6f2e4","ios":"levelo://app?vid=93cfde39-365a-412e-9374-1e0800e6f2e4"},"vehicle_type_id":"4","last_reported":1762390457,"current_range_meters":4000,"station_id":"ce4bh312rcd13ifvqdj0","pricing_plan_id":"cebpf4jnsgd1na2vs0mg"},{"bike_id":"5ca21b1d-e5b9-4586-adbe-25262a921df7","system_id":"levelo_inurba_marseille","lat":43.31277,"lon":5.40163,"is_reserved":false,"is_disabled":false,"rental_uris":{"android":"levelo://app?vid=5ca21b1d-e5b9-4586-adbe-25262a921df7","ios":"levelo://app?vid=5ca21b1d-e5b9-4586-adbe-25262a921df7"},"vehicle_type_id":"4","last_reported":1762390457,"current_range_meters":5600,"station_id":"ce4bh092rcd13ifvqd30","pricing_plan_id":"cebpf4jnsgd1na2vs0mg"},{"bike_id":"ca027186-72c6-4358-8d7a-70b219e6273a","system_id":"levelo_inurba_marseille","lat":43.35099,"lon":5.38086,"is_reserved":false,"is_disabled":false,"rental_uris":{"android":"levelo://app?vid=ca027186-72c6-4358-8d7a-70b219e6273a","ios":"levelo://app?vid=ca027186-72c6-4358-8d7a-70b219e6273a"},"vehicle_type_id":"4","last_reported":1762390457,"current_range_meters":5600,"station_id":"","pricing_plan_id":"cebpf4jnsgd1na2vs0mg"},{"bike_id":"654dc482-8458-4686-a09b-a5e21a822232","system_id":"levelo_inurba_marseille","lat":43.23187,"lon":5.35554,"is_reserved":false,"is_disabled":true,"rental_uris":{"android":"levelo://app?vid=654dc482-8458-4686-a09b-a5e21a822232","ios":"levelo://app?vid=654dc482-8458-4686-a09b-a5e21a822232"},"vehicle_type_id":"4","last_reported":1762390457,"current_range_meters":5600,"station_id":"ce4bhu92rcd13ifvqi70","pricing_plan_id":"cebpf4jnsgd1na2vs0mg"},{"bike_id":"4dfdfc7b-6dbd-404c-b9d8-554cc396af8f","system_id":"levelo_inurba_marseille","lat":43.28709,"lon":5.3794,"is_reserved":false,"is_disabled":false,"rental_uris":{"android":"levelo://app?vid=4dfdfc7b-6dbd-404c-b9d8-554cc396af8f","ios":"levelo://app?vid=4dfdfc7b-6dbd-404c-b9d8-554cc396af8f"},"vehicle_type_id":"4","last_reported":1762390457,"current_range_meters":5600,"station_id":"ce4bh9p2rcd13ifvqec0","pricing_plan_id":"cebpf4jnsgd1na2vs0mg"},{"bike_id":"4ea13cd9-79fa-4846-8b91-15b8a6522c81","system_id":"levelo_inurba_marseille","lat":43.29496,"lon":5.43309,"is_reserved":false,"is_disabled":false,"rental_uris":{"android":"levelo://app?vid=4ea13cd9-79fa-4846-8b91-15b8a6522c81","ios":"levelo://app?vid=4ea13cd9-79fa-4846-8b91-15b8a6522c81"},"vehicle_type_id":"4","last_reported":1762390457,"current_range_meters":6000,"station_id":"st_d3j5ugp08ojc73fj9d10","pricing_plan_id":"cebpf4jnsgd1na2vs0mg"},{"bike_id":"fea5a0bb-8f34-4341-9b02-f521342c90d3","system_id":"levelo_inurba_marseille","lat":43.25341,"lon":5.4216,"is_reserved":false,"is_disabled":false,"rental_uris":{"android":"levelo://app?vid=fea5a0bb-8f34-4341-9b02-f521342c90d3","ios":"levelo://app?vid=fea5a0bb-8f34-4341-9b02-f521342c90d3"},"vehicle_type_id":"4","last_reported":1762390457,"current_range_meters":6000,"station_id":"st_d2m65c5bi1j21697t3ng","pricing_plan_id":"cebpf4jnsgd1na2vs0mg"},{"bike_id":"ce9ec381-0969-4855-b842-f4f67499ee49","system_id":"levelo_inurba_marseille","lat":43.30933,"lon":5.40146,"is_reserved":false,"is_disabled":false,"rental_uris":{"android":"levelo://app?vid=ce9ec381-0969-4855-b842-f4f67499ee49","ios":"levelo://app?vid=ce9ec381-0969-4855-b842-f4f67499ee49"},"vehicle_type_id":"4","last_reported":1762390457,"current_range_meters":6000,"station_id":"ce4bgvp2rcd13ifvqct0","pricing_plan_id":"cebpf4jnsgd1na2vs0mg"},{"bike_id":"f27a4b04-b5f9-4b27-86dc-223a44222ee6","system_id":"levelo_inurba_marseille","lat":43.251224,"lon":5.403164,"is_reserved":false,"is_disabled":false,"rental_uris":{"android":"levelo://app?vid=f27a4b04-b5f9-4b27-86dc-223a44222ee6","ios":"levelo://app?vid=f27a4b04-b5f9-4b27-86dc-223a44222ee6"},"vehicle_type_id":"4","last_reported":1762390457,"current_range_meters":6400,"station_id":"ce4bhlh2rcd13ifvqgig","pricing_plan_id":"cebpf4jnsgd1na2vs0mg"},{"bike_id":"e4e320f8-0233-464c-948a-33e5b97f4d9c","system_id":"levelo_inurba_marseille","lat":43.29916,"lon":5.37458,"is_reserved":false,"is_disabled":false,"rental_uris":{"android":"levelo://app?vid=e4e320f8-0233-464c-948a-33e5b97f4d9c","ios":"levelo://app?vid=e4e320f8-0233-464c-948a-33e5b97f4d9c"},"vehicle_type_id":"4","last_reported":1762390457,"current_range_meters":6400,"station_id":"ce4bgjh2rcd13ifvqbg0","pricing_plan_id":"cebpf4jnsgd1na2vs0mg"},{"bike_id":"5e6b5e6b-9f8a-43ab-9eb8-b69e41a6c1e6","system_id":"levelo_inurba_marseille","lat":43.225298,"lon":5.348365,"is_reserved":false,"is_disabled":false,"rental_uris":{"android":"levelo://app?vid=5e6b5e6b-9f8a-43ab-9eb8-b69e41a6c1e6","ios":"levelo://app?vid=5e6b5e6b-9f8a-43ab-9eb8-b69e41a6c1e6"},"vehicle_type_id":"4","last_reported":1762390457,"current_range_meters":6400,"station_id":"","pricing_plan_id":"cebpf4jnsgd1na2vs0mg"},{"bike_id":"f2483c4e-237e-4b0e-abc0-fe25cec146b2","system_id":"levelo_inurba_marseille","lat":43.31123,"lon":5.37762,"is_reserved":false,"is_disabled":false,"rental_uris":{"android":"levelo://app?vid=f2483c4e-237e-4b0e-abc0-fe25cec146b2","ios":"levelo://app?vid=f2483c4e-237e-4b0e-abc0-fe25cec146b2"},"vehicle_type_id":"4","last_reported":1762390457,"current_range_meters":6400,"station_id":"ce4bgt92rcd13ifvqcg0","pricing_plan_id":"cebpf4jnsgd1na2vs0mg"},{"bike_id":"7c572724-d246-444c-a818-2550f93cae1a","system_id":"levelo_inurba_marseille","lat":43.28823,"lon":5.38619,"is_reserved":false,"is_disabled":false,"rental_uris":{"android":"levelo://app?vid=7c572724-d246-444c-a818-2550f93cae1a","ios":"levelo://app?vid=7c572724-d246-444c-a818-2550f93cae1a"},"vehicle_type_id":"4","last_reported":1762390457,"current_range_meters":6400,"station_id":"","pricing_plan_id":"cebpf4jnsgd1na2vs0mg"},{"bike_id":"068dd6cd-2778-4d85-925e-cf54b2e1efbf","system_id":"levelo_inurba_marseille","lat":43.26015,"lon":5.417433,"is_reserved":false,"is_disabled":false,"rental_uris":{"android":"levelo://app?vid=068dd6cd-2778-4d85-925e-cf54b2e1efbf","ios":"levelo://app?vid=068dd6cd-2778-4d85-925e-cf54b2e1efbf"},"vehicle_type_id":"4","last_reported":1762390457,"current_range_meters":6400,"station_id":"","pricing_plan_id":"cebpf4jnsgd1na2vs0mg"},{"bike_id":"ba9dd343-3a8b-4c29-ac26-d37d82c60f11","system_id":"levelo_inurba_marseille","lat":43.288582,"lon":5.393247,"is_reserved":false,"is_disabled":true,"rental_uris":{"android":"levelo://app?vid=ba9dd343-3a8b-4c29-ac26-d37d82c60f11","ios":"levelo://app?vid=ba9dd343-3a8b-4c29-ac26-d37d82c60f11"},"vehicle_type_id":"4","last_reported":1762390457,"current_range_meters":6800,"station_id":"ce4bh2p2rcd13ifvqdi0","pricing_plan_id":"cebpf4jnsgd1na2vs0mg"},{"bike_id":"f7a192fe-ecfa-451f-8d3a-3c4f39209fc4","system_id":"levelo_inurba_marseille","lat":43.32368,"lon":5.38886,"is_reserved":false,"is_disabled":false,"rental_uris":{"android":"levelo://app?vid=f7a192fe-ecfa-451f-8d3a-3c4f39209fc4","ios":"levelo://app?vid=f7a192fe-ecfa-451f-8d3a-3c4f39209fc4"},"vehicle_type_id":"4","last_reported":1762390457,"current_range_meters":6800,"station_id":"ce4bhqp2rcd13ifvqhog","pricing_plan_id":"cebpf4jnsgd1na2vs0mg"},{"bike_id":"724341e6-e44b-47f7-b6c1-ff2fb8637e62","system_id":"levelo_inurba_marseille","lat":43.25486,"lon":5.37642,"is_reserved":false,"is_disabled":false,"rental_uris":{"android":"levelo://app?vid=724341e6-e44b-47f7-b6c1-ff2fb8637e62","ios":"levelo://app?vid=724341e6-e44b-47f7-b6c1-ff2fb8637e62"},"vehicle_type_id":"4","last_reported":1762390457,"current_range_meters":6800,"station_id":"ce4bhh12rcd13ifvqff0","pricing_plan_id":"cebpf4jnsgd1na2vs0mg"},{"bike_id":"683d15e5-a4a3-41bd-9cb1-1935fc9efdc6","system_id":"levelo_inurba_marseille","lat":43.28038,"lon":5.3695,"is_reserved":false,"is_disabled":false,"rental_uris":{"android":"levelo://app?vid=683d15e5-a4a3-41bd-9cb1-1935fc9efdc6","ios":"levelo://app?vid=683d15e5-a4a3-41bd-9cb1-1935fc9efdc6"},"vehicle_type_id":"4","last_reported":1762390457,"current_range_meters":6800,"station_id":"ce4bha12rcd13ifvqef0","pricing_plan_id":"cebpf4jnsgd1na2vs0mg"},{"bike_id":"ad483091-7411-4e16-8cc4-09042e8161f5","system_id":"levelo_inurba_marseille","lat":43.273468,"lon":5.385179,"is_reserved":false,"is_disabled":true,"rental_uris":{"android":"levelo://app?vid=ad483091-7411-4e16-8cc4-09042e8161f5","ios":"levelo://app?vid=ad483091-7411-4e16-8cc4-09042e8161f5"},"vehicle_type_id":"4","last_reported":1762390457,"current_range_meters":6800,"station_id":"","pricing_plan_id":"cebpf4jnsgd1na2vs0mg"},{"bike_id":"43241b2a-4cb5-4e4c-8865-8a8693625499","system_id":"levelo_inurba_marseille","lat":43.312691,"lon":5.378298,"is_reserved":false,"is_disabled":false,"rental_uris":{"android":"levelo://app?vid=43241b2a-4cb5-4e4c-8865-8a8693625499","ios":"levelo://app?vid=43241b2a-4cb5-4e4c-8865-8a8693625499"},"vehicle_type_id":"4","last_reported":1762390457,"current_range_meters":6800,"station_id":"","pricing_plan_id":"cebpf4jnsgd1na2vs0mg"},{"bike_id":"f5d92d9d-9cca-4b04-839c-4b801263a13e","system_id":"levelo_inurba_marseille","lat":43.294342,"lon":5.397503,"is_reserved":false,"is_disabled":false,"rental_uris":{"android":"levelo://app?vid=f5d92d9d-9cca-4b04-839c-4b801263a13e","ios":"levelo://app?vid=f5d92d9d-9cca-4b04-839c-4b801263a13e"},"vehicle_type_id":"4","last_reported":1762390457,"current_range_meters":7200,"station_id":"ce4bh3h2rcd13ifvqdo0","pricing_plan_id":"cebpf4jnsgd1na2vs0mg"},{"bike_id":"f9b61f85-d8e8-498e-94c8-9afa4f390e74","system_id":"levelo_inurba_marseille","lat":43.25488,"lon":5.3764,"is_reserved":false,"is_disabled":false,"rental_uris":{"android":"levelo://app?vid=f9b61f85-d8e8-498e-94c8-9afa4f390e74","ios":"levelo://app?vid=f9b61f85-d8e8-498e-94c8-9afa4f390e74"},"vehicle_type_id":"4","last_reported":1762390457,"current_range_meters":7200,"station_id":"ce4bhh12rcd13ifvqff0","pricing_plan_id":"cebpf4jnsgd1na2vs0mg"},{"bike_id":"cd9c6c8f-813a-4b2c-b0c7-7a3265cb2fa0","system_id":"levelo_inurba_marseille","lat":43.24239,"lon":5.39322,"is_reserved":false,"is_disabled":false,"rental_uris":{"android":"levelo://app?vid=cd9c6c8f-813a-4b2c-b0c7-7a3265cb2fa0","ios":"levelo://app?vid=cd9c6c8f-813a-4b2c-b0c7-7a3265cb2fa0"},"vehicle_type_id":"4","last_reported":1762390457,"current_range_meters":7200,"station_id":"","pricing_plan_id":"cebpf4jnsgd1na2vs0mg"},{"bike_id":"f92a4c54-97d6-43bc-b8be-b7d9858ec53f","system_id":"levelo_inurba_marseille","lat":43.25341,"lon":5.42175,"is_reserved":false,"is_disabled":false,"rental_uris":{"android":"levelo://app?vid=f92a4c54-97d6-43bc-b8be-b7d9858ec53f","ios":"levelo://app?vid=f92a4c54-97d6-43bc-b8be-b7d9858ec53f"},"vehicle_type_id":"4","last_reported":1762390457,"current_range_meters":7200,"station_id":"","pricing_plan_id":"cebpf4jnsgd1na2vs0mg"},{"bike_id":"9e927841-3076-435e-a281-97baf4183df0","system_id":"levelo_inurba_marseille","lat":43.29473,"lon":5.38454,"is_reserved":false,"is_disabled":false,"rental_uris":{"android":"levelo://app?vid=9e927841-3076-435e-a281-97baf4183df0","ios":"levelo://app?vid=9e927841-3076-435e-a281-97baf4183df0"},"vehicle_type_id":"4","last_reported":1762390457,"current_range_meters":8000,"station_id":"","pricing_plan_id":"cebpf4jnsgd1na2vs0mg"},{"bike_id":"cbe43fe5-7148-4241-81a4-6031e6525719","system_id":"levelo_inurba_marseille","lat":43.24104,"lon":5.37801,"is_reserved":false,"is_disabled":false,"rental_uris":{"android":"levelo://app?vid=cbe43fe5-7148-4241-81a4-6031e6525719","ios":"levelo://app?vid=cbe43fe5-7148-4241-81a4-6031e6525719"},"vehicle_type_id":"4","last_reported":1762390457,"current_range_meters":8000,"station_id":"ce4bhnp2rcd13ifvqgvg","pricing_plan_id":"cebpf4jnsgd1na2vs0mg"},{"bike_id":"9477200b-ad67-4dda-975b-7cfe947f5c2f","system_id":"levelo_inurba_marseille","lat":43.27945,"lon":5.41051,"is_reserved":false,"is_disabled":false,"rental_uris":{"android":"levelo://app?vid=9477200b-ad67-4dda-975b-7cfe947f5c2f","ios":"levelo://app?vid=9477200b-ad67-4dda-975b-7cfe947f5c2f"},"vehicle_type_id":"4","last_reported":1762390457,"current_range_meters":8000,"station_id":"ce4bhnp2rcd13ifvqh0g","pricing_plan_id":"cebpf4jnsgd1na2vs0mg"},{"bike_id":"83a71080-612a-455c-b7dd-59ccee120d26","system_id":"levelo_inurba_marseille","lat":43.24817,"lon":5.37449,"is_reserved":false,"is_disabled":false,"rental_uris":{"android":"levelo://app?vid=83a71080-612a-455c-b7dd-59ccee120d26","ios":"levelo://app?vid=83a71080-612a-455c-b7dd-59ccee120d26"},"vehicle_type_id":"4","last_reported":1762390457,"current_range_meters":8400,"station_id":"ce4bhgh2rcd13ifvqfb0","pricing_plan_id":"cebpf4jnsgd1na2vs0mg"},{"bike_id":"7516b515-0067-49b1-b78c-06b342925154","system_id":"levelo_inurba_marseille","lat":43.25724,"lon":5.41111,"is_reserved":false,"is_disabled":false,"rental_uris":{"android":"levelo://app?vid=7516b515-0067-49b1-b78c-06b342925154","ios":"levelo://app?vid=7516b515-0067-49b1-b78c-06b342925154"},"vehicle_type_id":"4","last_reported":1762390457,"current_range_meters":8400,"station_id":"ce4bhkp2rcd13ifvqgd0","pricing_plan_id":"cebpf4jnsgd1na2vs0mg"},{"bike_id":"36dadbf7-a228-4f6f-8b08-391008b68693","system_id":"levelo_inurba_marseille","lat":43.3453,"lon":5.36868,"is_reserved":false,"is_disabled":false,"rental_uris":{"android":"levelo://app?vid=36dadbf7-a228-4f6f-8b08-391008b68693","ios":"levelo://app?vid=36dadbf7-a228-4f6f-8b08-391008b68693"},"vehicle_type_id":"4","last_reported":1762390457,"current_range_meters":8400,"station_id":"","pricing_plan_id":"cebpf4jnsgd1na2vs0mg"},{"bike_id":"ebee047f-1783-4d31-8b95-94863253a8a1","system_id":"levelo_inurba_marseille","lat":43.27498,"lon":5.42448,"is_reserved":false,"is_disabled":false,"rental_uris":{"android":"levelo://app?vid=ebee047f-1783-4d31-8b95-94863253a8a1","ios":"levelo://app?vid=ebee047f-1783-4d31-8b95-94863253a8a1"},"vehicle_type_id":"4","last_reported":1762390457,"current_range_meters":8400,"station_id":"ce4bhn92rcd13ifvqgrg","pricing_plan_id":"cebpf4jnsgd1na2vs0mg"},{"bike_id":"ea4f4b84-78b0-4180-a7f8-ecb8c6182713","system_id":"levelo_inurba_marseille","lat":43.2953,"lon":5.36104,"is_reserved":false,"is_disabled":true,"rental_uris":{"android":"levelo://app?vid=ea4f4b84-78b0-4180-a7f8-ecb8c6182713","ios":"levelo://app?vid=ea4f4b84-78b0-4180-a7f8-ecb8c6182713"},"vehicle_type_id":"4","last_reported":1762390457,"current_range_meters":8400,"station_id":"","pricing_plan_id":"cebpf4jnsgd1na2vs0mg"},{"bike_id":"dcd7cc05-09ca-451c-b5c3-aec30ed844a3","system_id":"levelo_inurba_marseille","lat":43.29498,"lon":5.42729,"is_reserved":false,"is_disabled":false,"rental_uris":{"android":"levelo://app?vid=dcd7cc05-09ca-451c-b5c3-aec30ed844a3","ios":"levelo://app?vid=dcd7cc05-09ca-451c-b5c3-aec30ed844a3"},"vehicle_type_id":"4","last_reported":1762390457,"current_range_meters":8800,"station_id":"","pricing_plan_id":"cebpf4jnsgd1na2vs0mg"},{"bike_id":"753eafb7-10bb-4fbc-a2f6-d95d0c983777","system_id":"levelo_inurba_marseille","lat":43.28433,"lon":5.39182,"is_reserved":false,"is_disabled":false,"rental_uris":{"android":"levelo://app?vid=753eafb7-10bb-4fbc-a2f6-d95d0c983777","ios":"levelo://app?vid=753eafb7-10bb-4fbc-a2f6-d95d0c983777"},"vehicle_type_id":"4","last_reported":1762390457,"current_range_meters":8800,"station_id":"ce4bhoh2rcd13ifvqh5g","pricing_plan_id":"cebpf4jnsgd1na2vs0mg"},{"bike_id":"5176c9ae-98fc-45dc-8231-69b11255d153","system_id":"levelo_inurba_marseille","lat":43.23134,"lon":5.43716,"is_reserved":false,"is_disabled":false,"rental_uris":{"android":"levelo://app?vid=5176c9ae-98fc-45dc-8231-69b11255d153","ios":"levelo://app?vid=5176c9ae-98fc-45dc-8231-69b11255d153"},"vehicle_type_id":"4","last_reported":1762390457,"current_range_meters":8800,"station_id":"ce4bhmp2rcd13ifvqgog","pricing_plan_id":"cebpf4jnsgd1na2vs0mg"},{"bike_id":"e2f101a4-02d6-4ce1-8f22-4549594d0918","system_id":"levelo_inurba_marseille","lat":43.295644,"lon":5.399803,"is_reserved":false,"is_disabled":false,"rental_uris":{"android":"levelo://app?vid=e2f101a4-02d6-4ce1-8f22-4549594d0918","ios":"levelo://app?vid=e2f101a4-02d6-4ce1-8f22-4549594d0918"},"vehicle_type_id":"4","last_reported":1762390457,"current_range_meters":8800,"station_id":"ce4bh312rcd13ifvqdj0","pricing_plan_id":"cebpf4jnsgd1na2vs0mg"},{"bike_id":"f9092b8b-f8d5-4fa7-b2da-db639c54cc1c","system_id":"levelo_inurba_marseille","lat":43.321067,"lon":5.36775,"is_reserved":false,"is_disabled":false,"rental_uris":{"android":"levelo://app?vid=f9092b8b-f8d5-4fa7-b2da-db639c54cc1c","ios":"levelo://app?vid=f9092b8b-f8d5-4fa7-b2da-db639c54cc1c"},"vehicle_type_id":"4","last_reported":1762390457,"current_range_meters":9200,"station_id":"ce4bhrh2rcd13ifvqhug","pricing_plan_id":"cebpf4jnsgd1na2vs0mg"},{"bike_id":"765b9661-2b24-4c0f-a9fb-732d7409b10c","system_id":"levelo_inurba_marseille","lat":43.21615,"lon":5.34427,"is_reserved":false,"is_disabled":false,"rental_uris":{"android":"levelo://app?vid=765b9661-2b24-4c0f-a9fb-732d7409b10c","ios":"levelo://app?vid=765b9661-2b24-4c0f-a9fb-732d7409b10c"},"vehicle_type_id":"4","last_reported":1762390457,"current_range_meters":9200,"station_id":"","pricing_plan_id":"cebpf4jnsgd1na2vs0mg"},{"bike_id":"c033d24b-b7ed-4a7e-a5b2-1fa5a5242676","system_id":"levelo_inurba_marseille","lat":43.26498,"lon":5.3954,"is_reserved":false,"is_disabled":false,"rental_uris":{"android":"levelo://app?vid=c033d24b-b7ed-4a7e-a5b2-1fa5a5242676","ios":"levelo://app?vid=c033d24b-b7ed-4a7e-a5b2-1fa5a5242676"},"vehicle_type_id":"4","last_reported":1762390457,"current_range_meters":9200,"station_id":"ce4bhi12rcd13ifvqfq0","pricing_plan_id":"cebpf4jnsgd1na2vs0mg"},{"bike_id":"3ed02add-87f3-41d7-bdf1-1cf82493034f","system_id":"levelo_inurba_marseille","lat":43.29315,"lon":5.38318,"is_reserved":false,"is_disabled":false,"rental_uris":{"android":"levelo://app?vid=3ed02add-87f3-41d7-bdf1-1cf82493034f","ios":"levelo://app?vid=3ed02add-87f3-41d7-bdf1-1cf82493034f"},"vehicle_type_id":"4","last_reported":1762390457,"current_range_meters":9200,"station_id":"","pricing_plan_id":"cebpf4jnsgd1na2vs0mg"},{"bike_id":"e7002296-a724-4792-9c77-9aa7da662e7d","system_id":"levelo_inurba_marseille","lat":43.29752,"lon":5.36248,"is_reserved":false,"is_disabled":false,"rental_uris":{"android":"levelo://app?vid=e7002296-a724-4792-9c77-9aa7da662e7d","ios":"levelo://app?vid=e7002296-a724-4792-9c77-9aa7da662e7d"},"vehicle_type_id":"4","last_reported":1762390457,"current_range_meters":9200,"station_id":"","pricing_plan_id":"cebpf4jnsgd1na2vs0mg"},{"bike_id":"4b24dbba-41a5-4ecf-ade9-ac15d69f3a39","system_id":"levelo_inurba_marseille","lat":43.30277,"lon":5.37689,"is_reserved":false,"is_disabled":false,"rental_uris":{"android":"levelo://app?vid=4b24dbba-41a5-4ecf-ade9-ac15d69f3a39","ios":"levelo://app?vid=4b24dbba-41a5-4ecf-ade9-ac15d69f3a39"},"vehicle_type_id":"4","last_reported":1762390457,"current_range_meters":9600,"station_id":"ce4bguh2rcd13ifvqcj0","pricing_plan_id":"cebpf4jnsgd1na2vs0mg"},{"bike_id":"02c565c9-e1be-4475-b1a9-b37751cdb830","system_id":"levelo_inurba_marseille","lat":43.34388,"lon":5.34876,"is_reserved":false,"is_disabled":false,"rental_uris":{"android":"levelo://app?vid=02c565c9-e1be-4475-b1a9-b37751cdb830","ios":"levelo://app?vid=02c565c9-e1be-4475-b1a9-b37751cdb830"},"vehicle_type_id":"4","last_reported":1762390457,"current_range_meters":9600,"station_id":"","pricing_plan_id":"cebpf4jnsgd1na2vs0mg"},{"bike_id":"b8bf2799-1db9-47dd-b7c3-5c4dffca3ddf","system_id":"levelo_inurba_marseille","lat":43.237778,"lon":5.366355,"is_reserved":false,"is_disabled":false,"rental_uris":{"android":"levelo://app?vid=b8bf2799-1db9-47dd-b7c3-5c4dffca3ddf","ios":"levelo://app?vid=b8bf2799-1db9-47dd-b7c3-5c4dffca3ddf"},"vehicle_type_id":"4","last_reported":1762390457,"current_range_meters":9600,"station_id":"st_d3nk18o9ro0c73en2l3g","pricing_plan_id":"cebpf4jnsgd1na2vs0mg"},{"bike_id":"7479cfee-6f68-4a59-afc8-ceca6b83dba4","system_id":"levelo_inurba_marseille","lat":43.25576,"lon":5.3825,"is_reserved":false,"is_disabled":false,"rental_uris":{"android":"levelo://app?vid=7479cfee-6f68-4a59-afc8-ceca6b83dba4","ios":"levelo://app?vid=7479cfee-6f68-4a59-afc8-ceca6b83dba4"},"vehicle_type_id":"4","last_reported":1762390457,"current_range_meters":9600,"station_id":"ce4bhih2rcd13ifvqfs0","pricing_plan_id":"cebpf4jnsgd1na2vs0mg"},{"bike_id":"ac3661dd-248f-4b92-ad04-1fbf8e5c6660","system_id":"levelo_inurba_marseille","lat":43.2804,"lon":5.3695,"is_reserved":false,"is_disabled":true,"rental_uris":{"android":"levelo://app?vid=ac3661dd-248f-4b92-ad04-1fbf8e5c6660","ios":"levelo://app?vid=ac3661dd-248f-4b92-ad04-1fbf8e5c6660"},"vehicle_type_id":"4","last_reported":1762390457,"current_range_meters":9600,"station_id":"ce4bha12rcd13ifvqef0","pricing_plan_id":"cebpf4jnsgd1na2vs0mg"},{"bike_id":"70cb578b-b109-4b39-bffa-8ea3228aa29c","system_id":"levelo_inurba_marseille","lat":43.28001,"lon":5.41679,"is_reserved":false,"is_disabled":false,"rental_uris":{"android":"levelo://app?vid=70cb578b-b109-4b39-bffa-8ea3228aa29c","ios":"levelo://app?vid=70cb578b-b109-4b39-bffa-8ea3228aa29c"},"vehicle_type_id":"4","last_reported":1762390457,"current_range_meters":9600,"station_id":"","pricing_plan_id":"cebpf4jnsgd1na2vs0mg"},{"bike_id":"3f14eb3d-e886-442c-a29d-ce46126f5339","system_id":"levelo_inurba_marseille","lat":43.22939,"lon":5.35373,"is_reserved":false,"is_disabled":false,"rental_uris":{"android":"levelo://app?vid=3f14eb3d-e886-442c-a29d-ce46126f5339","ios":"levelo://app?vid=3f14eb3d-e886-442c-a29d-ce46126f5339"},"vehicle_type_id":"4","last_reported":1762390457,"current_range_meters":10000,"station_id":"cpo3532slgdg3j2ikp40","pricing_plan_id":"cebpf4jnsgd1na2vs0mg"},{"bike_id":"cbf56b2a-2fe7-49c7-b629-bc93f74b7393","system_id":"levelo_inurba_marseille","lat":43.24571,"lon":5.41538,"is_reserved":false,"is_disabled":false,"rental_uris":{"android":"levelo://app?vid=cbf56b2a-2fe7-49c7-b629-bc93f74b7393","ios":"levelo://app?vid=cbf56b2a-2fe7-49c7-b629-bc93f74b7393"},"vehicle_type_id":"4","last_reported":1762390457,"current_range_meters":10000,"station_id":"","pricing_plan_id":"cebpf4jnsgd1na2vs0mg"},{"bike_id":"4f0a4904-3c13-4b0b-b456-34fe698f9e20","system_id":"levelo_inurba_marseille","lat":43.295677,"lon":5.399793,"is_reserved":false,"is_disabled":false,"rental_uris":{"android":"levelo://app?vid=4f0a4904-3c13-4b0b-b456-34fe698f9e20","ios":"levelo://app?vid=4f0a4904-3c13-4b0b-b456-34fe698f9e20"},"vehicle_type_id":"4","last_reported":1762390457,"current_range_meters":10000,"station_id":"ce4bhi12rcd13ifvqfq0","pricing_plan_id":"cebpf4jnsgd1na2vs0mg"},{"bike_id":"7ea3ec07-f13c-4cf1-b0ff-e48c3d1a764c","system_id":"levelo_inurba_marseille","lat":43.2533,"lon":5.42164,"is_reserved":false,"is_disabled":false,"rental_uris":{"android":"levelo://app?vid=7ea3ec07-f13c-4cf1-b0ff-e48c3d1a764c","ios":"levelo://app?vid=7ea3ec07-f13c-4cf1-b0ff-e48c3d1a764c"},"vehicle_type_id":"4","last_reported":1762390457,"current_range_meters":10000,"station_id":"st_d2m65c5bi1j21697t3ng","pricing_plan_id":"cebpf4jnsgd1na2vs0mg"},{"bike_id":"571bd3a6-912b-44a3-9841-50c558a61481","system_id":"levelo_inurba_marseille","lat":43.28123,"lon":5.40554,"is_reserved":false,"is_disabled":false,"rental_uris":{"android":"levelo://app?vid=571bd3a6-912b-44a3-9841-50c558a61481","ios":"levelo://app?vid=571bd3a6-912b-44a3-9841-50c558a61481"},"vehicle_type_id":"4","last_reported":1762390457,"current_range_meters":10800,"station_id":"","pricing_plan_id":"cebpf4jnsgd1na2vs0mg"},{"bike_id":"5a8b96ec-cb05-46c6-90cd-f561f8fce9ca","system_id":"levelo_inurba_marseille","lat":43.23139,"lon":5.43725,"is_reserved":false,"is_disabled":false,"rental_uris":{"android":"levelo://app?vid=5a8b96ec-cb05-46c6-90cd-f561f8fce9ca","ios":"levelo://app?vid=5a8b96ec-cb05-46c6-90cd-f561f8fce9ca"},"vehicle_type_id":"4","last_reported":1762390457,"current_range_meters":10800,"station_id":"ce4bhmp2rcd13ifvqgog","pricing_plan_id":"cebpf4jnsgd1na2vs0mg"},{"bike_id":"7dd0a1b1-116d-4fee-bfcb-0eb5c293dfac","system_id":"levelo_inurba_marseille","lat":43.2583,"lon":5.39439,"is_reserved":false,"is_disabled":false,"rental_uris":{"android":"levelo://app?vid=7dd0a1b1-116d-4fee-bfcb-0eb5c293dfac","ios":"levelo://app?vid=7dd0a1b1-116d-4fee-bfcb-0eb5c293dfac"},"vehicle_type_id":"4","last_reported":1762390457,"current_range_meters":10800,"station_id":"ce4bhip2rcd13ifvqft0","pricing_plan_id":"cebpf4jnsgd1na2vs0mg"},{"bike_id":"41b64dfa-4df1-49a2-baec-dcbb6a771301","system_id":"levelo_inurba_marseille","lat":43.26576,"lon":5.37282,"is_reserved":false,"is_disabled":false,"rental_uris":{"android":"levelo://app?vid=41b64dfa-4df1-49a2-baec-dcbb6a771301","ios":"levelo://app?vid=41b64dfa-4df1-49a2-baec-dcbb6a771301"},"vehicle_type_id":"4","last_reported":1762390457,"current_range_meters":10800,"station_id":"ce4bhg12rcd13ifvqf70","pricing_plan_id":"cebpf4jnsgd1na2vs0mg"},{"bike_id":"4018132b-c886-4886-ba66-ac2335fddf17","system_id":"levelo_inurba_marseille","lat":43.2707,"lon":5.4228,"is_reserved":false,"is_disabled":false,"rental_uris":{"android":"levelo://app?vid=4018132b-c886-4886-ba66-ac2335fddf17","ios":"levelo://app?vid=4018132b-c886-4886-ba66-ac2335fddf17"},"vehicle_type_id":"4","last_reported":1762390457,"current_range_meters":10800,"station_id":"ce4bhk92rcd13ifvqgb0","pricing_plan_id":"cebpf4jnsgd1na2vs0mg"},{"bike_id":"2d07d582-2fb3-48f9-b27d-8c24c71a7dda","system_id":"levelo_inurba_marseille","lat":43.307981,"lon":5.381527,"is_reserved":false,"is_disabled":false,"rental_uris":{"android":"levelo://app?vid=2d07d582-2fb3-48f9-b27d-8c24c71a7dda","ios":"levelo://app?vid=2d07d582-2fb3-48f9-b27d-8c24c71a7dda"},"vehicle_type_id":"4","last_reported":1762390457,"current_range_meters":11200,"station_id":"ce4bgt12rcd13ifvqce0","pricing_plan_id":"cebpf4jnsgd1na2vs0mg"},{"bike_id":"528e10e5-fbfd-4591-9275-c81e42b475d9","system_id":"levelo_inurba_marseille","lat":43.24949,"lon":5.40487,"is_reserved":false,"is_disabled":false,"rental_uris":{"android":"levelo://app?vid=528e10e5-fbfd-4591-9275-c81e42b475d9","ios":"levelo://app?vid=528e10e5-fbfd-4591-9275-c81e42b475d9"},"vehicle_type_id":"4","last_reported":1762390457,"current_range_meters":11200,"station_id":"st_d2ngiaodas8pm72gd1h0","pricing_plan_id":"cebpf4jnsgd1na2vs0mg"},{"bike_id":"709ac22e-2e97-49bc-8ecd-b53546fa35d2","system_id":"levelo_inurba_marseille","lat":43.246634,"lon":5.381526,"is_reserved":false,"is_disabled":false,"rental_uris":{"android":"levelo://app?vid=709ac22e-2e97-49bc-8ecd-b53546fa35d2","ios":"levelo://app?vid=709ac22e-2e97-49bc-8ecd-b53546fa35d2"},"vehicle_type_id":"4","last_reported":1762390457,"current_range_meters":11200,"station_id":"ce4bhih2rcd13ifvqfr0","pricing_plan_id":"cebpf4jnsgd1na2vs0mg"},{"bike_id":"8db420a7-407a-4cd3-9095-5a8e96625979","system_id":"levelo_inurba_marseille","lat":43.229296,"lon":5.353784,"is_reserved":false,"is_disabled":false,"rental_uris":{"android":"levelo://app?vid=8db420a7-407a-4cd3-9095-5a8e96625979","ios":"levelo://app?vid=8db420a7-407a-4cd3-9095-5a8e96625979"},"vehicle_type_id":"4","last_reported":1762390457,"current_range_meters":11200,"station_id":"cpo3532slgdg3j2ikp40","pricing_plan_id":"cebpf4jnsgd1na2vs0mg"},{"bike_id":"ab9b2bcc-ea75-449d-adbb-4add292d38c4","system_id":"levelo_inurba_marseille","lat":43.34061,"lon":5.38321,"is_reserved":false,"is_disabled":false,"rental_uris":{"android":"levelo://app?vid=ab9b2bcc-ea75-449d-adbb-4add292d38c4","ios":"levelo://app?vid=ab9b2bcc-ea75-449d-adbb-4add292d38c4"},"vehicle_type_id":"4","last_reported":1762390457,"current_range_meters":11200,"station_id":"","pricing_plan_id":"cebpf4jnsgd1na2vs0mg"},{"bike_id":"76b7b0d3-59f1-4530-8573-24bcc168f308","system_id":"levelo_inurba_marseille","lat":43.28462,"lon":5.35895,"is_reserved":false,"is_disabled":false,"rental_uris":{"android":"levelo://app?vid=76b7b0d3-59f1-4530-8573-24bcc168f308","ios":"levelo://app?vid=76b7b0d3-59f1-4530-8573-24bcc168f308"},"vehicle_type_id":"4","last_reported":1762390457,"current_range_meters":11200,"station_id":"ce4bhah2rcd13ifvqei0","pricing_plan_id":"cebpf4jnsgd1na2vs0mg"},{"bike_id":"d4786c4e-9d78-4410-a1a1-186f40963019","system_id":"levelo_inurba_marseille","lat":43.24393,"lon":5.37047,"is_reserved":false,"is_disabled":false,"rental_uris":{"android":"levelo://app?vid=d4786c4e-9d78-4410-a1a1-186f40963019","ios":"levelo://app?vid=d4786c4e-9d78-4410-a1a1-186f40963019"},"vehicle_type_id":"4","last_reported":1762390457,"current_range_meters":11200,"station_id":"ce4bhhh2rcd13ifvqfk0","pricing_plan_id":"cebpf4jnsgd1na2vs0mg"},{"bike_id":"c464eb43-71d2-4f0a-889b-9f4e0e68fea0","system_id":"levelo_inurba_marseille","lat":43.28445,"lon":5.39199,"is_reserved":false,"is_disabled":false,"rental_uris":{"android":"levelo://app?vid=c464eb43-71d2-4f0a-889b-9f4e0e68fea0","ios":"levelo://app?vid=c464eb43-71d2-4f0a-889b-9f4e0e68fea0"},"vehicle_type_id":"4","last_reported":1762390457,"current_range_meters":11600,"station_id":"ce4bhoh2rcd13ifvqh5g","pricing_plan_id":"cebpf4jnsgd1na2vs0mg"},{"bike_id":"23704d21-dcb4-4524-a0e7-782c68706e98","system_id":"levelo_inurba_marseille","lat":43.27944,"lon":5.41042,"is_reserved":false,"is_disabled":false,"rental_uris":{"android":"levelo://app?vid=23704d21-dcb4-4524-a0e7-782c68706e98","ios":"levelo://app?vid=23704d21-dcb4-4524-a0e7-782c68706e98"},"vehicle_type_id":"4","last_reported":1762390457,"current_range_meters":11600,"station_id":"ce4bhnp2rcd13ifvqh0g","pricing_plan_id":"cebpf4jnsgd1na2vs0mg"},{"bike_id":"100c99df-1d98-427c-be8e-8a8bd5317382","system_id":"levelo_inurba_marseille","lat":43.27327,"lon":5.39083,"is_reserved":false,"is_disabled":false,"rental_uris":{"android":"levelo://app?vid=100c99df-1d98-427c-be8e-8a8bd5317382","ios":"levelo://app?vid=100c99df-1d98-427c-be8e-8a8bd5317382"},"vehicle_type_id":"4","last_reported":1762390457,"current_range_meters":11600,"station_id":"ce4bhgp2rcd13ifvqfe0","pricing_plan_id":"cebpf4jnsgd1na2vs0mg"},{"bike_id":"b6a4dc9b-26c3-4a27-8804-79ef8a815473","system_id":"levelo_inurba_marseille","lat":43.28461,"lon":5.35882,"is_reserved":false,"is_disabled":false,"rental_uris":{"android":"levelo://app?vid=b6a4dc9b-26c3-4a27-8804-79ef8a815473","ios":"levelo://app?vid=b6a4dc9b-26c3-4a27-8804-79ef8a815473"},"vehicle_type_id":"4","last_reported":1762390457,"current_range_meters":11600,"station_id":"ce4bhah2rcd13ifvqei0","pricing_plan_id":"cebpf4jnsgd1na2vs0mg"},{"bike_id":"b78a3f58-aa58-46ec-81b6-5811d8a0dc36","system_id":"levelo_inurba_marseille","lat":43.289313,"lon":5.383884,"is_reserved":false,"is_disabled":false,"rental_uris":{"android":"levelo://app?vid=b78a3f58-aa58-46ec-81b6-5811d8a0dc36","ios":"levelo://app?vid=b78a3f58-aa58-46ec-81b6-5811d8a0dc36"},"vehicle_type_id":"4","last_reported":1762390457,"current_range_meters":11600,"station_id":"ce4bh612rcd13ifvqe6g","pricing_plan_id":"cebpf4jnsgd1na2vs0mg"},{"bike_id":"c44fac27-b41a-4d2c-b402-1a923628b545","system_id":"levelo_inurba_marseille","lat":43.279152,"lon":5.40909,"is_reserved":false,"is_disabled":false,"rental_uris":{"android":"levelo://app?vid=c44fac27-b41a-4d2c-b402-1a923628b545","ios":"levelo://app?vid=c44fac27-b41a-4d2c-b402-1a923628b545"},"vehicle_type_id":"4","last_reported":1762390457,"current_range_meters":11600,"station_id":"","pricing_plan_id":"cebpf4jnsgd1na2vs0mg"},{"bike_id":"813d84df-d28e-442a-86a4-2693a3f1117d","system_id":"levelo_inurba_marseille","lat":43.23071,"lon":5.35509,"is_reserved":false,"is_disabled":false,"rental_uris":{"android":"levelo://app?vid=813d84df-d28e-442a-86a4-2693a3f1117d","ios":"levelo://app?vid=813d84df-d28e-442a-86a4-2693a3f1117d"},"vehicle_type_id":"4","last_reported":1762390457,"current_range_meters":12000,"station_id":"cpo3342slgdg3j2ifvpg","pricing_plan_id":"cebpf4jnsgd1na2vs0mg"},{"bike_id":"13d984c8-48d8-4dfc-aa86-5f78c707cacf","system_id":"levelo_inurba_marseille","lat":43.28037,"lon":5.36944,"is_reserved":false,"is_disabled":true,"rental_uris":{"android":"levelo://app?vid=13d984c8-48d8-4dfc-aa86-5f78c707cacf","ios":"levelo://app?vid=13d984c8-48d8-4dfc-aa86-5f78c707cacf"},"vehicle_type_id":"4","last_reported":1762390457,"current_range_meters":12000,"station_id":"ce4bha12rcd13ifvqef0","pricing_plan_id":"cebpf4jnsgd1na2vs0mg"},{"bike_id":"9985289f-9550-4d33-81df-5625e1f25a02","system_id":"levelo_inurba_marseille","lat":43.24943,"lon":5.405,"is_reserved":false,"is_disabled":false,"rental_uris":{"android":"levelo://app?vid=9985289f-9550-4d33-81df-5625e1f25a02","ios":"levelo://app?vid=9985289f-9550-4d33-81df-5625e1f25a02"},"vehicle_type_id":"4","last_reported":1762390457,"current_range_meters":12000,"station_id":"st_d2ngiaodas8pm72gd1h0","pricing_plan_id":"cebpf4jnsgd1na2vs0mg"},{"bike_id":"c14b70b2-98d4-4848-a2d9-32722b8d1daf","system_id":"levelo_inurba_marseille","lat":43.31793,"lon":5.36862,"is_reserved":false,"is_disabled":false,"rental_uris":{"android":"levelo://app?vid=c14b70b2-98d4-4848-a2d9-32722b8d1daf","ios":"levelo://app?vid=c14b70b2-98d4-4848-a2d9-32722b8d1daf"},"vehicle_type_id":"4","last_reported":1762390457,"current_range_meters":12000,"station_id":"","pricing_plan_id":"cebpf4jnsgd1na2vs0mg"},{"bike_id":"42d2792a-88bd-48e5-afe0-4b6400cd337a","system_id":"levelo_inurba_marseille","lat":43.31691,"lon":5.38238,"is_reserved":false,"is_disabled":false,"rental_uris":{"android":"levelo://app?vid=42d2792a-88bd-48e5-afe0-4b6400cd337a","ios":"levelo://app?vid=42d2792a-88bd-48e5-afe0-4b6400cd337a"},"vehicle_type_id":"4","last_reported":1762390457,"current_range_meters":12000,"station_id":"","pricing_plan_id":"cebpf4jnsgd1na2vs0mg"},{"bike_id":"4e507fc4-f146-4397-a5b2-08f372ebdb83","system_id":"levelo_inurba_marseille","lat":43.232766,"lon":5.39978,"is_reserved":false,"is_disabled":false,"rental_uris":{"android":"levelo://app?vid=4e507fc4-f146-4397-a5b2-08f372ebdb83","ios":"levelo://app?vid=4e507fc4-f146-4397-a5b2-08f372ebdb83"},"vehicle_type_id":"4","last_reported":1762390457,"current_range_meters":12000,"station_id":"ce4bhn12rcd13ifvqgqg","pricing_plan_id":"cebpf4jnsgd1na2vs0mg"},{"bike_id":"81dcc136-dea2-46c0-98af-42dbdee92b54","system_id":"levelo_inurba_marseille","lat":43.28478,"lon":5.48391,"is_reserved":false,"is_disabled":false,"rental_uris":{"android":"levelo://app?vid=81dcc136-dea2-46c0-98af-42dbdee92b54","ios":"levelo://app?vid=81dcc136-dea2-46c0-98af-42dbdee92b54"},"vehicle_type_id":"4","last_reported":1762390457,"current_range_meters":12000,"station_id":"","pricing_plan_id":"cebpf4jnsgd1na2vs0mg"},{"bike_id":"27346f7c-aaa4-4baa-ad09-fca665d79d4e","system_id":"levelo_inurba_marseille","lat":43.296318,"lon":5.405979,"is_reserved":false,"is_disabled":false,"rental_uris":{"android":"levelo://app?vid=27346f7c-aaa4-4baa-ad09-fca665d79d4e","ios":"levelo://app?vid=27346f7c-aaa4-4baa-ad09-fca665d79d4e"},"vehicle_type_id":"4","last_reported":1762390457,"current_range_meters":12000,"station_id":"ce4bh0h2rcd13ifvqd60","pricing_plan_id":"cebpf4jnsgd1na2vs0mg"},{"bike_id":"bcb3c39b-ec48-48ef-9eac-eb8b71840959","system_id":"levelo_inurba_marseille","lat":43.33757,"lon":5.37464,"is_reserved":false,"is_disabled":false,"rental_uris":{"android":"levelo://app?vid=bcb3c39b-ec48-48ef-9eac-eb8b71840959","ios":"levelo://app?vid=bcb3c39b-ec48-48ef-9eac-eb8b71840959"},"vehicle_type_id":"4","last_reported":1762390457,"current_range_meters":12400,"station_id":"","pricing_plan_id":"cebpf4jnsgd1na2vs0mg"},{"bike_id":"cff64f4e-5f37-43ea-ae7e-1ca574864a38","system_id":"levelo_inurba_marseille","lat":43.32444,"lon":5.42798,"is_reserved":false,"is_disabled":false,"rental_uris":{"android":"levelo://app?vid=cff64f4e-5f37-43ea-ae7e-1ca574864a38","ios":"levelo://app?vid=cff64f4e-5f37-43ea-ae7e-1ca574864a38"},"vehicle_type_id":"4","last_reported":1762390457,"current_range_meters":12400,"station_id":"","pricing_plan_id":"cebpf4jnsgd1na2vs0mg"},{"bike_id":"8d9583f5-13d4-4bd8-9fd0-8797edcf3040","system_id":"levelo_inurba_marseille","lat":43.243954,"lon":5.370685,"is_reserved":false,"is_disabled":false,"rental_uris":{"android":"levelo://app?vid=8d9583f5-13d4-4bd8-9fd0-8797edcf3040","ios":"levelo://app?vid=8d9583f5-13d4-4bd8-9fd0-8797edcf3040"},"vehicle_type_id":"4","last_reported":1762390457,"current_range_meters":12400,"station_id":"ce4bhhh2rcd13ifvqfk0","pricing_plan_id":"cebpf4jnsgd1na2vs0mg"},{"bike_id":"dae30738-204c-4787-a9b5-e056fa94e0c9","system_id":"levelo_inurba_marseille","lat":43.22567,"lon":5.41631,"is_reserved":false,"is_disabled":false,"rental_uris":{"android":"levelo://app?vid=dae30738-204c-4787-a9b5-e056fa94e0c9","ios":"levelo://app?vid=dae30738-204c-4787-a9b5-e056fa94e0c9"},"vehicle_type_id":"4","last_reported":1762390457,"current_range_meters":12400,"station_id":"st_d2o4gvlbi1j2169b742g","pricing_plan_id":"cebpf4jnsgd1na2vs0mg"},{"bike_id":"89668189-b95b-43c4-a0b4-cad5f1f90638","system_id":"levelo_inurba_marseille","lat":43.30144,"lon":5.38107,"is_reserved":false,"is_disabled":true,"rental_uris":{"android":"levelo://app?vid=89668189-b95b-43c4-a0b4-cad5f1f90638","ios":"levelo://app?vid=89668189-b95b-43c4-a0b4-cad5f1f90638"},"vehicle_type_id":"4","last_reported":1762390457,"current_range_meters":12400,"station_id":"ce4bgjp2rcd13ifvqbh0","pricing_plan_id":"cebpf4jnsgd1na2vs0mg"},{"bike_id":"e33aa5e6-e815-4074-8c15-df1c889d811b","system_id":"levelo_inurba_marseille","lat":43.28351,"lon":5.38111,"is_reserved":false,"is_disabled":false,"rental_uris":{"android":"levelo://app?vid=e33aa5e6-e815-4074-8c15-df1c889d811b","ios":"levelo://app?vid=e33aa5e6-e815-4074-8c15-df1c889d811b"},"vehicle_type_id":"4","last_reported":1762390457,"current_range_meters":12400,"station_id":"ce4bh412rcd13ifvqdr0","pricing_plan_id":"cebpf4jnsgd1na2vs0mg"},{"bike_id":"e74a192f-ff5c-4010-8a3a-6c72a983b687","system_id":"levelo_inurba_marseille","lat":43.28434,"lon":5.39173,"is_reserved":false,"is_disabled":false,"rental_uris":{"android":"levelo://app?vid=e74a192f-ff5c-4010-8a3a-6c72a983b687","ios":"levelo://app?vid=e74a192f-ff5c-4010-8a3a-6c72a983b687"},"vehicle_type_id":"4","last_reported":1762390457,"current_range_meters":12400,"station_id":"ce4bhoh2rcd13ifvqh5g","pricing_plan_id":"cebpf4jnsgd1na2vs0mg"},{"bike_id":"d05e3da8-8106-4f59-8bbd-be54a04dadf0","system_id":"levelo_inurba_marseille","lat":43.292562,"lon":5.409125,"is_reserved":false,"is_disabled":false,"rental_uris":{"android":"levelo://app?vid=d05e3da8-8106-4f59-8bbd-be54a04dadf0","ios":"levelo://app?vid=d05e3da8-8106-4f59-8bbd-be54a04dadf0"},"vehicle_type_id":"4","last_reported":1762390457,"current_range_meters":12400,"station_id":"ce4bh192rcd13ifvqdc0","pricing_plan_id":"cebpf4jnsgd1na2vs0mg"},{"bike_id":"8cf54d33-efb5-4166-8509-df2cb57488b1","system_id":"levelo_inurba_marseille","lat":43.33435,"lon":5.40055,"is_reserved":false,"is_disabled":false,"rental_uris":{"android":"levelo://app?vid=8cf54d33-efb5-4166-8509-df2cb57488b1","ios":"levelo://app?vid=8cf54d33-efb5-4166-8509-df2cb57488b1"},"vehicle_type_id":"4","last_reported":1762390457,"current_range_meters":12400,"station_id":"","pricing_plan_id":"cebpf4jnsgd1na2vs0mg"},{"bike_id":"94b06f3e-9c43-404e-899a-d1e48d6d7a76","system_id":"levelo_inurba_marseille","lat":43.287102,"lon":5.399967,"is_reserved":false,"is_disabled":false,"rental_uris":{"android":"levelo://app?vid=94b06f3e-9c43-404e-899a-d1e48d6d7a76","ios":"levelo://app?vid=94b06f3e-9c43-404e-899a-d1e48d6d7a76"},"vehicle_type_id":"4","last_reported":1762390457,"current_range_meters":12800,"station_id":"ce4bho92rcd13ifvqh3g","pricing_plan_id":"cebpf4jnsgd1na2vs0mg"},{"bike_id":"a6010974-670e-49c0-b408-8e5fee4c2775","system_id":"levelo_inurba_marseille","lat":43.24168,"lon":5.36386,"is_reserved":false,"is_disabled":false,"rental_uris":{"android":"levelo://app?vid=a6010974-670e-49c0-b408-8e5fee4c2775","ios":"levelo://app?vid=a6010974-670e-49c0-b408-8e5fee4c2775"},"vehicle_type_id":"4","last_reported":1762390457,"current_range_meters":12800,"station_id":"cpo36qri1sfpv3e86is0","pricing_plan_id":"cebpf4jnsgd1na2vs0mg"},{"bike_id":"d1dda1a3-56ec-411a-af14-ce9e6583b8d3","system_id":"levelo_inurba_marseille","lat":43.24665,"lon":5.38138,"is_reserved":false,"is_disabled":false,"rental_uris":{"android":"levelo://app?vid=d1dda1a3-56ec-411a-af14-ce9e6583b8d3","ios":"levelo://app?vid=d1dda1a3-56ec-411a-af14-ce9e6583b8d3"},"vehicle_type_id":"4","last_reported":1762390457,"current_range_meters":12800,"station_id":"ce4bhih2rcd13ifvqfr0","pricing_plan_id":"cebpf4jnsgd1na2vs0mg"},{"bike_id":"04ba5500-24a2-4d55-b856-e5fae1cf5c67","system_id":"levelo_inurba_marseille","lat":43.29781,"lon":5.39345,"is_reserved":false,"is_disabled":true,"rental_uris":{"android":"levelo://app?vid=04ba5500-24a2-4d55-b856-e5fae1cf5c67","ios":"levelo://app?vid=04ba5500-24a2-4d55-b856-e5fae1cf5c67"},"vehicle_type_id":"4","last_reported":1762390457,"current_range_meters":12800,"station_id":"chh1huq6cuj3fo74tm60","pricing_plan_id":"cebpf4jnsgd1na2vs0mg"},{"bike_id":"72d6d1aa-ee60-4366-a03f-3d0244ccfd08","system_id":"levelo_inurba_marseille","lat":43.28855,"lon":5.39332,"is_reserved":false,"is_disabled":true,"rental_uris":{"android":"levelo://app?vid=72d6d1aa-ee60-4366-a03f-3d0244ccfd08","ios":"levelo://app?vid=72d6d1aa-ee60-4366-a03f-3d0244ccfd08"},"vehicle_type_id":"4","last_reported":1762390457,"current_range_meters":12800,"station_id":"ce4bh2p2rcd13ifvqdi0","pricing_plan_id":"cebpf4jnsgd1na2vs0mg"},{"bike_id":"92ee188b-4914-4747-ace0-5cf8f04288ac","system_id":"levelo_inurba_marseille","lat":43.29521,"lon":5.39049,"is_reserved":false,"is_disabled":false,"rental_uris":{"android":"levelo://app?vid=92ee188b-4914-4747-ace0-5cf8f04288ac","ios":"levelo://app?vid=92ee188b-4914-4747-ace0-5cf8f04288ac"},"vehicle_type_id":"4","last_reported":1762390457,"current_range_meters":12800,"station_id":"ce4bh3p2rcd13ifvqdp0","pricing_plan_id":"cebpf4jnsgd1na2vs0mg"},{"bike_id":"b1dd7c4b-7e10-4f43-95b7-84593af814c4","system_id":"levelo_inurba_marseille","lat":43.28406,"lon":5.37517,"is_reserved":false,"is_disabled":false,"rental_uris":{"android":"levelo://app?vid=b1dd7c4b-7e10-4f43-95b7-84593af814c4","ios":"levelo://app?vid=b1dd7c4b-7e10-4f43-95b7-84593af814c4"},"vehicle_type_id":"4","last_reported":1762390457,"current_range_meters":12800,"station_id":"ce4bh412rcd13ifvqds0","pricing_plan_id":"cebpf4jnsgd1na2vs0mg"},{"bike_id":"27aefe03-bbd2-43d3-8d72-3a7105da9194","system_id":"levelo_inurba_marseille","lat":43.31356,"lon":5.37911,"is_reserved":false,"is_disabled":false,"rental_uris":{"android":"levelo://app?vid=27aefe03-bbd2-43d3-8d72-3a7105da9194","ios":"levelo://app?vid=27aefe03-bbd2-43d3-8d72-3a7105da9194"},"vehicle_type_id":"4","last_reported":1762390457,"current_range_meters":12800,"station_id":"","pricing_plan_id":"cebpf4jnsgd1na2vs0mg"},{"bike_id":"c8eff66d-5c91-44f2-9044-6df50d2357ef","system_id":"levelo_inurba_marseille","lat":43.30211,"lon":5.39466,"is_reserved":false,"is_disabled":false,"rental_uris":{"android":"levelo://app?vid=c8eff66d-5c91-44f2-9044-6df50d2357ef","ios":"levelo://app?vid=c8eff66d-5c91-44f2-9044-6df50d2357ef"},"vehicle_type_id":"4","last_reported":1762390457,"current_range_meters":12800,"station_id":"ce4bh0p2rcd13ifvqd70","pricing_plan_id":"cebpf4jnsgd1na2vs0mg"},{"bike_id":"041e03b6-318f-43c0-9c62-29c75db7da86","system_id":"levelo_inurba_marseille","lat":43.2846,"lon":5.35887,"is_reserved":false,"is_disabled":false,"rental_uris":{"android":"levelo://app?vid=041e03b6-318f-43c0-9c62-29c75db7da86","ios":"levelo://app?vid=041e03b6-318f-43c0-9c62-29c75db7da86"},"vehicle_type_id":"4","last_reported":1762390457,"current_range_meters":13600,"station_id":"ce4bhah2rcd13ifvqei0","pricing_plan_id":"cebpf4jnsgd1na2vs0mg"},{"bike_id":"197d47e0-ef3e-4972-9b57-3a3f34959857","system_id":"levelo_inurba_marseille","lat":43.25092,"lon":5.39509,"is_reserved":false,"is_disabled":false,"rental_uris":{"android":"levelo://app?vid=197d47e0-ef3e-4972-9b57-3a3f34959857","ios":"levelo://app?vid=197d47e0-ef3e-4972-9b57-3a3f34959857"},"vehicle_type_id":"4","last_reported":1762390457,"current_range_meters":13600,"station_id":"ce4bhm12rcd13ifvqgkg","pricing_plan_id":"cebpf4jnsgd1na2vs0mg"},{"bike_id":"07f5d945-0a2b-4d3e-8d40-c91ebaa88b83","system_id":"levelo_inurba_marseille","lat":43.29269,"lon":5.37629,"is_reserved":false,"is_disabled":false,"rental_uris":{"android":"levelo://app?vid=07f5d945-0a2b-4d3e-8d40-c91ebaa88b83","ios":"levelo://app?vid=07f5d945-0a2b-4d3e-8d40-c91ebaa88b83"},"vehicle_type_id":"4","last_reported":1762390457,"current_range_meters":13600,"station_id":"ce4bgi12rcd13ifvqb80","pricing_plan_id":"cebpf4jnsgd1na2vs0mg"},{"bike_id":"87a10309-6c68-4ef3-9be9-a153292838ba","system_id":"levelo_inurba_marseille","lat":43.29563,"lon":5.4228,"is_reserved":false,"is_disabled":false,"rental_uris":{"android":"levelo://app?vid=87a10309-6c68-4ef3-9be9-a153292838ba","ios":"levelo://app?vid=87a10309-6c68-4ef3-9be9-a153292838ba"},"vehicle_type_id":"4","last_reported":1762390457,"current_range_meters":13600,"station_id":"ce4bhph2rcd13ifvqhdg","pricing_plan_id":"cebpf4jnsgd1na2vs0mg"},{"bike_id":"7a25b64d-6fa2-4ad4-9141-b06b72aaa353","system_id":"levelo_inurba_marseille","lat":43.28433,"lon":5.39189,"is_reserved":false,"is_disabled":false,"rental_uris":{"android":"levelo://app?vid=7a25b64d-6fa2-4ad4-9141-b06b72aaa353","ios":"levelo://app?vid=7a25b64d-6fa2-4ad4-9141-b06b72aaa353"},"vehicle_type_id":"4","last_reported":1762390457,"current_range_meters":13600,"station_id":"ce4bhoh2rcd13ifvqh5g","pricing_plan_id":"cebpf4jnsgd1na2vs0mg"},{"bike_id":"332ea5f8-d8ad-4878-bba6-2a32605882e6","system_id":"levelo_inurba_marseille","lat":43.321025,"lon":5.36767,"is_reserved":false,"is_disabled":false,"rental_uris":{"android":"levelo://app?vid=332ea5f8-d8ad-4878-bba6-2a32605882e6","ios":"levelo://app?vid=332ea5f8-d8ad-4878-bba6-2a32605882e6"},"vehicle_type_id":"4","last_reported":1762390457,"current_range_meters":14000,"station_id":"ce4bhrh2rcd13ifvqhug","pricing_plan_id":"cebpf4jnsgd1na2vs0mg"},{"bike_id":"33ddb411-eb34-4832-88e4-32d267383bf2","system_id":"levelo_inurba_marseille","lat":43.31187,"lon":5.38717,"is_reserved":false,"is_disabled":false,"rental_uris":{"android":"levelo://app?vid=33ddb411-eb34-4832-88e4-32d267383bf2","ios":"levelo://app?vid=33ddb411-eb34-4832-88e4-32d267383bf2"},"vehicle_type_id":"4","last_reported":1762390457,"current_range_meters":14000,"station_id":"ce4bgv12rcd13ifvqcp0","pricing_plan_id":"cebpf4jnsgd1na2vs0mg"},{"bike_id":"88925f59-f28f-4ce7-9ff8-deb2dc653065","system_id":"levelo_inurba_marseille","lat":43.29369,"lon":5.37833,"is_reserved":false,"is_disabled":false,"rental_uris":{"android":"levelo://app?vid=88925f59-f28f-4ce7-9ff8-deb2dc653065","ios":"levelo://app?vid=88925f59-f28f-4ce7-9ff8-deb2dc653065"},"vehicle_type_id":"4","last_reported":1762390457,"current_range_meters":14000,"station_id":"ce4bgjh2rcd13ifvqbf0","pricing_plan_id":"cebpf4jnsgd1na2vs0mg"},{"bike_id":"2513b90c-b4c3-43bd-8303-1097f32912a8","system_id":"levelo_inurba_marseille","lat":43.24941,"lon":5.40496,"is_reserved":false,"is_disabled":false,"rental_uris":{"android":"levelo://app?vid=2513b90c-b4c3-43bd-8303-1097f32912a8","ios":"levelo://app?vid=2513b90c-b4c3-43bd-8303-1097f32912a8"},"vehicle_type_id":"4","last_reported":1762390457,"current_range_meters":14000,"station_id":"st_d2ngiaodas8pm72gd1h0","pricing_plan_id":"cebpf4jnsgd1na2vs0mg"},{"bike_id":"a80322af-ed5b-4292-a927-2fe8792435d5","system_id":"levelo_inurba_marseille","lat":43.290308,"lon":5.38653,"is_reserved":false,"is_disabled":false,"rental_uris":{"android":"levelo://app?vid=a80322af-ed5b-4292-a927-2fe8792435d5","ios":"levelo://app?vid=a80322af-ed5b-4292-a927-2fe8792435d5"},"vehicle_type_id":"4","last_reported":1762390457,"current_range_meters":14000,"station_id":"ce4bh4p2rcd13ifvqe0g","pricing_plan_id":"cebpf4jnsgd1na2vs0mg"},{"bike_id":"2605439a-3630-411a-9a0f-a7a50611d9ac","system_id":"levelo_inurba_marseille","lat":43.29522,"lon":5.39053,"is_reserved":false,"is_disabled":false,"rental_uris":{"android":"levelo://app?vid=2605439a-3630-411a-9a0f-a7a50611d9ac","ios":"levelo://app?vid=2605439a-3630-411a-9a0f-a7a50611d9ac"},"vehicle_type_id":"4","last_reported":1762390457,"current_range_meters":14400,"station_id":"ce4bh3p2rcd13ifvqdp0","pricing_plan_id":"cebpf4jnsgd1na2vs0mg"},{"bike_id":"2c89c3ed-62de-4c74-8e11-a37172c6c77b","system_id":"levelo_inurba_marseille","lat":43.22871,"lon":5.40243,"is_reserved":false,"is_disabled":false,"rental_uris":{"android":"levelo://app?vid=2c89c3ed-62de-4c74-8e11-a37172c6c77b","ios":"levelo://app?vid=2c89c3ed-62de-4c74-8e11-a37172c6c77b"},"vehicle_type_id":"4","last_reported":1762390457,"current_range_meters":14400,"station_id":"","pricing_plan_id":"cebpf4jnsgd1na2vs0mg"},{"bike_id":"12ee6dc6-82d6-424f-8458-a5e060648ef0","system_id":"levelo_inurba_marseille","lat":43.24065,"lon":5.37744,"is_reserved":false,"is_disabled":false,"rental_uris":{"android":"levelo://app?vid=12ee6dc6-82d6-424f-8458-a5e060648ef0","ios":"levelo://app?vid=12ee6dc6-82d6-424f-8458-a5e060648ef0"},"vehicle_type_id":"4","last_reported":1762390457,"current_range_meters":14400,"station_id":"ce4bhnp2rcd13ifvqgvg","pricing_plan_id":"cebpf4jnsgd1na2vs0mg"},{"bike_id":"a2696e34-97f1-49d7-ac25-d06939c134cd","system_id":"levelo_inurba_marseille","lat":43.29251,"lon":5.4091,"is_reserved":false,"is_disabled":false,"rental_uris":{"android":"levelo://app?vid=a2696e34-97f1-49d7-ac25-d06939c134cd","ios":"levelo://app?vid=a2696e34-97f1-49d7-ac25-d06939c134cd"},"vehicle_type_id":"4","last_reported":1762390457,"current_range_meters":14400,"station_id":"ce4bh192rcd13ifvqdc0","pricing_plan_id":"cebpf4jnsgd1na2vs0mg"},{"bike_id":"e1d85cc7-0185-480f-8d63-1ae25e5b4e7d","system_id":"levelo_inurba_marseille","lat":43.305466,"lon":5.384331,"is_reserved":false,"is_disabled":false,"rental_uris":{"android":"levelo://app?vid=e1d85cc7-0185-480f-8d63-1ae25e5b4e7d","ios":"levelo://app?vid=e1d85cc7-0185-480f-8d63-1ae25e5b4e7d"},"vehicle_type_id":"4","last_reported":1762390457,"current_range_meters":14400,"station_id":"ce4bgg92rcd13ifvqb30","pricing_plan_id":"cebpf4jnsgd1na2vs0mg"},{"bike_id":"929999a6-b071-4278-81b4-e68a96607eec","system_id":"levelo_inurba_marseille","lat":43.24059,"lon":5.37764,"is_reserved":false,"is_disabled":false,"rental_uris":{"android":"levelo://app?vid=929999a6-b071-4278-81b4-e68a96607eec","ios":"levelo://app?vid=929999a6-b071-4278-81b4-e68a96607eec"},"vehicle_type_id":"4","last_reported":1762390457,"current_range_meters":14400,"station_id":"ce4bhnp2rcd13ifvqgvg","pricing_plan_id":"cebpf4jnsgd1na2vs0mg"},{"bike_id":"1ccfb4dc-16f9-46fe-ba65-f75ae7cb48db","system_id":"levelo_inurba_marseille","lat":43.25105,"lon":5.40322,"is_reserved":false,"is_disabled":false,"rental_uris":{"android":"levelo://app?vid=1ccfb4dc-16f9-46fe-ba65-f75ae7cb48db","ios":"levelo://app?vid=1ccfb4dc-16f9-46fe-ba65-f75ae7cb48db"},"vehicle_type_id":"4","last_reported":1762390457,"current_range_meters":14400,"station_id":"ce4bhlh2rcd13ifvqgig","pricing_plan_id":"cebpf4jnsgd1na2vs0mg"},{"bike_id":"de986fea-0378-41b3-8656-e85abf015dcc","system_id":"levelo_inurba_marseille","lat":43.31337,"lon":5.39676,"is_reserved":false,"is_disabled":false,"rental_uris":{"android":"levelo://app?vid=de986fea-0378-41b3-8656-e85abf015dcc","ios":"levelo://app?vid=de986fea-0378-41b3-8656-e85abf015dcc"},"vehicle_type_id":"4","last_reported":1762390457,"current_range_meters":14400,"station_id":"ce4bgvp2rcd13ifvqcu0","pricing_plan_id":"cebpf4jnsgd1na2vs0mg"},{"bike_id":"ddeaa719-beea-4500-8aff-3836fff83949","system_id":"levelo_inurba_marseille","lat":43.31266,"lon":5.4676,"is_reserved":false,"is_disabled":false,"rental_uris":{"android":"levelo://app?vid=ddeaa719-beea-4500-8aff-3836fff83949","ios":"levelo://app?vid=ddeaa719-beea-4500-8aff-3836fff83949"},"vehicle_type_id":"4","last_reported":1762390457,"current_range_meters":14400,"station_id":"","pricing_plan_id":"cebpf4jnsgd1na2vs0mg"},{"bike_id":"d77a88e5-20b9-4fe1-89df-69baec122738","system_id":"levelo_inurba_marseille","lat":43.29748,"lon":5.38075,"is_reserved":false,"is_disabled":false,"rental_uris":{"android":"levelo://app?vid=d77a88e5-20b9-4fe1-89df-69baec122738","ios":"levelo://app?vid=d77a88e5-20b9-4fe1-89df-69baec122738"},"vehicle_type_id":"4","last_reported":1762390457,"current_range_meters":14800,"station_id":"","pricing_plan_id":"cebpf4jnsgd1na2vs0mg"},{"bike_id":"7b0ccc67-fc64-4eea-af0c-d2726147d4a5","system_id":"levelo_inurba_marseille","lat":43.23167,"lon":5.39955,"is_reserved":false,"is_disabled":false,"rental_uris":{"android":"levelo://app?vid=7b0ccc67-fc64-4eea-af0c-d2726147d4a5","ios":"levelo://app?vid=7b0ccc67-fc64-4eea-af0c-d2726147d4a5"},"vehicle_type_id":"4","last_reported":1762390457,"current_range_meters":14800,"station_id":"ce4bhn12rcd13ifvqgqg","pricing_plan_id":"cebpf4jnsgd1na2vs0mg"},{"bike_id":"bf6e653b-1755-4bb1-9f29-758bc9d36cd3","system_id":"levelo_inurba_marseille","lat":43.31491,"lon":5.37301,"is_reserved":false,"is_disabled":false,"rental_uris":{"android":"levelo://app?vid=bf6e653b-1755-4bb1-9f29-758bc9d36cd3","ios":"levelo://app?vid=bf6e653b-1755-4bb1-9f29-758bc9d36cd3"},"vehicle_type_id":"4","last_reported":1762390457,"current_range_meters":15200,"station_id":"ce4bgt12rcd13ifvqcd0","pricing_plan_id":"cebpf4jnsgd1na2vs0mg"},{"bike_id":"4d4b8b96-a912-406c-9e11-78bbaf181b71","system_id":"levelo_inurba_marseille","lat":43.24175,"lon":5.3973,"is_reserved":false,"is_disabled":false,"rental_uris":{"android":"levelo://app?vid=4d4b8b96-a912-406c-9e11-78bbaf181b71","ios":"levelo://app?vid=4d4b8b96-a912-406c-9e11-78bbaf181b71"},"vehicle_type_id":"4","last_reported":1762390457,"current_range_meters":15200,"station_id":"ce4bhn12rcd13ifvqgpg","pricing_plan_id":"cebpf4jnsgd1na2vs0mg"},{"bike_id":"f6f51bf1-dc00-4c51-aeb7-527fcb2c47bd","system_id":"levelo_inurba_marseille","lat":43.30931,"lon":5.40155,"is_reserved":false,"is_disabled":false,"rental_uris":{"android":"levelo://app?vid=f6f51bf1-dc00-4c51-aeb7-527fcb2c47bd","ios":"levelo://app?vid=f6f51bf1-dc00-4c51-aeb7-527fcb2c47bd"},"vehicle_type_id":"4","last_reported":1762390457,"current_range_meters":15200,"station_id":"ce4bgvp2rcd13ifvqct0","pricing_plan_id":"cebpf4jnsgd1na2vs0mg"},{"bike_id":"ad9177e6-978e-4438-af89-a92c46b9cff8","system_id":"levelo_inurba_marseille","lat":43.28345,"lon":5.38103,"is_reserved":false,"is_disabled":false,"rental_uris":{"android":"levelo://app?vid=ad9177e6-978e-4438-af89-a92c46b9cff8","ios":"levelo://app?vid=ad9177e6-978e-4438-af89-a92c46b9cff8"},"vehicle_type_id":"4","last_reported":1762390457,"current_range_meters":15200,"station_id":"ce4bh412rcd13ifvqdr0","pricing_plan_id":"cebpf4jnsgd1na2vs0mg"},{"bike_id":"96e6a7cc-7080-4d60-b752-3fefd4e7f887","system_id":"levelo_inurba_marseille","lat":43.28845,"lon":5.35853,"is_reserved":false,"is_disabled":false,"rental_uris":{"android":"levelo://app?vid=96e6a7cc-7080-4d60-b752-3fefd4e7f887","ios":"levelo://app?vid=96e6a7cc-7080-4d60-b752-3fefd4e7f887"},"vehicle_type_id":"4","last_reported":1762390457,"current_range_meters":15200,"station_id":"ce4bhb12rcd13ifvqem0","pricing_plan_id":"cebpf4jnsgd1na2vs0mg"},{"bike_id":"83f0b677-7d19-4265-a5bc-613d01c002ff","system_id":"levelo_inurba_marseille","lat":43.321098,"lon":5.367715,"is_reserved":false,"is_disabled":false,"rental_uris":{"android":"levelo://app?vid=83f0b677-7d19-4265-a5bc-613d01c002ff","ios":"levelo://app?vid=83f0b677-7d19-4265-a5bc-613d01c002ff"},"vehicle_type_id":"4","last_reported":1762390457,"current_range_meters":15200,"station_id":"ce4bhrh2rcd13ifvqhug","pricing_plan_id":"cebpf4jnsgd1na2vs0mg"},{"bike_id":"4409e8e6-e2b1-45fd-ac80-4ccdb4f82c11","system_id":"levelo_inurba_marseille","lat":43.310876,"lon":5.424225,"is_reserved":false,"is_disabled":false,"rental_uris":{"android":"levelo://app?vid=4409e8e6-e2b1-45fd-ac80-4ccdb4f82c11","ios":"levelo://app?vid=4409e8e6-e2b1-45fd-ac80-4ccdb4f82c11"},"vehicle_type_id":"4","last_reported":1762390457,"current_range_meters":16000,"station_id":"ce4bhp92rcd13ifvqhag","pricing_plan_id":"cebpf4jnsgd1na2vs0mg"},{"bike_id":"e8851154-0da3-4c57-af32-b60315ca0a61","system_id":"levelo_inurba_marseille","lat":43.25116,"lon":5.40324,"is_reserved":false,"is_disabled":false,"rental_uris":{"android":"levelo://app?vid=e8851154-0da3-4c57-af32-b60315ca0a61","ios":"levelo://app?vid=e8851154-0da3-4c57-af32-b60315ca0a61"},"vehicle_type_id":"4","last_reported":1762390457,"current_range_meters":16000,"station_id":"ce4bhlh2rcd13ifvqgig","pricing_plan_id":"cebpf4jnsgd1na2vs0mg"},{"bike_id":"1b3a8964-62b3-429e-a834-93ff2b2537e1","system_id":"levelo_inurba_marseille","lat":43.28658,"lon":5.39995,"is_reserved":false,"is_disabled":false,"rental_uris":{"android":"levelo://app?vid=1b3a8964-62b3-429e-a834-93ff2b2537e1","ios":"levelo://app?vid=1b3a8964-62b3-429e-a834-93ff2b2537e1"},"vehicle_type_id":"4","last_reported":1762390457,"current_range_meters":16000,"station_id":"","pricing_plan_id":"cebpf4jnsgd1na2vs0mg"},{"bike_id":"07bfcfe6-a386-40c1-b97e-bf900ddc69da","system_id":"levelo_inurba_marseille","lat":43.25898,"lon":5.40887,"is_reserved":false,"is_disabled":true,"rental_uris":{"android":"levelo://app?vid=07bfcfe6-a386-40c1-b97e-bf900ddc69da","ios":"levelo://app?vid=07bfcfe6-a386-40c1-b97e-bf900ddc69da"},"vehicle_type_id":"4","last_reported":1762390457,"current_range_meters":16000,"station_id":"ce4bhm92rcd13ifvqglg","pricing_plan_id":"cebpf4jnsgd1na2vs0mg"},{"bike_id":"a715c0ef-3857-414c-967a-b5d1a542eb13","system_id":"levelo_inurba_marseille","lat":43.224571,"lon":5.347186,"is_reserved":false,"is_disabled":false,"rental_uris":{"android":"levelo://app?vid=a715c0ef-3857-414c-967a-b5d1a542eb13","ios":"levelo://app?vid=a715c0ef-3857-414c-967a-b5d1a542eb13"},"vehicle_type_id":"4","last_reported":1762390457,"current_range_meters":16000,"station_id":"","pricing_plan_id":"cebpf4jnsgd1na2vs0mg"},{"bike_id":"815f6c5e-c259-40bc-a2f0-13fb20795193","system_id":"levelo_inurba_marseille","lat":43.23996,"lon":5.37752,"is_reserved":false,"is_disabled":false,"rental_uris":{"android":"levelo://app?vid=815f6c5e-c259-40bc-a2f0-13fb20795193","ios":"levelo://app?vid=815f6c5e-c259-40bc-a2f0-13fb20795193"},"vehicle_type_id":"4","last_reported":1762390457,"current_range_meters":16000,"station_id":"","pricing_plan_id":"cebpf4jnsgd1na2vs0mg"},{"bike_id":"c174055a-5793-4272-ab43-bc9c47647071","system_id":"levelo_inurba_marseille","lat":43.2905,"lon":5.38634,"is_reserved":false,"is_disabled":false,"rental_uris":{"android":"levelo://app?vid=c174055a-5793-4272-ab43-bc9c47647071","ios":"levelo://app?vid=c174055a-5793-4272-ab43-bc9c47647071"},"vehicle_type_id":"4","last_reported":1762390457,"current_range_meters":16000,"station_id":"ce4bh4p2rcd13ifvqe0g","pricing_plan_id":"cebpf4jnsgd1na2vs0mg"},{"bike_id":"8c8245c6-a05e-4d5c-b901-53333eca16fc","system_id":"levelo_inurba_marseille","lat":43.22563,"lon":5.41629,"is_reserved":false,"is_disabled":false,"rental_uris":{"android":"levelo://app?vid=8c8245c6-a05e-4d5c-b901-53333eca16fc","ios":"levelo://app?vid=8c8245c6-a05e-4d5c-b901-53333eca16fc"},"vehicle_type_id":"4","last_reported":1762390457,"current_range_meters":16000,"station_id":"st_d2o4gvlbi1j2169b742g","pricing_plan_id":"cebpf4jnsgd1na2vs0mg"},{"bike_id":"eea8facc-b583-4be0-9920-f1b1cb45ddbc","system_id":"levelo_inurba_marseille","lat":43.27375,"lon":5.36265,"is_reserved":false,"is_disabled":false,"rental_uris":{"android":"levelo://app?vid=eea8facc-b583-4be0-9920-f1b1cb45ddbc","ios":"levelo://app?vid=eea8facc-b583-4be0-9920-f1b1cb45ddbc"},"vehicle_type_id":"4","last_reported":1762390457,"current_range_meters":16400,"station_id":"ce4bhbh2rcd13ifvqeo0","pricing_plan_id":"cebpf4jnsgd1na2vs0mg"},{"bike_id":"ac0d2a37-c82c-4568-90bc-f937ccabadc1","system_id":"levelo_inurba_marseille","lat":43.25353,"lon":5.42181,"is_reserved":false,"is_disabled":false,"rental_uris":{"android":"levelo://app?vid=ac0d2a37-c82c-4568-90bc-f937ccabadc1","ios":"levelo://app?vid=ac0d2a37-c82c-4568-90bc-f937ccabadc1"},"vehicle_type_id":"4","last_reported":1762390457,"current_range_meters":16400,"station_id":"st_d2m65c5bi1j21697t3ng","pricing_plan_id":"cebpf4jnsgd1na2vs0mg"},{"bike_id":"b311b2f6-735e-444b-9f9c-f00dfe7c9f6f","system_id":"levelo_inurba_marseille","lat":43.22932,"lon":5.35381,"is_reserved":false,"is_disabled":false,"rental_uris":{"android":"levelo://app?vid=b311b2f6-735e-444b-9f9c-f00dfe7c9f6f","ios":"levelo://app?vid=b311b2f6-735e-444b-9f9c-f00dfe7c9f6f"},"vehicle_type_id":"4","last_reported":1762390457,"current_range_meters":16400,"station_id":"cpo3532slgdg3j2ikp40","pricing_plan_id":"cebpf4jnsgd1na2vs0mg"},{"bike_id":"9d6d3791-8e72-42ad-884a-9a530d16ded3","system_id":"levelo_inurba_marseille","lat":43.24951,"lon":5.40509,"is_reserved":false,"is_disabled":false,"rental_uris":{"android":"levelo://app?vid=9d6d3791-8e72-42ad-884a-9a530d16ded3","ios":"levelo://app?vid=9d6d3791-8e72-42ad-884a-9a530d16ded3"},"vehicle_type_id":"4","last_reported":1762390457,"current_range_meters":16400,"station_id":"st_d2ngiaodas8pm72gd1h0","pricing_plan_id":"cebpf4jnsgd1na2vs0mg"},{"bike_id":"59b31ef2-3fe3-46e5-b5a5-685f264695ce","system_id":"levelo_inurba_marseille","lat":43.284828,"lon":5.484004,"is_reserved":false,"is_disabled":false,"rental_uris":{"android":"levelo://app?vid=59b31ef2-3fe3-46e5-b5a5-685f264695ce","ios":"levelo://app?vid=59b31ef2-3fe3-46e5-b5a5-685f264695ce"},"vehicle_type_id":"4","last_reported":1762390457,"current_range_meters":16400,"station_id":"","pricing_plan_id":"cebpf4jnsgd1na2vs0mg"},{"bike_id":"3ffe2c7b-f27f-49bd-95c3-0ecfbf0880d2","system_id":"levelo_inurba_marseille","lat":43.30714,"lon":5.38454,"is_reserved":false,"is_disabled":false,"rental_uris":{"android":"levelo://app?vid=3ffe2c7b-f27f-49bd-95c3-0ecfbf0880d2","ios":"levelo://app?vid=3ffe2c7b-f27f-49bd-95c3-0ecfbf0880d2"},"vehicle_type_id":"4","last_reported":1762390457,"current_range_meters":16400,"station_id":"","pricing_plan_id":"cebpf4jnsgd1na2vs0mg"},{"bike_id":"71967476-752a-4f5e-b222-99c0eea95f39","system_id":"levelo_inurba_marseille","lat":43.32326,"lon":5.38402,"is_reserved":false,"is_disabled":false,"rental_uris":{"android":"levelo://app?vid=71967476-752a-4f5e-b222-99c0eea95f39","ios":"levelo://app?vid=71967476-752a-4f5e-b222-99c0eea95f39"},"vehicle_type_id":"4","last_reported":1762390457,"current_range_meters":16400,"station_id":"","pricing_plan_id":"cebpf4jnsgd1na2vs0mg"},{"bike_id":"e6386c74-bd9b-47a1-8cd6-cfff4be1db56","system_id":"levelo_inurba_marseille","lat":43.27961,"lon":5.43613,"is_reserved":false,"is_disabled":false,"rental_uris":{"android":"levelo://app?vid=e6386c74-bd9b-47a1-8cd6-cfff4be1db56","ios":"levelo://app?vid=e6386c74-bd9b-47a1-8cd6-cfff4be1db56"},"vehicle_type_id":"4","last_reported":1762390457,"current_range_meters":16400,"station_id":"","pricing_plan_id":"cebpf4jnsgd1na2vs0mg"},{"bike_id":"2643c772-30ac-4411-a635-070b8a7c2af6","system_id":"levelo_inurba_marseille","lat":43.2707,"lon":5.42283,"is_reserved":false,"is_disabled":false,"rental_uris":{"android":"levelo://app?vid=2643c772-30ac-4411-a635-070b8a7c2af6","ios":"levelo://app?vid=2643c772-30ac-4411-a635-070b8a7c2af6"},"vehicle_type_id":"4","last_reported":1762390457,"current_range_meters":16400,"station_id":"ce4bhk92rcd13ifvqgb0","pricing_plan_id":"cebpf4jnsgd1na2vs0mg"},{"bike_id":"65d83eaf-428a-43cd-a356-ecaed95948ff","system_id":"levelo_inurba_marseille","lat":43.2485,"lon":5.39773,"is_reserved":false,"is_disabled":false,"rental_uris":{"android":"levelo://app?vid=65d83eaf-428a-43cd-a356-ecaed95948ff","ios":"levelo://app?vid=65d83eaf-428a-43cd-a356-ecaed95948ff"},"vehicle_type_id":"4","last_reported":1762390457,"current_range_meters":16800,"station_id":"","pricing_plan_id":"cebpf4jnsgd1na2vs0mg"},{"bike_id":"02931a4f-41ca-4d63-991e-b78142ffd2df","system_id":"levelo_inurba_marseille","lat":43.32472,"lon":5.36575,"is_reserved":false,"is_disabled":true,"rental_uris":{"android":"levelo://app?vid=02931a4f-41ca-4d63-991e-b78142ffd2df","ios":"levelo://app?vid=02931a4f-41ca-4d63-991e-b78142ffd2df"},"vehicle_type_id":"4","last_reported":1762390457,"current_range_meters":16800,"station_id":"ce4bhs12rcd13ifvqhvg","pricing_plan_id":"cebpf4jnsgd1na2vs0mg"},{"bike_id":"0d7db708-3004-4c5b-b11b-27003898eadd","system_id":"levelo_inurba_marseille","lat":43.286934,"lon":5.35184,"is_reserved":false,"is_disabled":false,"rental_uris":{"android":"levelo://app?vid=0d7db708-3004-4c5b-b11b-27003898eadd","ios":"levelo://app?vid=0d7db708-3004-4c5b-b11b-27003898eadd"},"vehicle_type_id":"4","last_reported":1762390457,"current_range_meters":16800,"station_id":"","pricing_plan_id":"cebpf4jnsgd1na2vs0mg"},{"bike_id":"1d9df1f2-e349-4d9d-9ca1-5bd6b1126ee9","system_id":"levelo_inurba_marseille","lat":43.23189,"lon":5.35559,"is_reserved":false,"is_disabled":false,"rental_uris":{"android":"levelo://app?vid=1d9df1f2-e349-4d9d-9ca1-5bd6b1126ee9","ios":"levelo://app?vid=1d9df1f2-e349-4d9d-9ca1-5bd6b1126ee9"},"vehicle_type_id":"4","last_reported":1762390457,"current_range_meters":16800,"station_id":"ce4bhu92rcd13ifvqi70","pricing_plan_id":"cebpf4jnsgd1na2vs0mg"},{"bike_id":"e9a2d578-2add-4e55-a5a1-2ded329f9de3","system_id":"levelo_inurba_marseille","lat":43.28446,"lon":5.39203,"is_reserved":false,"is_disabled":false,"rental_uris":{"android":"levelo://app?vid=e9a2d578-2add-4e55-a5a1-2ded329f9de3","ios":"levelo://app?vid=e9a2d578-2add-4e55-a5a1-2ded329f9de3"},"vehicle_type_id":"4","last_reported":1762390457,"current_range_meters":16800,"station_id":"ce4bhoh2rcd13ifvqh5g","pricing_plan_id":"cebpf4jnsgd1na2vs0mg"},{"bike_id":"f8411bb5-9300-4a51-8c4d-b64946c42cc8","system_id":"levelo_inurba_marseille","lat":43.3193,"lon":5.42907,"is_reserved":false,"is_disabled":false,"rental_uris":{"android":"levelo://app?vid=f8411bb5-9300-4a51-8c4d-b64946c42cc8","ios":"levelo://app?vid=f8411bb5-9300-4a51-8c4d-b64946c42cc8"},"vehicle_type_id":"4","last_reported":1762390457,"current_range_meters":17200,"station_id":"","pricing_plan_id":"cebpf4jnsgd1na2vs0mg"},{"bike_id":"3aef97ee-c77f-40ee-b513-0ec274555b26","system_id":"levelo_inurba_marseille","lat":43.258647,"lon":5.399018,"is_reserved":false,"is_disabled":false,"rental_uris":{"android":"levelo://app?vid=3aef97ee-c77f-40ee-b513-0ec274555b26","ios":"levelo://app?vid=3aef97ee-c77f-40ee-b513-0ec274555b26"},"vehicle_type_id":"4","last_reported":1762390457,"current_range_meters":17200,"station_id":"","pricing_plan_id":"cebpf4jnsgd1na2vs0mg"},{"bike_id":"16ef74b7-1203-4a9a-8afd-2d12a6594735","system_id":"levelo_inurba_marseille","lat":43.25829,"lon":5.39438,"is_reserved":false,"is_disabled":false,"rental_uris":{"android":"levelo://app?vid=16ef74b7-1203-4a9a-8afd-2d12a6594735","ios":"levelo://app?vid=16ef74b7-1203-4a9a-8afd-2d12a6594735"},"vehicle_type_id":"4","last_reported":1762390457,"current_range_meters":17200,"station_id":"ce4bhip2rcd13ifvqft0","pricing_plan_id":"cebpf4jnsgd1na2vs0mg"},{"bike_id":"5f433812-4992-4556-8bea-3ef019818e9b","system_id":"levelo_inurba_marseille","lat":43.30023,"lon":5.36549,"is_reserved":false,"is_disabled":false,"rental_uris":{"android":"levelo://app?vid=5f433812-4992-4556-8bea-3ef019818e9b","ios":"levelo://app?vid=5f433812-4992-4556-8bea-3ef019818e9b"},"vehicle_type_id":"4","last_reported":1762390457,"current_range_meters":17200,"station_id":"","pricing_plan_id":"cebpf4jnsgd1na2vs0mg"},{"bike_id":"2a56320a-0ebb-4a50-92bc-218516def051","system_id":"levelo_inurba_marseille","lat":43.32,"lon":5.38139,"is_reserved":false,"is_disabled":false,"rental_uris":{"android":"levelo://app?vid=2a56320a-0ebb-4a50-92bc-218516def051","ios":"levelo://app?vid=2a56320a-0ebb-4a50-92bc-218516def051"},"vehicle_type_id":"4","last_reported":1762390457,"current_range_meters":17200,"station_id":"ce4bhr12rcd13ifvqhpg","pricing_plan_id":"cebpf4jnsgd1na2vs0mg"},{"bike_id":"244095bd-499e-4c67-af17-4130a6954232","system_id":"levelo_inurba_marseille","lat":43.28429,"lon":5.39183,"is_reserved":false,"is_disabled":false,"rental_uris":{"android":"levelo://app?vid=244095bd-499e-4c67-af17-4130a6954232","ios":"levelo://app?vid=244095bd-499e-4c67-af17-4130a6954232"},"vehicle_type_id":"4","last_reported":1762390457,"current_range_meters":17200,"station_id":"ce4bhoh2rcd13ifvqh5g","pricing_plan_id":"cebpf4jnsgd1na2vs0mg"},{"bike_id":"7a2f2a6b-85e0-408b-9008-d883cf8a7bd7","system_id":"levelo_inurba_marseille","lat":43.24647,"lon":5.4313,"is_reserved":false,"is_disabled":false,"rental_uris":{"android":"levelo://app?vid=7a2f2a6b-85e0-408b-9008-d883cf8a7bd7","ios":"levelo://app?vid=7a2f2a6b-85e0-408b-9008-d883cf8a7bd7"},"vehicle_type_id":"4","last_reported":1762390457,"current_range_meters":17200,"station_id":"st_d2m6c4gdas8pm72e190g","pricing_plan_id":"cebpf4jnsgd1na2vs0mg"},{"bike_id":"0d03f15f-9762-4188-bea0-0a9ee849423b","system_id":"levelo_inurba_marseille","lat":43.290415,"lon":5.359047,"is_reserved":false,"is_disabled":false,"rental_uris":{"android":"levelo://app?vid=0d03f15f-9762-4188-bea0-0a9ee849423b","ios":"levelo://app?vid=0d03f15f-9762-4188-bea0-0a9ee849423b"},"vehicle_type_id":"4","last_reported":1762390457,"current_range_meters":17200,"station_id":"ce4bha92rcd13ifvqeg0","pricing_plan_id":"cebpf4jnsgd1na2vs0mg"},{"bike_id":"9f2da96b-e073-41e9-9cb6-b8c289d4a763","system_id":"levelo_inurba_marseille","lat":43.23188,"lon":5.39986,"is_reserved":false,"is_disabled":false,"rental_uris":{"android":"levelo://app?vid=9f2da96b-e073-41e9-9cb6-b8c289d4a763","ios":"levelo://app?vid=9f2da96b-e073-41e9-9cb6-b8c289d4a763"},"vehicle_type_id":"4","last_reported":1762390457,"current_range_meters":17200,"station_id":"ce4bhn12rcd13ifvqgqg","pricing_plan_id":"cebpf4jnsgd1na2vs0mg"},{"bike_id":"69db6558-ca85-4c68-8712-1aae127718f4","system_id":"levelo_inurba_marseille","lat":43.24948,"lon":5.40494,"is_reserved":false,"is_disabled":false,"rental_uris":{"android":"levelo://app?vid=69db6558-ca85-4c68-8712-1aae127718f4","ios":"levelo://app?vid=69db6558-ca85-4c68-8712-1aae127718f4"},"vehicle_type_id":"4","last_reported":1762390457,"current_range_meters":17200,"station_id":"st_d2ngiaodas8pm72gd1h0","pricing_plan_id":"cebpf4jnsgd1na2vs0mg"},{"bike_id":"e22b345d-4f89-4072-adbf-98664e18b0de","system_id":"levelo_inurba_marseille","lat":43.21188,"lon":5.35076,"is_reserved":false,"is_disabled":false,"rental_uris":{"android":"levelo://app?vid=e22b345d-4f89-4072-adbf-98664e18b0de","ios":"levelo://app?vid=e22b345d-4f89-4072-adbf-98664e18b0de"},"vehicle_type_id":"4","last_reported":1762390457,"current_range_meters":17200,"station_id":"st_cvj6sg6p6f1abm77japg","pricing_plan_id":"cebpf4jnsgd1na2vs0mg"},{"bike_id":"74cc836b-db19-4aba-9aac-ac4e38ba153b","system_id":"levelo_inurba_marseille","lat":43.30645,"lon":5.4009,"is_reserved":false,"is_disabled":false,"rental_uris":{"android":"levelo://app?vid=74cc836b-db19-4aba-9aac-ac4e38ba153b","ios":"levelo://app?vid=74cc836b-db19-4aba-9aac-ac4e38ba153b"},"vehicle_type_id":"4","last_reported":1762390457,"current_range_meters":17200,"station_id":"ce4bh112rcd13ifvqda0","pricing_plan_id":"cebpf4jnsgd1na2vs0mg"},{"bike_id":"5320d5e3-ae19-4bcf-9738-20f74763c067","system_id":"levelo_inurba_marseille","lat":43.311175,"lon":5.377728,"is_reserved":false,"is_disabled":false,"rental_uris":{"android":"levelo://app?vid=5320d5e3-ae19-4bcf-9738-20f74763c067","ios":"levelo://app?vid=5320d5e3-ae19-4bcf-9738-20f74763c067"},"vehicle_type_id":"4","last_reported":1762390457,"current_range_meters":17600,"station_id":"ce4bgt92rcd13ifvqcg0","pricing_plan_id":"cebpf4jnsgd1na2vs0mg"},{"bike_id":"54beb56b-6fba-4aae-840b-7823b2db7357","system_id":"levelo_inurba_marseille","lat":43.2534,"lon":5.42172,"is_reserved":false,"is_disabled":false,"rental_uris":{"android":"levelo://app?vid=54beb56b-6fba-4aae-840b-7823b2db7357","ios":"levelo://app?vid=54beb56b-6fba-4aae-840b-7823b2db7357"},"vehicle_type_id":"4","last_reported":1762390457,"current_range_meters":17600,"station_id":"st_d2m65c5bi1j21697t3ng","pricing_plan_id":"cebpf4jnsgd1na2vs0mg"},{"bike_id":"459043f2-13d4-4daa-aed3-ac275c423216","system_id":"levelo_inurba_marseille","lat":43.25834,"lon":5.39441,"is_reserved":false,"is_disabled":false,"rental_uris":{"android":"levelo://app?vid=459043f2-13d4-4daa-aed3-ac275c423216","ios":"levelo://app?vid=459043f2-13d4-4daa-aed3-ac275c423216"},"vehicle_type_id":"4","last_reported":1762390457,"current_range_meters":17600,"station_id":"ce4bhip2rcd13ifvqft0","pricing_plan_id":"cebpf4jnsgd1na2vs0mg"},{"bike_id":"b6db2538-9bce-4338-a66d-d5290acf906a","system_id":"levelo_inurba_marseille","lat":43.29979,"lon":5.37175,"is_reserved":false,"is_disabled":false,"rental_uris":{"android":"levelo://app?vid=b6db2538-9bce-4338-a66d-d5290acf906a","ios":"levelo://app?vid=b6db2538-9bce-4338-a66d-d5290acf906a"},"vehicle_type_id":"4","last_reported":1762390457,"current_range_meters":17600,"station_id":"ce4bgr92rcd13ifvqc7g","pricing_plan_id":"cebpf4jnsgd1na2vs0mg"},{"bike_id":"58913ae0-74ea-49b4-8d46-6c500447e71d","system_id":"levelo_inurba_marseille","lat":43.29907,"lon":5.37659,"is_reserved":false,"is_disabled":false,"rental_uris":{"android":"levelo://app?vid=58913ae0-74ea-49b4-8d46-6c500447e71d","ios":"levelo://app?vid=58913ae0-74ea-49b4-8d46-6c500447e71d"},"vehicle_type_id":"4","last_reported":1762390457,"current_range_meters":17600,"station_id":"","pricing_plan_id":"cebpf4jnsgd1na2vs0mg"},{"bike_id":"43cfab9e-f547-4304-9999-4a8329474751","system_id":"levelo_inurba_marseille","lat":43.21178,"lon":5.35065,"is_reserved":false,"is_disabled":false,"rental_uris":{"android":"levelo://app?vid=43cfab9e-f547-4304-9999-4a8329474751","ios":"levelo://app?vid=43cfab9e-f547-4304-9999-4a8329474751"},"vehicle_type_id":"4","last_reported":1762390457,"current_range_meters":17600,"station_id":"st_cvj6sg6p6f1abm77japg","pricing_plan_id":"cebpf4jnsgd1na2vs0mg"},{"bike_id":"d6868fe2-8dfb-4b03-9b67-46fb9e01fade","system_id":"levelo_inurba_marseille","lat":43.28271,"lon":5.35061,"is_reserved":false,"is_disabled":true,"rental_uris":{"android":"levelo://app?vid=d6868fe2-8dfb-4b03-9b67-46fb9e01fade","ios":"levelo://app?vid=d6868fe2-8dfb-4b03-9b67-46fb9e01fade"},"vehicle_type_id":"4","last_reported":1762390457,"current_range_meters":17600,"station_id":"ce4bhbp2rcd13ifvqerg","pricing_plan_id":"cebpf4jnsgd1na2vs0mg"},{"bike_id":"d0581743-e06c-4ad1-9f8a-41b25975ba07","system_id":"levelo_inurba_marseille","lat":43.29828,"lon":5.44058,"is_reserved":false,"is_disabled":false,"rental_uris":{"android":"levelo://app?vid=d0581743-e06c-4ad1-9f8a-41b25975ba07","ios":"levelo://app?vid=d0581743-e06c-4ad1-9f8a-41b25975ba07"},"vehicle_type_id":"4","last_reported":1762390457,"current_range_meters":17600,"station_id":"st_d3jp68qikq2c7381ktn0","pricing_plan_id":"cebpf4jnsgd1na2vs0mg"},{"bike_id":"2be4c882-9d59-4e62-a764-c98c2e943009","system_id":"levelo_inurba_marseille","lat":43.292226,"lon":5.360594,"is_reserved":false,"is_disabled":false,"rental_uris":{"android":"levelo://app?vid=2be4c882-9d59-4e62-a764-c98c2e943009","ios":"levelo://app?vid=2be4c882-9d59-4e62-a764-c98c2e943009"},"vehicle_type_id":"4","last_reported":1762390457,"current_range_meters":18000,"station_id":"","pricing_plan_id":"cebpf4jnsgd1na2vs0mg"},{"bike_id":"917a643b-60ef-49a9-b797-4e58fec456a8","system_id":"levelo_inurba_marseille","lat":43.27817,"lon":5.40708,"is_reserved":false,"is_disabled":false,"rental_uris":{"android":"levelo://app?vid=917a643b-60ef-49a9-b797-4e58fec456a8","ios":"levelo://app?vid=917a643b-60ef-49a9-b797-4e58fec456a8"},"vehicle_type_id":"4","last_reported":1762390457,"current_range_meters":18000,"station_id":"ce4bhnh2rcd13ifvqgtg","pricing_plan_id":"cebpf4jnsgd1na2vs0mg"},{"bike_id":"74dee6d8-3cad-475e-84e0-aa09e63581ae","system_id":"levelo_inurba_marseille","lat":43.3066,"lon":5.4008,"is_reserved":false,"is_disabled":false,"rental_uris":{"android":"levelo://app?vid=74dee6d8-3cad-475e-84e0-aa09e63581ae","ios":"levelo://app?vid=74dee6d8-3cad-475e-84e0-aa09e63581ae"},"vehicle_type_id":"4","last_reported":1762390457,"current_range_meters":18000,"station_id":"ce4bh112rcd13ifvqda0","pricing_plan_id":"cebpf4jnsgd1na2vs0mg"},{"bike_id":"a4ced301-fa4d-4c26-b256-2eb51f11317b","system_id":"levelo_inurba_marseille","lat":43.28463,"lon":5.35877,"is_reserved":false,"is_disabled":false,"rental_uris":{"android":"levelo://app?vid=a4ced301-fa4d-4c26-b256-2eb51f11317b","ios":"levelo://app?vid=a4ced301-fa4d-4c26-b256-2eb51f11317b"},"vehicle_type_id":"4","last_reported":1762390457,"current_range_meters":18000,"station_id":"ce4bhah2rcd13ifvqei0","pricing_plan_id":"cebpf4jnsgd1na2vs0mg"},{"bike_id":"a605b0fd-b5bf-4eaf-8b03-728b65b443bb","system_id":"levelo_inurba_marseille","lat":43.30611,"lon":5.40467,"is_reserved":false,"is_disabled":false,"rental_uris":{"android":"levelo://app?vid=a605b0fd-b5bf-4eaf-8b03-728b65b443bb","ios":"levelo://app?vid=a605b0fd-b5bf-4eaf-8b03-728b65b443bb"},"vehicle_type_id":"4","last_reported":1762390457,"current_range_meters":18000,"station_id":"","pricing_plan_id":"cebpf4jnsgd1na2vs0mg"},{"bike_id":"e891f061-a38f-4c7a-b1ff-14ff94e2c0fd","system_id":"levelo_inurba_marseille","lat":43.28852,"lon":5.39328,"is_reserved":false,"is_disabled":true,"rental_uris":{"android":"levelo://app?vid=e891f061-a38f-4c7a-b1ff-14ff94e2c0fd","ios":"levelo://app?vid=e891f061-a38f-4c7a-b1ff-14ff94e2c0fd"},"vehicle_type_id":"4","last_reported":1762390457,"current_range_meters":18000,"station_id":"ce4bh2p2rcd13ifvqdi0","pricing_plan_id":"cebpf4jnsgd1na2vs0mg"},{"bike_id":"cf96f68b-a2fe-4d3d-8bbd-f8857eadb1df","system_id":"levelo_inurba_marseille","lat":43.30426,"lon":5.38881,"is_reserved":false,"is_disabled":false,"rental_uris":{"android":"levelo://app?vid=cf96f68b-a2fe-4d3d-8bbd-f8857eadb1df","ios":"levelo://app?vid=cf96f68b-a2fe-4d3d-8bbd-f8857eadb1df"},"vehicle_type_id":"4","last_reported":1762390457,"current_range_meters":18000,"station_id":"ce4bgk12rcd13ifvqbi0","pricing_plan_id":"cebpf4jnsgd1na2vs0mg"},{"bike_id":"01a57c46-f341-402c-aa52-948cd1c63408","system_id":"levelo_inurba_marseille","lat":43.27813,"lon":5.40717,"is_reserved":false,"is_disabled":false,"rental_uris":{"android":"levelo://app?vid=01a57c46-f341-402c-aa52-948cd1c63408","ios":"levelo://app?vid=01a57c46-f341-402c-aa52-948cd1c63408"},"vehicle_type_id":"4","last_reported":1762390457,"current_range_meters":18800,"station_id":"ce4bhnh2rcd13ifvqgtg","pricing_plan_id":"cebpf4jnsgd1na2vs0mg"},{"bike_id":"1c1406c3-ccbf-4c7e-948d-af3d562996c8","system_id":"levelo_inurba_marseille","lat":43.29819,"lon":5.44068,"is_reserved":false,"is_disabled":false,"rental_uris":{"android":"levelo://app?vid=1c1406c3-ccbf-4c7e-948d-af3d562996c8","ios":"levelo://app?vid=1c1406c3-ccbf-4c7e-948d-af3d562996c8"},"vehicle_type_id":"4","last_reported":1762390457,"current_range_meters":18800,"station_id":"st_d3jp68qikq2c7381ktn0","pricing_plan_id":"cebpf4jnsgd1na2vs0mg"},{"bike_id":"9996224b-dea5-4edb-b09a-1f8757625f95","system_id":"levelo_inurba_marseille","lat":43.24083,"lon":5.37753,"is_reserved":false,"is_disabled":false,"rental_uris":{"android":"levelo://app?vid=9996224b-dea5-4edb-b09a-1f8757625f95","ios":"levelo://app?vid=9996224b-dea5-4edb-b09a-1f8757625f95"},"vehicle_type_id":"4","last_reported":1762390457,"current_range_meters":18800,"station_id":"ce4bhnp2rcd13ifvqgvg","pricing_plan_id":"cebpf4jnsgd1na2vs0mg"},{"bike_id":"c5ec7fa2-c5ef-4b8a-b5d9-cfae452a02be","system_id":"levelo_inurba_marseille","lat":43.30924,"lon":5.40145,"is_reserved":false,"is_disabled":false,"rental_uris":{"android":"levelo://app?vid=c5ec7fa2-c5ef-4b8a-b5d9-cfae452a02be","ios":"levelo://app?vid=c5ec7fa2-c5ef-4b8a-b5d9-cfae452a02be"},"vehicle_type_id":"4","last_reported":1762390457,"current_range_meters":18800,"station_id":"ce4bgvp2rcd13ifvqct0","pricing_plan_id":"cebpf4jnsgd1na2vs0mg"},{"bike_id":"4db561fa-0133-449c-a0eb-011343a5bd3a","system_id":"levelo_inurba_marseille","lat":43.289645,"lon":5.425804,"is_reserved":false,"is_disabled":false,"rental_uris":{"android":"levelo://app?vid=4db561fa-0133-449c-a0eb-011343a5bd3a","ios":"levelo://app?vid=4db561fa-0133-449c-a0eb-011343a5bd3a"},"vehicle_type_id":"4","last_reported":1762390457,"current_range_meters":18800,"station_id":"","pricing_plan_id":"cebpf4jnsgd1na2vs0mg"},{"bike_id":"a6084a45-0548-4845-9679-f32d15c7d68b","system_id":"levelo_inurba_marseille","lat":43.23779,"lon":5.36633,"is_reserved":false,"is_disabled":false,"rental_uris":{"android":"levelo://app?vid=a6084a45-0548-4845-9679-f32d15c7d68b","ios":"levelo://app?vid=a6084a45-0548-4845-9679-f32d15c7d68b"},"vehicle_type_id":"4","last_reported":1762390457,"current_range_meters":18800,"station_id":"st_d3nk18o9ro0c73en2l3g","pricing_plan_id":"cebpf4jnsgd1na2vs0mg"},{"bike_id":"5ef84235-eddd-425b-8be4-c31c46a00271","system_id":"levelo_inurba_marseille","lat":43.241711,"lon":5.364031,"is_reserved":false,"is_disabled":false,"rental_uris":{"android":"levelo://app?vid=5ef84235-eddd-425b-8be4-c31c46a00271","ios":"levelo://app?vid=5ef84235-eddd-425b-8be4-c31c46a00271"},"vehicle_type_id":"4","last_reported":1762390457,"current_range_meters":18800,"station_id":"cpo36qri1sfpv3e86is0","pricing_plan_id":"cebpf4jnsgd1na2vs0mg"},{"bike_id":"1e9f5669-3475-451a-989d-24b8ca3b7ffc","system_id":"levelo_inurba_marseille","lat":43.30889,"lon":5.3965,"is_reserved":false,"is_disabled":false,"rental_uris":{"android":"levelo://app?vid=1e9f5669-3475-451a-989d-24b8ca3b7ffc","ios":"levelo://app?vid=1e9f5669-3475-451a-989d-24b8ca3b7ffc"},"vehicle_type_id":"4","last_reported":1762390457,"current_range_meters":18800,"station_id":"ce4bh012rcd13ifvqcv0","pricing_plan_id":"cebpf4jnsgd1na2vs0mg"},{"bike_id":"22e1598f-e953-41bb-8799-f15e4e25cd3f","system_id":"levelo_inurba_marseille","lat":43.290957,"lon":5.381503,"is_reserved":false,"is_disabled":true,"rental_uris":{"android":"levelo://app?vid=22e1598f-e953-41bb-8799-f15e4e25cd3f","ios":"levelo://app?vid=22e1598f-e953-41bb-8799-f15e4e25cd3f"},"vehicle_type_id":"4","last_reported":1762390457,"current_range_meters":18800,"station_id":"ce4bh512rcd13ifvqe2g","pricing_plan_id":"cebpf4jnsgd1na2vs0mg"},{"bike_id":"8d8bd3ff-7b43-4456-afe3-853982539b21","system_id":"levelo_inurba_marseille","lat":43.28463,"lon":5.35891,"is_reserved":false,"is_disabled":false,"rental_uris":{"android":"levelo://app?vid=8d8bd3ff-7b43-4456-afe3-853982539b21","ios":"levelo://app?vid=8d8bd3ff-7b43-4456-afe3-853982539b21"},"vehicle_type_id":"4","last_reported":1762390457,"current_range_meters":19200,"station_id":"ce4bhah2rcd13ifvqei0","pricing_plan_id":"cebpf4jnsgd1na2vs0mg"},{"bike_id":"ee1042f8-d88a-46aa-a342-278040f0e482","system_id":"levelo_inurba_marseille","lat":43.28599,"lon":5.38503,"is_reserved":false,"is_disabled":true,"rental_uris":{"android":"levelo://app?vid=ee1042f8-d88a-46aa-a342-278040f0e482","ios":"levelo://app?vid=ee1042f8-d88a-46aa-a342-278040f0e482"},"vehicle_type_id":"4","last_reported":1762390457,"current_range_meters":19200,"station_id":"","pricing_plan_id":"cebpf4jnsgd1na2vs0mg"},{"bike_id":"d98fae59-ff60-41e6-b471-90b576c490fa","system_id":"levelo_inurba_marseille","lat":43.29196,"lon":5.35798,"is_reserved":false,"is_disabled":true,"rental_uris":{"android":"levelo://app?vid=d98fae59-ff60-41e6-b471-90b576c490fa","ios":"levelo://app?vid=d98fae59-ff60-41e6-b471-90b576c490fa"},"vehicle_type_id":"4","last_reported":1762390457,"current_range_meters":19200,"station_id":"ce4bhb12rcd13ifvqel0","pricing_plan_id":"cebpf4jnsgd1na2vs0mg"},{"bike_id":"91bb12c7-2827-42b8-b3c8-c74ccf87e60c","system_id":"levelo_inurba_marseille","lat":43.29254,"lon":5.40918,"is_reserved":false,"is_disabled":false,"rental_uris":{"android":"levelo://app?vid=91bb12c7-2827-42b8-b3c8-c74ccf87e60c","ios":"levelo://app?vid=91bb12c7-2827-42b8-b3c8-c74ccf87e60c"},"vehicle_type_id":"4","last_reported":1762390457,"current_range_meters":19200,"station_id":"ce4bh192rcd13ifvqdc0","pricing_plan_id":"cebpf4jnsgd1na2vs0mg"},{"bike_id":"c8f136e5-31d7-40da-91e8-58d3251aaaa1","system_id":"levelo_inurba_marseille","lat":43.29261,"lon":5.36848,"is_reserved":false,"is_disabled":true,"rental_uris":{"android":"levelo://app?vid=c8f136e5-31d7-40da-91e8-58d3251aaaa1","ios":"levelo://app?vid=c8f136e5-31d7-40da-91e8-58d3251aaaa1"},"vehicle_type_id":"4","last_reported":1762390457,"current_range_meters":19200,"station_id":"ce4bhbp2rcd13ifvqesg","pricing_plan_id":"cebpf4jnsgd1na2vs0mg"},{"bike_id":"b2ee5b49-600b-4507-ad32-80e18dcfde19","system_id":"levelo_inurba_marseille","lat":43.24062,"lon":5.37758,"is_reserved":false,"is_disabled":false,"rental_uris":{"android":"levelo://app?vid=b2ee5b49-600b-4507-ad32-80e18dcfde19","ios":"levelo://app?vid=b2ee5b49-600b-4507-ad32-80e18dcfde19"},"vehicle_type_id":"4","last_reported":1762390457,"current_range_meters":19200,"station_id":"ce4bhnp2rcd13ifvqgvg","pricing_plan_id":"cebpf4jnsgd1na2vs0mg"},{"bike_id":"3728b334-eb14-4eb8-a7a8-fdf9b82c262f","system_id":"levelo_inurba_marseille","lat":43.295699,"lon":5.399685,"is_reserved":false,"is_disabled":false,"rental_uris":{"android":"levelo://app?vid=3728b334-eb14-4eb8-a7a8-fdf9b82c262f","ios":"levelo://app?vid=3728b334-eb14-4eb8-a7a8-fdf9b82c262f"},"vehicle_type_id":"4","last_reported":1762390457,"current_range_meters":19200,"station_id":"ce4bh312rcd13ifvqdj0","pricing_plan_id":"cebpf4jnsgd1na2vs0mg"},{"bike_id":"2f60ae86-cadf-4637-ad0b-622bd746adf1","system_id":"levelo_inurba_marseille","lat":43.283433,"lon":5.375062,"is_reserved":false,"is_disabled":false,"rental_uris":{"android":"levelo://app?vid=2f60ae86-cadf-4637-ad0b-622bd746adf1","ios":"levelo://app?vid=2f60ae86-cadf-4637-ad0b-622bd746adf1"},"vehicle_type_id":"4","last_reported":1762390457,"current_range_meters":19200,"station_id":"","pricing_plan_id":"cebpf4jnsgd1na2vs0mg"},{"bike_id":"f20df5d1-4102-48a9-8df3-bba4e71f31e8","system_id":"levelo_inurba_marseille","lat":43.2935,"lon":5.37621,"is_reserved":false,"is_disabled":false,"rental_uris":{"android":"levelo://app?vid=f20df5d1-4102-48a9-8df3-bba4e71f31e8","ios":"levelo://app?vid=f20df5d1-4102-48a9-8df3-bba4e71f31e8"},"vehicle_type_id":"4","last_reported":1762390457,"current_range_meters":19200,"station_id":"","pricing_plan_id":"cebpf4jnsgd1na2vs0mg"},