{"last_updated":1723295386,"ttl":30,"version":"2.2","data":{"bikes":[{"bike_id":"c02a821f-6fc9-4898-82b3-df4bf3cecbf5","system_id":"levelo_inurba_marseille","lat":43.30957,"lon":5.36819,"is_reserved":false,"is_disabled":false,"rental_uris":{"android":"levelo://app?vid=c02a821f-6fc9-4898-82b3-df4bf3cecbf5","ios":"levelo://app?vid=c02a821f-6fc9-4898-82b3-df4bf3cecbf5"},"vehicle_type_id":"4","last_reported":1723295386,"current_range_meters":2800,"station_id":"","pricing_plan_id":"cebpf4jnsgd1na2vs0mg"},{"bike_id":"6eec8c8d-b42e-4a5a-9cce-89b98f9c9b0d","system_id":"levelo_inurba_marseille","lat":43.309076,"lon":5.368465,"is_reserved":false,"is_disabled":false,"rental_uris":{"android":"levelo://app?vid=6eec8c8d-b42e-4a5a-9cce-89b98f9c9b0d","ios":"levelo://app?vid=6eec8c8d-b42e-4a5a-9cce-89b98f9c9b0d"},"vehicle_type_id":"4","last_reported":1723295386,"current_range_meters":28000,"station_id":"ce4bgn92rcd13ifvqbvg","pricing_plan_id":"cebpf4jnsgd1na2vs0mg"},{"bike_id":"9a00a04c-1752-4461-9212-ed63e9bbc93c","system_id":"levelo_inurba_marseille","lat":43.314811,"lon":5.373103,"is_reserved":false,"is_disabled":false,"rental_uris":{"android":"levelo://app?vid=9a00a04c-1752-4461-9212-ed63e9bbc93c","ios":"levelo://app?vid=9a00a04c-1752-4461-9212-ed63e9bbc93c"},"vehicle_type_id":"4","last_reported":1723295386,"current_range_meters":28400,"station_id":"ce4bgt12rcd13ifvqcd0","pricing_plan_id":"cebpf4jnsgd1na2vs0mg"},{"bike_id":"b50d5bfa-5edc-45e8-a8a4-5e571f6a9348","system_id":"levelo_inurba_marseille","lat":43.314811,"lon":5.373103,"is_reserved":false,"is_disabled":false,"rental_uris":{"android":"levelo://app?vid=b50d5bfa-5edc-45e8-a8a4-5e571f6a9348","ios":"levelo://app?vid=b50d5bfa-5edc-45e8-a8a4-5e571f6a9348"},"vehicle_type_id":"4","last_reported":1723295386,"current_range_meters":28000,"station_id":"ce4bgt12rcd13ifvqcd0","pricing_plan_id":"cebpf4jnsgd1na2vs0mg"},{"bike_id":"58fe8e39-9a31-477c-8587-41d33f84852e","system_id":"levelo_inurba_marseille","lat":43.314811,"lon":5.373104,"is_reserved":false,"is_disabled":false,"rental_uris":{"android":"levelo://app?vid=58fe8e39-9a31-477c-8587-41d33f84852e","ios":"levelo://app?vid=58fe8e39-9a31-477c-8587-41d33f84852e"},"vehicle_type_id":"4","last_reported":1723295386,"current_range_meters":12400,"station_id":"ce4bgt12rcd13ifvqcd0","pricing_plan_id":"cebpf4jnsgd1na2vs0mg"},{"bike_id":"01d3ffce-a373-40bb-9598-2314586a2b26","system_id":"levelo_inurba_marseille","lat":43.314811,"lon":5.373104,"is_reserved":false,"is_disabled":false,"rental_uris":{"android":"levelo://app?vid=01d3ffce-a373-40bb-9598-2314586a2b26","ios":"levelo://app?vid=01d3ffce-a373-40bb-9598-2314586a2b26"},"vehicle_type_id":"4","last_reported":1723295386,"current_range_meters":25600,"station_id":"ce4bgt12rcd13ifvqcd0","pricing_plan_id":"cebpf4jnsgd1na2vs0mg"},{"bike_id":"dceb7393-da0f-449c-abe1-ce72972c64b4","system_id":"levelo_inurba_marseille","lat":43.31728,"lon":5.37154,"is_reserved":false,"is_disabled":false,"rental_uris":{"android":"levelo://app?vid=dceb7393-da0f-449c-abe1-ce72972c64b4","ios":"levelo://app?vid=dceb7393-da0f-449c-abe1-ce72972c64b4"},"vehicle_type_id":"4","last_reported":1723295386,"current_range_meters":1600,"station_id":"","pricing_plan_id":"cebpf4jnsgd1na2vs0mg"},{"bike_id":"779b4767-9006-4821-a5e4-061d98eeed75","system_id":"levelo_inurba_marseille","lat":43.305368,"lon":5.367343,"is_reserved":false,"is_disabled":false,"rental_uris":{"android":"levelo://app?vid=779b4767-9006-4821-a5e4-061d98eeed75","ios":"levelo://app?vid=779b4767-9006-4821-a5e4-061d98eeed75"},"vehicle_type_id":"4","last_reported":1723295386,"current_range_meters":24000,"station_id":"ce4bgrp2rcd13ifvqc9g","pricing_plan_id":"cebpf4jnsgd1na2vs0mg"},{"bike_id":"55d16d3c-01ba-41f9-a482-4c86dc13e11d","system_id":"levelo_inurba_marseille","lat":43.305714,"lon":5.365633,"is_reserved":false,"is_disabled":false,"rental_uris":{"android":"levelo://app?vid=55d16d3c-01ba-41f9-a482-4c86dc13e11d","ios":"levelo://app?vid=55d16d3c-01ba-41f9-a482-4c86dc13e11d"},"vehicle_type_id":"4","last_reported":1723295386,"current_range_meters":16400,"station_id":"ce4bgs12rcd13ifvqcag","pricing_plan_id":"cebpf4jnsgd1na2vs0mg"},{"bike_id":"7f4a4c6f-9116-49e3-9148-94c29c22873f","system_id":"levelo_inurba_marseille","lat":43.31967,"lon":5.37051,"is_reserved":false,"is_disabled":false,"rental_uris":{"android":"levelo://app?vid=7f4a4c6f-9116-49e3-9148-94c29c22873f","ios":"levelo://app?vid=7f4a4c6f-9116-49e3-9148-94c29c22873f"},"vehicle_type_id":"4","last_reported":1723295386,"current_range_meters":27600,"station_id":"","pricing_plan_id":"cebpf4jnsgd1na2vs0mg"},{"bike_id":"dd1260a6-7420-4083-a742-f5d686a60281","system_id":"levelo_inurba_marseille","lat":43.305714,"lon":5.365633,"is_reserved":false,"is_disabled":false,"rental_uris":{"android":"levelo://app?vid=dd1260a6-7420-4083-a742-f5d686a60281","ios":"levelo://app?vid=dd1260a6-7420-4083-a742-f5d686a60281"},"vehicle_type_id":"4","last_reported":1723295386,"current_range_meters":24000,"station_id":"ce4bgs12rcd13ifvqcag","pricing_plan_id":"cebpf4jnsgd1na2vs0mg"},{"bike_id":"c2a11cb5-de48-4919-a39b-6c98e81bd701","system_id":"levelo_inurba_marseille","lat":43.311131,"lon":5.377651,"is_reserved":false,"is_disabled":false,"rental_uris":{"android":"levelo://app?vid=c2a11cb5-de48-4919-a39b-6c98e81bd701","ios":"levelo://app?vid=c2a11cb5-de48-4919-a39b-6c98e81bd701"},"vehicle_type_id":"4","last_reported":1723295386,"current_range_meters":2000,"station_id":"ce4bgt92rcd13ifvqcg0","pricing_plan_id":"cebpf4jnsgd1na2vs0mg"},{"bike_id":"a478e033-7b38-4ea4-9c66-06a19e21262c","system_id":"levelo_inurba_marseille","lat":43.315289,"lon":5.380349,"is_reserved":false,"is_disabled":false,"rental_uris":{"android":"levelo://app?vid=a478e033-7b38-4ea4-9c66-06a19e21262c","ios":"levelo://app?vid=a478e033-7b38-4ea4-9c66-06a19e21262c"},"vehicle_type_id":"4","last_reported":1723295386,"current_range_meters":20400,"station_id":"ce4bhsp2rcd13ifvqi50","pricing_plan_id":"cebpf4jnsgd1na2vs0mg"},{"bike_id":"852a32e7-cb0d-4e65-ae63-840529894bd8","system_id":"levelo_inurba_marseille","lat":43.301939,"lon":5.366286,"is_reserved":false,"is_disabled":false,"rental_uris":{"android":"levelo://app?vid=852a32e7-cb0d-4e65-ae63-840529894bd8","ios":"levelo://app?vid=852a32e7-cb0d-4e65-ae63-840529894bd8"},"vehicle_type_id":"4","last_reported":1723295386,"current_range_meters":3200,"station_id":"ce4bgrh2rcd13ifvqc8g","pricing_plan_id":"cebpf4jnsgd1na2vs0mg"},{"bike_id":"93beda3c-385c-4b09-a5ad-9eec85a8d630","system_id":"levelo_inurba_marseille","lat":43.301939,"lon":5.366286,"is_reserved":false,"is_disabled":false,"rental_uris":{"android":"levelo://app?vid=93beda3c-385c-4b09-a5ad-9eec85a8d630","ios":"levelo://app?vid=93beda3c-385c-4b09-a5ad-9eec85a8d630"},"vehicle_type_id":"4","last_reported":1723295386,"current_range_meters":0,"station_id":"ce4bgrh2rcd13ifvqc8g","pricing_plan_id":"cebpf4jnsgd1na2vs0mg"},{"bike_id":"a4023649-258f-41e9-9b97-396a6fefd69c","system_id":"levelo_inurba_marseille","lat":43.308012,"lon":5.381511,"is_reserved":false,"is_disabled":false,"rental_uris":{"android":"levelo://app?vid=a4023649-258f-41e9-9b97-396a6fefd69c","ios":"levelo://app?vid=a4023649-258f-41e9-9b97-396a6fefd69c"},"vehicle_type_id":"4","last_reported":1723295386,"current_range_meters":0,"station_id":"ce4bgt12rcd13ifvqce0","pricing_plan_id":"cebpf4jnsgd1na2vs0mg"},{"bike_id":"192bc778-be1f-402d-b1df-16d7172e5519","system_id":"levelo_inurba_marseille","lat":43.31359,"lon":5.38283,"is_reserved":false,"is_disabled":false,"rental_uris":{"android":"levelo://app?vid=192bc778-be1f-402d-b1df-16d7172e5519","ios":"levelo://app?vid=192bc778-be1f-402d-b1df-16d7172e5519"},"vehicle_type_id":"4","last_reported":1723295386,"current_range_meters":400,"station_id":"","pricing_plan_id":"cebpf4jnsgd1na2vs0mg"},{"bike_id":"d4c0788c-586f-46e4-908a-50b218087d6e","system_id":"levelo_inurba_marseille","lat":43.310804,"lon":5.38359,"is_reserved":false,"is_disabled":false,"rental_uris":{"android":"levelo://app?vid=d4c0788c-586f-46e4-908a-50b218087d6e","ios":"levelo://app?vid=d4c0788c-586f-46e4-908a-50b218087d6e"},"vehicle_type_id":"4","last_reported":1723295386,"current_range_meters":12000,"station_id":"ce4bgv92rcd13ifvqcr0","pricing_plan_id":"cebpf4jnsgd1na2vs0mg"},{"bike_id":"acf5f1e8-de2b-41ca-8aa3-96936cfef668","system_id":"levelo_inurba_marseille","lat":43.31132,"lon":5.38323,"is_reserved":false,"is_disabled":false,"rental_uris":{"android":"levelo://app?vid=acf5f1e8-de2b-41ca-8aa3-96936cfef668","ios":"levelo://app?vid=acf5f1e8-de2b-41ca-8aa3-96936cfef668"},"vehicle_type_id":"4","last_reported":1723295386,"current_range_meters":800,"station_id":"","pricing_plan_id":"cebpf4jnsgd1na2vs0mg"},{"bike_id":"2f804542-da31-4c34-b3f6-d94ed022fa38","system_id":"levelo_inurba_marseille","lat":43.304606,"lon":5.379026,"is_reserved":false,"is_disabled":false,"rental_uris":{"android":"levelo://app?vid=2f804542-da31-4c34-b3f6-d94ed022fa38","ios":"levelo://app?vid=2f804542-da31-4c34-b3f6-d94ed022fa38"},"vehicle_type_id":"4","last_reported":1723295386,"current_range_meters":4800,"station_id":"ce4bgup2rcd13ifvqcn0","pricing_plan_id":"cebpf4jnsgd1na2vs0mg"},{"bike_id":"e6c5c753-6032-4a1e-8435-7bc3c4326d84","system_id":"levelo_inurba_marseille","lat":43.304606,"lon":5.379026,"is_reserved":false,"is_disabled":false,"rental_uris":{"android":"levelo://app?vid=e6c5c753-6032-4a1e-8435-7bc3c4326d84","ios":"levelo://app?vid=e6c5c753-6032-4a1e-8435-7bc3c4326d84"},"vehicle_type_id":"4","last_reported":1723295386,"current_range_meters":7600,"station_id":"ce4bgup2rcd13ifvqcn0","pricing_plan_id":"cebpf4jnsgd1na2vs0mg"},{"bike_id":"f9856e8a-4fcf-4a06-85db-776c6f29443c","system_id":"levelo_inurba_marseille","lat":43.30464,"lon":5.3791,"is_reserved":false,"is_disabled":false,"rental_uris":{"android":"levelo://app?vid=f9856e8a-4fcf-4a06-85db-776c6f29443c","ios":"levelo://app?vid=f9856e8a-4fcf-4a06-85db-776c6f29443c"},"vehicle_type_id":"4","last_reported":1723295386,"current_range_meters":0,"station_id":"ce4bgup2rcd13ifvqcn0","pricing_plan_id":"cebpf4jnsgd1na2vs0mg"},{"bike_id":"f7736e37-5fdc-445c-bdb4-d2ddf1b95580","system_id":"levelo_inurba_marseille","lat":43.304606,"lon":5.379026,"is_reserved":false,"is_disabled":false,"rental_uris":{"android":"levelo://app?vid=f7736e37-5fdc-445c-bdb4-d2ddf1b95580","ios":"levelo://app?vid=f7736e37-5fdc-445c-bdb4-d2ddf1b95580"},"vehicle_type_id":"4","last_reported":1723295386,"current_range_meters":6400,"station_id":"ce4bgup2rcd13ifvqcn0","pricing_plan_id":"cebpf4jnsgd1na2vs0mg"},{"bike_id":"1ae294f1-7fd6-4463-b59e-4508970a13ef","system_id":"levelo_inurba_marseille","lat":43.304606,"lon":5.379026,"is_reserved":false,"is_disabled":false,"rental_uris":{"android":"levelo://app?vid=1ae294f1-7fd6-4463-b59e-4508970a13ef","ios":"levelo://app?vid=1ae294f1-7fd6-4463-b59e-4508970a13ef"},"vehicle_type_id":"4","last_reported":1723295386,"current_range_meters":25200,"station_id":"ce4bgup2rcd13ifvqcn0","pricing_plan_id":"cebpf4jnsgd1na2vs0mg"},{"bike_id":"eee0473b-958b-40b7-bb28-c27772b76968","system_id":"levelo_inurba_marseille","lat":43.324771,"lon":5.36557,"is_reserved":false,"is_disabled":false,"rental_uris":{"android":"levelo://app?vid=eee0473b-958b-40b7-bb28-c27772b76968","ios":"levelo://app?vid=eee0473b-958b-40b7-bb28-c27772b76968"},"vehicle_type_id":"4","last_reported":1723295386,"current_range_meters":28400,"station_id":"ce4bhs12rcd13ifvqhvg","pricing_plan_id":"cebpf4jnsgd1na2vs0mg"},{"bike_id":"79ffface-54d4-40fb-95c7-8256a85b69f0","system_id":"levelo_inurba_marseille","lat":43.324771,"lon":5.36557,"is_reserved":false,"is_disabled":false,"rental_uris":{"android":"levelo://app?vid=79ffface-54d4-40fb-95c7-8256a85b69f0","ios":"levelo://app?vid=79ffface-54d4-40fb-95c7-8256a85b69f0"},"vehicle_type_id":"4","last_reported":1723295386,"current_range_meters":27600,"station_id":"ce4bhs12rcd13ifvqhvg","pricing_plan_id":"cebpf4jnsgd1na2vs0mg"},{"bike_id":"f5ca37fc-5e94-448f-bdd6-a722079e1a4d","system_id":"levelo_inurba_marseille","lat":43.324771,"lon":5.36557,"is_reserved":false,"is_disabled":false,"rental_uris":{"android":"levelo://app?vid=f5ca37fc-5e94-448f-bdd6-a722079e1a4d","ios":"levelo://app?vid=f5ca37fc-5e94-448f-bdd6-a722079e1a4d"},"vehicle_type_id":"4","last_reported":1723295386,"current_range_meters":22400,"station_id":"ce4bhs12rcd13ifvqhvg","pricing_plan_id":"cebpf4jnsgd1na2vs0mg"},{"bike_id":"8c271a0d-a394-4d18-891f-48438409eb3a","system_id":"levelo_inurba_marseille","lat":43.324771,"lon":5.36557,"is_reserved":false,"is_disabled":false,"rental_uris":{"android":"levelo://app?vid=8c271a0d-a394-4d18-891f-48438409eb3a","ios":"levelo://app?vid=8c271a0d-a394-4d18-891f-48438409eb3a"},"vehicle_type_id":"4","last_reported":1723295386,"current_range_meters":16000,"station_id":"ce4bhs12rcd13ifvqhvg","pricing_plan_id":"cebpf4jnsgd1na2vs0mg"},{"bike_id":"a5ad36c9-6631-415b-8e10-7c7e9517d651","system_id":"levelo_inurba_marseille","lat":43.324771,"lon":5.36557,"is_reserved":false,"is_disabled":false,"rental_uris":{"android":"levelo://app?vid=a5ad36c9-6631-415b-8e10-7c7e9517d651","ios":"levelo://app?vid=a5ad36c9-6631-415b-8e10-7c7e9517d651"},"vehicle_type_id":"4","last_reported":1723295386,"current_range_meters":31200,"station_id":"ce4bhs12rcd13ifvqhvg","pricing_plan_id":"cebpf4jnsgd1na2vs0mg"},{"bike_id":"d39398a3-ec68-4a9d-909a-cbc3195180d0","system_id":"levelo_inurba_marseille","lat":43.324771,"lon":5.36557,"is_reserved":false,"is_disabled":false,"rental_uris":{"android":"levelo://app?vid=d39398a3-ec68-4a9d-909a-cbc3195180d0","ios":"levelo://app?vid=d39398a3-ec68-4a9d-909a-cbc3195180d0"},"vehicle_type_id":"4","last_reported":1723295386,"current_range_meters":11600,"station_id":"ce4bhs12rcd13ifvqhvg","pricing_plan_id":"cebpf4jnsgd1na2vs0mg"},{"bike_id":"282e32e0-db08-42d5-a972-b34979e8de75","system_id":"levelo_inurba_marseille","lat":43.324771,"lon":5.36557,"is_reserved":false,"is_disabled":false,"rental_uris":{"android":"levelo://app?vid=282e32e0-db08-42d5-a972-b34979e8de75","ios":"levelo://app?vid=282e32e0-db08-42d5-a972-b34979e8de75"},"vehicle_type_id":"4","last_reported":1723295386,"current_range_meters":31600,"station_id":"ce4bhs12rcd13ifvqhvg","pricing_plan_id":"cebpf4jnsgd1na2vs0mg"},{"bike_id":"addba48e-e352-46be-ab8a-741256f4ced7","system_id":"levelo_inurba_marseille","lat":43.324771,"lon":5.36557,"is_reserved":false,"is_disabled":false,"rental_uris":{"android":"levelo://app?vid=addba48e-e352-46be-ab8a-741256f4ced7","ios":"levelo://app?vid=addba48e-e352-46be-ab8a-741256f4ced7"},"vehicle_type_id":"4","last_reported":1723295386,"current_range_meters":15600,"station_id":"ce4bhs12rcd13ifvqhvg","pricing_plan_id":"cebpf4jnsgd1na2vs0mg"},{"bike_id":"0413e313-7dbf-4c38-b472-9249504f2c29","system_id":"levelo_inurba_marseille","lat":43.310804,"lon":5.38359,"is_reserved":false,"is_disabled":false,"rental_uris":{"android":"levelo://app?vid=0413e313-7dbf-4c38-b472-9249504f2c29","ios":"levelo://app?vid=0413e313-7dbf-4c38-b472-9249504f2c29"},"vehicle_type_id":"4","last_reported":1723295386,"current_range_meters":5600,"station_id":"ce4bgv92rcd13ifvqcr0","pricing_plan_id":"cebpf4jnsgd1na2vs0mg"},{"bike_id":"40597328-d969-4663-8728-00697117f11d","system_id":"levelo_inurba_marseille","lat":43.302784,"lon":5.377158,"is_reserved":false,"is_disabled":false,"rental_uris":{"android":"levelo://app?vid=40597328-d969-4663-8728-00697117f11d","ios":"levelo://app?vid=40597328-d969-4663-8728-00697117f11d"},"vehicle_type_id":"4","last_reported":1723295386,"current_range_meters":6800,"station_id":"ce4bguh2rcd13ifvqcj0","pricing_plan_id":"cebpf4jnsgd1na2vs0mg"},{"bike_id":"c3b195d2-d1fe-4149-ac85-6dc1c4c8b51d","system_id":"levelo_inurba_marseille","lat":43.31079,"lon":5.38371,"is_reserved":false,"is_disabled":false,"rental_uris":{"android":"levelo://app?vid=c3b195d2-d1fe-4149-ac85-6dc1c4c8b51d","ios":"levelo://app?vid=c3b195d2-d1fe-4149-ac85-6dc1c4c8b51d"},"vehicle_type_id":"4","last_reported":1723295386,"current_range_meters":7200,"station_id":"","pricing_plan_id":"cebpf4jnsgd1na2vs0mg"},{"bike_id":"d749a27d-2f2e-45a3-8185-047115960afa","system_id":"levelo_inurba_marseille","lat":43.30143,"lon":5.37413,"is_reserved":false,"is_disabled":false,"rental_uris":{"android":"levelo://app?vid=d749a27d-2f2e-45a3-8185-047115960afa","ios":"levelo://app?vid=d749a27d-2f2e-45a3-8185-047115960afa"},"vehicle_type_id":"4","last_reported":1723295386,"current_range_meters":18400,"station_id":"ce4bgs92rcd13ifvqcc0","pricing_plan_id":"cebpf4jnsgd1na2vs0mg"},{"bike_id":"ae029cb6-c7f7-4b68-816e-439ef73ac5f2","system_id":"levelo_inurba_marseille","lat":43.299724,"lon":5.371829,"is_reserved":false,"is_disabled":false,"rental_uris":{"android":"levelo://app?vid=ae029cb6-c7f7-4b68-816e-439ef73ac5f2","ios":"levelo://app?vid=ae029cb6-c7f7-4b68-816e-439ef73ac5f2"},"vehicle_type_id":"4","last_reported":1723295386,"current_range_meters":16400,"station_id":"ce4bgr92rcd13ifvqc7g","pricing_plan_id":"cebpf4jnsgd1na2vs0mg"},{"bike_id":"940d6497-c644-4dd7-9dd8-3a2187e0c18d","system_id":"levelo_inurba_marseille","lat":43.299222,"lon":5.365554,"is_reserved":false,"is_disabled":false,"rental_uris":{"android":"levelo://app?vid=940d6497-c644-4dd7-9dd8-3a2187e0c18d","ios":"levelo://app?vid=940d6497-c644-4dd7-9dd8-3a2187e0c18d"},"vehicle_type_id":"4","last_reported":1723295386,"current_range_meters":17200,"station_id":"ce4bgm92rcd13ifvqbr0","pricing_plan_id":"cebpf4jnsgd1na2vs0mg"},{"bike_id":"25171c9e-a614-470e-b0eb-51e4795d23b0","system_id":"levelo_inurba_marseille","lat":43.298433,"lon":5.362774,"is_reserved":false,"is_disabled":false,"rental_uris":{"android":"levelo://app?vid=25171c9e-a614-470e-b0eb-51e4795d23b0","ios":"levelo://app?vid=25171c9e-a614-470e-b0eb-51e4795d23b0"},"vehicle_type_id":"4","last_reported":1723295386,"current_range_meters":18000,"station_id":"ce4bgpp2rcd13ifvqc3g","pricing_plan_id":"cebpf4jnsgd1na2vs0mg"},{"bike_id":"a7053f65-e110-4a71-bffc-f9835bbd9838","system_id":"levelo_inurba_marseille","lat":43.298433,"lon":5.362774,"is_reserved":false,"is_disabled":false,"rental_uris":{"android":"levelo://app?vid=a7053f65-e110-4a71-bffc-f9835bbd9838","ios":"levelo://app?vid=a7053f65-e110-4a71-bffc-f9835bbd9838"},"vehicle_type_id":"4","last_reported":1723295386,"current_range_meters":3200,"station_id":"ce4bgpp2rcd13ifvqc3g","pricing_plan_id":"cebpf4jnsgd1na2vs0mg"},{"bike_id":"b67e7c21-4128-4e61-b379-0cabb6816fdf","system_id":"levelo_inurba_marseille","lat":43.298433,"lon":5.362774,"is_reserved":false,"is_disabled":false,"rental_uris":{"android":"levelo://app?vid=b67e7c21-4128-4e61-b379-0cabb6816fdf","ios":"levelo://app?vid=b67e7c21-4128-4e61-b379-0cabb6816fdf"},"vehicle_type_id":"4","last_reported":1723295386,"current_range_meters":18800,"station_id":"ce4bgpp2rcd13ifvqc3g","pricing_plan_id":"cebpf4jnsgd1na2vs0mg"},{"bike_id":"6d67ccd1-658b-4e71-8766-2fb74bd40557","system_id":"levelo_inurba_marseille","lat":43.298433,"lon":5.362774,"is_reserved":false,"is_disabled":false,"rental_uris":{"android":"levelo://app?vid=6d67ccd1-658b-4e71-8766-2fb74bd40557","ios":"levelo://app?vid=6d67ccd1-658b-4e71-8766-2fb74bd40557"},"vehicle_type_id":"4","last_reported":1723295386,"current_range_meters":21600,"station_id":"ce4bgpp2rcd13ifvqc3g","pricing_plan_id":"cebpf4jnsgd1na2vs0mg"},{"bike_id":"9d7b0a07-e8c1-421e-a117-26cdaab1de27","system_id":"levelo_inurba_marseille","lat":43.298433,"lon":5.362774,"is_reserved":false,"is_disabled":false,"rental_uris":{"android":"levelo://app?vid=9d7b0a07-e8c1-421e-a117-26cdaab1de27","ios":"levelo://app?vid=9d7b0a07-e8c1-421e-a117-26cdaab1de27"},"vehicle_type_id":"4","last_reported":1723295386,"current_range_meters":31600,"station_id":"ce4bgpp2rcd13ifvqc3g","pricing_plan_id":"cebpf4jnsgd1na2vs0mg"},{"bike_id":"206aa0d8-781b-44d5-b6c9-854ddc16ad7c","system_id":"levelo_inurba_marseille","lat":43.298433,"lon":5.362774,"is_reserved":false,"is_disabled":false,"rental_uris":{"android":"levelo://app?vid=206aa0d8-781b-44d5-b6c9-854ddc16ad7c","ios":"levelo://app?vid=206aa0d8-781b-44d5-b6c9-854ddc16ad7c"},"vehicle_type_id":"4","last_reported":1723295386,"current_range_meters":29200,"station_id":"ce4bgpp2rcd13ifvqc3g","pricing_plan_id":"cebpf4jnsgd1na2vs0mg"},{"bike_id":"e197e53d-fd63-43d4-92a7-2fd2f247f6d6","system_id":"levelo_inurba_marseille","lat":43.3015,"lon":5.38099,"is_reserved":false,"is_disabled":false,"rental_uris":{"android":"levelo://app?vid=e197e53d-fd63-43d4-92a7-2fd2f247f6d6","ios":"levelo://app?vid=e197e53d-fd63-43d4-92a7-2fd2f247f6d6"},"vehicle_type_id":"4","last_reported":1723295386,"current_range_meters":16800,"station_id":"","pricing_plan_id":"cebpf4jnsgd1na2vs0mg"},{"bike_id":"216240ef-238f-48ba-bd26-5d1c9cf540df","system_id":"levelo_inurba_marseille","lat":43.31456,"lon":5.38784,"is_reserved":false,"is_disabled":false,"rental_uris":{"android":"levelo://app?vid=216240ef-238f-48ba-bd26-5d1c9cf540df","ios":"levelo://app?vid=216240ef-238f-48ba-bd26-5d1c9cf540df"},"vehicle_type_id":"4","last_reported":1723295386,"current_range_meters":800,"station_id":"","pricing_plan_id":"cebpf4jnsgd1na2vs0mg"},{"bike_id":"a5f5cf43-2722-4292-84db-7e58a4a0e061","system_id":"levelo_inurba_marseille","lat":43.297163,"lon":5.365866,"is_reserved":false,"is_disabled":false,"rental_uris":{"android":"levelo://app?vid=a5f5cf43-2722-4292-84db-7e58a4a0e061","ios":"levelo://app?vid=a5f5cf43-2722-4292-84db-7e58a4a0e061"},"vehicle_type_id":"4","last_reported":1723295386,"current_range_meters":14000,"station_id":"ce4bgn12rcd13ifvqbt0","pricing_plan_id":"cebpf4jnsgd1na2vs0mg"},{"bike_id":"76e70fc4-975b-4795-9d02-b79e6d76738f","system_id":"levelo_inurba_marseille","lat":43.297163,"lon":5.365866,"is_reserved":false,"is_disabled":false,"rental_uris":{"android":"levelo://app?vid=76e70fc4-975b-4795-9d02-b79e6d76738f","ios":"levelo://app?vid=76e70fc4-975b-4795-9d02-b79e6d76738f"},"vehicle_type_id":"4","last_reported":1723295386,"current_range_meters":15200,"station_id":"ce4bgn12rcd13ifvqbt0","pricing_plan_id":"cebpf4jnsgd1na2vs0mg"},{"bike_id":"f7f45926-2915-4eb0-9ef8-8312d3776453","system_id":"levelo_inurba_marseille","lat":43.297163,"lon":5.365866,"is_reserved":false,"is_disabled":false,"rental_uris":{"android":"levelo://app?vid=f7f45926-2915-4eb0-9ef8-8312d3776453","ios":"levelo://app?vid=f7f45926-2915-4eb0-9ef8-8312d3776453"},"vehicle_type_id":"4","last_reported":1723295386,"current_range_meters":21200,"station_id":"ce4bgn12rcd13ifvqbt0","pricing_plan_id":"cebpf4jnsgd1na2vs0mg"},{"bike_id":"345dd0a6-d54c-4d32-b4f9-0083882d6298","system_id":"levelo_inurba_marseille","lat":43.309589,"lon":5.390258,"is_reserved":false,"is_disabled":false,"rental_uris":{"android":"levelo://app?vid=345dd0a6-d54c-4d32-b4f9-0083882d6298","ios":"levelo://app?vid=345dd0a6-d54c-4d32-b4f9-0083882d6298"},"vehicle_type_id":"4","last_reported":1723295386,"current_range_meters":25600,"station_id":"ce4bgup2rcd13ifvqco0","pricing_plan_id":"cebpf4jnsgd1na2vs0mg"},{"bike_id":"5c71163a-ebcb-433f-94dc-cda779c0f818","system_id":"levelo_inurba_marseille","lat":43.29588,"lon":5.36749,"is_reserved":false,"is_disabled":false,"rental_uris":{"android":"levelo://app?vid=5c71163a-ebcb-433f-94dc-cda779c0f818","ios":"levelo://app?vid=5c71163a-ebcb-433f-94dc-cda779c0f818"},"vehicle_type_id":"4","last_reported":1723295386,"current_range_meters":8000,"station_id":"ce4bgph2rcd13ifvqc2g","pricing_plan_id":"cebpf4jnsgd1na2vs0mg"},{"bike_id":"67f1054e-af5e-48ab-8ad5-793f290e1f63","system_id":"levelo_inurba_marseille","lat":43.29573,"lon":5.367355,"is_reserved":false,"is_disabled":false,"rental_uris":{"android":"levelo://app?vid=67f1054e-af5e-48ab-8ad5-793f290e1f63","ios":"levelo://app?vid=67f1054e-af5e-48ab-8ad5-793f290e1f63"},"vehicle_type_id":"4","last_reported":1723295386,"current_range_meters":0,"station_id":"ce4bgph2rcd13ifvqc2g","pricing_plan_id":"cebpf4jnsgd1na2vs0mg"},{"bike_id":"7d80b1ba-7bda-4850-8eff-a303485ce233","system_id":"levelo_inurba_marseille","lat":43.29573,"lon":5.367355,"is_reserved":false,"is_disabled":false,"rental_uris":{"android":"levelo://app?vid=7d80b1ba-7bda-4850-8eff-a303485ce233","ios":"levelo://app?vid=7d80b1ba-7bda-4850-8eff-a303485ce233"},"vehicle_type_id":"4","last_reported":1723295386,"current_range_meters":22000,"station_id":"ce4bgph2rcd13ifvqc2g","pricing_plan_id":"cebpf4jnsgd1na2vs0mg"},{"bike_id":"672ee65b-551e-4041-b27c-0c28f0ce9054","system_id":"levelo_inurba_marseille","lat":43.30962,"lon":5.39025,"is_reserved":false,"is_disabled":false,"rental_uris":{"android":"levelo://app?vid=672ee65b-551e-4041-b27c-0c28f0ce9054","ios":"levelo://app?vid=672ee65b-551e-4041-b27c-0c28f0ce9054"},"vehicle_type_id":"4","last_reported":1723295386,"current_range_meters":23600,"station_id":"ce4bgup2rcd13ifvqco0","pricing_plan_id":"cebpf4jnsgd1na2vs0mg"},{"bike_id":"5002fdf4-9ddf-47ff-916f-547110b50234","system_id":"levelo_inurba_marseille","lat":43.319673,"lon":5.389023,"is_reserved":false,"is_disabled":false,"rental_uris":{"android":"levelo://app?vid=5002fdf4-9ddf-47ff-916f-547110b50234","ios":"levelo://app?vid=5002fdf4-9ddf-47ff-916f-547110b50234"},"vehicle_type_id":"4","last_reported":1723295386,"current_range_meters":6400,"station_id":"","pricing_plan_id":"cebpf4jnsgd1na2vs0mg"},{"bike_id":"09e5d79b-31ea-46c7-be26-3ef693448c5b","system_id":"levelo_inurba_marseille","lat":43.32319,"lon":5.38627,"is_reserved":false,"is_disabled":false,"rental_uris":{"android":"levelo://app?vid=09e5d79b-31ea-46c7-be26-3ef693448c5b","ios":"levelo://app?vid=09e5d79b-31ea-46c7-be26-3ef693448c5b"},"vehicle_type_id":"4","last_reported":1723295386,"current_range_meters":19600,"station_id":"","pricing_plan_id":"cebpf4jnsgd1na2vs0mg"},{"bike_id":"c30afed9-af68-4726-8063-f30054d89dd8","system_id":"levelo_inurba_marseille","lat":43.322643,"lon":5.38691,"is_reserved":false,"is_disabled":false,"rental_uris":{"android":"levelo://app?vid=c30afed9-af68-4726-8063-f30054d89dd8","ios":"levelo://app?vid=c30afed9-af68-4726-8063-f30054d89dd8"},"vehicle_type_id":"4","last_reported":1723295386,"current_range_meters":18000,"station_id":"","pricing_plan_id":"cebpf4jnsgd1na2vs0mg"},{"bike_id":"4551d27d-4626-4da5-9504-f59866d4cf12","system_id":"levelo_inurba_marseille","lat":43.31758,"lon":5.39021,"is_reserved":false,"is_disabled":false,"rental_uris":{"android":"levelo://app?vid=4551d27d-4626-4da5-9504-f59866d4cf12","ios":"levelo://app?vid=4551d27d-4626-4da5-9504-f59866d4cf12"},"vehicle_type_id":"4","last_reported":1723295386,"current_range_meters":26800,"station_id":"ce4bhqp2rcd13ifvqhng","pricing_plan_id":"cebpf4jnsgd1na2vs0mg"},{"bike_id":"c1400dde-d27b-405c-b00a-eccf25fbd632","system_id":"levelo_inurba_marseille","lat":43.298037,"lon":5.381066,"is_reserved":false,"is_disabled":false,"rental_uris":{"android":"levelo://app?vid=c1400dde-d27b-405c-b00a-eccf25fbd632","ios":"levelo://app?vid=c1400dde-d27b-405c-b00a-eccf25fbd632"},"vehicle_type_id":"4","last_reported":1723295386,"current_range_meters":28400,"station_id":"ce4bgip2rcd13ifvqbb0","pricing_plan_id":"cebpf4jnsgd1na2vs0mg"},{"bike_id":"3bfe7f7c-b3e3-4245-94a1-3d7e1724da35","system_id":"levelo_inurba_marseille","lat":43.295748,"lon":5.37522,"is_reserved":false,"is_disabled":false,"rental_uris":{"android":"levelo://app?vid=3bfe7f7c-b3e3-4245-94a1-3d7e1724da35","ios":"levelo://app?vid=3bfe7f7c-b3e3-4245-94a1-3d7e1724da35"},"vehicle_type_id":"4","last_reported":1723295386,"current_range_meters":0,"station_id":"ce4bgh92rcd13ifvqb50","pricing_plan_id":"cebpf4jnsgd1na2vs0mg"},{"bike_id":"b80dcb4b-a688-44e9-b933-233a44acdff7","system_id":"levelo_inurba_marseille","lat":43.296277,"lon":5.377108,"is_reserved":false,"is_disabled":false,"rental_uris":{"android":"levelo://app?vid=b80dcb4b-a688-44e9-b933-233a44acdff7","ios":"levelo://app?vid=b80dcb4b-a688-44e9-b933-233a44acdff7"},"vehicle_type_id":"4","last_reported":1723295386,"current_range_meters":12000,"station_id":"ce4bgi92rcd13ifvqb90","pricing_plan_id":"cebpf4jnsgd1na2vs0mg"},{"bike_id":"d9065200-35d7-49ad-9af9-2070723aa251","system_id":"levelo_inurba_marseille","lat":43.299717,"lon":5.384845,"is_reserved":false,"is_disabled":false,"rental_uris":{"android":"levelo://app?vid=d9065200-35d7-49ad-9af9-2070723aa251","ios":"levelo://app?vid=d9065200-35d7-49ad-9af9-2070723aa251"},"vehicle_type_id":"4","last_reported":1723295386,"current_range_meters":19600,"station_id":"ce4bgj92rcd13ifvqbd0","pricing_plan_id":"cebpf4jnsgd1na2vs0mg"},{"bike_id":"7334bedc-9ae9-4d85-8fb7-f0cac43cb82c","system_id":"levelo_inurba_marseille","lat":43.32367,"lon":5.388836,"is_reserved":false,"is_disabled":false,"rental_uris":{"android":"levelo://app?vid=7334bedc-9ae9-4d85-8fb7-f0cac43cb82c","ios":"levelo://app?vid=7334bedc-9ae9-4d85-8fb7-f0cac43cb82c"},"vehicle_type_id":"4","last_reported":1723295386,"current_range_meters":21600,"station_id":"ce4bhqp2rcd13ifvqhog","pricing_plan_id":"cebpf4jnsgd1na2vs0mg"},{"bike_id":"7c9cd1c0-13ed-4471-b0ee-92ece75b8c0c","system_id":"levelo_inurba_marseille","lat":43.292644,"lon":5.384257,"is_reserved":false,"is_disabled":false,"rental_uris":{"android":"levelo://app?vid=7c9cd1c0-13ed-4471-b0ee-92ece75b8c0c","ios":"levelo://app?vid=7c9cd1c0-13ed-4471-b0ee-92ece75b8c0c"},"vehicle_type_id":"4","last_reported":1723295386,"current_range_meters":28800,"station_id":"ce4bh692rcd13ifvqea0","pricing_plan_id":"cebpf4jnsgd1na2vs0mg"},{"bike_id":"23949995-c082-4641-b949-9d2000457f7a","system_id":"levelo_inurba_marseille","lat":43.32385,"lon":5.38923,"is_reserved":false,"is_disabled":false,"rental_uris":{"android":"levelo://app?vid=23949995-c082-4641-b949-9d2000457f7a","ios":"levelo://app?vid=23949995-c082-4641-b949-9d2000457f7a"},"vehicle_type_id":"4","last_reported":1723295386,"current_range_meters":0,"station_id":"ce4bhqp2rcd13ifvqhog","pricing_plan_id":"cebpf4jnsgd1na2vs0mg"},{"bike_id":"4d34c247-3f6e-4cf5-b9f5-9bd2b97a81cd","system_id":"levelo_inurba_marseille","lat":43.29602,"lon":5.381084,"is_reserved":false,"is_disabled":false,"rental_uris":{"android":"levelo://app?vid=4d34c247-3f6e-4cf5-b9f5-9bd2b97a81cd","ios":"levelo://app?vid=4d34c247-3f6e-4cf5-b9f5-9bd2b97a81cd"},"vehicle_type_id":"4","last_reported":1723295386,"current_range_meters":26400,"station_id":"ce4bgl12rcd13ifvqbo0","pricing_plan_id":"cebpf4jnsgd1na2vs0mg"},{"bike_id":"e94dcf36-b407-4fb5-961b-44b2dba6cfcc","system_id":"levelo_inurba_marseille","lat":43.292749,"lon":5.368402,"is_reserved":false,"is_disabled":false,"rental_uris":{"android":"levelo://app?vid=e94dcf36-b407-4fb5-961b-44b2dba6cfcc","ios":"levelo://app?vid=e94dcf36-b407-4fb5-961b-44b2dba6cfcc"},"vehicle_type_id":"4","last_reported":1723295386,"current_range_meters":24800,"station_id":"ce4bhbp2rcd13ifvqesg","pricing_plan_id":"cebpf4jnsgd1na2vs0mg"},{"bike_id":"0670a4dd-d4b5-4d73-8c69-ad2ff49cde81","system_id":"levelo_inurba_marseille","lat":43.29306,"lon":5.37166,"is_reserved":false,"is_disabled":false,"rental_uris":{"android":"levelo://app?vid=0670a4dd-d4b5-4d73-8c69-ad2ff49cde81","ios":"levelo://app?vid=0670a4dd-d4b5-4d73-8c69-ad2ff49cde81"},"vehicle_type_id":"4","last_reported":1723295386,"current_range_meters":0,"station_id":"ce4bgh92rcd13ifvqb40","pricing_plan_id":"cebpf4jnsgd1na2vs0mg"},{"bike_id":"72cd2dae-81cd-4f58-80ec-e228b3953351","system_id":"levelo_inurba_marseille","lat":43.29304,"lon":5.374323,"is_reserved":false,"is_disabled":false,"rental_uris":{"android":"levelo://app?vid=72cd2dae-81cd-4f58-80ec-e228b3953351","ios":"levelo://app?vid=72cd2dae-81cd-4f58-80ec-e228b3953351"},"vehicle_type_id":"4","last_reported":1723295386,"current_range_meters":0,"station_id":"ce4bgi12rcd13ifvqb70","pricing_plan_id":"cebpf4jnsgd1na2vs0mg"},{"bike_id":"8d37495d-9961-45f8-ba67-ee81725ae3ae","system_id":"levelo_inurba_marseille","lat":43.29228,"lon":5.36363,"is_reserved":false,"is_disabled":false,"rental_uris":{"android":"levelo://app?vid=8d37495d-9961-45f8-ba67-ee81725ae3ae","ios":"levelo://app?vid=8d37495d-9961-45f8-ba67-ee81725ae3ae"},"vehicle_type_id":"4","last_reported":1723295386,"current_range_meters":8800,"station_id":"","pricing_plan_id":"cebpf4jnsgd1na2vs0mg"},{"bike_id":"7d07958c-dcb6-4716-8705-8bb18eae430b","system_id":"levelo_inurba_marseille","lat":43.2936,"lon":5.37835,"is_reserved":false,"is_disabled":false,"rental_uris":{"android":"levelo://app?vid=7d07958c-dcb6-4716-8705-8bb18eae430b","ios":"levelo://app?vid=7d07958c-dcb6-4716-8705-8bb18eae430b"},"vehicle_type_id":"4","last_reported":1723295386,"current_range_meters":29600,"station_id":"ce4bgjh2rcd13ifvqbf0","pricing_plan_id":"cebpf4jnsgd1na2vs0mg"},{"bike_id":"1acb8c2c-5bc7-4431-b38e-de51ada9917f","system_id":"levelo_inurba_marseille","lat":43.2936,"lon":5.37835,"is_reserved":false,"is_disabled":false,"rental_uris":{"android":"levelo://app?vid=1acb8c2c-5bc7-4431-b38e-de51ada9917f","ios":"levelo://app?vid=1acb8c2c-5bc7-4431-b38e-de51ada9917f"},"vehicle_type_id":"4","last_reported":1723295386,"current_range_meters":19200,"station_id":"ce4bgjh2rcd13ifvqbf0","pricing_plan_id":"cebpf4jnsgd1na2vs0mg"},{"bike_id":"55d58771-f15a-4e57-b46e-d7db2c231e84","system_id":"levelo_inurba_marseille","lat":43.29239,"lon":5.36048,"is_reserved":false,"is_disabled":false,"rental_uris":{"android":"levelo://app?vid=55d58771-f15a-4e57-b46e-d7db2c231e84","ios":"levelo://app?vid=55d58771-f15a-4e57-b46e-d7db2c231e84"},"vehicle_type_id":"4","last_reported":1723295386,"current_range_meters":16400,"station_id":"ce4bhbh2rcd13ifvqeqg","pricing_plan_id":"cebpf4jnsgd1na2vs0mg"},{"bike_id":"124f1b4f-c604-4dbf-83e1-0c8bf3c62792","system_id":"levelo_inurba_marseille","lat":43.2923,"lon":5.36055,"is_reserved":false,"is_disabled":false,"rental_uris":{"android":"levelo://app?vid=124f1b4f-c604-4dbf-83e1-0c8bf3c62792","ios":"levelo://app?vid=124f1b4f-c604-4dbf-83e1-0c8bf3c62792"},"vehicle_type_id":"4","last_reported":1723295386,"current_range_meters":18800,"station_id":"ce4bhbh2rcd13ifvqeqg","pricing_plan_id":"cebpf4jnsgd1na2vs0mg"},{"bike_id":"5eda5cef-2527-4db9-bb38-ce86808c2bbc","system_id":"levelo_inurba_marseille","lat":43.29229,"lon":5.36052,"is_reserved":false,"is_disabled":false,"rental_uris":{"android":"levelo://app?vid=5eda5cef-2527-4db9-bb38-ce86808c2bbc","ios":"levelo://app?vid=5eda5cef-2527-4db9-bb38-ce86808c2bbc"},"vehicle_type_id":"4","last_reported":1723295386,"current_range_meters":0,"station_id":"ce4bhbh2rcd13ifvqeqg","pricing_plan_id":"cebpf4jnsgd1na2vs0mg"},{"bike_id":"2d4188fa-07de-4b58-87fb-c1888b57ebef","system_id":"levelo_inurba_marseille","lat":43.29229,"lon":5.36047,"is_reserved":false,"is_disabled":false,"rental_uris":{"android":"levelo://app?vid=2d4188fa-07de-4b58-87fb-c1888b57ebef","ios":"levelo://app?vid=2d4188fa-07de-4b58-87fb-c1888b57ebef"},"vehicle_type_id":"4","last_reported":1723295386,"current_range_meters":26000,"station_id":"ce4bhbh2rcd13ifvqeqg","pricing_plan_id":"cebpf4jnsgd1na2vs0mg"},{"bike_id":"62c27b8e-2ad4-4bb1-9c9a-1fe4d99a424a","system_id":"levelo_inurba_marseille","lat":43.292679,"lon":5.376145,"is_reserved":false,"is_disabled":false,"rental_uris":{"android":"levelo://app?vid=62c27b8e-2ad4-4bb1-9c9a-1fe4d99a424a","ios":"levelo://app?vid=62c27b8e-2ad4-4bb1-9c9a-1fe4d99a424a"},"vehicle_type_id":"4","last_reported":1723295386,"current_range_meters":23200,"station_id":"ce4bgi12rcd13ifvqb80","pricing_plan_id":"cebpf4jnsgd1na2vs0mg"},{"bike_id":"8669c215-f64f-4991-918a-38e605b47e3d","system_id":"levelo_inurba_marseille","lat":43.292865,"lon":5.355553,"is_reserved":false,"is_disabled":false,"rental_uris":{"android":"levelo://app?vid=8669c215-f64f-4991-918a-38e605b47e3d","ios":"levelo://app?vid=8669c215-f64f-4991-918a-38e605b47e3d"},"vehicle_type_id":"4","last_reported":1723295386,"current_range_meters":8000,"station_id":"","pricing_plan_id":"cebpf4jnsgd1na2vs0mg"},{"bike_id":"4ca844be-68aa-4416-9121-3a278701db80","system_id":"levelo_inurba_marseille","lat":43.291994,"lon":5.357886,"is_reserved":false,"is_disabled":false,"rental_uris":{"android":"levelo://app?vid=4ca844be-68aa-4416-9121-3a278701db80","ios":"levelo://app?vid=4ca844be-68aa-4416-9121-3a278701db80"},"vehicle_type_id":"4","last_reported":1723295386,"current_range_meters":31600,"station_id":"ce4bhb12rcd13ifvqel0","pricing_plan_id":"cebpf4jnsgd1na2vs0mg"},{"bike_id":"13e4adb2-9e8c-4ccd-9817-81e367f3f058","system_id":"levelo_inurba_marseille","lat":43.29196,"lon":5.35798,"is_reserved":false,"is_disabled":false,"rental_uris":{"android":"levelo://app?vid=13e4adb2-9e8c-4ccd-9817-81e367f3f058","ios":"levelo://app?vid=13e4adb2-9e8c-4ccd-9817-81e367f3f058"},"vehicle_type_id":"4","last_reported":1723295386,"current_range_meters":27200,"station_id":"ce4bhb12rcd13ifvqel0","pricing_plan_id":"cebpf4jnsgd1na2vs0mg"},{"bike_id":"a208c92f-d234-40e8-8fe6-8282e6edba9d","system_id":"levelo_inurba_marseille","lat":43.29198,"lon":5.35784,"is_reserved":false,"is_disabled":false,"rental_uris":{"android":"levelo://app?vid=a208c92f-d234-40e8-8fe6-8282e6edba9d","ios":"levelo://app?vid=a208c92f-d234-40e8-8fe6-8282e6edba9d"},"vehicle_type_id":"4","last_reported":1723295386,"current_range_meters":19600,"station_id":"ce4bhb12rcd13ifvqel0","pricing_plan_id":"cebpf4jnsgd1na2vs0mg"},{"bike_id":"4dad3722-6baa-4d91-bfec-b89feb5e4614","system_id":"levelo_inurba_marseille","lat":43.292005,"lon":5.357875,"is_reserved":false,"is_disabled":false,"rental_uris":{"android":"levelo://app?vid=4dad3722-6baa-4d91-bfec-b89feb5e4614","ios":"levelo://app?vid=4dad3722-6baa-4d91-bfec-b89feb5e4614"},"vehicle_type_id":"4","last_reported":1723295386,"current_range_meters":16400,"station_id":"ce4bhb12rcd13ifvqel0","pricing_plan_id":"cebpf4jnsgd1na2vs0mg"},{"bike_id":"61d0fec2-b23f-4fde-90ff-7ec7353f5da6","system_id":"levelo_inurba_marseille","lat":43.30886,"lon":5.39641,"is_reserved":false,"is_disabled":false,"rental_uris":{"android":"levelo://app?vid=61d0fec2-b23f-4fde-90ff-7ec7353f5da6","ios":"levelo://app?vid=61d0fec2-b23f-4fde-90ff-7ec7353f5da6"},"vehicle_type_id":"4","last_reported":1723295386,"current_range_meters":0,"station_id":"ce4bh012rcd13ifvqcv0","pricing_plan_id":"cebpf4jnsgd1na2vs0mg"},{"bike_id":"9d4b68a5-c93f-4844-a235-5ff4a055b660","system_id":"levelo_inurba_marseille","lat":43.292385,"lon":5.37767,"is_reserved":false,"is_disabled":false,"rental_uris":{"android":"levelo://app?vid=9d4b68a5-c93f-4844-a235-5ff4a055b660","ios":"levelo://app?vid=9d4b68a5-c93f-4844-a235-5ff4a055b660"},"vehicle_type_id":"4","last_reported":1723295386,"current_range_meters":12000,"station_id":"","pricing_plan_id":"cebpf4jnsgd1na2vs0mg"},{"bike_id":"d7c9a90a-88ec-482f-9e36-9fed55bc738e","system_id":"levelo_inurba_marseille","lat":43.292005,"lon":5.357875,"is_reserved":false,"is_disabled":false,"rental_uris":{"android":"levelo://app?vid=d7c9a90a-88ec-482f-9e36-9fed55bc738e","ios":"levelo://app?vid=d7c9a90a-88ec-482f-9e36-9fed55bc738e"},"vehicle_type_id":"4","last_reported":1723295386,"current_range_meters":4400,"station_id":"ce4bhb12rcd13ifvqel0","pricing_plan_id":"cebpf4jnsgd1na2vs0mg"},{"bike_id":"dd318f16-a9ab-434f-bab6-a7d003b1c658","system_id":"levelo_inurba_marseille","lat":43.313291,"lon":5.396838,"is_reserved":false,"is_disabled":false,"rental_uris":{"android":"levelo://app?vid=dd318f16-a9ab-434f-bab6-a7d003b1c658","ios":"levelo://app?vid=dd318f16-a9ab-434f-bab6-a7d003b1c658"},"vehicle_type_id":"4","last_reported":1723295386,"current_range_meters":9200,"station_id":"ce4bgvp2rcd13ifvqcu0","pricing_plan_id":"cebpf4jnsgd1na2vs0mg"},{"bike_id":"1092882e-31f6-4a8b-b0ad-6ad8858b4b0d","system_id":"levelo_inurba_marseille","lat":43.313291,"lon":5.396838,"is_reserved":false,"is_disabled":false,"rental_uris":{"android":"levelo://app?vid=1092882e-31f6-4a8b-b0ad-6ad8858b4b0d","ios":"levelo://app?vid=1092882e-31f6-4a8b-b0ad-6ad8858b4b0d"},"vehicle_type_id":"4","last_reported":1723295386,"current_range_meters":24400,"station_id":"ce4bgvp2rcd13ifvqcu0","pricing_plan_id":"cebpf4jnsgd1na2vs0mg"},{"bike_id":"b168a055-8a35-4e69-bbc4-1c920f8755c3","system_id":"levelo_inurba_marseille","lat":43.309038,"lon":5.396546,"is_reserved":false,"is_disabled":false,"rental_uris":{"android":"levelo://app?vid=b168a055-8a35-4e69-bbc4-1c920f8755c3","ios":"levelo://app?vid=b168a055-8a35-4e69-bbc4-1c920f8755c3"},"vehicle_type_id":"4","last_reported":1723295386,"current_range_meters":6800,"station_id":"ce4bh012rcd13ifvqcv0","pricing_plan_id":"cebpf4jnsgd1na2vs0mg"},{"bike_id":"5b83db7d-041d-4d96-b3b1-0b3da7d9e885","system_id":"levelo_inurba_marseille","lat":43.309047,"lon":5.396551,"is_reserved":false,"is_disabled":false,"rental_uris":{"android":"levelo://app?vid=5b83db7d-041d-4d96-b3b1-0b3da7d9e885","ios":"levelo://app?vid=5b83db7d-041d-4d96-b3b1-0b3da7d9e885"},"vehicle_type_id":"4","last_reported":1723295386,"current_range_meters":24000,"station_id":"ce4bh012rcd13ifvqcv0","pricing_plan_id":"cebpf4jnsgd1na2vs0mg"},{"bike_id":"151c3181-20a4-4ef4-a28a-8fa838d4674b","system_id":"levelo_inurba_marseille","lat":43.290779,"lon":5.371482,"is_reserved":false,"is_disabled":false,"rental_uris":{"android":"levelo://app?vid=151c3181-20a4-4ef4-a28a-8fa838d4674b","ios":"levelo://app?vid=151c3181-20a4-4ef4-a28a-8fa838d4674b"},"vehicle_type_id":"4","last_reported":1723295386,"current_range_meters":14000,"station_id":"ce4bh5p2rcd13ifvqe4g","pricing_plan_id":"cebpf4jnsgd1na2vs0mg"},{"bike_id":"74703a3b-3b52-4523-9ad6-aeb97dca3b97","system_id":"levelo_inurba_marseille","lat":43.290779,"lon":5.371482,"is_reserved":false,"is_disabled":false,"rental_uris":{"android":"levelo://app?vid=74703a3b-3b52-4523-9ad6-aeb97dca3b97","ios":"levelo://app?vid=74703a3b-3b52-4523-9ad6-aeb97dca3b97"},"vehicle_type_id":"4","last_reported":1723295386,"current_range_meters":24400,"station_id":"ce4bh5p2rcd13ifvqe4g","pricing_plan_id":"cebpf4jnsgd1na2vs0mg"},{"bike_id":"b4df9eb8-5527-4c2f-bd76-73bfbae605f3","system_id":"levelo_inurba_marseille","lat":43.290779,"lon":5.371482,"is_reserved":false,"is_disabled":false,"rental_uris":{"android":"levelo://app?vid=b4df9eb8-5527-4c2f-bd76-73bfbae605f3","ios":"levelo://app?vid=b4df9eb8-5527-4c2f-bd76-73bfbae605f3"},"vehicle_type_id":"4","last_reported":1723295386,"current_range_meters":17600,"station_id":"ce4bh5p2rcd13ifvqe4g","pricing_plan_id":"cebpf4jnsgd1na2vs0mg"},{"bike_id":"e3a26630-48e6-445a-b73c-2dc39c1f1b2b","system_id":"levelo_inurba_marseille","lat":43.290779,"lon":5.371482,"is_reserved":false,"is_disabled":false,"rental_uris":{"android":"levelo://app?vid=e3a26630-48e6-445a-b73c-2dc39c1f1b2b","ios":"levelo://app?vid=e3a26630-48e6-445a-b73c-2dc39c1f1b2b"},"vehicle_type_id":"4","last_reported":1723295386,"current_range_meters":5200,"station_id":"ce4bh5p2rcd13ifvqe4g","pricing_plan_id":"cebpf4jnsgd1na2vs0mg"},{"bike_id":"d3b71699-2fa3-4842-894d-5e715d8cf436","system_id":"levelo_inurba_marseille","lat":43.290624,"lon":5.359245,"is_reserved":false,"is_disabled":false,"rental_uris":{"android":"levelo://app?vid=d3b71699-2fa3-4842-894d-5e715d8cf436","ios":"levelo://app?vid=d3b71699-2fa3-4842-894d-5e715d8cf436"},"vehicle_type_id":"4","last_reported":1723295386,"current_range_meters":17600,"station_id":"ce4bha92rcd13ifvqeg0","pricing_plan_id":"cebpf4jnsgd1na2vs0mg"},{"bike_id":"09399e9b-a4fd-4a60-9635-8b7ad877fff0","system_id":"levelo_inurba_marseille","lat":43.290624,"lon":5.359245,"is_reserved":false,"is_disabled":false,"rental_uris":{"android":"levelo://app?vid=09399e9b-a4fd-4a60-9635-8b7ad877fff0","ios":"levelo://app?vid=09399e9b-a4fd-4a60-9635-8b7ad877fff0"},"vehicle_type_id":"4","last_reported":1723295386,"current_range_meters":3600,"station_id":"ce4bha92rcd13ifvqeg0","pricing_plan_id":"cebpf4jnsgd1na2vs0mg"},{"bike_id":"9319951f-ac54-48ba-a881-38837b9a9855","system_id":"levelo_inurba_marseille","lat":43.33525,"lon":5.36155,"is_reserved":false,"is_disabled":false,"rental_uris":{"android":"levelo://app?vid=9319951f-ac54-48ba-a881-38837b9a9855","ios":"levelo://app?vid=9319951f-ac54-48ba-a881-38837b9a9855"},"vehicle_type_id":"4","last_reported":1723295386,"current_range_meters":19200,"station_id":"","pricing_plan_id":"cebpf4jnsgd1na2vs0mg"},{"bike_id":"ab49bb54-c46a-4566-a275-99d98a8d1fce","system_id":"levelo_inurba_marseille","lat":43.290624,"lon":5.359245,"is_reserved":false,"is_disabled":false,"rental_uris":{"android":"levelo://app?vid=ab49bb54-c46a-4566-a275-99d98a8d1fce","ios":"levelo://app?vid=ab49bb54-c46a-4566-a275-99d98a8d1fce"},"vehicle_type_id":"4","last_reported":1723295386,"current_range_meters":29200,"station_id":"ce4bha92rcd13ifvqeg0","pricing_plan_id":"cebpf4jnsgd1na2vs0mg"},{"bike_id":"4859a987-402f-4c0a-a03f-eeabc583bd9e","system_id":"levelo_inurba_marseille","lat":43.290631,"lon":5.359244,"is_reserved":false,"is_disabled":false,"rental_uris":{"android":"levelo://app?vid=4859a987-402f-4c0a-a03f-eeabc583bd9e","ios":"levelo://app?vid=4859a987-402f-4c0a-a03f-eeabc583bd9e"},"vehicle_type_id":"4","last_reported":1723295386,"current_range_meters":23600,"station_id":"ce4bha92rcd13ifvqeg0","pricing_plan_id":"cebpf4jnsgd1na2vs0mg"},{"bike_id":"71306595-9bb5-4a74-88b2-6606adb43e2d","system_id":"levelo_inurba_marseille","lat":43.28936,"lon":5.36631,"is_reserved":false,"is_disabled":false,"rental_uris":{"android":"levelo://app?vid=71306595-9bb5-4a74-88b2-6606adb43e2d","ios":"levelo://app?vid=71306595-9bb5-4a74-88b2-6606adb43e2d"},"vehicle_type_id":"4","last_reported":1723295386,"current_range_meters":0,"station_id":"ce4bhap2rcd13ifvqek0","pricing_plan_id":"cebpf4jnsgd1na2vs0mg"},{"bike_id":"e9c5742a-d63a-4b14-9230-fc18ac492fb6","system_id":"levelo_inurba_marseille","lat":43.304296,"lon":5.397513,"is_reserved":false,"is_disabled":false,"rental_uris":{"android":"levelo://app?vid=e9c5742a-d63a-4b14-9230-fc18ac492fb6","ios":"levelo://app?vid=e9c5742a-d63a-4b14-9230-fc18ac492fb6"},"vehicle_type_id":"4","last_reported":1723295386,"current_range_meters":27600,"station_id":"ce4bh092rcd13ifvqd20","pricing_plan_id":"cebpf4jnsgd1na2vs0mg"},{"bike_id":"1bc72692-7c92-4d12-aa19-d133f4507351","system_id":"levelo_inurba_marseille","lat":43.292644,"lon":5.384257,"is_reserved":false,"is_disabled":false,"rental_uris":{"android":"levelo://app?vid=1bc72692-7c92-4d12-aa19-d133f4507351","ios":"levelo://app?vid=1bc72692-7c92-4d12-aa19-d133f4507351"},"vehicle_type_id":"4","last_reported":1723295386,"current_range_meters":10800,"station_id":"ce4bh692rcd13ifvqea0","pricing_plan_id":"cebpf4jnsgd1na2vs0mg"},{"bike_id":"de37ef70-f340-4239-832a-cd5d613c82a8","system_id":"levelo_inurba_marseille","lat":43.290104,"lon":5.356111,"is_reserved":false,"is_disabled":false,"rental_uris":{"android":"levelo://app?vid=de37ef70-f340-4239-832a-cd5d613c82a8","ios":"levelo://app?vid=de37ef70-f340-4239-832a-cd5d613c82a8"},"vehicle_type_id":"4","last_reported":1723295386,"current_range_meters":14400,"station_id":"ce4bhb92rcd13ifvqen0","pricing_plan_id":"cebpf4jnsgd1na2vs0mg"},{"bike_id":"f08b1432-cc97-4614-b8d6-18e19a51afe1","system_id":"levelo_inurba_marseille","lat":43.290104,"lon":5.356111,"is_reserved":false,"is_disabled":false,"rental_uris":{"android":"levelo://app?vid=f08b1432-cc97-4614-b8d6-18e19a51afe1","ios":"levelo://app?vid=f08b1432-cc97-4614-b8d6-18e19a51afe1"},"vehicle_type_id":"4","last_reported":1723295386,"current_range_meters":19200,"station_id":"ce4bhb92rcd13ifvqen0","pricing_plan_id":"cebpf4jnsgd1na2vs0mg"},{"bike_id":"af69493b-d2f8-4daa-8b20-c05f35e8c324","system_id":"levelo_inurba_marseille","lat":43.290104,"lon":5.356111,"is_reserved":false,"is_disabled":false,"rental_uris":{"android":"levelo://app?vid=af69493b-d2f8-4daa-8b20-c05f35e8c324","ios":"levelo://app?vid=af69493b-d2f8-4daa-8b20-c05f35e8c324"},"vehicle_type_id":"4","last_reported":1723295386,"current_range_meters":10800,"station_id":"ce4bhb92rcd13ifvqen0","pricing_plan_id":"cebpf4jnsgd1na2vs0mg"},{"bike_id":"ec3600b8-a1a7-427b-894f-0af9a9f74a66","system_id":"levelo_inurba_marseille","lat":43.290103,"lon":5.356114,"is_reserved":false,"is_disabled":false,"rental_uris":{"android":"levelo://app?vid=ec3600b8-a1a7-427b-894f-0af9a9f74a66","ios":"levelo://app?vid=ec3600b8-a1a7-427b-894f-0af9a9f74a66"},"vehicle_type_id":"4","last_reported":1723295386,"current_range_meters":29200,"station_id":"ce4bhb92rcd13ifvqen0","pricing_plan_id":"cebpf4jnsgd1na2vs0mg"},{"bike_id":"813a9eb6-1f40-439e-9668-de72b8008bcc","system_id":"levelo_inurba_marseille","lat":43.290104,"lon":5.356111,"is_reserved":false,"is_disabled":false,"rental_uris":{"android":"levelo://app?vid=813a9eb6-1f40-439e-9668-de72b8008bcc","ios":"levelo://app?vid=813a9eb6-1f40-439e-9668-de72b8008bcc"},"vehicle_type_id":"4","last_reported":1723295386,"current_range_meters":14400,"station_id":"ce4bhb92rcd13ifvqen0","pricing_plan_id":"cebpf4jnsgd1na2vs0mg"},{"bike_id":"d36a7dbb-1cfc-44aa-bb47-0c87519fa4f1","system_id":"levelo_inurba_marseille","lat":43.290104,"lon":5.356111,"is_reserved":false,"is_disabled":false,"rental_uris":{"android":"levelo://app?vid=d36a7dbb-1cfc-44aa-bb47-0c87519fa4f1","ios":"levelo://app?vid=d36a7dbb-1cfc-44aa-bb47-0c87519fa4f1"},"vehicle_type_id":"4","last_reported":1723295386,"current_range_meters":31600,"station_id":"ce4bhb92rcd13ifvqen0","pricing_plan_id":"cebpf4jnsgd1na2vs0mg"},{"bike_id":"3e8361a5-70cb-4795-a351-0c9497d9c4db","system_id":"levelo_inurba_marseille","lat":43.33017,"lon":5.3904,"is_reserved":false,"is_disabled":false,"rental_uris":{"android":"levelo://app?vid=3e8361a5-70cb-4795-a351-0c9497d9c4db","ios":"levelo://app?vid=3e8361a5-70cb-4795-a351-0c9497d9c4db"},"vehicle_type_id":"4","last_reported":1723295386,"current_range_meters":12000,"station_id":"ce4bhr92rcd13ifvqhrg","pricing_plan_id":"cebpf4jnsgd1na2vs0mg"},{"bike_id":"5ad6c249-c4b2-40df-b486-6e783a80d57a","system_id":"levelo_inurba_marseille","lat":43.330442,"lon":5.389148,"is_reserved":false,"is_disabled":false,"rental_uris":{"android":"levelo://app?vid=5ad6c249-c4b2-40df-b486-6e783a80d57a","ios":"levelo://app?vid=5ad6c249-c4b2-40df-b486-6e783a80d57a"},"vehicle_type_id":"4","last_reported":1723295386,"current_range_meters":31600,"station_id":"ce4bhr92rcd13ifvqhrg","pricing_plan_id":"cebpf4jnsgd1na2vs0mg"},{"bike_id":"5d07b028-ea05-4457-bb0d-78c8e31c24f4","system_id":"levelo_inurba_marseille","lat":43.330196,"lon":5.390421,"is_reserved":false,"is_disabled":false,"rental_uris":{"android":"levelo://app?vid=5d07b028-ea05-4457-bb0d-78c8e31c24f4","ios":"levelo://app?vid=5d07b028-ea05-4457-bb0d-78c8e31c24f4"},"vehicle_type_id":"4","last_reported":1723295386,"current_range_meters":14400,"station_id":"ce4bhr92rcd13ifvqhrg","pricing_plan_id":"cebpf4jnsgd1na2vs0mg"},{"bike_id":"45400c6e-8fe0-489f-a0b7-378baeec17c2","system_id":"levelo_inurba_marseille","lat":43.330442,"lon":5.389148,"is_reserved":false,"is_disabled":false,"rental_uris":{"android":"levelo://app?vid=45400c6e-8fe0-489f-a0b7-378baeec17c2","ios":"levelo://app?vid=45400c6e-8fe0-489f-a0b7-378baeec17c2"},"vehicle_type_id":"4","last_reported":1723295386,"current_range_meters":30800,"station_id":"ce4bhr92rcd13ifvqhrg","pricing_plan_id":"cebpf4jnsgd1na2vs0mg"},{"bike_id":"6cabe77f-3146-42cc-9fec-0e4390ac1cda","system_id":"levelo_inurba_marseille","lat":43.295169,"lon":5.390426,"is_reserved":false,"is_disabled":false,"rental_uris":{"android":"levelo://app?vid=6cabe77f-3146-42cc-9fec-0e4390ac1cda","ios":"levelo://app?vid=6cabe77f-3146-42cc-9fec-0e4390ac1cda"},"vehicle_type_id":"4","last_reported":1723295386,"current_range_meters":29600,"station_id":"ce4bh3p2rcd13ifvqdp0","pricing_plan_id":"cebpf4jnsgd1na2vs0mg"},{"bike_id":"955f7c39-8a7e-4dec-b39c-c97a67b5433a","system_id":"levelo_inurba_marseille","lat":43.33025,"lon":5.39036,"is_reserved":false,"is_disabled":false,"rental_uris":{"android":"levelo://app?vid=955f7c39-8a7e-4dec-b39c-c97a67b5433a","ios":"levelo://app?vid=955f7c39-8a7e-4dec-b39c-c97a67b5433a"},"vehicle_type_id":"4","last_reported":1723295386,"current_range_meters":24800,"station_id":"ce4bhr92rcd13ifvqhrg","pricing_plan_id":"cebpf4jnsgd1na2vs0mg"},{"bike_id":"d79b94ee-5797-4e8c-8921-3465ea8fbc4b","system_id":"levelo_inurba_marseille","lat":43.330442,"lon":5.389148,"is_reserved":false,"is_disabled":false,"rental_uris":{"android":"levelo://app?vid=d79b94ee-5797-4e8c-8921-3465ea8fbc4b","ios":"levelo://app?vid=d79b94ee-5797-4e8c-8921-3465ea8fbc4b"},"vehicle_type_id":"4","last_reported":1723295386,"current_range_meters":24000,"station_id":"ce4bhr92rcd13ifvqhrg","pricing_plan_id":"cebpf4jnsgd1na2vs0mg"},{"bike_id":"028d704d-618f-4134-b66a-502b4cbf3fd1","system_id":"levelo_inurba_marseille","lat":43.330442,"lon":5.389148,"is_reserved":false,"is_disabled":false,"rental_uris":{"android":"levelo://app?vid=028d704d-618f-4134-b66a-502b4cbf3fd1","ios":"levelo://app?vid=028d704d-618f-4134-b66a-502b4cbf3fd1"},"vehicle_type_id":"4","last_reported":1723295386,"current_range_meters":800,"station_id":"ce4bhr92rcd13ifvqhrg","pricing_plan_id":"cebpf4jnsgd1na2vs0mg"},{"bike_id":"3426e4c0-ccf4-47a9-aa94-cc9d783b72ec","system_id":"levelo_inurba_marseille","lat":43.33024,"lon":5.39042,"is_reserved":false,"is_disabled":false,"rental_uris":{"android":"levelo://app?vid=3426e4c0-ccf4-47a9-aa94-cc9d783b72ec","ios":"levelo://app?vid=3426e4c0-ccf4-47a9-aa94-cc9d783b72ec"},"vehicle_type_id":"4","last_reported":1723295386,"current_range_meters":12800,"station_id":"ce4bhr92rcd13ifvqhrg","pricing_plan_id":"cebpf4jnsgd1na2vs0mg"},{"bike_id":"0c0e1fec-3432-45ae-8332-161f590ece58","system_id":"levelo_inurba_marseille","lat":43.33029,"lon":5.39041,"is_reserved":false,"is_disabled":false,"rental_uris":{"android":"levelo://app?vid=0c0e1fec-3432-45ae-8332-161f590ece58","ios":"levelo://app?vid=0c0e1fec-3432-45ae-8332-161f590ece58"},"vehicle_type_id":"4","last_reported":1723295386,"current_range_meters":28400,"station_id":"ce4bhr92rcd13ifvqhrg","pricing_plan_id":"cebpf4jnsgd1na2vs0mg"},{"bike_id":"787da671-781a-411c-9efe-1aa044bc5abc","system_id":"levelo_inurba_marseille","lat":43.2901,"lon":5.381269,"is_reserved":false,"is_disabled":false,"rental_uris":{"android":"levelo://app?vid=787da671-781a-411c-9efe-1aa044bc5abc","ios":"levelo://app?vid=787da671-781a-411c-9efe-1aa044bc5abc"},"vehicle_type_id":"4","last_reported":1723295386,"current_range_meters":26400,"station_id":"ce4bh4p2rcd13ifvqe1g","pricing_plan_id":"cebpf4jnsgd1na2vs0mg"},{"bike_id":"75abc783-f7d7-4ff6-86f5-0f93b8617d64","system_id":"levelo_inurba_marseille","lat":43.28856,"lon":5.358371,"is_reserved":false,"is_disabled":false,"rental_uris":{"android":"levelo://app?vid=75abc783-f7d7-4ff6-86f5-0f93b8617d64","ios":"levelo://app?vid=75abc783-f7d7-4ff6-86f5-0f93b8617d64"},"vehicle_type_id":"4","last_reported":1723295386,"current_range_meters":10800,"station_id":"ce4bhb12rcd13ifvqem0","pricing_plan_id":"cebpf4jnsgd1na2vs0mg"},{"bike_id":"e27a01ef-061c-4c0e-acd8-74bd06f8bfac","system_id":"levelo_inurba_marseille","lat":43.337395,"lon":5.374622,"is_reserved":false,"is_disabled":false,"rental_uris":{"android":"levelo://app?vid=e27a01ef-061c-4c0e-acd8-74bd06f8bfac","ios":"levelo://app?vid=e27a01ef-061c-4c0e-acd8-74bd06f8bfac"},"vehicle_type_id":"4","last_reported":1723295386,"current_range_meters":30000,"station_id":"","pricing_plan_id":"cebpf4jnsgd1na2vs0mg"},{"bike_id":"816b6bc0-a12b-4c0a-a9db-b226741b5e2e","system_id":"levelo_inurba_marseille","lat":43.309371,"lon":5.401449,"is_reserved":false,"is_disabled":false,"rental_uris":{"android":"levelo://app?vid=816b6bc0-a12b-4c0a-a9db-b226741b5e2e","ios":"levelo://app?vid=816b6bc0-a12b-4c0a-a9db-b226741b5e2e"},"vehicle_type_id":"4","last_reported":1723295386,"current_range_meters":8000,"station_id":"ce4bgvp2rcd13ifvqct0","pricing_plan_id":"cebpf4jnsgd1na2vs0mg"},{"bike_id":"ac75d8e5-5139-4e43-a64e-51e7994c2517","system_id":"levelo_inurba_marseille","lat":43.337444,"lon":5.374475,"is_reserved":false,"is_disabled":false,"rental_uris":{"android":"levelo://app?vid=ac75d8e5-5139-4e43-a64e-51e7994c2517","ios":"levelo://app?vid=ac75d8e5-5139-4e43-a64e-51e7994c2517"},"vehicle_type_id":"3","last_reported":1723295386,"current_range_meters":24800,"station_id":"","pricing_plan_id":"cebpf4jnsgd1na2vs0mg"},{"bike_id":"3236191b-4645-49cd-bd26-79f088e2adc8","system_id":"levelo_inurba_marseille","lat":43.309371,"lon":5.401449,"is_reserved":false,"is_disabled":false,"rental_uris":{"android":"levelo://app?vid=3236191b-4645-49cd-bd26-79f088e2adc8","ios":"levelo://app?vid=3236191b-4645-49cd-bd26-79f088e2adc8"},"vehicle_type_id":"4","last_reported":1723295386,"current_range_meters":22400,"station_id":"ce4bgvp2rcd13ifvqct0","pricing_plan_id":"cebpf4jnsgd1na2vs0mg"},{"bike_id":"1115374c-9bd1-4203-8798-2954097db088","system_id":"levelo_inurba_marseille","lat":43.33742,"lon":5.37467,"is_reserved":false,"is_disabled":false,"rental_uris":{"android":"levelo://app?vid=1115374c-9bd1-4203-8798-2954097db088","ios":"levelo://app?vid=1115374c-9bd1-4203-8798-2954097db088"},"vehicle_type_id":"4","last_reported":1723295386,"current_range_meters":6800,"station_id":"","pricing_plan_id":"cebpf4jnsgd1na2vs0mg"},{"bike_id":"7553d7c6-8eef-4b21-9dca-534ec43256a6","system_id":"levelo_inurba_marseille","lat":43.33741,"lon":5.37474,"is_reserved":false,"is_disabled":false,"rental_uris":{"android":"levelo://app?vid=7553d7c6-8eef-4b21-9dca-534ec43256a6","ios":"levelo://app?vid=7553d7c6-8eef-4b21-9dca-534ec43256a6"},"vehicle_type_id":"4","last_reported":1723295386,"current_range_meters":14800,"station_id":"","pricing_plan_id":"cebpf4jnsgd1na2vs0mg"},{"bike_id":"99ff80d6-767c-4ca9-81b5-c19f253f3bd3","system_id":"levelo_inurba_marseille","lat":43.33745,"lon":5.37451,"is_reserved":false,"is_disabled":false,"rental_uris":{"android":"levelo://app?vid=99ff80d6-767c-4ca9-81b5-c19f253f3bd3","ios":"levelo://app?vid=99ff80d6-767c-4ca9-81b5-c19f253f3bd3"},"vehicle_type_id":"4","last_reported":1723295386,"current_range_meters":4000,"station_id":"","pricing_plan_id":"cebpf4jnsgd1na2vs0mg"},{"bike_id":"8b5f6228-3582-497c-9919-c849c8ef0c9b","system_id":"levelo_inurba_marseille","lat":43.337437,"lon":5.374609,"is_reserved":false,"is_disabled":false,"rental_uris":{"android":"levelo://app?vid=8b5f6228-3582-497c-9919-c849c8ef0c9b","ios":"levelo://app?vid=8b5f6228-3582-497c-9919-c849c8ef0c9b"},"vehicle_type_id":"4","last_reported":1723295386,"current_range_meters":2000,"station_id":"","pricing_plan_id":"cebpf4jnsgd1na2vs0mg"},{"bike_id":"663f3909-6d88-4ad4-b47e-2f2f7399ecd1","system_id":"levelo_inurba_marseille","lat":43.309371,"lon":5.401449,"is_reserved":false,"is_disabled":false,"rental_uris":{"android":"levelo://app?vid=663f3909-6d88-4ad4-b47e-2f2f7399ecd1","ios":"levelo://app?vid=663f3909-6d88-4ad4-b47e-2f2f7399ecd1"},"vehicle_type_id":"4","last_reported":1723295386,"current_range_meters":31600,"station_id":"ce4bgvp2rcd13ifvqct0","pricing_plan_id":"cebpf4jnsgd1na2vs0mg"},{"bike_id":"22fd1cf3-98fd-47cb-b0a5-88b91dc69f0c","system_id":"levelo_inurba_marseille","lat":43.30934,"lon":5.40142,"is_reserved":false,"is_disabled":false,"rental_uris":{"android":"levelo://app?vid=22fd1cf3-98fd-47cb-b0a5-88b91dc69f0c","ios":"levelo://app?vid=22fd1cf3-98fd-47cb-b0a5-88b91dc69f0c"},"vehicle_type_id":"4","last_reported":1723295386,"current_range_meters":8000,"station_id":"ce4bgvp2rcd13ifvqct0","pricing_plan_id":"cebpf4jnsgd1na2vs0mg"},{"bike_id":"43f21911-683d-4ba4-93d3-8a7e20e1c78c","system_id":"levelo_inurba_marseille","lat":43.33744,"lon":5.37467,"is_reserved":false,"is_disabled":false,"rental_uris":{"android":"levelo://app?vid=43f21911-683d-4ba4-93d3-8a7e20e1c78c","ios":"levelo://app?vid=43f21911-683d-4ba4-93d3-8a7e20e1c78c"},"vehicle_type_id":"4","last_reported":1723295386,"current_range_meters":31200,"station_id":"","pricing_plan_id":"cebpf4jnsgd1na2vs0mg"},{"bike_id":"a99690a8-3e4f-41a1-9b6a-5b43249a269f","system_id":"levelo_inurba_marseille","lat":43.33746,"lon":5.37457,"is_reserved":false,"is_disabled":false,"rental_uris":{"android":"levelo://app?vid=a99690a8-3e4f-41a1-9b6a-5b43249a269f","ios":"levelo://app?vid=a99690a8-3e4f-41a1-9b6a-5b43249a269f"},"vehicle_type_id":"4","last_reported":1723295386,"current_range_meters":4800,"station_id":"","pricing_plan_id":"cebpf4jnsgd1na2vs0mg"},{"bike_id":"808825c6-b0ab-4a86-84a7-0b8d570512b0","system_id":"levelo_inurba_marseille","lat":43.30926,"lon":5.40142,"is_reserved":false,"is_disabled":false,"rental_uris":{"android":"levelo://app?vid=808825c6-b0ab-4a86-84a7-0b8d570512b0","ios":"levelo://app?vid=808825c6-b0ab-4a86-84a7-0b8d570512b0"},"vehicle_type_id":"4","last_reported":1723295386,"current_range_meters":400,"station_id":"ce4bgvp2rcd13ifvqct0","pricing_plan_id":"cebpf4jnsgd1na2vs0mg"},{"bike_id":"0fe88d95-00f6-4b80-942e-9fef532d87ec","system_id":"levelo_inurba_marseille","lat":43.309371,"lon":5.401449,"is_reserved":false,"is_disabled":false,"rental_uris":{"android":"levelo://app?vid=0fe88d95-00f6-4b80-942e-9fef532d87ec","ios":"levelo://app?vid=0fe88d95-00f6-4b80-942e-9fef532d87ec"},"vehicle_type_id":"4","last_reported":1723295386,"current_range_meters":31200,"station_id":"ce4bgvp2rcd13ifvqct0","pricing_plan_id":"cebpf4jnsgd1na2vs0mg"},{"bike_id":"c3cf305c-692c-41ed-b07c-7ebbc13f240d","system_id":"levelo_inurba_marseille","lat":43.337463,"lon":5.374608,"is_reserved":false,"is_disabled":false,"rental_uris":{"android":"levelo://app?vid=c3cf305c-692c-41ed-b07c-7ebbc13f240d","ios":"levelo://app?vid=c3cf305c-692c-41ed-b07c-7ebbc13f240d"},"vehicle_type_id":"4","last_reported":1723295386,"current_range_meters":14400,"station_id":"","pricing_plan_id":"cebpf4jnsgd1na2vs0mg"},{"bike_id":"7fd52e3d-d8a0-4216-a455-f832a3c42d30","system_id":"levelo_inurba_marseille","lat":43.33748,"lon":5.37453,"is_reserved":false,"is_disabled":false,"rental_uris":{"android":"levelo://app?vid=7fd52e3d-d8a0-4216-a455-f832a3c42d30","ios":"levelo://app?vid=7fd52e3d-d8a0-4216-a455-f832a3c42d30"},"vehicle_type_id":"4","last_reported":1723295386,"current_range_meters":29600,"station_id":"","pricing_plan_id":"cebpf4jnsgd1na2vs0mg"},{"bike_id":"bc4ad99f-e946-4e5c-a7a2-41e11e702155","system_id":"levelo_inurba_marseille","lat":43.30925,"lon":5.40144,"is_reserved":false,"is_disabled":false,"rental_uris":{"android":"levelo://app?vid=bc4ad99f-e946-4e5c-a7a2-41e11e702155","ios":"levelo://app?vid=bc4ad99f-e946-4e5c-a7a2-41e11e702155"},"vehicle_type_id":"4","last_reported":1723295386,"current_range_meters":31200,"station_id":"ce4bgvp2rcd13ifvqct0","pricing_plan_id":"cebpf4jnsgd1na2vs0mg"},{"bike_id":"1596ed5a-2748-4147-884b-51e994b2b8ca","system_id":"levelo_inurba_marseille","lat":43.337482,"lon":5.374568,"is_reserved":false,"is_disabled":false,"rental_uris":{"android":"levelo://app?vid=1596ed5a-2748-4147-884b-51e994b2b8ca","ios":"levelo://app?vid=1596ed5a-2748-4147-884b-51e994b2b8ca"},"vehicle_type_id":"4","last_reported":1723295386,"current_range_meters":16400,"station_id":"","pricing_plan_id":"cebpf4jnsgd1na2vs0mg"},{"bike_id":"176078ac-dbf3-4a59-b7a0-e3f26aa7db6d","system_id":"levelo_inurba_marseille","lat":43.337497,"lon":5.374558,"is_reserved":false,"is_disabled":false,"rental_uris":{"android":"levelo://app?vid=176078ac-dbf3-4a59-b7a0-e3f26aa7db6d","ios":"levelo://app?vid=176078ac-dbf3-4a59-b7a0-e3f26aa7db6d"},"vehicle_type_id":"4","last_reported":1723295386,"current_range_meters":10800,"station_id":"","pricing_plan_id":"cebpf4jnsgd1na2vs0mg"},{"bike_id":"1d380d86-5e76-461b-bb6c-dc94aca12cd4","system_id":"levelo_inurba_marseille","lat":43.3375,"lon":5.37458,"is_reserved":false,"is_disabled":false,"rental_uris":{"android":"levelo://app?vid=1d380d86-5e76-461b-bb6c-dc94aca12cd4","ios":"levelo://app?vid=1d380d86-5e76-461b-bb6c-dc94aca12cd4"},"vehicle_type_id":"4","last_reported":1723295386,"current_range_meters":10400,"station_id":"","pricing_plan_id":"cebpf4jnsgd1na2vs0mg"},{"bike_id":"6137b86e-8de9-4c4f-94ef-bfa372175031","system_id":"levelo_inurba_marseille","lat":43.337513,"lon":5.37454,"is_reserved":false,"is_disabled":false,"rental_uris":{"android":"levelo://app?vid=6137b86e-8de9-4c4f-94ef-bfa372175031","ios":"levelo://app?vid=6137b86e-8de9-4c4f-94ef-bfa372175031"},"vehicle_type_id":"4","last_reported":1723295386,"current_range_meters":16000,"station_id":"","pricing_plan_id":"cebpf4jnsgd1na2vs0mg"},{"bike_id":"3bf2c92b-e810-4497-81f3-0eb40ecad1f5","system_id":"levelo_inurba_marseille","lat":43.33754,"lon":5.3744,"is_reserved":false,"is_disabled":false,"rental_uris":{"android":"levelo://app?vid=3bf2c92b-e810-4497-81f3-0eb40ecad1f5","ios":"levelo://app?vid=3bf2c92b-e810-4497-81f3-0eb40ecad1f5"},"vehicle_type_id":"4","last_reported":1723295386,"current_range_meters":30000,"station_id":"","pricing_plan_id":"cebpf4jnsgd1na2vs0mg"},{"bike_id":"f2c39657-f64b-4c05-b0b3-af94dc52094d","system_id":"levelo_inurba_marseille","lat":43.33756,"lon":5.37441,"is_reserved":false,"is_disabled":false,"rental_uris":{"android":"levelo://app?vid=f2c39657-f64b-4c05-b0b3-af94dc52094d","ios":"levelo://app?vid=f2c39657-f64b-4c05-b0b3-af94dc52094d"},"vehicle_type_id":"4","last_reported":1723295386,"current_range_meters":400,"station_id":"","pricing_plan_id":"cebpf4jnsgd1na2vs0mg"},{"bike_id":"c24ccdf3-8374-4625-a41a-8280c7fc42b0","system_id":"levelo_inurba_marseille","lat":43.337554,"lon":5.374452,"is_reserved":false,"is_disabled":false,"rental_uris":{"android":"levelo://app?vid=c24ccdf3-8374-4625-a41a-8280c7fc42b0","ios":"levelo://app?vid=c24ccdf3-8374-4625-a41a-8280c7fc42b0"},"vehicle_type_id":"4","last_reported":1723295386,"current_range_meters":25200,"station_id":"","pricing_plan_id":"cebpf4jnsgd1na2vs0mg"},{"bike_id":"1ece39e8-5ec5-465b-b0d5-bdea3554c74d","system_id":"levelo_inurba_marseille","lat":43.337584,"lon":5.374456,"is_reserved":false,"is_disabled":false,"rental_uris":{"android":"levelo://app?vid=1ece39e8-5ec5-465b-b0d5-bdea3554c74d","ios":"levelo://app?vid=1ece39e8-5ec5-465b-b0d5-bdea3554c74d"},"vehicle_type_id":"4","last_reported":1723295386,"current_range_meters":25600,"station_id":"","pricing_plan_id":"cebpf4jnsgd1na2vs0mg"},{"bike_id":"05b50d76-7193-4433-8135-a17e4315fb2d","system_id":"levelo_inurba_marseille","lat":43.33757,"lon":5.3746,"is_reserved":false,"is_disabled":false,"rental_uris":{"android":"levelo://app?vid=05b50d76-7193-4433-8135-a17e4315fb2d","ios":"levelo://app?vid=05b50d76-7193-4433-8135-a17e4315fb2d"},"vehicle_type_id":"4","last_reported":1723295386,"current_range_meters":24400,"station_id":"","pricing_plan_id":"cebpf4jnsgd1na2vs0mg"},{"bike_id":"12445b66-2542-4296-816a-e8ece665c4ce","system_id":"levelo_inurba_marseille","lat":43.337608,"lon":5.374398,"is_reserved":false,"is_disabled":false,"rental_uris":{"android":"levelo://app?vid=12445b66-2542-4296-816a-e8ece665c4ce","ios":"levelo://app?vid=12445b66-2542-4296-816a-e8ece665c4ce"},"vehicle_type_id":"4","last_reported":1723295386,"current_range_meters":29600,"station_id":"","pricing_plan_id":"cebpf4jnsgd1na2vs0mg"},{"bike_id":"76b0bce9-a861-4534-b1a2-64c1fde327ba","system_id":"levelo_inurba_marseille","lat":43.33759,"lon":5.37452,"is_reserved":false,"is_disabled":false,"rental_uris":{"android":"levelo://app?vid=76b0bce9-a861-4534-b1a2-64c1fde327ba","ios":"levelo://app?vid=76b0bce9-a861-4534-b1a2-64c1fde327ba"},"vehicle_type_id":"4","last_reported":1723295386,"current_range_meters":22000,"station_id":"","pricing_plan_id":"cebpf4jnsgd1na2vs0mg"},{"bike_id":"1d79ffd6-18f9-4da6-8a6c-bf932ba462f8","system_id":"levelo_inurba_marseille","lat":43.33762,"lon":5.37444,"is_reserved":false,"is_disabled":false,"rental_uris":{"android":"levelo://app?vid=1d79ffd6-18f9-4da6-8a6c-bf932ba462f8","ios":"levelo://app?vid=1d79ffd6-18f9-4da6-8a6c-bf932ba462f8"},"vehicle_type_id":"4","last_reported":1723295386,"current_range_meters":2400,"station_id":"","pricing_plan_id":"cebpf4jnsgd1na2vs0mg"},{"bike_id":"1edc3a17-05f3-4edf-975c-68baed72c09a","system_id":"levelo_inurba_marseille","lat":43.33764,"lon":5.37437,"is_reserved":false,"is_disabled":false,"rental_uris":{"android":"levelo://app?vid=1edc3a17-05f3-4edf-975c-68baed72c09a","ios":"levelo://app?vid=1edc3a17-05f3-4edf-975c-68baed72c09a"},"vehicle_type_id":"4","last_reported":1723295386,"current_range_meters":20000,"station_id":"","pricing_plan_id":"cebpf4jnsgd1na2vs0mg"},{"bike_id":"ea1cc1bc-b3f0-4093-8f5f-6dfff1fa63d9","system_id":"levelo_inurba_marseille","lat":43.33757,"lon":5.37484,"is_reserved":false,"is_disabled":false,"rental_uris":{"android":"levelo://app?vid=ea1cc1bc-b3f0-4093-8f5f-6dfff1fa63d9","ios":"levelo://app?vid=ea1cc1bc-b3f0-4093-8f5f-6dfff1fa63d9"},"vehicle_type_id":"4","last_reported":1723295386,"current_range_meters":29600,"station_id":"","pricing_plan_id":"cebpf4jnsgd1na2vs0mg"},{"bike_id":"e0da458e-1309-458b-956b-aab617b2ea05","system_id":"levelo_inurba_marseille","lat":43.3376,"lon":5.37473,"is_reserved":false,"is_disabled":false,"rental_uris":{"android":"levelo://app?vid=e0da458e-1309-458b-956b-aab617b2ea05","ios":"levelo://app?vid=e0da458e-1309-458b-956b-aab617b2ea05"},"vehicle_type_id":"4","last_reported":1723295386,"current_range_meters":27600,"station_id":"","pricing_plan_id":"cebpf4jnsgd1na2vs0mg"},{"bike_id":"1d8cd8ae-7f98-4be9-8378-a49954575452","system_id":"levelo_inurba_marseille","lat":43.33762,"lon":5.37461,"is_reserved":false,"is_disabled":false,"rental_uris":{"android":"levelo://app?vid=1d8cd8ae-7f98-4be9-8378-a49954575452","ios":"levelo://app?vid=1d8cd8ae-7f98-4be9-8378-a49954575452"},"vehicle_type_id":"4","last_reported":1723295386,"current_range_meters":26800,"station_id":"","pricing_plan_id":"cebpf4jnsgd1na2vs0mg"},{"bike_id":"5adc2e8d-b357-417c-a4c4-d1aa163ea738","system_id":"levelo_inurba_marseille","lat":43.33761,"lon":5.3747,"is_reserved":false,"is_disabled":false,"rental_uris":{"android":"levelo://app?vid=5adc2e8d-b357-417c-a4c4-d1aa163ea738","ios":"levelo://app?vid=5adc2e8d-b357-417c-a4c4-d1aa163ea738"},"vehicle_type_id":"4","last_reported":1723295386,"current_range_meters":3600,"station_id":"","pricing_plan_id":"cebpf4jnsgd1na2vs0mg"},{"bike_id":"a7e71684-8757-4c0e-98c0-cd5b05cd0ba7","system_id":"levelo_inurba_marseille","lat":43.33759,"lon":5.37492,"is_reserved":false,"is_disabled":false,"rental_uris":{"android":"levelo://app?vid=a7e71684-8757-4c0e-98c0-cd5b05cd0ba7","ios":"levelo://app?vid=a7e71684-8757-4c0e-98c0-cd5b05cd0ba7"},"vehicle_type_id":"4","last_reported":1723295386,"current_range_meters":30800,"station_id":"","pricing_plan_id":"cebpf4jnsgd1na2vs0mg"},{"bike_id":"10fd0510-81f7-4cd4-8909-99cc874e1a4c","system_id":"levelo_inurba_marseille","lat":43.33769,"lon":5.37435,"is_reserved":false,"is_disabled":false,"rental_uris":{"android":"levelo://app?vid=10fd0510-81f7-4cd4-8909-99cc874e1a4c","ios":"levelo://app?vid=10fd0510-81f7-4cd4-8909-99cc874e1a4c"},"vehicle_type_id":"4","last_reported":1723295386,"current_range_meters":30000,"station_id":"","pricing_plan_id":"cebpf4jnsgd1na2vs0mg"},{"bike_id":"5cb0d0f3-eacc-40eb-a46e-542fc59e15f6","system_id":"levelo_inurba_marseille","lat":43.33761,"lon":5.37487,"is_reserved":false,"is_disabled":false,"rental_uris":{"android":"levelo://app?vid=5cb0d0f3-eacc-40eb-a46e-542fc59e15f6","ios":"levelo://app?vid=5cb0d0f3-eacc-40eb-a46e-542fc59e15f6"},"vehicle_type_id":"4","last_reported":1723295386,"current_range_meters":30800,"station_id":"","pricing_plan_id":"cebpf4jnsgd1na2vs0mg"},{"bike_id":"7e9c89fe-e5d1-4d9e-90f7-d0076221035c","system_id":"levelo_inurba_marseille","lat":43.33771,"lon":5.37434,"is_reserved":false,"is_disabled":false,"rental_uris":{"android":"levelo://app?vid=7e9c89fe-e5d1-4d9e-90f7-d0076221035c","ios":"levelo://app?vid=7e9c89fe-e5d1-4d9e-90f7-d0076221035c"},"vehicle_type_id":"4","last_reported":1723295386,"current_range_meters":29600,"station_id":"","pricing_plan_id":"cebpf4jnsgd1na2vs0mg"},{"bike_id":"475ed14f-5d86-4ce1-9e44-9d4d1bef7035","system_id":"levelo_inurba_marseille","lat":43.33765,"lon":5.37486,"is_reserved":false,"is_disabled":false,"rental_uris":{"android":"levelo://app?vid=475ed14f-5d86-4ce1-9e44-9d4d1bef7035","ios":"levelo://app?vid=475ed14f-5d86-4ce1-9e44-9d4d1bef7035"},"vehicle_type_id":"4","last_reported":1723295386,"current_range_meters":25600,"station_id":"","pricing_plan_id":"cebpf4jnsgd1na2vs0mg"},{"bike_id":"fcb552aa-4b86-4ab7-bdf4-7617d41dcd66","system_id":"levelo_inurba_marseille","lat":43.33775,"lon":5.37432,"is_reserved":false,"is_disabled":false,"rental_uris":{"android":"levelo://app?vid=fcb552aa-4b86-4ab7-bdf4-7617d41dcd66","ios":"levelo://app?vid=fcb552aa-4b86-4ab7-bdf4-7617d41dcd66"},"vehicle_type_id":"4","last_reported":1723295386,"current_range_meters":26000,"station_id":"","pricing_plan_id":"cebpf4jnsgd1na2vs0mg"},{"bike_id":"cd8896af-689b-4582-8913-46d23dc5bde8","system_id":"levelo_inurba_marseille","lat":43.298681,"lon":5.397225,"is_reserved":false,"is_disabled":false,"rental_uris":{"android":"levelo://app?vid=cd8896af-689b-4582-8913-46d23dc5bde8","ios":"levelo://app?vid=cd8896af-689b-4582-8913-46d23dc5bde8"},"vehicle_type_id":"4","last_reported":1723295386,"current_range_meters":6400,"station_id":"ce4bh0h2rcd13ifvqd50","pricing_plan_id":"cebpf4jnsgd1na2vs0mg"},{"bike_id":"3839da32-e1b4-4596-9cd6-cd36462a7cbf","system_id":"levelo_inurba_marseille","lat":43.298681,"lon":5.397225,"is_reserved":false,"is_disabled":false,"rental_uris":{"android":"levelo://app?vid=3839da32-e1b4-4596-9cd6-cd36462a7cbf","ios":"levelo://app?vid=3839da32-e1b4-4596-9cd6-cd36462a7cbf"},"vehicle_type_id":"4","last_reported":1723295386,"current_range_meters":8800,"station_id":"ce4bh0h2rcd13ifvqd50","pricing_plan_id":"cebpf4jnsgd1na2vs0mg"},{"bike_id":"2ed2ac1b-debd-4015-9af4-fdc39a52819c","system_id":"levelo_inurba_marseille","lat":43.286593,"lon":5.363346,"is_reserved":false,"is_disabled":false,"rental_uris":{"android":"levelo://app?vid=2ed2ac1b-debd-4015-9af4-fdc39a52819c","ios":"levelo://app?vid=2ed2ac1b-debd-4015-9af4-fdc39a52819c"},"vehicle_type_id":"4","last_reported":1723295386,"current_range_meters":27600,"station_id":"ce4bhah2rcd13ifvqej0","pricing_plan_id":"cebpf4jnsgd1na2vs0mg"},{"bike_id":"c4f5973a-5bf2-4a55-b643-d922b9bd8822","system_id":"levelo_inurba_marseille","lat":43.298681,"lon":5.397225,"is_reserved":false,"is_disabled":false,"rental_uris":{"android":"levelo://app?vid=c4f5973a-5bf2-4a55-b643-d922b9bd8822","ios":"levelo://app?vid=c4f5973a-5bf2-4a55-b643-d922b9bd8822"},"vehicle_type_id":"4","last_reported":1723295386,"current_range_meters":30400,"station_id":"ce4bh0h2rcd13ifvqd50","pricing_plan_id":"cebpf4jnsgd1na2vs0mg"},{"bike_id":"c59d1dad-2225-4563-9710-5b8ac7cc967a","system_id":"levelo_inurba_marseille","lat":43.286593,"lon":5.363346,"is_reserved":false,"is_disabled":false,"rental_uris":{"android":"levelo://app?vid=c59d1dad-2225-4563-9710-5b8ac7cc967a","ios":"levelo://app?vid=c59d1dad-2225-4563-9710-5b8ac7cc967a"},"vehicle_type_id":"4","last_reported":1723295386,"current_range_meters":19200,"station_id":"ce4bhah2rcd13ifvqej0","pricing_plan_id":"cebpf4jnsgd1na2vs0mg"},{"bike_id":"0d6aeb9a-2ccb-4de0-9246-c7381eebf86e","system_id":"levelo_inurba_marseille","lat":43.290345,"lon":5.38646,"is_reserved":false,"is_disabled":false,"rental_uris":{"android":"levelo://app?vid=0d6aeb9a-2ccb-4de0-9246-c7381eebf86e","ios":"levelo://app?vid=0d6aeb9a-2ccb-4de0-9246-c7381eebf86e"},"vehicle_type_id":"4","last_reported":1723295386,"current_range_meters":0,"station_id":"ce4bh4p2rcd13ifvqe0g","pricing_plan_id":"cebpf4jnsgd1na2vs0mg"},{"bike_id":"32deaecf-e7f6-41a9-8a13-30f10b8d17f6","system_id":"levelo_inurba_marseille","lat":43.30932,"lon":5.4032,"is_reserved":false,"is_disabled":false,"rental_uris":{"android":"levelo://app?vid=32deaecf-e7f6-41a9-8a13-30f10b8d17f6","ios":"levelo://app?vid=32deaecf-e7f6-41a9-8a13-30f10b8d17f6"},"vehicle_type_id":"4","last_reported":1723295386,"current_range_meters":22400,"station_id":"","pricing_plan_id":"cebpf4jnsgd1na2vs0mg"},{"bike_id":"b82d858a-91a0-49bf-a6fc-8ae898ab18fa","system_id":"levelo_inurba_marseille","lat":43.309348,"lon":5.403373,"is_reserved":false,"is_disabled":false,"rental_uris":{"android":"levelo://app?vid=b82d858a-91a0-49bf-a6fc-8ae898ab18fa","ios":"levelo://app?vid=b82d858a-91a0-49bf-a6fc-8ae898ab18fa"},"vehicle_type_id":"4","last_reported":1723295386,"current_range_meters":31200,"station_id":"ce4bh092rcd13ifvqd30","pricing_plan_id":"cebpf4jnsgd1na2vs0mg"},{"bike_id":"6a8ae657-819b-449f-950a-a8aed4da3176","system_id":"levelo_inurba_marseille","lat":43.286039,"lon":5.370679,"is_reserved":false,"is_disabled":false,"rental_uris":{"android":"levelo://app?vid=6a8ae657-819b-449f-950a-a8aed4da3176","ios":"levelo://app?vid=6a8ae657-819b-449f-950a-a8aed4da3176"},"vehicle_type_id":"4","last_reported":1723295386,"current_range_meters":28000,"station_id":"ce4bht12rcd13ifvqi60","pricing_plan_id":"cebpf4jnsgd1na2vs0mg"},{"bike_id":"57da0337-159a-4148-be4f-fc6e9aca3c31","system_id":"levelo_inurba_marseille","lat":43.338862,"lon":5.357253,"is_reserved":false,"is_disabled":false,"rental_uris":{"android":"levelo://app?vid=57da0337-159a-4148-be4f-fc6e9aca3c31","ios":"levelo://app?vid=57da0337-159a-4148-be4f-fc6e9aca3c31"},"vehicle_type_id":"4","last_reported":1723295386,"current_range_meters":9200,"station_id":"","pricing_plan_id":"cebpf4jnsgd1na2vs0mg"},{"bike_id":"1cabcaa0-8b93-4667-a38c-1af9ee5e99c0","system_id":"levelo_inurba_marseille","lat":43.316821,"lon":5.404737,"is_reserved":false,"is_disabled":false,"rental_uris":{"android":"levelo://app?vid=1cabcaa0-8b93-4667-a38c-1af9ee5e99c0","ios":"levelo://app?vid=1cabcaa0-8b93-4667-a38c-1af9ee5e99c0"},"vehicle_type_id":"4","last_reported":1723295386,"current_range_meters":31600,"station_id":"ce4bh012rcd13ifvqd00","pricing_plan_id":"cebpf4jnsgd1na2vs0mg"},{"bike_id":"4ee80833-8ab3-46d7-9f75-8948391c644c","system_id":"levelo_inurba_marseille","lat":43.316988,"lon":5.404675,"is_reserved":false,"is_disabled":false,"rental_uris":{"android":"levelo://app?vid=4ee80833-8ab3-46d7-9f75-8948391c644c","ios":"levelo://app?vid=4ee80833-8ab3-46d7-9f75-8948391c644c"},"vehicle_type_id":"4","last_reported":1723295386,"current_range_meters":13600,"station_id":"ce4bh012rcd13ifvqd00","pricing_plan_id":"cebpf4jnsgd1na2vs0mg"},{"bike_id":"1779375e-2ad5-415a-a7d2-a080a6c0a665","system_id":"levelo_inurba_marseille","lat":43.316978,"lon":5.404723,"is_reserved":false,"is_disabled":false,"rental_uris":{"android":"levelo://app?vid=1779375e-2ad5-415a-a7d2-a080a6c0a665","ios":"levelo://app?vid=1779375e-2ad5-415a-a7d2-a080a6c0a665"},"vehicle_type_id":"4","last_reported":1723295386,"current_range_meters":1200,"station_id":"ce4bh012rcd13ifvqd00","pricing_plan_id":"cebpf4jnsgd1na2vs0mg"},{"bike_id":"4ab4253e-7bd6-4890-b8d7-65f446ab0837","system_id":"levelo_inurba_marseille","lat":43.316821,"lon":5.404737,"is_reserved":false,"is_disabled":false,"rental_uris":{"android":"levelo://app?vid=4ab4253e-7bd6-4890-b8d7-65f446ab0837","ios":"levelo://app?vid=4ab4253e-7bd6-4890-b8d7-65f446ab0837"},"vehicle_type_id":"4","last_reported":1723295386,"current_range_meters":2000,"station_id":"ce4bh012rcd13ifvqd00","pricing_plan_id":"cebpf4jnsgd1na2vs0mg"},{"bike_id":"f535a24a-7cde-4340-9840-dc9b84248e60","system_id":"levelo_inurba_marseille","lat":43.316821,"lon":5.404737,"is_reserved":false,"is_disabled":false,"rental_uris":{"android":"levelo://app?vid=f535a24a-7cde-4340-9840-dc9b84248e60","ios":"levelo://app?vid=f535a24a-7cde-4340-9840-dc9b84248e60"},"vehicle_type_id":"4","last_reported":1723295386,"current_range_meters":14400,"station_id":"ce4bh012rcd13ifvqd00","pricing_plan_id":"cebpf4jnsgd1na2vs0mg"},{"bike_id":"90f4d853-fdef-400b-8206-b9d83ef7edef","system_id":"levelo_inurba_marseille","lat":43.316821,"lon":5.404737,"is_reserved":false,"is_disabled":false,"rental_uris":{"android":"levelo://app?vid=90f4d853-fdef-400b-8206-b9d83ef7edef","ios":"levelo://app?vid=90f4d853-fdef-400b-8206-b9d83ef7edef"},"vehicle_type_id":"4","last_reported":1723295386,"current_range_meters":20400,"station_id":"ce4bh012rcd13ifvqd00","pricing_plan_id":"cebpf4jnsgd1na2vs0mg"},{"bike_id":"f6c41289-d059-4853-9bf5-48a5565de5b8","system_id":"levelo_inurba_marseille","lat":43.29747,"lon":5.40033,"is_reserved":false,"is_disabled":false,"rental_uris":{"android":"levelo://app?vid=f6c41289-d059-4853-9bf5-48a5565de5b8","ios":"levelo://app?vid=f6c41289-d059-4853-9bf5-48a5565de5b8"},"vehicle_type_id":"4","last_reported":1723295386,"current_range_meters":2400,"station_id":"","pricing_plan_id":"cebpf4jnsgd1na2vs0mg"},{"bike_id":"92ed9110-3022-4f08-b0ab-570562c1263f","system_id":"levelo_inurba_marseille","lat":43.284538,"lon":5.358657,"is_reserved":false,"is_disabled":false,"rental_uris":{"android":"levelo://app?vid=92ed9110-3022-4f08-b0ab-570562c1263f","ios":"levelo://app?vid=92ed9110-3022-4f08-b0ab-570562c1263f"},"vehicle_type_id":"4","last_reported":1723295386,"current_range_meters":19200,"station_id":"ce4bhah2rcd13ifvqei0","pricing_plan_id":"cebpf4jnsgd1na2vs0mg"},{"bike_id":"1839cc36-482c-4809-bf08-860cd1ae7d84","system_id":"levelo_inurba_marseille","lat":43.284538,"lon":5.358657,"is_reserved":false,"is_disabled":false,"rental_uris":{"android":"levelo://app?vid=1839cc36-482c-4809-bf08-860cd1ae7d84","ios":"levelo://app?vid=1839cc36-482c-4809-bf08-860cd1ae7d84"},"vehicle_type_id":"4","last_reported":1723295386,"current_range_meters":4000,"station_id":"ce4bhah2rcd13ifvqei0","pricing_plan_id":"cebpf4jnsgd1na2vs0mg"},{"bike_id":"3bcbc1ea-22e3-471a-a9eb-4f0dcd7f3d44","system_id":"levelo_inurba_marseille","lat":43.284534,"lon":5.358662,"is_reserved":false,"is_disabled":false,"rental_uris":{"android":"levelo://app?vid=3bcbc1ea-22e3-471a-a9eb-4f0dcd7f3d44","ios":"levelo://app?vid=3bcbc1ea-22e3-471a-a9eb-4f0dcd7f3d44"},"vehicle_type_id":"4","last_reported":1723295386,"current_range_meters":2000,"station_id":"ce4bhah2rcd13ifvqei0","pricing_plan_id":"cebpf4jnsgd1na2vs0mg"},{"bike_id":"1b8c407b-890e-493b-bf45-d7e9e03c59f6","system_id":"levelo_inurba_marseille","lat":43.284534,"lon":5.358662,"is_reserved":false,"is_disabled":false,"rental_uris":{"android":"levelo://app?vid=1b8c407b-890e-493b-bf45-d7e9e03c59f6","ios":"levelo://app?vid=1b8c407b-890e-493b-bf45-d7e9e03c59f6"},"vehicle_type_id":"4","last_reported":1723295386,"current_range_meters":8400,"station_id":"ce4bhah2rcd13ifvqei0","pricing_plan_id":"cebpf4jnsgd1na2vs0mg"},{"bike_id":"05e8b913-7041-4c90-b531-dd4d716d0524","system_id":"levelo_inurba_marseille","lat":43.294314,"lon":5.397498,"is_reserved":false,"is_disabled":false,"rental_uris":{"android":"levelo://app?vid=05e8b913-7041-4c90-b531-dd4d716d0524","ios":"levelo://app?vid=05e8b913-7041-4c90-b531-dd4d716d0524"},"vehicle_type_id":"4","last_reported":1723295386,"current_range_meters":0,"station_id":"ce4bh3h2rcd13ifvqdo0","pricing_plan_id":"cebpf4jnsgd1na2vs0mg"},{"bike_id":"75a8431b-529c-494f-8805-5415a51ee87c","system_id":"levelo_inurba_marseille","lat":43.28626,"lon":5.35104,"is_reserved":false,"is_disabled":false,"rental_uris":{"android":"levelo://app?vid=75a8431b-529c-494f-8805-5415a51ee87c","ios":"levelo://app?vid=75a8431b-529c-494f-8805-5415a51ee87c"},"vehicle_type_id":"4","last_reported":1723295386,"current_range_meters":0,"station_id":"ce4bhch2rcd13ifvqeug","pricing_plan_id":"cebpf4jnsgd1na2vs0mg"},{"bike_id":"a2830707-fa4b-4026-839e-3a3efd15b6ab","system_id":"levelo_inurba_marseille","lat":43.286595,"lon":5.386795,"is_reserved":false,"is_disabled":false,"rental_uris":{"android":"levelo://app?vid=a2830707-fa4b-4026-839e-3a3efd15b6ab","ios":"levelo://app?vid=a2830707-fa4b-4026-839e-3a3efd15b6ab"},"vehicle_type_id":"4","last_reported":1723295386,"current_range_meters":4000,"station_id":"ce4bh492rcd13ifvqdug","pricing_plan_id":"cebpf4jnsgd1na2vs0mg"},{"bike_id":"83920a8b-3775-4ce8-baa2-e6401fdb1ae8","system_id":"levelo_inurba_marseille","lat":43.285856,"lon":5.350771,"is_reserved":false,"is_disabled":false,"rental_uris":{"android":"levelo://app?vid=83920a8b-3775-4ce8-baa2-e6401fdb1ae8","ios":"levelo://app?vid=83920a8b-3775-4ce8-baa2-e6401fdb1ae8"},"vehicle_type_id":"4","last_reported":1723295386,"current_range_meters":4400,"station_id":"ce4bhch2rcd13ifvqeug","pricing_plan_id":"cebpf4jnsgd1na2vs0mg"},{"bike_id":"7125ff3e-df02-4c13-be84-a62bfa76a6fb","system_id":"levelo_inurba_marseille","lat":43.2862,"lon":5.35103,"is_reserved":false,"is_disabled":false,"rental_uris":{"android":"levelo://app?vid=7125ff3e-df02-4c13-be84-a62bfa76a6fb","ios":"levelo://app?vid=7125ff3e-df02-4c13-be84-a62bfa76a6fb"},"vehicle_type_id":"4","last_reported":1723295386,"current_range_meters":20800,"station_id":"ce4bhch2rcd13ifvqeug","pricing_plan_id":"cebpf4jnsgd1na2vs0mg"},{"bike_id":"eb46ca34-6861-42df-80aa-a448266abd7f","system_id":"levelo_inurba_marseille","lat":43.28619,"lon":5.35106,"is_reserved":false,"is_disabled":false,"rental_uris":{"android":"levelo://app?vid=eb46ca34-6861-42df-80aa-a448266abd7f","ios":"levelo://app?vid=eb46ca34-6861-42df-80aa-a448266abd7f"},"vehicle_type_id":"4","last_reported":1723295386,"current_range_meters":0,"station_id":"ce4bhch2rcd13ifvqeug","pricing_plan_id":"cebpf4jnsgd1na2vs0mg"},{"bike_id":"de9b26d7-c552-42b3-aa17-a9f897eea18a","system_id":"levelo_inurba_marseille","lat":43.28619,"lon":5.35105,"is_reserved":false,"is_disabled":false,"rental_uris":{"android":"levelo://app?vid=de9b26d7-c552-42b3-aa17-a9f897eea18a","ios":"levelo://app?vid=de9b26d7-c552-42b3-aa17-a9f897eea18a"},"vehicle_type_id":"4","last_reported":1723295386,"current_range_meters":13200,"station_id":"ce4bhch2rcd13ifvqeug","pricing_plan_id":"cebpf4jnsgd1na2vs0mg"},{"bike_id":"34b1107e-5669-432a-913e-913e02d67ce1","system_id":"levelo_inurba_marseille","lat":43.285856,"lon":5.350771,"is_reserved":false,"is_disabled":false,"rental_uris":{"android":"levelo://app?vid=34b1107e-5669-432a-913e-913e02d67ce1","ios":"levelo://app?vid=34b1107e-5669-432a-913e-913e02d67ce1"},"vehicle_type_id":"4","last_reported":1723295386,"current_range_meters":26400,"station_id":"ce4bhch2rcd13ifvqeug","pricing_plan_id":"cebpf4jnsgd1na2vs0mg"},{"bike_id":"3774dc72-23fa-448d-a189-d3930b2c605c","system_id":"levelo_inurba_marseille","lat":43.285856,"lon":5.350771,"is_reserved":false,"is_disabled":false,"rental_uris":{"android":"levelo://app?vid=3774dc72-23fa-448d-a189-d3930b2c605c","ios":"levelo://app?vid=3774dc72-23fa-448d-a189-d3930b2c605c"},"vehicle_type_id":"4","last_reported":1723295386,"current_range_meters":15600,"station_id":"ce4bhch2rcd13ifvqeug","pricing_plan_id":"cebpf4jnsgd1na2vs0mg"},{"bike_id":"e6c322a1-e165-4a20-a6d3-f7b4036873b9","system_id":"levelo_inurba_marseille","lat":43.285856,"lon":5.350771,"is_reserved":false,"is_disabled":false,"rental_uris":{"android":"levelo://app?vid=e6c322a1-e165-4a20-a6d3-f7b4036873b9","ios":"levelo://app?vid=e6c322a1-e165-4a20-a6d3-f7b4036873b9"},"vehicle_type_id":"4","last_reported":1723295386,"current_range_meters":10000,"station_id":"ce4bhch2rcd13ifvqeug","pricing_plan_id":"cebpf4jnsgd1na2vs0mg"},{"bike_id":"f2e0c0b0-76df-41b6-869f-19818d37ba62","system_id":"levelo_inurba_marseille","lat":43.28617,"lon":5.35104,"is_reserved":false,"is_disabled":false,"rental_uris":{"android":"levelo://app?vid=f2e0c0b0-76df-41b6-869f-19818d37ba62","ios":"levelo://app?vid=f2e0c0b0-76df-41b6-869f-19818d37ba62"},"vehicle_type_id":"4","last_reported":1723295386,"current_range_meters":2400,"station_id":"ce4bhch2rcd13ifvqeug","pricing_plan_id":"cebpf4jnsgd1na2vs0mg"},{"bike_id":"b4bf3453-a05e-466e-881d-788ff465c749","system_id":"levelo_inurba_marseille","lat":43.285856,"lon":5.350771,"is_reserved":false,"is_disabled":false,"rental_uris":{"android":"levelo://app?vid=b4bf3453-a05e-466e-881d-788ff465c749","ios":"levelo://app?vid=b4bf3453-a05e-466e-881d-788ff465c749"},"vehicle_type_id":"4","last_reported":1723295386,"current_range_meters":28400,"station_id":"ce4bhch2rcd13ifvqeug","pricing_plan_id":"cebpf4jnsgd1na2vs0mg"},{"bike_id":"bb18235c-9cca-440f-a9e5-b00e27c68b63","system_id":"levelo_inurba_marseille","lat":43.285856,"lon":5.350771,"is_reserved":false,"is_disabled":false,"rental_uris":{"android":"levelo://app?vid=bb18235c-9cca-440f-a9e5-b00e27c68b63","ios":"levelo://app?vid=bb18235c-9cca-440f-a9e5-b00e27c68b63"},"vehicle_type_id":"4","last_reported":1723295386,"current_range_meters":10800,"station_id":"ce4bhch2rcd13ifvqeug","pricing_plan_id":"cebpf4jnsgd1na2vs0mg"},{"bike_id":"4414ec2f-77f6-4767-91e5-45f8948f8ad9","system_id":"levelo_inurba_marseille","lat":43.285856,"lon":5.350771,"is_reserved":false,"is_disabled":false,"rental_uris":{"android":"levelo://app?vid=4414ec2f-77f6-4767-91e5-45f8948f8ad9","ios":"levelo://app?vid=4414ec2f-77f6-4767-91e5-45f8948f8ad9"},"vehicle_type_id":"4","last_reported":1723295386,"current_range_meters":22800,"station_id":"ce4bhch2rcd13ifvqeug","pricing_plan_id":"cebpf4jnsgd1na2vs0mg"},{"bike_id":"46d49de1-89d3-43af-83ee-7daef5993e13","system_id":"levelo_inurba_marseille","lat":43.285856,"lon":5.350771,"is_reserved":false,"is_disabled":false,"rental_uris":{"android":"levelo://app?vid=46d49de1-89d3-43af-83ee-7daef5993e13","ios":"levelo://app?vid=46d49de1-89d3-43af-83ee-7daef5993e13"},"vehicle_type_id":"4","last_reported":1723295386,"current_range_meters":28400,"station_id":"ce4bhch2rcd13ifvqeug","pricing_plan_id":"cebpf4jnsgd1na2vs0mg"},{"bike_id":"93a1843a-6e7a-4124-8fd8-e41e287cea12","system_id":"levelo_inurba_marseille","lat":43.285856,"lon":5.350771,"is_reserved":false,"is_disabled":false,"rental_uris":{"android":"levelo://app?vid=93a1843a-6e7a-4124-8fd8-e41e287cea12","ios":"levelo://app?vid=93a1843a-6e7a-4124-8fd8-e41e287cea12"},"vehicle_type_id":"4","last_reported":1723295386,"current_range_meters":0,"station_id":"ce4bhch2rcd13ifvqeug","pricing_plan_id":"cebpf4jnsgd1na2vs0mg"},{"bike_id":"65c596bb-6b93-4853-bcf1-7cd8a4f58725","system_id":"levelo_inurba_marseille","lat":43.28612,"lon":5.35104,"is_reserved":false,"is_disabled":false,"rental_uris":{"android":"levelo://app?vid=65c596bb-6b93-4853-bcf1-7cd8a4f58725","ios":"levelo://app?vid=65c596bb-6b93-4853-bcf1-7cd8a4f58725"},"vehicle_type_id":"4","last_reported":1723295386,"current_range_meters":17600,"station_id":"ce4bhch2rcd13ifvqeug","pricing_plan_id":"cebpf4jnsgd1na2vs0mg"},{"bike_id":"2170e7d8-919a-4076-8de4-0c79f9d31715","system_id":"levelo_inurba_marseille","lat":43.33158,"lon":5.39759,"is_reserved":false,"is_disabled":false,"rental_uris":{"android":"levelo://app?vid=2170e7d8-919a-4076-8de4-0c79f9d31715","ios":"levelo://app?vid=2170e7d8-919a-4076-8de4-0c79f9d31715"},"vehicle_type_id":"4","last_reported":1723295386,"current_range_meters":19200,"station_id":"","pricing_plan_id":"cebpf4jnsgd1na2vs0mg"},{"bike_id":"5679bd13-4cf7-4d28-b518-ec3268d09d9e","system_id":"levelo_inurba_marseille","lat":43.338675,"lon":5.38554,"is_reserved":false,"is_disabled":false,"rental_uris":{"android":"levelo://app?vid=5679bd13-4cf7-4d28-b518-ec3268d09d9e","ios":"levelo://app?vid=5679bd13-4cf7-4d28-b518-ec3268d09d9e"},"vehicle_type_id":"4","last_reported":1723295386,"current_range_meters":0,"station_id":"","pricing_plan_id":"cebpf4jnsgd1na2vs0mg"},{"bike_id":"a168b218-6722-492e-b530-642b05bf35d5","system_id":"levelo_inurba_marseille","lat":43.319179,"lon":5.407725,"is_reserved":false,"is_disabled":false,"rental_uris":{"android":"levelo://app?vid=a168b218-6722-492e-b530-642b05bf35d5","ios":"levelo://app?vid=a168b218-6722-492e-b530-642b05bf35d5"},"vehicle_type_id":"4","last_reported":1723295386,"current_range_meters":32000,"station_id":"ce4bhq12rcd13ifvqhig","pricing_plan_id":"cebpf4jnsgd1na2vs0mg"},{"bike_id":"41d95054-8604-4b28-aa1d-c58efe986882","system_id":"levelo_inurba_marseille","lat":43.319179,"lon":5.407725,"is_reserved":false,"is_disabled":false,"rental_uris":{"android":"levelo://app?vid=41d95054-8604-4b28-aa1d-c58efe986882","ios":"levelo://app?vid=41d95054-8604-4b28-aa1d-c58efe986882"},"vehicle_type_id":"4","last_reported":1723295386,"current_range_meters":28000,"station_id":"ce4bhq12rcd13ifvqhig","pricing_plan_id":"cebpf4jnsgd1na2vs0mg"},{"bike_id":"c61aa551-6369-4549-b385-4742de6cd2fe","system_id":"levelo_inurba_marseille","lat":43.318855,"lon":5.40742,"is_reserved":false,"is_disabled":false,"rental_uris":{"android":"levelo://app?vid=c61aa551-6369-4549-b385-4742de6cd2fe","ios":"levelo://app?vid=c61aa551-6369-4549-b385-4742de6cd2fe"},"vehicle_type_id":"4","last_reported":1723295386,"current_range_meters":27600,"station_id":"ce4bhq12rcd13ifvqhig","pricing_plan_id":"cebpf4jnsgd1na2vs0mg"},{"bike_id":"7ee16b6b-5e7b-4f47-8798-273c563c2e64","system_id":"levelo_inurba_marseille","lat":43.323464,"lon":5.406297,"is_reserved":false,"is_disabled":false,"rental_uris":{"android":"levelo://app?vid=7ee16b6b-5e7b-4f47-8798-273c563c2e64","ios":"levelo://app?vid=7ee16b6b-5e7b-4f47-8798-273c563c2e64"},"vehicle_type_id":"4","last_reported":1723295386,"current_range_meters":16400,"station_id":"ce4bhq92rcd13ifvqhjg","pricing_plan_id":"cebpf4jnsgd1na2vs0mg"},{"bike_id":"e6fc101e-4a30-4691-936c-d503a5c83f2d","system_id":"levelo_inurba_marseille","lat":43.284793,"lon":5.384113,"is_reserved":false,"is_disabled":false,"rental_uris":{"android":"levelo://app?vid=e6fc101e-4a30-4691-936c-d503a5c83f2d","ios":"levelo://app?vid=e6fc101e-4a30-4691-936c-d503a5c83f2d"},"vehicle_type_id":"4","last_reported":1723295386,"current_range_meters":30000,"station_id":"ce4bh512rcd13ifvqe3g","pricing_plan_id":"cebpf4jnsgd1na2vs0mg"},{"bike_id":"e31a5a4c-5e1b-429e-9161-3df7c42a75cf","system_id":"levelo_inurba_marseille","lat":43.28473,"lon":5.38419,"is_reserved":false,"is_disabled":false,"rental_uris":{"android":"levelo://app?vid=e31a5a4c-5e1b-429e-9161-3df7c42a75cf","ios":"levelo://app?vid=e31a5a4c-5e1b-429e-9161-3df7c42a75cf"},"vehicle_type_id":"4","last_reported":1723295386,"current_range_meters":0,"station_id":"ce4bh512rcd13ifvqe3g","pricing_plan_id":"cebpf4jnsgd1na2vs0mg"},{"bike_id":"f03477d6-447b-41e1-a38d-e9430f97495e","system_id":"levelo_inurba_marseille","lat":43.297946,"lon":5.404063,"is_reserved":false,"is_disabled":false,"rental_uris":{"android":"levelo://app?vid=f03477d6-447b-41e1-a38d-e9430f97495e","ios":"levelo://app?vid=f03477d6-447b-41e1-a38d-e9430f97495e"},"vehicle_type_id":"4","last_reported":1723295386,"current_range_meters":5200,"station_id":"ce4bh112rcd13ifvqd90","pricing_plan_id":"cebpf4jnsgd1na2vs0mg"},{"bike_id":"0d8613ad-85e0-49de-9caa-1e4122ed4564","system_id":"levelo_inurba_marseille","lat":43.28851,"lon":5.39314,"is_reserved":false,"is_disabled":false,"rental_uris":{"android":"levelo://app?vid=0d8613ad-85e0-49de-9caa-1e4122ed4564","ios":"levelo://app?vid=0d8613ad-85e0-49de-9caa-1e4122ed4564"},"vehicle_type_id":"4","last_reported":1723295386,"current_range_meters":9600,"station_id":"ce4bh2p2rcd13ifvqdi0","pricing_plan_id":"cebpf4jnsgd1na2vs0mg"},{"bike_id":"f5a570a3-ce76-4010-beaf-2769b6ac1022","system_id":"levelo_inurba_marseille","lat":43.28848,"lon":5.39309,"is_reserved":false,"is_disabled":false,"rental_uris":{"android":"levelo://app?vid=f5a570a3-ce76-4010-beaf-2769b6ac1022","ios":"levelo://app?vid=f5a570a3-ce76-4010-beaf-2769b6ac1022"},"vehicle_type_id":"4","last_reported":1723295386,"current_range_meters":5600,"station_id":"ce4bh2p2rcd13ifvqdi0","pricing_plan_id":"cebpf4jnsgd1na2vs0mg"},{"bike_id":"0647766e-56f1-430c-b3f8-a5e5ed8933d1","system_id":"levelo_inurba_marseille","lat":43.283494,"lon":5.380945,"is_reserved":false,"is_disabled":false,"rental_uris":{"android":"levelo://app?vid=0647766e-56f1-430c-b3f8-a5e5ed8933d1","ios":"levelo://app?vid=0647766e-56f1-430c-b3f8-a5e5ed8933d1"},"vehicle_type_id":"4","last_reported":1723295386,"current_range_meters":0,"station_id":"ce4bh412rcd13ifvqdr0","pricing_plan_id":"cebpf4jnsgd1na2vs0mg"},{"bike_id":"43acf3a1-c432-43d8-8c90-258e6d835e41","system_id":"levelo_inurba_marseille","lat":43.288497,"lon":5.393089,"is_reserved":false,"is_disabled":false,"rental_uris":{"android":"levelo://app?vid=43acf3a1-c432-43d8-8c90-258e6d835e41","ios":"levelo://app?vid=43acf3a1-c432-43d8-8c90-258e6d835e41"},"vehicle_type_id":"4","last_reported":1723295386,"current_range_meters":3600,"station_id":"ce4bh2p2rcd13ifvqdi0","pricing_plan_id":"cebpf4jnsgd1na2vs0mg"},{"bike_id":"53547d30-ab91-4ec5-976c-8c5798a45876","system_id":"levelo_inurba_marseille","lat":43.28431,"lon":5.34997,"is_reserved":false,"is_disabled":false,"rental_uris":{"android":"levelo://app?vid=53547d30-ab91-4ec5-976c-8c5798a45876","ios":"levelo://app?vid=53547d30-ab91-4ec5-976c-8c5798a45876"},"vehicle_type_id":"4","last_reported":1723295386,"current_range_meters":19600,"station_id":"ce4bhbh2rcd13ifvqepg","pricing_plan_id":"cebpf4jnsgd1na2vs0mg"},{"bike_id":"09a338e7-baf7-4469-9a95-afd27cf838ac","system_id":"levelo_inurba_marseille","lat":43.28431,"lon":5.34989,"is_reserved":false,"is_disabled":false,"rental_uris":{"android":"levelo://app?vid=09a338e7-baf7-4469-9a95-afd27cf838ac","ios":"levelo://app?vid=09a338e7-baf7-4469-9a95-afd27cf838ac"},"vehicle_type_id":"4","last_reported":1723295386,"current_range_meters":31600,"station_id":"ce4bhbh2rcd13ifvqepg","pricing_plan_id":"cebpf4jnsgd1na2vs0mg"},{"bike_id":"0b698ef8-8b20-4c6a-941f-fdb2d9acee29","system_id":"levelo_inurba_marseille","lat":43.284219,"lon":5.3497,"is_reserved":false,"is_disabled":false,"rental_uris":{"android":"levelo://app?vid=0b698ef8-8b20-4c6a-941f-fdb2d9acee29","ios":"levelo://app?vid=0b698ef8-8b20-4c6a-941f-fdb2d9acee29"},"vehicle_type_id":"4","last_reported":1723295386,"current_range_meters":29200,"station_id":"ce4bhbh2rcd13ifvqepg","pricing_plan_id":"cebpf4jnsgd1na2vs0mg"},{"bike_id":"daf003b4-c580-4497-ac6e-c4fd8b25d1a1","system_id":"levelo_inurba_marseille","lat":43.284219,"lon":5.3497,"is_reserved":false,"is_disabled":false,"rental_uris":{"android":"levelo://app?vid=daf003b4-c580-4497-ac6e-c4fd8b25d1a1","ios":"levelo://app?vid=daf003b4-c580-4497-ac6e-c4fd8b25d1a1"},"vehicle_type_id":"4","last_reported":1723295386,"current_range_meters":6400,"station_id":"ce4bhbh2rcd13ifvqepg","pricing_plan_id":"cebpf4jnsgd1na2vs0mg"},{"bike_id":"2bbfae0d-520a-46f1-b213-0a1d8cbb97b4","system_id":"levelo_inurba_marseille","lat":43.28431,"lon":5.34986,"is_reserved":false,"is_disabled":false,"rental_uris":{"android":"levelo://app?vid=2bbfae0d-520a-46f1-b213-0a1d8cbb97b4","ios":"levelo://app?vid=2bbfae0d-520a-46f1-b213-0a1d8cbb97b4"},"vehicle_type_id":"4","last_reported":1723295386,"current_range_meters":5600,"station_id":"ce4bhbh2rcd13ifvqepg","pricing_plan_id":"cebpf4jnsgd1na2vs0mg"},{"bike_id":"05618a5e-2be4-4b47-9281-8c1b242ff632","system_id":"levelo_inurba_marseille","lat":43.284219,"lon":5.3497,"is_reserved":false,"is_disabled":false,"rental_uris":{"android":"levelo://app?vid=05618a5e-2be4-4b47-9281-8c1b242ff632","ios":"levelo://app?vid=05618a5e-2be4-4b47-9281-8c1b242ff632"},"vehicle_type_id":"4","last_reported":1723295386,"current_range_meters":32000,"station_id":"ce4bhbh2rcd13ifvqepg","pricing_plan_id":"cebpf4jnsgd1na2vs0mg"},{"bike_id":"6ab6eaf2-2974-463c-93e9-21babde2a56f","system_id":"levelo_inurba_marseille","lat":43.284219,"lon":5.3497,"is_reserved":false,"is_disabled":false,"rental_uris":{"android":"levelo://app?vid=6ab6eaf2-2974-463c-93e9-21babde2a56f","ios":"levelo://app?vid=6ab6eaf2-2974-463c-93e9-21babde2a56f"},"vehicle_type_id":"4","last_reported":1723295386,"current_range_meters":30800,"station_id":"ce4bhbh2rcd13ifvqepg","pricing_plan_id":"cebpf4jnsgd1na2vs0mg"},{"bike_id":"9034b1fd-1b8a-4d37-aff1-a8738cc6e0ef","system_id":"levelo_inurba_marseille","lat":43.284214,"lon":5.349706,"is_reserved":false,"is_disabled":false,"rental_uris":{"android":"levelo://app?vid=9034b1fd-1b8a-4d37-aff1-a8738cc6e0ef","ios":"levelo://app?vid=9034b1fd-1b8a-4d37-aff1-a8738cc6e0ef"},"vehicle_type_id":"4","last_reported":1723295386,"current_range_meters":14000,"station_id":"ce4bhbh2rcd13ifvqepg","pricing_plan_id":"cebpf4jnsgd1na2vs0mg"},{"bike_id":"9892e132-faa1-4985-a074-afdaf2fbfe9b","system_id":"levelo_inurba_marseille","lat":43.28427,"lon":5.34985,"is_reserved":false,"is_disabled":false,"rental_uris":{"android":"levelo://app?vid=9892e132-faa1-4985-a074-afdaf2fbfe9b","ios":"levelo://app?vid=9892e132-faa1-4985-a074-afdaf2fbfe9b"},"vehicle_type_id":"4","last_reported":1723295386,"current_range_meters":21600,"station_id":"ce4bhbh2rcd13ifvqepg","pricing_plan_id":"cebpf4jnsgd1na2vs0mg"},{"bike_id":"88b64060-9cc5-40a2-839e-2c77dadf46b6","system_id":"levelo_inurba_marseille","lat":43.284219,"lon":5.3497,"is_reserved":false,"is_disabled":false,"rental_uris":{"android":"levelo://app?vid=88b64060-9cc5-40a2-839e-2c77dadf46b6","ios":"levelo://app?vid=88b64060-9cc5-40a2-839e-2c77dadf46b6"},"vehicle_type_id":"4","last_reported":1723295386,"current_range_meters":15200,"station_id":"ce4bhbh2rcd13ifvqepg","pricing_plan_id":"cebpf4jnsgd1na2vs0mg"},{"bike_id":"0477701a-0c47-468f-9681-186350490b31","system_id":"levelo_inurba_marseille","lat":43.28428,"lon":5.34977,"is_reserved":false,"is_disabled":false,"rental_uris":{"android":"levelo://app?vid=0477701a-0c47-468f-9681-186350490b31","ios":"levelo://app?vid=0477701a-0c47-468f-9681-186350490b31"},