{"last_updated":1759162190,"ttl":60,"version":"2.2","data":{"bikes":[{"bike_id":"ad81ce76-d7ca-48df-8b03-46649715a368","system_id":"levelo_inurba_marseille","lat":43.288422,"lon":5.358522,"is_reserved":false,"is_disabled":false,"rental_uris":{"android":"levelo://app?vid=ad81ce76-d7ca-48df-8b03-46649715a368","ios":"levelo://app?vid=ad81ce76-d7ca-48df-8b03-46649715a368"},"vehicle_type_id":"4","last_reported":1759162190,"current_range_meters":2800,"station_id":"ce4bhb12rcd13ifvqem0","pricing_plan_id":"cebpf4jnsgd1na2vs0mg"},{"bike_id":"8bca3482-a153-4ba2-bde8-e385dd63bb76","system_id":"levelo_inurba_marseille","lat":43.298985,"lon":5.436669,"is_reserved":false,"is_disabled":false,"rental_uris":{"android":"levelo://app?vid=8bca3482-a153-4ba2-bde8-e385dd63bb76","ios":"levelo://app?vid=8bca3482-a153-4ba2-bde8-e385dd63bb76"},"vehicle_type_id":"4","last_reported":1759162190,"current_range_meters":2800,"station_id":"ce4bhpp2rcd13ifvqhfg","pricing_plan_id":"cebpf4jnsgd1na2vs0mg"},{"bike_id":"d4c9afaf-fc7f-4121-bdd6-574c85baa99a","system_id":"levelo_inurba_marseille","lat":43.31074,"lon":5.38358,"is_reserved":false,"is_disabled":false,"rental_uris":{"android":"levelo://app?vid=d4c9afaf-fc7f-4121-bdd6-574c85baa99a","ios":"levelo://app?vid=d4c9afaf-fc7f-4121-bdd6-574c85baa99a"},"vehicle_type_id":"4","last_reported":1759162190,"current_range_meters":2800,"station_id":"ce4bgv92rcd13ifvqcr0","pricing_plan_id":"cebpf4jnsgd1na2vs0mg"},{"bike_id":"204b7307-24fc-4b7e-84df-3ed3e3e487f2","system_id":"levelo_inurba_marseille","lat":43.26938,"lon":5.40264,"is_reserved":false,"is_disabled":false,"rental_uris":{"android":"levelo://app?vid=204b7307-24fc-4b7e-84df-3ed3e3e487f2","ios":"levelo://app?vid=204b7307-24fc-4b7e-84df-3ed3e3e487f2"},"vehicle_type_id":"4","last_reported":1759162190,"current_range_meters":2800,"station_id":"cjm6bp8fraef2m0cb0m0","pricing_plan_id":"cebpf4jnsgd1na2vs0mg"},{"bike_id":"7f8f4be7-fcb8-4b7c-afbc-b61aef532174","system_id":"levelo_inurba_marseille","lat":43.29634,"lon":5.40612,"is_reserved":false,"is_disabled":false,"rental_uris":{"android":"levelo://app?vid=7f8f4be7-fcb8-4b7c-afbc-b61aef532174","ios":"levelo://app?vid=7f8f4be7-fcb8-4b7c-afbc-b61aef532174"},"vehicle_type_id":"4","last_reported":1759162190,"current_range_meters":3200,"station_id":"ce4bh0h2rcd13ifvqd60","pricing_plan_id":"cebpf4jnsgd1na2vs0mg"},{"bike_id":"5d4957c2-eb14-4d77-b23a-850dbf05c14a","system_id":"levelo_inurba_marseille","lat":43.30929,"lon":5.40157,"is_reserved":false,"is_disabled":false,"rental_uris":{"android":"levelo://app?vid=5d4957c2-eb14-4d77-b23a-850dbf05c14a","ios":"levelo://app?vid=5d4957c2-eb14-4d77-b23a-850dbf05c14a"},"vehicle_type_id":"4","last_reported":1759162190,"current_range_meters":3200,"station_id":"ce4bgvp2rcd13ifvqct0","pricing_plan_id":"cebpf4jnsgd1na2vs0mg"},{"bike_id":"934ea1ec-b7f6-49a1-9efa-287317d4eb22","system_id":"levelo_inurba_marseille","lat":43.29048,"lon":5.35914,"is_reserved":false,"is_disabled":false,"rental_uris":{"android":"levelo://app?vid=934ea1ec-b7f6-49a1-9efa-287317d4eb22","ios":"levelo://app?vid=934ea1ec-b7f6-49a1-9efa-287317d4eb22"},"vehicle_type_id":"4","last_reported":1759162190,"current_range_meters":3200,"station_id":"","pricing_plan_id":"cebpf4jnsgd1na2vs0mg"},{"bike_id":"d7794779-f682-4307-94fd-0a6add566ca9","system_id":"levelo_inurba_marseille","lat":43.3232,"lon":5.406335,"is_reserved":false,"is_disabled":false,"rental_uris":{"android":"levelo://app?vid=d7794779-f682-4307-94fd-0a6add566ca9","ios":"levelo://app?vid=d7794779-f682-4307-94fd-0a6add566ca9"},"vehicle_type_id":"4","last_reported":1759162190,"current_range_meters":3200,"station_id":"ce4bhq92rcd13ifvqhjg","pricing_plan_id":"cebpf4jnsgd1na2vs0mg"},{"bike_id":"be7dae0d-94d7-4a0d-89d8-07c528e32b57","system_id":"levelo_inurba_marseille","lat":43.32592,"lon":5.39077,"is_reserved":false,"is_disabled":false,"rental_uris":{"android":"levelo://app?vid=be7dae0d-94d7-4a0d-89d8-07c528e32b57","ios":"levelo://app?vid=be7dae0d-94d7-4a0d-89d8-07c528e32b57"},"vehicle_type_id":"4","last_reported":1759162190,"current_range_meters":3200,"station_id":"","pricing_plan_id":"cebpf4jnsgd1na2vs0mg"},{"bike_id":"0fd1b2e5-1687-4c62-ad97-4d49ffc33cdb","system_id":"levelo_inurba_marseille","lat":43.284309,"lon":5.349818,"is_reserved":false,"is_disabled":false,"rental_uris":{"android":"levelo://app?vid=0fd1b2e5-1687-4c62-ad97-4d49ffc33cdb","ios":"levelo://app?vid=0fd1b2e5-1687-4c62-ad97-4d49ffc33cdb"},"vehicle_type_id":"4","last_reported":1759162190,"current_range_meters":3200,"station_id":"ce4bhbh2rcd13ifvqepg","pricing_plan_id":"cebpf4jnsgd1na2vs0mg"},{"bike_id":"fc3d69cd-211b-4257-8b03-860cb753ca01","system_id":"levelo_inurba_marseille","lat":43.29872,"lon":5.39747,"is_reserved":false,"is_disabled":false,"rental_uris":{"android":"levelo://app?vid=fc3d69cd-211b-4257-8b03-860cb753ca01","ios":"levelo://app?vid=fc3d69cd-211b-4257-8b03-860cb753ca01"},"vehicle_type_id":"4","last_reported":1759162190,"current_range_meters":3600,"station_id":"ce4bh0h2rcd13ifvqd50","pricing_plan_id":"cebpf4jnsgd1na2vs0mg"},{"bike_id":"e2573e85-6b15-4511-b618-8663e1bba7d6","system_id":"levelo_inurba_marseille","lat":43.260315,"lon":5.375536,"is_reserved":false,"is_disabled":false,"rental_uris":{"android":"levelo://app?vid=e2573e85-6b15-4511-b618-8663e1bba7d6","ios":"levelo://app?vid=e2573e85-6b15-4511-b618-8663e1bba7d6"},"vehicle_type_id":"4","last_reported":1759162190,"current_range_meters":3600,"station_id":"ce4bhgh2rcd13ifvqfa0","pricing_plan_id":"cebpf4jnsgd1na2vs0mg"},{"bike_id":"470b139b-2dae-41d5-80f6-5584cdd5a031","system_id":"levelo_inurba_marseille","lat":43.28853,"lon":5.35867,"is_reserved":false,"is_disabled":false,"rental_uris":{"android":"levelo://app?vid=470b139b-2dae-41d5-80f6-5584cdd5a031","ios":"levelo://app?vid=470b139b-2dae-41d5-80f6-5584cdd5a031"},"vehicle_type_id":"4","last_reported":1759162190,"current_range_meters":3600,"station_id":"ce4bhb12rcd13ifvqem0","pricing_plan_id":"cebpf4jnsgd1na2vs0mg"},{"bike_id":"8aec7288-1426-49fc-b8f9-66684d813681","system_id":"levelo_inurba_marseille","lat":43.2857,"lon":5.39504,"is_reserved":false,"is_disabled":false,"rental_uris":{"android":"levelo://app?vid=8aec7288-1426-49fc-b8f9-66684d813681","ios":"levelo://app?vid=8aec7288-1426-49fc-b8f9-66684d813681"},"vehicle_type_id":"4","last_reported":1759162190,"current_range_meters":3600,"station_id":"ce4bh292rcd13ifvqdg0","pricing_plan_id":"cebpf4jnsgd1na2vs0mg"},{"bike_id":"acf63396-99da-4459-945a-eeaef0e427fc","system_id":"levelo_inurba_marseille","lat":43.251158,"lon":5.40317,"is_reserved":false,"is_disabled":false,"rental_uris":{"android":"levelo://app?vid=acf63396-99da-4459-945a-eeaef0e427fc","ios":"levelo://app?vid=acf63396-99da-4459-945a-eeaef0e427fc"},"vehicle_type_id":"4","last_reported":1759162190,"current_range_meters":4000,"station_id":"ce4bhlh2rcd13ifvqgig","pricing_plan_id":"cebpf4jnsgd1na2vs0mg"},{"bike_id":"48d35079-c7a2-402a-9ee9-22e3b1e9055e","system_id":"levelo_inurba_marseille","lat":43.30136,"lon":5.38781,"is_reserved":false,"is_disabled":false,"rental_uris":{"android":"levelo://app?vid=48d35079-c7a2-402a-9ee9-22e3b1e9055e","ios":"levelo://app?vid=48d35079-c7a2-402a-9ee9-22e3b1e9055e"},"vehicle_type_id":"4","last_reported":1759162190,"current_range_meters":4000,"station_id":"ce4bghh2rcd13ifvqb60","pricing_plan_id":"cebpf4jnsgd1na2vs0mg"},{"bike_id":"700eb53e-474d-4417-98a5-1937b0d6f676","system_id":"levelo_inurba_marseille","lat":43.26952,"lon":5.40245,"is_reserved":false,"is_disabled":false,"rental_uris":{"android":"levelo://app?vid=700eb53e-474d-4417-98a5-1937b0d6f676","ios":"levelo://app?vid=700eb53e-474d-4417-98a5-1937b0d6f676"},"vehicle_type_id":"4","last_reported":1759162190,"current_range_meters":4400,"station_id":"cjm6bp8fraef2m0cb0m0","pricing_plan_id":"cebpf4jnsgd1na2vs0mg"},{"bike_id":"4fcf49da-ad50-414a-bda8-cbd36287dfda","system_id":"levelo_inurba_marseille","lat":43.25501,"lon":5.37656,"is_reserved":false,"is_disabled":false,"rental_uris":{"android":"levelo://app?vid=4fcf49da-ad50-414a-bda8-cbd36287dfda","ios":"levelo://app?vid=4fcf49da-ad50-414a-bda8-cbd36287dfda"},"vehicle_type_id":"4","last_reported":1759162190,"current_range_meters":4400,"station_id":"ce4bhh12rcd13ifvqff0","pricing_plan_id":"cebpf4jnsgd1na2vs0mg"},{"bike_id":"af73994d-08fd-4e2d-ad01-c574d3947fb6","system_id":"levelo_inurba_marseille","lat":43.2944,"lon":5.39744,"is_reserved":false,"is_disabled":false,"rental_uris":{"android":"levelo://app?vid=af73994d-08fd-4e2d-ad01-c574d3947fb6","ios":"levelo://app?vid=af73994d-08fd-4e2d-ad01-c574d3947fb6"},"vehicle_type_id":"4","last_reported":1759162190,"current_range_meters":4400,"station_id":"ce4bh3h2rcd13ifvqdo0","pricing_plan_id":"cebpf4jnsgd1na2vs0mg"},{"bike_id":"50d73a46-27eb-4ec9-996a-970c5c65c132","system_id":"levelo_inurba_marseille","lat":43.30885,"lon":5.3966,"is_reserved":false,"is_disabled":false,"rental_uris":{"android":"levelo://app?vid=50d73a46-27eb-4ec9-996a-970c5c65c132","ios":"levelo://app?vid=50d73a46-27eb-4ec9-996a-970c5c65c132"},"vehicle_type_id":"4","last_reported":1759162190,"current_range_meters":4400,"station_id":"ce4bh012rcd13ifvqcv0","pricing_plan_id":"cebpf4jnsgd1na2vs0mg"},{"bike_id":"df58ebb5-a40c-496d-9b2d-01eac0907533","system_id":"levelo_inurba_marseille","lat":43.3041,"lon":5.41292,"is_reserved":false,"is_disabled":false,"rental_uris":{"android":"levelo://app?vid=df58ebb5-a40c-496d-9b2d-01eac0907533","ios":"levelo://app?vid=df58ebb5-a40c-496d-9b2d-01eac0907533"},"vehicle_type_id":"4","last_reported":1759162190,"current_range_meters":4400,"station_id":"ce4bhop2rcd13ifvqh8g","pricing_plan_id":"cebpf4jnsgd1na2vs0mg"},{"bike_id":"43cfa19e-3287-4227-9a22-33cb3c4e39da","system_id":"levelo_inurba_marseille","lat":43.24387,"lon":5.3706,"is_reserved":false,"is_disabled":false,"rental_uris":{"android":"levelo://app?vid=43cfa19e-3287-4227-9a22-33cb3c4e39da","ios":"levelo://app?vid=43cfa19e-3287-4227-9a22-33cb3c4e39da"},"vehicle_type_id":"4","last_reported":1759162190,"current_range_meters":4400,"station_id":"ce4bhhh2rcd13ifvqfk0","pricing_plan_id":"cebpf4jnsgd1na2vs0mg"},{"bike_id":"846b9ad1-a37c-4e96-83a1-cfe56d80f0d2","system_id":"levelo_inurba_marseille","lat":43.26263,"lon":5.39879,"is_reserved":false,"is_disabled":false,"rental_uris":{"android":"levelo://app?vid=846b9ad1-a37c-4e96-83a1-cfe56d80f0d2","ios":"levelo://app?vid=846b9ad1-a37c-4e96-83a1-cfe56d80f0d2"},"vehicle_type_id":"4","last_reported":1759162190,"current_range_meters":4400,"station_id":"","pricing_plan_id":"cebpf4jnsgd1na2vs0mg"},{"bike_id":"972b1340-6c51-4142-8c3d-02a87aecc564","system_id":"levelo_inurba_marseille","lat":43.29958,"lon":5.37182,"is_reserved":false,"is_disabled":false,"rental_uris":{"android":"levelo://app?vid=972b1340-6c51-4142-8c3d-02a87aecc564","ios":"levelo://app?vid=972b1340-6c51-4142-8c3d-02a87aecc564"},"vehicle_type_id":"4","last_reported":1759162190,"current_range_meters":4800,"station_id":"ce4bgr92rcd13ifvqc7g","pricing_plan_id":"cebpf4jnsgd1na2vs0mg"},{"bike_id":"2adb6ebd-fe6b-4862-9849-6c46da18d89d","system_id":"levelo_inurba_marseille","lat":43.292593,"lon":5.40893,"is_reserved":false,"is_disabled":false,"rental_uris":{"android":"levelo://app?vid=2adb6ebd-fe6b-4862-9849-6c46da18d89d","ios":"levelo://app?vid=2adb6ebd-fe6b-4862-9849-6c46da18d89d"},"vehicle_type_id":"4","last_reported":1759162190,"current_range_meters":4800,"station_id":"ce4bh192rcd13ifvqdc0","pricing_plan_id":"cebpf4jnsgd1na2vs0mg"},{"bike_id":"26172944-106b-4b4e-9e3c-562a87d00a0c","system_id":"levelo_inurba_marseille","lat":43.290321,"lon":5.376542,"is_reserved":false,"is_disabled":false,"rental_uris":{"android":"levelo://app?vid=26172944-106b-4b4e-9e3c-562a87d00a0c","ios":"levelo://app?vid=26172944-106b-4b4e-9e3c-562a87d00a0c"},"vehicle_type_id":"4","last_reported":1759162190,"current_range_meters":4800,"station_id":"","pricing_plan_id":"cebpf4jnsgd1na2vs0mg"},{"bike_id":"435ee6dd-62bb-4e47-8f27-d9a36ddf1779","system_id":"levelo_inurba_marseille","lat":43.298626,"lon":5.363054,"is_reserved":false,"is_disabled":false,"rental_uris":{"android":"levelo://app?vid=435ee6dd-62bb-4e47-8f27-d9a36ddf1779","ios":"levelo://app?vid=435ee6dd-62bb-4e47-8f27-d9a36ddf1779"},"vehicle_type_id":"4","last_reported":1759162190,"current_range_meters":4800,"station_id":"ce4bgpp2rcd13ifvqc3g","pricing_plan_id":"cebpf4jnsgd1na2vs0mg"},{"bike_id":"e18e42e6-8c98-4037-804e-23489dc37773","system_id":"levelo_inurba_marseille","lat":43.28101,"lon":5.37838,"is_reserved":false,"is_disabled":false,"rental_uris":{"android":"levelo://app?vid=e18e42e6-8c98-4037-804e-23489dc37773","ios":"levelo://app?vid=e18e42e6-8c98-4037-804e-23489dc37773"},"vehicle_type_id":"4","last_reported":1759162190,"current_range_meters":4800,"station_id":"ce4bha12rcd13ifvqee0","pricing_plan_id":"cebpf4jnsgd1na2vs0mg"},{"bike_id":"fc751247-aece-4f05-bcbb-1498ee099a7d","system_id":"levelo_inurba_marseille","lat":43.26802,"lon":5.40271,"is_reserved":false,"is_disabled":false,"rental_uris":{"android":"levelo://app?vid=fc751247-aece-4f05-bcbb-1498ee099a7d","ios":"levelo://app?vid=fc751247-aece-4f05-bcbb-1498ee099a7d"},"vehicle_type_id":"4","last_reported":1759162190,"current_range_meters":5600,"station_id":"ce501612rcd8frsf0b60","pricing_plan_id":"cebpf4jnsgd1na2vs0mg"},{"bike_id":"9a375774-3dc2-4306-8d3a-ee3ce8252762","system_id":"levelo_inurba_marseille","lat":43.31319,"lon":5.39709,"is_reserved":false,"is_disabled":false,"rental_uris":{"android":"levelo://app?vid=9a375774-3dc2-4306-8d3a-ee3ce8252762","ios":"levelo://app?vid=9a375774-3dc2-4306-8d3a-ee3ce8252762"},"vehicle_type_id":"4","last_reported":1759162190,"current_range_meters":5600,"station_id":"ce4bgvp2rcd13ifvqcu0","pricing_plan_id":"cebpf4jnsgd1na2vs0mg"},{"bike_id":"2ea17b5b-cbd9-4f02-af2c-a9ba40f321c1","system_id":"levelo_inurba_marseille","lat":43.293,"lon":5.37466,"is_reserved":false,"is_disabled":false,"rental_uris":{"android":"levelo://app?vid=2ea17b5b-cbd9-4f02-af2c-a9ba40f321c1","ios":"levelo://app?vid=2ea17b5b-cbd9-4f02-af2c-a9ba40f321c1"},"vehicle_type_id":"4","last_reported":1759162190,"current_range_meters":5600,"station_id":"ce4bgi12rcd13ifvqb70","pricing_plan_id":"cebpf4jnsgd1na2vs0mg"},{"bike_id":"4f194c40-87fd-45d8-84a8-40381524af69","system_id":"levelo_inurba_marseille","lat":43.24662,"lon":5.381746,"is_reserved":false,"is_disabled":false,"rental_uris":{"android":"levelo://app?vid=4f194c40-87fd-45d8-84a8-40381524af69","ios":"levelo://app?vid=4f194c40-87fd-45d8-84a8-40381524af69"},"vehicle_type_id":"4","last_reported":1759162190,"current_range_meters":5600,"station_id":"ce4bhih2rcd13ifvqfr0","pricing_plan_id":"cebpf4jnsgd1na2vs0mg"},{"bike_id":"0fd50e18-25f0-4301-89f6-03ed93d39cb7","system_id":"levelo_inurba_marseille","lat":43.320465,"lon":5.41574,"is_reserved":false,"is_disabled":false,"rental_uris":{"android":"levelo://app?vid=0fd50e18-25f0-4301-89f6-03ed93d39cb7","ios":"levelo://app?vid=0fd50e18-25f0-4301-89f6-03ed93d39cb7"},"vehicle_type_id":"4","last_reported":1759162190,"current_range_meters":5600,"station_id":"ce4bhq92rcd13ifvqhkg","pricing_plan_id":"cebpf4jnsgd1na2vs0mg"},{"bike_id":"7971be3b-ad5a-4b48-a5a1-e6ae5f39c424","system_id":"levelo_inurba_marseille","lat":43.32476,"lon":5.36579,"is_reserved":false,"is_disabled":false,"rental_uris":{"android":"levelo://app?vid=7971be3b-ad5a-4b48-a5a1-e6ae5f39c424","ios":"levelo://app?vid=7971be3b-ad5a-4b48-a5a1-e6ae5f39c424"},"vehicle_type_id":"4","last_reported":1759162190,"current_range_meters":5600,"station_id":"ce4bhs12rcd13ifvqhvg","pricing_plan_id":"cebpf4jnsgd1na2vs0mg"},{"bike_id":"c0795931-e538-4ab4-86c2-2c524acc0b71","system_id":"levelo_inurba_marseille","lat":43.30788,"lon":5.37651,"is_reserved":false,"is_disabled":false,"rental_uris":{"android":"levelo://app?vid=c0795931-e538-4ab4-86c2-2c524acc0b71","ios":"levelo://app?vid=c0795931-e538-4ab4-86c2-2c524acc0b71"},"vehicle_type_id":"4","last_reported":1759162190,"current_range_meters":6000,"station_id":"ce4bgv92rcd13ifvqcq0","pricing_plan_id":"cebpf4jnsgd1na2vs0mg"},{"bike_id":"019cfb70-ce17-42af-8118-315c4834bf7d","system_id":"levelo_inurba_marseille","lat":43.29433,"lon":5.397481,"is_reserved":false,"is_disabled":false,"rental_uris":{"android":"levelo://app?vid=019cfb70-ce17-42af-8118-315c4834bf7d","ios":"levelo://app?vid=019cfb70-ce17-42af-8118-315c4834bf7d"},"vehicle_type_id":"4","last_reported":1759162190,"current_range_meters":6000,"station_id":"ce4bh3h2rcd13ifvqdo0","pricing_plan_id":"cebpf4jnsgd1na2vs0mg"},{"bike_id":"6e8f58a0-f7a9-431a-a9e6-67798af4b45f","system_id":"levelo_inurba_marseille","lat":43.30888,"lon":5.39652,"is_reserved":false,"is_disabled":false,"rental_uris":{"android":"levelo://app?vid=6e8f58a0-f7a9-431a-a9e6-67798af4b45f","ios":"levelo://app?vid=6e8f58a0-f7a9-431a-a9e6-67798af4b45f"},"vehicle_type_id":"4","last_reported":1759162190,"current_range_meters":6000,"station_id":"ce4bh012rcd13ifvqcv0","pricing_plan_id":"cebpf4jnsgd1na2vs0mg"},{"bike_id":"1a78d319-3724-4abf-996b-67d66bef0b74","system_id":"levelo_inurba_marseille","lat":43.29628,"lon":5.371636,"is_reserved":false,"is_disabled":false,"rental_uris":{"android":"levelo://app?vid=1a78d319-3724-4abf-996b-67d66bef0b74","ios":"levelo://app?vid=1a78d319-3724-4abf-996b-67d66bef0b74"},"vehicle_type_id":"4","last_reported":1759162190,"current_range_meters":6000,"station_id":"ce4bgnh2rcd13ifvqc0g","pricing_plan_id":"cebpf4jnsgd1na2vs0mg"},{"bike_id":"6cd326cd-0174-4363-a6aa-3e61d85135fa","system_id":"levelo_inurba_marseille","lat":43.28408,"lon":5.37517,"is_reserved":false,"is_disabled":false,"rental_uris":{"android":"levelo://app?vid=6cd326cd-0174-4363-a6aa-3e61d85135fa","ios":"levelo://app?vid=6cd326cd-0174-4363-a6aa-3e61d85135fa"},"vehicle_type_id":"4","last_reported":1759162190,"current_range_meters":6400,"station_id":"ce4bh412rcd13ifvqds0","pricing_plan_id":"cebpf4jnsgd1na2vs0mg"},{"bike_id":"1428430d-dea3-4035-a1f7-b50ba331c1fc","system_id":"levelo_inurba_marseille","lat":43.24631,"lon":5.43165,"is_reserved":false,"is_disabled":false,"rental_uris":{"android":"levelo://app?vid=1428430d-dea3-4035-a1f7-b50ba331c1fc","ios":"levelo://app?vid=1428430d-dea3-4035-a1f7-b50ba331c1fc"},"vehicle_type_id":"4","last_reported":1759162190,"current_range_meters":6400,"station_id":"st_d2m6c4gdas8pm72e190g","pricing_plan_id":"cebpf4jnsgd1na2vs0mg"},{"bike_id":"d16f46f5-3d43-4933-b088-bc397093924a","system_id":"levelo_inurba_marseille","lat":43.29855,"lon":5.36292,"is_reserved":false,"is_disabled":false,"rental_uris":{"android":"levelo://app?vid=d16f46f5-3d43-4933-b088-bc397093924a","ios":"levelo://app?vid=d16f46f5-3d43-4933-b088-bc397093924a"},"vehicle_type_id":"4","last_reported":1759162190,"current_range_meters":6800,"station_id":"ce4bgpp2rcd13ifvqc3g","pricing_plan_id":"cebpf4jnsgd1na2vs0mg"},{"bike_id":"f2b029e1-b993-488a-a0ea-5f80036ba6b6","system_id":"levelo_inurba_marseille","lat":43.2894,"lon":5.39639,"is_reserved":false,"is_disabled":false,"rental_uris":{"android":"levelo://app?vid=f2b029e1-b993-488a-a0ea-5f80036ba6b6","ios":"levelo://app?vid=f2b029e1-b993-488a-a0ea-5f80036ba6b6"},"vehicle_type_id":"4","last_reported":1759162190,"current_range_meters":6800,"station_id":"ce4bh3h2rcd13ifvqdn0","pricing_plan_id":"cebpf4jnsgd1na2vs0mg"},{"bike_id":"3d7bc8cd-854e-4b97-ba9d-a11e0de6b5b2","system_id":"levelo_inurba_marseille","lat":43.28159,"lon":5.42654,"is_reserved":false,"is_disabled":false,"rental_uris":{"android":"levelo://app?vid=3d7bc8cd-854e-4b97-ba9d-a11e0de6b5b2","ios":"levelo://app?vid=3d7bc8cd-854e-4b97-ba9d-a11e0de6b5b2"},"vehicle_type_id":"4","last_reported":1759162190,"current_range_meters":6800,"station_id":"ce4bhnh2rcd13ifvqgug","pricing_plan_id":"cebpf4jnsgd1na2vs0mg"},{"bike_id":"bc85c2b7-fb13-477a-bbd7-01f47d27e6a2","system_id":"levelo_inurba_marseille","lat":43.231893,"lon":5.35563,"is_reserved":false,"is_disabled":false,"rental_uris":{"android":"levelo://app?vid=bc85c2b7-fb13-477a-bbd7-01f47d27e6a2","ios":"levelo://app?vid=bc85c2b7-fb13-477a-bbd7-01f47d27e6a2"},"vehicle_type_id":"4","last_reported":1759162190,"current_range_meters":6800,"station_id":"ce4bhu92rcd13ifvqi70","pricing_plan_id":"cebpf4jnsgd1na2vs0mg"},{"bike_id":"49fa1f9d-27d2-44c4-82b2-0685de1b552c","system_id":"levelo_inurba_marseille","lat":43.267834,"lon":5.394116,"is_reserved":false,"is_disabled":false,"rental_uris":{"android":"levelo://app?vid=49fa1f9d-27d2-44c4-82b2-0685de1b552c","ios":"levelo://app?vid=49fa1f9d-27d2-44c4-82b2-0685de1b552c"},"vehicle_type_id":"4","last_reported":1759162190,"current_range_meters":6800,"station_id":"ce4bhh12rcd13ifvqfg0","pricing_plan_id":"cebpf4jnsgd1na2vs0mg"},{"bike_id":"bc52c08e-bca3-4dfb-b51d-26247fe9ccee","system_id":"levelo_inurba_marseille","lat":43.26201,"lon":5.37933,"is_reserved":false,"is_disabled":false,"rental_uris":{"android":"levelo://app?vid=bc52c08e-bca3-4dfb-b51d-26247fe9ccee","ios":"levelo://app?vid=bc52c08e-bca3-4dfb-b51d-26247fe9ccee"},"vehicle_type_id":"4","last_reported":1759162190,"current_range_meters":6800,"station_id":"ce4bhjp2rcd13ifvqg90","pricing_plan_id":"cebpf4jnsgd1na2vs0mg"},{"bike_id":"fdcdbcd3-56d1-46b5-b158-4e55fe0f9cea","system_id":"levelo_inurba_marseille","lat":43.26792,"lon":5.39409,"is_reserved":false,"is_disabled":false,"rental_uris":{"android":"levelo://app?vid=fdcdbcd3-56d1-46b5-b158-4e55fe0f9cea","ios":"levelo://app?vid=fdcdbcd3-56d1-46b5-b158-4e55fe0f9cea"},"vehicle_type_id":"4","last_reported":1759162190,"current_range_meters":6800,"station_id":"ce4bhh12rcd13ifvqfg0","pricing_plan_id":"cebpf4jnsgd1na2vs0mg"},{"bike_id":"7b5a9544-4648-4e80-924e-ea77ee3f0ed4","system_id":"levelo_inurba_marseille","lat":43.297098,"lon":5.376907,"is_reserved":false,"is_disabled":false,"rental_uris":{"android":"levelo://app?vid=7b5a9544-4648-4e80-924e-ea77ee3f0ed4","ios":"levelo://app?vid=7b5a9544-4648-4e80-924e-ea77ee3f0ed4"},"vehicle_type_id":"4","last_reported":1759162190,"current_range_meters":7200,"station_id":"ce4bgkh2rcd13ifvqbl0","pricing_plan_id":"cebpf4jnsgd1na2vs0mg"},{"bike_id":"c9916796-5f07-4d22-aceb-87882fb08ac5","system_id":"levelo_inurba_marseille","lat":43.305878,"lon":5.365846,"is_reserved":false,"is_disabled":false,"rental_uris":{"android":"levelo://app?vid=c9916796-5f07-4d22-aceb-87882fb08ac5","ios":"levelo://app?vid=c9916796-5f07-4d22-aceb-87882fb08ac5"},"vehicle_type_id":"4","last_reported":1759162190,"current_range_meters":7200,"station_id":"ce4bgs12rcd13ifvqcag","pricing_plan_id":"cebpf4jnsgd1na2vs0mg"},{"bike_id":"8a4a8404-2223-404b-b9d6-fda388efd3eb","system_id":"levelo_inurba_marseille","lat":43.225399,"lon":5.348524,"is_reserved":false,"is_disabled":false,"rental_uris":{"android":"levelo://app?vid=8a4a8404-2223-404b-b9d6-fda388efd3eb","ios":"levelo://app?vid=8a4a8404-2223-404b-b9d6-fda388efd3eb"},"vehicle_type_id":"4","last_reported":1759162190,"current_range_meters":7200,"station_id":"","pricing_plan_id":"cebpf4jnsgd1na2vs0mg"},{"bike_id":"297afbd3-6a24-4365-b673-36e1168e7dfc","system_id":"levelo_inurba_marseille","lat":43.29299,"lon":5.3746,"is_reserved":false,"is_disabled":false,"rental_uris":{"android":"levelo://app?vid=297afbd3-6a24-4365-b673-36e1168e7dfc","ios":"levelo://app?vid=297afbd3-6a24-4365-b673-36e1168e7dfc"},"vehicle_type_id":"4","last_reported":1759162190,"current_range_meters":7200,"station_id":"ce4bgi12rcd13ifvqb70","pricing_plan_id":"cebpf4jnsgd1na2vs0mg"},{"bike_id":"8567a1ee-298d-47d0-ae6d-83eda74ecb98","system_id":"levelo_inurba_marseille","lat":43.29028,"lon":5.38653,"is_reserved":false,"is_disabled":false,"rental_uris":{"android":"levelo://app?vid=8567a1ee-298d-47d0-ae6d-83eda74ecb98","ios":"levelo://app?vid=8567a1ee-298d-47d0-ae6d-83eda74ecb98"},"vehicle_type_id":"4","last_reported":1759162190,"current_range_meters":7200,"station_id":"ce4bh4p2rcd13ifvqe0g","pricing_plan_id":"cebpf4jnsgd1na2vs0mg"},{"bike_id":"258ab053-1083-4ca9-a32a-1e85f085fc22","system_id":"levelo_inurba_marseille","lat":43.337444,"lon":5.374475,"is_reserved":false,"is_disabled":false,"rental_uris":{"android":"levelo://app?vid=258ab053-1083-4ca9-a32a-1e85f085fc22","ios":"levelo://app?vid=258ab053-1083-4ca9-a32a-1e85f085fc22"},"vehicle_type_id":"4","last_reported":1759162190,"current_range_meters":7200,"station_id":"","pricing_plan_id":"cebpf4jnsgd1na2vs0mg"},{"bike_id":"cefe59df-2426-4a68-83cf-fcecbb3c8c98","system_id":"levelo_inurba_marseille","lat":43.30258,"lon":5.39615,"is_reserved":false,"is_disabled":true,"rental_uris":{"android":"levelo://app?vid=cefe59df-2426-4a68-83cf-fcecbb3c8c98","ios":"levelo://app?vid=cefe59df-2426-4a68-83cf-fcecbb3c8c98"},"vehicle_type_id":"4","last_reported":1759162190,"current_range_meters":8000,"station_id":"","pricing_plan_id":"cebpf4jnsgd1na2vs0mg"},{"bike_id":"e182efa6-ab69-4650-89fe-54ba4a0ac0e4","system_id":"levelo_inurba_marseille","lat":43.30213,"lon":5.3948,"is_reserved":false,"is_disabled":false,"rental_uris":{"android":"levelo://app?vid=e182efa6-ab69-4650-89fe-54ba4a0ac0e4","ios":"levelo://app?vid=e182efa6-ab69-4650-89fe-54ba4a0ac0e4"},"vehicle_type_id":"4","last_reported":1759162190,"current_range_meters":8000,"station_id":"ce4bh0p2rcd13ifvqd70","pricing_plan_id":"cebpf4jnsgd1na2vs0mg"},{"bike_id":"507533aa-0cd7-4694-b07f-9a84135db0dc","system_id":"levelo_inurba_marseille","lat":43.25333,"lon":5.42154,"is_reserved":false,"is_disabled":false,"rental_uris":{"android":"levelo://app?vid=507533aa-0cd7-4694-b07f-9a84135db0dc","ios":"levelo://app?vid=507533aa-0cd7-4694-b07f-9a84135db0dc"},"vehicle_type_id":"4","last_reported":1759162190,"current_range_meters":8000,"station_id":"st_d2m65c5bi1j21697t3ng","pricing_plan_id":"cebpf4jnsgd1na2vs0mg"},{"bike_id":"f6f8a72b-f260-460b-ad8d-c4921a345d93","system_id":"levelo_inurba_marseille","lat":43.27057,"lon":5.40265,"is_reserved":false,"is_disabled":false,"rental_uris":{"android":"levelo://app?vid=f6f8a72b-f260-460b-ad8d-c4921a345d93","ios":"levelo://app?vid=f6f8a72b-f260-460b-ad8d-c4921a345d93"},"vehicle_type_id":"4","last_reported":1759162190,"current_range_meters":8000,"station_id":"ce4bhk92rcd13ifvqgc0","pricing_plan_id":"cebpf4jnsgd1na2vs0mg"},{"bike_id":"cb8307c2-2642-4a5c-ab7d-08edc545c655","system_id":"levelo_inurba_marseille","lat":43.297027,"lon":5.377046,"is_reserved":false,"is_disabled":false,"rental_uris":{"android":"levelo://app?vid=cb8307c2-2642-4a5c-ab7d-08edc545c655","ios":"levelo://app?vid=cb8307c2-2642-4a5c-ab7d-08edc545c655"},"vehicle_type_id":"4","last_reported":1759162190,"current_range_meters":8000,"station_id":"ce4bgkh2rcd13ifvqbl0","pricing_plan_id":"cebpf4jnsgd1na2vs0mg"},{"bike_id":"67590a5a-8c78-426b-8764-53c8dd4a940b","system_id":"levelo_inurba_marseille","lat":43.284256,"lon":5.349821,"is_reserved":false,"is_disabled":false,"rental_uris":{"android":"levelo://app?vid=67590a5a-8c78-426b-8764-53c8dd4a940b","ios":"levelo://app?vid=67590a5a-8c78-426b-8764-53c8dd4a940b"},"vehicle_type_id":"4","last_reported":1759162190,"current_range_meters":8000,"station_id":"","pricing_plan_id":"cebpf4jnsgd1na2vs0mg"},{"bike_id":"8b353c9e-13c5-42ee-a76f-ccbd6269a3dc","system_id":"levelo_inurba_marseille","lat":43.30424,"lon":5.366666,"is_reserved":false,"is_disabled":false,"rental_uris":{"android":"levelo://app?vid=8b353c9e-13c5-42ee-a76f-ccbd6269a3dc","ios":"levelo://app?vid=8b353c9e-13c5-42ee-a76f-ccbd6269a3dc"},"vehicle_type_id":"4","last_reported":1759162190,"current_range_meters":8400,"station_id":"","pricing_plan_id":"cebpf4jnsgd1na2vs0mg"},{"bike_id":"2c6518be-b3f0-42d2-93c9-c1de9e54885f","system_id":"levelo_inurba_marseille","lat":43.29227,"lon":5.38219,"is_reserved":false,"is_disabled":false,"rental_uris":{"android":"levelo://app?vid=2c6518be-b3f0-42d2-93c9-c1de9e54885f","ios":"levelo://app?vid=2c6518be-b3f0-42d2-93c9-c1de9e54885f"},"vehicle_type_id":"4","last_reported":1759162190,"current_range_meters":8400,"station_id":"","pricing_plan_id":"cebpf4jnsgd1na2vs0mg"},{"bike_id":"ef24f36b-e0d9-4210-93e7-fd36ad3e2477","system_id":"levelo_inurba_marseille","lat":43.28205,"lon":5.39077,"is_reserved":false,"is_disabled":false,"rental_uris":{"android":"levelo://app?vid=ef24f36b-e0d9-4210-93e7-fd36ad3e2477","ios":"levelo://app?vid=ef24f36b-e0d9-4210-93e7-fd36ad3e2477"},"vehicle_type_id":"4","last_reported":1759162190,"current_range_meters":8400,"station_id":"ce4bhn92rcd13ifvqgsg","pricing_plan_id":"cebpf4jnsgd1na2vs0mg"},{"bike_id":"ee96a502-9b76-492e-840a-498b02aefe72","system_id":"levelo_inurba_marseille","lat":43.32355,"lon":5.39217,"is_reserved":false,"is_disabled":false,"rental_uris":{"android":"levelo://app?vid=ee96a502-9b76-492e-840a-498b02aefe72","ios":"levelo://app?vid=ee96a502-9b76-492e-840a-498b02aefe72"},"vehicle_type_id":"4","last_reported":1759162190,"current_range_meters":8400,"station_id":"","pricing_plan_id":"cebpf4jnsgd1na2vs0mg"},{"bike_id":"6eeea41b-aa60-4f14-a3fb-55ba3b641da2","system_id":"levelo_inurba_marseille","lat":43.29865,"lon":5.38899,"is_reserved":false,"is_disabled":true,"rental_uris":{"android":"levelo://app?vid=6eeea41b-aa60-4f14-a3fb-55ba3b641da2","ios":"levelo://app?vid=6eeea41b-aa60-4f14-a3fb-55ba3b641da2"},"vehicle_type_id":"4","last_reported":1759162190,"current_range_meters":8400,"station_id":"ce4bh392rcd13ifvqdl0","pricing_plan_id":"cebpf4jnsgd1na2vs0mg"},{"bike_id":"85db6934-1d4d-4aef-800d-1a609fc3fcbe","system_id":"levelo_inurba_marseille","lat":43.30588,"lon":5.39363,"is_reserved":false,"is_disabled":false,"rental_uris":{"android":"levelo://app?vid=85db6934-1d4d-4aef-800d-1a609fc3fcbe","ios":"levelo://app?vid=85db6934-1d4d-4aef-800d-1a609fc3fcbe"},"vehicle_type_id":"4","last_reported":1759162190,"current_range_meters":8400,"station_id":"ce4bh0p2rcd13ifvqd80","pricing_plan_id":"cebpf4jnsgd1na2vs0mg"},{"bike_id":"16fd36ff-9557-4a0c-941a-252231fb6b18","system_id":"levelo_inurba_marseille","lat":43.2827,"lon":5.3506,"is_reserved":false,"is_disabled":false,"rental_uris":{"android":"levelo://app?vid=16fd36ff-9557-4a0c-941a-252231fb6b18","ios":"levelo://app?vid=16fd36ff-9557-4a0c-941a-252231fb6b18"},"vehicle_type_id":"4","last_reported":1759162190,"current_range_meters":8400,"station_id":"ce4bhbp2rcd13ifvqerg","pricing_plan_id":"cebpf4jnsgd1na2vs0mg"},{"bike_id":"03350417-1098-4d6c-b8fe-9e64358744bf","system_id":"levelo_inurba_marseille","lat":43.3331,"lon":5.41248,"is_reserved":false,"is_disabled":false,"rental_uris":{"android":"levelo://app?vid=03350417-1098-4d6c-b8fe-9e64358744bf","ios":"levelo://app?vid=03350417-1098-4d6c-b8fe-9e64358744bf"},"vehicle_type_id":"4","last_reported":1759162190,"current_range_meters":8400,"station_id":"","pricing_plan_id":"cebpf4jnsgd1na2vs0mg"},{"bike_id":"1dad2113-89e2-44fc-a0b6-ddd6a09baff1","system_id":"levelo_inurba_marseille","lat":43.337444,"lon":5.374475,"is_reserved":false,"is_disabled":false,"rental_uris":{"android":"levelo://app?vid=1dad2113-89e2-44fc-a0b6-ddd6a09baff1","ios":"levelo://app?vid=1dad2113-89e2-44fc-a0b6-ddd6a09baff1"},"vehicle_type_id":"4","last_reported":1759162190,"current_range_meters":8400,"station_id":"","pricing_plan_id":"cebpf4jnsgd1na2vs0mg"},{"bike_id":"815fa209-d2d2-4aac-8987-479d7dbeedf8","system_id":"levelo_inurba_marseille","lat":43.24631,"lon":5.43147,"is_reserved":false,"is_disabled":false,"rental_uris":{"android":"levelo://app?vid=815fa209-d2d2-4aac-8987-479d7dbeedf8","ios":"levelo://app?vid=815fa209-d2d2-4aac-8987-479d7dbeedf8"},"vehicle_type_id":"4","last_reported":1759162190,"current_range_meters":8800,"station_id":"st_d2m6c4gdas8pm72e190g","pricing_plan_id":"cebpf4jnsgd1na2vs0mg"},{"bike_id":"03a80f76-c636-42f1-8cd0-09b80d2787ca","system_id":"levelo_inurba_marseille","lat":43.239679,"lon":5.36632,"is_reserved":false,"is_disabled":false,"rental_uris":{"android":"levelo://app?vid=03a80f76-c636-42f1-8cd0-09b80d2787ca","ios":"levelo://app?vid=03a80f76-c636-42f1-8cd0-09b80d2787ca"},"vehicle_type_id":"4","last_reported":1759162190,"current_range_meters":8400,"station_id":"ce4bhi12rcd13ifvqfp0","pricing_plan_id":"cebpf4jnsgd1na2vs0mg"},{"bike_id":"16736934-dfee-4899-9572-c856d9cb8245","system_id":"levelo_inurba_marseille","lat":43.27812,"lon":5.4072,"is_reserved":false,"is_disabled":false,"rental_uris":{"android":"levelo://app?vid=16736934-dfee-4899-9572-c856d9cb8245","ios":"levelo://app?vid=16736934-dfee-4899-9572-c856d9cb8245"},"vehicle_type_id":"4","last_reported":1759162190,"current_range_meters":8800,"station_id":"ce4bhnh2rcd13ifvqgtg","pricing_plan_id":"cebpf4jnsgd1na2vs0mg"},{"bike_id":"da0f26e9-0bdb-4063-b9f5-dcfb6728a88e","system_id":"levelo_inurba_marseille","lat":43.22929,"lon":5.35377,"is_reserved":false,"is_disabled":false,"rental_uris":{"android":"levelo://app?vid=da0f26e9-0bdb-4063-b9f5-dcfb6728a88e","ios":"levelo://app?vid=da0f26e9-0bdb-4063-b9f5-dcfb6728a88e"},"vehicle_type_id":"4","last_reported":1759162190,"current_range_meters":8800,"station_id":"cpo3532slgdg3j2ikp40","pricing_plan_id":"cebpf4jnsgd1na2vs0mg"},{"bike_id":"03e38958-02d9-431c-aa26-c4e1013a7cf3","system_id":"levelo_inurba_marseille","lat":43.288636,"lon":5.425276,"is_reserved":false,"is_disabled":false,"rental_uris":{"android":"levelo://app?vid=03e38958-02d9-431c-aa26-c4e1013a7cf3","ios":"levelo://app?vid=03e38958-02d9-431c-aa26-c4e1013a7cf3"},"vehicle_type_id":"4","last_reported":1759162190,"current_range_meters":9200,"station_id":"st_d3b462108ojc7389ooeg","pricing_plan_id":"cebpf4jnsgd1na2vs0mg"},{"bike_id":"8d51448a-1187-4e99-aa89-ca33bbfc86a6","system_id":"levelo_inurba_marseille","lat":43.24664,"lon":5.381741,"is_reserved":false,"is_disabled":false,"rental_uris":{"android":"levelo://app?vid=8d51448a-1187-4e99-aa89-ca33bbfc86a6","ios":"levelo://app?vid=8d51448a-1187-4e99-aa89-ca33bbfc86a6"},"vehicle_type_id":"4","last_reported":1759162190,"current_range_meters":9200,"station_id":"ce4bhih2rcd13ifvqfr0","pricing_plan_id":"cebpf4jnsgd1na2vs0mg"},{"bike_id":"a1a0d8b3-e766-4d85-8d06-14ef8b735d00","system_id":"levelo_inurba_marseille","lat":43.29074,"lon":5.37148,"is_reserved":false,"is_disabled":false,"rental_uris":{"android":"levelo://app?vid=a1a0d8b3-e766-4d85-8d06-14ef8b735d00","ios":"levelo://app?vid=a1a0d8b3-e766-4d85-8d06-14ef8b735d00"},"vehicle_type_id":"4","last_reported":1759162190,"current_range_meters":9200,"station_id":"ce4bh5p2rcd13ifvqe4g","pricing_plan_id":"cebpf4jnsgd1na2vs0mg"},{"bike_id":"e1b6901f-bead-472b-97d2-1791d6f89659","system_id":"levelo_inurba_marseille","lat":43.30124,"lon":5.39863,"is_reserved":false,"is_disabled":false,"rental_uris":{"android":"levelo://app?vid=e1b6901f-bead-472b-97d2-1791d6f89659","ios":"levelo://app?vid=e1b6901f-bead-472b-97d2-1791d6f89659"},"vehicle_type_id":"4","last_reported":1759162190,"current_range_meters":9600,"station_id":"ce4bh0h2rcd13ifvqd40","pricing_plan_id":"cebpf4jnsgd1na2vs0mg"},{"bike_id":"14073f45-3a27-41e7-ab8d-94439c414585","system_id":"levelo_inurba_marseille","lat":43.2418,"lon":5.39729,"is_reserved":false,"is_disabled":false,"rental_uris":{"android":"levelo://app?vid=14073f45-3a27-41e7-ab8d-94439c414585","ios":"levelo://app?vid=14073f45-3a27-41e7-ab8d-94439c414585"},"vehicle_type_id":"4","last_reported":1759162190,"current_range_meters":9600,"station_id":"ce4bhn12rcd13ifvqgpg","pricing_plan_id":"cebpf4jnsgd1na2vs0mg"},{"bike_id":"35e8f722-b82a-4247-beb8-7e2827829ce6","system_id":"levelo_inurba_marseille","lat":43.32405,"lon":5.3911,"is_reserved":false,"is_disabled":false,"rental_uris":{"android":"levelo://app?vid=35e8f722-b82a-4247-beb8-7e2827829ce6","ios":"levelo://app?vid=35e8f722-b82a-4247-beb8-7e2827829ce6"},"vehicle_type_id":"4","last_reported":1759162190,"current_range_meters":9600,"station_id":"","pricing_plan_id":"cebpf4jnsgd1na2vs0mg"},{"bike_id":"ccc1eda8-4621-4d37-8344-b26a59439929","system_id":"levelo_inurba_marseille","lat":43.30305,"lon":5.39215,"is_reserved":false,"is_disabled":false,"rental_uris":{"android":"levelo://app?vid=ccc1eda8-4621-4d37-8344-b26a59439929","ios":"levelo://app?vid=ccc1eda8-4621-4d37-8344-b26a59439929"},"vehicle_type_id":"4","last_reported":1759162190,"current_range_meters":9600,"station_id":"ce4bgkh2rcd13ifvqbk0","pricing_plan_id":"cebpf4jnsgd1na2vs0mg"},{"bike_id":"8c4b462a-2ad3-4ab7-b5cd-0ae72bd1143a","system_id":"levelo_inurba_marseille","lat":43.299377,"lon":5.36554,"is_reserved":false,"is_disabled":false,"rental_uris":{"android":"levelo://app?vid=8c4b462a-2ad3-4ab7-b5cd-0ae72bd1143a","ios":"levelo://app?vid=8c4b462a-2ad3-4ab7-b5cd-0ae72bd1143a"},"vehicle_type_id":"4","last_reported":1759162190,"current_range_meters":9600,"station_id":"","pricing_plan_id":"cebpf4jnsgd1na2vs0mg"},{"bike_id":"1c102dfa-accf-41f7-b527-858497cb5976","system_id":"levelo_inurba_marseille","lat":43.292454,"lon":5.375086,"is_reserved":false,"is_disabled":false,"rental_uris":{"android":"levelo://app?vid=1c102dfa-accf-41f7-b527-858497cb5976","ios":"levelo://app?vid=1c102dfa-accf-41f7-b527-858497cb5976"},"vehicle_type_id":"4","last_reported":1759162190,"current_range_meters":9600,"station_id":"ce4bhc92rcd13ifvqetg","pricing_plan_id":"cebpf4jnsgd1na2vs0mg"},{"bike_id":"1228253c-4f20-4ebb-bac2-d028a569a64e","system_id":"levelo_inurba_marseille","lat":43.29089,"lon":5.40018,"is_reserved":false,"is_disabled":false,"rental_uris":{"android":"levelo://app?vid=1228253c-4f20-4ebb-bac2-d028a569a64e","ios":"levelo://app?vid=1228253c-4f20-4ebb-bac2-d028a569a64e"},"vehicle_type_id":"4","last_reported":1759162190,"current_range_meters":9600,"station_id":"ce4bh192rcd13ifvqdc0","pricing_plan_id":"cebpf4jnsgd1na2vs0mg"},{"bike_id":"35981e25-8616-4d33-9f67-d13192966e82","system_id":"levelo_inurba_marseille","lat":43.32335,"lon":5.40622,"is_reserved":false,"is_disabled":false,"rental_uris":{"android":"levelo://app?vid=35981e25-8616-4d33-9f67-d13192966e82","ios":"levelo://app?vid=35981e25-8616-4d33-9f67-d13192966e82"},"vehicle_type_id":"4","last_reported":1759162190,"current_range_meters":9600,"station_id":"ce4bhq92rcd13ifvqhjg","pricing_plan_id":"cebpf4jnsgd1na2vs0mg"},{"bike_id":"8e4b1f29-313c-4bc2-934f-0fa60ee7a46d","system_id":"levelo_inurba_marseille","lat":43.3014,"lon":5.37422,"is_reserved":false,"is_disabled":false,"rental_uris":{"android":"levelo://app?vid=8e4b1f29-313c-4bc2-934f-0fa60ee7a46d","ios":"levelo://app?vid=8e4b1f29-313c-4bc2-934f-0fa60ee7a46d"},"vehicle_type_id":"4","last_reported":1759162190,"current_range_meters":9600,"station_id":"ce4bgs92rcd13ifvqcc0","pricing_plan_id":"cebpf4jnsgd1na2vs0mg"},{"bike_id":"e5378695-fba9-432a-9cfb-3b5b05e40fec","system_id":"levelo_inurba_marseille","lat":43.337986,"lon":5.374304,"is_reserved":false,"is_disabled":false,"rental_uris":{"android":"levelo://app?vid=e5378695-fba9-432a-9cfb-3b5b05e40fec","ios":"levelo://app?vid=e5378695-fba9-432a-9cfb-3b5b05e40fec"},"vehicle_type_id":"4","last_reported":1759162190,"current_range_meters":9600,"station_id":"","pricing_plan_id":"cebpf4jnsgd1na2vs0mg"},{"bike_id":"c47f5c3e-1ff3-43b7-b740-1c081ef57305","system_id":"levelo_inurba_marseille","lat":43.29647,"lon":5.376,"is_reserved":false,"is_disabled":false,"rental_uris":{"android":"levelo://app?vid=c47f5c3e-1ff3-43b7-b740-1c081ef57305","ios":"levelo://app?vid=c47f5c3e-1ff3-43b7-b740-1c081ef57305"},"vehicle_type_id":"4","last_reported":1759162190,"current_range_meters":10000,"station_id":"","pricing_plan_id":"cebpf4jnsgd1na2vs0mg"},{"bike_id":"f40adf73-4b2f-46e4-85d1-9b07c37e302b","system_id":"levelo_inurba_marseille","lat":43.294373,"lon":5.397445,"is_reserved":false,"is_disabled":false,"rental_uris":{"android":"levelo://app?vid=f40adf73-4b2f-46e4-85d1-9b07c37e302b","ios":"levelo://app?vid=f40adf73-4b2f-46e4-85d1-9b07c37e302b"},"vehicle_type_id":"4","last_reported":1759162190,"current_range_meters":10000,"station_id":"ce4bh3h2rcd13ifvqdo0","pricing_plan_id":"cebpf4jnsgd1na2vs0mg"},{"bike_id":"d7d09523-34bb-44d2-9695-02f0abea9b47","system_id":"levelo_inurba_marseille","lat":43.29721,"lon":5.37887,"is_reserved":false,"is_disabled":false,"rental_uris":{"android":"levelo://app?vid=d7d09523-34bb-44d2-9695-02f0abea9b47","ios":"levelo://app?vid=d7d09523-34bb-44d2-9695-02f0abea9b47"},"vehicle_type_id":"4","last_reported":1759162190,"current_range_meters":10000,"station_id":"","pricing_plan_id":"cebpf4jnsgd1na2vs0mg"},{"bike_id":"4822dd99-56ec-44f6-a9b9-ee0ae5dcc1bf","system_id":"levelo_inurba_marseille","lat":43.30009,"lon":5.39994,"is_reserved":false,"is_disabled":false,"rental_uris":{"android":"levelo://app?vid=4822dd99-56ec-44f6-a9b9-ee0ae5dcc1bf","ios":"levelo://app?vid=4822dd99-56ec-44f6-a9b9-ee0ae5dcc1bf"},"vehicle_type_id":"4","last_reported":1759162190,"current_range_meters":10000,"station_id":"ce4bh0h2rcd13ifvqd40","pricing_plan_id":"cebpf4jnsgd1na2vs0mg"},{"bike_id":"d477dd81-b3e0-41ba-acee-9ddc8bc30a13","system_id":"levelo_inurba_marseille","lat":43.270601,"lon":5.402705,"is_reserved":false,"is_disabled":false,"rental_uris":{"android":"levelo://app?vid=d477dd81-b3e0-41ba-acee-9ddc8bc30a13","ios":"levelo://app?vid=d477dd81-b3e0-41ba-acee-9ddc8bc30a13"},"vehicle_type_id":"4","last_reported":1759162190,"current_range_meters":10000,"station_id":"ce4bhk92rcd13ifvqgc0","pricing_plan_id":"cebpf4jnsgd1na2vs0mg"},{"bike_id":"fcb39b64-efa0-4489-af30-7b99661ed1b1","system_id":"levelo_inurba_marseille","lat":43.248,"lon":5.37451,"is_reserved":false,"is_disabled":false,"rental_uris":{"android":"levelo://app?vid=fcb39b64-efa0-4489-af30-7b99661ed1b1","ios":"levelo://app?vid=fcb39b64-efa0-4489-af30-7b99661ed1b1"},"vehicle_type_id":"4","last_reported":1759162190,"current_range_meters":10000,"station_id":"ce4bhgh2rcd13ifvqfb0","pricing_plan_id":"cebpf4jnsgd1na2vs0mg"},{"bike_id":"6f212549-7393-46f3-b8df-9326cc3f0306","system_id":"levelo_inurba_marseille","lat":43.305966,"lon":5.393627,"is_reserved":false,"is_disabled":false,"rental_uris":{"android":"levelo://app?vid=6f212549-7393-46f3-b8df-9326cc3f0306","ios":"levelo://app?vid=6f212549-7393-46f3-b8df-9326cc3f0306"},"vehicle_type_id":"4","last_reported":1759162190,"current_range_meters":10800,"station_id":"ce4bh0p2rcd13ifvqd80","pricing_plan_id":"cebpf4jnsgd1na2vs0mg"},{"bike_id":"80b98ce0-3233-47ce-84db-722943723d1e","system_id":"levelo_inurba_marseille","lat":43.269329,"lon":5.38928,"is_reserved":false,"is_disabled":false,"rental_uris":{"android":"levelo://app?vid=80b98ce0-3233-47ce-84db-722943723d1e","ios":"levelo://app?vid=80b98ce0-3233-47ce-84db-722943723d1e"},"vehicle_type_id":"4","last_reported":1759162190,"current_range_meters":11200,"station_id":"","pricing_plan_id":"cebpf4jnsgd1na2vs0mg"},{"bike_id":"fb87d2f9-82a8-46e0-8b59-17ef50f10ee3","system_id":"levelo_inurba_marseille","lat":43.232023,"lon":5.355536,"is_reserved":false,"is_disabled":false,"rental_uris":{"android":"levelo://app?vid=fb87d2f9-82a8-46e0-8b59-17ef50f10ee3","ios":"levelo://app?vid=fb87d2f9-82a8-46e0-8b59-17ef50f10ee3"},"vehicle_type_id":"4","last_reported":1759162190,"current_range_meters":10800,"station_id":"ce4bhu92rcd13ifvqi70","pricing_plan_id":"cebpf4jnsgd1na2vs0mg"},{"bike_id":"c0403669-5703-4109-b829-6720b0fdf93d","system_id":"levelo_inurba_marseille","lat":43.30532,"lon":5.36731,"is_reserved":false,"is_disabled":false,"rental_uris":{"android":"levelo://app?vid=c0403669-5703-4109-b829-6720b0fdf93d","ios":"levelo://app?vid=c0403669-5703-4109-b829-6720b0fdf93d"},"vehicle_type_id":"4","last_reported":1759162190,"current_range_meters":10800,"station_id":"ce4bgrp2rcd13ifvqc9g","pricing_plan_id":"cebpf4jnsgd1na2vs0mg"},{"bike_id":"9c4235da-d3d0-4056-aa6b-c6aa6e8e7367","system_id":"levelo_inurba_marseille","lat":43.30665,"lon":5.37522,"is_reserved":false,"is_disabled":false,"rental_uris":{"android":"levelo://app?vid=9c4235da-d3d0-4056-aa6b-c6aa6e8e7367","ios":"levelo://app?vid=9c4235da-d3d0-4056-aa6b-c6aa6e8e7367"},"vehicle_type_id":"4","last_reported":1759162190,"current_range_meters":10800,"station_id":"","pricing_plan_id":"cebpf4jnsgd1na2vs0mg"},{"bike_id":"1aeb9012-5f8c-4895-92a1-169e5e412e86","system_id":"levelo_inurba_marseille","lat":43.24659,"lon":5.38166,"is_reserved":false,"is_disabled":false,"rental_uris":{"android":"levelo://app?vid=1aeb9012-5f8c-4895-92a1-169e5e412e86","ios":"levelo://app?vid=1aeb9012-5f8c-4895-92a1-169e5e412e86"},"vehicle_type_id":"4","last_reported":1759162190,"current_range_meters":10800,"station_id":"ce4bhih2rcd13ifvqfr0","pricing_plan_id":"cebpf4jnsgd1na2vs0mg"},{"bike_id":"a5734f0e-59cb-48f4-bebe-ee27bc5cd032","system_id":"levelo_inurba_marseille","lat":43.28442,"lon":5.39214,"is_reserved":false,"is_disabled":false,"rental_uris":{"android":"levelo://app?vid=a5734f0e-59cb-48f4-bebe-ee27bc5cd032","ios":"levelo://app?vid=a5734f0e-59cb-48f4-bebe-ee27bc5cd032"},"vehicle_type_id":"4","last_reported":1759162190,"current_range_meters":11200,"station_id":"ce4bhoh2rcd13ifvqh5g","pricing_plan_id":"cebpf4jnsgd1na2vs0mg"},{"bike_id":"ee6406f7-9f33-4935-a835-0f3904e54bc4","system_id":"levelo_inurba_marseille","lat":43.31875,"lon":5.37317,"is_reserved":false,"is_disabled":true,"rental_uris":{"android":"levelo://app?vid=ee6406f7-9f33-4935-a835-0f3904e54bc4","ios":"levelo://app?vid=ee6406f7-9f33-4935-a835-0f3904e54bc4"},"vehicle_type_id":"4","last_reported":1759162190,"current_range_meters":11600,"station_id":"ce4bgt12rcd13ifvqcd0","pricing_plan_id":"cebpf4jnsgd1na2vs0mg"},{"bike_id":"678ae2a3-6376-41d9-85c2-7835cb1c061b","system_id":"levelo_inurba_marseille","lat":43.28863,"lon":5.42534,"is_reserved":false,"is_disabled":false,"rental_uris":{"android":"levelo://app?vid=678ae2a3-6376-41d9-85c2-7835cb1c061b","ios":"levelo://app?vid=678ae2a3-6376-41d9-85c2-7835cb1c061b"},"vehicle_type_id":"4","last_reported":1759162190,"current_range_meters":11200,"station_id":"st_d3b462108ojc7389ooeg","pricing_plan_id":"cebpf4jnsgd1na2vs0mg"},{"bike_id":"c3304221-c49c-4cc8-aeb9-b593fc8da40e","system_id":"levelo_inurba_marseille","lat":43.28078,"lon":5.39664,"is_reserved":false,"is_disabled":false,"rental_uris":{"android":"levelo://app?vid=c3304221-c49c-4cc8-aeb9-b593fc8da40e","ios":"levelo://app?vid=c3304221-c49c-4cc8-aeb9-b593fc8da40e"},"vehicle_type_id":"4","last_reported":1759162190,"current_range_meters":11200,"station_id":"ce4bho12rcd13ifvqh2g","pricing_plan_id":"cebpf4jnsgd1na2vs0mg"},{"bike_id":"d6c734f5-0e13-46a8-8e3e-fda40abe4b7d","system_id":"levelo_inurba_marseille","lat":43.302139,"lon":5.394708,"is_reserved":false,"is_disabled":true,"rental_uris":{"android":"levelo://app?vid=d6c734f5-0e13-46a8-8e3e-fda40abe4b7d","ios":"levelo://app?vid=d6c734f5-0e13-46a8-8e3e-fda40abe4b7d"},"vehicle_type_id":"4","last_reported":1759162190,"current_range_meters":11200,"station_id":"ce4bhgh2rcd13ifvqfa0","pricing_plan_id":"cebpf4jnsgd1na2vs0mg"},{"bike_id":"40d0311a-46a0-4423-bf00-e0cbf2970008","system_id":"levelo_inurba_marseille","lat":43.21742,"lon":5.34602,"is_reserved":false,"is_disabled":false,"rental_uris":{"android":"levelo://app?vid=40d0311a-46a0-4423-bf00-e0cbf2970008","ios":"levelo://app?vid=40d0311a-46a0-4423-bf00-e0cbf2970008"},"vehicle_type_id":"4","last_reported":1759162190,"current_range_meters":11600,"station_id":"st_cvj6r9ubvosntc0bgbag","pricing_plan_id":"cebpf4jnsgd1na2vs0mg"},{"bike_id":"154ff5f9-e051-4a99-a8c7-53a42a3885a1","system_id":"levelo_inurba_marseille","lat":43.279765,"lon":5.387142,"is_reserved":false,"is_disabled":false,"rental_uris":{"android":"levelo://app?vid=154ff5f9-e051-4a99-a8c7-53a42a3885a1","ios":"levelo://app?vid=154ff5f9-e051-4a99-a8c7-53a42a3885a1"},"vehicle_type_id":"4","last_reported":1759162190,"current_range_meters":11600,"station_id":"ce4bhg12rcd13ifvqf80","pricing_plan_id":"cebpf4jnsgd1na2vs0mg"},{"bike_id":"d1fa479e-7019-47a6-8e73-064da5aab85e","system_id":"levelo_inurba_marseille","lat":43.30887,"lon":5.39647,"is_reserved":false,"is_disabled":false,"rental_uris":{"android":"levelo://app?vid=d1fa479e-7019-47a6-8e73-064da5aab85e","ios":"levelo://app?vid=d1fa479e-7019-47a6-8e73-064da5aab85e"},"vehicle_type_id":"4","last_reported":1759162190,"current_range_meters":11600,"station_id":"ce4bh012rcd13ifvqcv0","pricing_plan_id":"cebpf4jnsgd1na2vs0mg"},{"bike_id":"8c0227e3-55e8-4994-aa0c-9b6ee99b7e26","system_id":"levelo_inurba_marseille","lat":43.23056,"lon":5.35494,"is_reserved":false,"is_disabled":false,"rental_uris":{"android":"levelo://app?vid=8c0227e3-55e8-4994-aa0c-9b6ee99b7e26","ios":"levelo://app?vid=8c0227e3-55e8-4994-aa0c-9b6ee99b7e26"},"vehicle_type_id":"4","last_reported":1759162190,"current_range_meters":12000,"station_id":"cpo3342slgdg3j2ifvpg","pricing_plan_id":"cebpf4jnsgd1na2vs0mg"},{"bike_id":"2ef00044-8157-4d19-88c3-534f89b357b0","system_id":"levelo_inurba_marseille","lat":43.309025,"lon":5.381673,"is_reserved":false,"is_disabled":false,"rental_uris":{"android":"levelo://app?vid=2ef00044-8157-4d19-88c3-534f89b357b0","ios":"levelo://app?vid=2ef00044-8157-4d19-88c3-534f89b357b0"},"vehicle_type_id":"4","last_reported":1759162190,"current_range_meters":12000,"station_id":"","pricing_plan_id":"cebpf4jnsgd1na2vs0mg"},{"bike_id":"ea59b303-6900-42ad-9e79-5b0f95bedd6c","system_id":"levelo_inurba_marseille","lat":43.30434,"lon":5.36893,"is_reserved":false,"is_disabled":false,"rental_uris":{"android":"levelo://app?vid=ea59b303-6900-42ad-9e79-5b0f95bedd6c","ios":"levelo://app?vid=ea59b303-6900-42ad-9e79-5b0f95bedd6c"},"vehicle_type_id":"4","last_reported":1759162190,"current_range_meters":12000,"station_id":"","pricing_plan_id":"cebpf4jnsgd1na2vs0mg"},{"bike_id":"cb8737f5-9915-4005-98ee-fd2aa1c38d9f","system_id":"levelo_inurba_marseille","lat":43.23188,"lon":5.39927,"is_reserved":false,"is_disabled":false,"rental_uris":{"android":"levelo://app?vid=cb8737f5-9915-4005-98ee-fd2aa1c38d9f","ios":"levelo://app?vid=cb8737f5-9915-4005-98ee-fd2aa1c38d9f"},"vehicle_type_id":"4","last_reported":1759162190,"current_range_meters":12000,"station_id":"","pricing_plan_id":"cebpf4jnsgd1na2vs0mg"},{"bike_id":"dd43656e-1df5-4bde-ac8d-e460ad230496","system_id":"levelo_inurba_marseille","lat":43.28266,"lon":5.35096,"is_reserved":false,"is_disabled":false,"rental_uris":{"android":"levelo://app?vid=dd43656e-1df5-4bde-ac8d-e460ad230496","ios":"levelo://app?vid=dd43656e-1df5-4bde-ac8d-e460ad230496"},"vehicle_type_id":"4","last_reported":1759162190,"current_range_meters":12000,"station_id":"ce4bhbp2rcd13ifvqerg","pricing_plan_id":"cebpf4jnsgd1na2vs0mg"},{"bike_id":"0eda2527-f3ce-4552-96df-04220f592c11","system_id":"levelo_inurba_marseille","lat":43.21196,"lon":5.35087,"is_reserved":false,"is_disabled":false,"rental_uris":{"android":"levelo://app?vid=0eda2527-f3ce-4552-96df-04220f592c11","ios":"levelo://app?vid=0eda2527-f3ce-4552-96df-04220f592c11"},"vehicle_type_id":"4","last_reported":1759162190,"current_range_meters":12000,"station_id":"st_cvj6sg6p6f1abm77japg","pricing_plan_id":"cebpf4jnsgd1na2vs0mg"},{"bike_id":"e17857ef-9057-4d30-b1e9-4ab6ead4c304","system_id":"levelo_inurba_marseille","lat":43.24654,"lon":5.38883,"is_reserved":false,"is_disabled":true,"rental_uris":{"android":"levelo://app?vid=e17857ef-9057-4d30-b1e9-4ab6ead4c304","ios":"levelo://app?vid=e17857ef-9057-4d30-b1e9-4ab6ead4c304"},"vehicle_type_id":"4","last_reported":1759162190,"current_range_meters":12400,"station_id":"ce4bhg12rcd13ifvqf60","pricing_plan_id":"cebpf4jnsgd1na2vs0mg"},{"bike_id":"8c986307-df22-41f8-9c2d-42ccabc665aa","system_id":"levelo_inurba_marseille","lat":43.30236,"lon":5.36638,"is_reserved":false,"is_disabled":false,"rental_uris":{"android":"levelo://app?vid=8c986307-df22-41f8-9c2d-42ccabc665aa","ios":"levelo://app?vid=8c986307-df22-41f8-9c2d-42ccabc665aa"},"vehicle_type_id":"4","last_reported":1759162190,"current_range_meters":12400,"station_id":"ce4bgrh2rcd13ifvqc8g","pricing_plan_id":"cebpf4jnsgd1na2vs0mg"},{"bike_id":"c1239435-d2fa-4f84-9030-d37cf7313908","system_id":"levelo_inurba_marseille","lat":43.30175,"lon":5.36614,"is_reserved":false,"is_disabled":false,"rental_uris":{"android":"levelo://app?vid=c1239435-d2fa-4f84-9030-d37cf7313908","ios":"levelo://app?vid=c1239435-d2fa-4f84-9030-d37cf7313908"},"vehicle_type_id":"4","last_reported":1759162190,"current_range_meters":12400,"station_id":"ce4bgrh2rcd13ifvqc8g","pricing_plan_id":"cebpf4jnsgd1na2vs0mg"},{"bike_id":"a07a513e-e5a9-4481-8592-d991379bc662","system_id":"levelo_inurba_marseille","lat":43.33735,"lon":5.37481,"is_reserved":false,"is_disabled":false,"rental_uris":{"android":"levelo://app?vid=a07a513e-e5a9-4481-8592-d991379bc662","ios":"levelo://app?vid=a07a513e-e5a9-4481-8592-d991379bc662"},"vehicle_type_id":"4","last_reported":1759162190,"current_range_meters":12400,"station_id":"","pricing_plan_id":"cebpf4jnsgd1na2vs0mg"},{"bike_id":"7dc10ae7-7366-4aef-afb3-946c513f88ef","system_id":"levelo_inurba_marseille","lat":43.28001,"lon":5.36401,"is_reserved":false,"is_disabled":false,"rental_uris":{"android":"levelo://app?vid=7dc10ae7-7366-4aef-afb3-946c513f88ef","ios":"levelo://app?vid=7dc10ae7-7366-4aef-afb3-946c513f88ef"},"vehicle_type_id":"4","last_reported":1759162190,"current_range_meters":12800,"station_id":"ce4bha12rcd13ifvqef0","pricing_plan_id":"cebpf4jnsgd1na2vs0mg"},{"bike_id":"1af76c9b-7f37-46c9-81af-c8e6a9509a39","system_id":"levelo_inurba_marseille","lat":43.29291,"lon":5.37468,"is_reserved":false,"is_disabled":false,"rental_uris":{"android":"levelo://app?vid=1af76c9b-7f37-46c9-81af-c8e6a9509a39","ios":"levelo://app?vid=1af76c9b-7f37-46c9-81af-c8e6a9509a39"},"vehicle_type_id":"4","last_reported":1759162190,"current_range_meters":12800,"station_id":"ce4bgi12rcd13ifvqb70","pricing_plan_id":"cebpf4jnsgd1na2vs0mg"},{"bike_id":"c627b34a-8e81-4438-af3b-4fd0aab1c160","system_id":"levelo_inurba_marseille","lat":43.29664,"lon":5.36005,"is_reserved":false,"is_disabled":false,"rental_uris":{"android":"levelo://app?vid=c627b34a-8e81-4438-af3b-4fd0aab1c160","ios":"levelo://app?vid=c627b34a-8e81-4438-af3b-4fd0aab1c160"},"vehicle_type_id":"4","last_reported":1759162190,"current_range_meters":12800,"station_id":"","pricing_plan_id":"cebpf4jnsgd1na2vs0mg"},{"bike_id":"08897f5d-483e-4ffa-b1bb-f13bc5f35002","system_id":"levelo_inurba_marseille","lat":43.28072,"lon":5.3966,"is_reserved":false,"is_disabled":false,"rental_uris":{"android":"levelo://app?vid=08897f5d-483e-4ffa-b1bb-f13bc5f35002","ios":"levelo://app?vid=08897f5d-483e-4ffa-b1bb-f13bc5f35002"},"vehicle_type_id":"4","last_reported":1759162190,"current_range_meters":13600,"station_id":"ce4bho12rcd13ifvqh2g","pricing_plan_id":"cebpf4jnsgd1na2vs0mg"},{"bike_id":"b758b494-181d-4229-918f-9ce41e85b04d","system_id":"levelo_inurba_marseille","lat":43.33145,"lon":5.3817,"is_reserved":false,"is_disabled":false,"rental_uris":{"android":"levelo://app?vid=b758b494-181d-4229-918f-9ce41e85b04d","ios":"levelo://app?vid=b758b494-181d-4229-918f-9ce41e85b04d"},"vehicle_type_id":"4","last_reported":1759162190,"current_range_meters":13600,"station_id":"","pricing_plan_id":"cebpf4jnsgd1na2vs0mg"},{"bike_id":"0030cf69-75f8-4719-a372-efc52bdb748a","system_id":"levelo_inurba_marseille","lat":43.32916,"lon":5.45387,"is_reserved":false,"is_disabled":false,"rental_uris":{"android":"levelo://app?vid=0030cf69-75f8-4719-a372-efc52bdb748a","ios":"levelo://app?vid=0030cf69-75f8-4719-a372-efc52bdb748a"},"vehicle_type_id":"4","last_reported":1759162190,"current_range_meters":13600,"station_id":"","pricing_plan_id":"cebpf4jnsgd1na2vs0mg"},{"bike_id":"95f6b833-186d-492d-b9c6-00db423780d5","system_id":"levelo_inurba_marseille","lat":43.26943,"lon":5.40255,"is_reserved":false,"is_disabled":false,"rental_uris":{"android":"levelo://app?vid=95f6b833-186d-492d-b9c6-00db423780d5","ios":"levelo://app?vid=95f6b833-186d-492d-b9c6-00db423780d5"},"vehicle_type_id":"4","last_reported":1759162190,"current_range_meters":13600,"station_id":"cjm6bp8fraef2m0cb0m0","pricing_plan_id":"cebpf4jnsgd1na2vs0mg"},{"bike_id":"2468528c-cc11-4a66-8545-8975665b8e41","system_id":"levelo_inurba_marseille","lat":43.23959,"lon":5.36614,"is_reserved":false,"is_disabled":false,"rental_uris":{"android":"levelo://app?vid=2468528c-cc11-4a66-8545-8975665b8e41","ios":"levelo://app?vid=2468528c-cc11-4a66-8545-8975665b8e41"},"vehicle_type_id":"4","last_reported":1759162190,"current_range_meters":13600,"station_id":"ce4bhi12rcd13ifvqfp0","pricing_plan_id":"cebpf4jnsgd1na2vs0mg"},{"bike_id":"e748ebbe-f5dc-4044-8e91-f7e4041ff754","system_id":"levelo_inurba_marseille","lat":43.30117,"lon":5.366051,"is_reserved":false,"is_disabled":false,"rental_uris":{"android":"levelo://app?vid=e748ebbe-f5dc-4044-8e91-f7e4041ff754","ios":"levelo://app?vid=e748ebbe-f5dc-4044-8e91-f7e4041ff754"},"vehicle_type_id":"4","last_reported":1759162190,"current_range_meters":13600,"station_id":"ce4bgrh2rcd13ifvqc8g","pricing_plan_id":"cebpf4jnsgd1na2vs0mg"},{"bike_id":"7c144c75-f257-45bc-9727-f62a1b471658","system_id":"levelo_inurba_marseille","lat":43.30417,"lon":5.41284,"is_reserved":false,"is_disabled":false,"rental_uris":{"android":"levelo://app?vid=7c144c75-f257-45bc-9727-f62a1b471658","ios":"levelo://app?vid=7c144c75-f257-45bc-9727-f62a1b471658"},"vehicle_type_id":"4","last_reported":1759162190,"current_range_meters":14000,"station_id":"ce4bhop2rcd13ifvqh8g","pricing_plan_id":"cebpf4jnsgd1na2vs0mg"},{"bike_id":"385fa573-6758-43e7-a2f4-f27be30ea572","system_id":"levelo_inurba_marseille","lat":43.32106,"lon":5.36785,"is_reserved":false,"is_disabled":false,"rental_uris":{"android":"levelo://app?vid=385fa573-6758-43e7-a2f4-f27be30ea572","ios":"levelo://app?vid=385fa573-6758-43e7-a2f4-f27be30ea572"},"vehicle_type_id":"4","last_reported":1759162190,"current_range_meters":14000,"station_id":"ce4bhrh2rcd13ifvqhug","pricing_plan_id":"cebpf4jnsgd1na2vs0mg"},{"bike_id":"7a1a1d2d-2063-4d81-989b-55de3f030238","system_id":"levelo_inurba_marseille","lat":43.307567,"lon":5.43525,"is_reserved":false,"is_disabled":false,"rental_uris":{"android":"levelo://app?vid=7a1a1d2d-2063-4d81-989b-55de3f030238","ios":"levelo://app?vid=7a1a1d2d-2063-4d81-989b-55de3f030238"},"vehicle_type_id":"4","last_reported":1759162190,"current_range_meters":14000,"station_id":"ce4bhph2rcd13ifvqheg","pricing_plan_id":"cebpf4jnsgd1na2vs0mg"},{"bike_id":"d60dc148-253b-4625-ae0c-8c88dcdb4260","system_id":"levelo_inurba_marseille","lat":43.272127,"lon":5.391798,"is_reserved":false,"is_disabled":false,"rental_uris":{"android":"levelo://app?vid=d60dc148-253b-4625-ae0c-8c88dcdb4260","ios":"levelo://app?vid=d60dc148-253b-4625-ae0c-8c88dcdb4260"},"vehicle_type_id":"4","last_reported":1759162190,"current_range_meters":14000,"station_id":"","pricing_plan_id":"cebpf4jnsgd1na2vs0mg"},{"bike_id":"ae4220b2-1327-49a4-af95-ba3c47f81106","system_id":"levelo_inurba_marseille","lat":43.25335,"lon":5.42171,"is_reserved":false,"is_disabled":false,"rental_uris":{"android":"levelo://app?vid=ae4220b2-1327-49a4-af95-ba3c47f81106","ios":"levelo://app?vid=ae4220b2-1327-49a4-af95-ba3c47f81106"},"vehicle_type_id":"4","last_reported":1759162190,"current_range_meters":14000,"station_id":"st_d2m65c5bi1j21697t3ng","pricing_plan_id":"cebpf4jnsgd1na2vs0mg"},{"bike_id":"fca231b7-788b-4398-a0a4-9d235ce1bc7a","system_id":"levelo_inurba_marseille","lat":43.30787,"lon":5.38174,"is_reserved":false,"is_disabled":false,"rental_uris":{"android":"levelo://app?vid=fca231b7-788b-4398-a0a4-9d235ce1bc7a","ios":"levelo://app?vid=fca231b7-788b-4398-a0a4-9d235ce1bc7a"},"vehicle_type_id":"4","last_reported":1759162190,"current_range_meters":14000,"station_id":"ce4bgt12rcd13ifvqce0","pricing_plan_id":"cebpf4jnsgd1na2vs0mg"},{"bike_id":"aa123961-c527-4db0-9350-7d548f67905a","system_id":"levelo_inurba_marseille","lat":43.27946,"lon":5.38753,"is_reserved":false,"is_disabled":false,"rental_uris":{"android":"levelo://app?vid=aa123961-c527-4db0-9350-7d548f67905a","ios":"levelo://app?vid=aa123961-c527-4db0-9350-7d548f67905a"},"vehicle_type_id":"4","last_reported":1759162190,"current_range_meters":14000,"station_id":"ce4bh492rcd13ifvqdvg","pricing_plan_id":"cebpf4jnsgd1na2vs0mg"},{"bike_id":"ba1cfbb3-555c-4e6c-85db-b50e9395062e","system_id":"levelo_inurba_marseille","lat":43.246877,"lon":5.381936,"is_reserved":false,"is_disabled":false,"rental_uris":{"android":"levelo://app?vid=ba1cfbb3-555c-4e6c-85db-b50e9395062e","ios":"levelo://app?vid=ba1cfbb3-555c-4e6c-85db-b50e9395062e"},"vehicle_type_id":"4","last_reported":1759162190,"current_range_meters":14000,"station_id":"","pricing_plan_id":"cebpf4jnsgd1na2vs0mg"},{"bike_id":"e62bb64c-b68b-4e77-81a1-f416080ea43e","system_id":"levelo_inurba_marseille","lat":43.28615,"lon":5.35109,"is_reserved":false,"is_disabled":false,"rental_uris":{"android":"levelo://app?vid=e62bb64c-b68b-4e77-81a1-f416080ea43e","ios":"levelo://app?vid=e62bb64c-b68b-4e77-81a1-f416080ea43e"},"vehicle_type_id":"4","last_reported":1759162190,"current_range_meters":14000,"station_id":"ce4bhch2rcd13ifvqeug","pricing_plan_id":"cebpf4jnsgd1na2vs0mg"},{"bike_id":"02ed2752-f7e6-4900-a6ed-2d918d6dcc7f","system_id":"levelo_inurba_marseille","lat":43.27371,"lon":5.3626,"is_reserved":false,"is_disabled":false,"rental_uris":{"android":"levelo://app?vid=02ed2752-f7e6-4900-a6ed-2d918d6dcc7f","ios":"levelo://app?vid=02ed2752-f7e6-4900-a6ed-2d918d6dcc7f"},"vehicle_type_id":"4","last_reported":1759162190,"current_range_meters":14000,"station_id":"ce4bhbh2rcd13ifvqeo0","pricing_plan_id":"cebpf4jnsgd1na2vs0mg"},{"bike_id":"b88b032a-2b62-4c0d-8094-a36f20a30d17","system_id":"levelo_inurba_marseille","lat":43.295756,"lon":5.385488,"is_reserved":false,"is_disabled":false,"rental_uris":{"android":"levelo://app?vid=b88b032a-2b62-4c0d-8094-a36f20a30d17","ios":"levelo://app?vid=b88b032a-2b62-4c0d-8094-a36f20a30d17"},"vehicle_type_id":"4","last_reported":1759162190,"current_range_meters":14000,"station_id":"ce4bgih2rcd13ifvqba0","pricing_plan_id":"cebpf4jnsgd1na2vs0mg"},{"bike_id":"59df5eee-c8ee-410c-b34c-7cdc88281387","system_id":"levelo_inurba_marseille","lat":43.26553,"lon":5.37288,"is_reserved":false,"is_disabled":false,"rental_uris":{"android":"levelo://app?vid=59df5eee-c8ee-410c-b34c-7cdc88281387","ios":"levelo://app?vid=59df5eee-c8ee-410c-b34c-7cdc88281387"},"vehicle_type_id":"4","last_reported":1759162190,"current_range_meters":14000,"station_id":"ce4bhg12rcd13ifvqf70","pricing_plan_id":"cebpf4jnsgd1na2vs0mg"},{"bike_id":"ab6afb85-8cdb-4344-9347-4ef6ff96651a","system_id":"levelo_inurba_marseille","lat":43.29075,"lon":5.3716,"is_reserved":false,"is_disabled":false,"rental_uris":{"android":"levelo://app?vid=ab6afb85-8cdb-4344-9347-4ef6ff96651a","ios":"levelo://app?vid=ab6afb85-8cdb-4344-9347-4ef6ff96651a"},"vehicle_type_id":"4","last_reported":1759162190,"current_range_meters":14000,"station_id":"ce4bh5p2rcd13ifvqe4g","pricing_plan_id":"cebpf4jnsgd1na2vs0mg"},{"bike_id":"ce5e157e-4ef2-4c41-9b3b-54d3eecbfa45","system_id":"levelo_inurba_marseille","lat":43.225355,"lon":5.348444,"is_reserved":false,"is_disabled":false,"rental_uris":{"android":"levelo://app?vid=ce5e157e-4ef2-4c41-9b3b-54d3eecbfa45","ios":"levelo://app?vid=ce5e157e-4ef2-4c41-9b3b-54d3eecbfa45"},"vehicle_type_id":"4","last_reported":1759162190,"current_range_meters":14000,"station_id":"","pricing_plan_id":"cebpf4jnsgd1na2vs0mg"},{"bike_id":"aebf0e68-ba27-412a-9ce2-11cc42127dee","system_id":"levelo_inurba_marseille","lat":43.337444,"lon":5.374475,"is_reserved":false,"is_disabled":false,"rental_uris":{"android":"levelo://app?vid=aebf0e68-ba27-412a-9ce2-11cc42127dee","ios":"levelo://app?vid=aebf0e68-ba27-412a-9ce2-11cc42127dee"},"vehicle_type_id":"4","last_reported":1759162190,"current_range_meters":14000,"station_id":"","pricing_plan_id":"cebpf4jnsgd1na2vs0mg"},{"bike_id":"19db827e-8838-40be-ba7a-1ee0d4aa85f9","system_id":"levelo_inurba_marseille","lat":43.21188,"lon":5.35084,"is_reserved":false,"is_disabled":false,"rental_uris":{"android":"levelo://app?vid=19db827e-8838-40be-ba7a-1ee0d4aa85f9","ios":"levelo://app?vid=19db827e-8838-40be-ba7a-1ee0d4aa85f9"},"vehicle_type_id":"4","last_reported":1759162190,"current_range_meters":14400,"station_id":"st_cvj6sg6p6f1abm77japg","pricing_plan_id":"cebpf4jnsgd1na2vs0mg"},{"bike_id":"603b48a8-a4ae-4222-bee8-5769d86ea9a8","system_id":"levelo_inurba_marseille","lat":43.25333,"lon":5.4217,"is_reserved":false,"is_disabled":false,"rental_uris":{"android":"levelo://app?vid=603b48a8-a4ae-4222-bee8-5769d86ea9a8","ios":"levelo://app?vid=603b48a8-a4ae-4222-bee8-5769d86ea9a8"},"vehicle_type_id":"4","last_reported":1759162190,"current_range_meters":14400,"station_id":"st_d2m65c5bi1j21697t3ng","pricing_plan_id":"cebpf4jnsgd1na2vs0mg"},{"bike_id":"aae27da7-ca3d-468d-a4eb-c87541bdc6b6","system_id":"levelo_inurba_marseille","lat":43.279486,"lon":5.410505,"is_reserved":false,"is_disabled":false,"rental_uris":{"android":"levelo://app?vid=aae27da7-ca3d-468d-a4eb-c87541bdc6b6","ios":"levelo://app?vid=aae27da7-ca3d-468d-a4eb-c87541bdc6b6"},"vehicle_type_id":"4","last_reported":1759162190,"current_range_meters":14400,"station_id":"ce4bhnp2rcd13ifvqh0g","pricing_plan_id":"cebpf4jnsgd1na2vs0mg"},{"bike_id":"0a8b0e4e-4151-4511-9a3e-a22258611e90","system_id":"levelo_inurba_marseille","lat":43.23967,"lon":5.36631,"is_reserved":false,"is_disabled":false,"rental_uris":{"android":"levelo://app?vid=0a8b0e4e-4151-4511-9a3e-a22258611e90","ios":"levelo://app?vid=0a8b0e4e-4151-4511-9a3e-a22258611e90"},"vehicle_type_id":"4","last_reported":1759162190,"current_range_meters":14400,"station_id":"","pricing_plan_id":"cebpf4jnsgd1na2vs0mg"},{"bike_id":"a9cd5665-4575-420b-bb7e-e441349a406a","system_id":"levelo_inurba_marseille","lat":43.28426,"lon":5.34987,"is_reserved":false,"is_disabled":false,"rental_uris":{"android":"levelo://app?vid=a9cd5665-4575-420b-bb7e-e441349a406a","ios":"levelo://app?vid=a9cd5665-4575-420b-bb7e-e441349a406a"},"vehicle_type_id":"4","last_reported":1759162190,"current_range_meters":14400,"station_id":"ce4bhbh2rcd13ifvqepg","pricing_plan_id":"cebpf4jnsgd1na2vs0mg"},{"bike_id":"f6e8cf02-4ec8-4f47-83dd-ddd84fe62208","system_id":"levelo_inurba_marseille","lat":43.23182,"lon":5.39994,"is_reserved":false,"is_disabled":false,"rental_uris":{"android":"levelo://app?vid=f6e8cf02-4ec8-4f47-83dd-ddd84fe62208","ios":"levelo://app?vid=f6e8cf02-4ec8-4f47-83dd-ddd84fe62208"},"vehicle_type_id":"4","last_reported":1759162190,"current_range_meters":14400,"station_id":"ce4bhn12rcd13ifvqgqg","pricing_plan_id":"cebpf4jnsgd1na2vs0mg"},{"bike_id":"8cbcf5e7-b804-4925-bbed-5f57e8580ccf","system_id":"levelo_inurba_marseille","lat":43.31519,"lon":5.36803,"is_reserved":false,"is_disabled":false,"rental_uris":{"android":"levelo://app?vid=8cbcf5e7-b804-4925-bbed-5f57e8580ccf","ios":"levelo://app?vid=8cbcf5e7-b804-4925-bbed-5f57e8580ccf"},"vehicle_type_id":"4","last_reported":1759162190,"current_range_meters":14400,"station_id":"","pricing_plan_id":"cebpf4jnsgd1na2vs0mg"},{"bike_id":"56d6a008-a903-4bd5-8ee3-1cec5d05c634","system_id":"levelo_inurba_marseille","lat":43.31749,"lon":5.39024,"is_reserved":false,"is_disabled":false,"rental_uris":{"android":"levelo://app?vid=56d6a008-a903-4bd5-8ee3-1cec5d05c634","ios":"levelo://app?vid=56d6a008-a903-4bd5-8ee3-1cec5d05c634"},"vehicle_type_id":"4","last_reported":1759162190,"current_range_meters":14400,"station_id":"ce4bhqp2rcd13ifvqhng","pricing_plan_id":"cebpf4jnsgd1na2vs0mg"},{"bike_id":"12f4e4e0-07ac-408f-9662-8562e2408ee2","system_id":"levelo_inurba_marseille","lat":43.28491,"lon":5.38582,"is_reserved":false,"is_disabled":false,"rental_uris":{"android":"levelo://app?vid=12f4e4e0-07ac-408f-9662-8562e2408ee2","ios":"levelo://app?vid=12f4e4e0-07ac-408f-9662-8562e2408ee2"},"vehicle_type_id":"4","last_reported":1759162190,"current_range_meters":14400,"station_id":"ce4bh8p2rcd13ifvqeb0","pricing_plan_id":"cebpf4jnsgd1na2vs0mg"},{"bike_id":"549aaae1-b0c2-42ab-a5fb-641f0c079ac2","system_id":"levelo_inurba_marseille","lat":43.30541,"lon":5.36703,"is_reserved":false,"is_disabled":false,"rental_uris":{"android":"levelo://app?vid=549aaae1-b0c2-42ab-a5fb-641f0c079ac2","ios":"levelo://app?vid=549aaae1-b0c2-42ab-a5fb-641f0c079ac2"},"vehicle_type_id":"4","last_reported":1759162190,"current_range_meters":14400,"station_id":"ce4bgrp2rcd13ifvqc9g","pricing_plan_id":"cebpf4jnsgd1na2vs0mg"},{"bike_id":"96eaebb7-ad80-4f74-a388-de71525b0c17","system_id":"levelo_inurba_marseille","lat":43.30784,"lon":5.38149,"is_reserved":false,"is_disabled":false,"rental_uris":{"android":"levelo://app?vid=96eaebb7-ad80-4f74-a388-de71525b0c17","ios":"levelo://app?vid=96eaebb7-ad80-4f74-a388-de71525b0c17"},"vehicle_type_id":"4","last_reported":1759162190,"current_range_meters":14400,"station_id":"ce4bgt12rcd13ifvqce0","pricing_plan_id":"cebpf4jnsgd1na2vs0mg"},{"bike_id":"9e6a37cc-24eb-41d9-95c6-73e5bd16f4a5","system_id":"levelo_inurba_marseille","lat":43.30122,"lon":5.39854,"is_reserved":false,"is_disabled":false,"rental_uris":{"android":"levelo://app?vid=9e6a37cc-24eb-41d9-95c6-73e5bd16f4a5","ios":"levelo://app?vid=9e6a37cc-24eb-41d9-95c6-73e5bd16f4a5"},"vehicle_type_id":"4","last_reported":1759162190,"current_range_meters":14400,"station_id":"ce4bh0h2rcd13ifvqd40","pricing_plan_id":"cebpf4jnsgd1na2vs0mg"},{"bike_id":"a8f0a7ef-bb4b-49db-89fa-82b9bbae1084","system_id":"levelo_inurba_marseille","lat":43.30281,"lon":5.377,"is_reserved":false,"is_disabled":false,"rental_uris":{"android":"levelo://app?vid=a8f0a7ef-bb4b-49db-89fa-82b9bbae1084","ios":"levelo://app?vid=a8f0a7ef-bb4b-49db-89fa-82b9bbae1084"},"vehicle_type_id":"4","last_reported":1759162190,"current_range_meters":14400,"station_id":"ce4bguh2rcd13ifvqcj0","pricing_plan_id":"cebpf4jnsgd1na2vs0mg"},{"bike_id":"8081a574-e4b6-4c72-bc61-ddcd9766a112","system_id":"levelo_inurba_marseille","lat":43.29257,"lon":5.4091,"is_reserved":false,"is_disabled":false,"rental_uris":{"android":"levelo://app?vid=8081a574-e4b6-4c72-bc61-ddcd9766a112","ios":"levelo://app?vid=8081a574-e4b6-4c72-bc61-ddcd9766a112"},"vehicle_type_id":"4","last_reported":1759162190,"current_range_meters":14800,"station_id":"ce4bh192rcd13ifvqdc0","pricing_plan_id":"cebpf4jnsgd1na2vs0mg"},{"bike_id":"91658db2-d6ae-4346-bb4d-02353c95c4ab","system_id":"levelo_inurba_marseille","lat":43.25343,"lon":5.42176,"is_reserved":false,"is_disabled":false,"rental_uris":{"android":"levelo://app?vid=91658db2-d6ae-4346-bb4d-02353c95c4ab","ios":"levelo://app?vid=91658db2-d6ae-4346-bb4d-02353c95c4ab"},"vehicle_type_id":"4","last_reported":1759162190,"current_range_meters":14800,"station_id":"st_d2m65c5bi1j21697t3ng","pricing_plan_id":"cebpf4jnsgd1na2vs0mg"},{"bike_id":"3bd70639-c969-4357-b790-b0f60462dc0d","system_id":"levelo_inurba_marseille","lat":43.26566,"lon":5.40334,"is_reserved":false,"is_disabled":false,"rental_uris":{"android":"levelo://app?vid=3bd70639-c969-4357-b790-b0f60462dc0d","ios":"levelo://app?vid=3bd70639-c969-4357-b790-b0f60462dc0d"},"vehicle_type_id":"4","last_reported":1759162190,"current_range_meters":14800,"station_id":"ce4bhmp2rcd13ifvqgng","pricing_plan_id":"cebpf4jnsgd1na2vs0mg"},{"bike_id":"7844b173-4c17-4fa5-9807-ac8e9adcbb70","system_id":"levelo_inurba_marseille","lat":43.27913,"lon":5.3958,"is_reserved":false,"is_disabled":false,"rental_uris":{"android":"levelo://app?vid=7844b173-4c17-4fa5-9807-ac8e9adcbb70","ios":"levelo://app?vid=7844b173-4c17-4fa5-9807-ac8e9adcbb70"},"vehicle_type_id":"4","last_reported":1759162190,"current_range_meters":14800,"station_id":"ce4bhf92rcd13ifvqf40","pricing_plan_id":"cebpf4jnsgd1na2vs0mg"},{"bike_id":"4521595b-fd17-4ffb-8d85-94330b46b83e","system_id":"levelo_inurba_marseille","lat":43.21195,"lon":5.35073,"is_reserved":false,"is_disabled":false,"rental_uris":{"android":"levelo://app?vid=4521595b-fd17-4ffb-8d85-94330b46b83e","ios":"levelo://app?vid=4521595b-fd17-4ffb-8d85-94330b46b83e"},"vehicle_type_id":"4","last_reported":1759162190,"current_range_meters":14800,"station_id":"st_cvj6sg6p6f1abm77japg","pricing_plan_id":"cebpf4jnsgd1na2vs0mg"},{"bike_id":"99ce2063-5dfb-4ed3-a4a6-8fc3a54c4890","system_id":"levelo_inurba_marseille","lat":43.337444,"lon":5.374475,"is_reserved":false,"is_disabled":false,"rental_uris":{"android":"levelo://app?vid=99ce2063-5dfb-4ed3-a4a6-8fc3a54c4890","ios":"levelo://app?vid=99ce2063-5dfb-4ed3-a4a6-8fc3a54c4890"},"vehicle_type_id":"4","last_reported":1759162190,"current_range_meters":14800,"station_id":"","pricing_plan_id":"cebpf4jnsgd1na2vs0mg"},{"bike_id":"78edd212-3bd8-4a45-bced-089e3907902a","system_id":"levelo_inurba_marseille","lat":43.32761,"lon":5.4236,"is_reserved":false,"is_disabled":false,"rental_uris":{"android":"levelo://app?vid=78edd212-3bd8-4a45-bced-089e3907902a","ios":"levelo://app?vid=78edd212-3bd8-4a45-bced-089e3907902a"},"vehicle_type_id":"4","last_reported":1759162190,"current_range_meters":15200,"station_id":"","pricing_plan_id":"cebpf4jnsgd1na2vs0mg"},{"bike_id":"90b4c2c6-74ed-4bc2-b762-05e29dca864f","system_id":"levelo_inurba_marseille","lat":43.2465,"lon":5.38902,"is_reserved":false,"is_disabled":false,"rental_uris":{"android":"levelo://app?vid=90b4c2c6-74ed-4bc2-b762-05e29dca864f","ios":"levelo://app?vid=90b4c2c6-74ed-4bc2-b762-05e29dca864f"},"vehicle_type_id":"4","last_reported":1759162190,"current_range_meters":15200,"station_id":"ce4bhg12rcd13ifvqf60","pricing_plan_id":"cebpf4jnsgd1na2vs0mg"},{"bike_id":"09c8fe11-05e0-4646-ba6b-342274b3731c","system_id":"levelo_inurba_marseille","lat":43.308892,"lon":5.396574,"is_reserved":false,"is_disabled":false,"rental_uris":{"android":"levelo://app?vid=09c8fe11-05e0-4646-ba6b-342274b3731c","ios":"levelo://app?vid=09c8fe11-05e0-4646-ba6b-342274b3731c"},"vehicle_type_id":"4","last_reported":1759162190,"current_range_meters":14800,"station_id":"ce4bh012rcd13ifvqcv0","pricing_plan_id":"cebpf4jnsgd1na2vs0mg"},{"bike_id":"60439a97-5dd2-4616-ad31-e3dd28bda889","system_id":"levelo_inurba_marseille","lat":43.311053,"lon":5.385775,"is_reserved":false,"is_disabled":false,"rental_uris":{"android":"levelo://app?vid=60439a97-5dd2-4616-ad31-e3dd28bda889","ios":"levelo://app?vid=60439a97-5dd2-4616-ad31-e3dd28bda889"},"vehicle_type_id":"4","last_reported":1759162190,"current_range_meters":15200,"station_id":"","pricing_plan_id":"cebpf4jnsgd1na2vs0mg"},{"bike_id":"00b3c5d5-9ad5-4872-b372-089fa3a04914","system_id":"levelo_inurba_marseille","lat":43.286376,"lon":5.354934,"is_reserved":false,"is_disabled":false,"rental_uris":{"android":"levelo://app?vid=00b3c5d5-9ad5-4872-b372-089fa3a04914","ios":"levelo://app?vid=00b3c5d5-9ad5-4872-b372-089fa3a04914"},"vehicle_type_id":"4","last_reported":1759162190,"current_range_meters":15200,"station_id":"","pricing_plan_id":"cebpf4jnsgd1na2vs0mg"},{"bike_id":"92662833-c6ac-4b02-b7df-1638b54b1972","system_id":"levelo_inurba_marseille","lat":43.33742,"lon":5.37449,"is_reserved":false,"is_disabled":false,"rental_uris":{"android":"levelo://app?vid=92662833-c6ac-4b02-b7df-1638b54b1972","ios":"levelo://app?vid=92662833-c6ac-4b02-b7df-1638b54b1972"},"vehicle_type_id":"4","last_reported":1759162190,"current_range_meters":15200,"station_id":"","pricing_plan_id":"cebpf4jnsgd1na2vs0mg"},{"bike_id":"f8d78e5f-60e1-4623-939f-49e76ff16505","system_id":"levelo_inurba_marseille","lat":43.33742,"lon":5.37448,"is_reserved":false,"is_disabled":false,"rental_uris":{"android":"levelo://app?vid=f8d78e5f-60e1-4623-939f-49e76ff16505","ios":"levelo://app?vid=f8d78e5f-60e1-4623-939f-49e76ff16505"},"vehicle_type_id":"4","last_reported":1759162190,"current_range_meters":15200,"station_id":"","pricing_plan_id":"cebpf4jnsgd1na2vs0mg"},{"bike_id":"35674f30-45d2-4192-a400-f0f8445d4437","system_id":"levelo_inurba_marseille","lat":43.31047,"lon":5.40086,"is_reserved":false,"is_disabled":false,"rental_uris":{"android":"levelo://app?vid=35674f30-45d2-4192-a400-f0f8445d4437","ios":"levelo://app?vid=35674f30-45d2-4192-a400-f0f8445d4437"},"vehicle_type_id":"4","last_reported":1759162190,"current_range_meters":16000,"station_id":"","pricing_plan_id":"cebpf4jnsgd1na2vs0mg"},{"bike_id":"b2cf005e-1bc5-4616-9e17-028539dbf7b3","system_id":"levelo_inurba_marseille","lat":43.28615,"lon":5.35107,"is_reserved":false,"is_disabled":false,"rental_uris":{"android":"levelo://app?vid=b2cf005e-1bc5-4616-9e17-028539dbf7b3","ios":"levelo://app?vid=b2cf005e-1bc5-4616-9e17-028539dbf7b3"},"vehicle_type_id":"4","last_reported":1759162190,"current_range_meters":16000,"station_id":"ce4bhch2rcd13ifvqeug","pricing_plan_id":"cebpf4jnsgd1na2vs0mg"},{"bike_id":"f3b45b91-feee-4002-af5b-f2f1e7c64543","system_id":"levelo_inurba_marseille","lat":43.293719,"lon":5.378508,"is_reserved":false,"is_disabled":false,"rental_uris":{"android":"levelo://app?vid=f3b45b91-feee-4002-af5b-f2f1e7c64543","ios":"levelo://app?vid=f3b45b91-feee-4002-af5b-f2f1e7c64543"},"vehicle_type_id":"4","last_reported":1759162190,"current_range_meters":16000,"station_id":"ce4bgjh2rcd13ifvqbf0","pricing_plan_id":"cebpf4jnsgd1na2vs0mg"},{"bike_id":"66f487ff-3aae-4a72-86ae-ce3145250e5e","system_id":"levelo_inurba_marseille","lat":43.28462,"lon":5.35892,"is_reserved":false,"is_disabled":false,"rental_uris":{"android":"levelo://app?vid=66f487ff-3aae-4a72-86ae-ce3145250e5e","ios":"levelo://app?vid=66f487ff-3aae-4a72-86ae-ce3145250e5e"},"vehicle_type_id":"4","last_reported":1759162190,"current_range_meters":16000,"station_id":"ce4bhah2rcd13ifvqei0","pricing_plan_id":"cebpf4jnsgd1na2vs0mg"},{"bike_id":"738a51a6-02d0-4def-8f3f-9c82f6a6dd05","system_id":"levelo_inurba_marseille","lat":43.32354,"lon":5.36744,"is_reserved":false,"is_disabled":false,"rental_uris":{"android":"levelo://app?vid=738a51a6-02d0-4def-8f3f-9c82f6a6dd05","ios":"levelo://app?vid=738a51a6-02d0-4def-8f3f-9c82f6a6dd05"},"vehicle_type_id":"4","last_reported":1759162190,"current_range_meters":16000,"station_id":"ce4bhsh2rcd13ifvqi2g","pricing_plan_id":"cebpf4jnsgd1na2vs0mg"},{"bike_id":"a9dd2549-7b4e-468b-80ce-a74ab6b5eb63","system_id":"levelo_inurba_marseille","lat":43.24386,"lon":5.37057,"is_reserved":false,"is_disabled":false,"rental_uris":{"android":"levelo://app?vid=a9dd2549-7b4e-468b-80ce-a74ab6b5eb63","ios":"levelo://app?vid=a9dd2549-7b4e-468b-80ce-a74ab6b5eb63"},"vehicle_type_id":"4","last_reported":1759162190,"current_range_meters":16000,"station_id":"ce4bhhh2rcd13ifvqfk0","pricing_plan_id":"cebpf4jnsgd1na2vs0mg"},{"bike_id":"56ca0258-bee9-4eb2-b3c5-63b5cd0b9e67","system_id":"levelo_inurba_marseille","lat":43.33737,"lon":5.37445,"is_reserved":false,"is_disabled":false,"rental_uris":{"android":"levelo://app?vid=56ca0258-bee9-4eb2-b3c5-63b5cd0b9e67","ios":"levelo://app?vid=56ca0258-bee9-4eb2-b3c5-63b5cd0b9e67"},"vehicle_type_id":"4","last_reported":1759162190,"current_range_meters":16000,"station_id":"","pricing_plan_id":"cebpf4jnsgd1na2vs0mg"},{"bike_id":"2f0db2ce-41f6-4bd1-a939-5b90efdb3d45","system_id":"levelo_inurba_marseille","lat":43.25584,"lon":5.38239,"is_reserved":false,"is_disabled":false,"rental_uris":{"android":"levelo://app?vid=2f0db2ce-41f6-4bd1-a939-5b90efdb3d45","ios":"levelo://app?vid=2f0db2ce-41f6-4bd1-a939-5b90efdb3d45"},"vehicle_type_id":"4","last_reported":1759162190,"current_range_meters":16400,"station_id":"ce4bhih2rcd13ifvqfs0","pricing_plan_id":"cebpf4jnsgd1na2vs0mg"},{"bike_id":"96520869-d013-4e0c-a355-f7bbd728ba84","system_id":"levelo_inurba_marseille","lat":43.32347,"lon":5.36742,"is_reserved":false,"is_disabled":false,"rental_uris":{"android":"levelo://app?vid=96520869-d013-4e0c-a355-f7bbd728ba84","ios":"levelo://app?vid=96520869-d013-4e0c-a355-f7bbd728ba84"},"vehicle_type_id":"4","last_reported":1759162190,"current_range_meters":16400,"station_id":"ce4bhsh2rcd13ifvqi2g","pricing_plan_id":"cebpf4jnsgd1na2vs0mg"},{"bike_id":"3adb4dbf-5e47-429f-aa93-d8a4995477de","system_id":"levelo_inurba_marseille","lat":43.29517,"lon":5.39044,"is_reserved":false,"is_disabled":false,"rental_uris":{"android":"levelo://app?vid=3adb4dbf-5e47-429f-aa93-d8a4995477de","ios":"levelo://app?vid=3adb4dbf-5e47-429f-aa93-d8a4995477de"},"vehicle_type_id":"4","last_reported":1759162190,"current_range_meters":16400,"station_id":"ce4bh3p2rcd13ifvqdp0","pricing_plan_id":"cebpf4jnsgd1na2vs0mg"},{"bike_id":"b1bd5f83-63cd-44f5-b593-62e0dab29fc4","system_id":"levelo_inurba_marseille","lat":43.293052,"lon":5.374557,"is_reserved":false,"is_disabled":false,"rental_uris":{"android":"levelo://app?vid=b1bd5f83-63cd-44f5-b593-62e0dab29fc4","ios":"levelo://app?vid=b1bd5f83-63cd-44f5-b593-62e0dab29fc4"},"vehicle_type_id":"4","last_reported":1759162190,"current_range_meters":16400,"station_id":"ce4bgi12rcd13ifvqb70","pricing_plan_id":"cebpf4jnsgd1na2vs0mg"},{"bike_id":"9174e38a-f6c5-4657-8d7b-aa4f7ece4421","system_id":"levelo_inurba_marseille","lat":43.25336,"lon":5.42175,"is_reserved":false,"is_disabled":false,"rental_uris":{"android":"levelo://app?vid=9174e38a-f6c5-4657-8d7b-aa4f7ece4421","ios":"levelo://app?vid=9174e38a-f6c5-4657-8d7b-aa4f7ece4421"},"vehicle_type_id":"4","last_reported":1759162190,"current_range_meters":16400,"station_id":"st_d2m65c5bi1j21697t3ng","pricing_plan_id":"cebpf4jnsgd1na2vs0mg"},{"bike_id":"5f6dbc39-20a6-4a2b-8d06-974236a6f849","system_id":"levelo_inurba_marseille","lat":43.24765,"lon":5.38626,"is_reserved":false,"is_disabled":false,"rental_uris":{"android":"levelo://app?vid=5f6dbc39-20a6-4a2b-8d06-974236a6f849","ios":"levelo://app?vid=5f6dbc39-20a6-4a2b-8d06-974236a6f849"},"vehicle_type_id":"4","last_reported":1759162190,"current_range_meters":16400,"station_id":"","pricing_plan_id":"cebpf4jnsgd1na2vs0mg"},{"bike_id":"6199221e-cb34-4ffc-a4c2-2cb3a099145c","system_id":"levelo_inurba_marseille","lat":43.23965,"lon":5.36633,"is_reserved":false,"is_disabled":false,"rental_uris":{"android":"levelo://app?vid=6199221e-cb34-4ffc-a4c2-2cb3a099145c","ios":"levelo://app?vid=6199221e-cb34-4ffc-a4c2-2cb3a099145c"},"vehicle_type_id":"4","last_reported":1759162190,"current_range_meters":16800,"station_id":"ce4bhi12rcd13ifvqfp0","pricing_plan_id":"cebpf4jnsgd1na2vs0mg"},{"bike_id":"85ccd1e0-b1df-4950-a521-b3e6c2c3a26c","system_id":"levelo_inurba_marseille","lat":43.29256,"lon":5.40913,"is_reserved":false,"is_disabled":false,"rental_uris":{"android":"levelo://app?vid=85ccd1e0-b1df-4950-a521-b3e6c2c3a26c","ios":"levelo://app?vid=85ccd1e0-b1df-4950-a521-b3e6c2c3a26c"},"vehicle_type_id":"4","last_reported":1759162190,"current_range_meters":16800,"station_id":"ce4bh192rcd13ifvqdc0","pricing_plan_id":"cebpf4jnsgd1na2vs0mg"},{"bike_id":"0aba4fe3-5dca-4d79-8b9d-2fc77d6e7d70","system_id":"levelo_inurba_marseille","lat":43.28418,"lon":5.349815,"is_reserved":false,"is_disabled":false,"rental_uris":{"android":"levelo://app?vid=0aba4fe3-5dca-4d79-8b9d-2fc77d6e7d70","ios":"levelo://app?vid=0aba4fe3-5dca-4d79-8b9d-2fc77d6e7d70"},"vehicle_type_id":"4","last_reported":1759162190,"current_range_meters":16800,"station_id":"","pricing_plan_id":"cebpf4jnsgd1na2vs0mg"},{"bike_id":"dc6c22bf-8679-44ff-9ff5-520e08bbfdf1","system_id":"levelo_inurba_marseille","lat":43.23196,"lon":5.35555,"is_reserved":false,"is_disabled":false,"rental_uris":{"android":"levelo://app?vid=dc6c22bf-8679-44ff-9ff5-520e08bbfdf1","ios":"levelo://app?vid=dc6c22bf-8679-44ff-9ff5-520e08bbfdf1"},"vehicle_type_id":"4","last_reported":1759162190,"current_range_meters":16800,"station_id":"ce4bhu92rcd13ifvqi70","pricing_plan_id":"cebpf4jnsgd1na2vs0mg"},{"bike_id":"b6642028-280f-4d8d-bfbb-5e093114e8bd","system_id":"levelo_inurba_marseille","lat":43.24169,"lon":5.364,"is_reserved":false,"is_disabled":false,"rental_uris":{"android":"levelo://app?vid=b6642028-280f-4d8d-bfbb-5e093114e8bd","ios":"levelo://app?vid=b6642028-280f-4d8d-bfbb-5e093114e8bd"},"vehicle_type_id":"4","last_reported":1759162190,"current_range_meters":16800,"station_id":"cpo36qri1sfpv3e86is0","pricing_plan_id":"cebpf4jnsgd1na2vs0mg"},{"bike_id":"6d46c245-e887-4d8f-9e6d-db253cf92b43","system_id":"levelo_inurba_marseille","lat":43.26198,"lon":5.37457,"is_reserved":false,"is_disabled":false,"rental_uris":{"android":"levelo://app?vid=6d46c245-e887-4d8f-9e6d-db253cf92b43","ios":"levelo://app?vid=6d46c245-e887-4d8f-9e6d-db253cf92b43"},"vehicle_type_id":"4","last_reported":1759162190,"current_range_meters":16800,"station_id":"ce4bhgp2rcd13ifvqfc0","pricing_plan_id":"cebpf4jnsgd1na2vs0mg"},{"bike_id":"6a5fe233-58ec-466b-8997-db465930dadf","system_id":"levelo_inurba_marseille","lat":43.28722,"lon":5.37939,"is_reserved":false,"is_disabled":false,"rental_uris":{"android":"levelo://app?vid=6a5fe233-58ec-466b-8997-db465930dadf","ios":"levelo://app?vid=6a5fe233-58ec-466b-8997-db465930dadf"},"vehicle_type_id":"4","last_reported":1759162190,"current_range_meters":16800,"station_id":"ce4bh9p2rcd13ifvqec0","pricing_plan_id":"cebpf4jnsgd1na2vs0mg"},{"bike_id":"13fd8859-5f86-40b5-90fd-ae2df1f84cb6","system_id":"levelo_inurba_marseille","lat":43.29273,"lon":5.38444,"is_reserved":false,"is_disabled":false,"rental_uris":{"android":"levelo://app?vid=13fd8859-5f86-40b5-90fd-ae2df1f84cb6","ios":"levelo://app?vid=13fd8859-5f86-40b5-90fd-ae2df1f84cb6"},"vehicle_type_id":"4","last_reported":1759162190,"current_range_meters":16800,"station_id":"ce4bh692rcd13ifvqea0","pricing_plan_id":"cebpf4jnsgd1na2vs0mg"},{"bike_id":"f44df0c8-3c0a-4103-982e-900169d96e81","system_id":"levelo_inurba_marseille","lat":43.32109,"lon":5.3679,"is_reserved":false,"is_disabled":false,"rental_uris":{"android":"levelo://app?vid=f44df0c8-3c0a-4103-982e-900169d96e81","ios":"levelo://app?vid=f44df0c8-3c0a-4103-982e-900169d96e81"},"vehicle_type_id":"4","last_reported":1759162190,"current_range_meters":16800,"station_id":"ce4bhrh2rcd13ifvqhug","pricing_plan_id":"cebpf4jnsgd1na2vs0mg"},{"bike_id":"13604148-437a-4148-9ed9-019ca4e03ec3","system_id":"levelo_inurba_marseille","lat":43.24657,"lon":5.43153,"is_reserved":false,"is_disabled":false,"rental_uris":{"android":"levelo://app?vid=13604148-437a-4148-9ed9-019ca4e03ec3","ios":"levelo://app?vid=13604148-437a-4148-9ed9-019ca4e03ec3"},"vehicle_type_id":"4","last_reported":1759162190,"current_range_meters":16800,"station_id":"st_d2m6c4gdas8pm72e190g","pricing_plan_id":"cebpf4jnsgd1na2vs0mg"},{"bike_id":"05003c91-a305-4a33-a438-1d7ddd3d026b","system_id":"levelo_inurba_marseille","lat":43.253404,"lon":5.421749,"is_reserved":false,"is_disabled":false,"rental_uris":{"android":"levelo://app?vid=05003c91-a305-4a33-a438-1d7ddd3d026b","ios":"levelo://app?vid=05003c91-a305-4a33-a438-1d7ddd3d026b"},"vehicle_type_id":"4","last_reported":1759162190,"current_range_meters":16800,"station_id":"st_d2m65c5bi1j21697t3ng","pricing_plan_id":"cebpf4jnsgd1na2vs0mg"},{"bike_id":"911be3d5-2a63-4003-8499-9d1e471594fb","system_id":"levelo_inurba_marseille","lat":43.314877,"lon":5.3732,"is_reserved":false,"is_disabled":false,"rental_uris":{"android":"levelo://app?vid=911be3d5-2a63-4003-8499-9d1e471594fb","ios":"levelo://app?vid=911be3d5-2a63-4003-8499-9d1e471594fb"},"vehicle_type_id":"4","last_reported":1759162190,"current_range_meters":16800,"station_id":"ce4bgt12rcd13ifvqcd0","pricing_plan_id":"cebpf4jnsgd1na2vs0mg"},{"bike_id":"797689f9-404f-47ce-8502-a563ab8a5dc0","system_id":"levelo_inurba_marseille","lat":43.24393,"lon":5.37047,"is_reserved":false,"is_disabled":false,"rental_uris":{"android":"levelo://app?vid=797689f9-404f-47ce-8502-a563ab8a5dc0","ios":"levelo://app?vid=797689f9-404f-47ce-8502-a563ab8a5dc0"},"vehicle_type_id":"4","last_reported":1759162190,"current_range_meters":17200,"station_id":"ce4bhhh2rcd13ifvqfk0","pricing_plan_id":"cebpf4jnsgd1na2vs0mg"},{"bike_id":"b85bed18-5eb7-4352-b750-1a96c0b4f5b6","system_id":"levelo_inurba_marseille","lat":43.25326,"lon":5.42169,"is_reserved":false,"is_disabled":false,"rental_uris":{"android":"levelo://app?vid=b85bed18-5eb7-4352-b750-1a96c0b4f5b6","ios":"levelo://app?vid=b85bed18-5eb7-4352-b750-1a96c0b4f5b6"},"vehicle_type_id":"4","last_reported":1759162190,"current_range_meters":17200,"station_id":"st_d2m65c5bi1j21697t3ng","pricing_plan_id":"cebpf4jnsgd1na2vs0mg"},{"bike_id":"b1f50093-2e11-4283-86a0-13302b5a1c02","system_id":"levelo_inurba_marseille","lat":43.26037,"lon":5.37554,"is_reserved":false,"is_disabled":false,"rental_uris":{"android":"levelo://app?vid=b1f50093-2e11-4283-86a0-13302b5a1c02","ios":"levelo://app?vid=b1f50093-2e11-4283-86a0-13302b5a1c02"},"vehicle_type_id":"4","last_reported":1759162190,"current_range_meters":17200,"station_id":"ce4bhgh2rcd13ifvqfa0","pricing_plan_id":"cebpf4jnsgd1na2vs0mg"},{"bike_id":"52f0823a-12f8-4380-b31f-4f20b6b5fd3e","system_id":"levelo_inurba_marseille","lat":43.28642,"lon":5.35072,"is_reserved":false,"is_disabled":false,"rental_uris":{"android":"levelo://app?vid=52f0823a-12f8-4380-b31f-4f20b6b5fd3e","ios":"levelo://app?vid=52f0823a-12f8-4380-b31f-4f20b6b5fd3e"},"vehicle_type_id":"4","last_reported":1759162190,"current_range_meters":17200,"station_id":"ce4bhch2rcd13ifvqeug","pricing_plan_id":"cebpf4jnsgd1na2vs0mg"},{"bike_id":"33c22d45-451e-4404-877b-8de38f6e4e67","system_id":"levelo_inurba_marseille","lat":43.29889,"lon":5.37647,"is_reserved":false,"is_disabled":false,"rental_uris":{"android":"levelo://app?vid=33c22d45-451e-4404-877b-8de38f6e4e67","ios":"levelo://app?vid=33c22d45-451e-4404-877b-8de38f6e4e67"},"vehicle_type_id":"4","last_reported":1759162190,"current_range_meters":17200,"station_id":"","pricing_plan_id":"cebpf4jnsgd1na2vs0mg"},{"bike_id":"03c3eaa8-6c75-4654-b4cc-a3bd3a40459d","system_id":"levelo_inurba_marseille","lat":43.30307,"lon":5.36918,"is_reserved":false,"is_disabled":false,"rental_uris":{"android":"levelo://app?vid=03c3eaa8-6c75-4654-b4cc-a3bd3a40459d","ios":"levelo://app?vid=03c3eaa8-6c75-4654-b4cc-a3bd3a40459d"},"vehicle_type_id":"4","last_reported":1759162190,"current_range_meters":17200,"station_id":"ce4bgqh2rcd13ifvqc5g","pricing_plan_id":"cebpf4jnsgd1na2vs0mg"},{"bike_id":"35cf41f1-dea6-49f7-b79d-24763a73ff1c","system_id":"levelo_inurba_marseille","lat":43.25326,"lon":5.42167,"is_reserved":false,"is_disabled":false,"rental_uris":{"android":"levelo://app?vid=35cf41f1-dea6-49f7-b79d-24763a73ff1c","ios":"levelo://app?vid=35cf41f1-dea6-49f7-b79d-24763a73ff1c"},"vehicle_type_id":"4","last_reported":1759162190,"current_range_meters":17200,"station_id":"st_d2m65c5bi1j21697t3ng","pricing_plan_id":"cebpf4jnsgd1na2vs0mg"},{"bike_id":"211afd9f-58b0-436e-9b6b-1acbadc34392","system_id":"levelo_inurba_marseille","lat":43.32345,"lon":5.36731,"is_reserved":false,"is_disabled":false,"rental_uris":{"android":"levelo://app?vid=211afd9f-58b0-436e-9b6b-1acbadc34392","ios":"levelo://app?vid=211afd9f-58b0-436e-9b6b-1acbadc34392"},"vehicle_type_id":"4","last_reported":1759162190,"current_range_meters":17200,"station_id":"ce4bhsh2rcd13ifvqi2g","pricing_plan_id":"cebpf4jnsgd1na2vs0mg"},{"bike_id":"d2f46c9e-a53c-42a7-ad54-fd7c896f4565","system_id":"levelo_inurba_marseille","lat":43.33797,"lon":5.37428,"is_reserved":false,"is_disabled":false,"rental_uris":{"android":"levelo://app?vid=d2f46c9e-a53c-42a7-ad54-fd7c896f4565","ios":"levelo://app?vid=d2f46c9e-a53c-42a7-ad54-fd7c896f4565"},"vehicle_type_id":"4","last_reported":1759162190,"current_range_meters":17200,"station_id":"","pricing_plan_id":"cebpf4jnsgd1na2vs0mg"},{"bike_id":"4f6c225c-2f41-4430-b894-aea1cc32d949","system_id":"levelo_inurba_marseille","lat":43.25332,"lon":5.42164,"is_reserved":false,"is_disabled":false,"rental_uris":{"android":"levelo://app?vid=4f6c225c-2f41-4430-b894-aea1cc32d949","ios":"levelo://app?vid=4f6c225c-2f41-4430-b894-aea1cc32d949"},"vehicle_type_id":"4","last_reported":1759162190,"current_range_meters":17600,"station_id":"st_d2m65c5bi1j21697t3ng","pricing_plan_id":"cebpf4jnsgd1na2vs0mg"},{"bike_id":"507daf2b-9177-453d-9679-b82a2036325d","system_id":"levelo_inurba_marseille","lat":43.28072,"lon":5.39662,"is_reserved":false,"is_disabled":false,"rental_uris":{"android":"levelo://app?vid=507daf2b-9177-453d-9679-b82a2036325d","ios":"levelo://app?vid=507daf2b-9177-453d-9679-b82a2036325d"},"vehicle_type_id":"4","last_reported":1759162190,"current_range_meters":17600,"station_id":"ce4bho12rcd13ifvqh2g","pricing_plan_id":"cebpf4jnsgd1na2vs0mg"},{"bike_id":"472c0d6b-34d0-4249-a4c9-c9906c164913","system_id":"levelo_inurba_marseille","lat":43.27563,"lon":5.38422,"is_reserved":false,"is_disabled":false,"rental_uris":{"android":"levelo://app?vid=472c0d6b-34d0-4249-a4c9-c9906c164913","ios":"levelo://app?vid=472c0d6b-34d0-4249-a4c9-c9906c164913"},"vehicle_type_id":"4","last_reported":1759162190,"current_range_meters":17600,"station_id":"ce4bhh92rcd13ifvqfi0","pricing_plan_id":"cebpf4jnsgd1na2vs0mg"},{"bike_id":"f2486902-9571-4c88-ac04-b52e7897a955","system_id":"levelo_inurba_marseille","lat":43.2921,"lon":5.39321,"is_reserved":false,"is_disabled":false,"rental_uris":{"android":"levelo://app?vid=f2486902-9571-4c88-ac04-b52e7897a955","ios":"levelo://app?vid=f2486902-9571-4c88-ac04-b52e7897a955"},"vehicle_type_id":"4","last_reported":1759162190,"current_range_meters":17600,"station_id":"ce4bh192rcd13ifvqdd0","pricing_plan_id":"cebpf4jnsgd1na2vs0mg"},{"bike_id":"a5c22fc2-548d-4807-8658-5b7e51e1f73f","system_id":"levelo_inurba_marseille","lat":43.25125,"lon":5.40322,"is_reserved":false,"is_disabled":false,"rental_uris":{"android":"levelo://app?vid=a5c22fc2-548d-4807-8658-5b7e51e1f73f","ios":"levelo://app?vid=a5c22fc2-548d-4807-8658-5b7e51e1f73f"},"vehicle_type_id":"4","last_reported":1759162190,"current_range_meters":17600,"station_id":"ce4bhlh2rcd13ifvqgig","pricing_plan_id":"cebpf4jnsgd1na2vs0mg"},{"bike_id":"d114139c-60d0-4459-ba3b-cac62be00268","system_id":"levelo_inurba_marseille","lat":43.300967,"lon":5.374097,"is_reserved":false,"is_disabled":true,"rental_uris":{"android":"levelo://app?vid=d114139c-60d0-4459-ba3b-cac62be00268","ios":"levelo://app?vid=d114139c-60d0-4459-ba3b-cac62be00268"},"vehicle_type_id":"4","last_reported":1759162190,"current_range_meters":17600,"station_id":"ce4bgs92rcd13ifvqcc0","pricing_plan_id":"cebpf4jnsgd1na2vs0mg"},{"bike_id":"610a4aff-5d94-4459-aead-2ef1deef9638","system_id":"levelo_inurba_marseille","lat":43.24646,"lon":5.389,"is_reserved":false,"is_disabled":false,"rental_uris":{"android":"levelo://app?vid=610a4aff-5d94-4459-aead-2ef1deef9638","ios":"levelo://app?vid=610a4aff-5d94-4459-aead-2ef1deef9638"},"vehicle_type_id":"4","last_reported":1759162190,"current_range_meters":17600,"station_id":"ce4bhg12rcd13ifvqf60","pricing_plan_id":"cebpf4jnsgd1na2vs0mg"},{"bike_id":"ed4180df-2019-49a0-b79b-f0e2733f8c0a","system_id":"levelo_inurba_marseille","lat":43.24182,"lon":5.39747,"is_reserved":false,"is_disabled":false,"rental_uris":{"android":"levelo://app?vid=ed4180df-2019-49a0-b79b-f0e2733f8c0a","ios":"levelo://app?vid=ed4180df-2019-49a0-b79b-f0e2733f8c0a"},"vehicle_type_id":"4","last_reported":1759162190,"current_range_meters":17600,"station_id":"ce4bhn12rcd13ifvqgpg","pricing_plan_id":"cebpf4jnsgd1na2vs0mg"},{"bike_id":"17bbf4dd-fba9-4826-8c7d-9be0609a6e2f","system_id":"levelo_inurba_marseille","lat":43.31164,"lon":5.37757,"is_reserved":false,"is_disabled":false,"rental_uris":{"android":"levelo://app?vid=17bbf4dd-fba9-4826-8c7d-9be0609a6e2f","ios":"levelo://app?vid=17bbf4dd-fba9-4826-8c7d-9be0609a6e2f"},"vehicle_type_id":"4","last_reported":1759162190,"current_range_meters":17600,"station_id":"","pricing_plan_id":"cebpf4jnsgd1na2vs0mg"},{"bike_id":"27cc3b5a-9adb-4fa6-81b4-3927f8b798ca","system_id":"levelo_inurba_marseille","lat":43.27803,"lon":5.35469,"is_reserved":false,"is_disabled":false,"rental_uris":{"android":"levelo://app?vid=27cc3b5a-9adb-4fa6-81b4-3927f8b798ca","ios":"levelo://app?vid=27cc3b5a-9adb-4fa6-81b4-3927f8b798ca"},"vehicle_type_id":"4","last_reported":1759162190,"current_range_meters":17600,"station_id":"","pricing_plan_id":"cebpf4jnsgd1na2vs0mg"},{"bike_id":"a29bee59-ea4f-424e-b048-900473be4ae3","system_id":"levelo_inurba_marseille","lat":43.284546,"lon":5.358773,"is_reserved":false,"is_disabled":false,"rental_uris":{"android":"levelo://app?vid=a29bee59-ea4f-424e-b048-900473be4ae3","ios":"levelo://app?vid=a29bee59-ea4f-424e-b048-900473be4ae3"},"vehicle_type_id":"4","last_reported":1759162190,"current_range_meters":18000,"station_id":"","pricing_plan_id":"cebpf4jnsgd1na2vs0mg"},{"bike_id":"049061f4-b3c6-4930-80ec-c5614722fbdb","system_id":"levelo_inurba_marseille","lat":43.26029,"lon":5.37552,"is_reserved":false,"is_disabled":false,"rental_uris":{"android":"levelo://app?vid=049061f4-b3c6-4930-80ec-c5614722fbdb","ios":"levelo://app?vid=049061f4-b3c6-4930-80ec-c5614722fbdb"},"vehicle_type_id":"4","last_reported":1759162190,"current_range_meters":18000,"station_id":"ce4bhgh2rcd13ifvqfa0","pricing_plan_id":"cebpf4jnsgd1na2vs0mg"},{"bike_id":"f752559e-e357-41d0-b0e1-06afd32411be","system_id":"levelo_inurba_marseille","lat":43.27469,"lon":5.40773,"is_reserved":false,"is_disabled":false,"rental_uris":{"android":"levelo://app?vid=f752559e-e357-41d0-b0e1-06afd32411be","ios":"levelo://app?vid=f752559e-e357-41d0-b0e1-06afd32411be"},"vehicle_type_id":"4","last_reported":1759162190,"current_range_meters":18000,"station_id":"","pricing_plan_id":"cebpf4jnsgd1na2vs0mg"},{"bike_id":"d24a58c0-c5e0-4f2a-b855-2802fd5fc092","system_id":"levelo_inurba_marseille","lat":43.2953,"lon":5.39411,"is_reserved":false,"is_disabled":false,"rental_uris":{"android":"levelo://app?vid=d24a58c0-c5e0-4f2a-b855-2802fd5fc092","ios":"levelo://app?vid=d24a58c0-c5e0-4f2a-b855-2802fd5fc092"},"vehicle_type_id":"4","last_reported":1759162190,"current_range_meters":18000,"station_id":"ce4bh292rcd13ifvqdf0","pricing_plan_id":"cebpf4jnsgd1na2vs0mg"},{"bike_id":"033d752a-0dd3-4803-8f48-6d2823710baf","system_id":"levelo_inurba_marseille","lat":43.23181,"lon":5.40002,"is_reserved":false,"is_disabled":false,"rental_uris":{"android":"levelo://app?vid=033d752a-0dd3-4803-8f48-6d2823710baf","ios":"levelo://app?vid=033d752a-0dd3-4803-8f48-6d2823710baf"},"vehicle_type_id":"4","last_reported":1759162190,"current_range_meters":18000,"station_id":"ce4bhn12rcd13ifvqgqg","pricing_plan_id":"cebpf4jnsgd1na2vs0mg"},{"bike_id":"2ab535df-4c2c-40d8-af4f-189047a67c11","system_id":"levelo_inurba_marseille","lat":43.24619,"lon":5.43171,"is_reserved":false,"is_disabled":false,"rental_uris":{"android":"levelo://app?vid=2ab535df-4c2c-40d8-af4f-189047a67c11","ios":"levelo://app?vid=2ab535df-4c2c-40d8-af4f-189047a67c11"},"vehicle_type_id":"4","last_reported":1759162190,"current_range_meters":18000,"station_id":"st_d2m6c4gdas8pm72e190g","pricing_plan_id":"cebpf4jnsgd1na2vs0mg"},{"bike_id":"18ef416c-1eef-4fda-90b8-20e158ec8d4d","system_id":"levelo_inurba_marseille","lat":43.26196,"lon":5.37451,"is_reserved":false,"is_disabled":false,"rental_uris":{"android":"levelo://app?vid=18ef416c-1eef-4fda-90b8-20e158ec8d4d","ios":"levelo://app?vid=18ef416c-1eef-4fda-90b8-20e158ec8d4d"},"vehicle_type_id":"4","last_reported":1759162190,"current_range_meters":18000,"station_id":"ce4bhgp2rcd13ifvqfc0","pricing_plan_id":"cebpf4jnsgd1na2vs0mg"},{"bike_id":"aa58f222-79c7-405e-9501-13d74bc71338","system_id":"levelo_inurba_marseille","lat":43.260369,"lon":5.375495,"is_reserved":false,"is_disabled":false,"rental_uris":{"android":"levelo://app?vid=aa58f222-79c7-405e-9501-13d74bc71338","ios":"levelo://app?vid=aa58f222-79c7-405e-9501-13d74bc71338"},"vehicle_type_id":"4","last_reported":1759162190,"current_range_meters":18000,"station_id":"ce4bhgh2rcd13ifvqfa0","pricing_plan_id":"cebpf4jnsgd1na2vs0mg"},{"bike_id":"63aa2455-2da3-4e9c-9e4e-54ed059c09ac","system_id":"levelo_inurba_marseille","lat":43.31208,"lon":5.38771,"is_reserved":false,"is_disabled":false,"rental_uris":{"android":"levelo://app?vid=63aa2455-2da3-4e9c-9e4e-54ed059c09ac","ios":"levelo://app?vid=63aa2455-2da3-4e9c-9e4e-54ed059c09ac"},"vehicle_type_id":"4","last_reported":1759162190,"current_range_meters":18000,"station_id":"ce4bgt92rcd13ifvqcf0","pricing_plan_id":"cebpf4jnsgd1na2vs0mg"},{"bike_id":"d2dec92d-ca91-4d70-86bf-2c953cea6624","system_id":"levelo_inurba_marseille","lat":43.282786,"lon":5.350568,"is_reserved":false,"is_disabled":false,"rental_uris":{"android":"levelo://app?vid=d2dec92d-ca91-4d70-86bf-2c953cea6624","ios":"levelo://app?vid=d2dec92d-ca91-4d70-86bf-2c953cea6624"},"vehicle_type_id":"4","last_reported":1759162190,"current_range_meters":18000,"station_id":"ce4bhbp2rcd13ifvqerg","pricing_plan_id":"cebpf4jnsgd1na2vs0mg"},{"bike_id":"becab812-41c6-41c2-8e69-21eadc96420e","system_id":"levelo_inurba_marseille","lat":43.288483,"lon":5.358593,"is_reserved":false,"is_disabled":false,"rental_uris":{"android":"levelo://app?vid=becab812-41c6-41c2-8e69-21eadc96420e","ios":"levelo://app?vid=becab812-41c6-41c2-8e69-21eadc96420e"},"vehicle_type_id":"4","last_reported":1759162190,"current_range_meters":18800,"station_id":"ce4bhb12rcd13ifvqem0","pricing_plan_id":"cebpf4jnsgd1na2vs0mg"},{"bike_id":"1a981733-fc0b-4de6-8e7f-03770d5261cc","system_id":"levelo_inurba_marseille","lat":43.26946,"lon":5.40255,"is_reserved":false,"is_disabled":false,"rental_uris":{"android":"levelo://app?vid=1a981733-fc0b-4de6-8e7f-03770d5261cc","ios":"levelo://app?vid=1a981733-fc0b-4de6-8e7f-03770d5261cc"},