{"last_updated":1732281539,"ttl":60,"version":"2.2","data":{"bikes":[{"bike_id":"46543ed3-4e00-44d7-9e2c-240279702215","system_id":"levelo_inurba_marseille","lat":43.30259,"lon":5.40081,"is_reserved":false,"is_disabled":false,"rental_uris":{"android":"levelo://app?vid=46543ed3-4e00-44d7-9e2c-240279702215","ios":"levelo://app?vid=46543ed3-4e00-44d7-9e2c-240279702215"},"vehicle_type_id":"4","last_reported":1732281539,"current_range_meters":12800,"station_id":"ce4bgvh2rcd13ifvqcs0","pricing_plan_id":"cebpf4jnsgd1na2vs0mg"},{"bike_id":"0ec198db-a01d-486f-a6eb-0b37b6dfc94a","system_id":"levelo_inurba_marseille","lat":43.29005,"lon":5.35611,"is_reserved":false,"is_disabled":false,"rental_uris":{"android":"levelo://app?vid=0ec198db-a01d-486f-a6eb-0b37b6dfc94a","ios":"levelo://app?vid=0ec198db-a01d-486f-a6eb-0b37b6dfc94a"},"vehicle_type_id":"4","last_reported":1732281539,"current_range_meters":36400,"station_id":"ce4bhb92rcd13ifvqen0","pricing_plan_id":"cebpf4jnsgd1na2vs0mg"},{"bike_id":"f80082d4-a05a-4282-baf5-e4165f209185","system_id":"levelo_inurba_marseille","lat":43.2904,"lon":5.39961,"is_reserved":false,"is_disabled":false,"rental_uris":{"android":"levelo://app?vid=f80082d4-a05a-4282-baf5-e4165f209185","ios":"levelo://app?vid=f80082d4-a05a-4282-baf5-e4165f209185"},"vehicle_type_id":"4","last_reported":1732281539,"current_range_meters":7200,"station_id":"ce4bh392rcd13ifvqdm0","pricing_plan_id":"cebpf4jnsgd1na2vs0mg"},{"bike_id":"8527133f-e94b-41ef-9b16-c99901d73e95","system_id":"levelo_inurba_marseille","lat":43.25575,"lon":5.38237,"is_reserved":false,"is_disabled":false,"rental_uris":{"android":"levelo://app?vid=8527133f-e94b-41ef-9b16-c99901d73e95","ios":"levelo://app?vid=8527133f-e94b-41ef-9b16-c99901d73e95"},"vehicle_type_id":"4","last_reported":1732281539,"current_range_meters":33600,"station_id":"ce4bhih2rcd13ifvqfs0","pricing_plan_id":"cebpf4jnsgd1na2vs0mg"},{"bike_id":"1a5a3b08-fc55-4b17-adaf-98ac64bb4ae6","system_id":"levelo_inurba_marseille","lat":43.29912,"lon":5.37473,"is_reserved":false,"is_disabled":false,"rental_uris":{"android":"levelo://app?vid=1a5a3b08-fc55-4b17-adaf-98ac64bb4ae6","ios":"levelo://app?vid=1a5a3b08-fc55-4b17-adaf-98ac64bb4ae6"},"vehicle_type_id":"4","last_reported":1732281539,"current_range_meters":25200,"station_id":"ce4bgjh2rcd13ifvqbg0","pricing_plan_id":"cebpf4jnsgd1na2vs0mg"},{"bike_id":"7ade2142-eca0-47c9-a1cc-6b8d37bae659","system_id":"levelo_inurba_marseille","lat":43.23149,"lon":5.4372,"is_reserved":false,"is_disabled":false,"rental_uris":{"android":"levelo://app?vid=7ade2142-eca0-47c9-a1cc-6b8d37bae659","ios":"levelo://app?vid=7ade2142-eca0-47c9-a1cc-6b8d37bae659"},"vehicle_type_id":"4","last_reported":1732281539,"current_range_meters":25200,"station_id":"ce4bhmp2rcd13ifvqgog","pricing_plan_id":"cebpf4jnsgd1na2vs0mg"},{"bike_id":"a421d6a9-8a2c-4636-a7e7-be0188599766","system_id":"levelo_inurba_marseille","lat":43.2979,"lon":5.38095,"is_reserved":false,"is_disabled":false,"rental_uris":{"android":"levelo://app?vid=a421d6a9-8a2c-4636-a7e7-be0188599766","ios":"levelo://app?vid=a421d6a9-8a2c-4636-a7e7-be0188599766"},"vehicle_type_id":"4","last_reported":1732281539,"current_range_meters":22400,"station_id":"ce4bgip2rcd13ifvqbb0","pricing_plan_id":"cebpf4jnsgd1na2vs0mg"},{"bike_id":"896b2297-b84a-495d-8ee8-43f2deca1b53","system_id":"levelo_inurba_marseille","lat":43.2695,"lon":5.386244,"is_reserved":false,"is_disabled":false,"rental_uris":{"android":"levelo://app?vid=896b2297-b84a-495d-8ee8-43f2deca1b53","ios":"levelo://app?vid=896b2297-b84a-495d-8ee8-43f2deca1b53"},"vehicle_type_id":"4","last_reported":1732281539,"current_range_meters":26000,"station_id":"ce4bhh92rcd13ifvqfh0","pricing_plan_id":"cebpf4jnsgd1na2vs0mg"},{"bike_id":"0814db76-5030-46a1-b8bb-fcc29fb82c70","system_id":"levelo_inurba_marseille","lat":43.32479,"lon":5.36581,"is_reserved":false,"is_disabled":false,"rental_uris":{"android":"levelo://app?vid=0814db76-5030-46a1-b8bb-fcc29fb82c70","ios":"levelo://app?vid=0814db76-5030-46a1-b8bb-fcc29fb82c70"},"vehicle_type_id":"4","last_reported":1732281539,"current_range_meters":32400,"station_id":"ce4bhs12rcd13ifvqhvg","pricing_plan_id":"cebpf4jnsgd1na2vs0mg"},{"bike_id":"8471c761-4bcd-4b56-96d8-ddfab4d6be83","system_id":"levelo_inurba_marseille","lat":43.2695,"lon":5.38636,"is_reserved":false,"is_disabled":true,"rental_uris":{"android":"levelo://app?vid=8471c761-4bcd-4b56-96d8-ddfab4d6be83","ios":"levelo://app?vid=8471c761-4bcd-4b56-96d8-ddfab4d6be83"},"vehicle_type_id":"4","last_reported":1732281539,"current_range_meters":0,"station_id":"ce4bhh92rcd13ifvqfh0","pricing_plan_id":"cebpf4jnsgd1na2vs0mg"},{"bike_id":"6dd72399-4c36-4f79-acf1-4c5ee36d28ce","system_id":"levelo_inurba_marseille","lat":43.26064,"lon":5.39395,"is_reserved":false,"is_disabled":false,"rental_uris":{"android":"levelo://app?vid=6dd72399-4c36-4f79-acf1-4c5ee36d28ce","ios":"levelo://app?vid=6dd72399-4c36-4f79-acf1-4c5ee36d28ce"},"vehicle_type_id":"4","last_reported":1732281539,"current_range_meters":36000,"station_id":"ce4bhh92rcd13ifvqfj0","pricing_plan_id":"cebpf4jnsgd1na2vs0mg"},{"bike_id":"96b3494c-c364-496a-b76d-032bcbff08dc","system_id":"levelo_inurba_marseille","lat":43.31353,"lon":5.367,"is_reserved":false,"is_disabled":false,"rental_uris":{"android":"levelo://app?vid=96b3494c-c364-496a-b76d-032bcbff08dc","ios":"levelo://app?vid=96b3494c-c364-496a-b76d-032bcbff08dc"},"vehicle_type_id":"4","last_reported":1732281539,"current_range_meters":18800,"station_id":"ce4bgr92rcd13ifvqc6g","pricing_plan_id":"cebpf4jnsgd1na2vs0mg"},{"bike_id":"15a61a6c-40ba-40d9-9754-85b1e40e6e21","system_id":"levelo_inurba_marseille","lat":43.30144,"lon":5.37429,"is_reserved":false,"is_disabled":false,"rental_uris":{"android":"levelo://app?vid=15a61a6c-40ba-40d9-9754-85b1e40e6e21","ios":"levelo://app?vid=15a61a6c-40ba-40d9-9754-85b1e40e6e21"},"vehicle_type_id":"4","last_reported":1732281539,"current_range_meters":36400,"station_id":"ce4bgs92rcd13ifvqcc0","pricing_plan_id":"cebpf4jnsgd1na2vs0mg"},{"bike_id":"cc45001e-86ba-42cc-9993-ed5261abbfe0","system_id":"levelo_inurba_marseille","lat":43.32367,"lon":5.38878,"is_reserved":false,"is_disabled":false,"rental_uris":{"android":"levelo://app?vid=cc45001e-86ba-42cc-9993-ed5261abbfe0","ios":"levelo://app?vid=cc45001e-86ba-42cc-9993-ed5261abbfe0"},"vehicle_type_id":"4","last_reported":1732281539,"current_range_meters":14000,"station_id":"ce4bhqp2rcd13ifvqhog","pricing_plan_id":"cebpf4jnsgd1na2vs0mg"},{"bike_id":"5e274fa5-32d0-47d6-bae9-d75344cedd2c","system_id":"levelo_inurba_marseille","lat":43.30285,"lon":5.37703,"is_reserved":false,"is_disabled":false,"rental_uris":{"android":"levelo://app?vid=5e274fa5-32d0-47d6-bae9-d75344cedd2c","ios":"levelo://app?vid=5e274fa5-32d0-47d6-bae9-d75344cedd2c"},"vehicle_type_id":"4","last_reported":1732281539,"current_range_meters":28400,"station_id":"ce4bguh2rcd13ifvqcj0","pricing_plan_id":"cebpf4jnsgd1na2vs0mg"},{"bike_id":"75acd4bf-0b28-4c3f-b69c-8eeb6f2a31bc","system_id":"levelo_inurba_marseille","lat":43.23151,"lon":5.43713,"is_reserved":false,"is_disabled":false,"rental_uris":{"android":"levelo://app?vid=75acd4bf-0b28-4c3f-b69c-8eeb6f2a31bc","ios":"levelo://app?vid=75acd4bf-0b28-4c3f-b69c-8eeb6f2a31bc"},"vehicle_type_id":"4","last_reported":1732281539,"current_range_meters":15200,"station_id":"ce4bhmp2rcd13ifvqgog","pricing_plan_id":"cebpf4jnsgd1na2vs0mg"},{"bike_id":"c0755ad7-8353-40d1-98a4-bba43ca0e3ab","system_id":"levelo_inurba_marseille","lat":43.33722,"lon":5.39194,"is_reserved":false,"is_disabled":false,"rental_uris":{"android":"levelo://app?vid=c0755ad7-8353-40d1-98a4-bba43ca0e3ab","ios":"levelo://app?vid=c0755ad7-8353-40d1-98a4-bba43ca0e3ab"},"vehicle_type_id":"4","last_reported":1732281539,"current_range_meters":12000,"station_id":"ce4bhr92rcd13ifvqhsg","pricing_plan_id":"cebpf4jnsgd1na2vs0mg"},{"bike_id":"9c5e82a0-bfb2-40f8-a7fd-0723a214db18","system_id":"levelo_inurba_marseille","lat":43.29258,"lon":5.40915,"is_reserved":false,"is_disabled":false,"rental_uris":{"android":"levelo://app?vid=9c5e82a0-bfb2-40f8-a7fd-0723a214db18","ios":"levelo://app?vid=9c5e82a0-bfb2-40f8-a7fd-0723a214db18"},"vehicle_type_id":"4","last_reported":1732281539,"current_range_meters":38800,"station_id":"ce4bh192rcd13ifvqdc0","pricing_plan_id":"cebpf4jnsgd1na2vs0mg"},{"bike_id":"87a9ebd6-d6ed-49af-a788-edfa2bcf3f87","system_id":"levelo_inurba_marseille","lat":43.25579,"lon":5.38232,"is_reserved":false,"is_disabled":false,"rental_uris":{"android":"levelo://app?vid=87a9ebd6-d6ed-49af-a788-edfa2bcf3f87","ios":"levelo://app?vid=87a9ebd6-d6ed-49af-a788-edfa2bcf3f87"},"vehicle_type_id":"4","last_reported":1732281539,"current_range_meters":20000,"station_id":"ce4bhih2rcd13ifvqfs0","pricing_plan_id":"cebpf4jnsgd1na2vs0mg"},{"bike_id":"a60efe50-454b-4c1c-93bc-fab28a75fcff","system_id":"levelo_inurba_marseille","lat":43.27495,"lon":5.4245,"is_reserved":false,"is_disabled":true,"rental_uris":{"android":"levelo://app?vid=a60efe50-454b-4c1c-93bc-fab28a75fcff","ios":"levelo://app?vid=a60efe50-454b-4c1c-93bc-fab28a75fcff"},"vehicle_type_id":"4","last_reported":1732281539,"current_range_meters":0,"station_id":"ce4bhn92rcd13ifvqgrg","pricing_plan_id":"cebpf4jnsgd1na2vs0mg"},{"bike_id":"2a92d785-74e8-425b-adb4-3491ce864ff8","system_id":"levelo_inurba_marseille","lat":43.32029,"lon":5.41573,"is_reserved":false,"is_disabled":false,"rental_uris":{"android":"levelo://app?vid=2a92d785-74e8-425b-adb4-3491ce864ff8","ios":"levelo://app?vid=2a92d785-74e8-425b-adb4-3491ce864ff8"},"vehicle_type_id":"4","last_reported":1732281539,"current_range_meters":37600,"station_id":"ce4bhq92rcd13ifvqhkg","pricing_plan_id":"cebpf4jnsgd1na2vs0mg"},{"bike_id":"a3dfa29f-d880-4cbe-b909-b4e217158e03","system_id":"levelo_inurba_marseille","lat":43.27178,"lon":5.40994,"is_reserved":false,"is_disabled":true,"rental_uris":{"android":"levelo://app?vid=a3dfa29f-d880-4cbe-b909-b4e217158e03","ios":"levelo://app?vid=a3dfa29f-d880-4cbe-b909-b4e217158e03"},"vehicle_type_id":"4","last_reported":1732281539,"current_range_meters":36000,"station_id":"ce4bhl12rcd13ifvqgf0","pricing_plan_id":"cebpf4jnsgd1na2vs0mg"},{"bike_id":"d2321b4c-ae3a-4b43-8bcd-12cb7984481d","system_id":"levelo_inurba_marseille","lat":43.3076,"lon":5.37024,"is_reserved":false,"is_disabled":true,"rental_uris":{"android":"levelo://app?vid=d2321b4c-ae3a-4b43-8bcd-12cb7984481d","ios":"levelo://app?vid=d2321b4c-ae3a-4b43-8bcd-12cb7984481d"},"vehicle_type_id":"4","last_reported":1732281539,"current_range_meters":17200,"station_id":"","pricing_plan_id":"cebpf4jnsgd1na2vs0mg"},{"bike_id":"a24595af-1823-42f4-9deb-0803bad7c9a2","system_id":"levelo_inurba_marseille","lat":43.26954,"lon":5.38649,"is_reserved":false,"is_disabled":true,"rental_uris":{"android":"levelo://app?vid=a24595af-1823-42f4-9deb-0803bad7c9a2","ios":"levelo://app?vid=a24595af-1823-42f4-9deb-0803bad7c9a2"},"vehicle_type_id":"4","last_reported":1732281539,"current_range_meters":800,"station_id":"ce4bhh92rcd13ifvqfh0","pricing_plan_id":"cebpf4jnsgd1na2vs0mg"},{"bike_id":"9be72814-f80c-46a7-b916-ab8ba52deb9f","system_id":"levelo_inurba_marseille","lat":43.26807,"lon":5.40268,"is_reserved":false,"is_disabled":false,"rental_uris":{"android":"levelo://app?vid=9be72814-f80c-46a7-b916-ab8ba52deb9f","ios":"levelo://app?vid=9be72814-f80c-46a7-b916-ab8ba52deb9f"},"vehicle_type_id":"4","last_reported":1732281539,"current_range_meters":30400,"station_id":"ce501612rcd8frsf0b60","pricing_plan_id":"cebpf4jnsgd1na2vs0mg"},{"bike_id":"5c3000a0-a190-4007-a723-aa2707fd1ce3","system_id":"levelo_inurba_marseille","lat":43.229356,"lon":5.353788,"is_reserved":false,"is_disabled":false,"rental_uris":{"android":"levelo://app?vid=5c3000a0-a190-4007-a723-aa2707fd1ce3","ios":"levelo://app?vid=5c3000a0-a190-4007-a723-aa2707fd1ce3"},"vehicle_type_id":"4","last_reported":1732281539,"current_range_meters":39200,"station_id":"cpo3532slgdg3j2ikp40","pricing_plan_id":"cebpf4jnsgd1na2vs0mg"},{"bike_id":"1c5fdcc2-ba84-4c46-bf38-3d224d434b52","system_id":"levelo_inurba_marseille","lat":43.32338,"lon":5.40624,"is_reserved":false,"is_disabled":true,"rental_uris":{"android":"levelo://app?vid=1c5fdcc2-ba84-4c46-bf38-3d224d434b52","ios":"levelo://app?vid=1c5fdcc2-ba84-4c46-bf38-3d224d434b52"},"vehicle_type_id":"4","last_reported":1732281539,"current_range_meters":400,"station_id":"ce4bhq92rcd13ifvqhjg","pricing_plan_id":"cebpf4jnsgd1na2vs0mg"},{"bike_id":"158df77e-2ea0-4787-ac7e-e8812e0498ad","system_id":"levelo_inurba_marseille","lat":43.25106,"lon":5.40323,"is_reserved":false,"is_disabled":false,"rental_uris":{"android":"levelo://app?vid=158df77e-2ea0-4787-ac7e-e8812e0498ad","ios":"levelo://app?vid=158df77e-2ea0-4787-ac7e-e8812e0498ad"},"vehicle_type_id":"4","last_reported":1732281539,"current_range_meters":6800,"station_id":"ce4bhlh2rcd13ifvqgig","pricing_plan_id":"cebpf4jnsgd1na2vs0mg"},{"bike_id":"9bf00278-281e-45df-b9cb-0f55e5af1df2","system_id":"levelo_inurba_marseille","lat":43.25581,"lon":5.38232,"is_reserved":false,"is_disabled":false,"rental_uris":{"android":"levelo://app?vid=9bf00278-281e-45df-b9cb-0f55e5af1df2","ios":"levelo://app?vid=9bf00278-281e-45df-b9cb-0f55e5af1df2"},"vehicle_type_id":"4","last_reported":1732281539,"current_range_meters":36400,"station_id":"ce4bhih2rcd13ifvqfs0","pricing_plan_id":"cebpf4jnsgd1na2vs0mg"},{"bike_id":"0478b5a4-4317-4804-b7c6-52e6e380d66a","system_id":"levelo_inurba_marseille","lat":43.27316,"lon":5.39076,"is_reserved":false,"is_disabled":false,"rental_uris":{"android":"levelo://app?vid=0478b5a4-4317-4804-b7c6-52e6e380d66a","ios":"levelo://app?vid=0478b5a4-4317-4804-b7c6-52e6e380d66a"},"vehicle_type_id":"4","last_reported":1732281539,"current_range_meters":9600,"station_id":"ce4bhgp2rcd13ifvqfe0","pricing_plan_id":"cebpf4jnsgd1na2vs0mg"},{"bike_id":"1ad0f4f4-1775-4a05-9c35-b4b31bbcc7e3","system_id":"levelo_inurba_marseille","lat":43.29025,"lon":5.38653,"is_reserved":false,"is_disabled":false,"rental_uris":{"android":"levelo://app?vid=1ad0f4f4-1775-4a05-9c35-b4b31bbcc7e3","ios":"levelo://app?vid=1ad0f4f4-1775-4a05-9c35-b4b31bbcc7e3"},"vehicle_type_id":"4","last_reported":1732281539,"current_range_meters":36800,"station_id":"ce4bh4p2rcd13ifvqe0g","pricing_plan_id":"cebpf4jnsgd1na2vs0mg"},{"bike_id":"74b5463a-01d7-428c-a87f-824daf27cde1","system_id":"levelo_inurba_marseille","lat":43.33021,"lon":5.39041,"is_reserved":false,"is_disabled":false,"rental_uris":{"android":"levelo://app?vid=74b5463a-01d7-428c-a87f-824daf27cde1","ios":"levelo://app?vid=74b5463a-01d7-428c-a87f-824daf27cde1"},"vehicle_type_id":"4","last_reported":1732281539,"current_range_meters":24000,"station_id":"ce4bhr92rcd13ifvqhrg","pricing_plan_id":"cebpf4jnsgd1na2vs0mg"},{"bike_id":"f7911ba1-f247-4ef6-81ed-7e873ef569c6","system_id":"levelo_inurba_marseille","lat":43.27565,"lon":5.38423,"is_reserved":false,"is_disabled":true,"rental_uris":{"android":"levelo://app?vid=f7911ba1-f247-4ef6-81ed-7e873ef569c6","ios":"levelo://app?vid=f7911ba1-f247-4ef6-81ed-7e873ef569c6"},"vehicle_type_id":"4","last_reported":1732281539,"current_range_meters":39200,"station_id":"ce4bhh92rcd13ifvqfi0","pricing_plan_id":"cebpf4jnsgd1na2vs0mg"},{"bike_id":"40c1583c-b422-4b23-b362-a73d06f2c54b","system_id":"levelo_inurba_marseille","lat":43.29533,"lon":5.38543,"is_reserved":false,"is_disabled":true,"rental_uris":{"android":"levelo://app?vid=40c1583c-b422-4b23-b362-a73d06f2c54b","ios":"levelo://app?vid=40c1583c-b422-4b23-b362-a73d06f2c54b"},"vehicle_type_id":"4","last_reported":1732281539,"current_range_meters":27600,"station_id":"ce4bgih2rcd13ifvqba0","pricing_plan_id":"cebpf4jnsgd1na2vs0mg"},{"bike_id":"1cd0daee-d68a-4e66-9883-fbe67fd8260f","system_id":"levelo_inurba_marseille","lat":43.305794,"lon":5.370686,"is_reserved":false,"is_disabled":true,"rental_uris":{"android":"levelo://app?vid=1cd0daee-d68a-4e66-9883-fbe67fd8260f","ios":"levelo://app?vid=1cd0daee-d68a-4e66-9883-fbe67fd8260f"},"vehicle_type_id":"4","last_reported":1732281539,"current_range_meters":0,"station_id":"","pricing_plan_id":"cebpf4jnsgd1na2vs0mg"},{"bike_id":"3ecd968f-1f7e-4bd4-968d-4e3b4005d51b","system_id":"levelo_inurba_marseille","lat":43.31047,"lon":5.37889,"is_reserved":false,"is_disabled":true,"rental_uris":{"android":"levelo://app?vid=3ecd968f-1f7e-4bd4-968d-4e3b4005d51b","ios":"levelo://app?vid=3ecd968f-1f7e-4bd4-968d-4e3b4005d51b"},"vehicle_type_id":"4","last_reported":1732281539,"current_range_meters":4400,"station_id":"","pricing_plan_id":"cebpf4jnsgd1na2vs0mg"},{"bike_id":"8049dfa2-ab84-4979-a750-4db119a39bb9","system_id":"levelo_inurba_marseille","lat":43.26033,"lon":5.37545,"is_reserved":false,"is_disabled":false,"rental_uris":{"android":"levelo://app?vid=8049dfa2-ab84-4979-a750-4db119a39bb9","ios":"levelo://app?vid=8049dfa2-ab84-4979-a750-4db119a39bb9"},"vehicle_type_id":"4","last_reported":1732281539,"current_range_meters":21600,"station_id":"ce4bhgh2rcd13ifvqfa0","pricing_plan_id":"cebpf4jnsgd1na2vs0mg"},{"bike_id":"e5bc1dc2-782c-4b6a-aff0-a9a1a2d4a764","system_id":"levelo_inurba_marseille","lat":43.28924,"lon":5.38399,"is_reserved":false,"is_disabled":false,"rental_uris":{"android":"levelo://app?vid=e5bc1dc2-782c-4b6a-aff0-a9a1a2d4a764","ios":"levelo://app?vid=e5bc1dc2-782c-4b6a-aff0-a9a1a2d4a764"},"vehicle_type_id":"4","last_reported":1732281539,"current_range_meters":38000,"station_id":"ce4bh612rcd13ifvqe6g","pricing_plan_id":"cebpf4jnsgd1na2vs0mg"},{"bike_id":"0357a561-56d6-4846-b11d-a03c1167541e","system_id":"levelo_inurba_marseille","lat":43.26211,"lon":5.37934,"is_reserved":false,"is_disabled":false,"rental_uris":{"android":"levelo://app?vid=0357a561-56d6-4846-b11d-a03c1167541e","ios":"levelo://app?vid=0357a561-56d6-4846-b11d-a03c1167541e"},"vehicle_type_id":"4","last_reported":1732281539,"current_range_meters":11200,"station_id":"ce4bhjp2rcd13ifvqg90","pricing_plan_id":"cebpf4jnsgd1na2vs0mg"},{"bike_id":"56e826b9-8692-47d3-8665-ba754a56fdff","system_id":"levelo_inurba_marseille","lat":43.29971,"lon":5.37176,"is_reserved":false,"is_disabled":false,"rental_uris":{"android":"levelo://app?vid=56e826b9-8692-47d3-8665-ba754a56fdff","ios":"levelo://app?vid=56e826b9-8692-47d3-8665-ba754a56fdff"},"vehicle_type_id":"4","last_reported":1732281539,"current_range_meters":26800,"station_id":"ce4bgr92rcd13ifvqc7g","pricing_plan_id":"cebpf4jnsgd1na2vs0mg"},{"bike_id":"f1ad9ce2-123c-4935-bc55-a0d4b05ba4de","system_id":"levelo_inurba_marseille","lat":43.32023,"lon":5.4155,"is_reserved":false,"is_disabled":false,"rental_uris":{"android":"levelo://app?vid=f1ad9ce2-123c-4935-bc55-a0d4b05ba4de","ios":"levelo://app?vid=f1ad9ce2-123c-4935-bc55-a0d4b05ba4de"},"vehicle_type_id":"4","last_reported":1732281539,"current_range_meters":38800,"station_id":"ce4bhq92rcd13ifvqhkg","pricing_plan_id":"cebpf4jnsgd1na2vs0mg"},{"bike_id":"bdac8ff3-e713-4a02-9f76-78fc6782aa52","system_id":"levelo_inurba_marseille","lat":43.23151,"lon":5.43734,"is_reserved":false,"is_disabled":false,"rental_uris":{"android":"levelo://app?vid=bdac8ff3-e713-4a02-9f76-78fc6782aa52","ios":"levelo://app?vid=bdac8ff3-e713-4a02-9f76-78fc6782aa52"},"vehicle_type_id":"4","last_reported":1732281539,"current_range_meters":24000,"station_id":"ce4bhmp2rcd13ifvqgog","pricing_plan_id":"cebpf4jnsgd1na2vs0mg"},{"bike_id":"c8c71d6a-3155-4ee9-ba4f-a4d0d36b4405","system_id":"levelo_inurba_marseille","lat":43.26681,"lon":5.38267,"is_reserved":false,"is_disabled":false,"rental_uris":{"android":"levelo://app?vid=c8c71d6a-3155-4ee9-ba4f-a4d0d36b4405","ios":"levelo://app?vid=c8c71d6a-3155-4ee9-ba4f-a4d0d36b4405"},"vehicle_type_id":"4","last_reported":1732281539,"current_range_meters":38800,"station_id":"ce4bhg92rcd13ifvqf90","pricing_plan_id":"cebpf4jnsgd1na2vs0mg"},{"bike_id":"7a8db3dc-7ed9-4c06-814c-f1b4ad393ca2","system_id":"levelo_inurba_marseille","lat":43.31759,"lon":5.39021,"is_reserved":false,"is_disabled":false,"rental_uris":{"android":"levelo://app?vid=7a8db3dc-7ed9-4c06-814c-f1b4ad393ca2","ios":"levelo://app?vid=7a8db3dc-7ed9-4c06-814c-f1b4ad393ca2"},"vehicle_type_id":"4","last_reported":1732281539,"current_range_meters":33600,"station_id":"ce4bhqp2rcd13ifvqhng","pricing_plan_id":"cebpf4jnsgd1na2vs0mg"},{"bike_id":"84ae4713-1405-4d80-979f-c069bf0fc645","system_id":"levelo_inurba_marseille","lat":43.29034,"lon":5.37563,"is_reserved":false,"is_disabled":false,"rental_uris":{"android":"levelo://app?vid=84ae4713-1405-4d80-979f-c069bf0fc645","ios":"levelo://app?vid=84ae4713-1405-4d80-979f-c069bf0fc645"},"vehicle_type_id":"4","last_reported":1732281539,"current_range_meters":19600,"station_id":"ce4bh692rcd13ifvqe90","pricing_plan_id":"cebpf4jnsgd1na2vs0mg"},{"bike_id":"25c1e65b-83ae-4fec-9c1c-f8308c082ae7","system_id":"levelo_inurba_marseille","lat":43.32102,"lon":5.36783,"is_reserved":false,"is_disabled":false,"rental_uris":{"android":"levelo://app?vid=25c1e65b-83ae-4fec-9c1c-f8308c082ae7","ios":"levelo://app?vid=25c1e65b-83ae-4fec-9c1c-f8308c082ae7"},"vehicle_type_id":"4","last_reported":1732281539,"current_range_meters":25600,"station_id":"ce4bhrh2rcd13ifvqhug","pricing_plan_id":"cebpf4jnsgd1na2vs0mg"},{"bike_id":"ebe2b43b-e5bb-4158-835b-e46b2ce0d167","system_id":"levelo_inurba_marseille","lat":43.22928,"lon":5.35372,"is_reserved":false,"is_disabled":false,"rental_uris":{"android":"levelo://app?vid=ebe2b43b-e5bb-4158-835b-e46b2ce0d167","ios":"levelo://app?vid=ebe2b43b-e5bb-4158-835b-e46b2ce0d167"},"vehicle_type_id":"4","last_reported":1732281539,"current_range_meters":34000,"station_id":"cpo3532slgdg3j2ikp40","pricing_plan_id":"cebpf4jnsgd1na2vs0mg"},{"bike_id":"88ee7e4a-1c4f-4d0d-8849-226b851dd5d7","system_id":"levelo_inurba_marseille","lat":43.29789,"lon":5.38132,"is_reserved":false,"is_disabled":false,"rental_uris":{"android":"levelo://app?vid=88ee7e4a-1c4f-4d0d-8849-226b851dd5d7","ios":"levelo://app?vid=88ee7e4a-1c4f-4d0d-8849-226b851dd5d7"},"vehicle_type_id":"4","last_reported":1732281539,"current_range_meters":36400,"station_id":"ce4bgip2rcd13ifvqbb0","pricing_plan_id":"cebpf4jnsgd1na2vs0mg"},{"bike_id":"d3f88ac1-af0e-4fe3-957f-9fb722f55ef1","system_id":"levelo_inurba_marseille","lat":43.3248,"lon":5.36567,"is_reserved":false,"is_disabled":false,"rental_uris":{"android":"levelo://app?vid=d3f88ac1-af0e-4fe3-957f-9fb722f55ef1","ios":"levelo://app?vid=d3f88ac1-af0e-4fe3-957f-9fb722f55ef1"},"vehicle_type_id":"4","last_reported":1732281539,"current_range_meters":36400,"station_id":"ce4bhs12rcd13ifvqhvg","pricing_plan_id":"cebpf4jnsgd1na2vs0mg"},{"bike_id":"54c941fb-b114-418e-bf6b-63c539598484","system_id":"levelo_inurba_marseille","lat":43.31495,"lon":5.37308,"is_reserved":false,"is_disabled":true,"rental_uris":{"android":"levelo://app?vid=54c941fb-b114-418e-bf6b-63c539598484","ios":"levelo://app?vid=54c941fb-b114-418e-bf6b-63c539598484"},"vehicle_type_id":"4","last_reported":1732281539,"current_range_meters":0,"station_id":"ce4bgt12rcd13ifvqcd0","pricing_plan_id":"cebpf4jnsgd1na2vs0mg"},{"bike_id":"8f998439-5b6c-4a3f-9f52-c1aa48658791","system_id":"levelo_inurba_marseille","lat":43.30591,"lon":5.39362,"is_reserved":false,"is_disabled":false,"rental_uris":{"android":"levelo://app?vid=8f998439-5b6c-4a3f-9f52-c1aa48658791","ios":"levelo://app?vid=8f998439-5b6c-4a3f-9f52-c1aa48658791"},"vehicle_type_id":"4","last_reported":1732281539,"current_range_meters":20800,"station_id":"ce4bh0p2rcd13ifvqd80","pricing_plan_id":"cebpf4jnsgd1na2vs0mg"},{"bike_id":"48b682f3-f5d0-4c66-a1ef-d9d730988bc9","system_id":"levelo_inurba_marseille","lat":43.31118,"lon":5.37764,"is_reserved":false,"is_disabled":false,"rental_uris":{"android":"levelo://app?vid=48b682f3-f5d0-4c66-a1ef-d9d730988bc9","ios":"levelo://app?vid=48b682f3-f5d0-4c66-a1ef-d9d730988bc9"},"vehicle_type_id":"4","last_reported":1732281539,"current_range_meters":36800,"station_id":"ce4bgt92rcd13ifvqcg0","pricing_plan_id":"cebpf4jnsgd1na2vs0mg"},{"bike_id":"2a64d8ea-befa-4ecd-b0d1-35649d82e605","system_id":"levelo_inurba_marseille","lat":43.29047,"lon":5.35917,"is_reserved":false,"is_disabled":false,"rental_uris":{"android":"levelo://app?vid=2a64d8ea-befa-4ecd-b0d1-35649d82e605","ios":"levelo://app?vid=2a64d8ea-befa-4ecd-b0d1-35649d82e605"},"vehicle_type_id":"4","last_reported":1732281539,"current_range_meters":38800,"station_id":"ce4bha92rcd13ifvqeg0","pricing_plan_id":"cebpf4jnsgd1na2vs0mg"},{"bike_id":"567b5bec-6f69-4097-9d92-252add5a5c8a","system_id":"levelo_inurba_marseille","lat":43.25578,"lon":5.38242,"is_reserved":false,"is_disabled":false,"rental_uris":{"android":"levelo://app?vid=567b5bec-6f69-4097-9d92-252add5a5c8a","ios":"levelo://app?vid=567b5bec-6f69-4097-9d92-252add5a5c8a"},"vehicle_type_id":"4","last_reported":1732281539,"current_range_meters":36400,"station_id":"ce4bhih2rcd13ifvqfs0","pricing_plan_id":"cebpf4jnsgd1na2vs0mg"},{"bike_id":"fb0e7305-4388-4c1e-aa9c-b5955479df12","system_id":"levelo_inurba_marseille","lat":43.2606,"lon":5.39396,"is_reserved":false,"is_disabled":false,"rental_uris":{"android":"levelo://app?vid=fb0e7305-4388-4c1e-aa9c-b5955479df12","ios":"levelo://app?vid=fb0e7305-4388-4c1e-aa9c-b5955479df12"},"vehicle_type_id":"4","last_reported":1732281539,"current_range_meters":34800,"station_id":"ce4bhh92rcd13ifvqfj0","pricing_plan_id":"cebpf4jnsgd1na2vs0mg"},{"bike_id":"99157fb8-69db-44b7-8d1b-18662cd571a7","system_id":"levelo_inurba_marseille","lat":43.29991,"lon":5.37186,"is_reserved":false,"is_disabled":false,"rental_uris":{"android":"levelo://app?vid=99157fb8-69db-44b7-8d1b-18662cd571a7","ios":"levelo://app?vid=99157fb8-69db-44b7-8d1b-18662cd571a7"},"vehicle_type_id":"4","last_reported":1732281539,"current_range_meters":11200,"station_id":"ce4bgr92rcd13ifvqc7g","pricing_plan_id":"cebpf4jnsgd1na2vs0mg"},{"bike_id":"9c37a5af-6b01-4e75-9657-7ef6bddc1bc6","system_id":"levelo_inurba_marseille","lat":43.3302,"lon":5.39046,"is_reserved":false,"is_disabled":false,"rental_uris":{"android":"levelo://app?vid=9c37a5af-6b01-4e75-9657-7ef6bddc1bc6","ios":"levelo://app?vid=9c37a5af-6b01-4e75-9657-7ef6bddc1bc6"},"vehicle_type_id":"4","last_reported":1732281539,"current_range_meters":23200,"station_id":"ce4bhr92rcd13ifvqhrg","pricing_plan_id":"cebpf4jnsgd1na2vs0mg"},{"bike_id":"1d2602ed-bcb1-45f1-b1df-3103bc42e2c2","system_id":"levelo_inurba_marseille","lat":43.31485,"lon":5.37308,"is_reserved":false,"is_disabled":false,"rental_uris":{"android":"levelo://app?vid=1d2602ed-bcb1-45f1-b1df-3103bc42e2c2","ios":"levelo://app?vid=1d2602ed-bcb1-45f1-b1df-3103bc42e2c2"},"vehicle_type_id":"4","last_reported":1732281539,"current_range_meters":28400,"station_id":"ce4bgt12rcd13ifvqcd0","pricing_plan_id":"cebpf4jnsgd1na2vs0mg"},{"bike_id":"7d83fe66-284f-4d5c-9824-775c623fc149","system_id":"levelo_inurba_marseille","lat":43.30084,"lon":5.39075,"is_reserved":false,"is_disabled":false,"rental_uris":{"android":"levelo://app?vid=7d83fe66-284f-4d5c-9824-775c623fc149","ios":"levelo://app?vid=7d83fe66-284f-4d5c-9824-775c623fc149"},"vehicle_type_id":"4","last_reported":1732281539,"current_range_meters":35600,"station_id":"ce4bh192rcd13ifvqdb0","pricing_plan_id":"cebpf4jnsgd1na2vs0mg"},{"bike_id":"f9e35db8-2f7a-4f43-8c70-83778761d42d","system_id":"levelo_inurba_marseille","lat":43.23192,"lon":5.3556,"is_reserved":false,"is_disabled":true,"rental_uris":{"android":"levelo://app?vid=f9e35db8-2f7a-4f43-8c70-83778761d42d","ios":"levelo://app?vid=f9e35db8-2f7a-4f43-8c70-83778761d42d"},"vehicle_type_id":"4","last_reported":1732281539,"current_range_meters":37600,"station_id":"ce4bhu92rcd13ifvqi70","pricing_plan_id":"cebpf4jnsgd1na2vs0mg"},{"bike_id":"d276d0c8-b739-4fa2-a9a1-c57ee643a3d3","system_id":"levelo_inurba_marseille","lat":43.29264,"lon":5.36847,"is_reserved":false,"is_disabled":false,"rental_uris":{"android":"levelo://app?vid=d276d0c8-b739-4fa2-a9a1-c57ee643a3d3","ios":"levelo://app?vid=d276d0c8-b739-4fa2-a9a1-c57ee643a3d3"},"vehicle_type_id":"4","last_reported":1732281539,"current_range_meters":35600,"station_id":"ce4bhbp2rcd13ifvqesg","pricing_plan_id":"cebpf4jnsgd1na2vs0mg"},{"bike_id":"f4c2186d-628c-41f3-a5a5-bb253eb2b337","system_id":"levelo_inurba_marseille","lat":43.2972,"lon":5.377,"is_reserved":false,"is_disabled":false,"rental_uris":{"android":"levelo://app?vid=f4c2186d-628c-41f3-a5a5-bb253eb2b337","ios":"levelo://app?vid=f4c2186d-628c-41f3-a5a5-bb253eb2b337"},"vehicle_type_id":"4","last_reported":1732281539,"current_range_meters":16800,"station_id":"ce4bgkh2rcd13ifvqbl0","pricing_plan_id":"cebpf4jnsgd1na2vs0mg"},{"bike_id":"d979d12e-0952-4b0d-a112-f005022fbbe4","system_id":"levelo_inurba_marseille","lat":43.26202,"lon":5.37937,"is_reserved":false,"is_disabled":false,"rental_uris":{"android":"levelo://app?vid=d979d12e-0952-4b0d-a112-f005022fbbe4","ios":"levelo://app?vid=d979d12e-0952-4b0d-a112-f005022fbbe4"},"vehicle_type_id":"4","last_reported":1732281539,"current_range_meters":38800,"station_id":"ce4bhjp2rcd13ifvqg90","pricing_plan_id":"cebpf4jnsgd1na2vs0mg"},{"bike_id":"17b263e7-11a4-4e49-99f1-347989185c5a","system_id":"levelo_inurba_marseille","lat":43.27194,"lon":5.40994,"is_reserved":false,"is_disabled":false,"rental_uris":{"android":"levelo://app?vid=17b263e7-11a4-4e49-99f1-347989185c5a","ios":"levelo://app?vid=17b263e7-11a4-4e49-99f1-347989185c5a"},"vehicle_type_id":"4","last_reported":1732281539,"current_range_meters":38800,"station_id":"ce4bhl12rcd13ifvqgf0","pricing_plan_id":"cebpf4jnsgd1na2vs0mg"},{"bike_id":"ac894d2b-d4fc-430d-9b98-f63b338519b2","system_id":"levelo_inurba_marseille","lat":43.2594,"lon":5.40906,"is_reserved":false,"is_disabled":false,"rental_uris":{"android":"levelo://app?vid=ac894d2b-d4fc-430d-9b98-f63b338519b2","ios":"levelo://app?vid=ac894d2b-d4fc-430d-9b98-f63b338519b2"},"vehicle_type_id":"4","last_reported":1732281539,"current_range_meters":27600,"station_id":"ce4bhm92rcd13ifvqglg","pricing_plan_id":"cebpf4jnsgd1na2vs0mg"},{"bike_id":"1722dc57-b7cc-42f2-b2e0-d9b2d7ae634d","system_id":"levelo_inurba_marseille","lat":43.28264,"lon":5.35062,"is_reserved":false,"is_disabled":false,"rental_uris":{"android":"levelo://app?vid=1722dc57-b7cc-42f2-b2e0-d9b2d7ae634d","ios":"levelo://app?vid=1722dc57-b7cc-42f2-b2e0-d9b2d7ae634d"},"vehicle_type_id":"4","last_reported":1732281539,"current_range_meters":3600,"station_id":"ce4bhbp2rcd13ifvqerg","pricing_plan_id":"cebpf4jnsgd1na2vs0mg"},{"bike_id":"067a56bb-5ca1-4307-9b2b-c2ae5a3aa466","system_id":"levelo_inurba_marseille","lat":43.30328,"lon":5.40434,"is_reserved":false,"is_disabled":false,"rental_uris":{"android":"levelo://app?vid=067a56bb-5ca1-4307-9b2b-c2ae5a3aa466","ios":"levelo://app?vid=067a56bb-5ca1-4307-9b2b-c2ae5a3aa466"},"vehicle_type_id":"4","last_reported":1732281539,"current_range_meters":26800,"station_id":"ce4bh012rcd13ifvqd10","pricing_plan_id":"cebpf4jnsgd1na2vs0mg"},{"bike_id":"35005469-a36f-4579-b926-2bbc2fea0fa4","system_id":"levelo_inurba_marseille","lat":43.313619,"lon":5.367073,"is_reserved":false,"is_disabled":false,"rental_uris":{"android":"levelo://app?vid=35005469-a36f-4579-b926-2bbc2fea0fa4","ios":"levelo://app?vid=35005469-a36f-4579-b926-2bbc2fea0fa4"},"vehicle_type_id":"4","last_reported":1732281539,"current_range_meters":9600,"station_id":"ce4bgr92rcd13ifvqc6g","pricing_plan_id":"cebpf4jnsgd1na2vs0mg"},{"bike_id":"e6f269d5-78f6-4043-917f-52913283f83c","system_id":"levelo_inurba_marseille","lat":43.23151,"lon":5.43718,"is_reserved":false,"is_disabled":false,"rental_uris":{"android":"levelo://app?vid=e6f269d5-78f6-4043-917f-52913283f83c","ios":"levelo://app?vid=e6f269d5-78f6-4043-917f-52913283f83c"},"vehicle_type_id":"4","last_reported":1732281539,"current_range_meters":26800,"station_id":"ce4bhmp2rcd13ifvqgog","pricing_plan_id":"cebpf4jnsgd1na2vs0mg"},{"bike_id":"844cb461-f780-45f5-88b2-3951b51e6462","system_id":"levelo_inurba_marseille","lat":43.30116,"lon":5.37791,"is_reserved":false,"is_disabled":true,"rental_uris":{"android":"levelo://app?vid=844cb461-f780-45f5-88b2-3951b51e6462","ios":"levelo://app?vid=844cb461-f780-45f5-88b2-3951b51e6462"},"vehicle_type_id":"4","last_reported":1732281539,"current_range_meters":0,"station_id":"","pricing_plan_id":"cebpf4jnsgd1na2vs0mg"},{"bike_id":"9bd001e9-85c5-4270-a8de-13fbf74b1bbe","system_id":"levelo_inurba_marseille","lat":43.30205,"lon":5.39467,"is_reserved":false,"is_disabled":false,"rental_uris":{"android":"levelo://app?vid=9bd001e9-85c5-4270-a8de-13fbf74b1bbe","ios":"levelo://app?vid=9bd001e9-85c5-4270-a8de-13fbf74b1bbe"},"vehicle_type_id":"4","last_reported":1732281539,"current_range_meters":32000,"station_id":"ce4bh0p2rcd13ifvqd70","pricing_plan_id":"cebpf4jnsgd1na2vs0mg"},{"bike_id":"aecbf3f5-8093-4d1c-8a37-8285fc8be695","system_id":"levelo_inurba_marseille","lat":43.30179,"lon":5.36616,"is_reserved":false,"is_disabled":false,"rental_uris":{"android":"levelo://app?vid=aecbf3f5-8093-4d1c-8a37-8285fc8be695","ios":"levelo://app?vid=aecbf3f5-8093-4d1c-8a37-8285fc8be695"},"vehicle_type_id":"4","last_reported":1732281539,"current_range_meters":38800,"station_id":"ce4bgrh2rcd13ifvqc8g","pricing_plan_id":"cebpf4jnsgd1na2vs0mg"},{"bike_id":"faaf7e4a-7946-4bff-baba-9c07794f0af2","system_id":"levelo_inurba_marseille","lat":43.27997,"lon":5.40011,"is_reserved":false,"is_disabled":false,"rental_uris":{"android":"levelo://app?vid=faaf7e4a-7946-4bff-baba-9c07794f0af2","ios":"levelo://app?vid=faaf7e4a-7946-4bff-baba-9c07794f0af2"},"vehicle_type_id":"4","last_reported":1732281539,"current_range_meters":12000,"station_id":"ce4bho92rcd13ifvqh4g","pricing_plan_id":"cebpf4jnsgd1na2vs0mg"},{"bike_id":"cdaafd2d-0da1-4fac-9881-15c66a7cd7c0","system_id":"levelo_inurba_marseille","lat":43.23146,"lon":5.43713,"is_reserved":false,"is_disabled":false,"rental_uris":{"android":"levelo://app?vid=cdaafd2d-0da1-4fac-9881-15c66a7cd7c0","ios":"levelo://app?vid=cdaafd2d-0da1-4fac-9881-15c66a7cd7c0"},"vehicle_type_id":"4","last_reported":1732281539,"current_range_meters":38800,"station_id":"ce4bhmp2rcd13ifvqgog","pricing_plan_id":"cebpf4jnsgd1na2vs0mg"},{"bike_id":"c1024338-3a35-4c5d-8621-6f53a0a7a406","system_id":"levelo_inurba_marseille","lat":43.336669,"lon":5.39812,"is_reserved":false,"is_disabled":true,"rental_uris":{"android":"levelo://app?vid=c1024338-3a35-4c5d-8621-6f53a0a7a406","ios":"levelo://app?vid=c1024338-3a35-4c5d-8621-6f53a0a7a406"},"vehicle_type_id":"4","last_reported":1732281539,"current_range_meters":33200,"station_id":"","pricing_plan_id":"cebpf4jnsgd1na2vs0mg"},{"bike_id":"b03f69f7-b71a-4f20-b004-cac08d3d55e5","system_id":"levelo_inurba_marseille","lat":43.32362,"lon":5.38883,"is_reserved":false,"is_disabled":false,"rental_uris":{"android":"levelo://app?vid=b03f69f7-b71a-4f20-b004-cac08d3d55e5","ios":"levelo://app?vid=b03f69f7-b71a-4f20-b004-cac08d3d55e5"},"vehicle_type_id":"4","last_reported":1732281539,"current_range_meters":29600,"station_id":"ce4bhqp2rcd13ifvqhog","pricing_plan_id":"cebpf4jnsgd1na2vs0mg"},{"bike_id":"8d5ad0a8-268e-4afd-be61-7919f93826c7","system_id":"levelo_inurba_marseille","lat":43.29915,"lon":5.37471,"is_reserved":false,"is_disabled":false,"rental_uris":{"android":"levelo://app?vid=8d5ad0a8-268e-4afd-be61-7919f93826c7","ios":"levelo://app?vid=8d5ad0a8-268e-4afd-be61-7919f93826c7"},"vehicle_type_id":"4","last_reported":1732281539,"current_range_meters":39200,"station_id":"ce4bgjh2rcd13ifvqbg0","pricing_plan_id":"cebpf4jnsgd1na2vs0mg"},{"bike_id":"3e51505c-66c2-4920-b827-cea103a2ac7b","system_id":"levelo_inurba_marseille","lat":43.32364,"lon":5.38881,"is_reserved":false,"is_disabled":false,"rental_uris":{"android":"levelo://app?vid=3e51505c-66c2-4920-b827-cea103a2ac7b","ios":"levelo://app?vid=3e51505c-66c2-4920-b827-cea103a2ac7b"},"vehicle_type_id":"4","last_reported":1732281539,"current_range_meters":38800,"station_id":"ce4bhqp2rcd13ifvqhog","pricing_plan_id":"cebpf4jnsgd1na2vs0mg"},{"bike_id":"1ef17f0c-9df8-40aa-bad8-8fe504107889","system_id":"levelo_inurba_marseille","lat":43.31759,"lon":5.39015,"is_reserved":false,"is_disabled":false,"rental_uris":{"android":"levelo://app?vid=1ef17f0c-9df8-40aa-bad8-8fe504107889","ios":"levelo://app?vid=1ef17f0c-9df8-40aa-bad8-8fe504107889"},"vehicle_type_id":"4","last_reported":1732281539,"current_range_meters":39200,"station_id":"ce4bhqp2rcd13ifvqhng","pricing_plan_id":"cebpf4jnsgd1na2vs0mg"},{"bike_id":"97255b4b-0ec3-47eb-8f50-eb53ac1e28f5","system_id":"levelo_inurba_marseille","lat":43.27172,"lon":5.40973,"is_reserved":false,"is_disabled":false,"rental_uris":{"android":"levelo://app?vid=97255b4b-0ec3-47eb-8f50-eb53ac1e28f5","ios":"levelo://app?vid=97255b4b-0ec3-47eb-8f50-eb53ac1e28f5"},"vehicle_type_id":"4","last_reported":1732281539,"current_range_meters":38000,"station_id":"ce4bhl12rcd13ifvqgf0","pricing_plan_id":"cebpf4jnsgd1na2vs0mg"},{"bike_id":"7c1e7c26-3771-46e1-8efd-ca5fe31668df","system_id":"levelo_inurba_marseille","lat":43.29781,"lon":5.36986,"is_reserved":false,"is_disabled":false,"rental_uris":{"android":"levelo://app?vid=7c1e7c26-3771-46e1-8efd-ca5fe31668df","ios":"levelo://app?vid=7c1e7c26-3771-46e1-8efd-ca5fe31668df"},"vehicle_type_id":"4","last_reported":1732281539,"current_range_meters":31200,"station_id":"","pricing_plan_id":"cebpf4jnsgd1na2vs0mg"},{"bike_id":"079f3699-b1ef-4c18-b504-2e02d2270464","system_id":"levelo_inurba_marseille","lat":43.2842,"lon":5.34986,"is_reserved":false,"is_disabled":false,"rental_uris":{"android":"levelo://app?vid=079f3699-b1ef-4c18-b504-2e02d2270464","ios":"levelo://app?vid=079f3699-b1ef-4c18-b504-2e02d2270464"},"vehicle_type_id":"4","last_reported":1732281539,"current_range_meters":2800,"station_id":"ce4bhbh2rcd13ifvqepg","pricing_plan_id":"cebpf4jnsgd1na2vs0mg"},{"bike_id":"7cd6f2ab-9cbf-4cfa-8082-7bdecaf781d1","system_id":"levelo_inurba_marseille","lat":43.2992,"lon":5.37485,"is_reserved":false,"is_disabled":false,"rental_uris":{"android":"levelo://app?vid=7cd6f2ab-9cbf-4cfa-8082-7bdecaf781d1","ios":"levelo://app?vid=7cd6f2ab-9cbf-4cfa-8082-7bdecaf781d1"},"vehicle_type_id":"4","last_reported":1732281539,"current_range_meters":34800,"station_id":"ce4bgjh2rcd13ifvqbg0","pricing_plan_id":"cebpf4jnsgd1na2vs0mg"},{"bike_id":"04ad7293-a5d1-4441-9439-04975e56e94d","system_id":"levelo_inurba_marseille","lat":43.30256,"lon":5.40073,"is_reserved":false,"is_disabled":false,"rental_uris":{"android":"levelo://app?vid=04ad7293-a5d1-4441-9439-04975e56e94d","ios":"levelo://app?vid=04ad7293-a5d1-4441-9439-04975e56e94d"},"vehicle_type_id":"4","last_reported":1732281539,"current_range_meters":28800,"station_id":"ce4bgvh2rcd13ifvqcs0","pricing_plan_id":"cebpf4jnsgd1na2vs0mg"},{"bike_id":"02a49d50-9437-41e2-b12e-3080393295a0","system_id":"levelo_inurba_marseille","lat":43.29614,"lon":5.37732,"is_reserved":false,"is_disabled":false,"rental_uris":{"android":"levelo://app?vid=02a49d50-9437-41e2-b12e-3080393295a0","ios":"levelo://app?vid=02a49d50-9437-41e2-b12e-3080393295a0"},"vehicle_type_id":"4","last_reported":1732281539,"current_range_meters":25600,"station_id":"ce4bgi92rcd13ifvqb90","pricing_plan_id":"cebpf4jnsgd1na2vs0mg"},{"bike_id":"4bdef8b5-d12f-41dc-8fcc-abf7411704c1","system_id":"levelo_inurba_marseille","lat":43.2318,"lon":5.39996,"is_reserved":false,"is_disabled":true,"rental_uris":{"android":"levelo://app?vid=4bdef8b5-d12f-41dc-8fcc-abf7411704c1","ios":"levelo://app?vid=4bdef8b5-d12f-41dc-8fcc-abf7411704c1"},"vehicle_type_id":"4","last_reported":1732281539,"current_range_meters":1600,"station_id":"ce4bhn12rcd13ifvqgqg","pricing_plan_id":"cebpf4jnsgd1na2vs0mg"},{"bike_id":"fa1a8651-ebdc-41fa-a695-9af53c3d83d5","system_id":"levelo_inurba_marseille","lat":43.29023,"lon":5.38645,"is_reserved":false,"is_disabled":true,"rental_uris":{"android":"levelo://app?vid=fa1a8651-ebdc-41fa-a695-9af53c3d83d5","ios":"levelo://app?vid=fa1a8651-ebdc-41fa-a695-9af53c3d83d5"},"vehicle_type_id":"4","last_reported":1732281539,"current_range_meters":22400,"station_id":"ce4bh4p2rcd13ifvqe0g","pricing_plan_id":"cebpf4jnsgd1na2vs0mg"},{"bike_id":"e634b525-4bbb-4293-b7bd-453bf0616a91","system_id":"levelo_inurba_marseille","lat":43.28412,"lon":5.34977,"is_reserved":false,"is_disabled":true,"rental_uris":{"android":"levelo://app?vid=e634b525-4bbb-4293-b7bd-453bf0616a91","ios":"levelo://app?vid=e634b525-4bbb-4293-b7bd-453bf0616a91"},"vehicle_type_id":"4","last_reported":1732281539,"current_range_meters":0,"station_id":"","pricing_plan_id":"cebpf4jnsgd1na2vs0mg"},{"bike_id":"90feb255-197f-4765-a839-6d52754f7004","system_id":"levelo_inurba_marseille","lat":43.26565,"lon":5.39011,"is_reserved":false,"is_disabled":false,"rental_uris":{"android":"levelo://app?vid=90feb255-197f-4765-a839-6d52754f7004","ios":"levelo://app?vid=90feb255-197f-4765-a839-6d52754f7004"},"vehicle_type_id":"4","last_reported":1732281539,"current_range_meters":27600,"station_id":"ce4bhe12rcd13ifvqf30","pricing_plan_id":"cebpf4jnsgd1na2vs0mg"},{"bike_id":"26dbb135-9d0a-46f2-8550-e99fb4c2e042","system_id":"levelo_inurba_marseille","lat":43.27201,"lon":5.39198,"is_reserved":false,"is_disabled":true,"rental_uris":{"android":"levelo://app?vid=26dbb135-9d0a-46f2-8550-e99fb4c2e042","ios":"levelo://app?vid=26dbb135-9d0a-46f2-8550-e99fb4c2e042"},"vehicle_type_id":"4","last_reported":1732281539,"current_range_meters":1600,"station_id":"ce4bhhp2rcd13ifvqfm0","pricing_plan_id":"cebpf4jnsgd1na2vs0mg"},{"bike_id":"11c5ed7c-dad2-4605-8db8-4918d0818190","system_id":"levelo_inurba_marseille","lat":43.31726,"lon":5.42395,"is_reserved":false,"is_disabled":false,"rental_uris":{"android":"levelo://app?vid=11c5ed7c-dad2-4605-8db8-4918d0818190","ios":"levelo://app?vid=11c5ed7c-dad2-4605-8db8-4918d0818190"},"vehicle_type_id":"4","last_reported":1732281539,"current_range_meters":38800,"station_id":"ce4bhp92rcd13ifvqhbg","pricing_plan_id":"cebpf4jnsgd1na2vs0mg"},{"bike_id":"e24fd391-a1f3-4666-829d-87b9b33b42ba","system_id":"levelo_inurba_marseille","lat":43.25117,"lon":5.40318,"is_reserved":false,"is_disabled":false,"rental_uris":{"android":"levelo://app?vid=e24fd391-a1f3-4666-829d-87b9b33b42ba","ios":"levelo://app?vid=e24fd391-a1f3-4666-829d-87b9b33b42ba"},"vehicle_type_id":"4","last_reported":1732281539,"current_range_meters":8000,"station_id":"ce4bhlh2rcd13ifvqgig","pricing_plan_id":"cebpf4jnsgd1na2vs0mg"},{"bike_id":"feee986f-84b7-40c4-9fea-2b73acf9a14b","system_id":"levelo_inurba_marseille","lat":43.29167,"lon":5.37152,"is_reserved":false,"is_disabled":false,"rental_uris":{"android":"levelo://app?vid=feee986f-84b7-40c4-9fea-2b73acf9a14b","ios":"levelo://app?vid=feee986f-84b7-40c4-9fea-2b73acf9a14b"},"vehicle_type_id":"4","last_reported":1732281539,"current_range_meters":30000,"station_id":"ce4bha92rcd13ifvqeh0","pricing_plan_id":"cebpf4jnsgd1na2vs0mg"},{"bike_id":"a80949db-b017-4762-ad8f-619c35468b47","system_id":"levelo_inurba_marseille","lat":43.30589,"lon":5.39354,"is_reserved":false,"is_disabled":false,"rental_uris":{"android":"levelo://app?vid=a80949db-b017-4762-ad8f-619c35468b47","ios":"levelo://app?vid=a80949db-b017-4762-ad8f-619c35468b47"},"vehicle_type_id":"4","last_reported":1732281539,"current_range_meters":22400,"station_id":"ce4bh0p2rcd13ifvqd80","pricing_plan_id":"cebpf4jnsgd1na2vs0mg"},{"bike_id":"2dceefe8-4f5a-4bfa-abc3-e9142325c581","system_id":"levelo_inurba_marseille","lat":43.28351,"lon":5.38111,"is_reserved":false,"is_disabled":true,"rental_uris":{"android":"levelo://app?vid=2dceefe8-4f5a-4bfa-abc3-e9142325c581","ios":"levelo://app?vid=2dceefe8-4f5a-4bfa-abc3-e9142325c581"},"vehicle_type_id":"4","last_reported":1732281539,"current_range_meters":0,"station_id":"ce4bh412rcd13ifvqdr0","pricing_plan_id":"cebpf4jnsgd1na2vs0mg"},{"bike_id":"3193222d-584b-4642-a1d8-0c04b2309736","system_id":"levelo_inurba_marseille","lat":43.33727,"lon":5.39189,"is_reserved":false,"is_disabled":false,"rental_uris":{"android":"levelo://app?vid=3193222d-584b-4642-a1d8-0c04b2309736","ios":"levelo://app?vid=3193222d-584b-4642-a1d8-0c04b2309736"},"vehicle_type_id":"4","last_reported":1732281539,"current_range_meters":36800,"station_id":"ce4bhr92rcd13ifvqhsg","pricing_plan_id":"cebpf4jnsgd1na2vs0mg"},{"bike_id":"ff913505-ef09-401c-a3e2-72e72522bdc4","system_id":"levelo_inurba_marseille","lat":43.27555,"lon":5.38423,"is_reserved":false,"is_disabled":true,"rental_uris":{"android":"levelo://app?vid=ff913505-ef09-401c-a3e2-72e72522bdc4","ios":"levelo://app?vid=ff913505-ef09-401c-a3e2-72e72522bdc4"},"vehicle_type_id":"4","last_reported":1732281539,"current_range_meters":19600,"station_id":"ce4bhh92rcd13ifvqfi0","pricing_plan_id":"cebpf4jnsgd1na2vs0mg"},{"bike_id":"581d2ef0-341e-4d2e-aa56-04a8ac8af4f6","system_id":"levelo_inurba_marseille","lat":43.33022,"lon":5.39045,"is_reserved":false,"is_disabled":false,"rental_uris":{"android":"levelo://app?vid=581d2ef0-341e-4d2e-aa56-04a8ac8af4f6","ios":"levelo://app?vid=581d2ef0-341e-4d2e-aa56-04a8ac8af4f6"},"vehicle_type_id":"4","last_reported":1732281539,"current_range_meters":38800,"station_id":"ce4bhr92rcd13ifvqhrg","pricing_plan_id":"cebpf4jnsgd1na2vs0mg"},{"bike_id":"43defcad-8b03-4c0e-921a-e822a61aadd6","system_id":"levelo_inurba_marseille","lat":43.29979,"lon":5.37184,"is_reserved":false,"is_disabled":false,"rental_uris":{"android":"levelo://app?vid=43defcad-8b03-4c0e-921a-e822a61aadd6","ios":"levelo://app?vid=43defcad-8b03-4c0e-921a-e822a61aadd6"},"vehicle_type_id":"4","last_reported":1732281539,"current_range_meters":22400,"station_id":"ce4bgr92rcd13ifvqc7g","pricing_plan_id":"cebpf4jnsgd1na2vs0mg"},{"bike_id":"1fe36207-a189-42b7-a2ae-a1bed57e3dd0","system_id":"levelo_inurba_marseille","lat":43.2603,"lon":5.37543,"is_reserved":false,"is_disabled":false,"rental_uris":{"android":"levelo://app?vid=1fe36207-a189-42b7-a2ae-a1bed57e3dd0","ios":"levelo://app?vid=1fe36207-a189-42b7-a2ae-a1bed57e3dd0"},"vehicle_type_id":"4","last_reported":1732281539,"current_range_meters":19200,"station_id":"ce4bhgh2rcd13ifvqfa0","pricing_plan_id":"cebpf4jnsgd1na2vs0mg"},{"bike_id":"4ecdaf55-87e7-42ea-ac0e-a41de2a6b49d","system_id":"levelo_inurba_marseille","lat":43.31997,"lon":5.38162,"is_reserved":false,"is_disabled":false,"rental_uris":{"android":"levelo://app?vid=4ecdaf55-87e7-42ea-ac0e-a41de2a6b49d","ios":"levelo://app?vid=4ecdaf55-87e7-42ea-ac0e-a41de2a6b49d"},"vehicle_type_id":"4","last_reported":1732281539,"current_range_meters":27600,"station_id":"ce4bhr12rcd13ifvqhpg","pricing_plan_id":"cebpf4jnsgd1na2vs0mg"},{"bike_id":"51ce6112-ca51-4a26-8335-063dea88ee84","system_id":"levelo_inurba_marseille","lat":43.26061,"lon":5.39398,"is_reserved":false,"is_disabled":false,"rental_uris":{"android":"levelo://app?vid=51ce6112-ca51-4a26-8335-063dea88ee84","ios":"levelo://app?vid=51ce6112-ca51-4a26-8335-063dea88ee84"},"vehicle_type_id":"4","last_reported":1732281539,"current_range_meters":11600,"station_id":"ce4bhh92rcd13ifvqfj0","pricing_plan_id":"cebpf4jnsgd1na2vs0mg"},{"bike_id":"473a1fa1-9b9a-4542-94f3-41f27e754933","system_id":"levelo_inurba_marseille","lat":43.30591,"lon":5.39352,"is_reserved":false,"is_disabled":false,"rental_uris":{"android":"levelo://app?vid=473a1fa1-9b9a-4542-94f3-41f27e754933","ios":"levelo://app?vid=473a1fa1-9b9a-4542-94f3-41f27e754933"},"vehicle_type_id":"4","last_reported":1732281539,"current_range_meters":16400,"station_id":"ce4bh0p2rcd13ifvqd80","pricing_plan_id":"cebpf4jnsgd1na2vs0mg"},{"bike_id":"fc0b1b0c-9a21-495d-be52-0d91f5503bfa","system_id":"levelo_inurba_marseille","lat":43.22933,"lon":5.35376,"is_reserved":false,"is_disabled":false,"rental_uris":{"android":"levelo://app?vid=fc0b1b0c-9a21-495d-be52-0d91f5503bfa","ios":"levelo://app?vid=fc0b1b0c-9a21-495d-be52-0d91f5503bfa"},"vehicle_type_id":"4","last_reported":1732281539,"current_range_meters":26000,"station_id":"cpo3532slgdg3j2ikp40","pricing_plan_id":"cebpf4jnsgd1na2vs0mg"},{"bike_id":"004ee38a-776a-4c3e-9a6a-201a1afdfc78","system_id":"levelo_inurba_marseille","lat":43.30114,"lon":5.39848,"is_reserved":false,"is_disabled":false,"rental_uris":{"android":"levelo://app?vid=004ee38a-776a-4c3e-9a6a-201a1afdfc78","ios":"levelo://app?vid=004ee38a-776a-4c3e-9a6a-201a1afdfc78"},"vehicle_type_id":"4","last_reported":1732281539,"current_range_meters":32800,"station_id":"ce4bh0h2rcd13ifvqd40","pricing_plan_id":"cebpf4jnsgd1na2vs0mg"},{"bike_id":"3b1e8ea7-6120-47df-96c3-795cb367684b","system_id":"levelo_inurba_marseille","lat":43.28945,"lon":5.36405,"is_reserved":false,"is_disabled":false,"rental_uris":{"android":"levelo://app?vid=3b1e8ea7-6120-47df-96c3-795cb367684b","ios":"levelo://app?vid=3b1e8ea7-6120-47df-96c3-795cb367684b"},"vehicle_type_id":"4","last_reported":1732281539,"current_range_meters":22400,"station_id":"ce4bhc92rcd13ifvqetg","pricing_plan_id":"cebpf4jnsgd1na2vs0mg"},{"bike_id":"7c78cf63-0dad-4e44-9a0c-8ea4a46026ae","system_id":"levelo_inurba_marseille","lat":43.30952,"lon":5.39042,"is_reserved":false,"is_disabled":false,"rental_uris":{"android":"levelo://app?vid=7c78cf63-0dad-4e44-9a0c-8ea4a46026ae","ios":"levelo://app?vid=7c78cf63-0dad-4e44-9a0c-8ea4a46026ae"},"vehicle_type_id":"4","last_reported":1732281539,"current_range_meters":26000,"station_id":"ce4bgup2rcd13ifvqco0","pricing_plan_id":"cebpf4jnsgd1na2vs0mg"},{"bike_id":"3ca12540-57e3-43d9-92c6-444113d085ff","system_id":"levelo_inurba_marseille","lat":43.2657,"lon":5.39007,"is_reserved":false,"is_disabled":false,"rental_uris":{"android":"levelo://app?vid=3ca12540-57e3-43d9-92c6-444113d085ff","ios":"levelo://app?vid=3ca12540-57e3-43d9-92c6-444113d085ff"},"vehicle_type_id":"4","last_reported":1732281539,"current_range_meters":17600,"station_id":"ce4bhe12rcd13ifvqf30","pricing_plan_id":"cebpf4jnsgd1na2vs0mg"},{"bike_id":"35799ffd-e120-47ae-ba81-5038ad1d78ad","system_id":"levelo_inurba_marseille","lat":43.26677,"lon":5.38263,"is_reserved":false,"is_disabled":false,"rental_uris":{"android":"levelo://app?vid=35799ffd-e120-47ae-ba81-5038ad1d78ad","ios":"levelo://app?vid=35799ffd-e120-47ae-ba81-5038ad1d78ad"},"vehicle_type_id":"4","last_reported":1732281539,"current_range_meters":39200,"station_id":"ce4bhg92rcd13ifvqf90","pricing_plan_id":"cebpf4jnsgd1na2vs0mg"},{"bike_id":"a51e82b7-997c-467d-8058-02f504d77c87","system_id":"levelo_inurba_marseille","lat":43.25,"lon":5.38934,"is_reserved":false,"is_disabled":false,"rental_uris":{"android":"levelo://app?vid=a51e82b7-997c-467d-8058-02f504d77c87","ios":"levelo://app?vid=a51e82b7-997c-467d-8058-02f504d77c87"},"vehicle_type_id":"4","last_reported":1732281539,"current_range_meters":17600,"station_id":"ce4bhgp2rcd13ifvqfd0","pricing_plan_id":"cebpf4jnsgd1na2vs0mg"},{"bike_id":"7251622e-73a9-419f-947b-70fd7086d2b8","system_id":"levelo_inurba_marseille","lat":43.29842,"lon":5.36277,"is_reserved":false,"is_disabled":false,"rental_uris":{"android":"levelo://app?vid=7251622e-73a9-419f-947b-70fd7086d2b8","ios":"levelo://app?vid=7251622e-73a9-419f-947b-70fd7086d2b8"},"vehicle_type_id":"4","last_reported":1732281539,"current_range_meters":23200,"station_id":"","pricing_plan_id":"cebpf4jnsgd1na2vs0mg"},{"bike_id":"9d76029c-8202-41ad-a5e8-699cb6009143","system_id":"levelo_inurba_marseille","lat":43.23144,"lon":5.43723,"is_reserved":false,"is_disabled":false,"rental_uris":{"android":"levelo://app?vid=9d76029c-8202-41ad-a5e8-699cb6009143","ios":"levelo://app?vid=9d76029c-8202-41ad-a5e8-699cb6009143"},"vehicle_type_id":"4","last_reported":1732281539,"current_range_meters":32800,"station_id":"ce4bhmp2rcd13ifvqgog","pricing_plan_id":"cebpf4jnsgd1na2vs0mg"},{"bike_id":"b269909d-c547-4fb3-872c-41d954f4e794","system_id":"levelo_inurba_marseille","lat":43.29912,"lon":5.37472,"is_reserved":false,"is_disabled":false,"rental_uris":{"android":"levelo://app?vid=b269909d-c547-4fb3-872c-41d954f4e794","ios":"levelo://app?vid=b269909d-c547-4fb3-872c-41d954f4e794"},"vehicle_type_id":"4","last_reported":1732281539,"current_range_meters":24800,"station_id":"ce4bgjh2rcd13ifvqbg0","pricing_plan_id":"cebpf4jnsgd1na2vs0mg"},{"bike_id":"a0d88b30-8e57-48c2-9f80-51c667457f90","system_id":"levelo_inurba_marseille","lat":43.30886,"lon":5.37197,"is_reserved":false,"is_disabled":false,"rental_uris":{"android":"levelo://app?vid=a0d88b30-8e57-48c2-9f80-51c667457f90","ios":"levelo://app?vid=a0d88b30-8e57-48c2-9f80-51c667457f90"},"vehicle_type_id":"4","last_reported":1732281539,"current_range_meters":15200,"station_id":"ce4bguh2rcd13ifvqckg","pricing_plan_id":"cebpf4jnsgd1na2vs0mg"},{"bike_id":"a9df343d-e713-4693-862f-de8bfd7d29e2","system_id":"levelo_inurba_marseille","lat":43.28702,"lon":5.3792,"is_reserved":false,"is_disabled":false,"rental_uris":{"android":"levelo://app?vid=a9df343d-e713-4693-862f-de8bfd7d29e2","ios":"levelo://app?vid=a9df343d-e713-4693-862f-de8bfd7d29e2"},"vehicle_type_id":"4","last_reported":1732281539,"current_range_meters":30000,"station_id":"ce4bh9p2rcd13ifvqec0","pricing_plan_id":"cebpf4jnsgd1na2vs0mg"},{"bike_id":"39f23ee6-adb5-44a3-ac63-a9369e373bc7","system_id":"levelo_inurba_marseille","lat":43.26932,"lon":5.38917,"is_reserved":false,"is_disabled":false,"rental_uris":{"android":"levelo://app?vid=39f23ee6-adb5-44a3-ac63-a9369e373bc7","ios":"levelo://app?vid=39f23ee6-adb5-44a3-ac63-a9369e373bc7"},"vehicle_type_id":"4","last_reported":1732281539,"current_range_meters":26000,"station_id":"ce4bhhh2rcd13ifvqfl0","pricing_plan_id":"cebpf4jnsgd1na2vs0mg"},{"bike_id":"2ce56eac-607f-4aee-97f1-1efe9a148076","system_id":"levelo_inurba_marseille","lat":43.22929,"lon":5.35373,"is_reserved":false,"is_disabled":false,"rental_uris":{"android":"levelo://app?vid=2ce56eac-607f-4aee-97f1-1efe9a148076","ios":"levelo://app?vid=2ce56eac-607f-4aee-97f1-1efe9a148076"},"vehicle_type_id":"4","last_reported":1732281539,"current_range_meters":16000,"station_id":"cpo3532slgdg3j2ikp40","pricing_plan_id":"cebpf4jnsgd1na2vs0mg"},{"bike_id":"3c5d0254-2542-44e0-aa08-1a8753e937a8","system_id":"levelo_inurba_marseille","lat":43.26682,"lon":5.38274,"is_reserved":false,"is_disabled":true,"rental_uris":{"android":"levelo://app?vid=3c5d0254-2542-44e0-aa08-1a8753e937a8","ios":"levelo://app?vid=3c5d0254-2542-44e0-aa08-1a8753e937a8"},"vehicle_type_id":"4","last_reported":1732281539,"current_range_meters":38800,"station_id":"ce4bhg92rcd13ifvqf90","pricing_plan_id":"cebpf4jnsgd1na2vs0mg"},{"bike_id":"596ac66f-0a5a-4a8a-a464-f602f8d9f366","system_id":"levelo_inurba_marseille","lat":43.32666,"lon":5.4099,"is_reserved":false,"is_disabled":true,"rental_uris":{"android":"levelo://app?vid=596ac66f-0a5a-4a8a-a464-f602f8d9f366","ios":"levelo://app?vid=596ac66f-0a5a-4a8a-a464-f602f8d9f366"},"vehicle_type_id":"4","last_reported":1732281539,"current_range_meters":0,"station_id":"ce4bhpp2rcd13ifvqhgg","pricing_plan_id":"cebpf4jnsgd1na2vs0mg"},{"bike_id":"faaad382-3400-4ce8-9a74-6bac7f7b3489","system_id":"levelo_inurba_marseille","lat":43.25932,"lon":5.4091,"is_reserved":false,"is_disabled":false,"rental_uris":{"android":"levelo://app?vid=faaad382-3400-4ce8-9a74-6bac7f7b3489","ios":"levelo://app?vid=faaad382-3400-4ce8-9a74-6bac7f7b3489"},"vehicle_type_id":"4","last_reported":1732281539,"current_range_meters":18000,"station_id":"ce4bhm92rcd13ifvqglg","pricing_plan_id":"cebpf4jnsgd1na2vs0mg"},{"bike_id":"2dfad253-32b6-47af-be05-9d6053a684d1","system_id":"levelo_inurba_marseille","lat":43.23965,"lon":5.36631,"is_reserved":false,"is_disabled":false,"rental_uris":{"android":"levelo://app?vid=2dfad253-32b6-47af-be05-9d6053a684d1","ios":"levelo://app?vid=2dfad253-32b6-47af-be05-9d6053a684d1"},"vehicle_type_id":"4","last_reported":1732281539,"current_range_meters":38800,"station_id":"ce4bhi12rcd13ifvqfp0","pricing_plan_id":"cebpf4jnsgd1na2vs0mg"},{"bike_id":"1904e4d6-e1e0-456f-9800-8b0e0e7107b4","system_id":"levelo_inurba_marseille","lat":43.23152,"lon":5.43705,"is_reserved":false,"is_disabled":false,"rental_uris":{"android":"levelo://app?vid=1904e4d6-e1e0-456f-9800-8b0e0e7107b4","ios":"levelo://app?vid=1904e4d6-e1e0-456f-9800-8b0e0e7107b4"},"vehicle_type_id":"4","last_reported":1732281539,"current_range_meters":38800,"station_id":"ce4bhmp2rcd13ifvqgog","pricing_plan_id":"cebpf4jnsgd1na2vs0mg"},{"bike_id":"756793dd-ed91-4b87-b0a0-f365513417b0","system_id":"levelo_inurba_marseille","lat":43.30138,"lon":5.37413,"is_reserved":false,"is_disabled":false,"rental_uris":{"android":"levelo://app?vid=756793dd-ed91-4b87-b0a0-f365513417b0","ios":"levelo://app?vid=756793dd-ed91-4b87-b0a0-f365513417b0"},"vehicle_type_id":"4","last_reported":1732281539,"current_range_meters":26800,"station_id":"ce4bgs92rcd13ifvqcc0","pricing_plan_id":"cebpf4jnsgd1na2vs0mg"},{"bike_id":"d2e19d8a-f37e-4da7-8ec2-a9c0c1d391a0","system_id":"levelo_inurba_marseille","lat":43.30212,"lon":5.39462,"is_reserved":false,"is_disabled":false,"rental_uris":{"android":"levelo://app?vid=d2e19d8a-f37e-4da7-8ec2-a9c0c1d391a0","ios":"levelo://app?vid=d2e19d8a-f37e-4da7-8ec2-a9c0c1d391a0"},"vehicle_type_id":"4","last_reported":1732281539,"current_range_meters":28800,"station_id":"ce4bh0p2rcd13ifvqd70","pricing_plan_id":"cebpf4jnsgd1na2vs0mg"},{"bike_id":"1eff5ce5-2d56-4465-a12c-60db9ec2175a","system_id":"levelo_inurba_marseille","lat":43.22926,"lon":5.35375,"is_reserved":false,"is_disabled":false,"rental_uris":{"android":"levelo://app?vid=1eff5ce5-2d56-4465-a12c-60db9ec2175a","ios":"levelo://app?vid=1eff5ce5-2d56-4465-a12c-60db9ec2175a"},"vehicle_type_id":"4","last_reported":1732281539,"current_range_meters":4800,"station_id":"cpo3532slgdg3j2ikp40","pricing_plan_id":"cebpf4jnsgd1na2vs0mg"},{"bike_id":"dc815649-e3e3-48aa-b0fd-022cdb8ac58a","system_id":"levelo_inurba_marseille","lat":43.32368,"lon":5.38882,"is_reserved":false,"is_disabled":false,"rental_uris":{"android":"levelo://app?vid=dc815649-e3e3-48aa-b0fd-022cdb8ac58a","ios":"levelo://app?vid=dc815649-e3e3-48aa-b0fd-022cdb8ac58a"},"vehicle_type_id":"4","last_reported":1732281539,"current_range_meters":36400,"station_id":"ce4bhqp2rcd13ifvqhog","pricing_plan_id":"cebpf4jnsgd1na2vs0mg"},{"bike_id":"8a33aec7-5e52-49ba-997a-be5b18b81dde","system_id":"levelo_inurba_marseille","lat":43.29934,"lon":5.36557,"is_reserved":false,"is_disabled":false,"rental_uris":{"android":"levelo://app?vid=8a33aec7-5e52-49ba-997a-be5b18b81dde","ios":"levelo://app?vid=8a33aec7-5e52-49ba-997a-be5b18b81dde"},"vehicle_type_id":"4","last_reported":1732281539,"current_range_meters":39200,"station_id":"ce4bgm92rcd13ifvqbr0","pricing_plan_id":"cebpf4jnsgd1na2vs0mg"},{"bike_id":"0c84fbc7-10dd-49cb-b6a4-1d6e3aee5b7e","system_id":"levelo_inurba_marseille","lat":43.28843,"lon":5.39331,"is_reserved":false,"is_disabled":false,"rental_uris":{"android":"levelo://app?vid=0c84fbc7-10dd-49cb-b6a4-1d6e3aee5b7e","ios":"levelo://app?vid=0c84fbc7-10dd-49cb-b6a4-1d6e3aee5b7e"},"vehicle_type_id":"4","last_reported":1732281539,"current_range_meters":8800,"station_id":"ce4bh2p2rcd13ifvqdi0","pricing_plan_id":"cebpf4jnsgd1na2vs0mg"},{"bike_id":"22bf3d87-dbb2-41f0-ae52-3719720b6a9d","system_id":"levelo_inurba_marseille","lat":43.26953,"lon":5.38633,"is_reserved":false,"is_disabled":false,"rental_uris":{"android":"levelo://app?vid=22bf3d87-dbb2-41f0-ae52-3719720b6a9d","ios":"levelo://app?vid=22bf3d87-dbb2-41f0-ae52-3719720b6a9d"},"vehicle_type_id":"4","last_reported":1732281539,"current_range_meters":24400,"station_id":"ce4bhh92rcd13ifvqfh0","pricing_plan_id":"cebpf4jnsgd1na2vs0mg"},{"bike_id":"0b563b8a-ac2f-4b93-a09c-c752cb27938e","system_id":"levelo_inurba_marseille","lat":43.30242,"lon":5.40066,"is_reserved":false,"is_disabled":false,"rental_uris":{"android":"levelo://app?vid=0b563b8a-ac2f-4b93-a09c-c752cb27938e","ios":"levelo://app?vid=0b563b8a-ac2f-4b93-a09c-c752cb27938e"},"vehicle_type_id":"4","last_reported":1732281539,"current_range_meters":19600,"station_id":"ce4bgvh2rcd13ifvqcs0","pricing_plan_id":"cebpf4jnsgd1na2vs0mg"},{"bike_id":"e44eb167-2ebb-4217-a153-5324047add45","system_id":"levelo_inurba_marseille","lat":43.29299,"lon":5.37172,"is_reserved":false,"is_disabled":false,"rental_uris":{"android":"levelo://app?vid=e44eb167-2ebb-4217-a153-5324047add45","ios":"levelo://app?vid=e44eb167-2ebb-4217-a153-5324047add45"},"vehicle_type_id":"4","last_reported":1732281539,"current_range_meters":34000,"station_id":"ce4bgh92rcd13ifvqb40","pricing_plan_id":"cebpf4jnsgd1na2vs0mg"},{"bike_id":"71e4ac0f-b4de-43ab-9031-dbba7439a922","system_id":"levelo_inurba_marseille","lat":43.29038,"lon":5.39962,"is_reserved":false,"is_disabled":false,"rental_uris":{"android":"levelo://app?vid=71e4ac0f-b4de-43ab-9031-dbba7439a922","ios":"levelo://app?vid=71e4ac0f-b4de-43ab-9031-dbba7439a922"},"vehicle_type_id":"4","last_reported":1732281539,"current_range_meters":38800,"station_id":"ce4bh392rcd13ifvqdm0","pricing_plan_id":"cebpf4jnsgd1na2vs0mg"},{"bike_id":"813e5bd9-94fc-4cb2-aac6-3eed0549e563","system_id":"levelo_inurba_marseille","lat":43.24082,"lon":5.37754,"is_reserved":false,"is_disabled":false,"rental_uris":{"android":"levelo://app?vid=813e5bd9-94fc-4cb2-aac6-3eed0549e563","ios":"levelo://app?vid=813e5bd9-94fc-4cb2-aac6-3eed0549e563"},"vehicle_type_id":"4","last_reported":1732281539,"current_range_meters":8800,"station_id":"ce4bhnp2rcd13ifvqgvg","pricing_plan_id":"cebpf4jnsgd1na2vs0mg"},{"bike_id":"f796b412-9140-415f-9f98-4b489dc2b14e","system_id":"levelo_inurba_marseille","lat":43.26943,"lon":5.40252,"is_reserved":false,"is_disabled":false,"rental_uris":{"android":"levelo://app?vid=f796b412-9140-415f-9f98-4b489dc2b14e","ios":"levelo://app?vid=f796b412-9140-415f-9f98-4b489dc2b14e"},"vehicle_type_id":"4","last_reported":1732281539,"current_range_meters":38800,"station_id":"cjm6bp8fraef2m0cb0m0","pricing_plan_id":"cebpf4jnsgd1na2vs0mg"},{"bike_id":"53209ac8-eb4c-44ea-965c-d8ad7615d812","system_id":"levelo_inurba_marseille","lat":43.2972,"lon":5.37687,"is_reserved":false,"is_disabled":false,"rental_uris":{"android":"levelo://app?vid=53209ac8-eb4c-44ea-965c-d8ad7615d812","ios":"levelo://app?vid=53209ac8-eb4c-44ea-965c-d8ad7615d812"},"vehicle_type_id":"4","last_reported":1732281539,"current_range_meters":27200,"station_id":"ce4bgkh2rcd13ifvqbl0","pricing_plan_id":"cebpf4jnsgd1na2vs0mg"},{"bike_id":"75160751-1069-43f1-908c-f8a163732076","system_id":"levelo_inurba_marseille","lat":43.31714,"lon":5.43707,"is_reserved":false,"is_disabled":false,"rental_uris":{"android":"levelo://app?vid=75160751-1069-43f1-908c-f8a163732076","ios":"levelo://app?vid=75160751-1069-43f1-908c-f8a163732076"},"vehicle_type_id":"4","last_reported":1732281539,"current_range_meters":38000,"station_id":"ce4bhp92rcd13ifvqhcg","pricing_plan_id":"cebpf4jnsgd1na2vs0mg"},{"bike_id":"c6f8c5af-9d98-423b-912d-bb5ff4ac7064","system_id":"levelo_inurba_marseille","lat":43.25086,"lon":5.39522,"is_reserved":false,"is_disabled":false,"rental_uris":{"android":"levelo://app?vid=c6f8c5af-9d98-423b-912d-bb5ff4ac7064","ios":"levelo://app?vid=c6f8c5af-9d98-423b-912d-bb5ff4ac7064"},"vehicle_type_id":"4","last_reported":1732281539,"current_range_meters":38800,"station_id":"ce4bhm12rcd13ifvqgkg","pricing_plan_id":"cebpf4jnsgd1na2vs0mg"},{"bike_id":"8e5f7d32-6613-4d7e-b53d-b5ddff5cb6c6","system_id":"levelo_inurba_marseille","lat":43.23962,"lon":5.3663,"is_reserved":false,"is_disabled":false,"rental_uris":{"android":"levelo://app?vid=8e5f7d32-6613-4d7e-b53d-b5ddff5cb6c6","ios":"levelo://app?vid=8e5f7d32-6613-4d7e-b53d-b5ddff5cb6c6"},"vehicle_type_id":"4","last_reported":1732281539,"current_range_meters":39200,"station_id":"ce4bhi12rcd13ifvqfp0","pricing_plan_id":"cebpf4jnsgd1na2vs0mg"},{"bike_id":"3b951613-7eae-46b7-bb23-bef931a7b638","system_id":"levelo_inurba_marseille","lat":43.3032,"lon":5.3659,"is_reserved":false,"is_disabled":false,"rental_uris":{"android":"levelo://app?vid=3b951613-7eae-46b7-bb23-bef931a7b638","ios":"levelo://app?vid=3b951613-7eae-46b7-bb23-bef931a7b638"},"vehicle_type_id":"4","last_reported":1732281539,"current_range_meters":16000,"station_id":"","pricing_plan_id":"cebpf4jnsgd1na2vs0mg"},{"bike_id":"9284dc21-9ba2-4669-b8d7-ae7790be6a09","system_id":"levelo_inurba_marseille","lat":43.29842,"lon":5.36268,"is_reserved":false,"is_disabled":false,"rental_uris":{"android":"levelo://app?vid=9284dc21-9ba2-4669-b8d7-ae7790be6a09","ios":"levelo://app?vid=9284dc21-9ba2-4669-b8d7-ae7790be6a09"},"vehicle_type_id":"4","last_reported":1732281539,"current_range_meters":6800,"station_id":"ce4bgpp2rcd13ifvqc3g","pricing_plan_id":"cebpf4jnsgd1na2vs0mg"},{"bike_id":"8bd7943a-d6e3-4b69-8209-bb9f99b76dde","system_id":"levelo_inurba_marseille","lat":43.28849,"lon":5.39996,"is_reserved":false,"is_disabled":true,"rental_uris":{"android":"levelo://app?vid=8bd7943a-d6e3-4b69-8209-bb9f99b76dde","ios":"levelo://app?vid=8bd7943a-d6e3-4b69-8209-bb9f99b76dde"},"vehicle_type_id":"4","last_reported":1732281539,"current_range_meters":13600,"station_id":"","pricing_plan_id":"cebpf4jnsgd1na2vs0mg"},{"bike_id":"448b4be7-3dfe-40e5-b9e4-04aad95d4610","system_id":"levelo_inurba_marseille","lat":43.30147,"lon":5.37407,"is_reserved":false,"is_disabled":false,"rental_uris":{"android":"levelo://app?vid=448b4be7-3dfe-40e5-b9e4-04aad95d4610","ios":"levelo://app?vid=448b4be7-3dfe-40e5-b9e4-04aad95d4610"},"vehicle_type_id":"4","last_reported":1732281539,"current_range_meters":27200,"station_id":"ce4bgs92rcd13ifvqcc0","pricing_plan_id":"cebpf4jnsgd1na2vs0mg"},{"bike_id":"9164788e-a103-4f61-b452-5ed79711e0e5","system_id":"levelo_inurba_marseille","lat":43.31887,"lon":5.40731,"is_reserved":false,"is_disabled":false,"rental_uris":{"android":"levelo://app?vid=9164788e-a103-4f61-b452-5ed79711e0e5","ios":"levelo://app?vid=9164788e-a103-4f61-b452-5ed79711e0e5"},"vehicle_type_id":"4","last_reported":1732281539,"current_range_meters":33200,"station_id":"ce4bhq12rcd13ifvqhig","pricing_plan_id":"cebpf4jnsgd1na2vs0mg"},{"bike_id":"ce9bffba-f5be-4105-a56a-09b80c65f1b3","system_id":"levelo_inurba_marseille","lat":43.29891,"lon":5.38896,"is_reserved":false,"is_disabled":false,"rental_uris":{"android":"levelo://app?vid=ce9bffba-f5be-4105-a56a-09b80c65f1b3","ios":"levelo://app?vid=ce9bffba-f5be-4105-a56a-09b80c65f1b3"},"vehicle_type_id":"4","last_reported":1732281539,"current_range_meters":24400,"station_id":"ce4bh392rcd13ifvqdl0","pricing_plan_id":"cebpf4jnsgd1na2vs0mg"},{"bike_id":"d50fae79-a23b-4b26-bc0c-86364a6bce7e","system_id":"levelo_inurba_marseille","lat":43.31989,"lon":5.38146,"is_reserved":false,"is_disabled":false,"rental_uris":{"android":"levelo://app?vid=d50fae79-a23b-4b26-bc0c-86364a6bce7e","ios":"levelo://app?vid=d50fae79-a23b-4b26-bc0c-86364a6bce7e"},"vehicle_type_id":"4","last_reported":1732281539,"current_range_meters":38800,"station_id":"ce4bhr12rcd13ifvqhpg","pricing_plan_id":"cebpf4jnsgd1na2vs0mg"},{"bike_id":"d7b1826a-716f-4714-897c-e67c79d9b215","system_id":"levelo_inurba_marseille","lat":43.27663,"lon":5.38898,"is_reserved":false,"is_disabled":false,"rental_uris":{"android":"levelo://app?vid=d7b1826a-716f-4714-897c-e67c79d9b215","ios":"levelo://app?vid=d7b1826a-716f-4714-897c-e67c79d9b215"},"vehicle_type_id":"4","last_reported":1732281539,"current_range_meters":35200,"station_id":"ce4bhi12rcd13ifvqfo0","pricing_plan_id":"cebpf4jnsgd1na2vs0mg"},{"bike_id":"8268ca29-cc94-4b05-acb5-36a3938bdc45","system_id":"levelo_inurba_marseille","lat":43.28403,"lon":5.34997,"is_reserved":false,"is_disabled":false,"rental_uris":{"android":"levelo://app?vid=8268ca29-cc94-4b05-acb5-36a3938bdc45","ios":"levelo://app?vid=8268ca29-cc94-4b05-acb5-36a3938bdc45"},"vehicle_type_id":"4","last_reported":1732281539,"current_range_meters":19600,"station_id":"ce4bhbh2rcd13ifvqepg","pricing_plan_id":"cebpf4jnsgd1na2vs0mg"},{"bike_id":"f689ab61-e526-43ba-b443-410e33c02d9e","system_id":"levelo_inurba_marseille","lat":43.25499,"lon":5.37658,"is_reserved":false,"is_disabled":true,"rental_uris":{"android":"levelo://app?vid=f689ab61-e526-43ba-b443-410e33c02d9e","ios":"levelo://app?vid=f689ab61-e526-43ba-b443-410e33c02d9e"},"vehicle_type_id":"4","last_reported":1732281539,"current_range_meters":400,"station_id":"ce4bhh12rcd13ifvqff0","pricing_plan_id":"cebpf4jnsgd1na2vs0mg"},{"bike_id":"051b078b-4309-4733-b0b4-e5ac0b02c4d9","system_id":"levelo_inurba_marseille","lat":43.26563,"lon":5.39006,"is_reserved":false,"is_disabled":false,"rental_uris":{"android":"levelo://app?vid=051b078b-4309-4733-b0b4-e5ac0b02c4d9","ios":"levelo://app?vid=051b078b-4309-4733-b0b4-e5ac0b02c4d9"},"vehicle_type_id":"4","last_reported":1732281539,"current_range_meters":17200,"station_id":"ce4bhe12rcd13ifvqf30","pricing_plan_id":"cebpf4jnsgd1na2vs0mg"},{"bike_id":"ce9fb9d4-5647-49dc-ab9f-a1547699654d","system_id":"levelo_inurba_marseille","lat":43.30137,"lon":5.3741,"is_reserved":false,"is_disabled":false,"rental_uris":{"android":"levelo://app?vid=ce9fb9d4-5647-49dc-ab9f-a1547699654d","ios":"levelo://app?vid=ce9fb9d4-5647-49dc-ab9f-a1547699654d"},"vehicle_type_id":"4","last_reported":1732281539,"current_range_meters":11600,"station_id":"ce4bgs92rcd13ifvqcc0","pricing_plan_id":"cebpf4jnsgd1na2vs0mg"},{"bike_id":"552ae1f9-34eb-4d70-a19b-3616d3661778","system_id":"levelo_inurba_marseille","lat":43.33718,"lon":5.39187,"is_reserved":false,"is_disabled":false,"rental_uris":{"android":"levelo://app?vid=552ae1f9-34eb-4d70-a19b-3616d3661778","ios":"levelo://app?vid=552ae1f9-34eb-4d70-a19b-3616d3661778"},"vehicle_type_id":"4","last_reported":1732281539,"current_range_meters":25200,"station_id":"ce4bhr92rcd13ifvqhsg","pricing_plan_id":"cebpf4jnsgd1na2vs0mg"},{"bike_id":"06abc715-264f-41ae-913c-530101767225","system_id":"levelo_inurba_marseille","lat":43.30549,"lon":5.36529,"is_reserved":false,"is_disabled":false,"rental_uris":{"android":"levelo://app?vid=06abc715-264f-41ae-913c-530101767225","ios":"levelo://app?vid=06abc715-264f-41ae-913c-530101767225"},"vehicle_type_id":"4","last_reported":1732281539,"current_range_meters":38800,"station_id":"ce4bgs12rcd13ifvqcag","pricing_plan_id":"cebpf4jnsgd1na2vs0mg"},{"bike_id":"f7f3756c-1ec7-4782-9c87-6273f87b6774","system_id":"levelo_inurba_marseille","lat":43.337444,"lon":5.374475,"is_reserved":false,"is_disabled":false,"rental_uris":{"android":"levelo://app?vid=f7f3756c-1ec7-4782-9c87-6273f87b6774","ios":"levelo://app?vid=f7f3756c-1ec7-4782-9c87-6273f87b6774"},"vehicle_type_id":"4","last_reported":1732281539,"current_range_meters":37600,"station_id":"","pricing_plan_id":"cebpf4jnsgd1na2vs0mg"},{"bike_id":"7511195d-8826-4960-a89f-c5ab13e35235","system_id":"levelo_inurba_marseille","lat":43.26936,"lon":5.38633,"is_reserved":false,"is_disabled":true,"rental_uris":{"android":"levelo://app?vid=7511195d-8826-4960-a89f-c5ab13e35235","ios":"levelo://app?vid=7511195d-8826-4960-a89f-c5ab13e35235"},"vehicle_type_id":"4","last_reported":1732281539,"current_range_meters":0,"station_id":"ce4bhh92rcd13ifvqfh0","pricing_plan_id":"cebpf4jnsgd1na2vs0mg"},{"bike_id":"028e5427-36e2-49e1-b3db-260058fffb58","system_id":"levelo_inurba_marseille","lat":43.25578,"lon":5.38239,"is_reserved":false,"is_disabled":false,"rental_uris":{"android":"levelo://app?vid=028e5427-36e2-49e1-b3db-260058fffb58","ios":"levelo://app?vid=028e5427-36e2-49e1-b3db-260058fffb58"},"vehicle_type_id":"4","last_reported":1732281539,"current_range_meters":16800,"station_id":"ce4bhih2rcd13ifvqfs0","pricing_plan_id":"cebpf4jnsgd1na2vs0mg"},{"bike_id":"0f34c480-84cb-4b12-9072-a6f844830c03","system_id":"levelo_inurba_marseille","lat":43.23193,"lon":5.3556,"is_reserved":false,"is_disabled":false,"rental_uris":{"android":"levelo://app?vid=0f34c480-84cb-4b12-9072-a6f844830c03","ios":"levelo://app?vid=0f34c480-84cb-4b12-9072-a6f844830c03"},"vehicle_type_id":"4","last_reported":1732281539,"current_range_meters":38000,"station_id":"ce4bhu92rcd13ifvqi70","pricing_plan_id":"cebpf4jnsgd1na2vs0mg"},{"bike_id":"1453fddf-c64f-4c02-ace1-55caffeaf55e","system_id":"levelo_inurba_marseille","lat":43.32277,"lon":5.38267,"is_reserved":false,"is_disabled":false,"rental_uris":{"android":"levelo://app?vid=1453fddf-c64f-4c02-ace1-55caffeaf55e","ios":"levelo://app?vid=1453fddf-c64f-4c02-ace1-55caffeaf55e"},"vehicle_type_id":"4","last_reported":1732281539,"current_range_meters":33600,"station_id":"ce4bhr12rcd13ifvqhqg","pricing_plan_id":"cebpf4jnsgd1na2vs0mg"},{"bike_id":"0d5efe48-32bd-461f-be09-c1d5e2d6ef37","system_id":"levelo_inurba_marseille","lat":43.3237,"lon":5.38887,"is_reserved":false,"is_disabled":false,"rental_uris":{"android":"levelo://app?vid=0d5efe48-32bd-461f-be09-c1d5e2d6ef37","ios":"levelo://app?vid=0d5efe48-32bd-461f-be09-c1d5e2d6ef37"},"vehicle_type_id":"4","last_reported":1732281539,"current_range_meters":33200,"station_id":"ce4bhqp2rcd13ifvqhog","pricing_plan_id":"cebpf4jnsgd1na2vs0mg"},{"bike_id":"eed63595-af4c-4af9-9f47-c0b889d6180f","system_id":"levelo_inurba_marseille","lat":43.30518,"lon":5.36559,"is_reserved":false,"is_disabled":false,"rental_uris":{"android":"levelo://app?vid=eed63595-af4c-4af9-9f47-c0b889d6180f","ios":"levelo://app?vid=eed63595-af4c-4af9-9f47-c0b889d6180f"},"vehicle_type_id":"4","last_reported":1732281539,"current_range_meters":28800,"station_id":"ce4bgs12rcd13ifvqcag","pricing_plan_id":"cebpf4jnsgd1na2vs0mg"},{"bike_id":"87ca93ae-8c2c-4bde-868e-3578b3e812ca","system_id":"levelo_inurba_marseille","lat":43.27433,"lon":5.39412,"is_reserved":false,"is_disabled":false,"rental_uris":{"android":"levelo://app?vid=87ca93ae-8c2c-4bde-868e-3578b3e812ca","ios":"levelo://app?vid=87ca93ae-8c2c-4bde-868e-3578b3e812ca"},"vehicle_type_id":"4","last_reported":1732281539,"current_range_meters":36800,"station_id":"ce4bhdp2rcd13ifvqf20","pricing_plan_id":"cebpf4jnsgd1na2vs0mg"},{"bike_id":"c2a59ab3-d6b8-4918-82c9-bfcce921601e","system_id":"levelo_inurba_marseille","lat":43.32484,"lon":5.36575,"is_reserved":false,"is_disabled":false,"rental_uris":{"android":"levelo://app?vid=c2a59ab3-d6b8-4918-82c9-bfcce921601e","ios":"levelo://app?vid=c2a59ab3-d6b8-4918-82c9-bfcce921601e"},"vehicle_type_id":"4","last_reported":1732281539,"current_range_meters":18000,"station_id":"ce4bhs12rcd13ifvqhvg","pricing_plan_id":"cebpf4jnsgd1na2vs0mg"},{"bike_id":"3814d5d3-9e1a-4999-b1c9-82bf61d0e64f","system_id":"levelo_inurba_marseille","lat":43.29552,"lon":5.42282,"is_reserved":false,"is_disabled":true,"rental_uris":{"android":"levelo://app?vid=3814d5d3-9e1a-4999-b1c9-82bf61d0e64f","ios":"levelo://app?vid=3814d5d3-9e1a-4999-b1c9-82bf61d0e64f"},"vehicle_type_id":"4","last_reported":1732281539,"current_range_meters":0,"station_id":"ce4bhph2rcd13ifvqhdg","pricing_plan_id":"cebpf4jnsgd1na2vs0mg"},{"bike_id":"2252c95b-931f-4e6d-8be6-30ad4254e24a","system_id":"levelo_inurba_marseille","lat":43.28923,"lon":5.38393,"is_reserved":false,"is_disabled":false,"rental_uris":{"android":"levelo://app?vid=2252c95b-931f-4e6d-8be6-30ad4254e24a","ios":"levelo://app?vid=2252c95b-931f-4e6d-8be6-30ad4254e24a"},"vehicle_type_id":"4","last_reported":1732281539,"current_range_meters":31200,"station_id":"ce4bh612rcd13ifvqe6g","pricing_plan_id":"cebpf4jnsgd1na2vs0mg"},{"bike_id":"4fe80ffc-4df8-4ae3-aa53-bb17cdd54e27","system_id":"levelo_inurba_marseille","lat":43.30137,"lon":5.37419,"is_reserved":false,"is_disabled":false,"rental_uris":{"android":"levelo://app?vid=4fe80ffc-4df8-4ae3-aa53-bb17cdd54e27","ios":"levelo://app?vid=4fe80ffc-4df8-4ae3-aa53-bb17cdd54e27"},"vehicle_type_id":"4","last_reported":1732281539,"current_range_meters":16800,"station_id":"ce4bgs92rcd13ifvqcc0","pricing_plan_id":"cebpf4jnsgd1na2vs0mg"},{"bike_id":"306cba63-278a-4da1-8d03-20839ab46d88","system_id":"levelo_inurba_marseille","lat":43.32047,"lon":5.41571,"is_reserved":false,"is_disabled":false,"rental_uris":{"android":"levelo://app?vid=306cba63-278a-4da1-8d03-20839ab46d88","ios":"levelo://app?vid=306cba63-278a-4da1-8d03-20839ab46d88"},"vehicle_type_id":"4","last_reported":1732281539,"current_range_meters":36800,"station_id":"ce4bhq92rcd13ifvqhkg","pricing_plan_id":"cebpf4jnsgd1na2vs0mg"},{"bike_id":"7ce84f26-2814-4e91-aa59-8e417c3f639c","system_id":"levelo_inurba_marseille","lat":43.25577,"lon":5.38234,"is_reserved":false,"is_disabled":false,"rental_uris":{"android":"levelo://app?vid=7ce84f26-2814-4e91-aa59-8e417c3f639c","ios":"levelo://app?vid=7ce84f26-2814-4e91-aa59-8e417c3f639c"},"vehicle_type_id":"4","last_reported":1732281539,"current_range_meters":38000,"station_id":"ce4bhih2rcd13ifvqfs0","pricing_plan_id":"cebpf4jnsgd1na2vs0mg"},{"bike_id":"93632465-b062-40a8-b2b9-0dad6e04db5e","system_id":"levelo_inurba_marseille","lat":43.32543,"lon":5.41451,"is_reserved":false,"is_disabled":false,"rental_uris":{"android":"levelo://app?vid=93632465-b062-40a8-b2b9-0dad6e04db5e","ios":"levelo://app?vid=93632465-b062-40a8-b2b9-0dad6e04db5e"},"vehicle_type_id":"4","last_reported":1732281539,"current_range_meters":14000,"station_id":"ce4bhq12rcd13ifvqhhg","pricing_plan_id":"cebpf4jnsgd1na2vs0mg"},{"bike_id":"e78fa47f-759a-46ae-af0e-d1e5601e3a40","system_id":"levelo_inurba_marseille","lat":43.30879,"lon":5.37188,"is_reserved":false,"is_disabled":false,"rental_uris":{"android":"levelo://app?vid=e78fa47f-759a-46ae-af0e-d1e5601e3a40","ios":"levelo://app?vid=e78fa47f-759a-46ae-af0e-d1e5601e3a40"},"vehicle_type_id":"4","last_reported":1732281539,"current_range_meters":38800,"station_id":"ce4bguh2rcd13ifvqckg","pricing_plan_id":"cebpf4jnsgd1na2vs0mg"},{"bike_id":"13b751d7-077d-4f29-8350-fc32ddaecb6a","system_id":"levelo_inurba_marseille","lat":43.26549,"lon":5.37289,"is_reserved":false,"is_disabled":false,"rental_uris":{"android":"levelo://app?vid=13b751d7-077d-4f29-8350-fc32ddaecb6a","ios":"levelo://app?vid=13b751d7-077d-4f29-8350-fc32ddaecb6a"},"vehicle_type_id":"4","last_reported":1732281539,"current_range_meters":38400,"station_id":"ce4bhg12rcd13ifvqf70","pricing_plan_id":"cebpf4jnsgd1na2vs0mg"},{"bike_id":"e5951ee3-4a5a-4ebb-b469-096c5188dfa3","system_id":"levelo_inurba_marseille","lat":43.23187,"lon":5.35555,"is_reserved":false,"is_disabled":false,"rental_uris":{"android":"levelo://app?vid=e5951ee3-4a5a-4ebb-b469-096c5188dfa3","ios":"levelo://app?vid=e5951ee3-4a5a-4ebb-b469-096c5188dfa3"},"vehicle_type_id":"4","last_reported":1732281539,"current_range_meters":28400,"station_id":"ce4bhu92rcd13ifvqi70","pricing_plan_id":"cebpf4jnsgd1na2vs0mg"},{"bike_id":"aa504069-81dd-4b94-821f-6e11da8cbfe0","system_id":"levelo_inurba_marseille","lat":43.26552,"lon":5.37286,"is_reserved":false,"is_disabled":false,"rental_uris":{"android":"levelo://app?vid=aa504069-81dd-4b94-821f-6e11da8cbfe0","ios":"levelo://app?vid=aa504069-81dd-4b94-821f-6e11da8cbfe0"},"vehicle_type_id":"4","last_reported":1732281539,"current_range_meters":24000,"station_id":"ce4bhg12rcd13ifvqf70","pricing_plan_id":"cebpf4jnsgd1na2vs0mg"},{"bike_id":"8d13985d-3bdf-49ab-9373-fe6216716dff","system_id":"levelo_inurba_marseille","lat":43.27442,"lon":5.39015,"is_reserved":false,"is_disabled":false,"rental_uris":{"android":"levelo://app?vid=8d13985d-3bdf-49ab-9373-fe6216716dff","ios":"levelo://app?vid=8d13985d-3bdf-49ab-9373-fe6216716dff"},"vehicle_type_id":"4","last_reported":1732281539,"current_range_meters":30400,"station_id":"","pricing_plan_id":"cebpf4jnsgd1na2vs0mg"},{"bike_id":"689f2c55-3a6e-45a9-813c-37b26e8b6c58","system_id":"levelo_inurba_marseille","lat":43.29912,"lon":5.37485,"is_reserved":false,"is_disabled":false,"rental_uris":{"android":"levelo://app?vid=689f2c55-3a6e-45a9-813c-37b26e8b6c58","ios":"levelo://app?vid=689f2c55-3a6e-45a9-813c-37b26e8b6c58"},"vehicle_type_id":"4","last_reported":1732281539,"current_range_meters":34000,"station_id":"ce4bgjh2rcd13ifvqbg0","pricing_plan_id":"cebpf4jnsgd1na2vs0mg"},{"bike_id":"598543c3-4504-4ea3-976e-b45e767de5ed","system_id":"levelo_inurba_marseille","lat":43.32367,"lon":5.38878,"is_reserved":false,"is_disabled":false,"rental_uris":{"android":"levelo://app?vid=598543c3-4504-4ea3-976e-b45e767de5ed","ios":"levelo://app?vid=598543c3-4504-4ea3-976e-b45e767de5ed"},"vehicle_type_id":"4","last_reported":1732281539,"current_range_meters":36400,"station_id":"ce4bhqp2rcd13ifvqhog","pricing_plan_id":"cebpf4jnsgd1na2vs0mg"},{"bike_id":"d1bc9149-7d8f-494d-9069-21ecb5cabf5b","system_id":"levelo_inurba_marseille","lat":43.32053,"lon":5.41536,"is_reserved":false,"is_disabled":false,"rental_uris":{"android":"levelo://app?vid=d1bc9149-7d8f-494d-9069-21ecb5cabf5b","ios":"levelo://app?vid=d1bc9149-7d8f-494d-9069-21ecb5cabf5b"},"vehicle_type_id":"4","last_reported":1732281539,"current_range_meters":37600,"station_id":"ce4bhq92rcd13ifvqhkg","pricing_plan_id":"cebpf4jnsgd1na2vs0mg"},{"bike_id":"44abef4f-7bb3-417f-9f17-632a234b6e5d","system_id":"levelo_inurba_marseille","lat":43.32109,"lon":5.3678,"is_reserved":false,"is_disabled":false,"rental_uris":{"android":"levelo://app?vid=44abef4f-7bb3-417f-9f17-632a234b6e5d","ios":"levelo://app?vid=44abef4f-7bb3-417f-9f17-632a234b6e5d"},"vehicle_type_id":"4","last_reported":1732281539,"current_range_meters":23200,"station_id":"ce4bhrh2rcd13ifvqhug","pricing_plan_id":"cebpf4jnsgd1na2vs0mg"},{"bike_id":"830ab6f1-9f97-4b81-a374-96032fba99d2","system_id":"levelo_inurba_marseille","lat":43.24478,"lon":5.3692,"is_reserved":false,"is_disabled":true,"rental_uris":{"android":"levelo://app?vid=830ab6f1-9f97-4b81-a374-96032fba99d2","ios":"levelo://app?vid=830ab6f1-9f97-4b81-a374-96032fba99d2"},"vehicle_type_id":"4","last_reported":1732281539,"current_range_meters":26000,"station_id":"","pricing_plan_id":"cebpf4jnsgd1na2vs0mg"},{"bike_id":"6c948e9c-d5b3-4fe5-a918-1bd2f7c83b02","system_id":"levelo_inurba_marseille","lat":43.32112,"lon":5.36777,"is_reserved":false,"is_disabled":false,"rental_uris":{"android":"levelo://app?vid=6c948e9c-d5b3-4fe5-a918-1bd2f7c83b02","ios":"levelo://app?vid=6c948e9c-d5b3-4fe5-a918-1bd2f7c83b02"},"vehicle_type_id":"4","last_reported":1732281539,"current_range_meters":37600,"station_id":"ce4bhrh2rcd13ifvqhug","pricing_plan_id":"cebpf4jnsgd1na2vs0mg"},{"bike_id":"9e620abf-d324-4f99-84fc-d67e71109f2a","system_id":"levelo_inurba_marseille","lat":43.31078,"lon":5.42428,"is_reserved":false,"is_disabled":true,"rental_uris":{"android":"levelo://app?vid=9e620abf-d324-4f99-84fc-d67e71109f2a","ios":"levelo://app?vid=9e620abf-d324-4f99-84fc-d67e71109f2a"},"vehicle_type_id":"4","last_reported":1732281539,"current_range_meters":4800,"station_id":"ce4bhp92rcd13ifvqhag","pricing_plan_id":"cebpf4jnsgd1na2vs0mg"},{"bike_id":"b299f027-89de-4c2a-8dc3-a6213bfec1ab","system_id":"levelo_inurba_marseille","lat":43.34146,"lon":5.40898,"is_reserved":false,"is_disabled":false,"rental_uris":{"android":"levelo://app?vid=b299f027-89de-4c2a-8dc3-a6213bfec1ab","ios":"levelo://app?vid=b299f027-89de-4c2a-8dc3-a6213bfec1ab"},"vehicle_type_id":"4","last_reported":1732281539,"current_range_meters":18000,"station_id":"ce4bhqh2rcd13ifvqhlg","pricing_plan_id":"cebpf4jnsgd1na2vs0mg"},{"bike_id":"eaea8223-3d8d-42aa-88ef-150904379b02","system_id":"levelo_inurba_marseille","lat":43.29007,"lon":5.35613,"is_reserved":false,"is_disabled":false,"rental_uris":{"android":"levelo://app?vid=eaea8223-3d8d-42aa-88ef-150904379b02","ios":"levelo://app?vid=eaea8223-3d8d-42aa-88ef-150904379b02"},"vehicle_type_id":"4","last_reported":1732281539,"current_range_meters":25200,"station_id":"ce4bhb92rcd13ifvqen0","pricing_plan_id":"cebpf4jnsgd1na2vs0mg"},{"bike_id":"31516229-9d31-44b0-975c-bc0ffc5c2d23","system_id":"levelo_inurba_marseille","lat":43.2959,"lon":5.38103,"is_reserved":false,"is_disabled":false,"rental_uris":{"android":"levelo://app?vid=31516229-9d31-44b0-975c-bc0ffc5c2d23","ios":"levelo://app?vid=31516229-9d31-44b0-975c-bc0ffc5c2d23"},"vehicle_type_id":"4","last_reported":1732281539,"current_range_meters":32400,"station_id":"ce4bgl12rcd13ifvqbo0","pricing_plan_id":"cebpf4jnsgd1na2vs0mg"},{"bike_id":"5c53cfbd-2547-413a-b79a-f8cc3b1ca992","system_id":"levelo_inurba_marseille","lat":43.32116,"lon":5.36772,"is_reserved":false,"is_disabled":false,"rental_uris":{"android":"levelo://app?vid=5c53cfbd-2547-413a-b79a-f8cc3b1ca992","ios":"levelo://app?vid=5c53cfbd-2547-413a-b79a-f8cc3b1ca992"},"vehicle_type_id":"4","last_reported":1732281539,"current_range_meters":16400,"station_id":"ce4bhrh2rcd13ifvqhug","pricing_plan_id":"cebpf4jnsgd1na2vs0mg"},{"bike_id":"43c57d59-18ba-402c-a825-3c6cbde118d6","system_id":"levelo_inurba_marseille","lat":43.25087,"lon":5.39523,"is_reserved":false,"is_disabled":false,"rental_uris":{"android":"levelo://app?vid=43c57d59-18ba-402c-a825-3c6cbde118d6","ios":"levelo://app?vid=43c57d59-18ba-402c-a825-3c6cbde118d6"},"vehicle_type_id":"4","last_reported":1732281539,"current_range_meters":6400,"station_id":"ce4bhm12rcd13ifvqgkg","pricing_plan_id":"cebpf4jnsgd1na2vs0mg"},{"bike_id":"5f4ac3cc-bda5-44b5-92f4-d0063a57d339","system_id":"levelo_inurba_marseille","lat":43.26212,"lon":5.37448,"is_reserved":false,"is_disabled":false,"rental_uris":{"android":"levelo://app?vid=5f4ac3cc-bda5-44b5-92f4-d0063a57d339","ios":"levelo://app?vid=5f4ac3cc-bda5-44b5-92f4-d0063a57d339"},"vehicle_type_id":"4","last_reported":1732281539,"current_range_meters":38000,"station_id":"ce4bhgp2rcd13ifvqfc0","pricing_plan_id":"cebpf4jnsgd1na2vs0mg"},{"bike_id":"cd67a685-a00b-422d-b708-87f6d78b9fc3","system_id":"levelo_inurba_marseille","lat":43.26563,"lon":5.39003,"is_reserved":false,"is_disabled":false,"rental_uris":{"android":"levelo://app?vid=cd67a685-a00b-422d-b708-87f6d78b9fc3","ios":"levelo://app?vid=cd67a685-a00b-422d-b708-87f6d78b9fc3"},"vehicle_type_id":"4","last_reported":1732281539,"current_range_meters":16000,"station_id":"ce4bhe12rcd13ifvqf30","pricing_plan_id":"cebpf4jnsgd1na2vs0mg"},{"bike_id":"a0d1c4ae-b0f5-46a9-a01c-9bf67b464b41","system_id":"levelo_inurba_marseille","lat":43.29037,"lon":5.39966,"is_reserved":false,"is_disabled":false,"rental_uris":{"android":"levelo://app?vid=a0d1c4ae-b0f5-46a9-a01c-9bf67b464b41","ios":"levelo://app?vid=a0d1c4ae-b0f5-46a9-a01c-9bf67b464b41"},"vehicle_type_id":"4","last_reported":1732281539,"current_range_meters":10000,"station_id":"ce4bh392rcd13ifvqdm0","pricing_plan_id":"cebpf4jnsgd1na2vs0mg"},{"bike_id":"ced939b2-a2ab-40e5-b140-575509bab6d1","system_id":"levelo_inurba_marseille","lat":43.33023,"lon":5.39028,"is_reserved":false,"is_disabled":false,"rental_uris":{"android":"levelo://app?vid=ced939b2-a2ab-40e5-b140-575509bab6d1","ios":"levelo://app?vid=ced939b2-a2ab-40e5-b140-575509bab6d1"},"vehicle_type_id":"4","last_reported":1732281539,"current_range_meters":16000,"station_id":"ce4bhr92rcd13ifvqhrg","pricing_plan_id":"cebpf4jnsgd1na2vs0mg"},{"bike_id":"3507d275-4b8a-4829-8e01-96873d3ed5f5","system_id":"levelo_inurba_marseille","lat":43.29524,"lon":5.38545,"is_reserved":false,"is_disabled":false,"rental_uris":{"android":"levelo://app?vid=3507d275-4b8a-4829-8e01-96873d3ed5f5","ios":"levelo://app?vid=3507d275-4b8a-4829-8e01-96873d3ed5f5"},"vehicle_type_id":"4","last_reported":1732281539,"current_range_meters":24400,"station_id":"ce4bgih2rcd13ifvqba0","pricing_plan_id":"cebpf4jnsgd1na2vs0mg"},{"bike_id":"c39d2a6b-971a-4102-af38-404b98ad453d","system_id":"levelo_inurba_marseille","lat":43.29302,"lon":5.37178,"is_reserved":false,"is_disabled":false,"rental_uris":{"android":"levelo://app?vid=c39d2a6b-971a-4102-af38-404b98ad453d","ios":"levelo://app?vid=c39d2a6b-971a-4102-af38-404b98ad453d"},"vehicle_type_id":"4","last_reported":1732281539,"current_range_meters":24000,"station_id":"ce4bgh92rcd13ifvqb40","pricing_plan_id":"cebpf4jnsgd1na2vs0mg"},{"bike_id":"4024c177-e689-450a-884b-5392fcf58a24","system_id":"levelo_inurba_marseille","lat":43.32288,"lon":5.38262,"is_reserved":false,"is_disabled":false,"rental_uris":{"android":"levelo://app?vid=4024c177-e689-450a-884b-5392fcf58a24","ios":"levelo://app?vid=4024c177-e689-450a-884b-5392fcf58a24"},"vehicle_type_id":"4","last_reported":1732281539,"current_range_meters":38800,"station_id":"ce4bhr12rcd13ifvqhqg","pricing_plan_id":"cebpf4jnsgd1na2vs0mg"},{"bike_id":"a7b3d0b8-b93b-459d-b107-f1f73d97b9ce","system_id":"levelo_inurba_marseille","lat":43.29592,"lon":5.38113,"is_reserved":false,"is_disabled":false,"rental_uris":{"android":"levelo://app?vid=a7b3d0b8-b93b-459d-b107-f1f73d97b9ce","ios":"levelo://app?vid=a7b3d0b8-b93b-459d-b107-f1f73d97b9ce"},"vehicle_type_id":"4","last_reported":1732281539,"current_range_meters":35600,"station_id":"ce4bgl12rcd13ifvqbo0","pricing_plan_id":"cebpf4jnsgd1na2vs0mg"},{"bike_id":"9b17fb8b-8695-4564-b260-f5a4fcc8445f","system_id":"levelo_inurba_marseille","lat":43.29569,"lon":5.39974,"is_reserved":false,"is_disabled":false,"rental_uris":{"android":"levelo://app?vid=9b17fb8b-8695-4564-b260-f5a4fcc8445f","ios":"levelo://app?vid=9b17fb8b-8695-4564-b260-f5a4fcc8445f"},"vehicle_type_id":"4","last_reported":1732281539,"current_range_meters":35600,"station_id":"ce4bh312rcd13ifvqdj0","pricing_plan_id":"cebpf4jnsgd1na2vs0mg"},{"bike_id":"5b2db61c-5426-4154-b5b4-b345f779cabe","system_id":"levelo_inurba_marseille","lat":43.26947,"lon":5.38643,"is_reserved":false,"is_disabled":false,"rental_uris":{"android":"levelo://app?vid=5b2db61c-5426-4154-b5b4-b345f779cabe","ios":"levelo://app?vid=5b2db61c-5426-4154-b5b4-b345f779cabe"},"vehicle_type_id":"4","last_reported":1732281539,"current_range_meters":37600,"station_id":"ce4bhh92rcd13ifvqfh0","pricing_plan_id":"cebpf4jnsgd1na2vs0mg"},{"bike_id":"d00ecf84-bb74-4a20-946e-9b530a4c6433","system_id":"levelo_inurba_marseille","lat":43.26928,"lon":5.38907,"is_reserved":false,"is_disabled":false,"rental_uris":{"android":"levelo://app?vid=d00ecf84-bb74-4a20-946e-9b530a4c6433","ios":"levelo://app?vid=d00ecf84-bb74-4a20-946e-9b530a4c6433"},"vehicle_type_id":"4","last_reported":1732281539,"current_range_meters":38800,"station_id":"ce4bhhh2rcd13ifvqfl0","pricing_plan_id":"cebpf4jnsgd1na2vs0mg"},{"bike_id":"620e53be-74b9-4790-b8d2-c73e04717969","system_id":"levelo_inurba_marseille","lat":43.30522,"lon":5.3672,"is_reserved":false,"is_disabled":false,"rental_uris":{"android":"levelo://app?vid=620e53be-74b9-4790-b8d2-c73e04717969","ios":"levelo://app?vid=620e53be-74b9-4790-b8d2-c73e04717969"},"vehicle_type_id":"4","last_reported":1732281539,"current_range_meters":38800,"station_id":"ce4bgrp2rcd13ifvqc9g","pricing_plan_id":"cebpf4jnsgd1na2vs0mg"},{"bike_id":"db68c632-864f-4816-a385-7b854b4a7b78","system_id":"levelo_inurba_marseille","lat":43.25929,"lon":5.40905,"is_reserved":false,"is_disabled":false,"rental_uris":{"android":"levelo://app?vid=db68c632-864f-4816-a385-7b854b4a7b78","ios":"levelo://app?vid=db68c632-864f-4816-a385-7b854b4a7b78"},"vehicle_type_id":"4","last_reported":1732281539,"current_range_meters":38400,"station_id":"ce4bhm92rcd13ifvqglg","pricing_plan_id":"cebpf4jnsgd1na2vs0mg"},{"bike_id":"85b8d2a4-97cc-437b-a96b-ad659622997f","system_id":"levelo_inurba_marseille","lat":43.30593,"lon":5.39356,"is_reserved":false,"is_disabled":false,"rental_uris":{"android":"levelo://app?vid=85b8d2a4-97cc-437b-a96b-ad659622997f","ios":"levelo://app?vid=85b8d2a4-97cc-437b-a96b-ad659622997f"},"vehicle_type_id":"4","last_reported":1732281539,"current_range_meters":38800,"station_id":"ce4bh0p2rcd13ifvqd80","pricing_plan_id":"cebpf4jnsgd1na2vs0mg"},{"bike_id":"89429ed2-f839-4749-bcb9-3e5230fe3bfb","system_id":"levelo_inurba_marseille","lat":43.33723,"lon":5.39177,"is_reserved":false,"is_disabled":false,"rental_uris":{"android":"levelo://app?vid=89429ed2-f839-4749-bcb9-3e5230fe3bfb","ios":"levelo://app?vid=89429ed2-f839-4749-bcb9-3e5230fe3bfb"},"vehicle_type_id":"4","last_reported":1732281539,"current_range_meters":38000,"station_id":"ce4bhr92rcd13ifvqhsg","pricing_plan_id":"cebpf4jnsgd1na2vs0mg"},{"bike_id":"076ace67-e67b-4ae7-8dea-8dbccaeb063b","system_id":"levelo_inurba_marseille","lat":43.30423,"lon":5.38895,"is_reserved":false,"is_disabled":false,"rental_uris":{"android":"levelo://app?vid=076ace67-e67b-4ae7-8dea-8dbccaeb063b","ios":"levelo://app?vid=076ace67-e67b-4ae7-8dea-8dbccaeb063b"},"vehicle_type_id":"4","last_reported":1732281539,"current_range_meters":38400,"station_id":"ce4bgk12rcd13ifvqbi0","pricing_plan_id":"cebpf4jnsgd1na2vs0mg"},{"bike_id":"9bc499ed-a039-4090-be2c-7d0140ab484f","system_id":"levelo_inurba_marseille","lat":43.24075,"lon":5.37761,"is_reserved":false,"is_disabled":false,"rental_uris":{"android":"levelo://app?vid=9bc499ed-a039-4090-be2c-7d0140ab484f","ios":"levelo://app?vid=9bc499ed-a039-4090-be2c-7d0140ab484f"},"vehicle_type_id":"4","last_reported":1732281539,"current_range_meters":9200,"station_id":"ce4bhnp2rcd13ifvqgvg","pricing_plan_id":"cebpf4jnsgd1na2vs0mg"},{"bike_id":"6965c515-9b58-41fc-be4e-6e6a11fe13d3","system_id":"levelo_inurba_marseille","lat":43.30893,"lon":5.36852,"is_reserved":false,"is_disabled":false,"rental_uris":{"android":"levelo://app?vid=6965c515-9b58-41fc-be4e-6e6a11fe13d3","ios":"levelo://app?vid=6965c515-9b58-41fc-be4e-6e6a11fe13d3"},"vehicle_type_id":"4","last_reported":1732281539,"current_range_meters":24400,"station_id":"ce4bgn92rcd13ifvqbvg","pricing_plan_id":"cebpf4jnsgd1na2vs0mg"},{"bike_id":"304ef428-9450-440f-a8db-1138e82ecbd5","system_id":"levelo_inurba_marseille","lat":43.25934,"lon":5.40906,"is_reserved":false,"is_disabled":false,"rental_uris":{"android":"levelo://app?vid=304ef428-9450-440f-a8db-1138e82ecbd5","ios":"levelo://app?vid=304ef428-9450-440f-a8db-1138e82ecbd5"},"vehicle_type_id":"4","last_reported":1732281539,"current_range_meters":36000,"station_id":"ce4bhm92rcd13ifvqglg","pricing_plan_id":"cebpf4jnsgd1na2vs0mg"},{"bike_id":"392b0da9-d1e0-4efc-9eb3-65e677df941e","system_id":"levelo_inurba_marseille","lat":43.27916,"lon":5.39586,"is_reserved":false,"is_disabled":false,"rental_uris":{"android":"levelo://app?vid=392b0da9-d1e0-4efc-9eb3-65e677df941e","ios":"levelo://app?vid=392b0da9-d1e0-4efc-9eb3-65e677df941e"},"vehicle_type_id":"4","last_reported":1732281539,"current_range_meters":4000,"station_id":"ce4bhf92rcd13ifvqf40","pricing_plan_id":"cebpf4jnsgd1na2vs0mg"},{"bike_id":"6dcbed99-89a3-4d99-bcfc-ff3241e9feef","system_id":"levelo_inurba_marseille","lat":43.29905,"lon":5.37472,"is_reserved":false,"is_disabled":false,"rental_uris":{"android":"levelo://app?vid=6dcbed99-89a3-4d99-bcfc-ff3241e9feef","ios":"levelo://app?vid=6dcbed99-89a3-4d99-bcfc-ff3241e9feef"},"vehicle_type_id":"4","last_reported":1732281539,"current_range_meters":18000,"station_id":"ce4bgjh2rcd13ifvqbg0","pricing_plan_id":"cebpf4jnsgd1na2vs0mg"},{"bike_id":"b1a4673d-df34-4125-97f9-a64d3965e2f2","system_id":"levelo_inurba_marseille","lat":43.29919,"lon":5.37482,"is_reserved":false,"is_disabled":false,"rental_uris":{"android":"levelo://app?vid=b1a4673d-df34-4125-97f9-a64d3965e2f2","ios":"levelo://app?vid=b1a4673d-df34-4125-97f9-a64d3965e2f2"},"vehicle_type_id":"4","last_reported":1732281539,"current_range_meters":34800,"station_id":"ce4bgjh2rcd13ifvqbg0","pricing_plan_id":"cebpf4jnsgd1na2vs0mg"},{"bike_id":"ce1f025f-ae7b-4795-9b99-3519bcf7b8bf","system_id":"levelo_inurba_marseille","lat":43.30307,"lon":5.36885,"is_reserved":false,"is_disabled":false,"rental_uris":{"android":"levelo://app?vid=ce1f025f-ae7b-4795-9b99-3519bcf7b8bf","ios":"levelo://app?vid=ce1f025f-ae7b-4795-9b99-3519bcf7b8bf"},"vehicle_type_id":"4","last_reported":1732281539,"current_range_meters":26000,"station_id":"ce4bgqh2rcd13ifvqc5g","pricing_plan_id":"cebpf4jnsgd1na2vs0mg"},{"bike_id":"40191457-cce3-490d-a141-5a0449d2f1c2","system_id":"levelo_inurba_marseille","lat":43.30038,"lon":5.37455,"is_reserved":false,"is_disabled":false,"rental_uris":{"android":"levelo://app?vid=40191457-cce3-490d-a141-5a0449d2f1c2","ios":"levelo://app?vid=40191457-cce3-490d-a141-5a0449d2f1c2"},"vehicle_type_id":"4","last_reported":1732281539,"current_range_meters":22800,"station_id":"","pricing_plan_id":"cebpf4jnsgd1na2vs0mg"},{"bike_id":"7770b1cc-2a54-4d08-8255-6bed2fc397aa","system_id":"levelo_inurba_marseille","lat":43.231942,"lon":5.355468,"is_reserved":false,"is_disabled":false,"rental_uris":{"android":"levelo://app?vid=7770b1cc-2a54-4d08-8255-6bed2fc397aa","ios":"levelo://app?vid=7770b1cc-2a54-4d08-8255-6bed2fc397aa"},"vehicle_type_id":"4","last_reported":1732281539,"current_range_meters":10000,"station_id":"ce4bhu92rcd13ifvqi70","pricing_plan_id":"cebpf4jnsgd1na2vs0mg"},{"bike_id":"e397b035-09df-4dd9-869c-705b86271e7b","system_id":"levelo_inurba_marseille","lat":43.305497,"lon":5.365364,"is_reserved":false,"is_disabled":false,"rental_uris":{"android":"levelo://app?vid=e397b035-09df-4dd9-869c-705b86271e7b","ios":"levelo://app?vid=e397b035-09df-4dd9-869c-705b86271e7b"},"vehicle_type_id":"4","last_reported":1732281539,"current_range_meters":25200,"station_id":"ce4bgs12rcd13ifvqcag","pricing_plan_id":"cebpf4jnsgd1na2vs0mg"},{"bike_id":"832e4346-5181-4bbd-9941-7a45a180a4c4","system_id":"levelo_inurba_marseille","lat":43.24543,"lon":5.39527,"is_reserved":false,"is_disabled":true,"rental_uris":{"android":"levelo://app?vid=832e4346-5181-4bbd-9941-7a45a180a4c4","ios":"levelo://app?vid=832e4346-5181-4bbd-9941-7a45a180a4c4"},"vehicle_type_id":"4","last_reported":1732281539,"current_range_meters":1200,"station_id":"ce4bhlp2rcd13ifvqgjg","pricing_plan_id":"cebpf4jnsgd1na2vs0mg"},{"bike_id":"b06f2877-4788-46c3-bf20-1457857a4bd4","system_id":"levelo_inurba_marseille","lat":43.27616,"lon":5.36107,"is_reserved":false,"is_disabled":false,"rental_uris":{"android":"levelo://app?vid=b06f2877-4788-46c3-bf20-1457857a4bd4","ios":"levelo://app?vid=b06f2877-4788-46c3-bf20-1457857a4bd4"},"vehicle_type_id":"4","last_reported":1732281539,"current_range_meters":4000,"station_id":"ce4bgj92rcd13ifvqbe0","pricing_plan_id":"cebpf4jnsgd1na2vs0mg"},{"bike_id":"62b4709e-05c6-4baa-a32d-535a161e818d","system_id":"levelo_inurba_marseille","lat":43.29968,"lon":5.37178,"is_reserved":false,"is_disabled":false,"rental_uris":{"android":"levelo://app?vid=62b4709e-05c6-4baa-a32d-535a161e818d","ios":"levelo://app?vid=62b4709e-05c6-4baa-a32d-535a161e818d"},"vehicle_type_id":"4","last_reported":1732281539,"current_range_meters":27600,"station_id":"ce4bgr92rcd13ifvqc7g","pricing_plan_id":"cebpf4jnsgd1na2vs0mg"},{"bike_id":"fdaf890b-328d-4c6c-b370-bc14721c2873","system_id":"levelo_inurba_marseille","lat":43.25818,"lon":5.39435,"is_reserved":false,"is_disabled":true,"rental_uris":{"android":"levelo://app?vid=fdaf890b-328d-4c6c-b370-bc14721c2873","ios":"levelo://app?vid=fdaf890b-328d-4c6c-b370-bc14721c2873"},"vehicle_type_id":"4","last_reported":1732281539,"current_range_meters":0,"station_id":"ce4bhip2rcd13ifvqft0","pricing_plan_id":"cebpf4jnsgd1na2vs0mg"},{"bike_id":"1ab4519b-c1c8-47d5-bca5-e407b78cd414","system_id":"levelo_inurba_marseille","lat":43.32,"lon":5.38155,"is_reserved":false,"is_disabled":false,"rental_uris":{"android":"levelo://app?vid=1ab4519b-c1c8-47d5-bca5-e407b78cd414","ios":"levelo://app?vid=1ab4519b-c1c8-47d5-bca5-e407b78cd414"},"vehicle_type_id":"4","last_reported":1732281539,"current_range_meters":30000,"station_id":"ce4bhr12rcd13ifvqhpg","pricing_plan_id":"cebpf4jnsgd1na2vs0mg"},{"bike_id":"99a3bacc-9553-4c59-b1e1-fdb2b5edd58b","system_id":"levelo_inurba_marseille","lat":43.29004,"lon":5.35615,"is_reserved":false,"is_disabled":false,"rental_uris":{"android":"levelo://app?vid=99a3bacc-9553-4c59-b1e1-fdb2b5edd58b","ios":"levelo://app?vid=99a3bacc-9553-4c59-b1e1-fdb2b5edd58b"},"vehicle_type_id":"4","last_reported":1732281539,"current_range_meters":33600,"station_id":"ce4bhb92rcd13ifvqen0","pricing_plan_id":"cebpf4jnsgd1na2vs0mg"},{"bike_id":"6c224183-e622-461d-8216-58bdc68bb4b1","system_id":"levelo_inurba_marseille","lat":43.32483,"lon":5.36564,"is_reserved":false,"is_disabled":false,"rental_uris":{"android":"levelo://app?vid=6c224183-e622-461d-8216-58bdc68bb4b1","ios":"levelo://app?vid=6c224183-e622-461d-8216-58bdc68bb4b1"},"vehicle_type_id":"4","last_reported":1732281539,"current_range_meters":30000,"station_id":"ce4bhs12rcd13ifvqhvg","pricing_plan_id":"cebpf4jnsgd1na2vs0mg"},{"bike_id":"aa6abcb4-0823-4afd-b830-3bba30c612d6","system_id":"levelo_inurba_marseille","lat":43.24808,"lon":5.37456,"is_reserved":false,"is_disabled":false,"rental_uris":{"android":"levelo://app?vid=aa6abcb4-0823-4afd-b830-3bba30c612d6","ios":"levelo://app?vid=aa6abcb4-0823-4afd-b830-3bba30c612d6"},"vehicle_type_id":"4","last_reported":1732281539,"current_range_meters":16400,"station_id":"ce4bhgh2rcd13ifvqfb0","pricing_plan_id":"cebpf4jnsgd1na2vs0mg"},{"bike_id":"874e434e-6350-4e8b-8d5f-795b84c90268","system_id":"levelo_inurba_marseille","lat":43.30145,"lon":5.38081,"is_reserved":false,"is_disabled":false,"rental_uris":{"android":"levelo://app?vid=874e434e-6350-4e8b-8d5f-795b84c90268","ios":"levelo://app?vid=874e434e-6350-4e8b-8d5f-795b84c90268"},"vehicle_type_id":"4","last_reported":1732281539,"current_range_meters":24400,"station_id":"ce4bgjp2rcd13ifvqbh0","pricing_plan_id":"cebpf4jnsgd1na2vs0mg"},