{"last_updated":1743135151,"ttl":60,"version":"2.2","data":{"bikes":[{"bike_id":"1dd765a9-64b4-439c-a196-df55419cc971","system_id":"levelo_inurba_marseille","lat":43.24163,"lon":5.36398,"is_reserved":false,"is_disabled":false,"rental_uris":{"android":"levelo://app?vid=1dd765a9-64b4-439c-a196-df55419cc971","ios":"levelo://app?vid=1dd765a9-64b4-439c-a196-df55419cc971"},"vehicle_type_id":"4","last_reported":1743135151,"current_range_meters":2800,"station_id":"cpo36qri1sfpv3e86is0","pricing_plan_id":"cebpf4jnsgd1na2vs0mg"},{"bike_id":"524f1196-3ba6-4f11-b9cd-1c10781086a1","system_id":"levelo_inurba_marseille","lat":43.25009,"lon":5.38935,"is_reserved":false,"is_disabled":false,"rental_uris":{"android":"levelo://app?vid=524f1196-3ba6-4f11-b9cd-1c10781086a1","ios":"levelo://app?vid=524f1196-3ba6-4f11-b9cd-1c10781086a1"},"vehicle_type_id":"4","last_reported":1743135151,"current_range_meters":2800,"station_id":"ce4bhgp2rcd13ifvqfd0","pricing_plan_id":"cebpf4jnsgd1na2vs0mg"},{"bike_id":"147fe4f3-e29b-44a3-8da9-e46dcd3ae5a0","system_id":"levelo_inurba_marseille","lat":43.28272,"lon":5.35058,"is_reserved":false,"is_disabled":false,"rental_uris":{"android":"levelo://app?vid=147fe4f3-e29b-44a3-8da9-e46dcd3ae5a0","ios":"levelo://app?vid=147fe4f3-e29b-44a3-8da9-e46dcd3ae5a0"},"vehicle_type_id":"4","last_reported":1743135151,"current_range_meters":3200,"station_id":"ce4bhbp2rcd13ifvqerg","pricing_plan_id":"cebpf4jnsgd1na2vs0mg"},{"bike_id":"b23a18f8-619d-4580-8b65-a001e546f2de","system_id":"levelo_inurba_marseille","lat":43.30378,"lon":5.4192,"is_reserved":false,"is_disabled":true,"rental_uris":{"android":"levelo://app?vid=b23a18f8-619d-4580-8b65-a001e546f2de","ios":"levelo://app?vid=b23a18f8-619d-4580-8b65-a001e546f2de"},"vehicle_type_id":"4","last_reported":1743135151,"current_range_meters":3600,"station_id":"ce4bhop2rcd13ifvqh7g","pricing_plan_id":"cebpf4jnsgd1na2vs0mg"},{"bike_id":"393986d8-f957-4496-bf87-0ebab2ff6793","system_id":"levelo_inurba_marseille","lat":43.3133,"lon":5.39691,"is_reserved":false,"is_disabled":false,"rental_uris":{"android":"levelo://app?vid=393986d8-f957-4496-bf87-0ebab2ff6793","ios":"levelo://app?vid=393986d8-f957-4496-bf87-0ebab2ff6793"},"vehicle_type_id":"4","last_reported":1743135151,"current_range_meters":3600,"station_id":"ce4bgvp2rcd13ifvqcu0","pricing_plan_id":"cebpf4jnsgd1na2vs0mg"},{"bike_id":"cf4f9155-716b-4f82-8682-5690ed31e6f8","system_id":"levelo_inurba_marseille","lat":43.29971,"lon":5.37188,"is_reserved":false,"is_disabled":false,"rental_uris":{"android":"levelo://app?vid=cf4f9155-716b-4f82-8682-5690ed31e6f8","ios":"levelo://app?vid=cf4f9155-716b-4f82-8682-5690ed31e6f8"},"vehicle_type_id":"4","last_reported":1743135151,"current_range_meters":3600,"station_id":"ce4bgr92rcd13ifvqc7g","pricing_plan_id":"cebpf4jnsgd1na2vs0mg"},{"bike_id":"745db27b-7d09-42e9-857e-1a3c13cd5302","system_id":"levelo_inurba_marseille","lat":43.23207,"lon":5.35536,"is_reserved":false,"is_disabled":false,"rental_uris":{"android":"levelo://app?vid=745db27b-7d09-42e9-857e-1a3c13cd5302","ios":"levelo://app?vid=745db27b-7d09-42e9-857e-1a3c13cd5302"},"vehicle_type_id":"4","last_reported":1743135151,"current_range_meters":4000,"station_id":"ce4bhu92rcd13ifvqi70","pricing_plan_id":"cebpf4jnsgd1na2vs0mg"},{"bike_id":"7309667e-a1b8-40ee-9c9d-21908e34db4d","system_id":"levelo_inurba_marseille","lat":43.29971,"lon":5.38497,"is_reserved":false,"is_disabled":false,"rental_uris":{"android":"levelo://app?vid=7309667e-a1b8-40ee-9c9d-21908e34db4d","ios":"levelo://app?vid=7309667e-a1b8-40ee-9c9d-21908e34db4d"},"vehicle_type_id":"4","last_reported":1743135151,"current_range_meters":3600,"station_id":"ce4bgj92rcd13ifvqbd0","pricing_plan_id":"cebpf4jnsgd1na2vs0mg"},{"bike_id":"0a66299f-ae8e-48e0-af7a-343db9bc16e9","system_id":"levelo_inurba_marseille","lat":43.286831,"lon":5.399919,"is_reserved":false,"is_disabled":false,"rental_uris":{"android":"levelo://app?vid=0a66299f-ae8e-48e0-af7a-343db9bc16e9","ios":"levelo://app?vid=0a66299f-ae8e-48e0-af7a-343db9bc16e9"},"vehicle_type_id":"4","last_reported":1743135151,"current_range_meters":4000,"station_id":"","pricing_plan_id":"cebpf4jnsgd1na2vs0mg"},{"bike_id":"85d0fa0c-b5b9-41cd-ba43-951901672dab","system_id":"levelo_inurba_marseille","lat":43.25599,"lon":5.38975,"is_reserved":false,"is_disabled":false,"rental_uris":{"android":"levelo://app?vid=85d0fa0c-b5b9-41cd-ba43-951901672dab","ios":"levelo://app?vid=85d0fa0c-b5b9-41cd-ba43-951901672dab"},"vehicle_type_id":"4","last_reported":1743135151,"current_range_meters":4000,"station_id":"","pricing_plan_id":"cebpf4jnsgd1na2vs0mg"},{"bike_id":"9b0db4f1-c6a1-4ca7-86c5-ec1daffe0ea2","system_id":"levelo_inurba_marseille","lat":43.25101,"lon":5.39504,"is_reserved":false,"is_disabled":false,"rental_uris":{"android":"levelo://app?vid=9b0db4f1-c6a1-4ca7-86c5-ec1daffe0ea2","ios":"levelo://app?vid=9b0db4f1-c6a1-4ca7-86c5-ec1daffe0ea2"},"vehicle_type_id":"4","last_reported":1743135151,"current_range_meters":4000,"station_id":"ce4bhm12rcd13ifvqgkg","pricing_plan_id":"cebpf4jnsgd1na2vs0mg"},{"bike_id":"99efc1f2-d62d-419c-a0db-cfaadfa06cd6","system_id":"levelo_inurba_marseille","lat":43.23197,"lon":5.40001,"is_reserved":false,"is_disabled":false,"rental_uris":{"android":"levelo://app?vid=99efc1f2-d62d-419c-a0db-cfaadfa06cd6","ios":"levelo://app?vid=99efc1f2-d62d-419c-a0db-cfaadfa06cd6"},"vehicle_type_id":"4","last_reported":1743135151,"current_range_meters":4400,"station_id":"ce4bhn12rcd13ifvqgqg","pricing_plan_id":"cebpf4jnsgd1na2vs0mg"},{"bike_id":"dc8ccdc9-a018-4504-b0a9-676297905591","system_id":"levelo_inurba_marseille","lat":43.29298,"lon":5.36973,"is_reserved":false,"is_disabled":false,"rental_uris":{"android":"levelo://app?vid=dc8ccdc9-a018-4504-b0a9-676297905591","ios":"levelo://app?vid=dc8ccdc9-a018-4504-b0a9-676297905591"},"vehicle_type_id":"4","last_reported":1743135151,"current_range_meters":4400,"station_id":"","pricing_plan_id":"cebpf4jnsgd1na2vs0mg"},{"bike_id":"e62e2f35-f797-4cb0-b8cd-a8d619e448fc","system_id":"levelo_inurba_marseille","lat":43.28693,"lon":5.40014,"is_reserved":false,"is_disabled":false,"rental_uris":{"android":"levelo://app?vid=e62e2f35-f797-4cb0-b8cd-a8d619e448fc","ios":"levelo://app?vid=e62e2f35-f797-4cb0-b8cd-a8d619e448fc"},"vehicle_type_id":"4","last_reported":1743135151,"current_range_meters":4800,"station_id":"ce4bho92rcd13ifvqh3g","pricing_plan_id":"cebpf4jnsgd1na2vs0mg"},{"bike_id":"6165ca97-d152-4535-bb35-dd51f65c8b56","system_id":"levelo_inurba_marseille","lat":43.27793,"lon":5.40739,"is_reserved":false,"is_disabled":false,"rental_uris":{"android":"levelo://app?vid=6165ca97-d152-4535-bb35-dd51f65c8b56","ios":"levelo://app?vid=6165ca97-d152-4535-bb35-dd51f65c8b56"},"vehicle_type_id":"4","last_reported":1743135151,"current_range_meters":4800,"station_id":"ce4bhnh2rcd13ifvqgtg","pricing_plan_id":"cebpf4jnsgd1na2vs0mg"},{"bike_id":"31786037-9ebd-44fa-b6f1-84638b1bf499","system_id":"levelo_inurba_marseille","lat":43.23185,"lon":5.39977,"is_reserved":false,"is_disabled":false,"rental_uris":{"android":"levelo://app?vid=31786037-9ebd-44fa-b6f1-84638b1bf499","ios":"levelo://app?vid=31786037-9ebd-44fa-b6f1-84638b1bf499"},"vehicle_type_id":"4","last_reported":1743135151,"current_range_meters":4800,"station_id":"ce4bhn12rcd13ifvqgqg","pricing_plan_id":"cebpf4jnsgd1na2vs0mg"},{"bike_id":"c752cc87-456e-4134-9a44-62eff5dadbd0","system_id":"levelo_inurba_marseille","lat":43.278102,"lon":5.407065,"is_reserved":false,"is_disabled":false,"rental_uris":{"android":"levelo://app?vid=c752cc87-456e-4134-9a44-62eff5dadbd0","ios":"levelo://app?vid=c752cc87-456e-4134-9a44-62eff5dadbd0"},"vehicle_type_id":"4","last_reported":1743135151,"current_range_meters":4800,"station_id":"ce4bhnh2rcd13ifvqgtg","pricing_plan_id":"cebpf4jnsgd1na2vs0mg"},{"bike_id":"43e4a26e-551f-4211-9013-15149afe6bbb","system_id":"levelo_inurba_marseille","lat":43.28706,"lon":5.37392,"is_reserved":false,"is_disabled":false,"rental_uris":{"android":"levelo://app?vid=43e4a26e-551f-4211-9013-15149afe6bbb","ios":"levelo://app?vid=43e4a26e-551f-4211-9013-15149afe6bbb"},"vehicle_type_id":"4","last_reported":1743135151,"current_range_meters":4800,"station_id":"ce4bh3p2rcd13ifvqdq0","pricing_plan_id":"cebpf4jnsgd1na2vs0mg"},{"bike_id":"18cf2e35-ced7-456c-9cdf-6c3d31d9091d","system_id":"levelo_inurba_marseille","lat":43.23197,"lon":5.35553,"is_reserved":false,"is_disabled":false,"rental_uris":{"android":"levelo://app?vid=18cf2e35-ced7-456c-9cdf-6c3d31d9091d","ios":"levelo://app?vid=18cf2e35-ced7-456c-9cdf-6c3d31d9091d"},"vehicle_type_id":"4","last_reported":1743135151,"current_range_meters":5600,"station_id":"ce4bhu92rcd13ifvqi70","pricing_plan_id":"cebpf4jnsgd1na2vs0mg"},{"bike_id":"84a7a785-5392-42bc-8088-fb903bcc7f5c","system_id":"levelo_inurba_marseille","lat":43.23063,"lon":5.35499,"is_reserved":false,"is_disabled":false,"rental_uris":{"android":"levelo://app?vid=84a7a785-5392-42bc-8088-fb903bcc7f5c","ios":"levelo://app?vid=84a7a785-5392-42bc-8088-fb903bcc7f5c"},"vehicle_type_id":"4","last_reported":1743135151,"current_range_meters":5600,"station_id":"cpo3342slgdg3j2ifvpg","pricing_plan_id":"cebpf4jnsgd1na2vs0mg"},{"bike_id":"a2cca4d0-900f-4d24-81a4-a34f6c38f996","system_id":"levelo_inurba_marseille","lat":43.26936,"lon":5.40227,"is_reserved":false,"is_disabled":false,"rental_uris":{"android":"levelo://app?vid=a2cca4d0-900f-4d24-81a4-a34f6c38f996","ios":"levelo://app?vid=a2cca4d0-900f-4d24-81a4-a34f6c38f996"},"vehicle_type_id":"4","last_reported":1743135151,"current_range_meters":5600,"station_id":"cjm6bp8fraef2m0cb0m0","pricing_plan_id":"cebpf4jnsgd1na2vs0mg"},{"bike_id":"3c5b9de9-2126-4391-ae19-7c9396efc28b","system_id":"levelo_inurba_marseille","lat":43.25568,"lon":5.38242,"is_reserved":false,"is_disabled":false,"rental_uris":{"android":"levelo://app?vid=3c5b9de9-2126-4391-ae19-7c9396efc28b","ios":"levelo://app?vid=3c5b9de9-2126-4391-ae19-7c9396efc28b"},"vehicle_type_id":"4","last_reported":1743135151,"current_range_meters":5600,"station_id":"ce4bhih2rcd13ifvqfs0","pricing_plan_id":"cebpf4jnsgd1na2vs0mg"},{"bike_id":"3a5e18ad-6a23-4442-9c34-19c7bd17a17e","system_id":"levelo_inurba_marseille","lat":43.229228,"lon":5.353774,"is_reserved":false,"is_disabled":false,"rental_uris":{"android":"levelo://app?vid=3a5e18ad-6a23-4442-9c34-19c7bd17a17e","ios":"levelo://app?vid=3a5e18ad-6a23-4442-9c34-19c7bd17a17e"},"vehicle_type_id":"4","last_reported":1743135151,"current_range_meters":5600,"station_id":"cpo3532slgdg3j2ikp40","pricing_plan_id":"cebpf4jnsgd1na2vs0mg"},{"bike_id":"dd5783c6-158d-4cbc-b771-8d0cc786b4bb","system_id":"levelo_inurba_marseille","lat":43.265602,"lon":5.390043,"is_reserved":false,"is_disabled":false,"rental_uris":{"android":"levelo://app?vid=dd5783c6-158d-4cbc-b771-8d0cc786b4bb","ios":"levelo://app?vid=dd5783c6-158d-4cbc-b771-8d0cc786b4bb"},"vehicle_type_id":"4","last_reported":1743135151,"current_range_meters":6000,"station_id":"ce4bhe12rcd13ifvqf30","pricing_plan_id":"cebpf4jnsgd1na2vs0mg"},{"bike_id":"1b876d6c-62d8-4868-9c6d-7a787cd07989","system_id":"levelo_inurba_marseille","lat":43.28715,"lon":5.40002,"is_reserved":false,"is_disabled":false,"rental_uris":{"android":"levelo://app?vid=1b876d6c-62d8-4868-9c6d-7a787cd07989","ios":"levelo://app?vid=1b876d6c-62d8-4868-9c6d-7a787cd07989"},"vehicle_type_id":"4","last_reported":1743135151,"current_range_meters":6000,"station_id":"ce4bho92rcd13ifvqh3g","pricing_plan_id":"cebpf4jnsgd1na2vs0mg"},{"bike_id":"59009851-2119-4c01-80a5-64ff1d563987","system_id":"levelo_inurba_marseille","lat":43.30931,"lon":5.40131,"is_reserved":false,"is_disabled":false,"rental_uris":{"android":"levelo://app?vid=59009851-2119-4c01-80a5-64ff1d563987","ios":"levelo://app?vid=59009851-2119-4c01-80a5-64ff1d563987"},"vehicle_type_id":"4","last_reported":1743135151,"current_range_meters":6000,"station_id":"ce4bgvp2rcd13ifvqct0","pricing_plan_id":"cebpf4jnsgd1na2vs0mg"},{"bike_id":"bf8f689d-9d07-4902-b5ae-7d4e985b967a","system_id":"levelo_inurba_marseille","lat":43.295261,"lon":5.390328,"is_reserved":false,"is_disabled":true,"rental_uris":{"android":"levelo://app?vid=bf8f689d-9d07-4902-b5ae-7d4e985b967a","ios":"levelo://app?vid=bf8f689d-9d07-4902-b5ae-7d4e985b967a"},"vehicle_type_id":"4","last_reported":1743135151,"current_range_meters":6000,"station_id":"ce4bh3p2rcd13ifvqdp0","pricing_plan_id":"cebpf4jnsgd1na2vs0mg"},{"bike_id":"72407b9c-71b7-4feb-83e9-97e5f2a36163","system_id":"levelo_inurba_marseille","lat":43.241673,"lon":5.36391,"is_reserved":false,"is_disabled":false,"rental_uris":{"android":"levelo://app?vid=72407b9c-71b7-4feb-83e9-97e5f2a36163","ios":"levelo://app?vid=72407b9c-71b7-4feb-83e9-97e5f2a36163"},"vehicle_type_id":"4","last_reported":1743135151,"current_range_meters":6400,"station_id":"cpo36qri1sfpv3e86is0","pricing_plan_id":"cebpf4jnsgd1na2vs0mg"},{"bike_id":"7909fddf-cb14-45c3-8c06-c79cce207a3a","system_id":"levelo_inurba_marseille","lat":43.25668,"lon":5.39711,"is_reserved":false,"is_disabled":false,"rental_uris":{"android":"levelo://app?vid=7909fddf-cb14-45c3-8c06-c79cce207a3a","ios":"levelo://app?vid=7909fddf-cb14-45c3-8c06-c79cce207a3a"},"vehicle_type_id":"4","last_reported":1743135151,"current_range_meters":6400,"station_id":"","pricing_plan_id":"cebpf4jnsgd1na2vs0mg"},{"bike_id":"a4d800e4-39bc-4da7-938b-6d70bc0258cd","system_id":"levelo_inurba_marseille","lat":43.28457,"lon":5.35897,"is_reserved":false,"is_disabled":false,"rental_uris":{"android":"levelo://app?vid=a4d800e4-39bc-4da7-938b-6d70bc0258cd","ios":"levelo://app?vid=a4d800e4-39bc-4da7-938b-6d70bc0258cd"},"vehicle_type_id":"4","last_reported":1743135151,"current_range_meters":6400,"station_id":"ce4bhah2rcd13ifvqei0","pricing_plan_id":"cebpf4jnsgd1na2vs0mg"},{"bike_id":"40046afd-c6aa-43ea-88bd-183a4d2ec61c","system_id":"levelo_inurba_marseille","lat":43.31602,"lon":5.41671,"is_reserved":false,"is_disabled":false,"rental_uris":{"android":"levelo://app?vid=40046afd-c6aa-43ea-88bd-183a4d2ec61c","ios":"levelo://app?vid=40046afd-c6aa-43ea-88bd-183a4d2ec61c"},"vehicle_type_id":"4","last_reported":1743135151,"current_range_meters":6800,"station_id":"","pricing_plan_id":"cebpf4jnsgd1na2vs0mg"},{"bike_id":"4ea2dc4a-53b8-4d21-b056-faf850ab7b24","system_id":"levelo_inurba_marseille","lat":43.29553,"lon":5.42286,"is_reserved":false,"is_disabled":false,"rental_uris":{"android":"levelo://app?vid=4ea2dc4a-53b8-4d21-b056-faf850ab7b24","ios":"levelo://app?vid=4ea2dc4a-53b8-4d21-b056-faf850ab7b24"},"vehicle_type_id":"4","last_reported":1743135151,"current_range_meters":6800,"station_id":"ce4bhph2rcd13ifvqhdg","pricing_plan_id":"cebpf4jnsgd1na2vs0mg"},{"bike_id":"e53a1eb8-e926-4f74-b3ac-c2f1945803ef","system_id":"levelo_inurba_marseille","lat":43.28086,"lon":5.39688,"is_reserved":false,"is_disabled":true,"rental_uris":{"android":"levelo://app?vid=e53a1eb8-e926-4f74-b3ac-c2f1945803ef","ios":"levelo://app?vid=e53a1eb8-e926-4f74-b3ac-c2f1945803ef"},"vehicle_type_id":"4","last_reported":1743135151,"current_range_meters":6800,"station_id":"ce4bho12rcd13ifvqh2g","pricing_plan_id":"cebpf4jnsgd1na2vs0mg"},{"bike_id":"24317519-3c75-4115-b3e2-f1c0b1afe224","system_id":"levelo_inurba_marseille","lat":43.27916,"lon":5.395805,"is_reserved":false,"is_disabled":false,"rental_uris":{"android":"levelo://app?vid=24317519-3c75-4115-b3e2-f1c0b1afe224","ios":"levelo://app?vid=24317519-3c75-4115-b3e2-f1c0b1afe224"},"vehicle_type_id":"4","last_reported":1743135151,"current_range_meters":6800,"station_id":"ce4bhf92rcd13ifvqf40","pricing_plan_id":"cebpf4jnsgd1na2vs0mg"},{"bike_id":"2e013db2-c4bf-4ece-9b86-255ce2c33732","system_id":"levelo_inurba_marseille","lat":43.27794,"lon":5.4074,"is_reserved":false,"is_disabled":false,"rental_uris":{"android":"levelo://app?vid=2e013db2-c4bf-4ece-9b86-255ce2c33732","ios":"levelo://app?vid=2e013db2-c4bf-4ece-9b86-255ce2c33732"},"vehicle_type_id":"4","last_reported":1743135151,"current_range_meters":6800,"station_id":"ce4bhnh2rcd13ifvqgtg","pricing_plan_id":"cebpf4jnsgd1na2vs0mg"},{"bike_id":"0e173472-5a4b-4021-b0c5-dd55f1f57390","system_id":"levelo_inurba_marseille","lat":43.25088,"lon":5.39511,"is_reserved":false,"is_disabled":false,"rental_uris":{"android":"levelo://app?vid=0e173472-5a4b-4021-b0c5-dd55f1f57390","ios":"levelo://app?vid=0e173472-5a4b-4021-b0c5-dd55f1f57390"},"vehicle_type_id":"4","last_reported":1743135151,"current_range_meters":6800,"station_id":"ce4bhm12rcd13ifvqgkg","pricing_plan_id":"cebpf4jnsgd1na2vs0mg"},{"bike_id":"46c92c67-a9e1-4996-b4c8-2976ff580333","system_id":"levelo_inurba_marseille","lat":43.2408,"lon":5.37744,"is_reserved":false,"is_disabled":false,"rental_uris":{"android":"levelo://app?vid=46c92c67-a9e1-4996-b4c8-2976ff580333","ios":"levelo://app?vid=46c92c67-a9e1-4996-b4c8-2976ff580333"},"vehicle_type_id":"4","last_reported":1743135151,"current_range_meters":6800,"station_id":"ce4bhnp2rcd13ifvqgvg","pricing_plan_id":"cebpf4jnsgd1na2vs0mg"},{"bike_id":"da11e873-8731-4153-a3ab-5e5a7f846d22","system_id":"levelo_inurba_marseille","lat":43.287077,"lon":5.399907,"is_reserved":false,"is_disabled":false,"rental_uris":{"android":"levelo://app?vid=da11e873-8731-4153-a3ab-5e5a7f846d22","ios":"levelo://app?vid=da11e873-8731-4153-a3ab-5e5a7f846d22"},"vehicle_type_id":"4","last_reported":1743135151,"current_range_meters":6800,"station_id":"ce4bho92rcd13ifvqh3g","pricing_plan_id":"cebpf4jnsgd1na2vs0mg"},{"bike_id":"169d7fcf-280d-4645-acdf-db059c46d533","system_id":"levelo_inurba_marseille","lat":43.23957,"lon":5.36652,"is_reserved":false,"is_disabled":false,"rental_uris":{"android":"levelo://app?vid=169d7fcf-280d-4645-acdf-db059c46d533","ios":"levelo://app?vid=169d7fcf-280d-4645-acdf-db059c46d533"},"vehicle_type_id":"4","last_reported":1743135151,"current_range_meters":6800,"station_id":"ce4bhi12rcd13ifvqfp0","pricing_plan_id":"cebpf4jnsgd1na2vs0mg"},{"bike_id":"61aebee5-66c7-4c27-9cb3-fcca8ef32f9b","system_id":"levelo_inurba_marseille","lat":43.27046,"lon":5.42283,"is_reserved":false,"is_disabled":false,"rental_uris":{"android":"levelo://app?vid=61aebee5-66c7-4c27-9cb3-fcca8ef32f9b","ios":"levelo://app?vid=61aebee5-66c7-4c27-9cb3-fcca8ef32f9b"},"vehicle_type_id":"4","last_reported":1743135151,"current_range_meters":7200,"station_id":"ce4bhk92rcd13ifvqgb0","pricing_plan_id":"cebpf4jnsgd1na2vs0mg"},{"bike_id":"67372431-a0a3-4e95-b53b-6e36bdd9f44f","system_id":"levelo_inurba_marseille","lat":43.31487,"lon":5.37318,"is_reserved":false,"is_disabled":false,"rental_uris":{"android":"levelo://app?vid=67372431-a0a3-4e95-b53b-6e36bdd9f44f","ios":"levelo://app?vid=67372431-a0a3-4e95-b53b-6e36bdd9f44f"},"vehicle_type_id":"4","last_reported":1743135151,"current_range_meters":7200,"station_id":"ce4bgt12rcd13ifvqcd0","pricing_plan_id":"cebpf4jnsgd1na2vs0mg"},{"bike_id":"8ae2ded4-c19d-4977-964e-3fd3f050cf20","system_id":"levelo_inurba_marseille","lat":43.29988,"lon":5.3719,"is_reserved":false,"is_disabled":false,"rental_uris":{"android":"levelo://app?vid=8ae2ded4-c19d-4977-964e-3fd3f050cf20","ios":"levelo://app?vid=8ae2ded4-c19d-4977-964e-3fd3f050cf20"},"vehicle_type_id":"4","last_reported":1743135151,"current_range_meters":7200,"station_id":"ce4bgr92rcd13ifvqc7g","pricing_plan_id":"cebpf4jnsgd1na2vs0mg"},{"bike_id":"102b4a68-b003-44dd-a55c-3cf7a81794eb","system_id":"levelo_inurba_marseille","lat":43.28001,"lon":5.40004,"is_reserved":false,"is_disabled":false,"rental_uris":{"android":"levelo://app?vid=102b4a68-b003-44dd-a55c-3cf7a81794eb","ios":"levelo://app?vid=102b4a68-b003-44dd-a55c-3cf7a81794eb"},"vehicle_type_id":"4","last_reported":1743135151,"current_range_meters":7200,"station_id":"ce4bho92rcd13ifvqh4g","pricing_plan_id":"cebpf4jnsgd1na2vs0mg"},{"bike_id":"5c6fd83b-ada2-4000-b9ac-f78b80d149eb","system_id":"levelo_inurba_marseille","lat":43.30296,"lon":5.4051,"is_reserved":false,"is_disabled":false,"rental_uris":{"android":"levelo://app?vid=5c6fd83b-ada2-4000-b9ac-f78b80d149eb","ios":"levelo://app?vid=5c6fd83b-ada2-4000-b9ac-f78b80d149eb"},"vehicle_type_id":"4","last_reported":1743135151,"current_range_meters":7200,"station_id":"","pricing_plan_id":"cebpf4jnsgd1na2vs0mg"},{"bike_id":"af69edf2-4482-4ac5-b909-0d583a382cae","system_id":"levelo_inurba_marseille","lat":43.28462,"lon":5.35881,"is_reserved":false,"is_disabled":false,"rental_uris":{"android":"levelo://app?vid=af69edf2-4482-4ac5-b909-0d583a382cae","ios":"levelo://app?vid=af69edf2-4482-4ac5-b909-0d583a382cae"},"vehicle_type_id":"4","last_reported":1743135151,"current_range_meters":7200,"station_id":"ce4bhah2rcd13ifvqei0","pricing_plan_id":"cebpf4jnsgd1na2vs0mg"},{"bike_id":"de523b40-8361-4fbc-92e6-b8178b0420b3","system_id":"levelo_inurba_marseille","lat":43.286,"lon":5.35133,"is_reserved":false,"is_disabled":false,"rental_uris":{"android":"levelo://app?vid=de523b40-8361-4fbc-92e6-b8178b0420b3","ios":"levelo://app?vid=de523b40-8361-4fbc-92e6-b8178b0420b3"},"vehicle_type_id":"4","last_reported":1743135151,"current_range_meters":7200,"station_id":"ce4bhch2rcd13ifvqeug","pricing_plan_id":"cebpf4jnsgd1na2vs0mg"},{"bike_id":"a1214dab-c837-48e0-9f61-d72b9f46e9ff","system_id":"levelo_inurba_marseille","lat":43.29032,"lon":5.39956,"is_reserved":false,"is_disabled":false,"rental_uris":{"android":"levelo://app?vid=a1214dab-c837-48e0-9f61-d72b9f46e9ff","ios":"levelo://app?vid=a1214dab-c837-48e0-9f61-d72b9f46e9ff"},"vehicle_type_id":"4","last_reported":1743135151,"current_range_meters":7200,"station_id":"ce4bh392rcd13ifvqdm0","pricing_plan_id":"cebpf4jnsgd1na2vs0mg"},{"bike_id":"2d663f57-48d6-4590-92a4-dfaebcaf41a7","system_id":"levelo_inurba_marseille","lat":43.30876,"lon":5.39647,"is_reserved":false,"is_disabled":false,"rental_uris":{"android":"levelo://app?vid=2d663f57-48d6-4590-92a4-dfaebcaf41a7","ios":"levelo://app?vid=2d663f57-48d6-4590-92a4-dfaebcaf41a7"},"vehicle_type_id":"4","last_reported":1743135151,"current_range_meters":7200,"station_id":"ce4bh012rcd13ifvqcv0","pricing_plan_id":"cebpf4jnsgd1na2vs0mg"},{"bike_id":"c18155db-65c7-4d5a-8c5b-923eb75c675d","system_id":"levelo_inurba_marseille","lat":43.32109,"lon":5.36751,"is_reserved":false,"is_disabled":false,"rental_uris":{"android":"levelo://app?vid=c18155db-65c7-4d5a-8c5b-923eb75c675d","ios":"levelo://app?vid=c18155db-65c7-4d5a-8c5b-923eb75c675d"},"vehicle_type_id":"4","last_reported":1743135151,"current_range_meters":7200,"station_id":"ce4bhrh2rcd13ifvqhug","pricing_plan_id":"cebpf4jnsgd1na2vs0mg"},{"bike_id":"30cd612a-8cb0-4fab-9e3a-cd08e9fc22b5","system_id":"levelo_inurba_marseille","lat":43.29506,"lon":5.39385,"is_reserved":false,"is_disabled":true,"rental_uris":{"android":"levelo://app?vid=30cd612a-8cb0-4fab-9e3a-cd08e9fc22b5","ios":"levelo://app?vid=30cd612a-8cb0-4fab-9e3a-cd08e9fc22b5"},"vehicle_type_id":"4","last_reported":1743135151,"current_range_meters":8000,"station_id":"ce4bh292rcd13ifvqdf0","pricing_plan_id":"cebpf4jnsgd1na2vs0mg"},{"bike_id":"b692cfb6-c9c0-405d-8e0a-61268b620404","system_id":"levelo_inurba_marseille","lat":43.292583,"lon":5.384301,"is_reserved":false,"is_disabled":true,"rental_uris":{"android":"levelo://app?vid=b692cfb6-c9c0-405d-8e0a-61268b620404","ios":"levelo://app?vid=b692cfb6-c9c0-405d-8e0a-61268b620404"},"vehicle_type_id":"4","last_reported":1743135151,"current_range_meters":8000,"station_id":"ce4bh692rcd13ifvqea0","pricing_plan_id":"cebpf4jnsgd1na2vs0mg"},{"bike_id":"e110c135-ffaa-4ee4-bb95-b2c04dc26dca","system_id":"levelo_inurba_marseille","lat":43.30804,"lon":5.43539,"is_reserved":false,"is_disabled":false,"rental_uris":{"android":"levelo://app?vid=e110c135-ffaa-4ee4-bb95-b2c04dc26dca","ios":"levelo://app?vid=e110c135-ffaa-4ee4-bb95-b2c04dc26dca"},"vehicle_type_id":"4","last_reported":1743135151,"current_range_meters":8000,"station_id":"ce4bhph2rcd13ifvqheg","pricing_plan_id":"cebpf4jnsgd1na2vs0mg"},{"bike_id":"c5d17eb8-cde1-49a3-9672-ac8d8cf34632","system_id":"levelo_inurba_marseille","lat":43.334236,"lon":5.399801,"is_reserved":false,"is_disabled":false,"rental_uris":{"android":"levelo://app?vid=c5d17eb8-cde1-49a3-9672-ac8d8cf34632","ios":"levelo://app?vid=c5d17eb8-cde1-49a3-9672-ac8d8cf34632"},"vehicle_type_id":"4","last_reported":1743135151,"current_range_meters":8000,"station_id":"","pricing_plan_id":"cebpf4jnsgd1na2vs0mg"},{"bike_id":"87c956d3-f221-4ed3-ae86-04fa68654cdc","system_id":"levelo_inurba_marseille","lat":43.28924,"lon":5.36427,"is_reserved":false,"is_disabled":false,"rental_uris":{"android":"levelo://app?vid=87c956d3-f221-4ed3-ae86-04fa68654cdc","ios":"levelo://app?vid=87c956d3-f221-4ed3-ae86-04fa68654cdc"},"vehicle_type_id":"4","last_reported":1743135151,"current_range_meters":8000,"station_id":"ce4bhc92rcd13ifvqetg","pricing_plan_id":"cebpf4jnsgd1na2vs0mg"},{"bike_id":"638c8e6b-6bbe-4946-a05d-753bcac50810","system_id":"levelo_inurba_marseille","lat":43.28071,"lon":5.39655,"is_reserved":false,"is_disabled":false,"rental_uris":{"android":"levelo://app?vid=638c8e6b-6bbe-4946-a05d-753bcac50810","ios":"levelo://app?vid=638c8e6b-6bbe-4946-a05d-753bcac50810"},"vehicle_type_id":"4","last_reported":1743135151,"current_range_meters":8000,"station_id":"ce4bho12rcd13ifvqh2g","pricing_plan_id":"cebpf4jnsgd1na2vs0mg"},{"bike_id":"d4d5963a-cb27-46de-9f1c-185490377ac1","system_id":"levelo_inurba_marseille","lat":43.31323,"lon":5.39687,"is_reserved":false,"is_disabled":false,"rental_uris":{"android":"levelo://app?vid=d4d5963a-cb27-46de-9f1c-185490377ac1","ios":"levelo://app?vid=d4d5963a-cb27-46de-9f1c-185490377ac1"},"vehicle_type_id":"4","last_reported":1743135151,"current_range_meters":8400,"station_id":"ce4bgvp2rcd13ifvqcu0","pricing_plan_id":"cebpf4jnsgd1na2vs0mg"},{"bike_id":"3a9bdcca-abab-46db-a40a-336182c98f57","system_id":"levelo_inurba_marseille","lat":43.27822,"lon":5.40718,"is_reserved":false,"is_disabled":false,"rental_uris":{"android":"levelo://app?vid=3a9bdcca-abab-46db-a40a-336182c98f57","ios":"levelo://app?vid=3a9bdcca-abab-46db-a40a-336182c98f57"},"vehicle_type_id":"4","last_reported":1743135151,"current_range_meters":8400,"station_id":"ce4bhnh2rcd13ifvqgtg","pricing_plan_id":"cebpf4jnsgd1na2vs0mg"},{"bike_id":"ff4019a9-dd1d-4915-9c87-9b475eaf143c","system_id":"levelo_inurba_marseille","lat":43.28041,"lon":5.36919,"is_reserved":false,"is_disabled":false,"rental_uris":{"android":"levelo://app?vid=ff4019a9-dd1d-4915-9c87-9b475eaf143c","ios":"levelo://app?vid=ff4019a9-dd1d-4915-9c87-9b475eaf143c"},"vehicle_type_id":"4","last_reported":1743135151,"current_range_meters":8400,"station_id":"ce4bha12rcd13ifvqef0","pricing_plan_id":"cebpf4jnsgd1na2vs0mg"},{"bike_id":"09a227f9-e81f-4ae4-8d74-65daf422601e","system_id":"levelo_inurba_marseille","lat":43.248141,"lon":5.374578,"is_reserved":false,"is_disabled":false,"rental_uris":{"android":"levelo://app?vid=09a227f9-e81f-4ae4-8d74-65daf422601e","ios":"levelo://app?vid=09a227f9-e81f-4ae4-8d74-65daf422601e"},"vehicle_type_id":"4","last_reported":1743135151,"current_range_meters":8400,"station_id":"ce4bhgh2rcd13ifvqfb0","pricing_plan_id":"cebpf4jnsgd1na2vs0mg"},{"bike_id":"918a58ed-e860-41ef-bd73-9cdbd97e19d1","system_id":"levelo_inurba_marseille","lat":43.24071,"lon":5.37747,"is_reserved":false,"is_disabled":false,"rental_uris":{"android":"levelo://app?vid=918a58ed-e860-41ef-bd73-9cdbd97e19d1","ios":"levelo://app?vid=918a58ed-e860-41ef-bd73-9cdbd97e19d1"},"vehicle_type_id":"4","last_reported":1743135151,"current_range_meters":8400,"station_id":"ce4bhnp2rcd13ifvqgvg","pricing_plan_id":"cebpf4jnsgd1na2vs0mg"},{"bike_id":"e8230e4e-d9a7-46c2-83b0-eec450bbd0c3","system_id":"levelo_inurba_marseille","lat":43.287284,"lon":5.360878,"is_reserved":false,"is_disabled":false,"rental_uris":{"android":"levelo://app?vid=e8230e4e-d9a7-46c2-83b0-eec450bbd0c3","ios":"levelo://app?vid=e8230e4e-d9a7-46c2-83b0-eec450bbd0c3"},"vehicle_type_id":"4","last_reported":1743135151,"current_range_meters":8400,"station_id":"cki0cbj6b192h4jlfktg","pricing_plan_id":"cebpf4jnsgd1na2vs0mg"},{"bike_id":"2079e143-15fb-4fca-b428-1dcdbd2da2aa","system_id":"levelo_inurba_marseille","lat":43.27822,"lon":5.4072,"is_reserved":false,"is_disabled":false,"rental_uris":{"android":"levelo://app?vid=2079e143-15fb-4fca-b428-1dcdbd2da2aa","ios":"levelo://app?vid=2079e143-15fb-4fca-b428-1dcdbd2da2aa"},"vehicle_type_id":"4","last_reported":1743135151,"current_range_meters":8400,"station_id":"ce4bhnh2rcd13ifvqgtg","pricing_plan_id":"cebpf4jnsgd1na2vs0mg"},{"bike_id":"370669e1-a28f-4d18-9e7c-43dfbbad498e","system_id":"levelo_inurba_marseille","lat":43.241734,"lon":5.397282,"is_reserved":false,"is_disabled":false,"rental_uris":{"android":"levelo://app?vid=370669e1-a28f-4d18-9e7c-43dfbbad498e","ios":"levelo://app?vid=370669e1-a28f-4d18-9e7c-43dfbbad498e"},"vehicle_type_id":"4","last_reported":1743135151,"current_range_meters":8400,"station_id":"ce4bhn12rcd13ifvqgpg","pricing_plan_id":"cebpf4jnsgd1na2vs0mg"},{"bike_id":"0d268bc8-088b-4f54-90a0-0d14ccc60ae3","system_id":"levelo_inurba_marseille","lat":43.293018,"lon":5.374505,"is_reserved":false,"is_disabled":true,"rental_uris":{"android":"levelo://app?vid=0d268bc8-088b-4f54-90a0-0d14ccc60ae3","ios":"levelo://app?vid=0d268bc8-088b-4f54-90a0-0d14ccc60ae3"},"vehicle_type_id":"4","last_reported":1743135151,"current_range_meters":8400,"station_id":"ce4bgi12rcd13ifvqb70","pricing_plan_id":"cebpf4jnsgd1na2vs0mg"},{"bike_id":"0ac88cdf-dd3a-494f-aaa5-2b24d1ce393f","system_id":"levelo_inurba_marseille","lat":43.231906,"lon":5.355576,"is_reserved":false,"is_disabled":false,"rental_uris":{"android":"levelo://app?vid=0ac88cdf-dd3a-494f-aaa5-2b24d1ce393f","ios":"levelo://app?vid=0ac88cdf-dd3a-494f-aaa5-2b24d1ce393f"},"vehicle_type_id":"4","last_reported":1743135151,"current_range_meters":8400,"station_id":"ce4bhu92rcd13ifvqi70","pricing_plan_id":"cebpf4jnsgd1na2vs0mg"},{"bike_id":"1fc1e0ea-eb84-4932-b41d-f9a6da82e3dd","system_id":"levelo_inurba_marseille","lat":43.330246,"lon":5.390449,"is_reserved":false,"is_disabled":false,"rental_uris":{"android":"levelo://app?vid=1fc1e0ea-eb84-4932-b41d-f9a6da82e3dd","ios":"levelo://app?vid=1fc1e0ea-eb84-4932-b41d-f9a6da82e3dd"},"vehicle_type_id":"4","last_reported":1743135151,"current_range_meters":8400,"station_id":"ce4bhr92rcd13ifvqhrg","pricing_plan_id":"cebpf4jnsgd1na2vs0mg"},{"bike_id":"a8cb7b4b-8bee-4b66-88cc-bdc18306d3c8","system_id":"levelo_inurba_marseille","lat":43.279402,"lon":5.410436,"is_reserved":false,"is_disabled":false,"rental_uris":{"android":"levelo://app?vid=a8cb7b4b-8bee-4b66-88cc-bdc18306d3c8","ios":"levelo://app?vid=a8cb7b4b-8bee-4b66-88cc-bdc18306d3c8"},"vehicle_type_id":"4","last_reported":1743135151,"current_range_meters":8400,"station_id":"ce4bhnp2rcd13ifvqh0g","pricing_plan_id":"cebpf4jnsgd1na2vs0mg"},{"bike_id":"fc8e8371-f4e9-4721-bc19-563801e389dc","system_id":"levelo_inurba_marseille","lat":43.337444,"lon":5.374475,"is_reserved":false,"is_disabled":false,"rental_uris":{"android":"levelo://app?vid=fc8e8371-f4e9-4721-bc19-563801e389dc","ios":"levelo://app?vid=fc8e8371-f4e9-4721-bc19-563801e389dc"},"vehicle_type_id":"4","last_reported":1743135151,"current_range_meters":8400,"station_id":"","pricing_plan_id":"cebpf4jnsgd1na2vs0mg"},{"bike_id":"653b8eba-a23a-45fe-87c3-6a270637d839","system_id":"levelo_inurba_marseille","lat":43.30313,"lon":5.40449,"is_reserved":false,"is_disabled":false,"rental_uris":{"android":"levelo://app?vid=653b8eba-a23a-45fe-87c3-6a270637d839","ios":"levelo://app?vid=653b8eba-a23a-45fe-87c3-6a270637d839"},"vehicle_type_id":"4","last_reported":1743135151,"current_range_meters":8800,"station_id":"ce4bh012rcd13ifvqd10","pricing_plan_id":"cebpf4jnsgd1na2vs0mg"},{"bike_id":"cc0a66da-20f9-44b3-a3bd-e1d2c0474fa7","system_id":"levelo_inurba_marseille","lat":43.2464,"lon":5.38929,"is_reserved":false,"is_disabled":false,"rental_uris":{"android":"levelo://app?vid=cc0a66da-20f9-44b3-a3bd-e1d2c0474fa7","ios":"levelo://app?vid=cc0a66da-20f9-44b3-a3bd-e1d2c0474fa7"},"vehicle_type_id":"4","last_reported":1743135151,"current_range_meters":8800,"station_id":"ce4bhg12rcd13ifvqf60","pricing_plan_id":"cebpf4jnsgd1na2vs0mg"},{"bike_id":"e5047771-2082-4dba-9477-d8725027152d","system_id":"levelo_inurba_marseille","lat":43.25444,"lon":5.41887,"is_reserved":false,"is_disabled":false,"rental_uris":{"android":"levelo://app?vid=e5047771-2082-4dba-9477-d8725027152d","ios":"levelo://app?vid=e5047771-2082-4dba-9477-d8725027152d"},"vehicle_type_id":"4","last_reported":1743135151,"current_range_meters":8800,"station_id":"","pricing_plan_id":"cebpf4jnsgd1na2vs0mg"},{"bike_id":"ec940620-2a09-4eae-aace-1a0a72b62180","system_id":"levelo_inurba_marseille","lat":43.30243,"lon":5.4007,"is_reserved":false,"is_disabled":false,"rental_uris":{"android":"levelo://app?vid=ec940620-2a09-4eae-aace-1a0a72b62180","ios":"levelo://app?vid=ec940620-2a09-4eae-aace-1a0a72b62180"},"vehicle_type_id":"4","last_reported":1743135151,"current_range_meters":8800,"station_id":"ce4bgvh2rcd13ifvqcs0","pricing_plan_id":"cebpf4jnsgd1na2vs0mg"},{"bike_id":"a8ed19fc-d86c-48c2-bfe0-33f8fd6b1c33","system_id":"levelo_inurba_marseille","lat":43.28031,"lon":5.3695,"is_reserved":false,"is_disabled":false,"rental_uris":{"android":"levelo://app?vid=a8ed19fc-d86c-48c2-bfe0-33f8fd6b1c33","ios":"levelo://app?vid=a8ed19fc-d86c-48c2-bfe0-33f8fd6b1c33"},"vehicle_type_id":"4","last_reported":1743135151,"current_range_meters":8800,"station_id":"ce4bha12rcd13ifvqef0","pricing_plan_id":"cebpf4jnsgd1na2vs0mg"},{"bike_id":"d46ff930-e785-44f9-bf74-2f9202a8045b","system_id":"levelo_inurba_marseille","lat":43.288516,"lon":5.35848,"is_reserved":false,"is_disabled":false,"rental_uris":{"android":"levelo://app?vid=d46ff930-e785-44f9-bf74-2f9202a8045b","ios":"levelo://app?vid=d46ff930-e785-44f9-bf74-2f9202a8045b"},"vehicle_type_id":"4","last_reported":1743135151,"current_range_meters":8800,"station_id":"ce4bhb12rcd13ifvqem0","pricing_plan_id":"cebpf4jnsgd1na2vs0mg"},{"bike_id":"5a7f605c-2a74-4026-82f7-f55a72384599","system_id":"levelo_inurba_marseille","lat":43.28729,"lon":5.36075,"is_reserved":false,"is_disabled":false,"rental_uris":{"android":"levelo://app?vid=5a7f605c-2a74-4026-82f7-f55a72384599","ios":"levelo://app?vid=5a7f605c-2a74-4026-82f7-f55a72384599"},"vehicle_type_id":"4","last_reported":1743135151,"current_range_meters":8800,"station_id":"cki0cbj6b192h4jlfktg","pricing_plan_id":"cebpf4jnsgd1na2vs0mg"},{"bike_id":"19221227-42ec-4f4b-8f04-42a0818e22f5","system_id":"levelo_inurba_marseille","lat":43.32103,"lon":5.36776,"is_reserved":false,"is_disabled":false,"rental_uris":{"android":"levelo://app?vid=19221227-42ec-4f4b-8f04-42a0818e22f5","ios":"levelo://app?vid=19221227-42ec-4f4b-8f04-42a0818e22f5"},"vehicle_type_id":"4","last_reported":1743135151,"current_range_meters":8800,"station_id":"ce4bhrh2rcd13ifvqhug","pricing_plan_id":"cebpf4jnsgd1na2vs0mg"},{"bike_id":"64f0ea86-1180-4755-95e1-3cbc9c8d4cf5","system_id":"levelo_inurba_marseille","lat":43.330006,"lon":5.438703,"is_reserved":false,"is_disabled":true,"rental_uris":{"android":"levelo://app?vid=64f0ea86-1180-4755-95e1-3cbc9c8d4cf5","ios":"levelo://app?vid=64f0ea86-1180-4755-95e1-3cbc9c8d4cf5"},"vehicle_type_id":"4","last_reported":1743135151,"current_range_meters":8800,"station_id":"","pricing_plan_id":"cebpf4jnsgd1na2vs0mg"},{"bike_id":"039e06cd-a88f-474e-9b34-6e28e3e4565e","system_id":"levelo_inurba_marseille","lat":43.284068,"lon":5.375195,"is_reserved":false,"is_disabled":false,"rental_uris":{"android":"levelo://app?vid=039e06cd-a88f-474e-9b34-6e28e3e4565e","ios":"levelo://app?vid=039e06cd-a88f-474e-9b34-6e28e3e4565e"},"vehicle_type_id":"4","last_reported":1743135151,"current_range_meters":8800,"station_id":"ce4bh412rcd13ifvqds0","pricing_plan_id":"cebpf4jnsgd1na2vs0mg"},{"bike_id":"17ad65fb-68d1-4f5a-8936-4a8b650acc48","system_id":"levelo_inurba_marseille","lat":43.29284,"lon":5.40147,"is_reserved":false,"is_disabled":false,"rental_uris":{"android":"levelo://app?vid=17ad65fb-68d1-4f5a-8936-4a8b650acc48","ios":"levelo://app?vid=17ad65fb-68d1-4f5a-8936-4a8b650acc48"},"vehicle_type_id":"4","last_reported":1743135151,"current_range_meters":8800,"station_id":"ce4bh312rcd13ifvqdk0","pricing_plan_id":"cebpf4jnsgd1na2vs0mg"},{"bike_id":"b6277294-9c97-4bd2-bb72-519bd900d431","system_id":"levelo_inurba_marseille","lat":43.29276,"lon":5.37487,"is_reserved":false,"is_disabled":true,"rental_uris":{"android":"levelo://app?vid=b6277294-9c97-4bd2-bb72-519bd900d431","ios":"levelo://app?vid=b6277294-9c97-4bd2-bb72-519bd900d431"},"vehicle_type_id":"4","last_reported":1743135151,"current_range_meters":9200,"station_id":"ce4bgi12rcd13ifvqb70","pricing_plan_id":"cebpf4jnsgd1na2vs0mg"},{"bike_id":"3696bc51-8c25-4c56-b61d-dcce493da387","system_id":"levelo_inurba_marseille","lat":43.303175,"lon":5.404362,"is_reserved":false,"is_disabled":false,"rental_uris":{"android":"levelo://app?vid=3696bc51-8c25-4c56-b61d-dcce493da387","ios":"levelo://app?vid=3696bc51-8c25-4c56-b61d-dcce493da387"},"vehicle_type_id":"4","last_reported":1743135151,"current_range_meters":9200,"station_id":"ce4bh012rcd13ifvqd10","pricing_plan_id":"cebpf4jnsgd1na2vs0mg"},{"bike_id":"bc3f138a-3af0-4b4e-9b07-2d2a8e540795","system_id":"levelo_inurba_marseille","lat":43.264849,"lon":5.395561,"is_reserved":false,"is_disabled":true,"rental_uris":{"android":"levelo://app?vid=bc3f138a-3af0-4b4e-9b07-2d2a8e540795","ios":"levelo://app?vid=bc3f138a-3af0-4b4e-9b07-2d2a8e540795"},"vehicle_type_id":"4","last_reported":1743135151,"current_range_meters":9200,"station_id":"ce4bhi12rcd13ifvqfq0","pricing_plan_id":"cebpf4jnsgd1na2vs0mg"},{"bike_id":"25c93242-72e6-4525-aea7-7d96e2cd1825","system_id":"levelo_inurba_marseille","lat":43.330829,"lon":5.408428,"is_reserved":false,"is_disabled":false,"rental_uris":{"android":"levelo://app?vid=25c93242-72e6-4525-aea7-7d96e2cd1825","ios":"levelo://app?vid=25c93242-72e6-4525-aea7-7d96e2cd1825"},"vehicle_type_id":"4","last_reported":1743135151,"current_range_meters":9200,"station_id":"","pricing_plan_id":"cebpf4jnsgd1na2vs0mg"},{"bike_id":"9b6b02c7-cfb4-40b4-829c-2e3a58d88e4d","system_id":"levelo_inurba_marseille","lat":43.297864,"lon":5.393469,"is_reserved":false,"is_disabled":false,"rental_uris":{"android":"levelo://app?vid=9b6b02c7-cfb4-40b4-829c-2e3a58d88e4d","ios":"levelo://app?vid=9b6b02c7-cfb4-40b4-829c-2e3a58d88e4d"},"vehicle_type_id":"4","last_reported":1743135151,"current_range_meters":9200,"station_id":"chh1huq6cuj3fo74tm60","pricing_plan_id":"cebpf4jnsgd1na2vs0mg"},{"bike_id":"0c1e7954-aa7d-4b26-b665-a6cfbb5bf9f2","system_id":"levelo_inurba_marseille","lat":43.28722,"lon":5.37935,"is_reserved":false,"is_disabled":false,"rental_uris":{"android":"levelo://app?vid=0c1e7954-aa7d-4b26-b665-a6cfbb5bf9f2","ios":"levelo://app?vid=0c1e7954-aa7d-4b26-b665-a6cfbb5bf9f2"},"vehicle_type_id":"4","last_reported":1743135151,"current_range_meters":9200,"station_id":"ce4bh9p2rcd13ifvqec0","pricing_plan_id":"cebpf4jnsgd1na2vs0mg"},{"bike_id":"813634ed-e21d-4b9e-88e8-aa8b87581eb3","system_id":"levelo_inurba_marseille","lat":43.32116,"lon":5.36776,"is_reserved":false,"is_disabled":false,"rental_uris":{"android":"levelo://app?vid=813634ed-e21d-4b9e-88e8-aa8b87581eb3","ios":"levelo://app?vid=813634ed-e21d-4b9e-88e8-aa8b87581eb3"},"vehicle_type_id":"4","last_reported":1743135151,"current_range_meters":9600,"station_id":"ce4bhrh2rcd13ifvqhug","pricing_plan_id":"cebpf4jnsgd1na2vs0mg"},{"bike_id":"f00e0bf1-e77c-4752-8f1b-63a2e565cf51","system_id":"levelo_inurba_marseille","lat":43.27944,"lon":5.38687,"is_reserved":false,"is_disabled":true,"rental_uris":{"android":"levelo://app?vid=f00e0bf1-e77c-4752-8f1b-63a2e565cf51","ios":"levelo://app?vid=f00e0bf1-e77c-4752-8f1b-63a2e565cf51"},"vehicle_type_id":"4","last_reported":1743135151,"current_range_meters":9600,"station_id":"","pricing_plan_id":"cebpf4jnsgd1na2vs0mg"},{"bike_id":"74d27e6b-e3c6-45b6-9eb1-918c740be7b3","system_id":"levelo_inurba_marseille","lat":43.2928,"lon":5.401208,"is_reserved":false,"is_disabled":false,"rental_uris":{"android":"levelo://app?vid=74d27e6b-e3c6-45b6-9eb1-918c740be7b3","ios":"levelo://app?vid=74d27e6b-e3c6-45b6-9eb1-918c740be7b3"},"vehicle_type_id":"4","last_reported":1743135151,"current_range_meters":9600,"station_id":"ce4bh312rcd13ifvqdk0","pricing_plan_id":"cebpf4jnsgd1na2vs0mg"},{"bike_id":"4c732124-8b69-4726-a111-e3a8d012a4e3","system_id":"levelo_inurba_marseille","lat":43.30308,"lon":5.40451,"is_reserved":false,"is_disabled":false,"rental_uris":{"android":"levelo://app?vid=4c732124-8b69-4726-a111-e3a8d012a4e3","ios":"levelo://app?vid=4c732124-8b69-4726-a111-e3a8d012a4e3"},"vehicle_type_id":"4","last_reported":1743135151,"current_range_meters":9600,"station_id":"ce4bh012rcd13ifvqd10","pricing_plan_id":"cebpf4jnsgd1na2vs0mg"},{"bike_id":"b1d443ea-0a9b-45b3-b54b-ee844688df1f","system_id":"levelo_inurba_marseille","lat":43.23207,"lon":5.39982,"is_reserved":false,"is_disabled":false,"rental_uris":{"android":"levelo://app?vid=b1d443ea-0a9b-45b3-b54b-ee844688df1f","ios":"levelo://app?vid=b1d443ea-0a9b-45b3-b54b-ee844688df1f"},"vehicle_type_id":"4","last_reported":1743135151,"current_range_meters":9600,"station_id":"ce4bhn12rcd13ifvqgqg","pricing_plan_id":"cebpf4jnsgd1na2vs0mg"},{"bike_id":"e29d1a2b-35d0-4d6b-9e81-558cc174acf3","system_id":"levelo_inurba_marseille","lat":43.25714,"lon":5.41117,"is_reserved":false,"is_disabled":false,"rental_uris":{"android":"levelo://app?vid=e29d1a2b-35d0-4d6b-9e81-558cc174acf3","ios":"levelo://app?vid=e29d1a2b-35d0-4d6b-9e81-558cc174acf3"},"vehicle_type_id":"4","last_reported":1743135151,"current_range_meters":9600,"station_id":"ce4bhkp2rcd13ifvqgd0","pricing_plan_id":"cebpf4jnsgd1na2vs0mg"},{"bike_id":"34805b4a-ac2d-4367-961b-5651d4251865","system_id":"levelo_inurba_marseille","lat":43.28713,"lon":5.40017,"is_reserved":false,"is_disabled":false,"rental_uris":{"android":"levelo://app?vid=34805b4a-ac2d-4367-961b-5651d4251865","ios":"levelo://app?vid=34805b4a-ac2d-4367-961b-5651d4251865"},"vehicle_type_id":"4","last_reported":1743135151,"current_range_meters":9600,"station_id":"ce4bho92rcd13ifvqh3g","pricing_plan_id":"cebpf4jnsgd1na2vs0mg"},{"bike_id":"eb993723-35b5-4171-a0c3-8265760301bc","system_id":"levelo_inurba_marseille","lat":43.29777,"lon":5.39349,"is_reserved":false,"is_disabled":false,"rental_uris":{"android":"levelo://app?vid=eb993723-35b5-4171-a0c3-8265760301bc","ios":"levelo://app?vid=eb993723-35b5-4171-a0c3-8265760301bc"},"vehicle_type_id":"4","last_reported":1743135151,"current_range_meters":9600,"station_id":"chh1huq6cuj3fo74tm60","pricing_plan_id":"cebpf4jnsgd1na2vs0mg"},{"bike_id":"2bedb86a-2cb2-4440-9de1-d77c0174ff1c","system_id":"levelo_inurba_marseille","lat":43.30629,"lon":5.40076,"is_reserved":false,"is_disabled":false,"rental_uris":{"android":"levelo://app?vid=2bedb86a-2cb2-4440-9de1-d77c0174ff1c","ios":"levelo://app?vid=2bedb86a-2cb2-4440-9de1-d77c0174ff1c"},"vehicle_type_id":"4","last_reported":1743135151,"current_range_meters":9600,"station_id":"ce4bh112rcd13ifvqda0","pricing_plan_id":"cebpf4jnsgd1na2vs0mg"},{"bike_id":"e8d201f1-9aa9-4ae6-a427-58a645e166df","system_id":"levelo_inurba_marseille","lat":43.29874,"lon":5.39735,"is_reserved":false,"is_disabled":false,"rental_uris":{"android":"levelo://app?vid=e8d201f1-9aa9-4ae6-a427-58a645e166df","ios":"levelo://app?vid=e8d201f1-9aa9-4ae6-a427-58a645e166df"},"vehicle_type_id":"4","last_reported":1743135151,"current_range_meters":9600,"station_id":"ce4bh0h2rcd13ifvqd50","pricing_plan_id":"cebpf4jnsgd1na2vs0mg"},{"bike_id":"2afc13ca-19ca-4a36-868b-f0456f981754","system_id":"levelo_inurba_marseille","lat":43.274926,"lon":5.424524,"is_reserved":false,"is_disabled":false,"rental_uris":{"android":"levelo://app?vid=2afc13ca-19ca-4a36-868b-f0456f981754","ios":"levelo://app?vid=2afc13ca-19ca-4a36-868b-f0456f981754"},"vehicle_type_id":"4","last_reported":1743135151,"current_range_meters":9600,"station_id":"ce4bhn92rcd13ifvqgrg","pricing_plan_id":"cebpf4jnsgd1na2vs0mg"},{"bike_id":"97598caa-f881-4c11-b13b-ad62623fc261","system_id":"levelo_inurba_marseille","lat":43.28094,"lon":5.39686,"is_reserved":false,"is_disabled":false,"rental_uris":{"android":"levelo://app?vid=97598caa-f881-4c11-b13b-ad62623fc261","ios":"levelo://app?vid=97598caa-f881-4c11-b13b-ad62623fc261"},"vehicle_type_id":"4","last_reported":1743135151,"current_range_meters":9600,"station_id":"ce4bho12rcd13ifvqh2g","pricing_plan_id":"cebpf4jnsgd1na2vs0mg"},{"bike_id":"eb3cf403-8b3f-4893-9f27-c4512d6833f5","system_id":"levelo_inurba_marseille","lat":43.297877,"lon":5.393424,"is_reserved":false,"is_disabled":false,"rental_uris":{"android":"levelo://app?vid=eb3cf403-8b3f-4893-9f27-c4512d6833f5","ios":"levelo://app?vid=eb3cf403-8b3f-4893-9f27-c4512d6833f5"},"vehicle_type_id":"4","last_reported":1743135151,"current_range_meters":10000,"station_id":"chh1huq6cuj3fo74tm60","pricing_plan_id":"cebpf4jnsgd1na2vs0mg"},{"bike_id":"cfed900d-e17f-46a7-9847-c8d921508ac3","system_id":"levelo_inurba_marseille","lat":43.239654,"lon":5.366374,"is_reserved":false,"is_disabled":false,"rental_uris":{"android":"levelo://app?vid=cfed900d-e17f-46a7-9847-c8d921508ac3","ios":"levelo://app?vid=cfed900d-e17f-46a7-9847-c8d921508ac3"},"vehicle_type_id":"4","last_reported":1743135151,"current_range_meters":10000,"station_id":"ce4bhi12rcd13ifvqfp0","pricing_plan_id":"cebpf4jnsgd1na2vs0mg"},{"bike_id":"3e058c99-2d25-4554-8d4d-6f99ec285bba","system_id":"levelo_inurba_marseille","lat":43.29247,"lon":5.40926,"is_reserved":false,"is_disabled":false,"rental_uris":{"android":"levelo://app?vid=3e058c99-2d25-4554-8d4d-6f99ec285bba","ios":"levelo://app?vid=3e058c99-2d25-4554-8d4d-6f99ec285bba"},"vehicle_type_id":"4","last_reported":1743135151,"current_range_meters":10000,"station_id":"ce4bh192rcd13ifvqdc0","pricing_plan_id":"cebpf4jnsgd1na2vs0mg"},{"bike_id":"5a193ba4-1e21-479f-bd65-c3dcbd16b945","system_id":"levelo_inurba_marseille","lat":43.30862,"lon":5.39652,"is_reserved":false,"is_disabled":false,"rental_uris":{"android":"levelo://app?vid=5a193ba4-1e21-479f-bd65-c3dcbd16b945","ios":"levelo://app?vid=5a193ba4-1e21-479f-bd65-c3dcbd16b945"},"vehicle_type_id":"4","last_reported":1743135151,"current_range_meters":10000,"station_id":"ce4bh012rcd13ifvqcv0","pricing_plan_id":"cebpf4jnsgd1na2vs0mg"},{"bike_id":"e39f0277-8842-447f-8838-fb2880aa78ea","system_id":"levelo_inurba_marseille","lat":43.28941,"lon":5.36638,"is_reserved":false,"is_disabled":false,"rental_uris":{"android":"levelo://app?vid=e39f0277-8842-447f-8838-fb2880aa78ea","ios":"levelo://app?vid=e39f0277-8842-447f-8838-fb2880aa78ea"},"vehicle_type_id":"4","last_reported":1743135151,"current_range_meters":10000,"station_id":"ce4bhap2rcd13ifvqek0","pricing_plan_id":"cebpf4jnsgd1na2vs0mg"},{"bike_id":"f8525a73-f202-4208-867c-6529bbc5e8d1","system_id":"levelo_inurba_marseille","lat":43.24803,"lon":5.37455,"is_reserved":false,"is_disabled":false,"rental_uris":{"android":"levelo://app?vid=f8525a73-f202-4208-867c-6529bbc5e8d1","ios":"levelo://app?vid=f8525a73-f202-4208-867c-6529bbc5e8d1"},"vehicle_type_id":"4","last_reported":1743135151,"current_range_meters":9600,"station_id":"ce4bhgh2rcd13ifvqfb0","pricing_plan_id":"cebpf4jnsgd1na2vs0mg"},{"bike_id":"d75f9f5e-4772-4de2-8f78-058b650907ab","system_id":"levelo_inurba_marseille","lat":43.24162,"lon":5.36402,"is_reserved":false,"is_disabled":false,"rental_uris":{"android":"levelo://app?vid=d75f9f5e-4772-4de2-8f78-058b650907ab","ios":"levelo://app?vid=d75f9f5e-4772-4de2-8f78-058b650907ab"},"vehicle_type_id":"4","last_reported":1743135151,"current_range_meters":10000,"station_id":"cpo36qri1sfpv3e86is0","pricing_plan_id":"cebpf4jnsgd1na2vs0mg"},{"bike_id":"34d07891-8c02-4c2b-a31e-e054161d5fa3","system_id":"levelo_inurba_marseille","lat":43.28404,"lon":5.37525,"is_reserved":false,"is_disabled":false,"rental_uris":{"android":"levelo://app?vid=34d07891-8c02-4c2b-a31e-e054161d5fa3","ios":"levelo://app?vid=34d07891-8c02-4c2b-a31e-e054161d5fa3"},"vehicle_type_id":"4","last_reported":1743135151,"current_range_meters":10000,"station_id":"ce4bh412rcd13ifvqds0","pricing_plan_id":"cebpf4jnsgd1na2vs0mg"},{"bike_id":"1b1aa963-5d87-46c9-8b5b-1a666c786917","system_id":"levelo_inurba_marseille","lat":43.255797,"lon":5.382366,"is_reserved":false,"is_disabled":false,"rental_uris":{"android":"levelo://app?vid=1b1aa963-5d87-46c9-8b5b-1a666c786917","ios":"levelo://app?vid=1b1aa963-5d87-46c9-8b5b-1a666c786917"},"vehicle_type_id":"4","last_reported":1743135151,"current_range_meters":10000,"station_id":"ce4bhih2rcd13ifvqfs0","pricing_plan_id":"cebpf4jnsgd1na2vs0mg"},{"bike_id":"9802cb48-7f22-49fb-842b-2f89200f6272","system_id":"levelo_inurba_marseille","lat":43.33018,"lon":5.390397,"is_reserved":false,"is_disabled":false,"rental_uris":{"android":"levelo://app?vid=9802cb48-7f22-49fb-842b-2f89200f6272","ios":"levelo://app?vid=9802cb48-7f22-49fb-842b-2f89200f6272"},"vehicle_type_id":"4","last_reported":1743135151,"current_range_meters":10000,"station_id":"ce4bhr92rcd13ifvqhrg","pricing_plan_id":"cebpf4jnsgd1na2vs0mg"},{"bike_id":"308affa0-f7e4-4e9c-992c-6abe90a252dc","system_id":"levelo_inurba_marseille","lat":43.306449,"lon":5.400764,"is_reserved":false,"is_disabled":false,"rental_uris":{"android":"levelo://app?vid=308affa0-f7e4-4e9c-992c-6abe90a252dc","ios":"levelo://app?vid=308affa0-f7e4-4e9c-992c-6abe90a252dc"},"vehicle_type_id":"4","last_reported":1743135151,"current_range_meters":10000,"station_id":"ce4bh112rcd13ifvqda0","pricing_plan_id":"cebpf4jnsgd1na2vs0mg"},{"bike_id":"842ff379-56ad-4853-bc07-b3df931463ba","system_id":"levelo_inurba_marseille","lat":43.29727,"lon":5.3769,"is_reserved":false,"is_disabled":false,"rental_uris":{"android":"levelo://app?vid=842ff379-56ad-4853-bc07-b3df931463ba","ios":"levelo://app?vid=842ff379-56ad-4853-bc07-b3df931463ba"},"vehicle_type_id":"4","last_reported":1743135151,"current_range_meters":10800,"station_id":"ce4bgkh2rcd13ifvqbl0","pricing_plan_id":"cebpf4jnsgd1na2vs0mg"},{"bike_id":"c11a4eb9-648f-4fa7-aefc-e342d02ebe0d","system_id":"levelo_inurba_marseille","lat":43.28726,"lon":5.3608,"is_reserved":false,"is_disabled":false,"rental_uris":{"android":"levelo://app?vid=c11a4eb9-648f-4fa7-aefc-e342d02ebe0d","ios":"levelo://app?vid=c11a4eb9-648f-4fa7-aefc-e342d02ebe0d"},"vehicle_type_id":"4","last_reported":1743135151,"current_range_meters":10800,"station_id":"cki0cbj6b192h4jlfktg","pricing_plan_id":"cebpf4jnsgd1na2vs0mg"},{"bike_id":"21df7ecd-9789-4647-b3d9-f06ca6714059","system_id":"levelo_inurba_marseille","lat":43.28941,"lon":5.36631,"is_reserved":false,"is_disabled":false,"rental_uris":{"android":"levelo://app?vid=21df7ecd-9789-4647-b3d9-f06ca6714059","ios":"levelo://app?vid=21df7ecd-9789-4647-b3d9-f06ca6714059"},"vehicle_type_id":"4","last_reported":1743135151,"current_range_meters":10800,"station_id":"ce4bhap2rcd13ifvqek0","pricing_plan_id":"cebpf4jnsgd1na2vs0mg"},{"bike_id":"4a42ca1e-41e4-4233-a4bb-a180f04564d6","system_id":"levelo_inurba_marseille","lat":43.29158,"lon":5.37144,"is_reserved":false,"is_disabled":true,"rental_uris":{"android":"levelo://app?vid=4a42ca1e-41e4-4233-a4bb-a180f04564d6","ios":"levelo://app?vid=4a42ca1e-41e4-4233-a4bb-a180f04564d6"},"vehicle_type_id":"4","last_reported":1743135151,"current_range_meters":10800,"station_id":"ce4bha92rcd13ifvqeh0","pricing_plan_id":"cebpf4jnsgd1na2vs0mg"},{"bike_id":"cbf7177e-6e28-4340-bbb6-69b4f76d24c6","system_id":"levelo_inurba_marseille","lat":43.3031,"lon":5.40462,"is_reserved":false,"is_disabled":false,"rental_uris":{"android":"levelo://app?vid=cbf7177e-6e28-4340-bbb6-69b4f76d24c6","ios":"levelo://app?vid=cbf7177e-6e28-4340-bbb6-69b4f76d24c6"},"vehicle_type_id":"4","last_reported":1743135151,"current_range_meters":10800,"station_id":"ce4bh012rcd13ifvqd10","pricing_plan_id":"cebpf4jnsgd1na2vs0mg"},{"bike_id":"2e919ca5-ce98-4c47-a9d7-66e6ab7584e4","system_id":"levelo_inurba_marseille","lat":43.321111,"lon":5.367808,"is_reserved":false,"is_disabled":false,"rental_uris":{"android":"levelo://app?vid=2e919ca5-ce98-4c47-a9d7-66e6ab7584e4","ios":"levelo://app?vid=2e919ca5-ce98-4c47-a9d7-66e6ab7584e4"},"vehicle_type_id":"4","last_reported":1743135151,"current_range_meters":10800,"station_id":"ce4bhrh2rcd13ifvqhug","pricing_plan_id":"cebpf4jnsgd1na2vs0mg"},{"bike_id":"ed3f340d-7b56-49a7-952a-c79c8daa5f0f","system_id":"levelo_inurba_marseille","lat":43.301344,"lon":5.387796,"is_reserved":false,"is_disabled":true,"rental_uris":{"android":"levelo://app?vid=ed3f340d-7b56-49a7-952a-c79c8daa5f0f","ios":"levelo://app?vid=ed3f340d-7b56-49a7-952a-c79c8daa5f0f"},"vehicle_type_id":"4","last_reported":1743135151,"current_range_meters":10800,"station_id":"ce4bghh2rcd13ifvqb60","pricing_plan_id":"cebpf4jnsgd1na2vs0mg"},{"bike_id":"3c4fd66e-3c94-485d-83d0-4718eb89e82d","system_id":"levelo_inurba_marseille","lat":43.30145,"lon":5.39872,"is_reserved":false,"is_disabled":false,"rental_uris":{"android":"levelo://app?vid=3c4fd66e-3c94-485d-83d0-4718eb89e82d","ios":"levelo://app?vid=3c4fd66e-3c94-485d-83d0-4718eb89e82d"},"vehicle_type_id":"4","last_reported":1743135151,"current_range_meters":10800,"station_id":"ce4bh0h2rcd13ifvqd40","pricing_plan_id":"cebpf4jnsgd1na2vs0mg"},{"bike_id":"74bb3be4-214a-4907-a0a6-cb5edcf13a83","system_id":"levelo_inurba_marseille","lat":43.297141,"lon":5.366052,"is_reserved":false,"is_disabled":true,"rental_uris":{"android":"levelo://app?vid=74bb3be4-214a-4907-a0a6-cb5edcf13a83","ios":"levelo://app?vid=74bb3be4-214a-4907-a0a6-cb5edcf13a83"},"vehicle_type_id":"4","last_reported":1743135151,"current_range_meters":10800,"station_id":"ce4bgn12rcd13ifvqbt0","pricing_plan_id":"cebpf4jnsgd1na2vs0mg"},{"bike_id":"bfa018d7-4766-430e-8a9d-9b17e9a65a71","system_id":"levelo_inurba_marseille","lat":43.25082,"lon":5.39517,"is_reserved":false,"is_disabled":false,"rental_uris":{"android":"levelo://app?vid=bfa018d7-4766-430e-8a9d-9b17e9a65a71","ios":"levelo://app?vid=bfa018d7-4766-430e-8a9d-9b17e9a65a71"},"vehicle_type_id":"4","last_reported":1743135151,"current_range_meters":10800,"station_id":"ce4bhm12rcd13ifvqgkg","pricing_plan_id":"cebpf4jnsgd1na2vs0mg"},{"bike_id":"79b5379a-18da-4725-b435-578361f4f572","system_id":"levelo_inurba_marseille","lat":43.28853,"lon":5.39299,"is_reserved":false,"is_disabled":false,"rental_uris":{"android":"levelo://app?vid=79b5379a-18da-4725-b435-578361f4f572","ios":"levelo://app?vid=79b5379a-18da-4725-b435-578361f4f572"},"vehicle_type_id":"4","last_reported":1743135151,"current_range_meters":10800,"station_id":"ce4bh2p2rcd13ifvqdi0","pricing_plan_id":"cebpf4jnsgd1na2vs0mg"},{"bike_id":"1c14bf9c-ada4-4a36-8853-740a1a2c000a","system_id":"levelo_inurba_marseille","lat":43.23192,"lon":5.35553,"is_reserved":false,"is_disabled":false,"rental_uris":{"android":"levelo://app?vid=1c14bf9c-ada4-4a36-8853-740a1a2c000a","ios":"levelo://app?vid=1c14bf9c-ada4-4a36-8853-740a1a2c000a"},"vehicle_type_id":"4","last_reported":1743135151,"current_range_meters":10800,"station_id":"ce4bhu92rcd13ifvqi70","pricing_plan_id":"cebpf4jnsgd1na2vs0mg"},{"bike_id":"e40a1280-38e7-4f68-874d-33a9044a1031","system_id":"levelo_inurba_marseille","lat":43.30656,"lon":5.40085,"is_reserved":false,"is_disabled":false,"rental_uris":{"android":"levelo://app?vid=e40a1280-38e7-4f68-874d-33a9044a1031","ios":"levelo://app?vid=e40a1280-38e7-4f68-874d-33a9044a1031"},"vehicle_type_id":"4","last_reported":1743135151,"current_range_meters":11200,"station_id":"ce4bh112rcd13ifvqda0","pricing_plan_id":"cebpf4jnsgd1na2vs0mg"},{"bike_id":"7cdf40e9-5bfc-47d5-b577-41d7c0c94acd","system_id":"levelo_inurba_marseille","lat":43.302423,"lon":5.400643,"is_reserved":false,"is_disabled":false,"rental_uris":{"android":"levelo://app?vid=7cdf40e9-5bfc-47d5-b577-41d7c0c94acd","ios":"levelo://app?vid=7cdf40e9-5bfc-47d5-b577-41d7c0c94acd"},"vehicle_type_id":"4","last_reported":1743135151,"current_range_meters":11200,"station_id":"ce4bgvh2rcd13ifvqcs0","pricing_plan_id":"cebpf4jnsgd1na2vs0mg"},{"bike_id":"49e90f0c-ba45-43d0-83d1-ddc86e90ad77","system_id":"levelo_inurba_marseille","lat":43.289497,"lon":5.383799,"is_reserved":false,"is_disabled":false,"rental_uris":{"android":"levelo://app?vid=49e90f0c-ba45-43d0-83d1-ddc86e90ad77","ios":"levelo://app?vid=49e90f0c-ba45-43d0-83d1-ddc86e90ad77"},"vehicle_type_id":"4","last_reported":1743135151,"current_range_meters":11200,"station_id":"ce4bgi92rcd13ifvqb90","pricing_plan_id":"cebpf4jnsgd1na2vs0mg"},{"bike_id":"b5579148-8a30-4e60-90d0-d97503335830","system_id":"levelo_inurba_marseille","lat":43.2404,"lon":5.3779,"is_reserved":false,"is_disabled":false,"rental_uris":{"android":"levelo://app?vid=b5579148-8a30-4e60-90d0-d97503335830","ios":"levelo://app?vid=b5579148-8a30-4e60-90d0-d97503335830"},"vehicle_type_id":"4","last_reported":1743135151,"current_range_meters":11200,"station_id":"ce4bhnp2rcd13ifvqgvg","pricing_plan_id":"cebpf4jnsgd1na2vs0mg"},{"bike_id":"ff3c1f83-137f-4504-ac9d-326f0bc71bb2","system_id":"levelo_inurba_marseille","lat":43.28938,"lon":5.36639,"is_reserved":false,"is_disabled":false,"rental_uris":{"android":"levelo://app?vid=ff3c1f83-137f-4504-ac9d-326f0bc71bb2","ios":"levelo://app?vid=ff3c1f83-137f-4504-ac9d-326f0bc71bb2"},"vehicle_type_id":"4","last_reported":1743135151,"current_range_meters":11600,"station_id":"ce4bhap2rcd13ifvqek0","pricing_plan_id":"cebpf4jnsgd1na2vs0mg"},{"bike_id":"f4e5bf40-21e3-4962-9b82-6bdd533ef0ec","system_id":"levelo_inurba_marseille","lat":43.24642,"lon":5.38922,"is_reserved":false,"is_disabled":false,"rental_uris":{"android":"levelo://app?vid=f4e5bf40-21e3-4962-9b82-6bdd533ef0ec","ios":"levelo://app?vid=f4e5bf40-21e3-4962-9b82-6bdd533ef0ec"},"vehicle_type_id":"4","last_reported":1743135151,"current_range_meters":11600,"station_id":"ce4bhg12rcd13ifvqf60","pricing_plan_id":"cebpf4jnsgd1na2vs0mg"},{"bike_id":"767b3de5-c408-4bff-92a2-6b38b23a008d","system_id":"levelo_inurba_marseille","lat":43.29522,"lon":5.3891,"is_reserved":false,"is_disabled":false,"rental_uris":{"android":"levelo://app?vid=767b3de5-c408-4bff-92a2-6b38b23a008d","ios":"levelo://app?vid=767b3de5-c408-4bff-92a2-6b38b23a008d"},"vehicle_type_id":"4","last_reported":1743135151,"current_range_meters":11600,"station_id":"","pricing_plan_id":"cebpf4jnsgd1na2vs0mg"},{"bike_id":"c5b747b8-0a33-4be6-a6c0-180ceea5e00d","system_id":"levelo_inurba_marseille","lat":43.28079,"lon":5.39647,"is_reserved":false,"is_disabled":true,"rental_uris":{"android":"levelo://app?vid=c5b747b8-0a33-4be6-a6c0-180ceea5e00d","ios":"levelo://app?vid=c5b747b8-0a33-4be6-a6c0-180ceea5e00d"},"vehicle_type_id":"4","last_reported":1743135151,"current_range_meters":11600,"station_id":"ce4bho12rcd13ifvqh2g","pricing_plan_id":"cebpf4jnsgd1na2vs0mg"},{"bike_id":"4f38e468-4f96-4507-9d29-f031ca6c463c","system_id":"levelo_inurba_marseille","lat":43.27892,"lon":5.38024,"is_reserved":false,"is_disabled":false,"rental_uris":{"android":"levelo://app?vid=4f38e468-4f96-4507-9d29-f031ca6c463c","ios":"levelo://app?vid=4f38e468-4f96-4507-9d29-f031ca6c463c"},"vehicle_type_id":"4","last_reported":1743135151,"current_range_meters":12000,"station_id":"ce4bhf92rcd13ifvqf50","pricing_plan_id":"cebpf4jnsgd1na2vs0mg"},{"bike_id":"a9108b2d-3767-4909-a20b-64076bd66645","system_id":"levelo_inurba_marseille","lat":43.28027,"lon":5.36951,"is_reserved":false,"is_disabled":false,"rental_uris":{"android":"levelo://app?vid=a9108b2d-3767-4909-a20b-64076bd66645","ios":"levelo://app?vid=a9108b2d-3767-4909-a20b-64076bd66645"},"vehicle_type_id":"4","last_reported":1743135151,"current_range_meters":12000,"station_id":"ce4bha12rcd13ifvqef0","pricing_plan_id":"cebpf4jnsgd1na2vs0mg"},{"bike_id":"41c8f584-3d5c-4c75-a49d-9825c44163e4","system_id":"levelo_inurba_marseille","lat":43.292443,"lon":5.409147,"is_reserved":false,"is_disabled":false,"rental_uris":{"android":"levelo://app?vid=41c8f584-3d5c-4c75-a49d-9825c44163e4","ios":"levelo://app?vid=41c8f584-3d5c-4c75-a49d-9825c44163e4"},"vehicle_type_id":"4","last_reported":1743135151,"current_range_meters":12000,"station_id":"ce4bh192rcd13ifvqdc0","pricing_plan_id":"cebpf4jnsgd1na2vs0mg"},{"bike_id":"0f1f83e7-db71-4d69-bca1-763d2105909b","system_id":"levelo_inurba_marseille","lat":43.30307,"lon":5.40541,"is_reserved":false,"is_disabled":false,"rental_uris":{"android":"levelo://app?vid=0f1f83e7-db71-4d69-bca1-763d2105909b","ios":"levelo://app?vid=0f1f83e7-db71-4d69-bca1-763d2105909b"},"vehicle_type_id":"4","last_reported":1743135151,"current_range_meters":12000,"station_id":"","pricing_plan_id":"cebpf4jnsgd1na2vs0mg"},{"bike_id":"855fd122-c3f8-4a4e-a851-cb10801b8791","system_id":"levelo_inurba_marseille","lat":43.308891,"lon":5.396367,"is_reserved":false,"is_disabled":false,"rental_uris":{"android":"levelo://app?vid=855fd122-c3f8-4a4e-a851-cb10801b8791","ios":"levelo://app?vid=855fd122-c3f8-4a4e-a851-cb10801b8791"},"vehicle_type_id":"4","last_reported":1743135151,"current_range_meters":12000,"station_id":"ce4bh012rcd13ifvqcv0","pricing_plan_id":"cebpf4jnsgd1na2vs0mg"},{"bike_id":"f43662ee-c720-4d57-a460-0de05ea9047c","system_id":"levelo_inurba_marseille","lat":43.32317,"lon":5.38869,"is_reserved":false,"is_disabled":false,"rental_uris":{"android":"levelo://app?vid=f43662ee-c720-4d57-a460-0de05ea9047c","ios":"levelo://app?vid=f43662ee-c720-4d57-a460-0de05ea9047c"},"vehicle_type_id":"4","last_reported":1743135151,"current_range_meters":12000,"station_id":"","pricing_plan_id":"cebpf4jnsgd1na2vs0mg"},{"bike_id":"33f12b27-0472-438c-a2f8-964f289f8f52","system_id":"levelo_inurba_marseille","lat":43.28932,"lon":5.36647,"is_reserved":false,"is_disabled":false,"rental_uris":{"android":"levelo://app?vid=33f12b27-0472-438c-a2f8-964f289f8f52","ios":"levelo://app?vid=33f12b27-0472-438c-a2f8-964f289f8f52"},"vehicle_type_id":"4","last_reported":1743135151,"current_range_meters":12000,"station_id":"ce4bhap2rcd13ifvqek0","pricing_plan_id":"cebpf4jnsgd1na2vs0mg"},{"bike_id":"6018f228-b321-41b9-9d12-4b704446d546","system_id":"levelo_inurba_marseille","lat":43.29251,"lon":5.40921,"is_reserved":false,"is_disabled":false,"rental_uris":{"android":"levelo://app?vid=6018f228-b321-41b9-9d12-4b704446d546","ios":"levelo://app?vid=6018f228-b321-41b9-9d12-4b704446d546"},"vehicle_type_id":"4","last_reported":1743135151,"current_range_meters":12000,"station_id":"ce4bh192rcd13ifvqdc0","pricing_plan_id":"cebpf4jnsgd1na2vs0mg"},{"bike_id":"62feeb8e-b2cc-48d6-9f73-3dd1b580c165","system_id":"levelo_inurba_marseille","lat":43.25137,"lon":5.40327,"is_reserved":false,"is_disabled":false,"rental_uris":{"android":"levelo://app?vid=62feeb8e-b2cc-48d6-9f73-3dd1b580c165","ios":"levelo://app?vid=62feeb8e-b2cc-48d6-9f73-3dd1b580c165"},"vehicle_type_id":"4","last_reported":1743135151,"current_range_meters":12400,"station_id":"ce4bhlh2rcd13ifvqgig","pricing_plan_id":"cebpf4jnsgd1na2vs0mg"},{"bike_id":"3fbcdfd8-5176-471d-aa84-e8e20bb4418e","system_id":"levelo_inurba_marseille","lat":43.32086,"lon":5.36854,"is_reserved":false,"is_disabled":false,"rental_uris":{"android":"levelo://app?vid=3fbcdfd8-5176-471d-aa84-e8e20bb4418e","ios":"levelo://app?vid=3fbcdfd8-5176-471d-aa84-e8e20bb4418e"},"vehicle_type_id":"4","last_reported":1743135151,"current_range_meters":12400,"station_id":"ce4bhrh2rcd13ifvqhug","pricing_plan_id":"cebpf4jnsgd1na2vs0mg"},{"bike_id":"213522d2-34be-42dc-a861-71dacdd3d79c","system_id":"levelo_inurba_marseille","lat":43.250994,"lon":5.403244,"is_reserved":false,"is_disabled":false,"rental_uris":{"android":"levelo://app?vid=213522d2-34be-42dc-a861-71dacdd3d79c","ios":"levelo://app?vid=213522d2-34be-42dc-a861-71dacdd3d79c"},"vehicle_type_id":"4","last_reported":1743135151,"current_range_meters":12400,"station_id":"ce4bhlh2rcd13ifvqgig","pricing_plan_id":"cebpf4jnsgd1na2vs0mg"},{"bike_id":"889389b5-737f-4fa1-9dd2-71f9cb4ea254","system_id":"levelo_inurba_marseille","lat":43.27923,"lon":5.39579,"is_reserved":false,"is_disabled":false,"rental_uris":{"android":"levelo://app?vid=889389b5-737f-4fa1-9dd2-71f9cb4ea254","ios":"levelo://app?vid=889389b5-737f-4fa1-9dd2-71f9cb4ea254"},"vehicle_type_id":"4","last_reported":1743135151,"current_range_meters":12400,"station_id":"ce4bhf92rcd13ifvqf40","pricing_plan_id":"cebpf4jnsgd1na2vs0mg"},{"bike_id":"17528684-6b69-4d69-9207-c397671db103","system_id":"levelo_inurba_marseille","lat":43.28934,"lon":5.36613,"is_reserved":false,"is_disabled":false,"rental_uris":{"android":"levelo://app?vid=17528684-6b69-4d69-9207-c397671db103","ios":"levelo://app?vid=17528684-6b69-4d69-9207-c397671db103"},"vehicle_type_id":"4","last_reported":1743135151,"current_range_meters":12400,"station_id":"ce4bhap2rcd13ifvqek0","pricing_plan_id":"cebpf4jnsgd1na2vs0mg"},{"bike_id":"aeee719e-56c9-4414-9561-e5b2a78b28a9","system_id":"levelo_inurba_marseille","lat":43.25118,"lon":5.39504,"is_reserved":false,"is_disabled":false,"rental_uris":{"android":"levelo://app?vid=aeee719e-56c9-4414-9561-e5b2a78b28a9","ios":"levelo://app?vid=aeee719e-56c9-4414-9561-e5b2a78b28a9"},"vehicle_type_id":"4","last_reported":1743135151,"current_range_meters":12400,"station_id":"ce4bhm12rcd13ifvqgkg","pricing_plan_id":"cebpf4jnsgd1na2vs0mg"},{"bike_id":"7655d9b7-ab68-4d9e-ba5f-6243a4ea0a8a","system_id":"levelo_inurba_marseille","lat":43.25111,"lon":5.40356,"is_reserved":false,"is_disabled":false,"rental_uris":{"android":"levelo://app?vid=7655d9b7-ab68-4d9e-ba5f-6243a4ea0a8a","ios":"levelo://app?vid=7655d9b7-ab68-4d9e-ba5f-6243a4ea0a8a"},"vehicle_type_id":"4","last_reported":1743135151,"current_range_meters":12400,"station_id":"ce4bhlh2rcd13ifvqgig","pricing_plan_id":"cebpf4jnsgd1na2vs0mg"},{"bike_id":"d8688447-b8ce-4bc0-9571-24215d635277","system_id":"levelo_inurba_marseille","lat":43.28453,"lon":5.35918,"is_reserved":false,"is_disabled":false,"rental_uris":{"android":"levelo://app?vid=d8688447-b8ce-4bc0-9571-24215d635277","ios":"levelo://app?vid=d8688447-b8ce-4bc0-9571-24215d635277"},"vehicle_type_id":"4","last_reported":1743135151,"current_range_meters":12400,"station_id":"ce4bhah2rcd13ifvqei0","pricing_plan_id":"cebpf4jnsgd1na2vs0mg"},{"bike_id":"ac776cf5-d9af-47cc-83cc-cf37e00c8684","system_id":"levelo_inurba_marseille","lat":43.30291,"lon":5.40265,"is_reserved":false,"is_disabled":false,"rental_uris":{"android":"levelo://app?vid=ac776cf5-d9af-47cc-83cc-cf37e00c8684","ios":"levelo://app?vid=ac776cf5-d9af-47cc-83cc-cf37e00c8684"},"vehicle_type_id":"4","last_reported":1743135151,"current_range_meters":12400,"station_id":"","pricing_plan_id":"cebpf4jnsgd1na2vs0mg"},{"bike_id":"08191517-c8d1-466b-be7f-0c61fbe5d701","system_id":"levelo_inurba_marseille","lat":43.27543,"lon":5.3625,"is_reserved":false,"is_disabled":false,"rental_uris":{"android":"levelo://app?vid=08191517-c8d1-466b-be7f-0c61fbe5d701","ios":"levelo://app?vid=08191517-c8d1-466b-be7f-0c61fbe5d701"},"vehicle_type_id":"4","last_reported":1743135151,"current_range_meters":12800,"station_id":"","pricing_plan_id":"cebpf4jnsgd1na2vs0mg"},{"bike_id":"5d39d3fc-59cf-4938-b87b-b1a101e5f6b0","system_id":"levelo_inurba_marseille","lat":43.31157,"lon":5.38792,"is_reserved":false,"is_disabled":false,"rental_uris":{"android":"levelo://app?vid=5d39d3fc-59cf-4938-b87b-b1a101e5f6b0","ios":"levelo://app?vid=5d39d3fc-59cf-4938-b87b-b1a101e5f6b0"},"vehicle_type_id":"4","last_reported":1743135151,"current_range_meters":12800,"station_id":"","pricing_plan_id":"cebpf4jnsgd1na2vs0mg"},{"bike_id":"6cbddcc1-9609-4503-9874-4b78c26df24e","system_id":"levelo_inurba_marseille","lat":43.32111,"lon":5.36799,"is_reserved":false,"is_disabled":false,"rental_uris":{"android":"levelo://app?vid=6cbddcc1-9609-4503-9874-4b78c26df24e","ios":"levelo://app?vid=6cbddcc1-9609-4503-9874-4b78c26df24e"},"vehicle_type_id":"4","last_reported":1743135151,"current_range_meters":12800,"station_id":"ce4bhrh2rcd13ifvqhug","pricing_plan_id":"cebpf4jnsgd1na2vs0mg"},{"bike_id":"8170275f-440c-41fd-a526-a4772bf7b5b2","system_id":"levelo_inurba_marseille","lat":43.28401,"lon":5.37537,"is_reserved":false,"is_disabled":false,"rental_uris":{"android":"levelo://app?vid=8170275f-440c-41fd-a526-a4772bf7b5b2","ios":"levelo://app?vid=8170275f-440c-41fd-a526-a4772bf7b5b2"},"vehicle_type_id":"4","last_reported":1743135151,"current_range_meters":12800,"station_id":"ce4bh412rcd13ifvqds0","pricing_plan_id":"cebpf4jnsgd1na2vs0mg"},{"bike_id":"68e9fc26-8998-4bf7-8da8-af47209f9b7c","system_id":"levelo_inurba_marseille","lat":43.32102,"lon":5.36806,"is_reserved":false,"is_disabled":false,"rental_uris":{"android":"levelo://app?vid=68e9fc26-8998-4bf7-8da8-af47209f9b7c","ios":"levelo://app?vid=68e9fc26-8998-4bf7-8da8-af47209f9b7c"},"vehicle_type_id":"4","last_reported":1743135151,"current_range_meters":12800,"station_id":"ce4bhrh2rcd13ifvqhug","pricing_plan_id":"cebpf4jnsgd1na2vs0mg"},{"bike_id":"65c86302-8ef0-46f4-ab6e-bac7149a2865","system_id":"levelo_inurba_marseille","lat":43.32153,"lon":5.36803,"is_reserved":false,"is_disabled":false,"rental_uris":{"android":"levelo://app?vid=65c86302-8ef0-46f4-ab6e-bac7149a2865","ios":"levelo://app?vid=65c86302-8ef0-46f4-ab6e-bac7149a2865"},"vehicle_type_id":"4","last_reported":1743135151,"current_range_meters":12800,"station_id":"ce4bhrh2rcd13ifvqhug","pricing_plan_id":"cebpf4jnsgd1na2vs0mg"},{"bike_id":"6d249512-c4ef-4c94-abf5-52cc6421d62a","system_id":"levelo_inurba_marseille","lat":43.28059,"lon":5.397,"is_reserved":false,"is_disabled":false,"rental_uris":{"android":"levelo://app?vid=6d249512-c4ef-4c94-abf5-52cc6421d62a","ios":"levelo://app?vid=6d249512-c4ef-4c94-abf5-52cc6421d62a"},"vehicle_type_id":"4","last_reported":1743135151,"current_range_meters":12800,"station_id":"ce4bho12rcd13ifvqh2g","pricing_plan_id":"cebpf4jnsgd1na2vs0mg"},{"bike_id":"c137871e-a58c-4f51-8021-faf24fe0f355","system_id":"levelo_inurba_marseille","lat":43.28725,"lon":5.36101,"is_reserved":false,"is_disabled":false,"rental_uris":{"android":"levelo://app?vid=c137871e-a58c-4f51-8021-faf24fe0f355","ios":"levelo://app?vid=c137871e-a58c-4f51-8021-faf24fe0f355"},"vehicle_type_id":"4","last_reported":1743135151,"current_range_meters":12800,"station_id":"cki0cbj6b192h4jlfktg","pricing_plan_id":"cebpf4jnsgd1na2vs0mg"},{"bike_id":"794262a6-2812-48d9-b7fa-f2c9665d76e2","system_id":"levelo_inurba_marseille","lat":43.284564,"lon":5.358943,"is_reserved":false,"is_disabled":false,"rental_uris":{"android":"levelo://app?vid=794262a6-2812-48d9-b7fa-f2c9665d76e2","ios":"levelo://app?vid=794262a6-2812-48d9-b7fa-f2c9665d76e2"},"vehicle_type_id":"4","last_reported":1743135151,"current_range_meters":12800,"station_id":"ce4bhah2rcd13ifvqei0","pricing_plan_id":"cebpf4jnsgd1na2vs0mg"},{"bike_id":"cea38d8c-f3ab-4e30-9c93-859813b3fc71","system_id":"levelo_inurba_marseille","lat":43.27563,"lon":5.38425,"is_reserved":false,"is_disabled":false,"rental_uris":{"android":"levelo://app?vid=cea38d8c-f3ab-4e30-9c93-859813b3fc71","ios":"levelo://app?vid=cea38d8c-f3ab-4e30-9c93-859813b3fc71"},"vehicle_type_id":"4","last_reported":1743135151,"current_range_meters":13600,"station_id":"ce4bhh92rcd13ifvqfi0","pricing_plan_id":"cebpf4jnsgd1na2vs0mg"},{"bike_id":"c527ac51-4362-4d1f-b9e1-306c1ebece74","system_id":"levelo_inurba_marseille","lat":43.29911,"lon":5.43521,"is_reserved":false,"is_disabled":false,"rental_uris":{"android":"levelo://app?vid=c527ac51-4362-4d1f-b9e1-306c1ebece74","ios":"levelo://app?vid=c527ac51-4362-4d1f-b9e1-306c1ebece74"},"vehicle_type_id":"4","last_reported":1743135151,"current_range_meters":13600,"station_id":"","pricing_plan_id":"cebpf4jnsgd1na2vs0mg"},{"bike_id":"ab79c7bb-1730-4a4c-b7ca-6d520982e325","system_id":"levelo_inurba_marseille","lat":43.24073,"lon":5.37744,"is_reserved":false,"is_disabled":false,"rental_uris":{"android":"levelo://app?vid=ab79c7bb-1730-4a4c-b7ca-6d520982e325","ios":"levelo://app?vid=ab79c7bb-1730-4a4c-b7ca-6d520982e325"},"vehicle_type_id":"4","last_reported":1743135151,"current_range_meters":13600,"station_id":"ce4bhnp2rcd13ifvqgvg","pricing_plan_id":"cebpf4jnsgd1na2vs0mg"},{"bike_id":"d7dfb900-e1fc-4b30-a420-5f0b81aeabc6","system_id":"levelo_inurba_marseille","lat":43.284659,"lon":5.358742,"is_reserved":false,"is_disabled":false,"rental_uris":{"android":"levelo://app?vid=d7dfb900-e1fc-4b30-a420-5f0b81aeabc6","ios":"levelo://app?vid=d7dfb900-e1fc-4b30-a420-5f0b81aeabc6"},"vehicle_type_id":"4","last_reported":1743135151,"current_range_meters":13600,"station_id":"ce4bhah2rcd13ifvqei0","pricing_plan_id":"cebpf4jnsgd1na2vs0mg"},{"bike_id":"0ddc3ef9-c9ca-479a-8b28-e2773a58874a","system_id":"levelo_inurba_marseille","lat":43.28397,"lon":5.37554,"is_reserved":false,"is_disabled":false,"rental_uris":{"android":"levelo://app?vid=0ddc3ef9-c9ca-479a-8b28-e2773a58874a","ios":"levelo://app?vid=0ddc3ef9-c9ca-479a-8b28-e2773a58874a"},"vehicle_type_id":"4","last_reported":1743135151,"current_range_meters":13600,"station_id":"ce4bh412rcd13ifvqds0","pricing_plan_id":"cebpf4jnsgd1na2vs0mg"},{"bike_id":"6082a6d8-29f3-4441-bd82-d0f95ead75d7","system_id":"levelo_inurba_marseille","lat":43.231937,"lon":5.355496,"is_reserved":false,"is_disabled":false,"rental_uris":{"android":"levelo://app?vid=6082a6d8-29f3-4441-bd82-d0f95ead75d7","ios":"levelo://app?vid=6082a6d8-29f3-4441-bd82-d0f95ead75d7"},"vehicle_type_id":"4","last_reported":1743135151,"current_range_meters":13600,"station_id":"ce4bhu92rcd13ifvqi70","pricing_plan_id":"cebpf4jnsgd1na2vs0mg"},{"bike_id":"58643b71-d571-418b-bdee-cb649d06c3ca","system_id":"levelo_inurba_marseille","lat":43.29037,"lon":5.39997,"is_reserved":false,"is_disabled":false,"rental_uris":{"android":"levelo://app?vid=58643b71-d571-418b-bdee-cb649d06c3ca","ios":"levelo://app?vid=58643b71-d571-418b-bdee-cb649d06c3ca"},"vehicle_type_id":"4","last_reported":1743135151,"current_range_meters":13600,"station_id":"ce4bh392rcd13ifvqdm0","pricing_plan_id":"cebpf4jnsgd1na2vs0mg"},{"bike_id":"b1c6b5eb-b3e3-44e4-ab47-ce04ca5e2364","system_id":"levelo_inurba_marseille","lat":43.24181,"lon":5.39728,"is_reserved":false,"is_disabled":true,"rental_uris":{"android":"levelo://app?vid=b1c6b5eb-b3e3-44e4-ab47-ce04ca5e2364","ios":"levelo://app?vid=b1c6b5eb-b3e3-44e4-ab47-ce04ca5e2364"},"vehicle_type_id":"4","last_reported":1743135151,"current_range_meters":14000,"station_id":"ce4bhn12rcd13ifvqgpg","pricing_plan_id":"cebpf4jnsgd1na2vs0mg"},{"bike_id":"fb348b09-6abb-47a4-a266-91f2eeaee291","system_id":"levelo_inurba_marseille","lat":43.32109,"lon":5.36779,"is_reserved":false,"is_disabled":false,"rental_uris":{"android":"levelo://app?vid=fb348b09-6abb-47a4-a266-91f2eeaee291","ios":"levelo://app?vid=fb348b09-6abb-47a4-a266-91f2eeaee291"},"vehicle_type_id":"4","last_reported":1743135151,"current_range_meters":14000,"station_id":"ce4bhrh2rcd13ifvqhug","pricing_plan_id":"cebpf4jnsgd1na2vs0mg"},{"bike_id":"da72873e-97f6-4c40-b521-506e54769144","system_id":"levelo_inurba_marseille","lat":43.278195,"lon":5.407205,"is_reserved":false,"is_disabled":false,"rental_uris":{"android":"levelo://app?vid=da72873e-97f6-4c40-b521-506e54769144","ios":"levelo://app?vid=da72873e-97f6-4c40-b521-506e54769144"},"vehicle_type_id":"4","last_reported":1743135151,"current_range_meters":14000,"station_id":"ce4bhnh2rcd13ifvqgtg","pricing_plan_id":"cebpf4jnsgd1na2vs0mg"},{"bike_id":"aed2caaf-e63e-4d9f-9fab-effd4b56045d","system_id":"levelo_inurba_marseille","lat":43.26219,"lon":5.4048,"is_reserved":false,"is_disabled":false,"rental_uris":{"android":"levelo://app?vid=aed2caaf-e63e-4d9f-9fab-effd4b56045d","ios":"levelo://app?vid=aed2caaf-e63e-4d9f-9fab-effd4b56045d"},"vehicle_type_id":"4","last_reported":1743135151,"current_range_meters":14000,"station_id":"ce4bhmh2rcd13ifvqgmg","pricing_plan_id":"cebpf4jnsgd1na2vs0mg"},{"bike_id":"9462a91b-8b4b-430a-ac7a-4612f1bebb31","system_id":"levelo_inurba_marseille","lat":43.291,"lon":5.38149,"is_reserved":false,"is_disabled":true,"rental_uris":{"android":"levelo://app?vid=9462a91b-8b4b-430a-ac7a-4612f1bebb31","ios":"levelo://app?vid=9462a91b-8b4b-430a-ac7a-4612f1bebb31"},"vehicle_type_id":"4","last_reported":1743135151,"current_range_meters":14000,"station_id":"ce4bh512rcd13ifvqe2g","pricing_plan_id":"cebpf4jnsgd1na2vs0mg"},{"bike_id":"11cb49bf-37c4-40a2-8859-7646c0dddb51","system_id":"levelo_inurba_marseille","lat":43.278096,"lon":5.407126,"is_reserved":false,"is_disabled":false,"rental_uris":{"android":"levelo://app?vid=11cb49bf-37c4-40a2-8859-7646c0dddb51","ios":"levelo://app?vid=11cb49bf-37c4-40a2-8859-7646c0dddb51"},"vehicle_type_id":"4","last_reported":1743135151,"current_range_meters":14000,"station_id":"ce4bhnh2rcd13ifvqgtg","pricing_plan_id":"cebpf4jnsgd1na2vs0mg"},{"bike_id":"2f59b69a-8d79-4aff-a569-a4f4f097dd47","system_id":"levelo_inurba_marseille","lat":43.2656,"lon":5.39002,"is_reserved":false,"is_disabled":false,"rental_uris":{"android":"levelo://app?vid=2f59b69a-8d79-4aff-a569-a4f4f097dd47","ios":"levelo://app?vid=2f59b69a-8d79-4aff-a569-a4f4f097dd47"},"vehicle_type_id":"4","last_reported":1743135151,"current_range_meters":14400,"station_id":"ce4bhe12rcd13ifvqf30","pricing_plan_id":"cebpf4jnsgd1na2vs0mg"},{"bike_id":"ca7e0dc1-95b1-41ee-bfb6-6f7d653c8926","system_id":"levelo_inurba_marseille","lat":43.303662,"lon":5.375305,"is_reserved":false,"is_disabled":false,"rental_uris":{"android":"levelo://app?vid=ca7e0dc1-95b1-41ee-bfb6-6f7d653c8926","ios":"levelo://app?vid=ca7e0dc1-95b1-41ee-bfb6-6f7d653c8926"},"vehicle_type_id":"4","last_reported":1743135151,"current_range_meters":14400,"station_id":"","pricing_plan_id":"cebpf4jnsgd1na2vs0mg"},{"bike_id":"3a0adc3f-14d3-4b98-b1d3-b422e23c387a","system_id":"levelo_inurba_marseille","lat":43.30802,"lon":5.43531,"is_reserved":false,"is_disabled":false,"rental_uris":{"android":"levelo://app?vid=3a0adc3f-14d3-4b98-b1d3-b422e23c387a","ios":"levelo://app?vid=3a0adc3f-14d3-4b98-b1d3-b422e23c387a"},"vehicle_type_id":"4","last_reported":1743135151,"current_range_meters":14400,"station_id":"ce4bhph2rcd13ifvqheg","pricing_plan_id":"cebpf4jnsgd1na2vs0mg"},{"bike_id":"c6f209dd-967d-4602-baf0-976ad69db6db","system_id":"levelo_inurba_marseille","lat":43.29781,"lon":5.3936,"is_reserved":false,"is_disabled":false,"rental_uris":{"android":"levelo://app?vid=c6f209dd-967d-4602-baf0-976ad69db6db","ios":"levelo://app?vid=c6f209dd-967d-4602-baf0-976ad69db6db"},"vehicle_type_id":"4","last_reported":1743135151,"current_range_meters":14400,"station_id":"chh1huq6cuj3fo74tm60","pricing_plan_id":"cebpf4jnsgd1na2vs0mg"},{"bike_id":"52d3653b-04a8-4ed6-bc62-5cef2a068b3e","system_id":"levelo_inurba_marseille","lat":43.29038,"lon":5.40017,"is_reserved":false,"is_disabled":false,"rental_uris":{"android":"levelo://app?vid=52d3653b-04a8-4ed6-bc62-5cef2a068b3e","ios":"levelo://app?vid=52d3653b-04a8-4ed6-bc62-5cef2a068b3e"},"vehicle_type_id":"4","last_reported":1743135151,"current_range_meters":14400,"station_id":"ce4bh392rcd13ifvqdm0","pricing_plan_id":"cebpf4jnsgd1na2vs0mg"},{"bike_id":"4fa73ed0-42fd-47ee-b5d8-d68fd4392e6c","system_id":"levelo_inurba_marseille","lat":43.26186,"lon":5.42069,"is_reserved":false,"is_disabled":false,"rental_uris":{"android":"levelo://app?vid=4fa73ed0-42fd-47ee-b5d8-d68fd4392e6c","ios":"levelo://app?vid=4fa73ed0-42fd-47ee-b5d8-d68fd4392e6c"},"vehicle_type_id":"4","last_reported":1743135151,"current_range_meters":14400,"station_id":"","pricing_plan_id":"cebpf4jnsgd1na2vs0mg"},{"bike_id":"7f9d4433-4e2b-4ff0-b944-2dadd6027623","system_id":"levelo_inurba_marseille","lat":43.32108,"lon":5.36757,"is_reserved":false,"is_disabled":false,"rental_uris":{"android":"levelo://app?vid=7f9d4433-4e2b-4ff0-b944-2dadd6027623","ios":"levelo://app?vid=7f9d4433-4e2b-4ff0-b944-2dadd6027623"},"vehicle_type_id":"4","last_reported":1743135151,"current_range_meters":14400,"station_id":"ce4bhrh2rcd13ifvqhug","pricing_plan_id":"cebpf4jnsgd1na2vs0mg"},{"bike_id":"c6c8fb31-86de-4758-859b-e74b70125ab7","system_id":"levelo_inurba_marseille","lat":43.32115,"lon":5.36799,"is_reserved":false,"is_disabled":false,"rental_uris":{"android":"levelo://app?vid=c6c8fb31-86de-4758-859b-e74b70125ab7","ios":"levelo://app?vid=c6c8fb31-86de-4758-859b-e74b70125ab7"},"vehicle_type_id":"4","last_reported":1743135151,"current_range_meters":14400,"station_id":"ce4bhrh2rcd13ifvqhug","pricing_plan_id":"cebpf4jnsgd1na2vs0mg"},{"bike_id":"62a65bab-dee1-4ec8-be58-569b3ad661eb","system_id":"levelo_inurba_marseille","lat":43.290284,"lon":5.386419,"is_reserved":false,"is_disabled":false,"rental_uris":{"android":"levelo://app?vid=62a65bab-dee1-4ec8-be58-569b3ad661eb","ios":"levelo://app?vid=62a65bab-dee1-4ec8-be58-569b3ad661eb"},"vehicle_type_id":"4","last_reported":1743135151,"current_range_meters":14400,"station_id":"ce4bh4p2rcd13ifvqe0g","pricing_plan_id":"cebpf4jnsgd1na2vs0mg"},{"bike_id":"533fc0f8-9ab2-49c1-9c64-12c6aaef63a8","system_id":"levelo_inurba_marseille","lat":43.30205,"lon":5.39501,"is_reserved":false,"is_disabled":false,"rental_uris":{"android":"levelo://app?vid=533fc0f8-9ab2-49c1-9c64-12c6aaef63a8","ios":"levelo://app?vid=533fc0f8-9ab2-49c1-9c64-12c6aaef63a8"},"vehicle_type_id":"4","last_reported":1743135151,"current_range_meters":14800,"station_id":"ce4bh0p2rcd13ifvqd70","pricing_plan_id":"cebpf4jnsgd1na2vs0mg"},{"bike_id":"b67d25d2-bc54-4416-bef3-cd0fe519ec82","system_id":"levelo_inurba_marseille","lat":43.286605,"lon":5.36339,"is_reserved":false,"is_disabled":false,"rental_uris":{"android":"levelo://app?vid=b67d25d2-bc54-4416-bef3-cd0fe519ec82","ios":"levelo://app?vid=b67d25d2-bc54-4416-bef3-cd0fe519ec82"},"vehicle_type_id":"4","last_reported":1743135151,"current_range_meters":14800,"station_id":"ce4bhah2rcd13ifvqej0","pricing_plan_id":"cebpf4jnsgd1na2vs0mg"},{"bike_id":"c41db25c-a59a-40c1-a49c-f477cbeba5a7","system_id":"levelo_inurba_marseille","lat":43.28084,"lon":5.39657,"is_reserved":false,"is_disabled":false,"rental_uris":{"android":"levelo://app?vid=c41db25c-a59a-40c1-a49c-f477cbeba5a7","ios":"levelo://app?vid=c41db25c-a59a-40c1-a49c-f477cbeba5a7"},"vehicle_type_id":"4","last_reported":1743135151,"current_range_meters":14800,"station_id":"ce4bho12rcd13ifvqh2g","pricing_plan_id":"cebpf4jnsgd1na2vs0mg"},{"bike_id":"87a9cafa-8c05-4115-94f5-9b076208eb77","system_id":"levelo_inurba_marseille","lat":43.30152,"lon":5.38083,"is_reserved":false,"is_disabled":false,"rental_uris":{"android":"levelo://app?vid=87a9cafa-8c05-4115-94f5-9b076208eb77","ios":"levelo://app?vid=87a9cafa-8c05-4115-94f5-9b076208eb77"},"vehicle_type_id":"4","last_reported":1743135151,"current_range_meters":14800,"station_id":"ce4bgjp2rcd13ifvqbh0","pricing_plan_id":"cebpf4jnsgd1na2vs0mg"},{"bike_id":"3dc4f6d9-7eab-4008-be97-1f5eaa8a8e7e","system_id":"levelo_inurba_marseille","lat":43.2846,"lon":5.35905,"is_reserved":false,"is_disabled":false,"rental_uris":{"android":"levelo://app?vid=3dc4f6d9-7eab-4008-be97-1f5eaa8a8e7e","ios":"levelo://app?vid=3dc4f6d9-7eab-4008-be97-1f5eaa8a8e7e"},"vehicle_type_id":"4","last_reported":1743135151,"current_range_meters":14800,"station_id":"ce4bhah2rcd13ifvqei0","pricing_plan_id":"cebpf4jnsgd1na2vs0mg"},{"bike_id":"0ba287f6-e97b-4d23-8414-6d14b26e6d32","system_id":"levelo_inurba_marseille","lat":43.32307,"lon":5.36739,"is_reserved":false,"is_disabled":false,"rental_uris":{"android":"levelo://app?vid=0ba287f6-e97b-4d23-8414-6d14b26e6d32","ios":"levelo://app?vid=0ba287f6-e97b-4d23-8414-6d14b26e6d32"},"vehicle_type_id":"4","last_reported":1743135151,"current_range_meters":14800,"station_id":"ce4bhsh2rcd13ifvqi2g","pricing_plan_id":"cebpf4jnsgd1na2vs0mg"},{"bike_id":"c14b619a-d8da-4bbf-846f-02b7c7eb6274","system_id":"levelo_inurba_marseille","lat":43.321143,"lon":5.367815,"is_reserved":false,"is_disabled":false,"rental_uris":{"android":"levelo://app?vid=c14b619a-d8da-4bbf-846f-02b7c7eb6274","ios":"levelo://app?vid=c14b619a-d8da-4bbf-846f-02b7c7eb6274"},"vehicle_type_id":"4","last_reported":1743135151,"current_range_meters":15200,"station_id":"ce4bhrh2rcd13ifvqhug","pricing_plan_id":"cebpf4jnsgd1na2vs0mg"},{"bike_id":"049b7bbb-7a3b-4e40-a718-7b80fbcdd5fc","system_id":"levelo_inurba_marseille","lat":43.28935,"lon":5.36402,"is_reserved":false,"is_disabled":false,"rental_uris":{"android":"levelo://app?vid=049b7bbb-7a3b-4e40-a718-7b80fbcdd5fc","ios":"levelo://app?vid=049b7bbb-7a3b-4e40-a718-7b80fbcdd5fc"},"vehicle_type_id":"4","last_reported":1743135151,"current_range_meters":15200,"station_id":"ce4bhc92rcd13ifvqetg","pricing_plan_id":"cebpf4jnsgd1na2vs0mg"},{"bike_id":"cc1dff8f-9801-41ad-94af-3016b7e1ec09","system_id":"levelo_inurba_marseille","lat":43.30518,"lon":5.38432,"is_reserved":false,"is_disabled":false,"rental_uris":{"android":"levelo://app?vid=cc1dff8f-9801-41ad-94af-3016b7e1ec09","ios":"levelo://app?vid=cc1dff8f-9801-41ad-94af-3016b7e1ec09"},"vehicle_type_id":"4","last_reported":1743135151,"current_range_meters":15200,"station_id":"ce4bgg92rcd13ifvqb30","pricing_plan_id":"cebpf4jnsgd1na2vs0mg"},{"bike_id":"7c5937cd-9b8a-4a66-b604-3a6cb98744b3","system_id":"levelo_inurba_marseille","lat":43.281537,"lon":5.426517,"is_reserved":false,"is_disabled":false,"rental_uris":{"android":"levelo://app?vid=7c5937cd-9b8a-4a66-b604-3a6cb98744b3","ios":"levelo://app?vid=7c5937cd-9b8a-4a66-b604-3a6cb98744b3"},"vehicle_type_id":"4","last_reported":1743135151,"current_range_meters":15200,"station_id":"ce4bhnh2rcd13ifvqgug","pricing_plan_id":"cebpf4jnsgd1na2vs0mg"},{"bike_id":"9492c0b3-582b-414f-8ce3-8444d654aada","system_id":"levelo_inurba_marseille","lat":43.26549,"lon":5.39033,"is_reserved":false,"is_disabled":false,"rental_uris":{"android":"levelo://app?vid=9492c0b3-582b-414f-8ce3-8444d654aada","ios":"levelo://app?vid=9492c0b3-582b-414f-8ce3-8444d654aada"},"vehicle_type_id":"4","last_reported":1743135151,"current_range_meters":15200,"station_id":"ce4bhe12rcd13ifvqf30","pricing_plan_id":"cebpf4jnsgd1na2vs0mg"},{"bike_id":"2069114f-a483-4b58-b6e7-fe6695da5f18","system_id":"levelo_inurba_marseille","lat":43.285381,"lon":5.400099,"is_reserved":false,"is_disabled":false,"rental_uris":{"android":"levelo://app?vid=2069114f-a483-4b58-b6e7-fe6695da5f18","ios":"levelo://app?vid=2069114f-a483-4b58-b6e7-fe6695da5f18"},"vehicle_type_id":"4","last_reported":1743135151,"current_range_meters":15200,"station_id":"","pricing_plan_id":"cebpf4jnsgd1na2vs0mg"},{"bike_id":"938b6d80-c940-4a47-9dbc-f24cc0f9aea7","system_id":"levelo_inurba_marseille","lat":43.23962,"lon":5.36658,"is_reserved":false,"is_disabled":false,"rental_uris":{"android":"levelo://app?vid=938b6d80-c940-4a47-9dbc-f24cc0f9aea7","ios":"levelo://app?vid=938b6d80-c940-4a47-9dbc-f24cc0f9aea7"},"vehicle_type_id":"4","last_reported":1743135151,"current_range_meters":15200,"station_id":"ce4bhi12rcd13ifvqfp0","pricing_plan_id":"cebpf4jnsgd1na2vs0mg"},{"bike_id":"22dfe4d3-9632-4fa5-b85e-eb8bf7a33a75","system_id":"levelo_inurba_marseille","lat":43.28722,"lon":5.3795,"is_reserved":false,"is_disabled":false,"rental_uris":{"android":"levelo://app?vid=22dfe4d3-9632-4fa5-b85e-eb8bf7a33a75","ios":"levelo://app?vid=22dfe4d3-9632-4fa5-b85e-eb8bf7a33a75"},"vehicle_type_id":"4","last_reported":1743135151,"current_range_meters":15200,"station_id":"ce4bh9p2rcd13ifvqec0","pricing_plan_id":"cebpf4jnsgd1na2vs0mg"},{"bike_id":"1b733ee8-1894-4dc9-ba19-4de13a195823","system_id":"levelo_inurba_marseille","lat":43.24639,"lon":5.3892,"is_reserved":false,"is_disabled":false,"rental_uris":{"android":"levelo://app?vid=1b733ee8-1894-4dc9-ba19-4de13a195823","ios":"levelo://app?vid=1b733ee8-1894-4dc9-ba19-4de13a195823"},"vehicle_type_id":"4","last_reported":1743135151,"current_range_meters":15200,"station_id":"ce4bhg12rcd13ifvqf60","pricing_plan_id":"cebpf4jnsgd1na2vs0mg"},{"bike_id":"df4005cc-2ad7-4306-b907-c6fbbda4a916","system_id":"levelo_inurba_marseille","lat":43.28653,"lon":5.36368,"is_reserved":false,"is_disabled":false,"rental_uris":{"android":"levelo://app?vid=df4005cc-2ad7-4306-b907-c6fbbda4a916","ios":"levelo://app?vid=df4005cc-2ad7-4306-b907-c6fbbda4a916"},"vehicle_type_id":"4","last_reported":1743135151,"current_range_meters":15200,"station_id":"ce4bhah2rcd13ifvqej0","pricing_plan_id":"cebpf4jnsgd1na2vs0mg"},{"bike_id":"a84b3a51-eb20-4937-b0a4-5b7394b04845","system_id":"levelo_inurba_marseille","lat":43.29817,"lon":5.40391,"is_reserved":false,"is_disabled":false,"rental_uris":{"android":"levelo://app?vid=a84b3a51-eb20-4937-b0a4-5b7394b04845","ios":"levelo://app?vid=a84b3a51-eb20-4937-b0a4-5b7394b04845"},"vehicle_type_id":"4","last_reported":1743135151,"current_range_meters":16000,"station_id":"ce4bh112rcd13ifvqd90","pricing_plan_id":"cebpf4jnsgd1na2vs0mg"},{"bike_id":"c7b1e734-8645-46e3-a8aa-254b2cea6dc5","system_id":"levelo_inurba_marseille","lat":43.30226,"lon":5.39949,"is_reserved":false,"is_disabled":false,"rental_uris":{"android":"levelo://app?vid=c7b1e734-8645-46e3-a8aa-254b2cea6dc5","ios":"levelo://app?vid=c7b1e734-8645-46e3-a8aa-254b2cea6dc5"},"vehicle_type_id":"4","last_reported":1743135151,"current_range_meters":16000,"station_id":"","pricing_plan_id":"cebpf4jnsgd1na2vs0mg"},{"bike_id":"57c03374-e2e3-466b-a358-3b7ab41c163e","system_id":"levelo_inurba_marseille","lat":43.30406,"lon":5.41318,"is_reserved":false,"is_disabled":false,"rental_uris":{"android":"levelo://app?vid=57c03374-e2e3-466b-a358-3b7ab41c163e","ios":"levelo://app?vid=57c03374-e2e3-466b-a358-3b7ab41c163e"},"vehicle_type_id":"4","last_reported":1743135151,"current_range_meters":16000,"station_id":"ce4bhop2rcd13ifvqh8g","pricing_plan_id":"cebpf4jnsgd1na2vs0mg"},{"bike_id":"fbf4b0ad-74a9-45ec-b0fd-6f3edbe73caf","system_id":"levelo_inurba_marseille","lat":43.28706,"lon":5.37402,"is_reserved":false,"is_disabled":false,"rental_uris":{"android":"levelo://app?vid=fbf4b0ad-74a9-45ec-b0fd-6f3edbe73caf","ios":"levelo://app?vid=fbf4b0ad-74a9-45ec-b0fd-6f3edbe73caf"},"vehicle_type_id":"4","last_reported":1743135151,"current_range_meters":16000,"station_id":"ce4bh3p2rcd13ifvqdq0","pricing_plan_id":"cebpf4jnsgd1na2vs0mg"},{"bike_id":"212c8e98-dbd0-430f-965c-a5211ae16902","system_id":"levelo_inurba_marseille","lat":43.25102,"lon":5.39495,"is_reserved":false,"is_disabled":false,"rental_uris":{"android":"levelo://app?vid=212c8e98-dbd0-430f-965c-a5211ae16902","ios":"levelo://app?vid=212c8e98-dbd0-430f-965c-a5211ae16902"},"vehicle_type_id":"4","last_reported":1743135151,"current_range_meters":16000,"station_id":"ce4bhm12rcd13ifvqgkg","pricing_plan_id":"cebpf4jnsgd1na2vs0mg"},{"bike_id":"a81ae25c-5bbc-499b-9e68-1b1ad7365b0f","system_id":"levelo_inurba_marseille","lat":43.25692,"lon":5.41121,"is_reserved":false,"is_disabled":false,"rental_uris":{"android":"levelo://app?vid=a81ae25c-5bbc-499b-9e68-1b1ad7365b0f","ios":"levelo://app?vid=a81ae25c-5bbc-499b-9e68-1b1ad7365b0f"},"vehicle_type_id":"4","last_reported":1743135151,"current_range_meters":16000,"station_id":"ce4bhkp2rcd13ifvqgd0","pricing_plan_id":"cebpf4jnsgd1na2vs0mg"},{"bike_id":"39e0c735-b50e-4953-acd7-8896ed9a5331","system_id":"levelo_inurba_marseille","lat":43.29282,"lon":5.40112,"is_reserved":false,"is_disabled":false,"rental_uris":{"android":"levelo://app?vid=39e0c735-b50e-4953-acd7-8896ed9a5331","ios":"levelo://app?vid=39e0c735-b50e-4953-acd7-8896ed9a5331"},"vehicle_type_id":"4","last_reported":1743135151,"current_range_meters":16000,"station_id":"ce4bh312rcd13ifvqdk0","pricing_plan_id":"cebpf4jnsgd1na2vs0mg"},{"bike_id":"279b8783-93c4-4dcd-a0fc-1fcf498bef1d","system_id":"levelo_inurba_marseille","lat":43.28466,"lon":5.35892,"is_reserved":false,"is_disabled":false,"rental_uris":{"android":"levelo://app?vid=279b8783-93c4-4dcd-a0fc-1fcf498bef1d","ios":"levelo://app?vid=279b8783-93c4-4dcd-a0fc-1fcf498bef1d"},"vehicle_type_id":"4","last_reported":1743135151,"current_range_meters":16000,"station_id":"ce4bhah2rcd13ifvqei0","pricing_plan_id":"cebpf4jnsgd1na2vs0mg"},{"bike_id":"e8be0c7f-0b06-4d18-a0a5-7b0d358f3498","system_id":"levelo_inurba_marseille","lat":43.29026,"lon":5.38643,"is_reserved":false,"is_disabled":true,"rental_uris":{"android":"levelo://app?vid=e8be0c7f-0b06-4d18-a0a5-7b0d358f3498","ios":"levelo://app?vid=e8be0c7f-0b06-4d18-a0a5-7b0d358f3498"},"vehicle_type_id":"4","last_reported":1743135151,"current_range_meters":16000,"station_id":"ce4bh4p2rcd13ifvqe0g","pricing_plan_id":"cebpf4jnsgd1na2vs0mg"},{"bike_id":"a5d79401-d37b-4866-afa7-15b041f466cb","system_id":"levelo_inurba_marseille","lat":43.255725,"lon":5.382498,"is_reserved":false,"is_disabled":false,"rental_uris":{"android":"levelo://app?vid=a5d79401-d37b-4866-afa7-15b041f466cb","ios":"levelo://app?vid=a5d79401-d37b-4866-afa7-15b041f466cb"},"vehicle_type_id":"4","last_reported":1743135151,"current_range_meters":16000,"station_id":"ce4bhih2rcd13ifvqfs0","pricing_plan_id":"cebpf4jnsgd1na2vs0mg"},{"bike_id":"983c4c9f-ee1a-4d13-8ce7-bfd36c479f46","system_id":"levelo_inurba_marseille","lat":43.241699,"lon":5.363964,"is_reserved":false,"is_disabled":false,"rental_uris":{"android":"levelo://app?vid=983c4c9f-ee1a-4d13-8ce7-bfd36c479f46","ios":"levelo://app?vid=983c4c9f-ee1a-4d13-8ce7-bfd36c479f46"},"vehicle_type_id":"4","last_reported":1743135151,"current_range_meters":16400,"station_id":"cpo36qri1sfpv3e86is0","pricing_plan_id":"cebpf4jnsgd1na2vs0mg"},{"bike_id":"a656bb2f-0e29-48ef-b7bd-90efaa415020","system_id":"levelo_inurba_marseille","lat":43.28727,"lon":5.3609,"is_reserved":false,"is_disabled":false,"rental_uris":{"android":"levelo://app?vid=a656bb2f-0e29-48ef-b7bd-90efaa415020","ios":"levelo://app?vid=a656bb2f-0e29-48ef-b7bd-90efaa415020"},"vehicle_type_id":"4","last_reported":1743135151,"current_range_meters":16400,"station_id":"cki0cbj6b192h4jlfktg","pricing_plan_id":"cebpf4jnsgd1na2vs0mg"},{"bike_id":"400afa6a-7d96-4c52-abe3-6f9f2d9c0f2b","system_id":"levelo_inurba_marseille","lat":43.28456,"lon":5.35887,"is_reserved":false,"is_disabled":false,"rental_uris":{"android":"levelo://app?vid=400afa6a-7d96-4c52-abe3-6f9f2d9c0f2b","ios":"levelo://app?vid=400afa6a-7d96-4c52-abe3-6f9f2d9c0f2b"},"vehicle_type_id":"4","last_reported":1743135151,"current_range_meters":16400,"station_id":"ce4bhah2rcd13ifvqei0","pricing_plan_id":"cebpf4jnsgd1na2vs0mg"},{"bike_id":"091ab900-0ca6-4e1d-b46b-ed2e59d60ea1","system_id":"levelo_inurba_marseille","lat":43.30886,"lon":5.39633,"is_reserved":false,"is_disabled":false,"rental_uris":{"android":"levelo://app?vid=091ab900-0ca6-4e1d-b46b-ed2e59d60ea1","ios":"levelo://app?vid=091ab900-0ca6-4e1d-b46b-ed2e59d60ea1"},"vehicle_type_id":"4","last_reported":1743135151,"current_range_meters":16400,"station_id":"ce4bh012rcd13ifvqcv0","pricing_plan_id":"cebpf4jnsgd1na2vs0mg"},{"bike_id":"68b97121-2d41-494f-a12c-e34770fcd1f1","system_id":"levelo_inurba_marseille","lat":43.23189,"lon":5.39988,"is_reserved":false,"is_disabled":false,"rental_uris":{"android":"levelo://app?vid=68b97121-2d41-494f-a12c-e34770fcd1f1","ios":"levelo://app?vid=68b97121-2d41-494f-a12c-e34770fcd1f1"},"vehicle_type_id":"4","last_reported":1743135151,"current_range_meters":16400,"station_id":"ce4bhn12rcd13ifvqgqg","pricing_plan_id":"cebpf4jnsgd1na2vs0mg"},{"bike_id":"9a3370e1-65df-4273-82f7-33f8903ab482","system_id":"levelo_inurba_marseille","lat":43.31167,"lon":5.38711,"is_reserved":false,"is_disabled":false,"rental_uris":{"android":"levelo://app?vid=9a3370e1-65df-4273-82f7-33f8903ab482","ios":"levelo://app?vid=9a3370e1-65df-4273-82f7-33f8903ab482"},"vehicle_type_id":"4","last_reported":1743135151,"current_range_meters":16400,"station_id":"ce4bgv12rcd13ifvqcp0","pricing_plan_id":"cebpf4jnsgd1na2vs0mg"},{"bike_id":"fcdf51d5-5003-402a-a3fa-5a56da5837da","system_id":"levelo_inurba_marseille","lat":43.27952,"lon":5.41033,"is_reserved":false,"is_disabled":true,"rental_uris":{"android":"levelo://app?vid=fcdf51d5-5003-402a-a3fa-5a56da5837da","ios":"levelo://app?vid=fcdf51d5-5003-402a-a3fa-5a56da5837da"},"vehicle_type_id":"4","last_reported":1743135151,"current_range_meters":16400,"station_id":"ce4bhnp2rcd13ifvqh0g","pricing_plan_id":"cebpf4jnsgd1na2vs0mg"},{"bike_id":"261d4ffc-0dae-4abc-8ed7-8c4a439b4b9a","system_id":"levelo_inurba_marseille","lat":43.27952,"lon":5.41048,"is_reserved":false,"is_disabled":false,"rental_uris":{"android":"levelo://app?vid=261d4ffc-0dae-4abc-8ed7-8c4a439b4b9a","ios":"levelo://app?vid=261d4ffc-0dae-4abc-8ed7-8c4a439b4b9a"},"vehicle_type_id":"4","last_reported":1743135151,"current_range_meters":16800,"station_id":"ce4bhnp2rcd13ifvqh0g","pricing_plan_id":"cebpf4jnsgd1na2vs0mg"},{"bike_id":"b6edc753-ccc4-49a4-9d27-48ea36860170","system_id":"levelo_inurba_marseille","lat":43.284,"lon":5.37516,"is_reserved":false,"is_disabled":false,"rental_uris":{"android":"levelo://app?vid=b6edc753-ccc4-49a4-9d27-48ea36860170","ios":"levelo://app?vid=b6edc753-ccc4-49a4-9d27-48ea36860170"},"vehicle_type_id":"4","last_reported":1743135151,"current_range_meters":16800,"station_id":"ce4bh412rcd13ifvqds0","pricing_plan_id":"cebpf4jnsgd1na2vs0mg"},{"bike_id":"0d275473-88fa-4856-9e77-62617f945d08","system_id":"levelo_inurba_marseille","lat":43.28714,"lon":5.37949,"is_reserved":false,"is_disabled":false,"rental_uris":{"android":"levelo://app?vid=0d275473-88fa-4856-9e77-62617f945d08","ios":"levelo://app?vid=0d275473-88fa-4856-9e77-62617f945d08"},"vehicle_type_id":"4","last_reported":1743135151,"current_range_meters":16800,"station_id":"ce4bh9p2rcd13ifvqec0","pricing_plan_id":"cebpf4jnsgd1na2vs0mg"},{"bike_id":"155e3fe2-30b5-42ce-ba12-b1f697461e90","system_id":"levelo_inurba_marseille","lat":43.301411,"lon":5.398564,"is_reserved":false,"is_disabled":false,"rental_uris":{"android":"levelo://app?vid=155e3fe2-30b5-42ce-ba12-b1f697461e90","ios":"levelo://app?vid=155e3fe2-30b5-42ce-ba12-b1f697461e90"},"vehicle_type_id":"4","last_reported":1743135151,"current_range_meters":16800,"station_id":"ce4bh0h2rcd13ifvqd40","pricing_plan_id":"cebpf4jnsgd1na2vs0mg"},{"bike_id":"42642fc0-90e0-4a62-8b45-c40b6cd8b705","system_id":"levelo_inurba_marseille","lat":43.28685,"lon":5.4,"is_reserved":false,"is_disabled":false,"rental_uris":{"android":"levelo://app?vid=42642fc0-90e0-4a62-8b45-c40b6cd8b705","ios":"levelo://app?vid=42642fc0-90e0-4a62-8b45-c40b6cd8b705"},"vehicle_type_id":"4","last_reported":1743135151,"current_range_meters":16800,"station_id":"ce4bho92rcd13ifvqh3g","pricing_plan_id":"cebpf4jnsgd1na2vs0mg"},{"bike_id":"21c23e58-1912-4f71-a00e-f6c0c41af9d9","system_id":"levelo_inurba_marseille","lat":43.292504,"lon":5.409115,"is_reserved":false,"is_disabled":false,"rental_uris":{"android":"levelo://app?vid=21c23e58-1912-4f71-a00e-f6c0c41af9d9","ios":"levelo://app?vid=21c23e58-1912-4f71-a00e-f6c0c41af9d9"},"vehicle_type_id":"4","last_reported":1743135151,"current_range_meters":16800,"station_id":"ce4bh192rcd13ifvqdc0","pricing_plan_id":"cebpf4jnsgd1na2vs0mg"},{"bike_id":"f93f9f15-47ba-42b2-8099-f8263dde0883","system_id":"levelo_inurba_marseille","lat":43.28731,"lon":5.36125,"is_reserved":false,"is_disabled":false,"rental_uris":{"android":"levelo://app?vid=f93f9f15-47ba-42b2-8099-f8263dde0883","ios":"levelo://app?vid=f93f9f15-47ba-42b2-8099-f8263dde0883"},"vehicle_type_id":"4","last_reported":1743135151,"current_range_meters":16800,"station_id":"cki0cbj6b192h4jlfktg","pricing_plan_id":"cebpf4jnsgd1na2vs0mg"},{"bike_id":"17872fe7-2181-482d-bda0-b89428d57c4a","system_id":"levelo_inurba_marseille","lat":43.2981,"lon":5.40409,"is_reserved":false,"is_disabled":false,"rental_uris":{"android":"levelo://app?vid=17872fe7-2181-482d-bda0-b89428d57c4a","ios":"levelo://app?vid=17872fe7-2181-482d-bda0-b89428d57c4a"},"vehicle_type_id":"4","last_reported":1743135151,"current_range_meters":16800,"station_id":"ce4bh112rcd13ifvqd90","pricing_plan_id":"cebpf4jnsgd1na2vs0mg"},{"bike_id":"ce9a16dc-d409-4fbf-a2bb-fa1c95ecd3f4","system_id":"levelo_inurba_marseille","lat":43.25132,"lon":5.40339,"is_reserved":false,"is_disabled":false,"rental_uris":{"android":"levelo://app?vid=ce9a16dc-d409-4fbf-a2bb-fa1c95ecd3f4","ios":"levelo://app?vid=ce9a16dc-d409-4fbf-a2bb-fa1c95ecd3f4"},"vehicle_type_id":"4","last_reported":1743135151,"current_range_meters":16800,"station_id":"ce4bhlh2rcd13ifvqgig","pricing_plan_id":"cebpf4jnsgd1na2vs0mg"},{"bike_id":"4ed77e11-2fc6-495f-8c5f-666b73dfd348","system_id":"levelo_inurba_marseille","lat":43.258643,"lon":5.399038,"is_reserved":false,"is_disabled":false,"rental_uris":{"android":"levelo://app?vid=4ed77e11-2fc6-495f-8c5f-666b73dfd348","ios":"levelo://app?vid=4ed77e11-2fc6-495f-8c5f-666b73dfd348"},"vehicle_type_id":"4","last_reported":1743135151,"current_range_meters":16800,"station_id":"ce4bhl92rcd13ifvqghg","pricing_plan_id":"cebpf4jnsgd1na2vs0mg"},{"bike_id":"ddca94c8-7d61-49c8-b6c2-acf77233fd50","system_id":"levelo_inurba_marseille","lat":43.29445,"lon":5.39757,"is_reserved":false,"is_disabled":false,"rental_uris":{"android":"levelo://app?vid=ddca94c8-7d61-49c8-b6c2-acf77233fd50","ios":"levelo://app?vid=ddca94c8-7d61-49c8-b6c2-acf77233fd50"},