{"last_updated":1687604766,"ttl":30,"version":"2.2","data":{"bikes":[{"bike_id":"ced0a6d2-4eb7-49e5-9033-37e1f9f5035d","system_id":"levelo_inurba_marseille","lat":43.3127,"lon":5.3683,"is_reserved":false,"is_disabled":false,"rental_uris":{"android":"levelo://app?vid=ced0a6d2-4eb7-49e5-9033-37e1f9f5035d","ios":"levelo://app?vid=ced0a6d2-4eb7-49e5-9033-37e1f9f5035d"},"vehicle_type_id":"4","last_reported":1687604767,"current_range_meters":23200,"station_id":"","pricing_plan_id":"free"},{"bike_id":"4317b212-7285-4765-b395-cfcc3b719de5","system_id":"levelo_inurba_marseille","lat":43.312239,"lon":5.368562,"is_reserved":false,"is_disabled":false,"rental_uris":{"android":"levelo://app?vid=4317b212-7285-4765-b395-cfcc3b719de5","ios":"levelo://app?vid=4317b212-7285-4765-b395-cfcc3b719de5"},"vehicle_type_id":"4","last_reported":1687604767,"current_range_meters":25200,"station_id":"ce4bgl92rcd13ifvqbq0","pricing_plan_id":"free"},{"bike_id":"19267956-f334-4166-9cb0-18622bd83e21","system_id":"levelo_inurba_marseille","lat":43.312239,"lon":5.368562,"is_reserved":false,"is_disabled":false,"rental_uris":{"android":"levelo://app?vid=19267956-f334-4166-9cb0-18622bd83e21","ios":"levelo://app?vid=19267956-f334-4166-9cb0-18622bd83e21"},"vehicle_type_id":"4","last_reported":1687604767,"current_range_meters":8400,"station_id":"ce4bgl92rcd13ifvqbq0","pricing_plan_id":"free"},{"bike_id":"4cdc7afe-8aab-49cc-b52b-449ce7d70323","system_id":"levelo_inurba_marseille","lat":43.312239,"lon":5.368562,"is_reserved":false,"is_disabled":false,"rental_uris":{"android":"levelo://app?vid=4cdc7afe-8aab-49cc-b52b-449ce7d70323","ios":"levelo://app?vid=4cdc7afe-8aab-49cc-b52b-449ce7d70323"},"vehicle_type_id":"4","last_reported":1687604767,"current_range_meters":1600,"station_id":"ce4bgl92rcd13ifvqbq0","pricing_plan_id":"free"},{"bike_id":"598ca4ee-55e2-49f3-806a-2a1dcb7de63d","system_id":"levelo_inurba_marseille","lat":43.312239,"lon":5.368562,"is_reserved":false,"is_disabled":false,"rental_uris":{"android":"levelo://app?vid=598ca4ee-55e2-49f3-806a-2a1dcb7de63d","ios":"levelo://app?vid=598ca4ee-55e2-49f3-806a-2a1dcb7de63d"},"vehicle_type_id":"4","last_reported":1687604767,"current_range_meters":18800,"station_id":"ce4bgl92rcd13ifvqbq0","pricing_plan_id":"free"},{"bike_id":"6771fa48-a40d-40eb-a575-bacf69f69560","system_id":"levelo_inurba_marseille","lat":43.312239,"lon":5.368562,"is_reserved":false,"is_disabled":false,"rental_uris":{"android":"levelo://app?vid=6771fa48-a40d-40eb-a575-bacf69f69560","ios":"levelo://app?vid=6771fa48-a40d-40eb-a575-bacf69f69560"},"vehicle_type_id":"4","last_reported":1687604767,"current_range_meters":8800,"station_id":"ce4bgl92rcd13ifvqbq0","pricing_plan_id":"free"},{"bike_id":"6e2856cd-e318-4c02-b825-05480d1860bd","system_id":"levelo_inurba_marseille","lat":43.309076,"lon":5.368465,"is_reserved":false,"is_disabled":false,"rental_uris":{"android":"levelo://app?vid=6e2856cd-e318-4c02-b825-05480d1860bd","ios":"levelo://app?vid=6e2856cd-e318-4c02-b825-05480d1860bd"},"vehicle_type_id":"4","last_reported":1687604767,"current_range_meters":6800,"station_id":"ce4bgn92rcd13ifvqbvg","pricing_plan_id":"free"},{"bike_id":"06310f1c-4cc8-49c6-a574-6b33fca387cc","system_id":"levelo_inurba_marseille","lat":43.31312,"lon":5.37259,"is_reserved":false,"is_disabled":false,"rental_uris":{"android":"levelo://app?vid=06310f1c-4cc8-49c6-a574-6b33fca387cc","ios":"levelo://app?vid=06310f1c-4cc8-49c6-a574-6b33fca387cc"},"vehicle_type_id":"4","last_reported":1687604767,"current_range_meters":6800,"station_id":"","pricing_plan_id":"free"},{"bike_id":"f600f79a-9522-48a4-8525-31e121f43c34","system_id":"levelo_inurba_marseille","lat":43.314811,"lon":5.373103,"is_reserved":false,"is_disabled":false,"rental_uris":{"android":"levelo://app?vid=f600f79a-9522-48a4-8525-31e121f43c34","ios":"levelo://app?vid=f600f79a-9522-48a4-8525-31e121f43c34"},"vehicle_type_id":"4","last_reported":1687604767,"current_range_meters":31200,"station_id":"ce4bgt12rcd13ifvqcd0","pricing_plan_id":"free"},{"bike_id":"8a14d82d-8fcb-452c-a2b6-6fdb3b379059","system_id":"levelo_inurba_marseille","lat":43.305706,"lon":5.365654,"is_reserved":false,"is_disabled":false,"rental_uris":{"android":"levelo://app?vid=8a14d82d-8fcb-452c-a2b6-6fdb3b379059","ios":"levelo://app?vid=8a14d82d-8fcb-452c-a2b6-6fdb3b379059"},"vehicle_type_id":"4","last_reported":1687604767,"current_range_meters":23600,"station_id":"ce4bgs12rcd13ifvqcag","pricing_plan_id":"free"},{"bike_id":"4723d598-d6c3-483c-a547-9f6937f8f2e0","system_id":"levelo_inurba_marseille","lat":43.305706,"lon":5.365654,"is_reserved":false,"is_disabled":false,"rental_uris":{"android":"levelo://app?vid=4723d598-d6c3-483c-a547-9f6937f8f2e0","ios":"levelo://app?vid=4723d598-d6c3-483c-a547-9f6937f8f2e0"},"vehicle_type_id":"4","last_reported":1687604767,"current_range_meters":800,"station_id":"ce4bgs12rcd13ifvqcag","pricing_plan_id":"free"},{"bike_id":"5cdb7b94-40c7-4605-b0a2-f60bf0b9560d","system_id":"levelo_inurba_marseille","lat":43.305714,"lon":5.365633,"is_reserved":false,"is_disabled":false,"rental_uris":{"android":"levelo://app?vid=5cdb7b94-40c7-4605-b0a2-f60bf0b9560d","ios":"levelo://app?vid=5cdb7b94-40c7-4605-b0a2-f60bf0b9560d"},"vehicle_type_id":"4","last_reported":1687604767,"current_range_meters":27600,"station_id":"ce4bgs12rcd13ifvqcag","pricing_plan_id":"free"},{"bike_id":"0369e631-e22a-45a2-9ea7-df86e95b79fb","system_id":"levelo_inurba_marseille","lat":43.305706,"lon":5.365654,"is_reserved":false,"is_disabled":false,"rental_uris":{"android":"levelo://app?vid=0369e631-e22a-45a2-9ea7-df86e95b79fb","ios":"levelo://app?vid=0369e631-e22a-45a2-9ea7-df86e95b79fb"},"vehicle_type_id":"4","last_reported":1687604767,"current_range_meters":17600,"station_id":"ce4bgs12rcd13ifvqcag","pricing_plan_id":"free"},{"bike_id":"6289fccf-70ea-45b8-bb32-7ddedea00214","system_id":"levelo_inurba_marseille","lat":43.305714,"lon":5.365633,"is_reserved":false,"is_disabled":false,"rental_uris":{"android":"levelo://app?vid=6289fccf-70ea-45b8-bb32-7ddedea00214","ios":"levelo://app?vid=6289fccf-70ea-45b8-bb32-7ddedea00214"},"vehicle_type_id":"4","last_reported":1687604767,"current_range_meters":21600,"station_id":"ce4bgs12rcd13ifvqcag","pricing_plan_id":"free"},{"bike_id":"d7f0d6f4-f25d-4666-98dc-e252d48cc379","system_id":"levelo_inurba_marseille","lat":43.305714,"lon":5.365633,"is_reserved":false,"is_disabled":false,"rental_uris":{"android":"levelo://app?vid=d7f0d6f4-f25d-4666-98dc-e252d48cc379","ios":"levelo://app?vid=d7f0d6f4-f25d-4666-98dc-e252d48cc379"},"vehicle_type_id":"4","last_reported":1687604767,"current_range_meters":21600,"station_id":"ce4bgs12rcd13ifvqcag","pricing_plan_id":"free"},{"bike_id":"719c0130-a4db-43df-be52-28338359eed8","system_id":"levelo_inurba_marseille","lat":43.305714,"lon":5.365633,"is_reserved":false,"is_disabled":false,"rental_uris":{"android":"levelo://app?vid=719c0130-a4db-43df-be52-28338359eed8","ios":"levelo://app?vid=719c0130-a4db-43df-be52-28338359eed8"},"vehicle_type_id":"4","last_reported":1687604767,"current_range_meters":17200,"station_id":"ce4bgs12rcd13ifvqcag","pricing_plan_id":"free"},{"bike_id":"cadb2279-3938-42b3-a73c-32ed68b39ca6","system_id":"levelo_inurba_marseille","lat":43.305706,"lon":5.365654,"is_reserved":false,"is_disabled":false,"rental_uris":{"android":"levelo://app?vid=cadb2279-3938-42b3-a73c-32ed68b39ca6","ios":"levelo://app?vid=cadb2279-3938-42b3-a73c-32ed68b39ca6"},"vehicle_type_id":"4","last_reported":1687604767,"current_range_meters":20000,"station_id":"ce4bgs12rcd13ifvqcag","pricing_plan_id":"free"},{"bike_id":"a62a0728-8de8-4e94-8958-5c1d77536818","system_id":"levelo_inurba_marseille","lat":43.305706,"lon":5.365654,"is_reserved":false,"is_disabled":false,"rental_uris":{"android":"levelo://app?vid=a62a0728-8de8-4e94-8958-5c1d77536818","ios":"levelo://app?vid=a62a0728-8de8-4e94-8958-5c1d77536818"},"vehicle_type_id":"4","last_reported":1687604767,"current_range_meters":26800,"station_id":"ce4bgs12rcd13ifvqcag","pricing_plan_id":"free"},{"bike_id":"89b46ebe-0cfc-495d-9fd7-2897748bb360","system_id":"levelo_inurba_marseille","lat":43.305714,"lon":5.365633,"is_reserved":false,"is_disabled":false,"rental_uris":{"android":"levelo://app?vid=89b46ebe-0cfc-495d-9fd7-2897748bb360","ios":"levelo://app?vid=89b46ebe-0cfc-495d-9fd7-2897748bb360"},"vehicle_type_id":"4","last_reported":1687604767,"current_range_meters":31200,"station_id":"ce4bgs12rcd13ifvqcag","pricing_plan_id":"free"},{"bike_id":"78028943-c241-41b1-b841-b81ce608ff6d","system_id":"levelo_inurba_marseille","lat":43.305714,"lon":5.365633,"is_reserved":false,"is_disabled":false,"rental_uris":{"android":"levelo://app?vid=78028943-c241-41b1-b841-b81ce608ff6d","ios":"levelo://app?vid=78028943-c241-41b1-b841-b81ce608ff6d"},"vehicle_type_id":"4","last_reported":1687604767,"current_range_meters":27600,"station_id":"ce4bgs12rcd13ifvqcag","pricing_plan_id":"free"},{"bike_id":"01ff2fa6-d29b-4b70-bfad-899c9dac53a8","system_id":"levelo_inurba_marseille","lat":43.305714,"lon":5.365633,"is_reserved":false,"is_disabled":false,"rental_uris":{"android":"levelo://app?vid=01ff2fa6-d29b-4b70-bfad-899c9dac53a8","ios":"levelo://app?vid=01ff2fa6-d29b-4b70-bfad-899c9dac53a8"},"vehicle_type_id":"4","last_reported":1687604767,"current_range_meters":25600,"station_id":"ce4bgs12rcd13ifvqcag","pricing_plan_id":"free"},{"bike_id":"8c6a7e00-9c68-4254-910e-3bb38fc39131","system_id":"levelo_inurba_marseille","lat":43.305706,"lon":5.365654,"is_reserved":false,"is_disabled":false,"rental_uris":{"android":"levelo://app?vid=8c6a7e00-9c68-4254-910e-3bb38fc39131","ios":"levelo://app?vid=8c6a7e00-9c68-4254-910e-3bb38fc39131"},"vehicle_type_id":"4","last_reported":1687604767,"current_range_meters":31200,"station_id":"ce4bgs12rcd13ifvqcag","pricing_plan_id":"free"},{"bike_id":"0fb396fd-7f4c-492f-aa17-3b27a59bc3dc","system_id":"levelo_inurba_marseille","lat":43.30504,"lon":5.3673,"is_reserved":false,"is_disabled":false,"rental_uris":{"android":"levelo://app?vid=0fb396fd-7f4c-492f-aa17-3b27a59bc3dc","ios":"levelo://app?vid=0fb396fd-7f4c-492f-aa17-3b27a59bc3dc"},"vehicle_type_id":"4","last_reported":1687604767,"current_range_meters":22800,"station_id":"","pricing_plan_id":"free"},{"bike_id":"55956be4-a293-4a35-8d02-3463c137541a","system_id":"levelo_inurba_marseille","lat":43.305989,"lon":5.37225,"is_reserved":false,"is_disabled":false,"rental_uris":{"android":"levelo://app?vid=55956be4-a293-4a35-8d02-3463c137541a","ios":"levelo://app?vid=55956be4-a293-4a35-8d02-3463c137541a"},"vehicle_type_id":"4","last_reported":1687604767,"current_range_meters":15200,"station_id":"ce4bgqh2rcd13ifvqc4g","pricing_plan_id":"free"},{"bike_id":"7b0f5c42-783c-4567-be71-563ab340328f","system_id":"levelo_inurba_marseille","lat":43.317075,"lon":5.377367,"is_reserved":false,"is_disabled":false,"rental_uris":{"android":"levelo://app?vid=7b0f5c42-783c-4567-be71-563ab340328f","ios":"levelo://app?vid=7b0f5c42-783c-4567-be71-563ab340328f"},"vehicle_type_id":"4","last_reported":1687604767,"current_range_meters":6800,"station_id":"ce4bgth2rcd13ifvqch0","pricing_plan_id":"free"},{"bike_id":"b3eadd5e-a3ec-42d2-9e5e-4130d6bbf5d9","system_id":"levelo_inurba_marseille","lat":43.303046,"lon":5.368981,"is_reserved":false,"is_disabled":false,"rental_uris":{"android":"levelo://app?vid=b3eadd5e-a3ec-42d2-9e5e-4130d6bbf5d9","ios":"levelo://app?vid=b3eadd5e-a3ec-42d2-9e5e-4130d6bbf5d9"},"vehicle_type_id":"4","last_reported":1687604767,"current_range_meters":22400,"station_id":"ce4bgqh2rcd13ifvqc5g","pricing_plan_id":"free"},{"bike_id":"dd875a85-efff-44b8-8320-89fd32ad6ad2","system_id":"levelo_inurba_marseille","lat":43.3154,"lon":5.38027,"is_reserved":false,"is_disabled":false,"rental_uris":{"android":"levelo://app?vid=dd875a85-efff-44b8-8320-89fd32ad6ad2","ios":"levelo://app?vid=dd875a85-efff-44b8-8320-89fd32ad6ad2"},"vehicle_type_id":"4","last_reported":1687604767,"current_range_meters":30800,"station_id":"ce4bhsp2rcd13ifvqi50","pricing_plan_id":"free"},{"bike_id":"fc699448-1da6-4df4-ac52-3ac31eb4881e","system_id":"levelo_inurba_marseille","lat":43.301939,"lon":5.366286,"is_reserved":false,"is_disabled":false,"rental_uris":{"android":"levelo://app?vid=fc699448-1da6-4df4-ac52-3ac31eb4881e","ios":"levelo://app?vid=fc699448-1da6-4df4-ac52-3ac31eb4881e"},"vehicle_type_id":"4","last_reported":1687604767,"current_range_meters":28000,"station_id":"ce4bgrh2rcd13ifvqc8g","pricing_plan_id":"free"},{"bike_id":"1b00487b-b4ba-450c-b7b9-bf40e060b7e8","system_id":"levelo_inurba_marseille","lat":43.301939,"lon":5.366286,"is_reserved":false,"is_disabled":false,"rental_uris":{"android":"levelo://app?vid=1b00487b-b4ba-450c-b7b9-bf40e060b7e8","ios":"levelo://app?vid=1b00487b-b4ba-450c-b7b9-bf40e060b7e8"},"vehicle_type_id":"4","last_reported":1687604767,"current_range_meters":20800,"station_id":"ce4bgrh2rcd13ifvqc8g","pricing_plan_id":"free"},{"bike_id":"13cb744c-6f0c-4a5b-8d58-b0daecf92249","system_id":"levelo_inurba_marseille","lat":43.301939,"lon":5.366286,"is_reserved":false,"is_disabled":false,"rental_uris":{"android":"levelo://app?vid=13cb744c-6f0c-4a5b-8d58-b0daecf92249","ios":"levelo://app?vid=13cb744c-6f0c-4a5b-8d58-b0daecf92249"},"vehicle_type_id":"4","last_reported":1687604767,"current_range_meters":26000,"station_id":"ce4bgrh2rcd13ifvqc8g","pricing_plan_id":"free"},{"bike_id":"31252285-c665-4b59-b680-0fea70133b55","system_id":"levelo_inurba_marseille","lat":43.304606,"lon":5.379026,"is_reserved":false,"is_disabled":false,"rental_uris":{"android":"levelo://app?vid=31252285-c665-4b59-b680-0fea70133b55","ios":"levelo://app?vid=31252285-c665-4b59-b680-0fea70133b55"},"vehicle_type_id":"4","last_reported":1687604767,"current_range_meters":23600,"station_id":"ce4bgup2rcd13ifvqcn0","pricing_plan_id":"free"},{"bike_id":"06ca62d0-e7b5-4a26-822d-d3a10de756da","system_id":"levelo_inurba_marseille","lat":43.304606,"lon":5.379026,"is_reserved":false,"is_disabled":false,"rental_uris":{"android":"levelo://app?vid=06ca62d0-e7b5-4a26-822d-d3a10de756da","ios":"levelo://app?vid=06ca62d0-e7b5-4a26-822d-d3a10de756da"},"vehicle_type_id":"4","last_reported":1687604767,"current_range_meters":26800,"station_id":"ce4bgup2rcd13ifvqcn0","pricing_plan_id":"free"},{"bike_id":"65635d21-176d-4bb4-8c9e-bcf77d358367","system_id":"levelo_inurba_marseille","lat":43.304606,"lon":5.379026,"is_reserved":false,"is_disabled":false,"rental_uris":{"android":"levelo://app?vid=65635d21-176d-4bb4-8c9e-bcf77d358367","ios":"levelo://app?vid=65635d21-176d-4bb4-8c9e-bcf77d358367"},"vehicle_type_id":"4","last_reported":1687604767,"current_range_meters":22400,"station_id":"ce4bgup2rcd13ifvqcn0","pricing_plan_id":"free"},{"bike_id":"0ef18539-4a27-4ec4-9dbf-0a42d878c10b","system_id":"levelo_inurba_marseille","lat":43.304606,"lon":5.379026,"is_reserved":false,"is_disabled":false,"rental_uris":{"android":"levelo://app?vid=0ef18539-4a27-4ec4-9dbf-0a42d878c10b","ios":"levelo://app?vid=0ef18539-4a27-4ec4-9dbf-0a42d878c10b"},"vehicle_type_id":"4","last_reported":1687604767,"current_range_meters":18000,"station_id":"ce4bgup2rcd13ifvqcn0","pricing_plan_id":"free"},{"bike_id":"1f373ac8-a75e-4a2b-8475-f2eb09b6535b","system_id":"levelo_inurba_marseille","lat":43.3047,"lon":5.37896,"is_reserved":false,"is_disabled":false,"rental_uris":{"android":"levelo://app?vid=1f373ac8-a75e-4a2b-8475-f2eb09b6535b","ios":"levelo://app?vid=1f373ac8-a75e-4a2b-8475-f2eb09b6535b"},"vehicle_type_id":"4","last_reported":1687604767,"current_range_meters":29600,"station_id":"ce4bgup2rcd13ifvqcn0","pricing_plan_id":"free"},{"bike_id":"fa36cdbe-c8a4-4d7f-8dce-027ee02d9a91","system_id":"levelo_inurba_marseille","lat":43.304606,"lon":5.379026,"is_reserved":false,"is_disabled":false,"rental_uris":{"android":"levelo://app?vid=fa36cdbe-c8a4-4d7f-8dce-027ee02d9a91","ios":"levelo://app?vid=fa36cdbe-c8a4-4d7f-8dce-027ee02d9a91"},"vehicle_type_id":"4","last_reported":1687604767,"current_range_meters":31600,"station_id":"ce4bgup2rcd13ifvqcn0","pricing_plan_id":"free"},{"bike_id":"9fa95b7b-9033-465f-8ec2-adb1e87790d3","system_id":"levelo_inurba_marseille","lat":43.304606,"lon":5.379026,"is_reserved":false,"is_disabled":false,"rental_uris":{"android":"levelo://app?vid=9fa95b7b-9033-465f-8ec2-adb1e87790d3","ios":"levelo://app?vid=9fa95b7b-9033-465f-8ec2-adb1e87790d3"},"vehicle_type_id":"4","last_reported":1687604767,"current_range_meters":31200,"station_id":"ce4bgup2rcd13ifvqcn0","pricing_plan_id":"free"},{"bike_id":"fd333aa3-c077-4a2d-ba7d-06c3d9f4b919","system_id":"levelo_inurba_marseille","lat":43.304606,"lon":5.379026,"is_reserved":false,"is_disabled":false,"rental_uris":{"android":"levelo://app?vid=fd333aa3-c077-4a2d-ba7d-06c3d9f4b919","ios":"levelo://app?vid=fd333aa3-c077-4a2d-ba7d-06c3d9f4b919"},"vehicle_type_id":"4","last_reported":1687604767,"current_range_meters":20400,"station_id":"ce4bgup2rcd13ifvqcn0","pricing_plan_id":"free"},{"bike_id":"4a3109f6-4b1e-44b0-8070-d8e28bc3cbbf","system_id":"levelo_inurba_marseille","lat":43.304606,"lon":5.379026,"is_reserved":false,"is_disabled":false,"rental_uris":{"android":"levelo://app?vid=4a3109f6-4b1e-44b0-8070-d8e28bc3cbbf","ios":"levelo://app?vid=4a3109f6-4b1e-44b0-8070-d8e28bc3cbbf"},"vehicle_type_id":"4","last_reported":1687604767,"current_range_meters":30000,"station_id":"ce4bgup2rcd13ifvqcn0","pricing_plan_id":"free"},{"bike_id":"ab6e5749-712e-4b89-a7db-aea9da7c91f7","system_id":"levelo_inurba_marseille","lat":43.304606,"lon":5.379026,"is_reserved":false,"is_disabled":false,"rental_uris":{"android":"levelo://app?vid=ab6e5749-712e-4b89-a7db-aea9da7c91f7","ios":"levelo://app?vid=ab6e5749-712e-4b89-a7db-aea9da7c91f7"},"vehicle_type_id":"4","last_reported":1687604767,"current_range_meters":23600,"station_id":"ce4bgup2rcd13ifvqcn0","pricing_plan_id":"free"},{"bike_id":"058b5c74-d451-4c09-84b7-7ccc42865faf","system_id":"levelo_inurba_marseille","lat":43.304606,"lon":5.379026,"is_reserved":false,"is_disabled":false,"rental_uris":{"android":"levelo://app?vid=058b5c74-d451-4c09-84b7-7ccc42865faf","ios":"levelo://app?vid=058b5c74-d451-4c09-84b7-7ccc42865faf"},"vehicle_type_id":"4","last_reported":1687604767,"current_range_meters":18400,"station_id":"ce4bgup2rcd13ifvqcn0","pricing_plan_id":"free"},{"bike_id":"b58a4783-1063-47ef-b9a4-d2089d65a485","system_id":"levelo_inurba_marseille","lat":43.30276,"lon":5.377,"is_reserved":false,"is_disabled":false,"rental_uris":{"android":"levelo://app?vid=b58a4783-1063-47ef-b9a4-d2089d65a485","ios":"levelo://app?vid=b58a4783-1063-47ef-b9a4-d2089d65a485"},"vehicle_type_id":"4","last_reported":1687604767,"current_range_meters":29600,"station_id":"ce4bguh2rcd13ifvqcj0","pricing_plan_id":"free"},{"bike_id":"388b99fc-8590-48a5-b5e8-4e62559f8827","system_id":"levelo_inurba_marseille","lat":43.31467,"lon":5.38408,"is_reserved":false,"is_disabled":false,"rental_uris":{"android":"levelo://app?vid=388b99fc-8590-48a5-b5e8-4e62559f8827","ios":"levelo://app?vid=388b99fc-8590-48a5-b5e8-4e62559f8827"},"vehicle_type_id":"4","last_reported":1687604767,"current_range_meters":19600,"station_id":"","pricing_plan_id":"free"},{"bike_id":"6f8deb40-9051-4dd7-82ec-022e8461dd46","system_id":"levelo_inurba_marseille","lat":43.299222,"lon":5.365554,"is_reserved":false,"is_disabled":false,"rental_uris":{"android":"levelo://app?vid=6f8deb40-9051-4dd7-82ec-022e8461dd46","ios":"levelo://app?vid=6f8deb40-9051-4dd7-82ec-022e8461dd46"},"vehicle_type_id":"4","last_reported":1687604767,"current_range_meters":0,"station_id":"ce4bgm92rcd13ifvqbr0","pricing_plan_id":"free"},{"bike_id":"7c69d7b4-a856-4eb2-ac10-41fc2886a0f1","system_id":"levelo_inurba_marseille","lat":43.299209,"lon":5.365547,"is_reserved":false,"is_disabled":false,"rental_uris":{"android":"levelo://app?vid=7c69d7b4-a856-4eb2-ac10-41fc2886a0f1","ios":"levelo://app?vid=7c69d7b4-a856-4eb2-ac10-41fc2886a0f1"},"vehicle_type_id":"4","last_reported":1687604767,"current_range_meters":21600,"station_id":"ce4bgm92rcd13ifvqbr0","pricing_plan_id":"free"},{"bike_id":"cc186744-4369-4359-af47-6d9579ed937a","system_id":"levelo_inurba_marseille","lat":43.299209,"lon":5.365547,"is_reserved":false,"is_disabled":false,"rental_uris":{"android":"levelo://app?vid=cc186744-4369-4359-af47-6d9579ed937a","ios":"levelo://app?vid=cc186744-4369-4359-af47-6d9579ed937a"},"vehicle_type_id":"4","last_reported":1687604767,"current_range_meters":21200,"station_id":"ce4bgm92rcd13ifvqbr0","pricing_plan_id":"free"},{"bike_id":"f968b818-c67a-4852-a038-f1f0176621c2","system_id":"levelo_inurba_marseille","lat":43.32676,"lon":5.36719,"is_reserved":false,"is_disabled":false,"rental_uris":{"android":"levelo://app?vid=f968b818-c67a-4852-a038-f1f0176621c2","ios":"levelo://app?vid=f968b818-c67a-4852-a038-f1f0176621c2"},"vehicle_type_id":"4","last_reported":1687604767,"current_range_meters":19200,"station_id":"ce4bhs92rcd13ifvqi0g","pricing_plan_id":"free"},{"bike_id":"f0aa2b65-9aab-4142-9ca6-93dee2935be9","system_id":"levelo_inurba_marseille","lat":43.298433,"lon":5.362774,"is_reserved":false,"is_disabled":false,"rental_uris":{"android":"levelo://app?vid=f0aa2b65-9aab-4142-9ca6-93dee2935be9","ios":"levelo://app?vid=f0aa2b65-9aab-4142-9ca6-93dee2935be9"},"vehicle_type_id":"4","last_reported":1687604767,"current_range_meters":31200,"station_id":"ce4bgpp2rcd13ifvqc3g","pricing_plan_id":"free"},{"bike_id":"10bae20a-6644-4d36-95b9-f23f5d793f31","system_id":"levelo_inurba_marseille","lat":43.29845,"lon":5.3628,"is_reserved":false,"is_disabled":false,"rental_uris":{"android":"levelo://app?vid=10bae20a-6644-4d36-95b9-f23f5d793f31","ios":"levelo://app?vid=10bae20a-6644-4d36-95b9-f23f5d793f31"},"vehicle_type_id":"4","last_reported":1687604767,"current_range_meters":13200,"station_id":"ce4bgpp2rcd13ifvqc3g","pricing_plan_id":"free"},{"bike_id":"2317718f-07d3-403d-8b85-c9be7cc07db7","system_id":"levelo_inurba_marseille","lat":43.298433,"lon":5.362774,"is_reserved":false,"is_disabled":false,"rental_uris":{"android":"levelo://app?vid=2317718f-07d3-403d-8b85-c9be7cc07db7","ios":"levelo://app?vid=2317718f-07d3-403d-8b85-c9be7cc07db7"},"vehicle_type_id":"4","last_reported":1687604767,"current_range_meters":5600,"station_id":"ce4bgpp2rcd13ifvqc3g","pricing_plan_id":"free"},{"bike_id":"71341c37-2715-4493-87ef-7726ee3b7785","system_id":"levelo_inurba_marseille","lat":43.299243,"lon":5.374807,"is_reserved":false,"is_disabled":false,"rental_uris":{"android":"levelo://app?vid=71341c37-2715-4493-87ef-7726ee3b7785","ios":"levelo://app?vid=71341c37-2715-4493-87ef-7726ee3b7785"},"vehicle_type_id":"4","last_reported":1687604767,"current_range_meters":14000,"station_id":"ce4bgjh2rcd13ifvqbg0","pricing_plan_id":"free"},{"bike_id":"99bfd911-37a6-4364-a85d-0e8d6620ad38","system_id":"levelo_inurba_marseille","lat":43.298433,"lon":5.362774,"is_reserved":false,"is_disabled":false,"rental_uris":{"android":"levelo://app?vid=99bfd911-37a6-4364-a85d-0e8d6620ad38","ios":"levelo://app?vid=99bfd911-37a6-4364-a85d-0e8d6620ad38"},"vehicle_type_id":"4","last_reported":1687604767,"current_range_meters":31200,"station_id":"ce4bgpp2rcd13ifvqc3g","pricing_plan_id":"free"},{"bike_id":"ade1a26e-9e32-4817-9fa9-ec2590b4d05c","system_id":"levelo_inurba_marseille","lat":43.29911,"lon":5.37462,"is_reserved":false,"is_disabled":false,"rental_uris":{"android":"levelo://app?vid=ade1a26e-9e32-4817-9fa9-ec2590b4d05c","ios":"levelo://app?vid=ade1a26e-9e32-4817-9fa9-ec2590b4d05c"},"vehicle_type_id":"4","last_reported":1687604767,"current_range_meters":0,"station_id":"ce4bgjh2rcd13ifvqbg0","pricing_plan_id":"free"},{"bike_id":"1580a472-182f-4d91-8a6c-4c3a23a9c034","system_id":"levelo_inurba_marseille","lat":43.302,"lon":5.3821,"is_reserved":false,"is_disabled":false,"rental_uris":{"android":"levelo://app?vid=1580a472-182f-4d91-8a6c-4c3a23a9c034","ios":"levelo://app?vid=1580a472-182f-4d91-8a6c-4c3a23a9c034"},"vehicle_type_id":"4","last_reported":1687604767,"current_range_meters":17600,"station_id":"","pricing_plan_id":"free"},{"bike_id":"95a91c18-4e58-4f07-b039-80067af6d5c7","system_id":"levelo_inurba_marseille","lat":43.32823,"lon":5.36677,"is_reserved":false,"is_disabled":false,"rental_uris":{"android":"levelo://app?vid=95a91c18-4e58-4f07-b039-80067af6d5c7","ios":"levelo://app?vid=95a91c18-4e58-4f07-b039-80067af6d5c7"},"vehicle_type_id":"4","last_reported":1687604767,"current_range_meters":29600,"station_id":"ce4bhs92rcd13ifvqi0g","pricing_plan_id":"free"},{"bike_id":"360fac2c-3b34-4e1e-adeb-876ff421a723","system_id":"levelo_inurba_marseille","lat":43.328371,"lon":5.366909,"is_reserved":false,"is_disabled":false,"rental_uris":{"android":"levelo://app?vid=360fac2c-3b34-4e1e-adeb-876ff421a723","ios":"levelo://app?vid=360fac2c-3b34-4e1e-adeb-876ff421a723"},"vehicle_type_id":"4","last_reported":1687604767,"current_range_meters":23600,"station_id":"ce4bhs92rcd13ifvqi0g","pricing_plan_id":"free"},{"bike_id":"f0c49d04-749f-4a18-8823-5f643fcb68d5","system_id":"levelo_inurba_marseille","lat":43.328371,"lon":5.366909,"is_reserved":false,"is_disabled":false,"rental_uris":{"android":"levelo://app?vid=f0c49d04-749f-4a18-8823-5f643fcb68d5","ios":"levelo://app?vid=f0c49d04-749f-4a18-8823-5f643fcb68d5"},"vehicle_type_id":"4","last_reported":1687604767,"current_range_meters":30400,"station_id":"ce4bhs92rcd13ifvqi0g","pricing_plan_id":"free"},{"bike_id":"ce9487af-76bc-41bd-a9cf-1f83771f0d31","system_id":"levelo_inurba_marseille","lat":43.328371,"lon":5.366909,"is_reserved":false,"is_disabled":false,"rental_uris":{"android":"levelo://app?vid=ce9487af-76bc-41bd-a9cf-1f83771f0d31","ios":"levelo://app?vid=ce9487af-76bc-41bd-a9cf-1f83771f0d31"},"vehicle_type_id":"4","last_reported":1687604767,"current_range_meters":0,"station_id":"ce4bhs92rcd13ifvqi0g","pricing_plan_id":"free"},{"bike_id":"fa80e9cd-f31a-45d0-9ce7-3d96d492f473","system_id":"levelo_inurba_marseille","lat":43.328371,"lon":5.366909,"is_reserved":false,"is_disabled":false,"rental_uris":{"android":"levelo://app?vid=fa80e9cd-f31a-45d0-9ce7-3d96d492f473","ios":"levelo://app?vid=fa80e9cd-f31a-45d0-9ce7-3d96d492f473"},"vehicle_type_id":"4","last_reported":1687604767,"current_range_meters":17600,"station_id":"ce4bhs92rcd13ifvqi0g","pricing_plan_id":"free"},{"bike_id":"d6aa4b8f-0fbd-492f-a726-f1b64033634e","system_id":"levelo_inurba_marseille","lat":43.29736,"lon":5.36385,"is_reserved":false,"is_disabled":false,"rental_uris":{"android":"levelo://app?vid=d6aa4b8f-0fbd-492f-a726-f1b64033634e","ios":"levelo://app?vid=d6aa4b8f-0fbd-492f-a726-f1b64033634e"},"vehicle_type_id":"4","last_reported":1687604767,"current_range_meters":6400,"station_id":"","pricing_plan_id":"free"},{"bike_id":"dd41ba81-9716-41ad-bf2f-fd5f1f31dcaa","system_id":"levelo_inurba_marseille","lat":43.328371,"lon":5.366909,"is_reserved":false,"is_disabled":false,"rental_uris":{"android":"levelo://app?vid=dd41ba81-9716-41ad-bf2f-fd5f1f31dcaa","ios":"levelo://app?vid=dd41ba81-9716-41ad-bf2f-fd5f1f31dcaa"},"vehicle_type_id":"4","last_reported":1687604767,"current_range_meters":27600,"station_id":"ce4bhs92rcd13ifvqi0g","pricing_plan_id":"free"},{"bike_id":"cbdd73a9-8831-4dab-9e8d-2ce4e630f6d2","system_id":"levelo_inurba_marseille","lat":43.328371,"lon":5.366909,"is_reserved":false,"is_disabled":false,"rental_uris":{"android":"levelo://app?vid=cbdd73a9-8831-4dab-9e8d-2ce4e630f6d2","ios":"levelo://app?vid=cbdd73a9-8831-4dab-9e8d-2ce4e630f6d2"},"vehicle_type_id":"4","last_reported":1687604767,"current_range_meters":30400,"station_id":"ce4bhs92rcd13ifvqi0g","pricing_plan_id":"free"},{"bike_id":"f0c21314-da3e-469b-88bf-3dac9af975db","system_id":"levelo_inurba_marseille","lat":43.297163,"lon":5.365866,"is_reserved":false,"is_disabled":false,"rental_uris":{"android":"levelo://app?vid=f0c21314-da3e-469b-88bf-3dac9af975db","ios":"levelo://app?vid=f0c21314-da3e-469b-88bf-3dac9af975db"},"vehicle_type_id":"4","last_reported":1687604767,"current_range_meters":15200,"station_id":"ce4bgn12rcd13ifvqbt0","pricing_plan_id":"free"},{"bike_id":"e1fd1a3e-da9e-468b-acc4-838fbbbaf43a","system_id":"levelo_inurba_marseille","lat":43.295902,"lon":5.367351,"is_reserved":false,"is_disabled":false,"rental_uris":{"android":"levelo://app?vid=e1fd1a3e-da9e-468b-acc4-838fbbbaf43a","ios":"levelo://app?vid=e1fd1a3e-da9e-468b-acc4-838fbbbaf43a"},"vehicle_type_id":"4","last_reported":1687604767,"current_range_meters":14400,"station_id":"","pricing_plan_id":"free"},{"bike_id":"af625db2-beba-4862-a604-d6dcff8635e8","system_id":"levelo_inurba_marseille","lat":43.296131,"lon":5.370773,"is_reserved":false,"is_disabled":false,"rental_uris":{"android":"levelo://app?vid=af625db2-beba-4862-a604-d6dcff8635e8","ios":"levelo://app?vid=af625db2-beba-4862-a604-d6dcff8635e8"},"vehicle_type_id":"4","last_reported":1687604767,"current_range_meters":28000,"station_id":"ce4bgnh2rcd13ifvqc0g","pricing_plan_id":"free"},{"bike_id":"041bc147-ef2f-419b-bb81-deca3bdf89e2","system_id":"levelo_inurba_marseille","lat":43.29611,"lon":5.36046,"is_reserved":false,"is_disabled":false,"rental_uris":{"android":"levelo://app?vid=041bc147-ef2f-419b-bb81-deca3bdf89e2","ios":"levelo://app?vid=041bc147-ef2f-419b-bb81-deca3bdf89e2"},"vehicle_type_id":"4","last_reported":1687604767,"current_range_meters":7200,"station_id":"","pricing_plan_id":"free"},{"bike_id":"882b8dac-fedd-4ce2-8c52-c13c111f3ac4","system_id":"levelo_inurba_marseille","lat":43.296921,"lon":5.376579,"is_reserved":false,"is_disabled":false,"rental_uris":{"android":"levelo://app?vid=882b8dac-fedd-4ce2-8c52-c13c111f3ac4","ios":"levelo://app?vid=882b8dac-fedd-4ce2-8c52-c13c111f3ac4"},"vehicle_type_id":"4","last_reported":1687604767,"current_range_meters":0,"station_id":"ce4bgkh2rcd13ifvqbl0","pricing_plan_id":"free"},{"bike_id":"b620228d-37d4-4969-b28b-de0acc7b2432","system_id":"levelo_inurba_marseille","lat":43.317557,"lon":5.390173,"is_reserved":false,"is_disabled":false,"rental_uris":{"android":"levelo://app?vid=b620228d-37d4-4969-b28b-de0acc7b2432","ios":"levelo://app?vid=b620228d-37d4-4969-b28b-de0acc7b2432"},"vehicle_type_id":"4","last_reported":1687604767,"current_range_meters":28800,"station_id":"ce4bhqp2rcd13ifvqhng","pricing_plan_id":"free"},{"bike_id":"966e541e-b9c8-40fc-ae22-2e0d494c2a6b","system_id":"levelo_inurba_marseille","lat":43.29607,"lon":5.37708,"is_reserved":false,"is_disabled":false,"rental_uris":{"android":"levelo://app?vid=966e541e-b9c8-40fc-ae22-2e0d494c2a6b","ios":"levelo://app?vid=966e541e-b9c8-40fc-ae22-2e0d494c2a6b"},"vehicle_type_id":"4","last_reported":1687604767,"current_range_meters":7200,"station_id":"ce4bgi92rcd13ifvqb90","pricing_plan_id":"free"},{"bike_id":"b3f57e79-3f61-41cc-ae50-21e888550e4b","system_id":"levelo_inurba_marseille","lat":43.29971,"lon":5.38486,"is_reserved":false,"is_disabled":false,"rental_uris":{"android":"levelo://app?vid=b3f57e79-3f61-41cc-ae50-21e888550e4b","ios":"levelo://app?vid=b3f57e79-3f61-41cc-ae50-21e888550e4b"},"vehicle_type_id":"4","last_reported":1687604767,"current_range_meters":13200,"station_id":"ce4bgj92rcd13ifvqbd0","pricing_plan_id":"free"},{"bike_id":"6b05f8f0-f4fb-40e7-82c0-a54912f6c06c","system_id":"levelo_inurba_marseille","lat":43.32359,"lon":5.38879,"is_reserved":false,"is_disabled":false,"rental_uris":{"android":"levelo://app?vid=6b05f8f0-f4fb-40e7-82c0-a54912f6c06c","ios":"levelo://app?vid=6b05f8f0-f4fb-40e7-82c0-a54912f6c06c"},"vehicle_type_id":"4","last_reported":1687604767,"current_range_meters":28800,"station_id":"ce4bhqp2rcd13ifvqhog","pricing_plan_id":"free"},{"bike_id":"ab05e67f-53e7-4b07-a295-c58e05fc4f08","system_id":"levelo_inurba_marseille","lat":43.32365,"lon":5.38878,"is_reserved":false,"is_disabled":false,"rental_uris":{"android":"levelo://app?vid=ab05e67f-53e7-4b07-a295-c58e05fc4f08","ios":"levelo://app?vid=ab05e67f-53e7-4b07-a295-c58e05fc4f08"},"vehicle_type_id":"4","last_reported":1687604767,"current_range_meters":23600,"station_id":"ce4bhqp2rcd13ifvqhog","pricing_plan_id":"free"},{"bike_id":"2e0fa622-dc89-44fe-984b-a2bb7220f9be","system_id":"levelo_inurba_marseille","lat":43.32364,"lon":5.38881,"is_reserved":false,"is_disabled":false,"rental_uris":{"android":"levelo://app?vid=2e0fa622-dc89-44fe-984b-a2bb7220f9be","ios":"levelo://app?vid=2e0fa622-dc89-44fe-984b-a2bb7220f9be"},"vehicle_type_id":"4","last_reported":1687604767,"current_range_meters":31200,"station_id":"ce4bhqp2rcd13ifvqhog","pricing_plan_id":"free"},{"bike_id":"f79ca90d-b1c3-4b30-b0af-8fd129c36ef0","system_id":"levelo_inurba_marseille","lat":43.32367,"lon":5.388836,"is_reserved":false,"is_disabled":false,"rental_uris":{"android":"levelo://app?vid=f79ca90d-b1c3-4b30-b0af-8fd129c36ef0","ios":"levelo://app?vid=f79ca90d-b1c3-4b30-b0af-8fd129c36ef0"},"vehicle_type_id":"4","last_reported":1687604767,"current_range_meters":21200,"station_id":"ce4bhqp2rcd13ifvqhog","pricing_plan_id":"free"},{"bike_id":"8ec66dbb-94b5-4d24-9a9a-f3f6dcb40751","system_id":"levelo_inurba_marseille","lat":43.292749,"lon":5.368398,"is_reserved":false,"is_disabled":false,"rental_uris":{"android":"levelo://app?vid=8ec66dbb-94b5-4d24-9a9a-f3f6dcb40751","ios":"levelo://app?vid=8ec66dbb-94b5-4d24-9a9a-f3f6dcb40751"},"vehicle_type_id":"4","last_reported":1687604767,"current_range_meters":6400,"station_id":"ce4bhbp2rcd13ifvqesg","pricing_plan_id":"free"},{"bike_id":"6816437a-ac59-40e3-9e0a-169b7f7806c6","system_id":"levelo_inurba_marseille","lat":43.298764,"lon":5.388973,"is_reserved":false,"is_disabled":false,"rental_uris":{"android":"levelo://app?vid=6816437a-ac59-40e3-9e0a-169b7f7806c6","ios":"levelo://app?vid=6816437a-ac59-40e3-9e0a-169b7f7806c6"},"vehicle_type_id":"4","last_reported":1687604767,"current_range_meters":0,"station_id":"ce4bh392rcd13ifvqdl0","pricing_plan_id":"free"},{"bike_id":"09ef2930-8131-4c2d-9018-d9c29e346250","system_id":"levelo_inurba_marseille","lat":43.309038,"lon":5.396546,"is_reserved":false,"is_disabled":false,"rental_uris":{"android":"levelo://app?vid=09ef2930-8131-4c2d-9018-d9c29e346250","ios":"levelo://app?vid=09ef2930-8131-4c2d-9018-d9c29e346250"},"vehicle_type_id":"4","last_reported":1687604767,"current_range_meters":28800,"station_id":"ce4bh012rcd13ifvqcv0","pricing_plan_id":"free"},{"bike_id":"d814859a-7d5b-470a-a63a-7fd8f52a8e5e","system_id":"levelo_inurba_marseille","lat":43.290779,"lon":5.371482,"is_reserved":false,"is_disabled":false,"rental_uris":{"android":"levelo://app?vid=d814859a-7d5b-470a-a63a-7fd8f52a8e5e","ios":"levelo://app?vid=d814859a-7d5b-470a-a63a-7fd8f52a8e5e"},"vehicle_type_id":"4","last_reported":1687604767,"current_range_meters":23600,"station_id":"ce4bh5p2rcd13ifvqe4g","pricing_plan_id":"free"},{"bike_id":"20b2702a-2cf1-439f-b7da-41f192fa1a0a","system_id":"levelo_inurba_marseille","lat":43.29411,"lon":5.38614,"is_reserved":false,"is_disabled":false,"rental_uris":{"android":"levelo://app?vid=20b2702a-2cf1-439f-b7da-41f192fa1a0a","ios":"levelo://app?vid=20b2702a-2cf1-439f-b7da-41f192fa1a0a"},"vehicle_type_id":"4","last_reported":1687604767,"current_range_meters":19600,"station_id":"","pricing_plan_id":"free"},{"bike_id":"e83dff89-5dc3-4e73-9798-c31906060513","system_id":"levelo_inurba_marseille","lat":43.290327,"lon":5.375711,"is_reserved":false,"is_disabled":false,"rental_uris":{"android":"levelo://app?vid=e83dff89-5dc3-4e73-9798-c31906060513","ios":"levelo://app?vid=e83dff89-5dc3-4e73-9798-c31906060513"},"vehicle_type_id":"4","last_reported":1687604767,"current_range_meters":8000,"station_id":"ce4bh692rcd13ifvqe90","pricing_plan_id":"free"},{"bike_id":"61418a31-873b-435d-bdef-73bcbd900771","system_id":"levelo_inurba_marseille","lat":43.290327,"lon":5.375711,"is_reserved":false,"is_disabled":false,"rental_uris":{"android":"levelo://app?vid=61418a31-873b-435d-bdef-73bcbd900771","ios":"levelo://app?vid=61418a31-873b-435d-bdef-73bcbd900771"},"vehicle_type_id":"4","last_reported":1687604767,"current_range_meters":4400,"station_id":"ce4bh692rcd13ifvqe90","pricing_plan_id":"free"},{"bike_id":"ec95d8ea-a998-4336-811f-0a302c06a0c0","system_id":"levelo_inurba_marseille","lat":43.289184,"lon":5.366408,"is_reserved":false,"is_disabled":false,"rental_uris":{"android":"levelo://app?vid=ec95d8ea-a998-4336-811f-0a302c06a0c0","ios":"levelo://app?vid=ec95d8ea-a998-4336-811f-0a302c06a0c0"},"vehicle_type_id":"4","last_reported":1687604767,"current_range_meters":20400,"station_id":"ce4bhap2rcd13ifvqek0","pricing_plan_id":"free"},{"bike_id":"538f10e3-2cc2-4ca3-8394-9400fa1240e5","system_id":"levelo_inurba_marseille","lat":43.294162,"lon":5.386292,"is_reserved":false,"is_disabled":false,"rental_uris":{"android":"levelo://app?vid=538f10e3-2cc2-4ca3-8394-9400fa1240e5","ios":"levelo://app?vid=538f10e3-2cc2-4ca3-8394-9400fa1240e5"},"vehicle_type_id":"4","last_reported":1687604767,"current_range_meters":17600,"station_id":"ce4bh2h2rcd13ifvqdh0","pricing_plan_id":"free"},{"bike_id":"bd4181dc-f890-41c0-b294-6e773ee7b346","system_id":"levelo_inurba_marseille","lat":43.289468,"lon":5.363719,"is_reserved":false,"is_disabled":false,"rental_uris":{"android":"levelo://app?vid=bd4181dc-f890-41c0-b294-6e773ee7b346","ios":"levelo://app?vid=bd4181dc-f890-41c0-b294-6e773ee7b346"},"vehicle_type_id":"4","last_reported":1687604767,"current_range_meters":22000,"station_id":"ce4bhc92rcd13ifvqetg","pricing_plan_id":"free"},{"bike_id":"a6b60d8a-3b4b-4ee3-935c-3d7b0c302c30","system_id":"levelo_inurba_marseille","lat":43.292644,"lon":5.384257,"is_reserved":false,"is_disabled":false,"rental_uris":{"android":"levelo://app?vid=a6b60d8a-3b4b-4ee3-935c-3d7b0c302c30","ios":"levelo://app?vid=a6b60d8a-3b4b-4ee3-935c-3d7b0c302c30"},"vehicle_type_id":"4","last_reported":1687604767,"current_range_meters":20000,"station_id":"ce4bh692rcd13ifvqea0","pricing_plan_id":"free"},{"bike_id":"e36874dc-7135-4ebc-b4cd-8f7cd3793fb7","system_id":"levelo_inurba_marseille","lat":43.30332,"lon":5.39697,"is_reserved":false,"is_disabled":false,"rental_uris":{"android":"levelo://app?vid=e36874dc-7135-4ebc-b4cd-8f7cd3793fb7","ios":"levelo://app?vid=e36874dc-7135-4ebc-b4cd-8f7cd3793fb7"},"vehicle_type_id":"4","last_reported":1687604767,"current_range_meters":22400,"station_id":"","pricing_plan_id":"free"},{"bike_id":"84bffd38-88ce-4160-b400-cbaa869d40c3","system_id":"levelo_inurba_marseille","lat":43.33038,"lon":5.38917,"is_reserved":false,"is_disabled":false,"rental_uris":{"android":"levelo://app?vid=84bffd38-88ce-4160-b400-cbaa869d40c3","ios":"levelo://app?vid=84bffd38-88ce-4160-b400-cbaa869d40c3"},"vehicle_type_id":"4","last_reported":1687604767,"current_range_meters":31200,"station_id":"ce4bhr92rcd13ifvqhrg","pricing_plan_id":"free"},{"bike_id":"1a01895d-f344-4f7a-a2e9-47e079e18485","system_id":"levelo_inurba_marseille","lat":43.33044,"lon":5.3891,"is_reserved":false,"is_disabled":false,"rental_uris":{"android":"levelo://app?vid=1a01895d-f344-4f7a-a2e9-47e079e18485","ios":"levelo://app?vid=1a01895d-f344-4f7a-a2e9-47e079e18485"},"vehicle_type_id":"4","last_reported":1687604767,"current_range_meters":25600,"station_id":"ce4bhr92rcd13ifvqhrg","pricing_plan_id":"free"},{"bike_id":"7c811762-c0ee-4656-87ba-109acbb8edd1","system_id":"levelo_inurba_marseille","lat":43.33039,"lon":5.38918,"is_reserved":false,"is_disabled":false,"rental_uris":{"android":"levelo://app?vid=7c811762-c0ee-4656-87ba-109acbb8edd1","ios":"levelo://app?vid=7c811762-c0ee-4656-87ba-109acbb8edd1"},"vehicle_type_id":"4","last_reported":1687604767,"current_range_meters":8000,"station_id":"ce4bhr92rcd13ifvqhrg","pricing_plan_id":"free"},{"bike_id":"2ed8539d-fa7b-489c-b466-c2748c9b76c5","system_id":"levelo_inurba_marseille","lat":43.33042,"lon":5.38914,"is_reserved":false,"is_disabled":false,"rental_uris":{"android":"levelo://app?vid=2ed8539d-fa7b-489c-b466-c2748c9b76c5","ios":"levelo://app?vid=2ed8539d-fa7b-489c-b466-c2748c9b76c5"},"vehicle_type_id":"4","last_reported":1687604767,"current_range_meters":24400,"station_id":"ce4bhr92rcd13ifvqhrg","pricing_plan_id":"free"},{"bike_id":"383564b9-2cae-4808-aee8-d3aefd710421","system_id":"levelo_inurba_marseille","lat":43.33043,"lon":5.38916,"is_reserved":false,"is_disabled":false,"rental_uris":{"android":"levelo://app?vid=383564b9-2cae-4808-aee8-d3aefd710421","ios":"levelo://app?vid=383564b9-2cae-4808-aee8-d3aefd710421"},"vehicle_type_id":"4","last_reported":1687604767,"current_range_meters":31200,"station_id":"ce4bhr92rcd13ifvqhrg","pricing_plan_id":"free"},{"bike_id":"dbf71a06-02c9-4cfe-a9d6-5738d4d32aad","system_id":"levelo_inurba_marseille","lat":43.33045,"lon":5.38913,"is_reserved":false,"is_disabled":false,"rental_uris":{"android":"levelo://app?vid=dbf71a06-02c9-4cfe-a9d6-5738d4d32aad","ios":"levelo://app?vid=dbf71a06-02c9-4cfe-a9d6-5738d4d32aad"},"vehicle_type_id":"4","last_reported":1687604767,"current_range_meters":31200,"station_id":"ce4bhr92rcd13ifvqhrg","pricing_plan_id":"free"},{"bike_id":"b49d73e2-9f19-4a2c-9b7e-4e20a517a2b2","system_id":"levelo_inurba_marseille","lat":43.3304,"lon":5.38921,"is_reserved":false,"is_disabled":false,"rental_uris":{"android":"levelo://app?vid=b49d73e2-9f19-4a2c-9b7e-4e20a517a2b2","ios":"levelo://app?vid=b49d73e2-9f19-4a2c-9b7e-4e20a517a2b2"},"vehicle_type_id":"4","last_reported":1687604767,"current_range_meters":31200,"station_id":"ce4bhr92rcd13ifvqhrg","pricing_plan_id":"free"},{"bike_id":"e4e06b95-1721-4584-9864-ef74cf24cd0f","system_id":"levelo_inurba_marseille","lat":43.33042,"lon":5.3892,"is_reserved":false,"is_disabled":false,"rental_uris":{"android":"levelo://app?vid=e4e06b95-1721-4584-9864-ef74cf24cd0f","ios":"levelo://app?vid=e4e06b95-1721-4584-9864-ef74cf24cd0f"},"vehicle_type_id":"4","last_reported":1687604767,"current_range_meters":15200,"station_id":"ce4bhr92rcd13ifvqhrg","pricing_plan_id":"free"},{"bike_id":"4725c83f-4f1d-4a55-a6c3-7e97ab9178c4","system_id":"levelo_inurba_marseille","lat":43.33044,"lon":5.38922,"is_reserved":false,"is_disabled":false,"rental_uris":{"android":"levelo://app?vid=4725c83f-4f1d-4a55-a6c3-7e97ab9178c4","ios":"levelo://app?vid=4725c83f-4f1d-4a55-a6c3-7e97ab9178c4"},"vehicle_type_id":"4","last_reported":1687604767,"current_range_meters":30000,"station_id":"ce4bhr92rcd13ifvqhrg","pricing_plan_id":"free"},{"bike_id":"4e6cb21c-6ab5-474c-a907-4643cbdc624f","system_id":"levelo_inurba_marseille","lat":43.29094,"lon":5.38134,"is_reserved":false,"is_disabled":false,"rental_uris":{"android":"levelo://app?vid=4e6cb21c-6ab5-474c-a907-4643cbdc624f","ios":"levelo://app?vid=4e6cb21c-6ab5-474c-a907-4643cbdc624f"},"vehicle_type_id":"4","last_reported":1687604767,"current_range_meters":20800,"station_id":"ce4bh512rcd13ifvqe2g","pricing_plan_id":"free"},{"bike_id":"47492f27-9e8b-421a-aabd-93a97861e465","system_id":"levelo_inurba_marseille","lat":43.2898,"lon":5.37834,"is_reserved":false,"is_disabled":false,"rental_uris":{"android":"levelo://app?vid=47492f27-9e8b-421a-aabd-93a97861e465","ios":"levelo://app?vid=47492f27-9e8b-421a-aabd-93a97861e465"},"vehicle_type_id":"4","last_reported":1687604767,"current_range_meters":22400,"station_id":"ce4bh9p2rcd13ifvqed0","pricing_plan_id":"free"},{"bike_id":"f796130b-a9eb-4be8-8b60-6e962009236f","system_id":"levelo_inurba_marseille","lat":43.295169,"lon":5.390426,"is_reserved":false,"is_disabled":false,"rental_uris":{"android":"levelo://app?vid=f796130b-a9eb-4be8-8b60-6e962009236f","ios":"levelo://app?vid=f796130b-a9eb-4be8-8b60-6e962009236f"},"vehicle_type_id":"4","last_reported":1687604767,"current_range_meters":16800,"station_id":"ce4bh3p2rcd13ifvqdp0","pricing_plan_id":"free"},{"bike_id":"ef20ae31-ac25-4348-b105-50b36da019c6","system_id":"levelo_inurba_marseille","lat":43.295169,"lon":5.390426,"is_reserved":false,"is_disabled":false,"rental_uris":{"android":"levelo://app?vid=ef20ae31-ac25-4348-b105-50b36da019c6","ios":"levelo://app?vid=ef20ae31-ac25-4348-b105-50b36da019c6"},"vehicle_type_id":"4","last_reported":1687604767,"current_range_meters":19600,"station_id":"ce4bh3p2rcd13ifvqdp0","pricing_plan_id":"free"},{"bike_id":"628cf0bf-412e-403e-b8a6-315fb59e0a54","system_id":"levelo_inurba_marseille","lat":43.295169,"lon":5.390426,"is_reserved":false,"is_disabled":false,"rental_uris":{"android":"levelo://app?vid=628cf0bf-412e-403e-b8a6-315fb59e0a54","ios":"levelo://app?vid=628cf0bf-412e-403e-b8a6-315fb59e0a54"},"vehicle_type_id":"4","last_reported":1687604767,"current_range_meters":8000,"station_id":"ce4bh3p2rcd13ifvqdp0","pricing_plan_id":"free"},{"bike_id":"06aba139-c72f-4a9e-8151-443d0558dd07","system_id":"levelo_inurba_marseille","lat":43.28856,"lon":5.358371,"is_reserved":false,"is_disabled":false,"rental_uris":{"android":"levelo://app?vid=06aba139-c72f-4a9e-8151-443d0558dd07","ios":"levelo://app?vid=06aba139-c72f-4a9e-8151-443d0558dd07"},"vehicle_type_id":"4","last_reported":1687604767,"current_range_meters":7600,"station_id":"ce4bhb12rcd13ifvqem0","pricing_plan_id":"free"},{"bike_id":"90eb4f6e-70bb-4a27-b73c-951b4ed27896","system_id":"levelo_inurba_marseille","lat":43.28856,"lon":5.358371,"is_reserved":false,"is_disabled":false,"rental_uris":{"android":"levelo://app?vid=90eb4f6e-70bb-4a27-b73c-951b4ed27896","ios":"levelo://app?vid=90eb4f6e-70bb-4a27-b73c-951b4ed27896"},"vehicle_type_id":"4","last_reported":1687604767,"current_range_meters":23200,"station_id":"ce4bhb12rcd13ifvqem0","pricing_plan_id":"free"},{"bike_id":"3f8a925a-6a54-4259-a38f-9cf091aab246","system_id":"levelo_inurba_marseille","lat":43.29247,"lon":5.38753,"is_reserved":false,"is_disabled":false,"rental_uris":{"android":"levelo://app?vid=3f8a925a-6a54-4259-a38f-9cf091aab246","ios":"levelo://app?vid=3f8a925a-6a54-4259-a38f-9cf091aab246"},"vehicle_type_id":"4","last_reported":1687604767,"current_range_meters":21200,"station_id":"","pricing_plan_id":"free"},{"bike_id":"adbca1f0-5878-41e5-8af5-4f6447a6da6f","system_id":"levelo_inurba_marseille","lat":43.33731,"lon":5.37471,"is_reserved":false,"is_disabled":false,"rental_uris":{"android":"levelo://app?vid=adbca1f0-5878-41e5-8af5-4f6447a6da6f","ios":"levelo://app?vid=adbca1f0-5878-41e5-8af5-4f6447a6da6f"},"vehicle_type_id":"4","last_reported":1687604767,"current_range_meters":28000,"station_id":"","pricing_plan_id":"free"},{"bike_id":"0c01d09c-9df1-4942-b459-b6862fbe25fe","system_id":"levelo_inurba_marseille","lat":43.33737,"lon":5.37482,"is_reserved":false,"is_disabled":false,"rental_uris":{"android":"levelo://app?vid=0c01d09c-9df1-4942-b459-b6862fbe25fe","ios":"levelo://app?vid=0c01d09c-9df1-4942-b459-b6862fbe25fe"},"vehicle_type_id":"4","last_reported":1687604767,"current_range_meters":30000,"station_id":"","pricing_plan_id":"free"},{"bike_id":"92b7551f-b471-4178-b7a9-3cebd033d139","system_id":"levelo_inurba_marseille","lat":43.30931,"lon":5.40142,"is_reserved":false,"is_disabled":false,"rental_uris":{"android":"levelo://app?vid=92b7551f-b471-4178-b7a9-3cebd033d139","ios":"levelo://app?vid=92b7551f-b471-4178-b7a9-3cebd033d139"},"vehicle_type_id":"4","last_reported":1687604767,"current_range_meters":19200,"station_id":"ce4bgvp2rcd13ifvqct0","pricing_plan_id":"free"},{"bike_id":"c180ae38-f769-441f-8a55-5a6e4930e6ad","system_id":"levelo_inurba_marseille","lat":43.3375,"lon":5.37439,"is_reserved":false,"is_disabled":false,"rental_uris":{"android":"levelo://app?vid=c180ae38-f769-441f-8a55-5a6e4930e6ad","ios":"levelo://app?vid=c180ae38-f769-441f-8a55-5a6e4930e6ad"},"vehicle_type_id":"4","last_reported":1687604767,"current_range_meters":24800,"station_id":"","pricing_plan_id":"free"},{"bike_id":"1aaafe29-3ece-4a3d-8483-e9ad63f79c78","system_id":"levelo_inurba_marseille","lat":43.33758,"lon":5.37426,"is_reserved":false,"is_disabled":false,"rental_uris":{"android":"levelo://app?vid=1aaafe29-3ece-4a3d-8483-e9ad63f79c78","ios":"levelo://app?vid=1aaafe29-3ece-4a3d-8483-e9ad63f79c78"},"vehicle_type_id":"4","last_reported":1687604767,"current_range_meters":24400,"station_id":"","pricing_plan_id":"free"},{"bike_id":"486c05ba-12f2-407d-8cef-c1af7464da1f","system_id":"levelo_inurba_marseille","lat":43.306412,"lon":5.401035,"is_reserved":false,"is_disabled":false,"rental_uris":{"android":"levelo://app?vid=486c05ba-12f2-407d-8cef-c1af7464da1f","ios":"levelo://app?vid=486c05ba-12f2-407d-8cef-c1af7464da1f"},"vehicle_type_id":"4","last_reported":1687604767,"current_range_meters":12800,"station_id":"ce4bh112rcd13ifvqda0","pricing_plan_id":"free"},{"bike_id":"ecaee61a-e395-40cb-8606-0fc25c8a66c7","system_id":"levelo_inurba_marseille","lat":43.306412,"lon":5.401035,"is_reserved":false,"is_disabled":false,"rental_uris":{"android":"levelo://app?vid=ecaee61a-e395-40cb-8606-0fc25c8a66c7","ios":"levelo://app?vid=ecaee61a-e395-40cb-8606-0fc25c8a66c7"},"vehicle_type_id":"4","last_reported":1687604767,"current_range_meters":11600,"station_id":"ce4bh112rcd13ifvqda0","pricing_plan_id":"free"},{"bike_id":"bee50b0e-7167-4a94-b2c5-c45cedae8a27","system_id":"levelo_inurba_marseille","lat":43.306412,"lon":5.401035,"is_reserved":false,"is_disabled":false,"rental_uris":{"android":"levelo://app?vid=bee50b0e-7167-4a94-b2c5-c45cedae8a27","ios":"levelo://app?vid=bee50b0e-7167-4a94-b2c5-c45cedae8a27"},"vehicle_type_id":"4","last_reported":1687604767,"current_range_meters":27600,"station_id":"ce4bh112rcd13ifvqda0","pricing_plan_id":"free"},{"bike_id":"ae42e992-b178-4415-aab4-604b35b4c17b","system_id":"levelo_inurba_marseille","lat":43.301117,"lon":5.398795,"is_reserved":false,"is_disabled":false,"rental_uris":{"android":"levelo://app?vid=ae42e992-b178-4415-aab4-604b35b4c17b","ios":"levelo://app?vid=ae42e992-b178-4415-aab4-604b35b4c17b"},"vehicle_type_id":"4","last_reported":1687604767,"current_range_meters":15600,"station_id":"ce4bh0h2rcd13ifvqd40","pricing_plan_id":"free"},{"bike_id":"ec543884-4dae-4242-a1b2-31442b2d693e","system_id":"levelo_inurba_marseille","lat":43.29869,"lon":5.39726,"is_reserved":false,"is_disabled":false,"rental_uris":{"android":"levelo://app?vid=ec543884-4dae-4242-a1b2-31442b2d693e","ios":"levelo://app?vid=ec543884-4dae-4242-a1b2-31442b2d693e"},"vehicle_type_id":"4","last_reported":1687604767,"current_range_meters":13600,"station_id":"ce4bh0h2rcd13ifvqd50","pricing_plan_id":"free"},{"bike_id":"e54f9c99-3b67-49c5-9b44-0857ed823e9c","system_id":"levelo_inurba_marseille","lat":43.286591,"lon":5.363346,"is_reserved":false,"is_disabled":false,"rental_uris":{"android":"levelo://app?vid=e54f9c99-3b67-49c5-9b44-0857ed823e9c","ios":"levelo://app?vid=e54f9c99-3b67-49c5-9b44-0857ed823e9c"},"vehicle_type_id":"4","last_reported":1687604767,"current_range_meters":5600,"station_id":"ce4bhah2rcd13ifvqej0","pricing_plan_id":"free"},{"bike_id":"539abf6a-f135-4377-93fa-698b30033131","system_id":"levelo_inurba_marseille","lat":43.28719,"lon":5.37556,"is_reserved":false,"is_disabled":false,"rental_uris":{"android":"levelo://app?vid=539abf6a-f135-4377-93fa-698b30033131","ios":"levelo://app?vid=539abf6a-f135-4377-93fa-698b30033131"},"vehicle_type_id":"4","last_reported":1687604767,"current_range_meters":5200,"station_id":"","pricing_plan_id":"free"},{"bike_id":"71d0ba4c-19ea-4d17-956f-ab697584ebef","system_id":"levelo_inurba_marseille","lat":43.286591,"lon":5.363346,"is_reserved":false,"is_disabled":false,"rental_uris":{"android":"levelo://app?vid=71d0ba4c-19ea-4d17-956f-ab697584ebef","ios":"levelo://app?vid=71d0ba4c-19ea-4d17-956f-ab697584ebef"},"vehicle_type_id":"4","last_reported":1687604767,"current_range_meters":30400,"station_id":"ce4bhah2rcd13ifvqej0","pricing_plan_id":"free"},{"bike_id":"f7dd01e7-1351-427b-afed-9b5f7be1f9b8","system_id":"levelo_inurba_marseille","lat":43.295196,"lon":5.39397,"is_reserved":false,"is_disabled":false,"rental_uris":{"android":"levelo://app?vid=f7dd01e7-1351-427b-afed-9b5f7be1f9b8","ios":"levelo://app?vid=f7dd01e7-1351-427b-afed-9b5f7be1f9b8"},"vehicle_type_id":"4","last_reported":1687604767,"current_range_meters":12400,"station_id":"ce4bh292rcd13ifvqdf0","pricing_plan_id":"free"},{"bike_id":"33a1918f-9de2-46bf-9da8-80f696664e9b","system_id":"levelo_inurba_marseille","lat":43.295196,"lon":5.39397,"is_reserved":false,"is_disabled":false,"rental_uris":{"android":"levelo://app?vid=33a1918f-9de2-46bf-9da8-80f696664e9b","ios":"levelo://app?vid=33a1918f-9de2-46bf-9da8-80f696664e9b"},"vehicle_type_id":"4","last_reported":1687604767,"current_range_meters":28800,"station_id":"ce4bh292rcd13ifvqdf0","pricing_plan_id":"free"},{"bike_id":"2eb62b50-2e99-4cf1-a3d3-c65adcd027f0","system_id":"levelo_inurba_marseille","lat":43.290336,"lon":5.386425,"is_reserved":false,"is_disabled":false,"rental_uris":{"android":"levelo://app?vid=2eb62b50-2e99-4cf1-a3d3-c65adcd027f0","ios":"levelo://app?vid=2eb62b50-2e99-4cf1-a3d3-c65adcd027f0"},"vehicle_type_id":"4","last_reported":1687604767,"current_range_meters":15600,"station_id":"ce4bh4p2rcd13ifvqe0g","pricing_plan_id":"free"},{"bike_id":"6e1e5969-6e44-426f-aad1-d17ef01fa380","system_id":"levelo_inurba_marseille","lat":43.3025,"lon":5.40074,"is_reserved":false,"is_disabled":false,"rental_uris":{"android":"levelo://app?vid=6e1e5969-6e44-426f-aad1-d17ef01fa380","ios":"levelo://app?vid=6e1e5969-6e44-426f-aad1-d17ef01fa380"},"vehicle_type_id":"4","last_reported":1687604767,"current_range_meters":18800,"station_id":"","pricing_plan_id":"free"},{"bike_id":"db0db525-181a-46ad-9feb-50437eb0aea0","system_id":"levelo_inurba_marseille","lat":43.286039,"lon":5.370679,"is_reserved":false,"is_disabled":false,"rental_uris":{"android":"levelo://app?vid=db0db525-181a-46ad-9feb-50437eb0aea0","ios":"levelo://app?vid=db0db525-181a-46ad-9feb-50437eb0aea0"},"vehicle_type_id":"4","last_reported":1687604767,"current_range_meters":26400,"station_id":"ce4bht12rcd13ifvqi60","pricing_plan_id":"free"},{"bike_id":"fe3344ba-6899-4ea4-b3ae-bdb6c09355e8","system_id":"levelo_inurba_marseille","lat":43.286039,"lon":5.370679,"is_reserved":false,"is_disabled":false,"rental_uris":{"android":"levelo://app?vid=fe3344ba-6899-4ea4-b3ae-bdb6c09355e8","ios":"levelo://app?vid=fe3344ba-6899-4ea4-b3ae-bdb6c09355e8"},"vehicle_type_id":"4","last_reported":1687604767,"current_range_meters":28400,"station_id":"ce4bht12rcd13ifvqi60","pricing_plan_id":"free"},{"bike_id":"fbd86a45-2e22-4dbd-b025-11883e5546e4","system_id":"levelo_inurba_marseille","lat":43.31643,"lon":5.40434,"is_reserved":false,"is_disabled":false,"rental_uris":{"android":"levelo://app?vid=fbd86a45-2e22-4dbd-b025-11883e5546e4","ios":"levelo://app?vid=fbd86a45-2e22-4dbd-b025-11883e5546e4"},"vehicle_type_id":"4","last_reported":1687604767,"current_range_meters":9200,"station_id":"ce4bh012rcd13ifvqd00","pricing_plan_id":"free"},{"bike_id":"d69fed3a-efe9-46fb-b1dc-1240b8978d3e","system_id":"levelo_inurba_marseille","lat":43.316517,"lon":5.404375,"is_reserved":false,"is_disabled":false,"rental_uris":{"android":"levelo://app?vid=d69fed3a-efe9-46fb-b1dc-1240b8978d3e","ios":"levelo://app?vid=d69fed3a-efe9-46fb-b1dc-1240b8978d3e"},"vehicle_type_id":"4","last_reported":1687604767,"current_range_meters":19600,"station_id":"ce4bh012rcd13ifvqd00","pricing_plan_id":"free"},{"bike_id":"b946f9df-c663-48fa-907b-d419086985fe","system_id":"levelo_inurba_marseille","lat":43.31652,"lon":5.40436,"is_reserved":false,"is_disabled":false,"rental_uris":{"android":"levelo://app?vid=b946f9df-c663-48fa-907b-d419086985fe","ios":"levelo://app?vid=b946f9df-c663-48fa-907b-d419086985fe"},"vehicle_type_id":"4","last_reported":1687604767,"current_range_meters":16000,"station_id":"ce4bh012rcd13ifvqd00","pricing_plan_id":"free"},{"bike_id":"a3867d70-7a49-4800-b46d-2f77318143fc","system_id":"levelo_inurba_marseille","lat":43.31649,"lon":5.40438,"is_reserved":false,"is_disabled":false,"rental_uris":{"android":"levelo://app?vid=a3867d70-7a49-4800-b46d-2f77318143fc","ios":"levelo://app?vid=a3867d70-7a49-4800-b46d-2f77318143fc"},"vehicle_type_id":"4","last_reported":1687604767,"current_range_meters":31200,"station_id":"ce4bh012rcd13ifvqd00","pricing_plan_id":"free"},{"bike_id":"5c2055f6-43af-42f5-9106-4fb329f7a3c9","system_id":"levelo_inurba_marseille","lat":43.31649,"lon":5.4045,"is_reserved":false,"is_disabled":false,"rental_uris":{"android":"levelo://app?vid=5c2055f6-43af-42f5-9106-4fb329f7a3c9","ios":"levelo://app?vid=5c2055f6-43af-42f5-9106-4fb329f7a3c9"},"vehicle_type_id":"4","last_reported":1687604767,"current_range_meters":30800,"station_id":"ce4bh012rcd13ifvqd00","pricing_plan_id":"free"},{"bike_id":"a3bf2466-9fba-44b0-827b-cd80804bb97a","system_id":"levelo_inurba_marseille","lat":43.28422,"lon":5.37508,"is_reserved":false,"is_disabled":false,"rental_uris":{"android":"levelo://app?vid=a3bf2466-9fba-44b0-827b-cd80804bb97a","ios":"levelo://app?vid=a3bf2466-9fba-44b0-827b-cd80804bb97a"},"vehicle_type_id":"4","last_reported":1687604767,"current_range_meters":14000,"station_id":"ce4bh412rcd13ifvqds0","pricing_plan_id":"free"},{"bike_id":"5f3f14f1-0b93-4b7f-8e2d-b55719842642","system_id":"levelo_inurba_marseille","lat":43.283998,"lon":5.375062,"is_reserved":false,"is_disabled":false,"rental_uris":{"android":"levelo://app?vid=5f3f14f1-0b93-4b7f-8e2d-b55719842642","ios":"levelo://app?vid=5f3f14f1-0b93-4b7f-8e2d-b55719842642"},"vehicle_type_id":"4","last_reported":1687604767,"current_range_meters":21200,"station_id":"ce4bh412rcd13ifvqds0","pricing_plan_id":"free"},{"bike_id":"9fd9e43c-e4e4-4da6-9289-2e07319bbe1b","system_id":"levelo_inurba_marseille","lat":43.273609,"lon":5.362708,"is_reserved":false,"is_disabled":false,"rental_uris":{"android":"levelo://app?vid=9fd9e43c-e4e4-4da6-9289-2e07319bbe1b","ios":"levelo://app?vid=9fd9e43c-e4e4-4da6-9289-2e07319bbe1b"},"vehicle_type_id":"4","last_reported":1687604767,"current_range_meters":6400,"station_id":"ce4bhbh2rcd13ifvqeo0","pricing_plan_id":"free"},{"bike_id":"11b6fae1-065a-4f16-a9fe-a05dbf69aff0","system_id":"levelo_inurba_marseille","lat":43.286591,"lon":5.386613,"is_reserved":false,"is_disabled":false,"rental_uris":{"android":"levelo://app?vid=11b6fae1-065a-4f16-a9fe-a05dbf69aff0","ios":"levelo://app?vid=11b6fae1-065a-4f16-a9fe-a05dbf69aff0"},"vehicle_type_id":"4","last_reported":1687604767,"current_range_meters":30000,"station_id":"","pricing_plan_id":"free"},{"bike_id":"00803c85-75e3-424e-a0cb-c6ed39a02c23","system_id":"levelo_inurba_marseille","lat":43.323464,"lon":5.406297,"is_reserved":false,"is_disabled":false,"rental_uris":{"android":"levelo://app?vid=00803c85-75e3-424e-a0cb-c6ed39a02c23","ios":"levelo://app?vid=00803c85-75e3-424e-a0cb-c6ed39a02c23"},"vehicle_type_id":"4","last_reported":1687604767,"current_range_meters":31200,"station_id":"ce4bhq92rcd13ifvqhjg","pricing_plan_id":"free"},{"bike_id":"a54c5183-d12c-4b5d-b1a7-e6c2a62eb9b5","system_id":"levelo_inurba_marseille","lat":43.32333,"lon":5.40623,"is_reserved":false,"is_disabled":false,"rental_uris":{"android":"levelo://app?vid=a54c5183-d12c-4b5d-b1a7-e6c2a62eb9b5","ios":"levelo://app?vid=a54c5183-d12c-4b5d-b1a7-e6c2a62eb9b5"},"vehicle_type_id":"4","last_reported":1687604767,"current_range_meters":19200,"station_id":"ce4bhq92rcd13ifvqhjg","pricing_plan_id":"free"},{"bike_id":"9cae825f-ce49-4976-9212-5608954cbbcd","system_id":"levelo_inurba_marseille","lat":43.323464,"lon":5.406297,"is_reserved":false,"is_disabled":false,"rental_uris":{"android":"levelo://app?vid=9cae825f-ce49-4976-9212-5608954cbbcd","ios":"levelo://app?vid=9cae825f-ce49-4976-9212-5608954cbbcd"},"vehicle_type_id":"4","last_reported":1687604767,"current_range_meters":31200,"station_id":"ce4bhq92rcd13ifvqhjg","pricing_plan_id":"free"},{"bike_id":"df4e7540-2833-4736-9085-78c178d2e700","system_id":"levelo_inurba_marseille","lat":43.323464,"lon":5.406297,"is_reserved":false,"is_disabled":false,"rental_uris":{"android":"levelo://app?vid=df4e7540-2833-4736-9085-78c178d2e700","ios":"levelo://app?vid=df4e7540-2833-4736-9085-78c178d2e700"},"vehicle_type_id":"4","last_reported":1687604767,"current_range_meters":31200,"station_id":"ce4bhq92rcd13ifvqhjg","pricing_plan_id":"free"},{"bike_id":"8d1f88b2-a260-40c1-9cbd-c5c8b2bfd015","system_id":"levelo_inurba_marseille","lat":43.32338,"lon":5.40625,"is_reserved":false,"is_disabled":false,"rental_uris":{"android":"levelo://app?vid=8d1f88b2-a260-40c1-9cbd-c5c8b2bfd015","ios":"levelo://app?vid=8d1f88b2-a260-40c1-9cbd-c5c8b2bfd015"},"vehicle_type_id":"4","last_reported":1687604767,"current_range_meters":11200,"station_id":"ce4bhq92rcd13ifvqhjg","pricing_plan_id":"free"},{"bike_id":"165784fd-8cb0-48fe-8681-d7abe54a6cf4","system_id":"levelo_inurba_marseille","lat":43.32341,"lon":5.40626,"is_reserved":false,"is_disabled":false,"rental_uris":{"android":"levelo://app?vid=165784fd-8cb0-48fe-8681-d7abe54a6cf4","ios":"levelo://app?vid=165784fd-8cb0-48fe-8681-d7abe54a6cf4"},"vehicle_type_id":"4","last_reported":1687604767,"current_range_meters":30800,"station_id":"ce4bhq92rcd13ifvqhjg","pricing_plan_id":"free"},{"bike_id":"6606e82c-c0ce-4a7f-bf46-357d4faa235e","system_id":"levelo_inurba_marseille","lat":43.32341,"lon":5.4063,"is_reserved":false,"is_disabled":false,"rental_uris":{"android":"levelo://app?vid=6606e82c-c0ce-4a7f-bf46-357d4faa235e","ios":"levelo://app?vid=6606e82c-c0ce-4a7f-bf46-357d4faa235e"},"vehicle_type_id":"4","last_reported":1687604767,"current_range_meters":800,"station_id":"ce4bhq92rcd13ifvqhjg","pricing_plan_id":"free"},{"bike_id":"e9bb34fa-f29b-4419-a7d6-dd07a0c9a7bf","system_id":"levelo_inurba_marseille","lat":43.30714,"lon":5.40838,"is_reserved":false,"is_disabled":false,"rental_uris":{"android":"levelo://app?vid=e9bb34fa-f29b-4419-a7d6-dd07a0c9a7bf","ios":"levelo://app?vid=e9bb34fa-f29b-4419-a7d6-dd07a0c9a7bf"},"vehicle_type_id":"4","last_reported":1687604767,"current_range_meters":0,"station_id":"","pricing_plan_id":"free"},{"bike_id":"b4c950db-352f-4a1a-8e3c-c05101a6dad0","system_id":"levelo_inurba_marseille","lat":43.288497,"lon":5.393089,"is_reserved":false,"is_disabled":false,"rental_uris":{"android":"levelo://app?vid=b4c950db-352f-4a1a-8e3c-c05101a6dad0","ios":"levelo://app?vid=b4c950db-352f-4a1a-8e3c-c05101a6dad0"},"vehicle_type_id":"4","last_reported":1687604767,"current_range_meters":31200,"station_id":"ce4bh2p2rcd13ifvqdi0","pricing_plan_id":"free"},{"bike_id":"3d8744b5-74d3-4465-a40a-faac9e2e7f8f","system_id":"levelo_inurba_marseille","lat":43.28427,"lon":5.34987,"is_reserved":false,"is_disabled":false,"rental_uris":{"android":"levelo://app?vid=3d8744b5-74d3-4465-a40a-faac9e2e7f8f","ios":"levelo://app?vid=3d8744b5-74d3-4465-a40a-faac9e2e7f8f"},"vehicle_type_id":"4","last_reported":1687604767,"current_range_meters":4000,"station_id":"ce4bhbh2rcd13ifvqepg","pricing_plan_id":"free"},{"bike_id":"94e42fa8-8c26-47ed-ba01-a260767f5995","system_id":"levelo_inurba_marseille","lat":43.284217,"lon":5.349697,"is_reserved":false,"is_disabled":false,"rental_uris":{"android":"levelo://app?vid=94e42fa8-8c26-47ed-ba01-a260767f5995","ios":"levelo://app?vid=94e42fa8-8c26-47ed-ba01-a260767f5995"},"vehicle_type_id":"4","last_reported":1687604767,"current_range_meters":30000,"station_id":"ce4bhbh2rcd13ifvqepg","pricing_plan_id":"free"},{"bike_id":"bbfee6d7-ec59-438c-b335-6601dc8b5f80","system_id":"levelo_inurba_marseille","lat":43.28421,"lon":5.34996,"is_reserved":false,"is_disabled":false,"rental_uris":{"android":"levelo://app?vid=bbfee6d7-ec59-438c-b335-6601dc8b5f80","ios":"levelo://app?vid=bbfee6d7-ec59-438c-b335-6601dc8b5f80"},"vehicle_type_id":"4","last_reported":1687604767,"current_range_meters":22800,"station_id":"ce4bhbh2rcd13ifvqepg","pricing_plan_id":"free"},{"bike_id":"e4e9cb2d-e1ed-48ef-9478-8b91cad9d674","system_id":"levelo_inurba_marseille","lat":43.28421,"lon":5.34995,"is_reserved":false,"is_disabled":false,"rental_uris":{"android":"levelo://app?vid=e4e9cb2d-e1ed-48ef-9478-8b91cad9d674","ios":"levelo://app?vid=e4e9cb2d-e1ed-48ef-9478-8b91cad9d674"},"vehicle_type_id":"4","last_reported":1687604767,"current_range_meters":24800,"station_id":"ce4bhbh2rcd13ifvqepg","pricing_plan_id":"free"},{"bike_id":"18b07cb4-7e42-4e0d-ab43-3d6ac52f3b2b","system_id":"levelo_inurba_marseille","lat":43.284219,"lon":5.3497,"is_reserved":false,"is_disabled":false,"rental_uris":{"android":"levelo://app?vid=18b07cb4-7e42-4e0d-ab43-3d6ac52f3b2b","ios":"levelo://app?vid=18b07cb4-7e42-4e0d-ab43-3d6ac52f3b2b"},"vehicle_type_id":"4","last_reported":1687604767,"current_range_meters":26800,"station_id":"ce4bhbh2rcd13ifvqepg","pricing_plan_id":"free"},{"bike_id":"0055eff6-c9b4-4290-bec2-537a07918075","system_id":"levelo_inurba_marseille","lat":43.284219,"lon":5.3497,"is_reserved":false,"is_disabled":false,"rental_uris":{"android":"levelo://app?vid=0055eff6-c9b4-4290-bec2-537a07918075","ios":"levelo://app?vid=0055eff6-c9b4-4290-bec2-537a07918075"},"vehicle_type_id":"4","last_reported":1687604767,"current_range_meters":31200,"station_id":"ce4bhbh2rcd13ifvqepg","pricing_plan_id":"free"},{"bike_id":"77c5016f-b961-42a1-899b-0da2b4bc813e","system_id":"levelo_inurba_marseille","lat":43.28423,"lon":5.34977,"is_reserved":false,"is_disabled":false,"rental_uris":{"android":"levelo://app?vid=77c5016f-b961-42a1-899b-0da2b4bc813e","ios":"levelo://app?vid=77c5016f-b961-42a1-899b-0da2b4bc813e"},"vehicle_type_id":"4","last_reported":1687604767,"current_range_meters":16400,"station_id":"ce4bhbh2rcd13ifvqepg","pricing_plan_id":"free"},{"bike_id":"02c4906c-8403-4025-af52-6609de01361f","system_id":"levelo_inurba_marseille","lat":43.28418,"lon":5.34986,"is_reserved":false,"is_disabled":false,"rental_uris":{"android":"levelo://app?vid=02c4906c-8403-4025-af52-6609de01361f","ios":"levelo://app?vid=02c4906c-8403-4025-af52-6609de01361f"},"vehicle_type_id":"4","last_reported":1687604767,"current_range_meters":22400,"station_id":"ce4bhbh2rcd13ifvqepg","pricing_plan_id":"free"},{"bike_id":"fe1f39ee-1f5f-4fee-bf72-ec5ff6851e86","system_id":"levelo_inurba_marseille","lat":43.32055,"lon":5.40908,"is_reserved":false,"is_disabled":false,"rental_uris":{"android":"levelo://app?vid=fe1f39ee-1f5f-4fee-bf72-ec5ff6851e86","ios":"levelo://app?vid=fe1f39ee-1f5f-4fee-bf72-ec5ff6851e86"},"vehicle_type_id":"4","last_reported":1687604767,"current_range_meters":2000,"station_id":"","pricing_plan_id":"free"},{"bike_id":"82f0c12c-a976-4c4f-addd-333e5baac730","system_id":"levelo_inurba_marseille","lat":43.2927,"lon":5.40114,"is_reserved":false,"is_disabled":false,"rental_uris":{"android":"levelo://app?vid=82f0c12c-a976-4c4f-addd-333e5baac730","ios":"levelo://app?vid=82f0c12c-a976-4c4f-addd-333e5baac730"},"vehicle_type_id":"4","last_reported":1687604767,"current_range_meters":0,"station_id":"ce4bh312rcd13ifvqdk0","pricing_plan_id":"free"},{"bike_id":"e4ae7ca9-ed36-4923-8b08-3d4e78fa09d2","system_id":"levelo_inurba_marseille","lat":43.292724,"lon":5.401131,"is_reserved":false,"is_disabled":false,"rental_uris":{"android":"levelo://app?vid=e4ae7ca9-ed36-4923-8b08-3d4e78fa09d2","ios":"levelo://app?vid=e4ae7ca9-ed36-4923-8b08-3d4e78fa09d2"},"vehicle_type_id":"4","last_reported":1687604767,"current_range_meters":24000,"station_id":"ce4bh312rcd13ifvqdk0","pricing_plan_id":"free"},{"bike_id":"008fb9e8-0477-4363-b3aa-1fe3b8899f71","system_id":"levelo_inurba_marseille","lat":43.282754,"lon":5.350519,"is_reserved":false,"is_disabled":false,"rental_uris":{"android":"levelo://app?vid=008fb9e8-0477-4363-b3aa-1fe3b8899f71","ios":"levelo://app?vid=008fb9e8-0477-4363-b3aa-1fe3b8899f71"},"vehicle_type_id":"4","last_reported":1687604767,"current_range_meters":14000,"station_id":"ce4bhbp2rcd13ifvqerg","pricing_plan_id":"free"},{"bike_id":"1594e1a8-c75b-410c-b111-a8906601c128","system_id":"levelo_inurba_marseille","lat":43.282744,"lon":5.350533,"is_reserved":false,"is_disabled":false,"rental_uris":{"android":"levelo://app?vid=1594e1a8-c75b-410c-b111-a8906601c128","ios":"levelo://app?vid=1594e1a8-c75b-410c-b111-a8906601c128"},"vehicle_type_id":"4","last_reported":1687604767,"current_range_meters":16800,"station_id":"ce4bhbp2rcd13ifvqerg","pricing_plan_id":"free"},{"bike_id":"edb9fb3e-2372-44d2-9aed-e175e7a20102","system_id":"levelo_inurba_marseille","lat":43.28274,"lon":5.35062,"is_reserved":false,"is_disabled":false,"rental_uris":{"android":"levelo://app?vid=edb9fb3e-2372-44d2-9aed-e175e7a20102","ios":"levelo://app?vid=edb9fb3e-2372-44d2-9aed-e175e7a20102"},"vehicle_type_id":"4","last_reported":1687604767,"current_range_meters":14000,"station_id":"ce4bhbp2rcd13ifvqerg","pricing_plan_id":"free"},{"bike_id":"a4b41200-8525-4474-a19a-91690d5c1ca3","system_id":"levelo_inurba_marseille","lat":43.282744,"lon":5.350533,"is_reserved":false,"is_disabled":false,"rental_uris":{"android":"levelo://app?vid=a4b41200-8525-4474-a19a-91690d5c1ca3","ios":"levelo://app?vid=a4b41200-8525-4474-a19a-91690d5c1ca3"},"vehicle_type_id":"4","last_reported":1687604767,"current_range_meters":18400,"station_id":"ce4bhbp2rcd13ifvqerg","pricing_plan_id":"free"},{"bike_id":"b05b9bfb-d314-44ee-a28a-24a50d1c4c38","system_id":"levelo_inurba_marseille","lat":43.282744,"lon":5.350533,"is_reserved":false,"is_disabled":false,"rental_uris":{"android":"levelo://app?vid=b05b9bfb-d314-44ee-a28a-24a50d1c4c38","ios":"levelo://app?vid=b05b9bfb-d314-44ee-a28a-24a50d1c4c38"},"vehicle_type_id":"4","last_reported":1687604767,"current_range_meters":27200,"station_id":"ce4bhbp2rcd13ifvqerg","pricing_plan_id":"free"},{"bike_id":"6d0f432b-06e1-48d0-8e80-a9e22ccdeee1","system_id":"levelo_inurba_marseille","lat":43.28274,"lon":5.35051,"is_reserved":false,"is_disabled":false,"rental_uris":{"android":"levelo://app?vid=6d0f432b-06e1-48d0-8e80-a9e22ccdeee1","ios":"levelo://app?vid=6d0f432b-06e1-48d0-8e80-a9e22ccdeee1"},"vehicle_type_id":"4","last_reported":1687604767,"current_range_meters":5600,"station_id":"ce4bhbp2rcd13ifvqerg","pricing_plan_id":"free"},{"bike_id":"ff60adae-f71a-4e2f-9c03-c28e9ecc3c45","system_id":"levelo_inurba_marseille","lat":43.32716,"lon":5.40788,"is_reserved":false,"is_disabled":false,"rental_uris":{"android":"levelo://app?vid=ff60adae-f71a-4e2f-9c03-c28e9ecc3c45","ios":"levelo://app?vid=ff60adae-f71a-4e2f-9c03-c28e9ecc3c45"},"vehicle_type_id":"4","last_reported":1687604767,"current_range_meters":5200,"station_id":"","pricing_plan_id":"free"},{"bike_id":"514e4d9d-f74c-4bd1-8d07-610055ad8743","system_id":"levelo_inurba_marseille","lat":43.32659,"lon":5.40983,"is_reserved":false,"is_disabled":false,"rental_uris":{"android":"levelo://app?vid=514e4d9d-f74c-4bd1-8d07-610055ad8743","ios":"levelo://app?vid=514e4d9d-f74c-4bd1-8d07-610055ad8743"},"vehicle_type_id":"4","last_reported":1687604767,"current_range_meters":10800,"station_id":"ce4bhpp2rcd13ifvqhgg","pricing_plan_id":"free"},{"bike_id":"5de98341-c4f0-4072-bcea-73b5bf2f2859","system_id":"levelo_inurba_marseille","lat":43.326605,"lon":5.409903,"is_reserved":false,"is_disabled":false,"rental_uris":{"android":"levelo://app?vid=5de98341-c4f0-4072-bcea-73b5bf2f2859","ios":"levelo://app?vid=5de98341-c4f0-4072-bcea-73b5bf2f2859"},"vehicle_type_id":"4","last_reported":1687604767,"current_range_meters":29600,"station_id":"ce4bhpp2rcd13ifvqhgg","pricing_plan_id":"free"},{"bike_id":"61e5781c-69a0-4299-ba2e-ce4fc92d331a","system_id":"levelo_inurba_marseille","lat":43.326605,"lon":5.409903,"is_reserved":false,"is_disabled":false,"rental_uris":{"android":"levelo://app?vid=61e5781c-69a0-4299-ba2e-ce4fc92d331a","ios":"levelo://app?vid=61e5781c-69a0-4299-ba2e-ce4fc92d331a"},"vehicle_type_id":"4","last_reported":1687604767,"current_range_meters":27200,"station_id":"ce4bhpp2rcd13ifvqhgg","pricing_plan_id":"free"},{"bike_id":"944cc645-9c61-42d4-8b7e-807c114cae2f","system_id":"levelo_inurba_marseille","lat":43.3266,"lon":5.4099,"is_reserved":false,"is_disabled":false,"rental_uris":{"android":"levelo://app?vid=944cc645-9c61-42d4-8b7e-807c114cae2f","ios":"levelo://app?vid=944cc645-9c61-42d4-8b7e-807c114cae2f"},"vehicle_type_id":"4","last_reported":1687604767,"current_range_meters":30800,"station_id":"ce4bhpp2rcd13ifvqhgg","pricing_plan_id":"free"},{"bike_id":"9b7e311b-427f-4c6b-9bfe-6d233d8bb257","system_id":"levelo_inurba_marseille","lat":43.326605,"lon":5.409903,"is_reserved":false,"is_disabled":false,"rental_uris":{"android":"levelo://app?vid=9b7e311b-427f-4c6b-9bfe-6d233d8bb257","ios":"levelo://app?vid=9b7e311b-427f-4c6b-9bfe-6d233d8bb257"},"vehicle_type_id":"4","last_reported":1687604767,"current_range_meters":27600,"station_id":"ce4bhpp2rcd13ifvqhgg","pricing_plan_id":"free"},{"bike_id":"0ef3f9f5-e055-4024-8130-6fbd6c3ce25a","system_id":"levelo_inurba_marseille","lat":43.326605,"lon":5.409903,"is_reserved":false,"is_disabled":false,"rental_uris":{"android":"levelo://app?vid=0ef3f9f5-e055-4024-8130-6fbd6c3ce25a","ios":"levelo://app?vid=0ef3f9f5-e055-4024-8130-6fbd6c3ce25a"},"vehicle_type_id":"4","last_reported":1687604767,"current_range_meters":30800,"station_id":"ce4bhpp2rcd13ifvqhgg","pricing_plan_id":"free"},{"bike_id":"bd024b9e-10e2-485e-8834-4d0dbb51c5ca","system_id":"levelo_inurba_marseille","lat":43.326605,"lon":5.409903,"is_reserved":false,"is_disabled":false,"rental_uris":{"android":"levelo://app?vid=bd024b9e-10e2-485e-8834-4d0dbb51c5ca","ios":"levelo://app?vid=bd024b9e-10e2-485e-8834-4d0dbb51c5ca"},"vehicle_type_id":"4","last_reported":1687604767,"current_range_meters":28400,"station_id":"ce4bhpp2rcd13ifvqhgg","pricing_plan_id":"free"},{"bike_id":"fc2a51fe-3bf8-46f3-9fe8-f24612d4a02a","system_id":"levelo_inurba_marseille","lat":43.326565,"lon":5.409975,"is_reserved":false,"is_disabled":false,"rental_uris":{"android":"levelo://app?vid=fc2a51fe-3bf8-46f3-9fe8-f24612d4a02a","ios":"levelo://app?vid=fc2a51fe-3bf8-46f3-9fe8-f24612d4a02a"},"vehicle_type_id":"4","last_reported":1687604767,"current_range_meters":4000,"station_id":"ce4bhpp2rcd13ifvqhgg","pricing_plan_id":"free"},{"bike_id":"fbf04ef2-ee81-4537-8210-e0fc37c88dfd","system_id":"levelo_inurba_marseille","lat":43.304188,"lon":5.412904,"is_reserved":false,"is_disabled":false,"rental_uris":{"android":"levelo://app?vid=fbf04ef2-ee81-4537-8210-e0fc37c88dfd","ios":"levelo://app?vid=fbf04ef2-ee81-4537-8210-e0fc37c88dfd"},"vehicle_type_id":"4","last_reported":1687604767,"current_range_meters":31200,"station_id":"ce4bhop2rcd13ifvqh8g","pricing_plan_id":"free"},{"bike_id":"1608effb-4f12-47f4-8d55-2fc7a47d19f0","system_id":"levelo_inurba_marseille","lat":43.304188,"lon":5.412904,"is_reserved":false,"is_disabled":false,"rental_uris":{"android":"levelo://app?vid=1608effb-4f12-47f4-8d55-2fc7a47d19f0","ios":"levelo://app?vid=1608effb-4f12-47f4-8d55-2fc7a47d19f0"},"vehicle_type_id":"4","last_reported":1687604767,"current_range_meters":31200,"station_id":"ce4bhop2rcd13ifvqh8g","pricing_plan_id":"free"},{"bike_id":"15d6790e-c95b-494c-8abc-7c1762777321","system_id":"levelo_inurba_marseille","lat":43.27955,"lon":5.35369,"is_reserved":false,"is_disabled":false,"rental_uris":{"android":"levelo://app?vid=15d6790e-c95b-494c-8abc-7c1762777321","ios":"levelo://app?vid=15d6790e-c95b-494c-8abc-7c1762777321"},"vehicle_type_id":"4","last_reported":1687604767,"current_range_meters":400,"station_id":"","pricing_plan_id":"free"},{"bike_id":"92d20a4c-87c2-42f8-b369-e2a3f1eb9aa5","system_id":"levelo_inurba_marseille","lat":43.2807,"lon":5.34777,"is_reserved":false,"is_disabled":false,"rental_uris":{"android":"levelo://app?vid=92d20a4c-87c2-42f8-b369-e2a3f1eb9aa5","ios":"levelo://app?vid=92d20a4c-87c2-42f8-b369-e2a3f1eb9aa5"},"vehicle_type_id":"4","last_reported":1687604767,"current_range_meters":5200,"station_id":"","pricing_plan_id":"free"},{"bike_id":"f47d889e-f3a7-4cf7-b89b-498d12032e77","system_id":"levelo_inurba_marseille","lat":43.29291,"lon":5.40653,"is_reserved":false,"is_disabled":false,"rental_uris":{"android":"levelo://app?vid=f47d889e-f3a7-4cf7-b89b-498d12032e77","ios":"levelo://app?vid=f47d889e-f3a7-4cf7-b89b-498d12032e77"},"vehicle_type_id":"4","last_reported":1687604767,"current_range_meters":4800,"station_id":"","pricing_plan_id":"free"},{"bike_id":"354ec7b5-7588-4cf8-8dcc-489c2f3776a4","system_id":"levelo_inurba_marseille","lat":43.279087,"lon":5.380114,"is_reserved":false,"is_disabled":false,"rental_uris":{"android":"levelo://app?vid=354ec7b5-7588-4cf8-8dcc-489c2f3776a4","ios":"levelo://app?vid=354ec7b5-7588-4cf8-8dcc-489c2f3776a4"},"vehicle_type_id":"4","last_reported":1687604767,"current_range_meters":22400,"station_id":"ce4bhf92rcd13ifvqf50","pricing_plan_id":"free"},{"bike_id":"50fd953c-9754-45f4-aec7-ae52bb9eb6fe","system_id":"levelo_inurba_marseille","lat":43.287154,"lon":5.399979,"is_reserved":false,"is_disabled":false,"rental_uris":{"android":"levelo://app?vid=50fd953c-9754-45f4-aec7-ae52bb9eb6fe","ios":"levelo://app?vid=50fd953c-9754-45f4-aec7-ae52bb9eb6fe"},"vehicle_type_id":"4","last_reported":1687604767,"current_range_meters":31200,"station_id":"ce4bho92rcd13ifvqh3g","pricing_plan_id":"free"},{"bike_id":"27e72165-7243-456a-a337-a0adaad0e220","system_id":"levelo_inurba_marseille","lat":43.320045,"lon":5.415046,"is_reserved":false,"is_disabled":false,"rental_uris":{"android":"levelo://app?vid=27e72165-7243-456a-a337-a0adaad0e220","ios":"levelo://app?vid=27e72165-7243-456a-a337-a0adaad0e220"},"vehicle_type_id":"4","last_reported":1687604767,"current_range_meters":27200,"station_id":"ce4bhq92rcd13ifvqhkg","pricing_plan_id":"free"},{"bike_id":"14c9cff9-ef50-4c6d-8fa4-9a1095daa1fd","system_id":"levelo_inurba_marseille","lat":43.299579,"lon":5.413255,"is_reserved":false,"is_disabled":false,"rental_uris":{"android":"levelo://app?vid=14c9cff9-ef50-4c6d-8fa4-9a1095daa1fd","ios":"levelo://app?vid=14c9cff9-ef50-4c6d-8fa4-9a1095daa1fd"},"vehicle_type_id":"4","last_reported":1687604767,"current_range_meters":31200,"station_id":"ce4bhp12rcd13ifvqh9g","pricing_plan_id":"free"},{"bike_id":"cc3079b5-848e-4588-aff1-afe1ae5dd557","system_id":"levelo_inurba_marseille","lat":43.320045,"lon":5.415048,"is_reserved":false,"is_disabled":false,"rental_uris":{"android":"levelo://app?vid=cc3079b5-848e-4588-aff1-afe1ae5dd557","ios":"levelo://app?vid=cc3079b5-848e-4588-aff1-afe1ae5dd557"},"vehicle_type_id":"4","last_reported":1687604767,"current_range_meters":28000,"station_id":"ce4bhq92rcd13ifvqhkg","pricing_plan_id":"free"},{"bike_id":"a5db1ab2-8349-49de-b400-2b29dc124992","system_id":"levelo_inurba_marseille","lat":43.299579,"lon":5.413255,"is_reserved":false,"is_disabled":false,"rental_uris":{"android":"levelo://app?vid=a5db1ab2-8349-49de-b400-2b29dc124992","ios":"levelo://app?vid=a5db1ab2-8349-49de-b400-2b29dc124992"},"vehicle_type_id":"4","last_reported":1687604767,"current_range_meters":11600,"station_id":"ce4bhp12rcd13ifvqh9g","pricing_plan_id":"free"},{"bike_id":"727f51f2-49fe-4398-bd08-f2fbd61cc22e","system_id":"levelo_inurba_marseille","lat":43.29965,"lon":5.41325,"is_reserved":false,"is_disabled":false,"rental_uris":{"android":"levelo://app?vid=727f51f2-49fe-4398-bd08-f2fbd61cc22e","ios":"levelo://app?vid=727f51f2-49fe-4398-bd08-f2fbd61cc22e"},"vehicle_type_id":"4","last_reported":1687604767,"current_range_meters":22000,"station_id":"ce4bhp12rcd13ifvqh9g","pricing_plan_id":"free"},{"bike_id":"ed1c94f0-8a0b-4a63-a93e-6771127b17ab","system_id":"levelo_inurba_marseille","lat":43.299579,"lon":5.413255,"is_reserved":false,"is_disabled":false,"rental_uris":{"android":"levelo://app?vid=ed1c94f0-8a0b-4a63-a93e-6771127b17ab","ios":"levelo://app?vid=ed1c94f0-8a0b-4a63-a93e-6771127b17ab"},"vehicle_type_id":"4","last_reported":1687604767,"current_range_meters":16400,"station_id":"ce4bhp12rcd13ifvqh9g","pricing_plan_id":"free"},{"bike_id":"25fbec75-4b67-47e9-a9b8-cf1a69311c4e","system_id":"levelo_inurba_marseille","lat":43.320045,"lon":5.415046,"is_reserved":false,"is_disabled":false,"rental_uris":{"android":"levelo://app?vid=25fbec75-4b67-47e9-a9b8-cf1a69311c4e","ios":"levelo://app?vid=25fbec75-4b67-47e9-a9b8-cf1a69311c4e"},"vehicle_type_id":"4","last_reported":1687604767,"current_range_meters":31200,"station_id":"ce4bhq92rcd13ifvqhkg","pricing_plan_id":"free"},{"bike_id":"8a41a8b8-9a35-4187-a50c-2e5cb059ceb3","system_id":"levelo_inurba_marseille","lat":43.320045,"lon":5.415048,"is_reserved":false,"is_disabled":false,"rental_uris":{"android":"levelo://app?vid=8a41a8b8-9a35-4187-a50c-2e5cb059ceb3","ios":"levelo://app?vid=8a41a8b8-9a35-4187-a50c-2e5cb059ceb3"},"vehicle_type_id":"4","last_reported":1687604767,"current_range_meters":31200,"station_id":"ce4bhq92rcd13ifvqhkg","pricing_plan_id":"free"},{"bike_id":"ef6a6c89-a485-44e8-8aa8-a27a6c7d520b","system_id":"levelo_inurba_marseille","lat":43.292569,"lon":5.409107,"is_reserved":false,"is_disabled":false,"rental_uris":{"android":"levelo://app?vid=ef6a6c89-a485-44e8-8aa8-a27a6c7d520b","ios":"levelo://app?vid=ef6a6c89-a485-44e8-8aa8-a27a6c7d520b"},"vehicle_type_id":"4","last_reported":1687604767,"current_range_meters":10400,"station_id":"ce4bh192rcd13ifvqdc0","pricing_plan_id":"free"},{"bike_id":"da187756-cf43-4922-9bd1-24ed583edd28","system_id":"levelo_inurba_marseille","lat":43.29247,"lon":5.40899,"is_reserved":false,"is_disabled":false,"rental_uris":{"android":"levelo://app?vid=da187756-cf43-4922-9bd1-24ed583edd28","ios":"levelo://app?vid=da187756-cf43-4922-9bd1-24ed583edd28"},"vehicle_type_id":"4","last_reported":1687604767,"current_range_meters":17600,"station_id":"ce4bh192rcd13ifvqdc0","pricing_plan_id":"free"},{"bike_id":"26dc4b30-ec1f-4785-8925-f37aa3d24bf5","system_id":"levelo_inurba_marseille","lat":43.292569,"lon":5.409107,"is_reserved":false,"is_disabled":false,"rental_uris":{"android":"levelo://app?vid=26dc4b30-ec1f-4785-8925-f37aa3d24bf5","ios":"levelo://app?vid=26dc4b30-ec1f-4785-8925-f37aa3d24bf5"},"vehicle_type_id":"4","last_reported":1687604767,"current_range_meters":30400,"station_id":"ce4bh192rcd13ifvqdc0","pricing_plan_id":"free"},{"bike_id":"db9306c1-8421-4cc5-bcc5-bc532d34ca2e","system_id":"levelo_inurba_marseille","lat":43.32545,"lon":5.4144,"is_reserved":false,"is_disabled":false,"rental_uris":{"android":"levelo://app?vid=db9306c1-8421-4cc5-bcc5-bc532d34ca2e","ios":"levelo://app?vid=db9306c1-8421-4cc5-bcc5-bc532d34ca2e"},"vehicle_type_id":"4","last_reported":1687604767,"current_range_meters":27600,"station_id":"ce4bhq12rcd13ifvqhhg","pricing_plan_id":"free"},{"bike_id":"265e9839-5686-442c-9b91-94874b6a24b0","system_id":"levelo_inurba_marseille","lat":43.28079,"lon":5.39652,"is_reserved":false,"is_disabled":false,"rental_uris":{"android":"levelo://app?vid=265e9839-5686-442c-9b91-94874b6a24b0","ios":"levelo://app?vid=265e9839-5686-442c-9b91-94874b6a24b0"},"vehicle_type_id":"4","last_reported":1687604767,"current_range_meters":0,"station_id":"ce4bho12rcd13ifvqh2g","pricing_plan_id":"free"},{"bike_id":"78e650a7-157a-4d72-872d-3c5b118d4899","system_id":"levelo_inurba_marseille","lat":43.303837,"lon":5.418724,"is_reserved":false,"is_disabled":false,"rental_uris":{"android":"levelo://app?vid=78e650a7-157a-4d72-872d-3c5b118d4899","ios":"levelo://app?vid=78e650a7-157a-4d72-872d-3c5b118d4899"},"vehicle_type_id":"4","last_reported":1687604767,"current_range_meters":24800,"station_id":"ce4bhop2rcd13ifvqh7g","pricing_plan_id":"free"},{"bike_id":"9dcf2228-36a7-4c5b-b1d0-ae308dae8cfd","system_id":"levelo_inurba_marseille","lat":43.303837,"lon":5.418724,"is_reserved":false,"is_disabled":false,"rental_uris":{"android":"levelo://app?vid=9dcf2228-36a7-4c5b-b1d0-ae308dae8cfd","ios":"levelo://app?vid=9dcf2228-36a7-4c5b-b1d0-ae308dae8cfd"},"vehicle_type_id":"4","last_reported":1687604767,"current_range_meters":28000,"station_id":"ce4bhop2rcd13ifvqh7g","pricing_plan_id":"free"},{"bike_id":"d704e506-f359-4682-9cd8-eea6238573db","system_id":"levelo_inurba_marseille","lat":43.303837,"lon":5.418724,"is_reserved":false,"is_disabled":false,"rental_uris":{"android":"levelo://app?vid=d704e506-f359-4682-9cd8-eea6238573db","ios":"levelo://app?vid=d704e506-f359-4682-9cd8-eea6238573db"},"vehicle_type_id":"4","last_reported":1687604767,"current_range_meters":26400,"station_id":"ce4bhop2rcd13ifvqh7g","pricing_plan_id":"free"},{"bike_id":"53727e42-cda1-41d9-9e15-e90f36c6b0d5","system_id":"levelo_inurba_marseille","lat":43.303837,"lon":5.418724,"is_reserved":false,"is_disabled":false,"rental_uris":{"android":"levelo://app?vid=53727e42-cda1-41d9-9e15-e90f36c6b0d5","ios":"levelo://app?vid=53727e42-cda1-41d9-9e15-e90f36c6b0d5"},"vehicle_type_id":"4","last_reported":1687604767,"current_range_meters":13200,"station_id":"ce4bhop2rcd13ifvqh7g","pricing_plan_id":"free"},{"bike_id":"3146bc33-d01b-478f-9938-ccbeb7d9f84c","system_id":"levelo_inurba_marseille","lat":43.278399,"lon":5.392139,"is_reserved":false,"is_disabled":false,"rental_uris":{"android":"levelo://app?vid=3146bc33-d01b-478f-9938-ccbeb7d9f84c","ios":"levelo://app?vid=3146bc33-d01b-478f-9938-ccbeb7d9f84c"},"vehicle_type_id":"4","last_reported":1687604767,"current_range_meters":8800,"station_id":"ce4bhjp2rcd13ifvqga0","pricing_plan_id":"free"},{"bike_id":"b7498cd2-8e0e-44f9-89af-1b2293a58846","system_id":"levelo_inurba_marseille","lat":43.278399,"lon":5.392139,"is_reserved":false,"is_disabled":false,"rental_uris":{"android":"levelo://app?vid=b7498cd2-8e0e-44f9-89af-1b2293a58846","ios":"levelo://app?vid=b7498cd2-8e0e-44f9-89af-1b2293a58846"},"vehicle_type_id":"4","last_reported":1687604767,"current_range_meters":27600,"station_id":"ce4bhjp2rcd13ifvqga0","pricing_plan_id":"free"},{"bike_id":"1e080dad-9563-450f-9182-6068e837aad4","system_id":"levelo_inurba_marseille","lat":43.273613,"lon":5.362705,"is_reserved":false,"is_disabled":false,"rental_uris":{"android":"levelo://app?vid=1e080dad-9563-450f-9182-6068e837aad4","ios":"levelo://app?vid=1e080dad-9563-450f-9182-6068e837aad4"},"vehicle_type_id":"4","last_reported":1687604767,"current_range_meters":10800,"station_id":"ce4bhbh2rcd13ifvqeo0","pricing_plan_id":"free"},{"bike_id":"60b0140a-2a0d-4eea-9b6f-0b2b805d2bc1","system_id":"levelo_inurba_marseille","lat":43.273613,"lon":5.362705,"is_reserved":false,"is_disabled":false,"rental_uris":{"android":"levelo://app?vid=60b0140a-2a0d-4eea-9b6f-0b2b805d2bc1","ios":"levelo://app?vid=60b0140a-2a0d-4eea-9b6f-0b2b805d2bc1"},"vehicle_type_id":"4","last_reported":1687604767,"current_range_meters":26800,"station_id":"ce4bhbh2rcd13ifvqeo0","pricing_plan_id":"free"},{"bike_id":"083f3400-7964-4d86-87b5-740fbe29ed20","system_id":"levelo_inurba_marseille","lat":43.27378,"lon":5.36252,"is_reserved":false,"is_disabled":false,"rental_uris":{"android":"levelo://app?vid=083f3400-7964-4d86-87b5-740fbe29ed20","ios":"levelo://app?vid=083f3400-7964-4d86-87b5-740fbe29ed20"},"vehicle_type_id":"4","last_reported":1687604767,"current_range_meters":16000,"station_id":"ce4bhbh2rcd13ifvqeo0","pricing_plan_id":"free"},{"bike_id":"a6dbd9b4-5d0e-46f7-b914-b9b8e204749f","system_id":"levelo_inurba_marseille","lat":43.273613,"lon":5.362705,"is_reserved":false,"is_disabled":false,"rental_uris":{"android":"levelo://app?vid=a6dbd9b4-5d0e-46f7-b914-b9b8e204749f","ios":"levelo://app?vid=a6dbd9b4-5d0e-46f7-b914-b9b8e204749f"},"vehicle_type_id":"4","last_reported":1687604767,"current_range_meters":22000,"station_id":"ce4bhbh2rcd13ifvqeo0","pricing_plan_id":"free"},{"bike_id":"0913d858-3663-4497-b2de-35378c985892","system_id":"levelo_inurba_marseille","lat":43.273613,"lon":5.362705,"is_reserved":false,"is_disabled":false,"rental_uris":{"android":"levelo://app?vid=0913d858-3663-4497-b2de-35378c985892","ios":"levelo://app?vid=0913d858-3663-4497-b2de-35378c985892"},"vehicle_type_id":"4","last_reported":1687604767,"current_range_meters":24800,"station_id":"ce4bhbh2rcd13ifvqeo0","pricing_plan_id":"free"},{"bike_id":"d54de63b-1906-47f5-aa8a-3cb8b59e15ae","system_id":"levelo_inurba_marseille","lat":43.27377,"lon":5.36256,"is_reserved":false,"is_disabled":false,"rental_uris":{"android":"levelo://app?vid=d54de63b-1906-47f5-aa8a-3cb8b59e15ae","ios":"levelo://app?vid=d54de63b-1906-47f5-aa8a-3cb8b59e15ae"},"vehicle_type_id":"4","last_reported":1687604767,"current_range_meters":6000,"station_id":"ce4bhbh2rcd13ifvqeo0","pricing_plan_id":"free"},{"bike_id":"8b3b5bdd-13cf-4a48-b05d-a5dba6507495","system_id":"levelo_inurba_marseille","lat":43.273609,"lon":5.362708,"is_reserved":false,"is_disabled":false,"rental_uris":{"android":"levelo://app?vid=8b3b5bdd-13cf-4a48-b05d-a5dba6507495","ios":"levelo://app?vid=8b3b5bdd-13cf-4a48-b05d-a5dba6507495"},"vehicle_type_id":"4","last_reported":1687604767,"current_range_meters":16400,"station_id":"ce4bhbh2rcd13ifvqeo0","pricing_plan_id":"free"},{"bike_id":"71d94b29-418c-41e4-9540-8a47e0b675c9","system_id":"levelo_inurba_marseille","lat":43.273613,"lon":5.362705,"is_reserved":false,"is_disabled":false,"rental_uris":{"android":"levelo://app?vid=71d94b29-418c-41e4-9540-8a47e0b675c9","ios":"levelo://app?vid=71d94b29-418c-41e4-9540-8a47e0b675c9"},"vehicle_type_id":"4","last_reported":1687604767,"current_range_meters":24000,"station_id":"ce4bhbh2rcd13ifvqeo0","pricing_plan_id":"free"},{"bike_id":"624eac60-cf0b-48eb-a7e9-8f6235cc6d83","system_id":"levelo_inurba_marseille","lat":43.273609,"lon":5.362708,"is_reserved":false,"is_disabled":false,"rental_uris":{"android":"levelo://app?vid=624eac60-cf0b-48eb-a7e9-8f6235cc6d83","ios":"levelo://app?vid=624eac60-cf0b-48eb-a7e9-8f6235cc6d83"},"vehicle_type_id":"4","last_reported":1687604767,"current_range_meters":31600,"station_id":"ce4bhbh2rcd13ifvqeo0","pricing_plan_id":"free"},{"bike_id":"7a5f2a05-33ab-491d-be5d-108bcaa7cd60","system_id":"levelo_inurba_marseille","lat":43.273613,"lon":5.362705,"is_reserved":false,"is_disabled":false,"rental_uris":{"android":"levelo://app?vid=7a5f2a05-33ab-491d-be5d-108bcaa7cd60","ios":"levelo://app?vid=7a5f2a05-33ab-491d-be5d-108bcaa7cd60"},"vehicle_type_id":"4","last_reported":1687604767,"current_range_meters":7200,"station_id":"ce4bhbh2rcd13ifvqeo0","pricing_plan_id":"free"},{"bike_id":"137eef42-c031-46bf-ab28-9bf867b0dbca","system_id":"levelo_inurba_marseille","lat":43.27376,"lon":5.3625,"is_reserved":false,"is_disabled":false,"rental_uris":{"android":"levelo://app?vid=137eef42-c031-46bf-ab28-9bf867b0dbca","ios":"levelo://app?vid=137eef42-c031-46bf-ab28-9bf867b0dbca"},"vehicle_type_id":"4","last_reported":1687604767,"current_range_meters":15600,"station_id":"ce4bhbh2rcd13ifvqeo0","pricing_plan_id":"free"},{"bike_id":"94f1293d-56d3-4adc-98e9-2c48a3b93f02","system_id":"levelo_inurba_marseille","lat":43.273613,"lon":5.362705,"is_reserved":false,"is_disabled":false,"rental_uris":{"android":"levelo://app?vid=94f1293d-56d3-4adc-98e9-2c48a3b93f02","ios":"levelo://app?vid=94f1293d-56d3-4adc-98e9-2c48a3b93f02"},"vehicle_type_id":"4","last_reported":1687604767,"current_range_meters":6800,"station_id":"ce4bhbh2rcd13ifvqeo0","pricing_plan_id":"free"},{"bike_id":"f78fbdcb-08ef-4dbc-b210-895645c96633","system_id":"levelo_inurba_marseille","lat":43.273613,"lon":5.362705,"is_reserved":false,"is_disabled":false,"rental_uris":{"android":"levelo://app?vid=f78fbdcb-08ef-4dbc-b210-895645c96633","ios":"levelo://app?vid=f78fbdcb-08ef-4dbc-b210-895645c96633"},"vehicle_type_id":"4","last_reported":1687604767,"current_range_meters":31600,"station_id":"ce4bhbh2rcd13ifvqeo0","pricing_plan_id":"free"},{"bike_id":"38d0435b-c581-45db-a1e4-0d8b512b44be","system_id":"levelo_inurba_marseille","lat":43.273609,"lon":5.362708,"is_reserved":false,"is_disabled":false,"rental_uris":{"android":"levelo://app?vid=38d0435b-c581-45db-a1e4-0d8b512b44be","ios":"levelo://app?vid=38d0435b-c581-45db-a1e4-0d8b512b44be"},"vehicle_type_id":"4","last_reported":1687604767,"current_range_meters":28800,"station_id":"ce4bhbh2rcd13ifvqeo0","pricing_plan_id":"free"},{"bike_id":"38118899-2064-4d4b-94e9-26d9e04d01da","system_id":"levelo_inurba_marseille","lat":43.273609,"lon":5.362708,"is_reserved":false,"is_disabled":false,"rental_uris":{"android":"levelo://app?vid=38118899-2064-4d4b-94e9-26d9e04d01da","ios":"levelo://app?vid=38118899-2064-4d4b-94e9-26d9e04d01da"},"vehicle_type_id":"4","last_reported":1687604767,"current_range_meters":23600,"station_id":"ce4bhbh2rcd13ifvqeo0","pricing_plan_id":"free"},{"bike_id":"d60832f5-4d74-4884-a682-017c832e1676","system_id":"levelo_inurba_marseille","lat":43.33612,"lon":5.410321,"is_reserved":false,"is_disabled":false,"rental_uris":{"android":"levelo://app?vid=d60832f5-4d74-4884-a682-017c832e1676","ios":"levelo://app?vid=d60832f5-4d74-4884-a682-017c832e1676"},"vehicle_type_id":"4","last_reported":1687604767,"current_range_meters":31200,"station_id":"ce4bhqh2rcd13ifvqhmg","pricing_plan_id":"free"},{"bike_id":"13445ec0-d9e3-4f5d-b9b1-4d19c78ecae9","system_id":"levelo_inurba_marseille","lat":43.273613,"lon":5.362705,"is_reserved":false,"is_disabled":false,"rental_uris":{"android":"levelo://app?vid=13445ec0-d9e3-4f5d-b9b1-4d19c78ecae9","ios":"levelo://app?vid=13445ec0-d9e3-4f5d-b9b1-4d19c78ecae9"},"vehicle_type_id":"4","last_reported":1687604767,"current_range_meters":6000,"station_id":"ce4bhbh2rcd13ifvqeo0","pricing_plan_id":"free"},{"bike_id":"1b418515-35ab-4257-acfe-48861a70a2a8","system_id":"levelo_inurba_marseille","lat":43.273609,"lon":5.362708,"is_reserved":false,"is_disabled":false,"rental_uris":{"android":"levelo://app?vid=1b418515-35ab-4257-acfe-48861a70a2a8","ios":"levelo://app?vid=1b418515-35ab-4257-acfe-48861a70a2a8"},"vehicle_type_id":"4","last_reported":1687604767,"current_range_meters":24400,"station_id":"ce4bhbh2rcd13ifvqeo0","pricing_plan_id":"free"},{"bike_id":"37076e43-3f08-4d29-89d7-62bc0cd52067","system_id":"levelo_inurba_marseille","lat":43.273609,"lon":5.362708,"is_reserved":false,"is_disabled":false,"rental_uris":{"android":"levelo://app?vid=37076e43-3f08-4d29-89d7-62bc0cd52067","ios":"levelo://app?vid=37076e43-3f08-4d29-89d7-62bc0cd52067"},"vehicle_type_id":"4","last_reported":1687604767,"current_range_meters":17600,"station_id":"ce4bhbh2rcd13ifvqeo0","pricing_plan_id":"free"},{"bike_id":"0b1d8a64-9605-4eeb-92b2-3763706b7c97","system_id":"levelo_inurba_marseille","lat":43.273609,"lon":5.362708,"is_reserved":false,"is_disabled":false,"rental_uris":{"android":"levelo://app?vid=0b1d8a64-9605-4eeb-92b2-3763706b7c97","ios":"levelo://app?vid=0b1d8a64-9605-4eeb-92b2-3763706b7c97"},"vehicle_type_id":"4","last_reported":1687604767,"current_range_meters":21600,"station_id":"ce4bhbh2rcd13ifvqeo0","pricing_plan_id":"free"},{"bike_id":"0c32d900-18cb-413e-b603-2774185027ac","system_id":"levelo_inurba_marseille","lat":43.273609,"lon":5.362708,"is_reserved":false,"is_disabled":false,"rental_uris":{"android":"levelo://app?vid=0c32d900-18cb-413e-b603-2774185027ac","ios":"levelo://app?vid=0c32d900-18cb-413e-b603-2774185027ac"},"vehicle_type_id":"4","last_reported":1687604767,"current_range_meters":14000,"station_id":"ce4bhbh2rcd13ifvqeo0","pricing_plan_id":"free"},{"bike_id":"bf6367b2-484b-4a74-afce-302e8e859df3","system_id":"levelo_inurba_marseille","lat":43.273613,"lon":5.362705,"is_reserved":false,"is_disabled":false,"rental_uris":{"android":"levelo://app?vid=bf6367b2-484b-4a74-afce-302e8e859df3","ios":"levelo://app?vid=bf6367b2-484b-4a74-afce-302e8e859df3"},"vehicle_type_id":"4","last_reported":1687604767,"current_range_meters":31200,"station_id":"ce4bhbh2rcd13ifvqeo0","pricing_plan_id":"free"},{"bike_id":"11646277-3de0-41e6-93b5-099e8d9f1696","system_id":"levelo_inurba_marseille","lat":43.273609,"lon":5.362708,"is_reserved":false,"is_disabled":false,"rental_uris":{"android":"levelo://app?vid=11646277-3de0-41e6-93b5-099e8d9f1696","ios":"levelo://app?vid=11646277-3de0-41e6-93b5-099e8d9f1696"},"vehicle_type_id":"4","last_reported":1687604767,"current_range_meters":31600,"station_id":"ce4bhbh2rcd13ifvqeo0","pricing_plan_id":"free"},{"bike_id":"bd9bcbdd-8d23-4f19-8514-4f63044abb45","system_id":"levelo_inurba_marseille","lat":43.273609,"lon":5.362708,"is_reserved":false,"is_disabled":false,"rental_uris":{"android":"levelo://app?vid=bd9bcbdd-8d23-4f19-8514-4f63044abb45","ios":"levelo://app?vid=bd9bcbdd-8d23-4f19-8514-4f63044abb45"},"vehicle_type_id":"4","last_reported":1687604767,"current_range_meters":28400,"station_id":"ce4bhbh2rcd13ifvqeo0","pricing_plan_id":"free"},{"bike_id":"abeea9fa-728c-4549-950f-7e92e5701e70","system_id":"levelo_inurba_marseille","lat":43.273609,"lon":5.362708,"is_reserved":false,"is_disabled":false,"rental_uris":{"android":"levelo://app?vid=abeea9fa-728c-4549-950f-7e92e5701e70","ios":"levelo://app?vid=abeea9fa-728c-4549-950f-7e92e5701e70"},"vehicle_type_id":"4","last_reported":1687604767,"current_range_meters":27600,"station_id":"ce4bhbh2rcd13ifvqeo0","pricing_plan_id":"free"},{"bike_id":"92cd2f89-9964-4d0c-8664-94290848e6ba","system_id":"levelo_inurba_marseille","lat":43.273609,"lon":5.362708,"is_reserved":false,"is_disabled":false,"rental_uris":{"android":"levelo://app?vid=92cd2f89-9964-4d0c-8664-94290848e6ba","ios":"levelo://app?vid=92cd2f89-9964-4d0c-8664-94290848e6ba"},"vehicle_type_id":"4","last_reported":1687604767,"current_range_meters":15600,"station_id":"ce4bhbh2rcd13ifvqeo0","pricing_plan_id":"free"},{"bike_id":"18f3f0db-9283-405d-965c-bcbb0793f933","system_id":"levelo_inurba_marseille","lat":43.273609,"lon":5.362708,"is_reserved":false,"is_disabled":false,"rental_uris":{"android":"levelo://app?vid=18f3f0db-9283-405d-965c-bcbb0793f933","ios":"levelo://app?vid=18f3f0db-9283-405d-965c-bcbb0793f933"},"vehicle_type_id":"4","last_reported":1687604767,"current_range_meters":22800,"station_id":"ce4bhbh2rcd13ifvqeo0","pricing_plan_id":"free"},{"bike_id":"84103545-422e-455e-a9a7-4f74ea12eb96","system_id":"levelo_inurba_marseille","lat":43.33612,"lon":5.410321,"is_reserved":false,"is_disabled":false,"rental_uris":{"android":"levelo://app?vid=84103545-422e-455e-a9a7-4f74ea12eb96","ios":"levelo://app?vid=84103545-422e-455e-a9a7-4f74ea12eb96"},"vehicle_type_id":"4","last_reported":1687604767,"current_range_meters":31200,"station_id":"ce4bhqh2rcd13ifvqhmg","pricing_plan_id":"free"},{"bike_id":"82cc0936-e1fd-4d7c-ab41-84619cd61427","system_id":"levelo_inurba_marseille","lat":43.33611,"lon":5.41017,"is_reserved":false,"is_disabled":false,"rental_uris":{"android":"levelo://app?vid=82cc0936-e1fd-4d7c-ab41-84619cd61427","ios":"levelo://app?vid=82cc0936-e1fd-4d7c-ab41-84619cd61427"},"vehicle_type_id":"4","last_reported":1687604767,"current_range_meters":24800,"station_id":"ce4bhqh2rcd13ifvqhmg","pricing_plan_id":"free"},{"bike_id":"62a68779-48fa-4337-b50d-2a8aee14a2a4","system_id":"levelo_inurba_marseille","lat":43.27563,"lon":5.38428,"is_reserved":false,"is_disabled":false,"rental_uris":{"android":"levelo://app?vid=62a68779-48fa-4337-b50d-2a8aee14a2a4","ios":"levelo://app?vid=62a68779-48fa-4337-b50d-2a8aee14a2a4"},"vehicle_type_id":"4","last_reported":1687604767,"current_range_meters":0,"station_id":"ce4bhh92rcd13ifvqfi0","pricing_plan_id":"free"},{"bike_id":"17ae740a-0cf7-4672-8e6a-2681eb5e87d4","system_id":"levelo_inurba_marseille","lat":43.273648,"lon":5.362502,"is_reserved":false,"is_disabled":false,"rental_uris":{"android":"levelo://app?vid=17ae740a-0cf7-4672-8e6a-2681eb5e87d4","ios":"levelo://app?vid=17ae740a-0cf7-4672-8e6a-2681eb5e87d4"},"vehicle_type_id":"4","last_reported":1687604767,"current_range_meters":25600,"station_id":"ce4bhbh2rcd13ifvqeo0","pricing_plan_id":"free"},{"bike_id":"c6db143c-0e1d-4746-adb1-49b218f0ed0d","system_id":"levelo_inurba_marseille","lat":43.33612,"lon":5.410321,"is_reserved":false,"is_disabled":false,"rental_uris":{"android":"levelo://app?vid=c6db143c-0e1d-4746-adb1-49b218f0ed0d","ios":"levelo://app?vid=c6db143c-0e1d-4746-adb1-49b218f0ed0d"},"vehicle_type_id":"4","last_reported":1687604767,"current_range_meters":31200,"station_id":"ce4bhqh2rcd13ifvqhmg","pricing_plan_id":"free"},{"bike_id":"3ba219a1-bfce-4511-aabc-9eec4d3607c8","system_id":"levelo_inurba_marseille","lat":43.336134,"lon":5.410341,"is_reserved":false,"is_disabled":false,"rental_uris":{"android":"levelo://app?vid=3ba219a1-bfce-4511-aabc-9eec4d3607c8","ios":"levelo://app?vid=3ba219a1-bfce-4511-aabc-9eec4d3607c8"},"vehicle_type_id":"4","last_reported":1687604767,"current_range_meters":31200,"station_id":"ce4bhqh2rcd13ifvqhmg","pricing_plan_id":"free"},{"bike_id":"caad2176-2282-4855-8c38-34443d645d84","system_id":"levelo_inurba_marseille","lat":43.33612,"lon":5.410321,"is_reserved":false,"is_disabled":false,"rental_uris":{"android":"levelo://app?vid=caad2176-2282-4855-8c38-34443d645d84","ios":"levelo://app?vid=caad2176-2282-4855-8c38-34443d645d84"},"vehicle_type_id":"4","last_reported":1687604767,"current_range_meters":31200,"station_id":"ce4bhqh2rcd13ifvqhmg","pricing_plan_id":"free"},{"bike_id":"da569050-2492-4700-8b3c-289f50cc44e7","system_id":"levelo_inurba_marseille","lat":43.33609,"lon":5.41035,"is_reserved":false,"is_disabled":false,"rental_uris":{"android":"levelo://app?vid=da569050-2492-4700-8b3c-289f50cc44e7","ios":"levelo://app?vid=da569050-2492-4700-8b3c-289f50cc44e7"},"vehicle_type_id":"4","last_reported":1687604767,"current_range_meters":16800,"station_id":"ce4bhqh2rcd13ifvqhmg","pricing_plan_id":"free"},