{"last_updated":1740510460,"ttl":60,"version":"2.2","data":{"bikes":[{"bike_id":"ccf61f5f-d079-4784-b7fe-664e456b1dcf","system_id":"levelo_inurba_marseille","lat":43.295288,"lon":5.390378,"is_reserved":false,"is_disabled":false,"rental_uris":{"android":"levelo://app?vid=ccf61f5f-d079-4784-b7fe-664e456b1dcf","ios":"levelo://app?vid=ccf61f5f-d079-4784-b7fe-664e456b1dcf"},"vehicle_type_id":"4","last_reported":1740510460,"current_range_meters":2800,"station_id":"ce4bh3p2rcd13ifvqdp0","pricing_plan_id":"cebpf4jnsgd1na2vs0mg"},{"bike_id":"3383209a-f27b-4372-a3e1-8a45db9f7e25","system_id":"levelo_inurba_marseille","lat":43.30789,"lon":5.38158,"is_reserved":false,"is_disabled":false,"rental_uris":{"android":"levelo://app?vid=3383209a-f27b-4372-a3e1-8a45db9f7e25","ios":"levelo://app?vid=3383209a-f27b-4372-a3e1-8a45db9f7e25"},"vehicle_type_id":"4","last_reported":1740510460,"current_range_meters":2800,"station_id":"ce4bgt12rcd13ifvqce0","pricing_plan_id":"cebpf4jnsgd1na2vs0mg"},{"bike_id":"04e8bbfb-64ca-491e-a24f-57180faf0eac","system_id":"levelo_inurba_marseille","lat":43.311223,"lon":5.377707,"is_reserved":false,"is_disabled":false,"rental_uris":{"android":"levelo://app?vid=04e8bbfb-64ca-491e-a24f-57180faf0eac","ios":"levelo://app?vid=04e8bbfb-64ca-491e-a24f-57180faf0eac"},"vehicle_type_id":"4","last_reported":1740510460,"current_range_meters":2800,"station_id":"ce4bgt92rcd13ifvqcg0","pricing_plan_id":"cebpf4jnsgd1na2vs0mg"},{"bike_id":"3f201449-b493-4083-b09d-597f12726e48","system_id":"levelo_inurba_marseille","lat":43.29543,"lon":5.37508,"is_reserved":false,"is_disabled":true,"rental_uris":{"android":"levelo://app?vid=3f201449-b493-4083-b09d-597f12726e48","ios":"levelo://app?vid=3f201449-b493-4083-b09d-597f12726e48"},"vehicle_type_id":"4","last_reported":1740510460,"current_range_meters":2800,"station_id":"ce4bgkp2rcd13ifvqbmg","pricing_plan_id":"cebpf4jnsgd1na2vs0mg"},{"bike_id":"1438575d-9fd6-43ee-9b6c-848d2f40689b","system_id":"levelo_inurba_marseille","lat":43.31351,"lon":5.38503,"is_reserved":false,"is_disabled":false,"rental_uris":{"android":"levelo://app?vid=1438575d-9fd6-43ee-9b6c-848d2f40689b","ios":"levelo://app?vid=1438575d-9fd6-43ee-9b6c-848d2f40689b"},"vehicle_type_id":"4","last_reported":1740510460,"current_range_meters":2800,"station_id":"ce4bgt92rcd13ifvqcf0","pricing_plan_id":"cebpf4jnsgd1na2vs0mg"},{"bike_id":"a20f4f86-8a37-41be-bf41-963fa04395e3","system_id":"levelo_inurba_marseille","lat":43.29039,"lon":5.38657,"is_reserved":false,"is_disabled":true,"rental_uris":{"android":"levelo://app?vid=a20f4f86-8a37-41be-bf41-963fa04395e3","ios":"levelo://app?vid=a20f4f86-8a37-41be-bf41-963fa04395e3"},"vehicle_type_id":"4","last_reported":1740510460,"current_range_meters":37600,"station_id":"ce4bh4p2rcd13ifvqe0g","pricing_plan_id":"cebpf4jnsgd1na2vs0mg"},{"bike_id":"8fee03f2-e082-48cb-a709-e5d076b9db56","system_id":"levelo_inurba_marseille","lat":43.30414,"lon":5.41296,"is_reserved":false,"is_disabled":true,"rental_uris":{"android":"levelo://app?vid=8fee03f2-e082-48cb-a709-e5d076b9db56","ios":"levelo://app?vid=8fee03f2-e082-48cb-a709-e5d076b9db56"},"vehicle_type_id":"4","last_reported":1740510460,"current_range_meters":2800,"station_id":"ce4bhop2rcd13ifvqh8g","pricing_plan_id":"cebpf4jnsgd1na2vs0mg"},{"bike_id":"533977a0-be81-4d06-808f-ed4c4793828a","system_id":"levelo_inurba_marseille","lat":43.31122,"lon":5.3778,"is_reserved":false,"is_disabled":false,"rental_uris":{"android":"levelo://app?vid=533977a0-be81-4d06-808f-ed4c4793828a","ios":"levelo://app?vid=533977a0-be81-4d06-808f-ed4c4793828a"},"vehicle_type_id":"4","last_reported":1740510460,"current_range_meters":3200,"station_id":"ce4bgt92rcd13ifvqcg0","pricing_plan_id":"cebpf4jnsgd1na2vs0mg"},{"bike_id":"cec98454-85c0-4205-a19d-cf13d6dfccbe","system_id":"levelo_inurba_marseille","lat":43.29929,"lon":5.37481,"is_reserved":false,"is_disabled":false,"rental_uris":{"android":"levelo://app?vid=cec98454-85c0-4205-a19d-cf13d6dfccbe","ios":"levelo://app?vid=cec98454-85c0-4205-a19d-cf13d6dfccbe"},"vehicle_type_id":"4","last_reported":1740510460,"current_range_meters":2000,"station_id":"ce4bgjh2rcd13ifvqbg0","pricing_plan_id":"cebpf4jnsgd1na2vs0mg"},{"bike_id":"e1b50b8a-3828-4da4-ace3-346f30365890","system_id":"levelo_inurba_marseille","lat":43.24388,"lon":5.37056,"is_reserved":false,"is_disabled":false,"rental_uris":{"android":"levelo://app?vid=e1b50b8a-3828-4da4-ace3-346f30365890","ios":"levelo://app?vid=e1b50b8a-3828-4da4-ace3-346f30365890"},"vehicle_type_id":"4","last_reported":1740510460,"current_range_meters":3200,"station_id":"ce4bhhh2rcd13ifvqfk0","pricing_plan_id":"cebpf4jnsgd1na2vs0mg"},{"bike_id":"37fa5fda-f615-4e3b-8d10-faefe62a45b6","system_id":"levelo_inurba_marseille","lat":43.270579,"lon":5.402618,"is_reserved":false,"is_disabled":false,"rental_uris":{"android":"levelo://app?vid=37fa5fda-f615-4e3b-8d10-faefe62a45b6","ios":"levelo://app?vid=37fa5fda-f615-4e3b-8d10-faefe62a45b6"},"vehicle_type_id":"4","last_reported":1740510460,"current_range_meters":3200,"station_id":"ce4bh9p2rcd13ifvqec0","pricing_plan_id":"cebpf4jnsgd1na2vs0mg"},{"bike_id":"e0b4a192-9107-4a89-ae01-c2cc86e1b004","system_id":"levelo_inurba_marseille","lat":43.30203,"lon":5.39488,"is_reserved":false,"is_disabled":false,"rental_uris":{"android":"levelo://app?vid=e0b4a192-9107-4a89-ae01-c2cc86e1b004","ios":"levelo://app?vid=e0b4a192-9107-4a89-ae01-c2cc86e1b004"},"vehicle_type_id":"4","last_reported":1740510460,"current_range_meters":3200,"station_id":"ce4bh0p2rcd13ifvqd70","pricing_plan_id":"cebpf4jnsgd1na2vs0mg"},{"bike_id":"c7e7a9a5-78b1-4cd9-9718-cd7b7fff9253","system_id":"levelo_inurba_marseille","lat":43.261599,"lon":5.396607,"is_reserved":false,"is_disabled":false,"rental_uris":{"android":"levelo://app?vid=c7e7a9a5-78b1-4cd9-9718-cd7b7fff9253","ios":"levelo://app?vid=c7e7a9a5-78b1-4cd9-9718-cd7b7fff9253"},"vehicle_type_id":"4","last_reported":1740510460,"current_range_meters":3200,"station_id":"ce4bhhp2rcd13ifvqfm0","pricing_plan_id":"cebpf4jnsgd1na2vs0mg"},{"bike_id":"21390a0a-90b2-4711-98e0-3e4620d45de1","system_id":"levelo_inurba_marseille","lat":43.27912,"lon":5.39583,"is_reserved":false,"is_disabled":false,"rental_uris":{"android":"levelo://app?vid=21390a0a-90b2-4711-98e0-3e4620d45de1","ios":"levelo://app?vid=21390a0a-90b2-4711-98e0-3e4620d45de1"},"vehicle_type_id":"4","last_reported":1740510460,"current_range_meters":3600,"station_id":"ce4bhf92rcd13ifvqf40","pricing_plan_id":"cebpf4jnsgd1na2vs0mg"},{"bike_id":"3073ec7a-71d5-47c4-9f51-8ee5e082a668","system_id":"levelo_inurba_marseille","lat":43.2318,"lon":5.39982,"is_reserved":false,"is_disabled":false,"rental_uris":{"android":"levelo://app?vid=3073ec7a-71d5-47c4-9f51-8ee5e082a668","ios":"levelo://app?vid=3073ec7a-71d5-47c4-9f51-8ee5e082a668"},"vehicle_type_id":"4","last_reported":1740510460,"current_range_meters":3600,"station_id":"ce4bhn12rcd13ifvqgqg","pricing_plan_id":"cebpf4jnsgd1na2vs0mg"},{"bike_id":"a1213b77-5eba-4b50-9578-66a389b9d85c","system_id":"levelo_inurba_marseille","lat":43.29029,"lon":5.38649,"is_reserved":false,"is_disabled":false,"rental_uris":{"android":"levelo://app?vid=a1213b77-5eba-4b50-9578-66a389b9d85c","ios":"levelo://app?vid=a1213b77-5eba-4b50-9578-66a389b9d85c"},"vehicle_type_id":"4","last_reported":1740510460,"current_range_meters":3200,"station_id":"ce4bh4p2rcd13ifvqe0g","pricing_plan_id":"cebpf4jnsgd1na2vs0mg"},{"bike_id":"05bac97d-ffe1-498a-8086-04111ae605f6","system_id":"levelo_inurba_marseille","lat":43.29414,"lon":5.38634,"is_reserved":false,"is_disabled":false,"rental_uris":{"android":"levelo://app?vid=05bac97d-ffe1-498a-8086-04111ae605f6","ios":"levelo://app?vid=05bac97d-ffe1-498a-8086-04111ae605f6"},"vehicle_type_id":"4","last_reported":1740510460,"current_range_meters":3600,"station_id":"ce4bh2h2rcd13ifvqdh0","pricing_plan_id":"cebpf4jnsgd1na2vs0mg"},{"bike_id":"fbfa727d-955f-4b17-9574-8525bfdfc9c9","system_id":"levelo_inurba_marseille","lat":43.31268,"lon":5.40161,"is_reserved":false,"is_disabled":false,"rental_uris":{"android":"levelo://app?vid=fbfa727d-955f-4b17-9574-8525bfdfc9c9","ios":"levelo://app?vid=fbfa727d-955f-4b17-9574-8525bfdfc9c9"},"vehicle_type_id":"4","last_reported":1740510460,"current_range_meters":3600,"station_id":"ce4bh092rcd13ifvqd30","pricing_plan_id":"cebpf4jnsgd1na2vs0mg"},{"bike_id":"15d63c41-d467-4e01-ab9d-1a4d98399eb8","system_id":"levelo_inurba_marseille","lat":43.2811,"lon":5.39649,"is_reserved":false,"is_disabled":true,"rental_uris":{"android":"levelo://app?vid=15d63c41-d467-4e01-ab9d-1a4d98399eb8","ios":"levelo://app?vid=15d63c41-d467-4e01-ab9d-1a4d98399eb8"},"vehicle_type_id":"4","last_reported":1740510460,"current_range_meters":4400,"station_id":"ce4bho12rcd13ifvqh2g","pricing_plan_id":"cebpf4jnsgd1na2vs0mg"},{"bike_id":"40daa5b0-a928-4f78-8777-24eca1031da0","system_id":"levelo_inurba_marseille","lat":43.29639,"lon":5.40602,"is_reserved":false,"is_disabled":false,"rental_uris":{"android":"levelo://app?vid=40daa5b0-a928-4f78-8777-24eca1031da0","ios":"levelo://app?vid=40daa5b0-a928-4f78-8777-24eca1031da0"},"vehicle_type_id":"4","last_reported":1740510460,"current_range_meters":4400,"station_id":"ce4bh0h2rcd13ifvqd60","pricing_plan_id":"cebpf4jnsgd1na2vs0mg"},{"bike_id":"87357096-c6ad-4c86-b9b5-ef2fa0065e10","system_id":"levelo_inurba_marseille","lat":43.31121,"lon":5.37769,"is_reserved":false,"is_disabled":false,"rental_uris":{"android":"levelo://app?vid=87357096-c6ad-4c86-b9b5-ef2fa0065e10","ios":"levelo://app?vid=87357096-c6ad-4c86-b9b5-ef2fa0065e10"},"vehicle_type_id":"4","last_reported":1740510460,"current_range_meters":4400,"station_id":"ce4bgt92rcd13ifvqcg0","pricing_plan_id":"cebpf4jnsgd1na2vs0mg"},{"bike_id":"7fbb2a6f-02e8-4d41-8961-27cd462edec6","system_id":"levelo_inurba_marseille","lat":43.29039,"lon":5.35911,"is_reserved":false,"is_disabled":false,"rental_uris":{"android":"levelo://app?vid=7fbb2a6f-02e8-4d41-8961-27cd462edec6","ios":"levelo://app?vid=7fbb2a6f-02e8-4d41-8961-27cd462edec6"},"vehicle_type_id":"4","last_reported":1740510460,"current_range_meters":4400,"station_id":"ce4bha92rcd13ifvqeg0","pricing_plan_id":"cebpf4jnsgd1na2vs0mg"},{"bike_id":"a8daf535-7d57-4376-88b4-e11874a63786","system_id":"levelo_inurba_marseille","lat":43.26783,"lon":5.39422,"is_reserved":false,"is_disabled":false,"rental_uris":{"android":"levelo://app?vid=a8daf535-7d57-4376-88b4-e11874a63786","ios":"levelo://app?vid=a8daf535-7d57-4376-88b4-e11874a63786"},"vehicle_type_id":"4","last_reported":1740510460,"current_range_meters":0,"station_id":"ce4bhh12rcd13ifvqfg0","pricing_plan_id":"cebpf4jnsgd1na2vs0mg"},{"bike_id":"11b14194-e750-4589-8ee3-2d6f55de6a7a","system_id":"levelo_inurba_marseille","lat":43.30886,"lon":5.39654,"is_reserved":false,"is_disabled":false,"rental_uris":{"android":"levelo://app?vid=11b14194-e750-4589-8ee3-2d6f55de6a7a","ios":"levelo://app?vid=11b14194-e750-4589-8ee3-2d6f55de6a7a"},"vehicle_type_id":"4","last_reported":1740510460,"current_range_meters":4000,"station_id":"ce4bh012rcd13ifvqcv0","pricing_plan_id":"cebpf4jnsgd1na2vs0mg"},{"bike_id":"642a2d0a-87d6-459e-a151-9da5bcc33f72","system_id":"levelo_inurba_marseille","lat":43.28704,"lon":5.39981,"is_reserved":false,"is_disabled":false,"rental_uris":{"android":"levelo://app?vid=642a2d0a-87d6-459e-a151-9da5bcc33f72","ios":"levelo://app?vid=642a2d0a-87d6-459e-a151-9da5bcc33f72"},"vehicle_type_id":"4","last_reported":1740510460,"current_range_meters":4800,"station_id":"ce4bho92rcd13ifvqh3g","pricing_plan_id":"cebpf4jnsgd1na2vs0mg"},{"bike_id":"71f606a5-4879-4b26-9ccd-1543fb1a6ec7","system_id":"levelo_inurba_marseille","lat":43.283741,"lon":5.390274,"is_reserved":false,"is_disabled":false,"rental_uris":{"android":"levelo://app?vid=71f606a5-4879-4b26-9ccd-1543fb1a6ec7","ios":"levelo://app?vid=71f606a5-4879-4b26-9ccd-1543fb1a6ec7"},"vehicle_type_id":"4","last_reported":1740510460,"current_range_meters":4800,"station_id":"","pricing_plan_id":"cebpf4jnsgd1na2vs0mg"},{"bike_id":"432ff3b1-2ffb-4dd5-910a-aa39ee1d3010","system_id":"levelo_inurba_marseille","lat":43.27835,"lon":5.39199,"is_reserved":false,"is_disabled":false,"rental_uris":{"android":"levelo://app?vid=432ff3b1-2ffb-4dd5-910a-aa39ee1d3010","ios":"levelo://app?vid=432ff3b1-2ffb-4dd5-910a-aa39ee1d3010"},"vehicle_type_id":"4","last_reported":1740510460,"current_range_meters":4800,"station_id":"ce4bhjp2rcd13ifvqga0","pricing_plan_id":"cebpf4jnsgd1na2vs0mg"},{"bike_id":"b3c07c0d-7914-4a8f-af51-6134ae8608fc","system_id":"levelo_inurba_marseille","lat":43.28465,"lon":5.35884,"is_reserved":false,"is_disabled":false,"rental_uris":{"android":"levelo://app?vid=b3c07c0d-7914-4a8f-af51-6134ae8608fc","ios":"levelo://app?vid=b3c07c0d-7914-4a8f-af51-6134ae8608fc"},"vehicle_type_id":"4","last_reported":1740510460,"current_range_meters":4400,"station_id":"ce4bhah2rcd13ifvqei0","pricing_plan_id":"cebpf4jnsgd1na2vs0mg"},{"bike_id":"f3e2d31b-bf16-4d93-8358-e1b5fc69cdb1","system_id":"levelo_inurba_marseille","lat":43.28131,"lon":5.39974,"is_reserved":false,"is_disabled":false,"rental_uris":{"android":"levelo://app?vid=f3e2d31b-bf16-4d93-8358-e1b5fc69cdb1","ios":"levelo://app?vid=f3e2d31b-bf16-4d93-8358-e1b5fc69cdb1"},"vehicle_type_id":"4","last_reported":1740510460,"current_range_meters":4800,"station_id":"","pricing_plan_id":"cebpf4jnsgd1na2vs0mg"},{"bike_id":"7cb73c24-1edd-4ef8-ab6d-66f469296da4","system_id":"levelo_inurba_marseille","lat":43.28156,"lon":5.42641,"is_reserved":false,"is_disabled":false,"rental_uris":{"android":"levelo://app?vid=7cb73c24-1edd-4ef8-ab6d-66f469296da4","ios":"levelo://app?vid=7cb73c24-1edd-4ef8-ab6d-66f469296da4"},"vehicle_type_id":"4","last_reported":1740510460,"current_range_meters":4800,"station_id":"ce4bhnh2rcd13ifvqgug","pricing_plan_id":"cebpf4jnsgd1na2vs0mg"},{"bike_id":"d3d527c5-826b-433a-87db-a34de8fa7c90","system_id":"levelo_inurba_marseille","lat":43.31323,"lon":5.397,"is_reserved":false,"is_disabled":false,"rental_uris":{"android":"levelo://app?vid=d3d527c5-826b-433a-87db-a34de8fa7c90","ios":"levelo://app?vid=d3d527c5-826b-433a-87db-a34de8fa7c90"},"vehicle_type_id":"4","last_reported":1740510460,"current_range_meters":5600,"station_id":"ce4bgvp2rcd13ifvqcu0","pricing_plan_id":"cebpf4jnsgd1na2vs0mg"},{"bike_id":"60386589-a8af-478e-a3a1-f13ee37e2fde","system_id":"levelo_inurba_marseille","lat":43.30925,"lon":5.40142,"is_reserved":false,"is_disabled":false,"rental_uris":{"android":"levelo://app?vid=60386589-a8af-478e-a3a1-f13ee37e2fde","ios":"levelo://app?vid=60386589-a8af-478e-a3a1-f13ee37e2fde"},"vehicle_type_id":"4","last_reported":1740510460,"current_range_meters":1600,"station_id":"ce4bgvp2rcd13ifvqct0","pricing_plan_id":"cebpf4jnsgd1na2vs0mg"},{"bike_id":"8c319107-735d-4235-8b26-7f1391a68542","system_id":"levelo_inurba_marseille","lat":43.27995,"lon":5.41661,"is_reserved":false,"is_disabled":false,"rental_uris":{"android":"levelo://app?vid=8c319107-735d-4235-8b26-7f1391a68542","ios":"levelo://app?vid=8c319107-735d-4235-8b26-7f1391a68542"},"vehicle_type_id":"4","last_reported":1740510460,"current_range_meters":5600,"station_id":"ce4bho12rcd13ifvqh1g","pricing_plan_id":"cebpf4jnsgd1na2vs0mg"},{"bike_id":"2cbef011-6189-4514-a55c-335a5596ff93","system_id":"levelo_inurba_marseille","lat":43.31323,"lon":5.3863,"is_reserved":false,"is_disabled":false,"rental_uris":{"android":"levelo://app?vid=2cbef011-6189-4514-a55c-335a5596ff93","ios":"levelo://app?vid=2cbef011-6189-4514-a55c-335a5596ff93"},"vehicle_type_id":"4","last_reported":1740510460,"current_range_meters":6000,"station_id":"","pricing_plan_id":"cebpf4jnsgd1na2vs0mg"},{"bike_id":"6a4cfa48-34da-4e1c-83b0-dcb01da2a5fe","system_id":"levelo_inurba_marseille","lat":43.28943,"lon":5.36417,"is_reserved":false,"is_disabled":false,"rental_uris":{"android":"levelo://app?vid=6a4cfa48-34da-4e1c-83b0-dcb01da2a5fe","ios":"levelo://app?vid=6a4cfa48-34da-4e1c-83b0-dcb01da2a5fe"},"vehicle_type_id":"4","last_reported":1740510460,"current_range_meters":6000,"station_id":"ce4bhc92rcd13ifvqetg","pricing_plan_id":"cebpf4jnsgd1na2vs0mg"},{"bike_id":"7a1baf5f-d71d-404d-a64d-353306dafd82","system_id":"levelo_inurba_marseille","lat":43.28466,"lon":5.35881,"is_reserved":false,"is_disabled":false,"rental_uris":{"android":"levelo://app?vid=7a1baf5f-d71d-404d-a64d-353306dafd82","ios":"levelo://app?vid=7a1baf5f-d71d-404d-a64d-353306dafd82"},"vehicle_type_id":"4","last_reported":1740510460,"current_range_meters":6400,"station_id":"","pricing_plan_id":"cebpf4jnsgd1na2vs0mg"},{"bike_id":"17150a21-63a8-4df4-92e7-b364b699a6c6","system_id":"levelo_inurba_marseille","lat":43.23188,"lon":5.39974,"is_reserved":false,"is_disabled":false,"rental_uris":{"android":"levelo://app?vid=17150a21-63a8-4df4-92e7-b364b699a6c6","ios":"levelo://app?vid=17150a21-63a8-4df4-92e7-b364b699a6c6"},"vehicle_type_id":"4","last_reported":1740510460,"current_range_meters":6400,"station_id":"ce4bhn12rcd13ifvqgqg","pricing_plan_id":"cebpf4jnsgd1na2vs0mg"},{"bike_id":"8fd28284-f96b-4e62-9416-bad4f70583f8","system_id":"levelo_inurba_marseille","lat":43.28845,"lon":5.39317,"is_reserved":false,"is_disabled":false,"rental_uris":{"android":"levelo://app?vid=8fd28284-f96b-4e62-9416-bad4f70583f8","ios":"levelo://app?vid=8fd28284-f96b-4e62-9416-bad4f70583f8"},"vehicle_type_id":"4","last_reported":1740510460,"current_range_meters":3600,"station_id":"ce4bh2p2rcd13ifvqdi0","pricing_plan_id":"cebpf4jnsgd1na2vs0mg"},{"bike_id":"1055cf9e-6adb-4ce5-ab90-8805bc469c37","system_id":"levelo_inurba_marseille","lat":43.24805,"lon":5.37451,"is_reserved":false,"is_disabled":false,"rental_uris":{"android":"levelo://app?vid=1055cf9e-6adb-4ce5-ab90-8805bc469c37","ios":"levelo://app?vid=1055cf9e-6adb-4ce5-ab90-8805bc469c37"},"vehicle_type_id":"4","last_reported":1740510460,"current_range_meters":6000,"station_id":"ce4bhgh2rcd13ifvqfb0","pricing_plan_id":"cebpf4jnsgd1na2vs0mg"},{"bike_id":"23112539-f375-4d82-a4e4-031f84731c39","system_id":"levelo_inurba_marseille","lat":43.31122,"lon":5.37769,"is_reserved":false,"is_disabled":false,"rental_uris":{"android":"levelo://app?vid=23112539-f375-4d82-a4e4-031f84731c39","ios":"levelo://app?vid=23112539-f375-4d82-a4e4-031f84731c39"},"vehicle_type_id":"4","last_reported":1740510460,"current_range_meters":6000,"station_id":"ce4bgt92rcd13ifvqcg0","pricing_plan_id":"cebpf4jnsgd1na2vs0mg"},{"bike_id":"4348350c-81c0-4bd8-8b92-260fb74ca8c3","system_id":"levelo_inurba_marseille","lat":43.295192,"lon":5.39389,"is_reserved":false,"is_disabled":false,"rental_uris":{"android":"levelo://app?vid=4348350c-81c0-4bd8-8b92-260fb74ca8c3","ios":"levelo://app?vid=4348350c-81c0-4bd8-8b92-260fb74ca8c3"},"vehicle_type_id":"4","last_reported":1740510460,"current_range_meters":6000,"station_id":"ce4bh292rcd13ifvqdf0","pricing_plan_id":"cebpf4jnsgd1na2vs0mg"},{"bike_id":"24067980-02e9-4519-860c-537348a90469","system_id":"levelo_inurba_marseille","lat":43.30423,"lon":5.41328,"is_reserved":false,"is_disabled":false,"rental_uris":{"android":"levelo://app?vid=24067980-02e9-4519-860c-537348a90469","ios":"levelo://app?vid=24067980-02e9-4519-860c-537348a90469"},"vehicle_type_id":"4","last_reported":1740510460,"current_range_meters":6400,"station_id":"ce4bhop2rcd13ifvqh8g","pricing_plan_id":"cebpf4jnsgd1na2vs0mg"},{"bike_id":"da634367-acad-40de-ac7c-eb1fe9e9f106","system_id":"levelo_inurba_marseille","lat":43.28675,"lon":5.37399,"is_reserved":false,"is_disabled":true,"rental_uris":{"android":"levelo://app?vid=da634367-acad-40de-ac7c-eb1fe9e9f106","ios":"levelo://app?vid=da634367-acad-40de-ac7c-eb1fe9e9f106"},"vehicle_type_id":"4","last_reported":1740510460,"current_range_meters":6400,"station_id":"ce4bh3p2rcd13ifvqdq0","pricing_plan_id":"cebpf4jnsgd1na2vs0mg"},{"bike_id":"88dc0d2d-13f0-4efa-8066-7b52b266887f","system_id":"levelo_inurba_marseille","lat":43.29204,"lon":5.39324,"is_reserved":false,"is_disabled":false,"rental_uris":{"android":"levelo://app?vid=88dc0d2d-13f0-4efa-8066-7b52b266887f","ios":"levelo://app?vid=88dc0d2d-13f0-4efa-8066-7b52b266887f"},"vehicle_type_id":"4","last_reported":1740510460,"current_range_meters":6400,"station_id":"ce4bh192rcd13ifvqdd0","pricing_plan_id":"cebpf4jnsgd1na2vs0mg"},{"bike_id":"8f1d4600-78a5-4659-8a3c-759cb0ac741b","system_id":"levelo_inurba_marseille","lat":43.27831,"lon":5.39206,"is_reserved":false,"is_disabled":false,"rental_uris":{"android":"levelo://app?vid=8f1d4600-78a5-4659-8a3c-759cb0ac741b","ios":"levelo://app?vid=8f1d4600-78a5-4659-8a3c-759cb0ac741b"},"vehicle_type_id":"4","last_reported":1740510460,"current_range_meters":6400,"station_id":"ce4bhjp2rcd13ifvqga0","pricing_plan_id":"cebpf4jnsgd1na2vs0mg"},{"bike_id":"322c0db9-e580-4b56-9659-2338e6a758a3","system_id":"levelo_inurba_marseille","lat":43.30473,"lon":5.38208,"is_reserved":false,"is_disabled":false,"rental_uris":{"android":"levelo://app?vid=322c0db9-e580-4b56-9659-2338e6a758a3","ios":"levelo://app?vid=322c0db9-e580-4b56-9659-2338e6a758a3"},"vehicle_type_id":"4","last_reported":1740510460,"current_range_meters":6400,"station_id":"","pricing_plan_id":"cebpf4jnsgd1na2vs0mg"},{"bike_id":"3d64f4bb-4bb0-4303-a688-d071af9dd87c","system_id":"levelo_inurba_marseille","lat":43.27997,"lon":5.4,"is_reserved":false,"is_disabled":false,"rental_uris":{"android":"levelo://app?vid=3d64f4bb-4bb0-4303-a688-d071af9dd87c","ios":"levelo://app?vid=3d64f4bb-4bb0-4303-a688-d071af9dd87c"},"vehicle_type_id":"4","last_reported":1740510460,"current_range_meters":6400,"station_id":"ce4bho92rcd13ifvqh4g","pricing_plan_id":"cebpf4jnsgd1na2vs0mg"},{"bike_id":"b13858bb-7c44-42c9-9f81-cd83b80c4cec","system_id":"levelo_inurba_marseille","lat":43.26203,"lon":5.40438,"is_reserved":false,"is_disabled":false,"rental_uris":{"android":"levelo://app?vid=b13858bb-7c44-42c9-9f81-cd83b80c4cec","ios":"levelo://app?vid=b13858bb-7c44-42c9-9f81-cd83b80c4cec"},"vehicle_type_id":"4","last_reported":1740510460,"current_range_meters":6400,"station_id":"ce4bhmh2rcd13ifvqgmg","pricing_plan_id":"cebpf4jnsgd1na2vs0mg"},{"bike_id":"432f7b5e-d7d0-4d61-9ca5-880bd04e8fc5","system_id":"levelo_inurba_marseille","lat":43.27854,"lon":5.39217,"is_reserved":false,"is_disabled":false,"rental_uris":{"android":"levelo://app?vid=432f7b5e-d7d0-4d61-9ca5-880bd04e8fc5","ios":"levelo://app?vid=432f7b5e-d7d0-4d61-9ca5-880bd04e8fc5"},"vehicle_type_id":"4","last_reported":1740510460,"current_range_meters":6400,"station_id":"ce4bhjp2rcd13ifvqga0","pricing_plan_id":"cebpf4jnsgd1na2vs0mg"},{"bike_id":"f69468f2-b10e-49e1-bc5a-b291f222d396","system_id":"levelo_inurba_marseille","lat":43.28931,"lon":5.38382,"is_reserved":false,"is_disabled":false,"rental_uris":{"android":"levelo://app?vid=f69468f2-b10e-49e1-bc5a-b291f222d396","ios":"levelo://app?vid=f69468f2-b10e-49e1-bc5a-b291f222d396"},"vehicle_type_id":"4","last_reported":1740510460,"current_range_meters":6800,"station_id":"ce4bh612rcd13ifvqe6g","pricing_plan_id":"cebpf4jnsgd1na2vs0mg"},{"bike_id":"755a0161-62b4-4833-ab12-ccd6ceb6dd1f","system_id":"levelo_inurba_marseille","lat":43.30931,"lon":5.40161,"is_reserved":false,"is_disabled":true,"rental_uris":{"android":"levelo://app?vid=755a0161-62b4-4833-ab12-ccd6ceb6dd1f","ios":"levelo://app?vid=755a0161-62b4-4833-ab12-ccd6ceb6dd1f"},"vehicle_type_id":"4","last_reported":1740510460,"current_range_meters":6400,"station_id":"ce4bgvp2rcd13ifvqct0","pricing_plan_id":"cebpf4jnsgd1na2vs0mg"},{"bike_id":"1505eec7-eeb7-4e2f-99fe-a409e6d4ac68","system_id":"levelo_inurba_marseille","lat":43.28405,"lon":5.37537,"is_reserved":false,"is_disabled":false,"rental_uris":{"android":"levelo://app?vid=1505eec7-eeb7-4e2f-99fe-a409e6d4ac68","ios":"levelo://app?vid=1505eec7-eeb7-4e2f-99fe-a409e6d4ac68"},"vehicle_type_id":"4","last_reported":1740510460,"current_range_meters":6800,"station_id":"ce4bh412rcd13ifvqds0","pricing_plan_id":"cebpf4jnsgd1na2vs0mg"},{"bike_id":"eca5959f-ee34-40c3-8410-160ba8599d0c","system_id":"levelo_inurba_marseille","lat":43.31366,"lon":5.38498,"is_reserved":false,"is_disabled":false,"rental_uris":{"android":"levelo://app?vid=eca5959f-ee34-40c3-8410-160ba8599d0c","ios":"levelo://app?vid=eca5959f-ee34-40c3-8410-160ba8599d0c"},"vehicle_type_id":"4","last_reported":1740510460,"current_range_meters":6800,"station_id":"ce4bgt92rcd13ifvqcf0","pricing_plan_id":"cebpf4jnsgd1na2vs0mg"},{"bike_id":"2ab7bb4c-bf7e-43c7-982c-600e2fb2e61c","system_id":"levelo_inurba_marseille","lat":43.28681,"lon":5.38662,"is_reserved":false,"is_disabled":false,"rental_uris":{"android":"levelo://app?vid=2ab7bb4c-bf7e-43c7-982c-600e2fb2e61c","ios":"levelo://app?vid=2ab7bb4c-bf7e-43c7-982c-600e2fb2e61c"},"vehicle_type_id":"4","last_reported":1740510460,"current_range_meters":6800,"station_id":"ce4bh492rcd13ifvqdug","pricing_plan_id":"cebpf4jnsgd1na2vs0mg"},{"bike_id":"5685bf32-cc0f-4051-b823-63753b2887bd","system_id":"levelo_inurba_marseille","lat":43.28268,"lon":5.35076,"is_reserved":false,"is_disabled":false,"rental_uris":{"android":"levelo://app?vid=5685bf32-cc0f-4051-b823-63753b2887bd","ios":"levelo://app?vid=5685bf32-cc0f-4051-b823-63753b2887bd"},"vehicle_type_id":"4","last_reported":1740510460,"current_range_meters":0,"station_id":"ce4bhbp2rcd13ifvqerg","pricing_plan_id":"cebpf4jnsgd1na2vs0mg"},{"bike_id":"a6b101df-9305-4f73-aa24-2f27e72e9cdf","system_id":"levelo_inurba_marseille","lat":43.30457,"lon":5.37894,"is_reserved":false,"is_disabled":false,"rental_uris":{"android":"levelo://app?vid=a6b101df-9305-4f73-aa24-2f27e72e9cdf","ios":"levelo://app?vid=a6b101df-9305-4f73-aa24-2f27e72e9cdf"},"vehicle_type_id":"4","last_reported":1740510460,"current_range_meters":1600,"station_id":"ce4bgup2rcd13ifvqcn0","pricing_plan_id":"cebpf4jnsgd1na2vs0mg"},{"bike_id":"b10cc2ca-5018-4b31-bab2-a89ad9228ca7","system_id":"levelo_inurba_marseille","lat":43.27066,"lon":5.40271,"is_reserved":false,"is_disabled":false,"rental_uris":{"android":"levelo://app?vid=b10cc2ca-5018-4b31-bab2-a89ad9228ca7","ios":"levelo://app?vid=b10cc2ca-5018-4b31-bab2-a89ad9228ca7"},"vehicle_type_id":"4","last_reported":1740510460,"current_range_meters":6800,"station_id":"ce4bhk92rcd13ifvqgc0","pricing_plan_id":"cebpf4jnsgd1na2vs0mg"},{"bike_id":"2f6ab881-ac12-4963-8366-1538edb031c1","system_id":"levelo_inurba_marseille","lat":43.312691,"lon":5.401734,"is_reserved":false,"is_disabled":false,"rental_uris":{"android":"levelo://app?vid=2f6ab881-ac12-4963-8366-1538edb031c1","ios":"levelo://app?vid=2f6ab881-ac12-4963-8366-1538edb031c1"},"vehicle_type_id":"4","last_reported":1740510460,"current_range_meters":6800,"station_id":"ce4bh092rcd13ifvqd30","pricing_plan_id":"cebpf4jnsgd1na2vs0mg"},{"bike_id":"38b274ce-9909-4fc1-8760-435de8af0660","system_id":"levelo_inurba_marseille","lat":43.31366,"lon":5.38492,"is_reserved":false,"is_disabled":false,"rental_uris":{"android":"levelo://app?vid=38b274ce-9909-4fc1-8760-435de8af0660","ios":"levelo://app?vid=38b274ce-9909-4fc1-8760-435de8af0660"},"vehicle_type_id":"4","last_reported":1740510460,"current_range_meters":6800,"station_id":"ce4bgt92rcd13ifvqcf0","pricing_plan_id":"cebpf4jnsgd1na2vs0mg"},{"bike_id":"1c8236a9-96fb-443c-bf9a-d26ed00cc14f","system_id":"levelo_inurba_marseille","lat":43.24632,"lon":5.38194,"is_reserved":false,"is_disabled":false,"rental_uris":{"android":"levelo://app?vid=1c8236a9-96fb-443c-bf9a-d26ed00cc14f","ios":"levelo://app?vid=1c8236a9-96fb-443c-bf9a-d26ed00cc14f"},"vehicle_type_id":"4","last_reported":1740510460,"current_range_meters":6800,"station_id":"ce4bhih2rcd13ifvqfr0","pricing_plan_id":"cebpf4jnsgd1na2vs0mg"},{"bike_id":"28fec105-80d6-49d1-bda1-860778080a9c","system_id":"levelo_inurba_marseille","lat":43.29194,"lon":5.35796,"is_reserved":false,"is_disabled":false,"rental_uris":{"android":"levelo://app?vid=28fec105-80d6-49d1-bda1-860778080a9c","ios":"levelo://app?vid=28fec105-80d6-49d1-bda1-860778080a9c"},"vehicle_type_id":"4","last_reported":1740510460,"current_range_meters":7200,"station_id":"ce4bhb12rcd13ifvqel0","pricing_plan_id":"cebpf4jnsgd1na2vs0mg"},{"bike_id":"4752155f-d629-4be3-87e1-5756b7c13ced","system_id":"levelo_inurba_marseille","lat":43.30226,"lon":5.3948,"is_reserved":false,"is_disabled":false,"rental_uris":{"android":"levelo://app?vid=4752155f-d629-4be3-87e1-5756b7c13ced","ios":"levelo://app?vid=4752155f-d629-4be3-87e1-5756b7c13ced"},"vehicle_type_id":"4","last_reported":1740510460,"current_range_meters":6800,"station_id":"ce4bh0p2rcd13ifvqd70","pricing_plan_id":"cebpf4jnsgd1na2vs0mg"},{"bike_id":"7b320f13-55f6-4dc6-b0ad-9bd62a123951","system_id":"levelo_inurba_marseille","lat":43.28939,"lon":5.36632,"is_reserved":false,"is_disabled":false,"rental_uris":{"android":"levelo://app?vid=7b320f13-55f6-4dc6-b0ad-9bd62a123951","ios":"levelo://app?vid=7b320f13-55f6-4dc6-b0ad-9bd62a123951"},"vehicle_type_id":"4","last_reported":1740510460,"current_range_meters":7200,"station_id":"ce4bhap2rcd13ifvqek0","pricing_plan_id":"cebpf4jnsgd1na2vs0mg"},{"bike_id":"56a05065-ca08-43e8-a39d-ee73850d3d7c","system_id":"levelo_inurba_marseille","lat":43.29874,"lon":5.39729,"is_reserved":false,"is_disabled":false,"rental_uris":{"android":"levelo://app?vid=56a05065-ca08-43e8-a39d-ee73850d3d7c","ios":"levelo://app?vid=56a05065-ca08-43e8-a39d-ee73850d3d7c"},"vehicle_type_id":"4","last_reported":1740510460,"current_range_meters":7200,"station_id":"ce4bh0h2rcd13ifvqd50","pricing_plan_id":"cebpf4jnsgd1na2vs0mg"},{"bike_id":"5b1330cb-9e0c-4ecb-a5f4-98cf52af9afc","system_id":"levelo_inurba_marseille","lat":43.2571,"lon":5.41111,"is_reserved":false,"is_disabled":false,"rental_uris":{"android":"levelo://app?vid=5b1330cb-9e0c-4ecb-a5f4-98cf52af9afc","ios":"levelo://app?vid=5b1330cb-9e0c-4ecb-a5f4-98cf52af9afc"},"vehicle_type_id":"4","last_reported":1740510460,"current_range_meters":7200,"station_id":"ce4bhkp2rcd13ifvqgd0","pricing_plan_id":"cebpf4jnsgd1na2vs0mg"},{"bike_id":"c9cb5bfd-bbe8-4755-801f-25da0bd6135b","system_id":"levelo_inurba_marseille","lat":43.30213,"lon":5.39476,"is_reserved":false,"is_disabled":false,"rental_uris":{"android":"levelo://app?vid=c9cb5bfd-bbe8-4755-801f-25da0bd6135b","ios":"levelo://app?vid=c9cb5bfd-bbe8-4755-801f-25da0bd6135b"},"vehicle_type_id":"4","last_reported":1740510460,"current_range_meters":7200,"station_id":"ce4bh0p2rcd13ifvqd70","pricing_plan_id":"cebpf4jnsgd1na2vs0mg"},{"bike_id":"0a72916f-db65-4d32-976f-b2305f3c3331","system_id":"levelo_inurba_marseille","lat":43.31759,"lon":5.39027,"is_reserved":false,"is_disabled":false,"rental_uris":{"android":"levelo://app?vid=0a72916f-db65-4d32-976f-b2305f3c3331","ios":"levelo://app?vid=0a72916f-db65-4d32-976f-b2305f3c3331"},"vehicle_type_id":"4","last_reported":1740510460,"current_range_meters":7200,"station_id":"ce4bhqp2rcd13ifvqhng","pricing_plan_id":"cebpf4jnsgd1na2vs0mg"},{"bike_id":"b0319319-1ae3-4867-bf81-d240c9f190cb","system_id":"levelo_inurba_marseille","lat":43.28619,"lon":5.35103,"is_reserved":false,"is_disabled":false,"rental_uris":{"android":"levelo://app?vid=b0319319-1ae3-4867-bf81-d240c9f190cb","ios":"levelo://app?vid=b0319319-1ae3-4867-bf81-d240c9f190cb"},"vehicle_type_id":"4","last_reported":1740510460,"current_range_meters":7200,"station_id":"ce4bhch2rcd13ifvqeug","pricing_plan_id":"cebpf4jnsgd1na2vs0mg"},{"bike_id":"41260a77-dbbe-413d-beb4-16794eeabb97","system_id":"levelo_inurba_marseille","lat":43.31113,"lon":5.37757,"is_reserved":false,"is_disabled":false,"rental_uris":{"android":"levelo://app?vid=41260a77-dbbe-413d-beb4-16794eeabb97","ios":"levelo://app?vid=41260a77-dbbe-413d-beb4-16794eeabb97"},"vehicle_type_id":"4","last_reported":1740510460,"current_range_meters":11200,"station_id":"ce4bgt92rcd13ifvqcg0","pricing_plan_id":"cebpf4jnsgd1na2vs0mg"},{"bike_id":"48043528-c521-4656-ac42-dd4891924259","system_id":"levelo_inurba_marseille","lat":43.28533,"lon":5.3839,"is_reserved":false,"is_disabled":false,"rental_uris":{"android":"levelo://app?vid=48043528-c521-4656-ac42-dd4891924259","ios":"levelo://app?vid=48043528-c521-4656-ac42-dd4891924259"},"vehicle_type_id":"4","last_reported":1740510460,"current_range_meters":8000,"station_id":"","pricing_plan_id":"cebpf4jnsgd1na2vs0mg"},{"bike_id":"304f5339-be53-4a12-b2c8-23763a0731d5","system_id":"levelo_inurba_marseille","lat":43.29417,"lon":5.38622,"is_reserved":false,"is_disabled":false,"rental_uris":{"android":"levelo://app?vid=304f5339-be53-4a12-b2c8-23763a0731d5","ios":"levelo://app?vid=304f5339-be53-4a12-b2c8-23763a0731d5"},"vehicle_type_id":"4","last_reported":1740510460,"current_range_meters":8000,"station_id":"ce4bh2h2rcd13ifvqdh0","pricing_plan_id":"cebpf4jnsgd1na2vs0mg"},{"bike_id":"80dcec99-d14d-454c-af74-799686309b71","system_id":"levelo_inurba_marseille","lat":43.282673,"lon":5.350644,"is_reserved":false,"is_disabled":false,"rental_uris":{"android":"levelo://app?vid=80dcec99-d14d-454c-af74-799686309b71","ios":"levelo://app?vid=80dcec99-d14d-454c-af74-799686309b71"},"vehicle_type_id":"4","last_reported":1740510460,"current_range_meters":8000,"station_id":"ce4bhbp2rcd13ifvqerg","pricing_plan_id":"cebpf4jnsgd1na2vs0mg"},{"bike_id":"0a4b622a-f31c-4746-a586-f0a268701101","system_id":"levelo_inurba_marseille","lat":43.26952,"lon":5.38635,"is_reserved":false,"is_disabled":false,"rental_uris":{"android":"levelo://app?vid=0a4b622a-f31c-4746-a586-f0a268701101","ios":"levelo://app?vid=0a4b622a-f31c-4746-a586-f0a268701101"},"vehicle_type_id":"4","last_reported":1740510460,"current_range_meters":8000,"station_id":"ce4bhh92rcd13ifvqfh0","pricing_plan_id":"cebpf4jnsgd1na2vs0mg"},{"bike_id":"c8f6faae-dbfc-411f-a1fd-4f0f5be0d6d1","system_id":"levelo_inurba_marseille","lat":43.3173,"lon":5.42395,"is_reserved":false,"is_disabled":false,"rental_uris":{"android":"levelo://app?vid=c8f6faae-dbfc-411f-a1fd-4f0f5be0d6d1","ios":"levelo://app?vid=c8f6faae-dbfc-411f-a1fd-4f0f5be0d6d1"},"vehicle_type_id":"4","last_reported":1740510460,"current_range_meters":8000,"station_id":"ce4bhp92rcd13ifvqhbg","pricing_plan_id":"cebpf4jnsgd1na2vs0mg"},{"bike_id":"146aebc9-098b-47c2-b26e-46c1350561bc","system_id":"levelo_inurba_marseille","lat":43.33767,"lon":5.37482,"is_reserved":false,"is_disabled":false,"rental_uris":{"android":"levelo://app?vid=146aebc9-098b-47c2-b26e-46c1350561bc","ios":"levelo://app?vid=146aebc9-098b-47c2-b26e-46c1350561bc"},"vehicle_type_id":"4","last_reported":1740510460,"current_range_meters":8000,"station_id":"","pricing_plan_id":"cebpf4jnsgd1na2vs0mg"},{"bike_id":"652e010c-c05f-4832-a370-b768a2682f44","system_id":"levelo_inurba_marseille","lat":43.32339,"lon":5.3875,"is_reserved":false,"is_disabled":false,"rental_uris":{"android":"levelo://app?vid=652e010c-c05f-4832-a370-b768a2682f44","ios":"levelo://app?vid=652e010c-c05f-4832-a370-b768a2682f44"},"vehicle_type_id":"4","last_reported":1740510460,"current_range_meters":8000,"station_id":"","pricing_plan_id":"cebpf4jnsgd1na2vs0mg"},{"bike_id":"5162c2ce-a731-4d3b-a21a-a1c8cb63150f","system_id":"levelo_inurba_marseille","lat":43.31721,"lon":5.43704,"is_reserved":false,"is_disabled":false,"rental_uris":{"android":"levelo://app?vid=5162c2ce-a731-4d3b-a21a-a1c8cb63150f","ios":"levelo://app?vid=5162c2ce-a731-4d3b-a21a-a1c8cb63150f"},"vehicle_type_id":"4","last_reported":1740510460,"current_range_meters":8000,"station_id":"ce4bhp92rcd13ifvqhcg","pricing_plan_id":"cebpf4jnsgd1na2vs0mg"},{"bike_id":"5d16d1bf-f6ed-4f5b-bb86-2af7c04f4aef","system_id":"levelo_inurba_marseille","lat":43.25728,"lon":5.41088,"is_reserved":false,"is_disabled":false,"rental_uris":{"android":"levelo://app?vid=5d16d1bf-f6ed-4f5b-bb86-2af7c04f4aef","ios":"levelo://app?vid=5d16d1bf-f6ed-4f5b-bb86-2af7c04f4aef"},"vehicle_type_id":"4","last_reported":1740510460,"current_range_meters":8000,"station_id":"ce4bhkp2rcd13ifvqgd0","pricing_plan_id":"cebpf4jnsgd1na2vs0mg"},{"bike_id":"f58a2741-fe1f-45fe-86a7-94e1e33b8745","system_id":"levelo_inurba_marseille","lat":43.31117,"lon":5.37793,"is_reserved":false,"is_disabled":false,"rental_uris":{"android":"levelo://app?vid=f58a2741-fe1f-45fe-86a7-94e1e33b8745","ios":"levelo://app?vid=f58a2741-fe1f-45fe-86a7-94e1e33b8745"},"vehicle_type_id":"4","last_reported":1740510460,"current_range_meters":8400,"station_id":"ce4bgt92rcd13ifvqcg0","pricing_plan_id":"cebpf4jnsgd1na2vs0mg"},{"bike_id":"a717c824-9073-4e1f-a559-5157596f57a8","system_id":"levelo_inurba_marseille","lat":43.31085,"lon":5.42429,"is_reserved":false,"is_disabled":false,"rental_uris":{"android":"levelo://app?vid=a717c824-9073-4e1f-a559-5157596f57a8","ios":"levelo://app?vid=a717c824-9073-4e1f-a559-5157596f57a8"},"vehicle_type_id":"4","last_reported":1740510460,"current_range_meters":8400,"station_id":"ce4bhp92rcd13ifvqhag","pricing_plan_id":"cebpf4jnsgd1na2vs0mg"},{"bike_id":"bfa58929-dbec-4104-b89e-3eb4821db5ea","system_id":"levelo_inurba_marseille","lat":43.30241,"lon":5.4005,"is_reserved":false,"is_disabled":false,"rental_uris":{"android":"levelo://app?vid=bfa58929-dbec-4104-b89e-3eb4821db5ea","ios":"levelo://app?vid=bfa58929-dbec-4104-b89e-3eb4821db5ea"},"vehicle_type_id":"4","last_reported":1740510460,"current_range_meters":4400,"station_id":"ce4bgvh2rcd13ifvqcs0","pricing_plan_id":"cebpf4jnsgd1na2vs0mg"},{"bike_id":"756989b1-c347-4776-bce4-8b7b90a36817","system_id":"levelo_inurba_marseille","lat":43.241912,"lon":5.365987,"is_reserved":false,"is_disabled":false,"rental_uris":{"android":"levelo://app?vid=756989b1-c347-4776-bce4-8b7b90a36817","ios":"levelo://app?vid=756989b1-c347-4776-bce4-8b7b90a36817"},"vehicle_type_id":"4","last_reported":1740510460,"current_range_meters":8400,"station_id":"ce4bhn12rcd13ifvqgqg","pricing_plan_id":"cebpf4jnsgd1na2vs0mg"},{"bike_id":"d07d54ba-edb9-4f75-a5db-cdde2657068d","system_id":"levelo_inurba_marseille","lat":43.27814,"lon":5.40722,"is_reserved":false,"is_disabled":false,"rental_uris":{"android":"levelo://app?vid=d07d54ba-edb9-4f75-a5db-cdde2657068d","ios":"levelo://app?vid=d07d54ba-edb9-4f75-a5db-cdde2657068d"},"vehicle_type_id":"4","last_reported":1740510460,"current_range_meters":8400,"station_id":"ce4bhnh2rcd13ifvqgtg","pricing_plan_id":"cebpf4jnsgd1na2vs0mg"},{"bike_id":"f96acd23-94c6-4bca-bd9c-20af06cdebd3","system_id":"levelo_inurba_marseille","lat":43.29554,"lon":5.42295,"is_reserved":false,"is_disabled":false,"rental_uris":{"android":"levelo://app?vid=f96acd23-94c6-4bca-bd9c-20af06cdebd3","ios":"levelo://app?vid=f96acd23-94c6-4bca-bd9c-20af06cdebd3"},"vehicle_type_id":"4","last_reported":1740510460,"current_range_meters":8000,"station_id":"ce4bhph2rcd13ifvqhdg","pricing_plan_id":"cebpf4jnsgd1na2vs0mg"},{"bike_id":"f68412b5-c390-424f-83a3-b5bffea3ef1b","system_id":"levelo_inurba_marseille","lat":43.28347,"lon":5.38652,"is_reserved":false,"is_disabled":false,"rental_uris":{"android":"levelo://app?vid=f68412b5-c390-424f-83a3-b5bffea3ef1b","ios":"levelo://app?vid=f68412b5-c390-424f-83a3-b5bffea3ef1b"},"vehicle_type_id":"4","last_reported":1740510460,"current_range_meters":1600,"station_id":"ce4bh492rcd13ifvqdvg","pricing_plan_id":"cebpf4jnsgd1na2vs0mg"},{"bike_id":"15687dd2-750d-48c0-8708-307cedd0f40d","system_id":"levelo_inurba_marseille","lat":43.29629,"lon":5.40588,"is_reserved":false,"is_disabled":false,"rental_uris":{"android":"levelo://app?vid=15687dd2-750d-48c0-8708-307cedd0f40d","ios":"levelo://app?vid=15687dd2-750d-48c0-8708-307cedd0f40d"},"vehicle_type_id":"4","last_reported":1740510460,"current_range_meters":8800,"station_id":"ce4bh0h2rcd13ifvqd60","pricing_plan_id":"cebpf4jnsgd1na2vs0mg"},{"bike_id":"66c4e27d-fd15-4e96-8910-1916ae6d5d49","system_id":"levelo_inurba_marseille","lat":43.28461,"lon":5.35893,"is_reserved":false,"is_disabled":false,"rental_uris":{"android":"levelo://app?vid=66c4e27d-fd15-4e96-8910-1916ae6d5d49","ios":"levelo://app?vid=66c4e27d-fd15-4e96-8910-1916ae6d5d49"},"vehicle_type_id":"4","last_reported":1740510460,"current_range_meters":8400,"station_id":"ce4bhah2rcd13ifvqei0","pricing_plan_id":"cebpf4jnsgd1na2vs0mg"},{"bike_id":"f80ae02a-2634-4648-af62-475ab70cb732","system_id":"levelo_inurba_marseille","lat":43.28287,"lon":5.35099,"is_reserved":false,"is_disabled":false,"rental_uris":{"android":"levelo://app?vid=f80ae02a-2634-4648-af62-475ab70cb732","ios":"levelo://app?vid=f80ae02a-2634-4648-af62-475ab70cb732"},"vehicle_type_id":"4","last_reported":1740510460,"current_range_meters":8400,"station_id":"ce4bhbp2rcd13ifvqerg","pricing_plan_id":"cebpf4jnsgd1na2vs0mg"},{"bike_id":"f0d9f04c-ad9d-420c-8364-57b1241a2260","system_id":"levelo_inurba_marseille","lat":43.29263,"lon":5.38437,"is_reserved":false,"is_disabled":false,"rental_uris":{"android":"levelo://app?vid=f0d9f04c-ad9d-420c-8364-57b1241a2260","ios":"levelo://app?vid=f0d9f04c-ad9d-420c-8364-57b1241a2260"},"vehicle_type_id":"4","last_reported":1740510460,"current_range_meters":8800,"station_id":"ce4bh692rcd13ifvqea0","pricing_plan_id":"cebpf4jnsgd1na2vs0mg"},{"bike_id":"ceff7498-623c-49c6-b291-d6b8b533e34e","system_id":"levelo_inurba_marseille","lat":43.323743,"lon":5.388882,"is_reserved":false,"is_disabled":false,"rental_uris":{"android":"levelo://app?vid=ceff7498-623c-49c6-b291-d6b8b533e34e","ios":"levelo://app?vid=ceff7498-623c-49c6-b291-d6b8b533e34e"},"vehicle_type_id":"4","last_reported":1740510460,"current_range_meters":8400,"station_id":"ce4bhqp2rcd13ifvqhog","pricing_plan_id":"cebpf4jnsgd1na2vs0mg"},{"bike_id":"5fbaf1e2-789f-4403-ae92-8da0f51da3be","system_id":"levelo_inurba_marseille","lat":43.28459,"lon":5.35875,"is_reserved":false,"is_disabled":false,"rental_uris":{"android":"levelo://app?vid=5fbaf1e2-789f-4403-ae92-8da0f51da3be","ios":"levelo://app?vid=5fbaf1e2-789f-4403-ae92-8da0f51da3be"},"vehicle_type_id":"4","last_reported":1740510460,"current_range_meters":8400,"station_id":"ce4bhah2rcd13ifvqei0","pricing_plan_id":"cebpf4jnsgd1na2vs0mg"},{"bike_id":"ad15a503-e243-4704-8cbb-77d92c75e1d9","system_id":"levelo_inurba_marseille","lat":43.28438,"lon":5.39207,"is_reserved":false,"is_disabled":true,"rental_uris":{"android":"levelo://app?vid=ad15a503-e243-4704-8cbb-77d92c75e1d9","ios":"levelo://app?vid=ad15a503-e243-4704-8cbb-77d92c75e1d9"},"vehicle_type_id":"4","last_reported":1740510460,"current_range_meters":8400,"station_id":"ce4bhoh2rcd13ifvqh5g","pricing_plan_id":"cebpf4jnsgd1na2vs0mg"},{"bike_id":"0bdacb3b-636e-4472-bcd4-c33b5aaeed1f","system_id":"levelo_inurba_marseille","lat":43.295962,"lon":5.404333,"is_reserved":false,"is_disabled":false,"rental_uris":{"android":"levelo://app?vid=0bdacb3b-636e-4472-bcd4-c33b5aaeed1f","ios":"levelo://app?vid=0bdacb3b-636e-4472-bcd4-c33b5aaeed1f"},"vehicle_type_id":"4","last_reported":1740510460,"current_range_meters":8400,"station_id":"ce4bh0h2rcd13ifvqd60","pricing_plan_id":"cebpf4jnsgd1na2vs0mg"},{"bike_id":"fb275735-4bf3-4a95-9535-54ae1690eb49","system_id":"levelo_inurba_marseille","lat":43.29422,"lon":5.38628,"is_reserved":false,"is_disabled":false,"rental_uris":{"android":"levelo://app?vid=fb275735-4bf3-4a95-9535-54ae1690eb49","ios":"levelo://app?vid=fb275735-4bf3-4a95-9535-54ae1690eb49"},"vehicle_type_id":"4","last_reported":1740510460,"current_range_meters":8400,"station_id":"ce4bh2h2rcd13ifvqdh0","pricing_plan_id":"cebpf4jnsgd1na2vs0mg"},{"bike_id":"3663f829-7050-4e49-be23-5885b47d0581","system_id":"levelo_inurba_marseille","lat":43.29527,"lon":5.39381,"is_reserved":false,"is_disabled":false,"rental_uris":{"android":"levelo://app?vid=3663f829-7050-4e49-be23-5885b47d0581","ios":"levelo://app?vid=3663f829-7050-4e49-be23-5885b47d0581"},"vehicle_type_id":"4","last_reported":1740510460,"current_range_meters":8400,"station_id":"ce4bh292rcd13ifvqdf0","pricing_plan_id":"cebpf4jnsgd1na2vs0mg"},{"bike_id":"e60c3d7a-558d-40da-9213-6b846f4e8868","system_id":"levelo_inurba_marseille","lat":43.28153,"lon":5.42654,"is_reserved":false,"is_disabled":false,"rental_uris":{"android":"levelo://app?vid=e60c3d7a-558d-40da-9213-6b846f4e8868","ios":"levelo://app?vid=e60c3d7a-558d-40da-9213-6b846f4e8868"},"vehicle_type_id":"4","last_reported":1740510460,"current_range_meters":9200,"station_id":"ce4bhnh2rcd13ifvqgug","pricing_plan_id":"cebpf4jnsgd1na2vs0mg"},{"bike_id":"30b3586f-3255-4f32-a11e-691dc41b0e72","system_id":"levelo_inurba_marseille","lat":43.31752,"lon":5.39015,"is_reserved":false,"is_disabled":false,"rental_uris":{"android":"levelo://app?vid=30b3586f-3255-4f32-a11e-691dc41b0e72","ios":"levelo://app?vid=30b3586f-3255-4f32-a11e-691dc41b0e72"},"vehicle_type_id":"4","last_reported":1740510460,"current_range_meters":8400,"station_id":"ce4bhqp2rcd13ifvqhng","pricing_plan_id":"cebpf4jnsgd1na2vs0mg"},{"bike_id":"b3be3741-6ba0-4c85-bada-5d60cd637267","system_id":"levelo_inurba_marseille","lat":43.28153,"lon":5.42641,"is_reserved":false,"is_disabled":false,"rental_uris":{"android":"levelo://app?vid=b3be3741-6ba0-4c85-bada-5d60cd637267","ios":"levelo://app?vid=b3be3741-6ba0-4c85-bada-5d60cd637267"},"vehicle_type_id":"4","last_reported":1740510460,"current_range_meters":8800,"station_id":"ce4bhnh2rcd13ifvqgug","pricing_plan_id":"cebpf4jnsgd1na2vs0mg"},{"bike_id":"cab3eebf-52b7-4912-84a6-128a88d69344","system_id":"levelo_inurba_marseille","lat":43.29034,"lon":5.35907,"is_reserved":false,"is_disabled":false,"rental_uris":{"android":"levelo://app?vid=cab3eebf-52b7-4912-84a6-128a88d69344","ios":"levelo://app?vid=cab3eebf-52b7-4912-84a6-128a88d69344"},"vehicle_type_id":"4","last_reported":1740510460,"current_range_meters":9600,"station_id":"ce4bha92rcd13ifvqeg0","pricing_plan_id":"cebpf4jnsgd1na2vs0mg"},{"bike_id":"a8692879-7eca-4d99-8e8d-c7aaad0f16fb","system_id":"levelo_inurba_marseille","lat":43.24794,"lon":5.37456,"is_reserved":false,"is_disabled":false,"rental_uris":{"android":"levelo://app?vid=a8692879-7eca-4d99-8e8d-c7aaad0f16fb","ios":"levelo://app?vid=a8692879-7eca-4d99-8e8d-c7aaad0f16fb"},"vehicle_type_id":"4","last_reported":1740510460,"current_range_meters":9200,"station_id":"ce4bhgh2rcd13ifvqfb0","pricing_plan_id":"cebpf4jnsgd1na2vs0mg"},{"bike_id":"85d00345-c715-4926-bd45-97ffd1b30a35","system_id":"levelo_inurba_marseille","lat":43.29544,"lon":5.38545,"is_reserved":false,"is_disabled":false,"rental_uris":{"android":"levelo://app?vid=85d00345-c715-4926-bd45-97ffd1b30a35","ios":"levelo://app?vid=85d00345-c715-4926-bd45-97ffd1b30a35"},"vehicle_type_id":"4","last_reported":1740510460,"current_range_meters":9200,"station_id":"ce4bgih2rcd13ifvqba0","pricing_plan_id":"cebpf4jnsgd1na2vs0mg"},{"bike_id":"7ce94ac4-8de9-4d22-ab59-fafd5d4ddae0","system_id":"levelo_inurba_marseille","lat":43.28006,"lon":5.39995,"is_reserved":false,"is_disabled":false,"rental_uris":{"android":"levelo://app?vid=7ce94ac4-8de9-4d22-ab59-fafd5d4ddae0","ios":"levelo://app?vid=7ce94ac4-8de9-4d22-ab59-fafd5d4ddae0"},"vehicle_type_id":"4","last_reported":1740510460,"current_range_meters":9200,"station_id":"ce4bho92rcd13ifvqh4g","pricing_plan_id":"cebpf4jnsgd1na2vs0mg"},{"bike_id":"04fed40f-6366-4adc-8110-34cd72fc4be4","system_id":"levelo_inurba_marseille","lat":43.28459,"lon":5.35889,"is_reserved":false,"is_disabled":false,"rental_uris":{"android":"levelo://app?vid=04fed40f-6366-4adc-8110-34cd72fc4be4","ios":"levelo://app?vid=04fed40f-6366-4adc-8110-34cd72fc4be4"},"vehicle_type_id":"4","last_reported":1740510460,"current_range_meters":9200,"station_id":"ce4bhah2rcd13ifvqei0","pricing_plan_id":"cebpf4jnsgd1na2vs0mg"},{"bike_id":"e5c275a2-a964-47d8-9489-ed1126cf4cef","system_id":"levelo_inurba_marseille","lat":43.29612,"lon":5.37901,"is_reserved":false,"is_disabled":false,"rental_uris":{"android":"levelo://app?vid=e5c275a2-a964-47d8-9489-ed1126cf4cef","ios":"levelo://app?vid=e5c275a2-a964-47d8-9489-ed1126cf4cef"},"vehicle_type_id":"4","last_reported":1740510460,"current_range_meters":9600,"station_id":"","pricing_plan_id":"cebpf4jnsgd1na2vs0mg"},{"bike_id":"4e0cf8bd-c07f-4024-ad2c-467e34e3d69f","system_id":"levelo_inurba_marseille","lat":43.25693,"lon":5.39409,"is_reserved":false,"is_disabled":false,"rental_uris":{"android":"levelo://app?vid=4e0cf8bd-c07f-4024-ad2c-467e34e3d69f","ios":"levelo://app?vid=4e0cf8bd-c07f-4024-ad2c-467e34e3d69f"},"vehicle_type_id":"4","last_reported":1740510460,"current_range_meters":9200,"station_id":"ce4bhdp2rcd13ifvqf20","pricing_plan_id":"cebpf4jnsgd1na2vs0mg"},{"bike_id":"ae8a19c6-d644-4dc9-829e-8caf6b1d2af0","system_id":"levelo_inurba_marseille","lat":43.27207,"lon":5.39197,"is_reserved":false,"is_disabled":true,"rental_uris":{"android":"levelo://app?vid=ae8a19c6-d644-4dc9-829e-8caf6b1d2af0","ios":"levelo://app?vid=ae8a19c6-d644-4dc9-829e-8caf6b1d2af0"},"vehicle_type_id":"4","last_reported":1740510460,"current_range_meters":9200,"station_id":"ce4bhhp2rcd13ifvqfm0","pricing_plan_id":"cebpf4jnsgd1na2vs0mg"},{"bike_id":"259ecab0-ad76-47c2-9128-62ea3fed1871","system_id":"levelo_inurba_marseille","lat":43.28707,"lon":5.37923,"is_reserved":false,"is_disabled":false,"rental_uris":{"android":"levelo://app?vid=259ecab0-ad76-47c2-9128-62ea3fed1871","ios":"levelo://app?vid=259ecab0-ad76-47c2-9128-62ea3fed1871"},"vehicle_type_id":"4","last_reported":1740510460,"current_range_meters":9200,"station_id":"ce4bh9p2rcd13ifvqec0","pricing_plan_id":"cebpf4jnsgd1na2vs0mg"},{"bike_id":"8f9c93fb-eeee-46b2-a0ee-c43c3d59dd96","system_id":"levelo_inurba_marseille","lat":43.28157,"lon":5.42665,"is_reserved":false,"is_disabled":false,"rental_uris":{"android":"levelo://app?vid=8f9c93fb-eeee-46b2-a0ee-c43c3d59dd96","ios":"levelo://app?vid=8f9c93fb-eeee-46b2-a0ee-c43c3d59dd96"},"vehicle_type_id":"4","last_reported":1740510460,"current_range_meters":9200,"station_id":"ce4bhnh2rcd13ifvqgug","pricing_plan_id":"cebpf4jnsgd1na2vs0mg"},{"bike_id":"560a11d9-c852-4eb6-8784-5337bc2a9fee","system_id":"levelo_inurba_marseille","lat":43.3171,"lon":5.43706,"is_reserved":false,"is_disabled":false,"rental_uris":{"android":"levelo://app?vid=560a11d9-c852-4eb6-8784-5337bc2a9fee","ios":"levelo://app?vid=560a11d9-c852-4eb6-8784-5337bc2a9fee"},"vehicle_type_id":"4","last_reported":1740510460,"current_range_meters":9200,"station_id":"ce4bhp92rcd13ifvqhcg","pricing_plan_id":"cebpf4jnsgd1na2vs0mg"},{"bike_id":"83d9fc81-69e7-43a0-a5ea-b0db39f1dd63","system_id":"levelo_inurba_marseille","lat":43.324806,"lon":5.364933,"is_reserved":false,"is_disabled":false,"rental_uris":{"android":"levelo://app?vid=83d9fc81-69e7-43a0-a5ea-b0db39f1dd63","ios":"levelo://app?vid=83d9fc81-69e7-43a0-a5ea-b0db39f1dd63"},"vehicle_type_id":"4","last_reported":1740510460,"current_range_meters":14400,"station_id":"ce4bh412rcd13ifvqdr0","pricing_plan_id":"cebpf4jnsgd1na2vs0mg"},{"bike_id":"a9d47aa6-8e30-4f8e-94e8-63cdc2425d99","system_id":"levelo_inurba_marseille","lat":43.31072,"lon":5.38371,"is_reserved":false,"is_disabled":false,"rental_uris":{"android":"levelo://app?vid=a9d47aa6-8e30-4f8e-94e8-63cdc2425d99","ios":"levelo://app?vid=a9d47aa6-8e30-4f8e-94e8-63cdc2425d99"},"vehicle_type_id":"4","last_reported":1740510460,"current_range_meters":9600,"station_id":"ce4bgv92rcd13ifvqcr0","pricing_plan_id":"cebpf4jnsgd1na2vs0mg"},{"bike_id":"09a58a03-56f4-486c-a6f7-468f3332eea8","system_id":"levelo_inurba_marseille","lat":43.24544,"lon":5.39524,"is_reserved":false,"is_disabled":false,"rental_uris":{"android":"levelo://app?vid=09a58a03-56f4-486c-a6f7-468f3332eea8","ios":"levelo://app?vid=09a58a03-56f4-486c-a6f7-468f3332eea8"},"vehicle_type_id":"4","last_reported":1740510460,"current_range_meters":9600,"station_id":"ce4bhlp2rcd13ifvqgjg","pricing_plan_id":"cebpf4jnsgd1na2vs0mg"},{"bike_id":"9aa67cdf-b34d-42e3-9a4a-dbb162919a0c","system_id":"levelo_inurba_marseille","lat":43.30916,"lon":5.36845,"is_reserved":false,"is_disabled":false,"rental_uris":{"android":"levelo://app?vid=9aa67cdf-b34d-42e3-9a4a-dbb162919a0c","ios":"levelo://app?vid=9aa67cdf-b34d-42e3-9a4a-dbb162919a0c"},"vehicle_type_id":"4","last_reported":1740510460,"current_range_meters":10000,"station_id":"ce4bgn92rcd13ifvqbvg","pricing_plan_id":"cebpf4jnsgd1na2vs0mg"},{"bike_id":"b301d4a6-d7b2-4729-8a87-0ef1b2650231","system_id":"levelo_inurba_marseille","lat":43.30778,"lon":5.37655,"is_reserved":false,"is_disabled":false,"rental_uris":{"android":"levelo://app?vid=b301d4a6-d7b2-4729-8a87-0ef1b2650231","ios":"levelo://app?vid=b301d4a6-d7b2-4729-8a87-0ef1b2650231"},"vehicle_type_id":"4","last_reported":1740510460,"current_range_meters":10000,"station_id":"ce4bgv92rcd13ifvqcq0","pricing_plan_id":"cebpf4jnsgd1na2vs0mg"},{"bike_id":"a141b9ae-2c6e-41ff-a4a5-632b6f8fa821","system_id":"levelo_inurba_marseille","lat":43.2835,"lon":5.38125,"is_reserved":false,"is_disabled":false,"rental_uris":{"android":"levelo://app?vid=a141b9ae-2c6e-41ff-a4a5-632b6f8fa821","ios":"levelo://app?vid=a141b9ae-2c6e-41ff-a4a5-632b6f8fa821"},"vehicle_type_id":"4","last_reported":1740510460,"current_range_meters":10800,"station_id":"ce4bh412rcd13ifvqdr0","pricing_plan_id":"cebpf4jnsgd1na2vs0mg"},{"bike_id":"b8056528-61d4-45d9-b2dd-e6ab8ef50c51","system_id":"levelo_inurba_marseille","lat":43.31282,"lon":5.40172,"is_reserved":false,"is_disabled":false,"rental_uris":{"android":"levelo://app?vid=b8056528-61d4-45d9-b2dd-e6ab8ef50c51","ios":"levelo://app?vid=b8056528-61d4-45d9-b2dd-e6ab8ef50c51"},"vehicle_type_id":"4","last_reported":1740510460,"current_range_meters":10000,"station_id":"ce4bh092rcd13ifvqd30","pricing_plan_id":"cebpf4jnsgd1na2vs0mg"},{"bike_id":"cf9d3cab-95d6-4255-91c9-822e791f4fd2","system_id":"levelo_inurba_marseille","lat":43.27568,"lon":5.3842,"is_reserved":false,"is_disabled":false,"rental_uris":{"android":"levelo://app?vid=cf9d3cab-95d6-4255-91c9-822e791f4fd2","ios":"levelo://app?vid=cf9d3cab-95d6-4255-91c9-822e791f4fd2"},"vehicle_type_id":"4","last_reported":1740510460,"current_range_meters":9600,"station_id":"ce4bhh92rcd13ifvqfi0","pricing_plan_id":"cebpf4jnsgd1na2vs0mg"},{"bike_id":"0755804b-e938-4970-a1f5-1ee40c67f3e0","system_id":"levelo_inurba_marseille","lat":43.24069,"lon":5.37758,"is_reserved":false,"is_disabled":false,"rental_uris":{"android":"levelo://app?vid=0755804b-e938-4970-a1f5-1ee40c67f3e0","ios":"levelo://app?vid=0755804b-e938-4970-a1f5-1ee40c67f3e0"},"vehicle_type_id":"4","last_reported":1740510460,"current_range_meters":10000,"station_id":"ce4bhnp2rcd13ifvqgvg","pricing_plan_id":"cebpf4jnsgd1na2vs0mg"},{"bike_id":"bee016e8-c39b-4efa-a6ef-ec6c4d9fbbf4","system_id":"levelo_inurba_marseille","lat":43.279972,"lon":5.400162,"is_reserved":false,"is_disabled":false,"rental_uris":{"android":"levelo://app?vid=bee016e8-c39b-4efa-a6ef-ec6c4d9fbbf4","ios":"levelo://app?vid=bee016e8-c39b-4efa-a6ef-ec6c4d9fbbf4"},"vehicle_type_id":"4","last_reported":1740510460,"current_range_meters":12800,"station_id":"ce4bho92rcd13ifvqh4g","pricing_plan_id":"cebpf4jnsgd1na2vs0mg"},{"bike_id":"81854ebf-0024-4e94-a1b8-7d3d711b5ad6","system_id":"levelo_inurba_marseille","lat":43.30093,"lon":5.39065,"is_reserved":false,"is_disabled":false,"rental_uris":{"android":"levelo://app?vid=81854ebf-0024-4e94-a1b8-7d3d711b5ad6","ios":"levelo://app?vid=81854ebf-0024-4e94-a1b8-7d3d711b5ad6"},"vehicle_type_id":"4","last_reported":1740510460,"current_range_meters":10000,"station_id":"ce4bh192rcd13ifvqdb0","pricing_plan_id":"cebpf4jnsgd1na2vs0mg"},{"bike_id":"43d63f8a-f3b7-4d7c-be3c-996582d0e403","system_id":"levelo_inurba_marseille","lat":43.28425,"lon":5.37516,"is_reserved":false,"is_disabled":false,"rental_uris":{"android":"levelo://app?vid=43d63f8a-f3b7-4d7c-be3c-996582d0e403","ios":"levelo://app?vid=43d63f8a-f3b7-4d7c-be3c-996582d0e403"},"vehicle_type_id":"4","last_reported":1740510460,"current_range_meters":10000,"station_id":"ce4bh412rcd13ifvqds0","pricing_plan_id":"cebpf4jnsgd1na2vs0mg"},{"bike_id":"f2a87237-f624-4bf7-ad01-90df07b15d25","system_id":"levelo_inurba_marseille","lat":43.28415,"lon":5.37501,"is_reserved":false,"is_disabled":false,"rental_uris":{"android":"levelo://app?vid=f2a87237-f624-4bf7-ad01-90df07b15d25","ios":"levelo://app?vid=f2a87237-f624-4bf7-ad01-90df07b15d25"},"vehicle_type_id":"4","last_reported":1740510460,"current_range_meters":10800,"station_id":"ce4bh412rcd13ifvqds0","pricing_plan_id":"cebpf4jnsgd1na2vs0mg"},{"bike_id":"37f282dd-3c82-4a6a-9579-52ba7e01751c","system_id":"levelo_inurba_marseille","lat":43.3153,"lon":5.38019,"is_reserved":false,"is_disabled":false,"rental_uris":{"android":"levelo://app?vid=37f282dd-3c82-4a6a-9579-52ba7e01751c","ios":"levelo://app?vid=37f282dd-3c82-4a6a-9579-52ba7e01751c"},"vehicle_type_id":"4","last_reported":1740510460,"current_range_meters":11200,"station_id":"ce4bhsp2rcd13ifvqi50","pricing_plan_id":"cebpf4jnsgd1na2vs0mg"},{"bike_id":"fbd84e0e-65f1-486a-adb1-c69ba32b27ed","system_id":"levelo_inurba_marseille","lat":43.29372,"lon":5.37859,"is_reserved":false,"is_disabled":false,"rental_uris":{"android":"levelo://app?vid=fbd84e0e-65f1-486a-adb1-c69ba32b27ed","ios":"levelo://app?vid=fbd84e0e-65f1-486a-adb1-c69ba32b27ed"},"vehicle_type_id":"4","last_reported":1740510460,"current_range_meters":10800,"station_id":"ce4bgjh2rcd13ifvqbf0","pricing_plan_id":"cebpf4jnsgd1na2vs0mg"},{"bike_id":"9d830539-81f3-4c60-8b3b-3d696a58d054","system_id":"levelo_inurba_marseille","lat":43.28937,"lon":5.39632,"is_reserved":false,"is_disabled":false,"rental_uris":{"android":"levelo://app?vid=9d830539-81f3-4c60-8b3b-3d696a58d054","ios":"levelo://app?vid=9d830539-81f3-4c60-8b3b-3d696a58d054"},"vehicle_type_id":"4","last_reported":1740510460,"current_range_meters":10800,"station_id":"","pricing_plan_id":"cebpf4jnsgd1na2vs0mg"},{"bike_id":"5870ba05-021d-44bf-9813-b137119d12b5","system_id":"levelo_inurba_marseille","lat":43.3237,"lon":5.38885,"is_reserved":false,"is_disabled":false,"rental_uris":{"android":"levelo://app?vid=5870ba05-021d-44bf-9813-b137119d12b5","ios":"levelo://app?vid=5870ba05-021d-44bf-9813-b137119d12b5"},"vehicle_type_id":"4","last_reported":1740510460,"current_range_meters":10800,"station_id":"ce4bhqp2rcd13ifvqhog","pricing_plan_id":"cebpf4jnsgd1na2vs0mg"},{"bike_id":"05f51bd6-bf8c-4b6c-ba2f-d7bf7cec3006","system_id":"levelo_inurba_marseille","lat":43.23188,"lon":5.3557,"is_reserved":false,"is_disabled":false,"rental_uris":{"android":"levelo://app?vid=05f51bd6-bf8c-4b6c-ba2f-d7bf7cec3006","ios":"levelo://app?vid=05f51bd6-bf8c-4b6c-ba2f-d7bf7cec3006"},"vehicle_type_id":"4","last_reported":1740510460,"current_range_meters":10800,"station_id":"ce4bhu92rcd13ifvqi70","pricing_plan_id":"cebpf4jnsgd1na2vs0mg"},{"bike_id":"705d4c5c-19e2-4866-97d4-b09e7afe24df","system_id":"levelo_inurba_marseille","lat":43.29259,"lon":5.38442,"is_reserved":false,"is_disabled":false,"rental_uris":{"android":"levelo://app?vid=705d4c5c-19e2-4866-97d4-b09e7afe24df","ios":"levelo://app?vid=705d4c5c-19e2-4866-97d4-b09e7afe24df"},"vehicle_type_id":"4","last_reported":1740510460,"current_range_meters":11200,"station_id":"ce4bh692rcd13ifvqea0","pricing_plan_id":"cebpf4jnsgd1na2vs0mg"},{"bike_id":"81f5a0ac-9fbc-4093-9829-7c67f70cb06b","system_id":"levelo_inurba_marseille","lat":43.31361,"lon":5.38501,"is_reserved":false,"is_disabled":false,"rental_uris":{"android":"levelo://app?vid=81f5a0ac-9fbc-4093-9829-7c67f70cb06b","ios":"levelo://app?vid=81f5a0ac-9fbc-4093-9829-7c67f70cb06b"},"vehicle_type_id":"4","last_reported":1740510460,"current_range_meters":10800,"station_id":"ce4bgt92rcd13ifvqcf0","pricing_plan_id":"cebpf4jnsgd1na2vs0mg"},{"bike_id":"601d9d1a-b924-4349-8cfa-62d99997e8fb","system_id":"levelo_inurba_marseille","lat":43.23192,"lon":5.399829,"is_reserved":false,"is_disabled":false,"rental_uris":{"android":"levelo://app?vid=601d9d1a-b924-4349-8cfa-62d99997e8fb","ios":"levelo://app?vid=601d9d1a-b924-4349-8cfa-62d99997e8fb"},"vehicle_type_id":"4","last_reported":1740510460,"current_range_meters":10800,"station_id":"ce4bhn12rcd13ifvqgqg","pricing_plan_id":"cebpf4jnsgd1na2vs0mg"},{"bike_id":"344b9ada-dc13-401b-99db-124646ed697f","system_id":"levelo_inurba_marseille","lat":43.28853,"lon":5.35844,"is_reserved":false,"is_disabled":false,"rental_uris":{"android":"levelo://app?vid=344b9ada-dc13-401b-99db-124646ed697f","ios":"levelo://app?vid=344b9ada-dc13-401b-99db-124646ed697f"},"vehicle_type_id":"4","last_reported":1740510460,"current_range_meters":8400,"station_id":"ce4bhb12rcd13ifvqem0","pricing_plan_id":"cebpf4jnsgd1na2vs0mg"},{"bike_id":"25255681-d668-4957-b49d-3fba4d0fc5e1","system_id":"levelo_inurba_marseille","lat":43.27878,"lon":5.38004,"is_reserved":false,"is_disabled":false,"rental_uris":{"android":"levelo://app?vid=25255681-d668-4957-b49d-3fba4d0fc5e1","ios":"levelo://app?vid=25255681-d668-4957-b49d-3fba4d0fc5e1"},"vehicle_type_id":"4","last_reported":1740510460,"current_range_meters":10800,"station_id":"ce4bhf92rcd13ifvqf50","pricing_plan_id":"cebpf4jnsgd1na2vs0mg"},{"bike_id":"f5232ca0-a0ea-4b65-9be9-c58c9ab586fb","system_id":"levelo_inurba_marseille","lat":43.28148,"lon":5.42622,"is_reserved":false,"is_disabled":false,"rental_uris":{"android":"levelo://app?vid=f5232ca0-a0ea-4b65-9be9-c58c9ab586fb","ios":"levelo://app?vid=f5232ca0-a0ea-4b65-9be9-c58c9ab586fb"},"vehicle_type_id":"4","last_reported":1740510460,"current_range_meters":11200,"station_id":"ce4bhnh2rcd13ifvqgug","pricing_plan_id":"cebpf4jnsgd1na2vs0mg"},{"bike_id":"cffafb85-8217-4e8c-8b7c-26a52a1d9051","system_id":"levelo_inurba_marseille","lat":43.3112,"lon":5.377622,"is_reserved":false,"is_disabled":false,"rental_uris":{"android":"levelo://app?vid=cffafb85-8217-4e8c-8b7c-26a52a1d9051","ios":"levelo://app?vid=cffafb85-8217-4e8c-8b7c-26a52a1d9051"},"vehicle_type_id":"4","last_reported":1740510460,"current_range_meters":11200,"station_id":"ce4bgt92rcd13ifvqcg0","pricing_plan_id":"cebpf4jnsgd1na2vs0mg"},{"bike_id":"b3739dd1-c2ea-4afb-9bb4-975986d3382b","system_id":"levelo_inurba_marseille","lat":43.281573,"lon":5.426411,"is_reserved":false,"is_disabled":false,"rental_uris":{"android":"levelo://app?vid=b3739dd1-c2ea-4afb-9bb4-975986d3382b","ios":"levelo://app?vid=b3739dd1-c2ea-4afb-9bb4-975986d3382b"},"vehicle_type_id":"4","last_reported":1740510460,"current_range_meters":11200,"station_id":"ce4bhnh2rcd13ifvqgug","pricing_plan_id":"cebpf4jnsgd1na2vs0mg"},{"bike_id":"0f1f3b76-2791-4f0f-845e-300b9a8eb89b","system_id":"levelo_inurba_marseille","lat":43.2319,"lon":5.3556,"is_reserved":false,"is_disabled":false,"rental_uris":{"android":"levelo://app?vid=0f1f3b76-2791-4f0f-845e-300b9a8eb89b","ios":"levelo://app?vid=0f1f3b76-2791-4f0f-845e-300b9a8eb89b"},"vehicle_type_id":"4","last_reported":1740510460,"current_range_meters":11200,"station_id":"ce4bhu92rcd13ifvqi70","pricing_plan_id":"cebpf4jnsgd1na2vs0mg"},{"bike_id":"e93c7e29-0d01-4887-aaa1-1b6f0519e5f6","system_id":"levelo_inurba_marseille","lat":43.29892,"lon":5.39738,"is_reserved":false,"is_disabled":false,"rental_uris":{"android":"levelo://app?vid=e93c7e29-0d01-4887-aaa1-1b6f0519e5f6","ios":"levelo://app?vid=e93c7e29-0d01-4887-aaa1-1b6f0519e5f6"},"vehicle_type_id":"4","last_reported":1740510460,"current_range_meters":11200,"station_id":"ce4bh0h2rcd13ifvqd50","pricing_plan_id":"cebpf4jnsgd1na2vs0mg"},{"bike_id":"549eba66-470c-49fc-9bda-650ecb397aed","system_id":"levelo_inurba_marseille","lat":43.28606,"lon":5.38125,"is_reserved":false,"is_disabled":true,"rental_uris":{"android":"levelo://app?vid=549eba66-470c-49fc-9bda-650ecb397aed","ios":"levelo://app?vid=549eba66-470c-49fc-9bda-650ecb397aed"},"vehicle_type_id":"4","last_reported":1740510460,"current_range_meters":11600,"station_id":"","pricing_plan_id":"cebpf4jnsgd1na2vs0mg"},{"bike_id":"7c45866a-bd99-4c12-9747-66203f12a96e","system_id":"levelo_inurba_marseille","lat":43.231371,"lon":5.355117,"is_reserved":false,"is_disabled":false,"rental_uris":{"android":"levelo://app?vid=7c45866a-bd99-4c12-9747-66203f12a96e","ios":"levelo://app?vid=7c45866a-bd99-4c12-9747-66203f12a96e"},"vehicle_type_id":"4","last_reported":1740510460,"current_range_meters":11200,"station_id":"","pricing_plan_id":"cebpf4jnsgd1na2vs0mg"},{"bike_id":"43ac663c-c64e-48a9-99b2-d86c9807fdf6","system_id":"levelo_inurba_marseille","lat":43.28402,"lon":5.37502,"is_reserved":false,"is_disabled":false,"rental_uris":{"android":"levelo://app?vid=43ac663c-c64e-48a9-99b2-d86c9807fdf6","ios":"levelo://app?vid=43ac663c-c64e-48a9-99b2-d86c9807fdf6"},"vehicle_type_id":"4","last_reported":1740510460,"current_range_meters":11200,"station_id":"ce4bh412rcd13ifvqds0","pricing_plan_id":"cebpf4jnsgd1na2vs0mg"},{"bike_id":"5d856f48-d9c0-4cef-9760-c93e08ce2a99","system_id":"levelo_inurba_marseille","lat":43.29541,"lon":5.39277,"is_reserved":false,"is_disabled":false,"rental_uris":{"android":"levelo://app?vid=5d856f48-d9c0-4cef-9760-c93e08ce2a99","ios":"levelo://app?vid=5d856f48-d9c0-4cef-9760-c93e08ce2a99"},"vehicle_type_id":"4","last_reported":1740510460,"current_range_meters":15200,"station_id":"","pricing_plan_id":"cebpf4jnsgd1na2vs0mg"},{"bike_id":"3cba4163-e7a2-49f9-b0b2-c2482b610fcf","system_id":"levelo_inurba_marseille","lat":43.299589,"lon":5.384864,"is_reserved":false,"is_disabled":false,"rental_uris":{"android":"levelo://app?vid=3cba4163-e7a2-49f9-b0b2-c2482b610fcf","ios":"levelo://app?vid=3cba4163-e7a2-49f9-b0b2-c2482b610fcf"},"vehicle_type_id":"4","last_reported":1740510460,"current_range_meters":11600,"station_id":"ce4bh512rcd13ifvqe2g","pricing_plan_id":"cebpf4jnsgd1na2vs0mg"},{"bike_id":"4c3ed0f9-3852-4d9f-a849-d03fce967204","system_id":"levelo_inurba_marseille","lat":43.28932,"lon":5.36402,"is_reserved":false,"is_disabled":false,"rental_uris":{"android":"levelo://app?vid=4c3ed0f9-3852-4d9f-a849-d03fce967204","ios":"levelo://app?vid=4c3ed0f9-3852-4d9f-a849-d03fce967204"},"vehicle_type_id":"4","last_reported":1740510460,"current_range_meters":11600,"station_id":"ce4bhc92rcd13ifvqetg","pricing_plan_id":"cebpf4jnsgd1na2vs0mg"},{"bike_id":"b826421a-ecfd-4b49-8ba3-5f31ef51240d","system_id":"levelo_inurba_marseille","lat":43.28985,"lon":5.35559,"is_reserved":false,"is_disabled":false,"rental_uris":{"android":"levelo://app?vid=b826421a-ecfd-4b49-8ba3-5f31ef51240d","ios":"levelo://app?vid=b826421a-ecfd-4b49-8ba3-5f31ef51240d"},"vehicle_type_id":"4","last_reported":1740510460,"current_range_meters":12800,"station_id":"ce4bhb92rcd13ifvqen0","pricing_plan_id":"cebpf4jnsgd1na2vs0mg"},{"bike_id":"ed283952-2c17-443a-b6f4-f29d9895ac77","system_id":"levelo_inurba_marseille","lat":43.26751,"lon":5.4141,"is_reserved":false,"is_disabled":false,"rental_uris":{"android":"levelo://app?vid=ed283952-2c17-443a-b6f4-f29d9895ac77","ios":"levelo://app?vid=ed283952-2c17-443a-b6f4-f29d9895ac77"},"vehicle_type_id":"4","last_reported":1740510460,"current_range_meters":12000,"station_id":"ce4bhn92rcd13ifvqgrg","pricing_plan_id":"cebpf4jnsgd1na2vs0mg"},{"bike_id":"12a970f7-2c4f-4f3d-b2e6-d60a4924b550","system_id":"levelo_inurba_marseille","lat":43.29557,"lon":5.38555,"is_reserved":false,"is_disabled":false,"rental_uris":{"android":"levelo://app?vid=12a970f7-2c4f-4f3d-b2e6-d60a4924b550","ios":"levelo://app?vid=12a970f7-2c4f-4f3d-b2e6-d60a4924b550"},"vehicle_type_id":"4","last_reported":1740510460,"current_range_meters":12000,"station_id":"ce4bgih2rcd13ifvqba0","pricing_plan_id":"cebpf4jnsgd1na2vs0mg"},{"bike_id":"9f410218-3040-4e5d-995c-1587f208b52e","system_id":"levelo_inurba_marseille","lat":43.27807,"lon":5.40742,"is_reserved":false,"is_disabled":false,"rental_uris":{"android":"levelo://app?vid=9f410218-3040-4e5d-995c-1587f208b52e","ios":"levelo://app?vid=9f410218-3040-4e5d-995c-1587f208b52e"},"vehicle_type_id":"4","last_reported":1740510460,"current_range_meters":12400,"station_id":"ce4bhnh2rcd13ifvqgtg","pricing_plan_id":"cebpf4jnsgd1na2vs0mg"},{"bike_id":"dcdfafc4-ad04-4f03-b713-a44cb5c77c53","system_id":"levelo_inurba_marseille","lat":43.2957,"lon":5.39971,"is_reserved":false,"is_disabled":true,"rental_uris":{"android":"levelo://app?vid=dcdfafc4-ad04-4f03-b713-a44cb5c77c53","ios":"levelo://app?vid=dcdfafc4-ad04-4f03-b713-a44cb5c77c53"},"vehicle_type_id":"4","last_reported":1740510460,"current_range_meters":12000,"station_id":"ce4bh312rcd13ifvqdj0","pricing_plan_id":"cebpf4jnsgd1na2vs0mg"},{"bike_id":"bea517ec-06d8-4315-a101-031d4852ca77","system_id":"levelo_inurba_marseille","lat":43.24177,"lon":5.39716,"is_reserved":false,"is_disabled":false,"rental_uris":{"android":"levelo://app?vid=bea517ec-06d8-4315-a101-031d4852ca77","ios":"levelo://app?vid=bea517ec-06d8-4315-a101-031d4852ca77"},"vehicle_type_id":"4","last_reported":1740510460,"current_range_meters":12000,"station_id":"ce4bhn12rcd13ifvqgpg","pricing_plan_id":"cebpf4jnsgd1na2vs0mg"},{"bike_id":"2c762ef9-7d8c-48a2-893e-7032f287b1c9","system_id":"levelo_inurba_marseille","lat":43.29518,"lon":5.39055,"is_reserved":false,"is_disabled":false,"rental_uris":{"android":"levelo://app?vid=2c762ef9-7d8c-48a2-893e-7032f287b1c9","ios":"levelo://app?vid=2c762ef9-7d8c-48a2-893e-7032f287b1c9"},"vehicle_type_id":"4","last_reported":1740510460,"current_range_meters":12400,"station_id":"ce4bh3p2rcd13ifvqdp0","pricing_plan_id":"cebpf4jnsgd1na2vs0mg"},{"bike_id":"7c8aaa9b-e43a-43de-8b4f-a531a44d3724","system_id":"levelo_inurba_marseille","lat":43.279424,"lon":5.410506,"is_reserved":false,"is_disabled":false,"rental_uris":{"android":"levelo://app?vid=7c8aaa9b-e43a-43de-8b4f-a531a44d3724","ios":"levelo://app?vid=7c8aaa9b-e43a-43de-8b4f-a531a44d3724"},"vehicle_type_id":"4","last_reported":1740510460,"current_range_meters":12400,"station_id":"ce4bhnp2rcd13ifvqh0g","pricing_plan_id":"cebpf4jnsgd1na2vs0mg"},{"bike_id":"ee902b5f-76ed-431a-812e-9475ea52d7fc","system_id":"levelo_inurba_marseille","lat":43.28705,"lon":5.37939,"is_reserved":false,"is_disabled":false,"rental_uris":{"android":"levelo://app?vid=ee902b5f-76ed-431a-812e-9475ea52d7fc","ios":"levelo://app?vid=ee902b5f-76ed-431a-812e-9475ea52d7fc"},"vehicle_type_id":"4","last_reported":1740510460,"current_range_meters":10800,"station_id":"ce4bh9p2rcd13ifvqec0","pricing_plan_id":"cebpf4jnsgd1na2vs0mg"},{"bike_id":"8ab6b935-a873-4d2c-b7b2-95f2c7d28241","system_id":"levelo_inurba_marseille","lat":43.29203,"lon":5.358,"is_reserved":false,"is_disabled":false,"rental_uris":{"android":"levelo://app?vid=8ab6b935-a873-4d2c-b7b2-95f2c7d28241","ios":"levelo://app?vid=8ab6b935-a873-4d2c-b7b2-95f2c7d28241"},"vehicle_type_id":"4","last_reported":1740510460,"current_range_meters":8000,"station_id":"ce4bhb12rcd13ifvqel0","pricing_plan_id":"cebpf4jnsgd1na2vs0mg"},{"bike_id":"bb197dcb-4af2-40a1-b597-f15826b08c4b","system_id":"levelo_inurba_marseille","lat":43.3135,"lon":5.38503,"is_reserved":false,"is_disabled":false,"rental_uris":{"android":"levelo://app?vid=bb197dcb-4af2-40a1-b597-f15826b08c4b","ios":"levelo://app?vid=bb197dcb-4af2-40a1-b597-f15826b08c4b"},"vehicle_type_id":"4","last_reported":1740510460,"current_range_meters":12400,"station_id":"ce4bgt92rcd13ifvqcf0","pricing_plan_id":"cebpf4jnsgd1na2vs0mg"},{"bike_id":"44a737df-aa61-45f7-857c-d7d275870e10","system_id":"levelo_inurba_marseille","lat":43.25504,"lon":5.37643,"is_reserved":false,"is_disabled":false,"rental_uris":{"android":"levelo://app?vid=44a737df-aa61-45f7-857c-d7d275870e10","ios":"levelo://app?vid=44a737df-aa61-45f7-857c-d7d275870e10"},"vehicle_type_id":"4","last_reported":1740510460,"current_range_meters":12400,"station_id":"ce4bhh12rcd13ifvqff0","pricing_plan_id":"cebpf4jnsgd1na2vs0mg"},{"bike_id":"d0801915-0de0-4f9d-9726-750b42c06614","system_id":"levelo_inurba_marseille","lat":43.32098,"lon":5.36779,"is_reserved":false,"is_disabled":false,"rental_uris":{"android":"levelo://app?vid=d0801915-0de0-4f9d-9726-750b42c06614","ios":"levelo://app?vid=d0801915-0de0-4f9d-9726-750b42c06614"},"vehicle_type_id":"4","last_reported":1740510460,"current_range_meters":12400,"station_id":"ce4bhrh2rcd13ifvqhug","pricing_plan_id":"cebpf4jnsgd1na2vs0mg"},{"bike_id":"1ebcc11a-7147-439d-a444-8d2a4b57023d","system_id":"levelo_inurba_marseille","lat":43.29197,"lon":5.35806,"is_reserved":false,"is_disabled":false,"rental_uris":{"android":"levelo://app?vid=1ebcc11a-7147-439d-a444-8d2a4b57023d","ios":"levelo://app?vid=1ebcc11a-7147-439d-a444-8d2a4b57023d"},"vehicle_type_id":"4","last_reported":1740510460,"current_range_meters":12800,"station_id":"ce4bhb12rcd13ifvqel0","pricing_plan_id":"cebpf4jnsgd1na2vs0mg"},{"bike_id":"dcbfea1c-ba82-4b01-9641-8bfe067bce7f","system_id":"levelo_inurba_marseille","lat":43.32045,"lon":5.41544,"is_reserved":false,"is_disabled":false,"rental_uris":{"android":"levelo://app?vid=dcbfea1c-ba82-4b01-9641-8bfe067bce7f","ios":"levelo://app?vid=dcbfea1c-ba82-4b01-9641-8bfe067bce7f"},"vehicle_type_id":"4","last_reported":1740510460,"current_range_meters":12000,"station_id":"ce4bhq92rcd13ifvqhkg","pricing_plan_id":"cebpf4jnsgd1na2vs0mg"},{"bike_id":"1f6bbfe9-aae7-43d5-a4ef-153399ef3f5f","system_id":"levelo_inurba_marseille","lat":43.32371,"lon":5.38874,"is_reserved":false,"is_disabled":false,"rental_uris":{"android":"levelo://app?vid=1f6bbfe9-aae7-43d5-a4ef-153399ef3f5f","ios":"levelo://app?vid=1f6bbfe9-aae7-43d5-a4ef-153399ef3f5f"},"vehicle_type_id":"4","last_reported":1740510460,"current_range_meters":12800,"station_id":"ce4bhqp2rcd13ifvqhog","pricing_plan_id":"cebpf4jnsgd1na2vs0mg"},{"bike_id":"0b4b499e-f769-4661-9b10-ef2ca944ebac","system_id":"levelo_inurba_marseille","lat":43.24802,"lon":5.37452,"is_reserved":false,"is_disabled":false,"rental_uris":{"android":"levelo://app?vid=0b4b499e-f769-4661-9b10-ef2ca944ebac","ios":"levelo://app?vid=0b4b499e-f769-4661-9b10-ef2ca944ebac"},"vehicle_type_id":"4","last_reported":1740510460,"current_range_meters":12800,"station_id":"ce4bhgh2rcd13ifvqfb0","pricing_plan_id":"cebpf4jnsgd1na2vs0mg"},{"bike_id":"b007f058-4163-4bbe-ba13-50835769bd43","system_id":"levelo_inurba_marseille","lat":43.31707,"lon":5.43705,"is_reserved":false,"is_disabled":false,"rental_uris":{"android":"levelo://app?vid=b007f058-4163-4bbe-ba13-50835769bd43","ios":"levelo://app?vid=b007f058-4163-4bbe-ba13-50835769bd43"},"vehicle_type_id":"4","last_reported":1740510460,"current_range_meters":12800,"station_id":"ce4bhp92rcd13ifvqhcg","pricing_plan_id":"cebpf4jnsgd1na2vs0mg"},{"bike_id":"4eb86511-dc97-4778-946e-85d566d375bc","system_id":"levelo_inurba_marseille","lat":43.24073,"lon":5.37762,"is_reserved":false,"is_disabled":false,"rental_uris":{"android":"levelo://app?vid=4eb86511-dc97-4778-946e-85d566d375bc","ios":"levelo://app?vid=4eb86511-dc97-4778-946e-85d566d375bc"},"vehicle_type_id":"4","last_reported":1740510460,"current_range_meters":12800,"station_id":"ce4bhnp2rcd13ifvqgvg","pricing_plan_id":"cebpf4jnsgd1na2vs0mg"},{"bike_id":"c775cbfc-8ca3-4c62-bf7c-340238973ce4","system_id":"levelo_inurba_marseille","lat":43.30556,"lon":5.36558,"is_reserved":false,"is_disabled":false,"rental_uris":{"android":"levelo://app?vid=c775cbfc-8ca3-4c62-bf7c-340238973ce4","ios":"levelo://app?vid=c775cbfc-8ca3-4c62-bf7c-340238973ce4"},"vehicle_type_id":"4","last_reported":1740510460,"current_range_meters":14000,"station_id":"ce4bgs12rcd13ifvqcag","pricing_plan_id":"cebpf4jnsgd1na2vs0mg"},{"bike_id":"2cbc35b5-e249-4e17-a6c3-4f15da01fe6b","system_id":"levelo_inurba_marseille","lat":43.25716,"lon":5.41124,"is_reserved":false,"is_disabled":false,"rental_uris":{"android":"levelo://app?vid=2cbc35b5-e249-4e17-a6c3-4f15da01fe6b","ios":"levelo://app?vid=2cbc35b5-e249-4e17-a6c3-4f15da01fe6b"},"vehicle_type_id":"4","last_reported":1740510460,"current_range_meters":13600,"station_id":"ce4bhkp2rcd13ifvqgd0","pricing_plan_id":"cebpf4jnsgd1na2vs0mg"},{"bike_id":"24b6dbcb-83d9-40fd-a02a-63f6ad1324fd","system_id":"levelo_inurba_marseille","lat":43.29024,"lon":5.3865,"is_reserved":false,"is_disabled":false,"rental_uris":{"android":"levelo://app?vid=24b6dbcb-83d9-40fd-a02a-63f6ad1324fd","ios":"levelo://app?vid=24b6dbcb-83d9-40fd-a02a-63f6ad1324fd"},"vehicle_type_id":"4","last_reported":1740510460,"current_range_meters":13600,"station_id":"ce4bh4p2rcd13ifvqe0g","pricing_plan_id":"cebpf4jnsgd1na2vs0mg"},{"bike_id":"7281029d-31e4-49e8-b4d3-b1d70aab3f8e","system_id":"levelo_inurba_marseille","lat":43.30441,"lon":5.39745,"is_reserved":false,"is_disabled":false,"rental_uris":{"android":"levelo://app?vid=7281029d-31e4-49e8-b4d3-b1d70aab3f8e","ios":"levelo://app?vid=7281029d-31e4-49e8-b4d3-b1d70aab3f8e"},"vehicle_type_id":"4","last_reported":1740510460,"current_range_meters":12400,"station_id":"ce4bh092rcd13ifvqd20","pricing_plan_id":"cebpf4jnsgd1na2vs0mg"},{"bike_id":"44f9e446-3836-44ff-921d-578372029f43","system_id":"levelo_inurba_marseille","lat":43.2906,"lon":5.37177,"is_reserved":false,"is_disabled":false,"rental_uris":{"android":"levelo://app?vid=44f9e446-3836-44ff-921d-578372029f43","ios":"levelo://app?vid=44f9e446-3836-44ff-921d-578372029f43"},"vehicle_type_id":"4","last_reported":1740510460,"current_range_meters":14000,"station_id":"ce4bh5p2rcd13ifvqe4g","pricing_plan_id":"cebpf4jnsgd1na2vs0mg"},{"bike_id":"22ba16dc-40f0-4a6d-b50a-32452a6856cb","system_id":"levelo_inurba_marseille","lat":43.29082,"lon":5.37187,"is_reserved":false,"is_disabled":false,"rental_uris":{"android":"levelo://app?vid=22ba16dc-40f0-4a6d-b50a-32452a6856cb","ios":"levelo://app?vid=22ba16dc-40f0-4a6d-b50a-32452a6856cb"},"vehicle_type_id":"4","last_reported":1740510460,"current_range_meters":14800,"station_id":"ce4bh5p2rcd13ifvqe4g","pricing_plan_id":"cebpf4jnsgd1na2vs0mg"},{"bike_id":"28c3c768-a907-4c23-bf24-a49a1e1e5bae","system_id":"levelo_inurba_marseille","lat":43.29202,"lon":5.38396,"is_reserved":false,"is_disabled":false,"rental_uris":{"android":"levelo://app?vid=28c3c768-a907-4c23-bf24-a49a1e1e5bae","ios":"levelo://app?vid=28c3c768-a907-4c23-bf24-a49a1e1e5bae"},"vehicle_type_id":"4","last_reported":1740510460,"current_range_meters":13600,"station_id":"","pricing_plan_id":"cebpf4jnsgd1na2vs0mg"},{"bike_id":"86f68ca8-0bb6-49b0-b939-5bc17cb16058","system_id":"levelo_inurba_marseille","lat":43.25109,"lon":5.40318,"is_reserved":false,"is_disabled":false,"rental_uris":{"android":"levelo://app?vid=86f68ca8-0bb6-49b0-b939-5bc17cb16058","ios":"levelo://app?vid=86f68ca8-0bb6-49b0-b939-5bc17cb16058"},"vehicle_type_id":"4","last_reported":1740510460,"current_range_meters":11200,"station_id":"ce4bhlh2rcd13ifvqgig","pricing_plan_id":"cebpf4jnsgd1na2vs0mg"},{"bike_id":"33a80d41-332d-4f08-904b-0a6d22ab1e5b","system_id":"levelo_inurba_marseille","lat":43.31687,"lon":5.40475,"is_reserved":false,"is_disabled":false,"rental_uris":{"android":"levelo://app?vid=33a80d41-332d-4f08-904b-0a6d22ab1e5b","ios":"levelo://app?vid=33a80d41-332d-4f08-904b-0a6d22ab1e5b"},"vehicle_type_id":"4","last_reported":1740510460,"current_range_meters":0,"station_id":"ce4bh012rcd13ifvqd00","pricing_plan_id":"cebpf4jnsgd1na2vs0mg"},{"bike_id":"e9c908fa-3548-42b4-b26e-3a651dbd126a","system_id":"levelo_inurba_marseille","lat":43.3081,"lon":5.43514,"is_reserved":false,"is_disabled":false,"rental_uris":{"android":"levelo://app?vid=e9c908fa-3548-42b4-b26e-3a651dbd126a","ios":"levelo://app?vid=e9c908fa-3548-42b4-b26e-3a651dbd126a"},"vehicle_type_id":"4","last_reported":1740510460,"current_range_meters":14000,"station_id":"ce4bhph2rcd13ifvqheg","pricing_plan_id":"cebpf4jnsgd1na2vs0mg"},{"bike_id":"ab54bd2f-fdfe-4950-adcd-826d0f8f0466","system_id":"levelo_inurba_marseille","lat":43.2861,"lon":5.37065,"is_reserved":false,"is_disabled":false,"rental_uris":{"android":"levelo://app?vid=ab54bd2f-fdfe-4950-adcd-826d0f8f0466","ios":"levelo://app?vid=ab54bd2f-fdfe-4950-adcd-826d0f8f0466"},"vehicle_type_id":"4","last_reported":1740510460,"current_range_meters":14000,"station_id":"ce4bht12rcd13ifvqi60","pricing_plan_id":"cebpf4jnsgd1na2vs0mg"},{"bike_id":"960f2ba3-e440-4e76-8d2f-9f13a224dcf3","system_id":"levelo_inurba_marseille","lat":43.28063,"lon":5.39642,"is_reserved":false,"is_disabled":false,"rental_uris":{"android":"levelo://app?vid=960f2ba3-e440-4e76-8d2f-9f13a224dcf3","ios":"levelo://app?vid=960f2ba3-e440-4e76-8d2f-9f13a224dcf3"},"vehicle_type_id":"4","last_reported":1740510460,"current_range_meters":14000,"station_id":"ce4bho12rcd13ifvqh2g","pricing_plan_id":"cebpf4jnsgd1na2vs0mg"},{"bike_id":"dfd23175-6a62-4c95-a53c-9500be447999","system_id":"levelo_inurba_marseille","lat":43.240693,"lon":5.377643,"is_reserved":false,"is_disabled":false,"rental_uris":{"android":"levelo://app?vid=dfd23175-6a62-4c95-a53c-9500be447999","ios":"levelo://app?vid=dfd23175-6a62-4c95-a53c-9500be447999"},"vehicle_type_id":"4","last_reported":1740510460,"current_range_meters":14000,"station_id":"ce4bhnp2rcd13ifvqgvg","pricing_plan_id":"cebpf4jnsgd1na2vs0mg"},{"bike_id":"2ced73a1-5cbf-469c-bdf3-486292f65992","system_id":"levelo_inurba_marseille","lat":43.28937,"lon":5.36621,"is_reserved":false,"is_disabled":false,"rental_uris":{"android":"levelo://app?vid=2ced73a1-5cbf-469c-bdf3-486292f65992","ios":"levelo://app?vid=2ced73a1-5cbf-469c-bdf3-486292f65992"},"vehicle_type_id":"4","last_reported":1740510460,"current_range_meters":14400,"station_id":"ce4bhap2rcd13ifvqek0","pricing_plan_id":"cebpf4jnsgd1na2vs0mg"},{"bike_id":"0a089428-bbf6-4308-bf3d-1d45254d436e","system_id":"levelo_inurba_marseille","lat":43.25085,"lon":5.39526,"is_reserved":false,"is_disabled":false,"rental_uris":{"android":"levelo://app?vid=0a089428-bbf6-4308-bf3d-1d45254d436e","ios":"levelo://app?vid=0a089428-bbf6-4308-bf3d-1d45254d436e"},"vehicle_type_id":"4","last_reported":1740510460,"current_range_meters":14400,"station_id":"ce4bhm12rcd13ifvqgkg","pricing_plan_id":"cebpf4jnsgd1na2vs0mg"},{"bike_id":"7ad8f27b-5c64-4011-b26a-6171a407454f","system_id":"levelo_inurba_marseille","lat":43.299733,"lon":5.397093,"is_reserved":false,"is_disabled":false,"rental_uris":{"android":"levelo://app?vid=7ad8f27b-5c64-4011-b26a-6171a407454f","ios":"levelo://app?vid=7ad8f27b-5c64-4011-b26a-6171a407454f"},"vehicle_type_id":"4","last_reported":1740510460,"current_range_meters":14000,"station_id":"ce4bh312rcd13ifvqdj0","pricing_plan_id":"cebpf4jnsgd1na2vs0mg"},{"bike_id":"ba321d29-5ce8-4f76-ad8d-c04d6ded459f","system_id":"levelo_inurba_marseille","lat":43.28711,"lon":5.37913,"is_reserved":false,"is_disabled":false,"rental_uris":{"android":"levelo://app?vid=ba321d29-5ce8-4f76-ad8d-c04d6ded459f","ios":"levelo://app?vid=ba321d29-5ce8-4f76-ad8d-c04d6ded459f"},"vehicle_type_id":"4","last_reported":1740510460,"current_range_meters":8800,"station_id":"ce4bh9p2rcd13ifvqec0","pricing_plan_id":"cebpf4jnsgd1na2vs0mg"},{"bike_id":"33740d11-d015-46f0-a052-a7b18a814182","system_id":"levelo_inurba_marseille","lat":43.294029,"lon":5.375151,"is_reserved":false,"is_disabled":false,"rental_uris":{"android":"levelo://app?vid=33740d11-d015-46f0-a052-a7b18a814182","ios":"levelo://app?vid=33740d11-d015-46f0-a052-a7b18a814182"},"vehicle_type_id":"4","last_reported":1740510460,"current_range_meters":14400,"station_id":"ce4bgi12rcd13ifvqb70","pricing_plan_id":"cebpf4jnsgd1na2vs0mg"},{"bike_id":"6ddc9b84-6183-497f-972f-42df90de0e93","system_id":"levelo_inurba_marseille","lat":43.29865,"lon":5.38897,"is_reserved":false,"is_disabled":false,"rental_uris":{"android":"levelo://app?vid=6ddc9b84-6183-497f-972f-42df90de0e93","ios":"levelo://app?vid=6ddc9b84-6183-497f-972f-42df90de0e93"},"vehicle_type_id":"4","last_reported":1740510460,"current_range_meters":14800,"station_id":"ce4bh392rcd13ifvqdl0","pricing_plan_id":"cebpf4jnsgd1na2vs0mg"},{"bike_id":"94c8a369-487e-4729-98d9-9c7a116328cd","system_id":"levelo_inurba_marseille","lat":43.26811,"lon":5.40268,"is_reserved":false,"is_disabled":false,"rental_uris":{"android":"levelo://app?vid=94c8a369-487e-4729-98d9-9c7a116328cd","ios":"levelo://app?vid=94c8a369-487e-4729-98d9-9c7a116328cd"},"vehicle_type_id":"4","last_reported":1740510460,"current_range_meters":14800,"station_id":"ce501612rcd8frsf0b60","pricing_plan_id":"cebpf4jnsgd1na2vs0mg"},{"bike_id":"aeed2899-746a-4738-91d4-47eb52592b70","system_id":"levelo_inurba_marseille","lat":43.28852,"lon":5.35874,"is_reserved":false,"is_disabled":false,"rental_uris":{"android":"levelo://app?vid=aeed2899-746a-4738-91d4-47eb52592b70","ios":"levelo://app?vid=aeed2899-746a-4738-91d4-47eb52592b70"},"vehicle_type_id":"4","last_reported":1740510460,"current_range_meters":14400,"station_id":"ce4bhb12rcd13ifvqem0","pricing_plan_id":"cebpf4jnsgd1na2vs0mg"},{"bike_id":"67ee95a1-160f-49c1-b11e-b3640680cd0d","system_id":"levelo_inurba_marseille","lat":43.32091,"lon":5.36831,"is_reserved":false,"is_disabled":false,"rental_uris":{"android":"levelo://app?vid=67ee95a1-160f-49c1-b11e-b3640680cd0d","ios":"levelo://app?vid=67ee95a1-160f-49c1-b11e-b3640680cd0d"},"vehicle_type_id":"4","last_reported":1740510460,"current_range_meters":14800,"station_id":"ce4bhrh2rcd13ifvqhug","pricing_plan_id":"cebpf4jnsgd1na2vs0mg"},{"bike_id":"b6a4cfb9-fdd3-4bf6-9402-2e45d150b5a9","system_id":"levelo_inurba_marseille","lat":43.31741,"lon":5.39057,"is_reserved":false,"is_disabled":false,"rental_uris":{"android":"levelo://app?vid=b6a4cfb9-fdd3-4bf6-9402-2e45d150b5a9","ios":"levelo://app?vid=b6a4cfb9-fdd3-4bf6-9402-2e45d150b5a9"},"vehicle_type_id":"4","last_reported":1740510460,"current_range_meters":15200,"station_id":"ce4bhqp2rcd13ifvqhng","pricing_plan_id":"cebpf4jnsgd1na2vs0mg"},{"bike_id":"e4b464bc-fb2c-45e3-a036-7dd609742891","system_id":"levelo_inurba_marseille","lat":43.297824,"lon":5.370989,"is_reserved":false,"is_disabled":false,"rental_uris":{"android":"levelo://app?vid=e4b464bc-fb2c-45e3-a036-7dd609742891","ios":"levelo://app?vid=e4b464bc-fb2c-45e3-a036-7dd609742891"},"vehicle_type_id":"4","last_reported":1740510460,"current_range_meters":12400,"station_id":"cpo3532slgdg3j2ikp40","pricing_plan_id":"cebpf4jnsgd1na2vs0mg"},{"bike_id":"4a5400e7-730c-42de-9997-b10170412d92","system_id":"levelo_inurba_marseille","lat":43.317625,"lon":5.390143,"is_reserved":false,"is_disabled":false,"rental_uris":{"android":"levelo://app?vid=4a5400e7-730c-42de-9997-b10170412d92","ios":"levelo://app?vid=4a5400e7-730c-42de-9997-b10170412d92"},"vehicle_type_id":"4","last_reported":1740510460,"current_range_meters":14800,"station_id":"ce4bhqp2rcd13ifvqhng","pricing_plan_id":"cebpf4jnsgd1na2vs0mg"},{"bike_id":"8e552f0c-7f39-4e92-82a3-cede7c1cf821","system_id":"levelo_inurba_marseille","lat":43.30407,"lon":5.41296,"is_reserved":false,"is_disabled":false,"rental_uris":{"android":"levelo://app?vid=8e552f0c-7f39-4e92-82a3-cede7c1cf821","ios":"levelo://app?vid=8e552f0c-7f39-4e92-82a3-cede7c1cf821"},"vehicle_type_id":"4","last_reported":1740510460,"current_range_meters":16400,"station_id":"ce4bhop2rcd13ifvqh8g","pricing_plan_id":"cebpf4jnsgd1na2vs0mg"},{"bike_id":"5bfe8f47-2f40-4a6e-9d51-97fcf9f52491","system_id":"levelo_inurba_marseille","lat":43.30791,"lon":5.38158,"is_reserved":false,"is_disabled":false,"rental_uris":{"android":"levelo://app?vid=5bfe8f47-2f40-4a6e-9d51-97fcf9f52491","ios":"levelo://app?vid=5bfe8f47-2f40-4a6e-9d51-97fcf9f52491"},"vehicle_type_id":"4","last_reported":1740510460,"current_range_meters":14400,"station_id":"ce4bgt12rcd13ifvqce0","pricing_plan_id":"cebpf4jnsgd1na2vs0mg"},{"bike_id":"657805a7-7c02-4ae3-92be-cc7300051d2b","system_id":"levelo_inurba_marseille","lat":43.30412,"lon":5.41295,"is_reserved":false,"is_disabled":false,"rental_uris":{"android":"levelo://app?vid=657805a7-7c02-4ae3-92be-cc7300051d2b","ios":"levelo://app?vid=657805a7-7c02-4ae3-92be-cc7300051d2b"},"vehicle_type_id":"4","last_reported":1740510460,"current_range_meters":15200,"station_id":"ce4bhop2rcd13ifvqh8g","pricing_plan_id":"cebpf4jnsgd1na2vs0mg"},{"bike_id":"ee73c06d-945a-4bdd-bf29-09502bde2235","system_id":"levelo_inurba_marseille","lat":43.28856,"lon":5.39308,"is_reserved":false,"is_disabled":false,"rental_uris":{"android":"levelo://app?vid=ee73c06d-945a-4bdd-bf29-09502bde2235","ios":"levelo://app?vid=ee73c06d-945a-4bdd-bf29-09502bde2235"},"vehicle_type_id":"4","last_reported":1740510460,"current_range_meters":14000,"station_id":"ce4bh2p2rcd13ifvqdi0","pricing_plan_id":"cebpf4jnsgd1na2vs0mg"},{"bike_id":"40bd775e-5ce3-4948-be2f-acfa8e48e7a0","system_id":"levelo_inurba_marseille","lat":43.28619,"lon":5.35095,"is_reserved":false,"is_disabled":false,"rental_uris":{"android":"levelo://app?vid=40bd775e-5ce3-4948-be2f-acfa8e48e7a0","ios":"levelo://app?vid=40bd775e-5ce3-4948-be2f-acfa8e48e7a0"},"vehicle_type_id":"4","last_reported":1740510460,"current_range_meters":15200,"station_id":"ce4bhch2rcd13ifvqeug","pricing_plan_id":"cebpf4jnsgd1na2vs0mg"},{"bike_id":"8e5105f1-0439-4742-a3ae-b8e929153446","system_id":"levelo_inurba_marseille","lat":43.28002,"lon":5.4002,"is_reserved":false,"is_disabled":false,"rental_uris":{"android":"levelo://app?vid=8e5105f1-0439-4742-a3ae-b8e929153446","ios":"levelo://app?vid=8e5105f1-0439-4742-a3ae-b8e929153446"},"vehicle_type_id":"4","last_reported":1740510460,"current_range_meters":16000,"station_id":"ce4bho92rcd13ifvqh4g","pricing_plan_id":"cebpf4jnsgd1na2vs0mg"},{"bike_id":"d7d78ca0-6eb6-4b8d-b645-f576204891f9","system_id":"levelo_inurba_marseille","lat":43.31134,"lon":5.37793,"is_reserved":false,"is_disabled":false,"rental_uris":{"android":"levelo://app?vid=d7d78ca0-6eb6-4b8d-b645-f576204891f9","ios":"levelo://app?vid=d7d78ca0-6eb6-4b8d-b645-f576204891f9"},"vehicle_type_id":"4","last_reported":1740510460,"current_range_meters":16000,"station_id":"ce4bgt92rcd13ifvqcg0","pricing_plan_id":"cebpf4jnsgd1na2vs0mg"},{"bike_id":"daf11c2b-f621-49a6-9132-098ef985992e","system_id":"levelo_inurba_marseille","lat":43.254,"lon":5.41867,"is_reserved":false,"is_disabled":false,"rental_uris":{"android":"levelo://app?vid=daf11c2b-f621-49a6-9132-098ef985992e","ios":"levelo://app?vid=daf11c2b-f621-49a6-9132-098ef985992e"},"vehicle_type_id":"4","last_reported":1740510460,"current_range_meters":16000,"station_id":"","pricing_plan_id":"cebpf4jnsgd1na2vs0mg"},{"bike_id":"efabe882-84d2-4901-b43b-5b94c2a3d4df","system_id":"levelo_inurba_marseille","lat":43.29911,"lon":5.39738,"is_reserved":false,"is_disabled":false,"rental_uris":{"android":"levelo://app?vid=efabe882-84d2-4901-b43b-5b94c2a3d4df","ios":"levelo://app?vid=efabe882-84d2-4901-b43b-5b94c2a3d4df"},"vehicle_type_id":"4","last_reported":1740510460,"current_range_meters":16000,"station_id":"ce4bh0h2rcd13ifvqd50","pricing_plan_id":"cebpf4jnsgd1na2vs0mg"},{"bike_id":"57e68e55-c606-43c9-8082-1efc7a0f1a86","system_id":"levelo_inurba_marseille","lat":43.28921,"lon":5.38398,"is_reserved":false,"is_disabled":false,"rental_uris":{"android":"levelo://app?vid=57e68e55-c606-43c9-8082-1efc7a0f1a86","ios":"levelo://app?vid=57e68e55-c606-43c9-8082-1efc7a0f1a86"},"vehicle_type_id":"4","last_reported":1740510460,"current_range_meters":12800,"station_id":"ce4bh612rcd13ifvqe6g","pricing_plan_id":"cebpf4jnsgd1na2vs0mg"},{"bike_id":"bc9b1e32-064d-4bf1-b679-48091aef2876","system_id":"levelo_inurba_marseille","lat":43.28145,"lon":5.42649,"is_reserved":false,"is_disabled":false,"rental_uris":{"android":"levelo://app?vid=bc9b1e32-064d-4bf1-b679-48091aef2876","ios":"levelo://app?vid=bc9b1e32-064d-4bf1-b679-48091aef2876"},"vehicle_type_id":"4","last_reported":1740510460,"current_range_meters":16400,"station_id":"ce4bhnh2rcd13ifvqgug","pricing_plan_id":"cebpf4jnsgd1na2vs0mg"},{"bike_id":"a67de6a4-983c-45be-b064-b7ed36c58655","system_id":"levelo_inurba_marseille","lat":43.27174,"lon":5.40986,"is_reserved":false,"is_disabled":false,"rental_uris":{"android":"levelo://app?vid=a67de6a4-983c-45be-b064-b7ed36c58655","ios":"levelo://app?vid=a67de6a4-983c-45be-b064-b7ed36c58655"},"vehicle_type_id":"4","last_reported":1740510460,"current_range_meters":16000,"station_id":"ce4bhl12rcd13ifvqgf0","pricing_plan_id":"cebpf4jnsgd1na2vs0mg"},{"bike_id":"56c90c05-21dd-4258-af01-641c62e92e64","system_id":"levelo_inurba_marseille","lat":43.28622,"lon":5.35097,"is_reserved":false,"is_disabled":false,"rental_uris":{"android":"levelo://app?vid=56c90c05-21dd-4258-af01-641c62e92e64","ios":"levelo://app?vid=56c90c05-21dd-4258-af01-641c62e92e64"},"vehicle_type_id":"4","last_reported":1740510460,"current_range_meters":16400,"station_id":"ce4bhch2rcd13ifvqeug","pricing_plan_id":"cebpf4jnsgd1na2vs0mg"},{"bike_id":"0b2f5009-1e4e-4593-8abd-b74dc1937c26","system_id":"levelo_inurba_marseille","lat":43.2318,"lon":5.39979,"is_reserved":false,"is_disabled":false,"rental_uris":{"android":"levelo://app?vid=0b2f5009-1e4e-4593-8abd-b74dc1937c26","ios":"levelo://app?vid=0b2f5009-1e4e-4593-8abd-b74dc1937c26"},"vehicle_type_id":"4","last_reported":1740510460,"current_range_meters":16400,"station_id":"ce4bhn12rcd13ifvqgqg","pricing_plan_id":"cebpf4jnsgd1na2vs0mg"},{"bike_id":"c0ed74a2-e2a8-41f0-9b03-a680909f2682","system_id":"levelo_inurba_marseille","lat":43.2796,"lon":5.4105,"is_reserved":false,"is_disabled":false,"rental_uris":{"android":"levelo://app?vid=c0ed74a2-e2a8-41f0-9b03-a680909f2682","ios":"levelo://app?vid=c0ed74a2-e2a8-41f0-9b03-a680909f2682"},"vehicle_type_id":"4","last_reported":1740510460,"current_range_meters":16400,"station_id":"ce4bhnp2rcd13ifvqh0g","pricing_plan_id":"cebpf4jnsgd1na2vs0mg"},{"bike_id":"7fd25106-bae4-47b4-af15-a69eda38a417","system_id":"levelo_inurba_marseille","lat":43.29947,"lon":5.41311,"is_reserved":false,"is_disabled":false,"rental_uris":{"android":"levelo://app?vid=7fd25106-bae4-47b4-af15-a69eda38a417","ios":"levelo://app?vid=7fd25106-bae4-47b4-af15-a69eda38a417"},"vehicle_type_id":"4","last_reported":1740510460,"current_range_meters":19200,"station_id":"ce4bhp12rcd13ifvqh9g","pricing_plan_id":"cebpf4jnsgd1na2vs0mg"},{"bike_id":"99ed776a-8d1d-4f4e-858a-74c0d4cc17f1","system_id":"levelo_inurba_marseille","lat":43.26053,"lon":5.39399,"is_reserved":false,"is_disabled":false,"rental_uris":{"android":"levelo://app?vid=99ed776a-8d1d-4f4e-858a-74c0d4cc17f1","ios":"levelo://app?vid=99ed776a-8d1d-4f4e-858a-74c0d4cc17f1"},"vehicle_type_id":"4","last_reported":1740510460,"current_range_meters":15200,"station_id":"ce4bhh92rcd13ifvqfj0","pricing_plan_id":"cebpf4jnsgd1na2vs0mg"},{"bike_id":"cc3cee9a-ecd7-47fa-a53d-ed01f37689e8","system_id":"levelo_inurba_marseille","lat":43.28613,"lon":5.37057,"is_reserved":false,"is_disabled":false,"rental_uris":{"android":"levelo://app?vid=cc3cee9a-ecd7-47fa-a53d-ed01f37689e8","ios":"levelo://app?vid=cc3cee9a-ecd7-47fa-a53d-ed01f37689e8"},"vehicle_type_id":"4","last_reported":1740510460,"current_range_meters":16000,"station_id":"ce4bht12rcd13ifvqi60","pricing_plan_id":"cebpf4jnsgd1na2vs0mg"},{"bike_id":"03dc35e7-cb11-4e37-8635-9ecb22204266","system_id":"levelo_inurba_marseille","lat":43.28362,"lon":5.38621,"is_reserved":false,"is_disabled":false,"rental_uris":{"android":"levelo://app?vid=03dc35e7-cb11-4e37-8635-9ecb22204266","ios":"levelo://app?vid=03dc35e7-cb11-4e37-8635-9ecb22204266"},"vehicle_type_id":"4","last_reported":1740510460,"current_range_meters":16800,"station_id":"ce4bh492rcd13ifvqdvg","pricing_plan_id":"cebpf4jnsgd1na2vs0mg"},{"bike_id":"00ae39a7-eaa4-416b-96ca-93d822ceecf5","system_id":"levelo_inurba_marseille","lat":43.31532,"lon":5.38066,"is_reserved":false,"is_disabled":false,"rental_uris":{"android":"levelo://app?vid=00ae39a7-eaa4-416b-96ca-93d822ceecf5","ios":"levelo://app?vid=00ae39a7-eaa4-416b-96ca-93d822ceecf5"},"vehicle_type_id":"4","last_reported":1740510460,"current_range_meters":16400,"station_id":"ce4bhsp2rcd13ifvqi50","pricing_plan_id":"cebpf4jnsgd1na2vs0mg"},{"bike_id":"5851bf66-b92e-4171-910f-09aa31d0b097","system_id":"levelo_inurba_marseille","lat":43.31126,"lon":5.37763,"is_reserved":false,"is_disabled":false,"rental_uris":{"android":"levelo://app?vid=5851bf66-b92e-4171-910f-09aa31d0b097","ios":"levelo://app?vid=5851bf66-b92e-4171-910f-09aa31d0b097"},"vehicle_type_id":"4","last_reported":1740510460,"current_range_meters":16400,"station_id":"ce4bgt92rcd13ifvqcg0","pricing_plan_id":"cebpf4jnsgd1na2vs0mg"},{"bike_id":"bb953524-1b92-4c01-b6f7-6c8d4a329874","system_id":"levelo_inurba_marseille","lat":43.28264,"lon":5.35087,"is_reserved":false,"is_disabled":false,"rental_uris":{"android":"levelo://app?vid=bb953524-1b92-4c01-b6f7-6c8d4a329874","ios":"levelo://app?vid=bb953524-1b92-4c01-b6f7-6c8d4a329874"},"vehicle_type_id":"4","last_reported":1740510460,"current_range_meters":16800,"station_id":"ce4bhbp2rcd13ifvqerg","pricing_plan_id":"cebpf4jnsgd1na2vs0mg"},{"bike_id":"35574852-253b-4bbe-a6e3-ee31965d9ec8","system_id":"levelo_inurba_marseille","lat":43.32366,"lon":5.38891,"is_reserved":false,"is_disabled":false,"rental_uris":{"android":"levelo://app?vid=35574852-253b-4bbe-a6e3-ee31965d9ec8","ios":"levelo://app?vid=35574852-253b-4bbe-a6e3-ee31965d9ec8"},"vehicle_type_id":"4","last_reported":1740510460,"current_range_meters":16800,"station_id":"ce4bhqp2rcd13ifvqhog","pricing_plan_id":"cebpf4jnsgd1na2vs0mg"},{"bike_id":"2285c932-96d2-4e25-b5ab-a9d3a942aa52","system_id":"levelo_inurba_marseille","lat":43.32271,"lon":5.38256,"is_reserved":false,"is_disabled":false,"rental_uris":{"android":"levelo://app?vid=2285c932-96d2-4e25-b5ab-a9d3a942aa52","ios":"levelo://app?vid=2285c932-96d2-4e25-b5ab-a9d3a942aa52"},"vehicle_type_id":"4","last_reported":1740510460,"current_range_meters":16800,"station_id":"ce4bhr12rcd13ifvqhqg","pricing_plan_id":"cebpf4jnsgd1na2vs0mg"},{"bike_id":"12451835-3853-43ca-a98e-147997a5e2b1","system_id":"levelo_inurba_marseille","lat":43.28466,"lon":5.35887,"is_reserved":false,"is_disabled":false,"rental_uris":{"android":"levelo://app?vid=12451835-3853-43ca-a98e-147997a5e2b1","ios":"levelo://app?vid=12451835-3853-43ca-a98e-147997a5e2b1"},"vehicle_type_id":"4","last_reported":1740510460,"current_range_meters":16800,"station_id":"ce4bhah2rcd13ifvqei0","pricing_plan_id":"cebpf4jnsgd1na2vs0mg"},{"bike_id":"c348f99a-d066-45f2-ae70-96a10a0537c5","system_id":"levelo_inurba_marseille","lat":43.30786,"lon":5.38145,"is_reserved":false,"is_disabled":false,"rental_uris":{"android":"levelo://app?vid=c348f99a-d066-45f2-ae70-96a10a0537c5","ios":"levelo://app?vid=c348f99a-d066-45f2-ae70-96a10a0537c5"},"vehicle_type_id":"4","last_reported":1740510460,"current_range_meters":16800,"station_id":"ce4bgt12rcd13ifvqce0","pricing_plan_id":"cebpf4jnsgd1na2vs0mg"},{"bike_id":"7c4112af-4220-42f6-98e8-9f0ad4c08842","system_id":"levelo_inurba_marseille","lat":43.28411,"lon":5.37506,"is_reserved":false,"is_disabled":false,"rental_uris":{"android":"levelo://app?vid=7c4112af-4220-42f6-98e8-9f0ad4c08842","ios":"levelo://app?vid=7c4112af-4220-42f6-98e8-9f0ad4c08842"},"vehicle_type_id":"4","last_reported":1740510460,"current_range_meters":16800,"station_id":"ce4bh412rcd13ifvqds0","pricing_plan_id":"cebpf4jnsgd1na2vs0mg"},{"bike_id":"8be0c533-1d4f-447b-aec8-dcf2768b24cb","system_id":"levelo_inurba_marseille","lat":43.28614,"lon":5.35107,"is_reserved":false,"is_disabled":false,"rental_uris":{"android":"levelo://app?vid=8be0c533-1d4f-447b-aec8-dcf2768b24cb","ios":"levelo://app?vid=8be0c533-1d4f-447b-aec8-dcf2768b24cb"},"vehicle_type_id":"4","last_reported":1740510460,"current_range_meters":16800,"station_id":"ce4bhch2rcd13ifvqeug","pricing_plan_id":"cebpf4jnsgd1na2vs0mg"},{"bike_id":"413a2602-264e-43a4-98cf-ba5861b15c41","system_id":"levelo_inurba_marseille","lat":43.28142,"lon":5.42629,"is_reserved":false,"is_disabled":false,"rental_uris":{"android":"levelo://app?vid=413a2602-264e-43a4-98cf-ba5861b15c41","ios":"levelo://app?vid=413a2602-264e-43a4-98cf-ba5861b15c41"},"vehicle_type_id":"4","last_reported":1740510460,"current_range_meters":16800,"station_id":"ce4bhnh2rcd13ifvqgug","pricing_plan_id":"cebpf4jnsgd1na2vs0mg"},{"bike_id":"cbd97535-10e2-41ca-b89b-89ec1f67263c","system_id":"levelo_inurba_marseille","lat":43.25866,"lon":5.39891,"is_reserved":false,"is_disabled":false,"rental_uris":{"android":"levelo://app?vid=cbd97535-10e2-41ca-b89b-89ec1f67263c","ios":"levelo://app?vid=cbd97535-10e2-41ca-b89b-89ec1f67263c"},"vehicle_type_id":"4","last_reported":1740510460,"current_range_meters":18000,"station_id":"ce4bhl92rcd13ifvqghg","pricing_plan_id":"cebpf4jnsgd1na2vs0mg"},{"bike_id":"e1d1f14c-1797-487f-bad5-aeee03d5456a","system_id":"levelo_inurba_marseille","lat":43.24662,"lon":5.38183,"is_reserved":false,"is_disabled":false,"rental_uris":{"android":"levelo://app?vid=e1d1f14c-1797-487f-bad5-aeee03d5456a","ios":"levelo://app?vid=e1d1f14c-1797-487f-bad5-aeee03d5456a"},"vehicle_type_id":"4","last_reported":1740510460,"current_range_meters":17200,"station_id":"ce4bhih2rcd13ifvqfr0","pricing_plan_id":"cebpf4jnsgd1na2vs0mg"},{"bike_id":"134ae0c0-4a2e-43fe-ac00-96839d582905","system_id":"levelo_inurba_marseille","lat":43.30304,"lon":5.39213,"is_reserved":false,"is_disabled":false,"rental_uris":{"android":"levelo://app?vid=134ae0c0-4a2e-43fe-ac00-96839d582905","ios":"levelo://app?vid=134ae0c0-4a2e-43fe-ac00-96839d582905"},"vehicle_type_id":"4","last_reported":1740510460,"current_range_meters":17200,"station_id":"ce4bgkh2rcd13ifvqbk0","pricing_plan_id":"cebpf4jnsgd1na2vs0mg"},