{"last_updated":1778878221,"ttl":60,"version":"2.2","data":{"bikes":[{"bike_id":"3fa0babb-590c-429a-bfde-fba1786b5908","system_id":"levelo_inurba_marseille","lat":43.28943,"lon":5.36643,"is_reserved":false,"is_disabled":false,"rental_uris":{"android":"levelo://app?vid=3fa0babb-590c-429a-bfde-fba1786b5908","ios":"levelo://app?vid=3fa0babb-590c-429a-bfde-fba1786b5908"},"vehicle_type_id":"4","last_reported":1778878222,"current_range_meters":2800,"station_id":"ce4bhap2rcd13ifvqek0","pricing_plan_id":"cebpf4jnsgd1na2vs0mg"},{"bike_id":"0a8da169-8277-45f2-bd9a-ee690684d6fd","system_id":"levelo_inurba_marseille","lat":43.2858,"lon":5.39482,"is_reserved":false,"is_disabled":false,"rental_uris":{"android":"levelo://app?vid=0a8da169-8277-45f2-bd9a-ee690684d6fd","ios":"levelo://app?vid=0a8da169-8277-45f2-bd9a-ee690684d6fd"},"vehicle_type_id":"4","last_reported":1778878222,"current_range_meters":2800,"station_id":"ce4bh292rcd13ifvqdg0","pricing_plan_id":"cebpf4jnsgd1na2vs0mg"},{"bike_id":"c5cdf9c5-15dd-4c17-bee1-ed9122bf0048","system_id":"levelo_inurba_marseille","lat":43.29219,"lon":5.39979,"is_reserved":false,"is_disabled":false,"rental_uris":{"android":"levelo://app?vid=c5cdf9c5-15dd-4c17-bee1-ed9122bf0048","ios":"levelo://app?vid=c5cdf9c5-15dd-4c17-bee1-ed9122bf0048"},"vehicle_type_id":"4","last_reported":1778878222,"current_range_meters":2800,"station_id":"","pricing_plan_id":"cebpf4jnsgd1na2vs0mg"},{"bike_id":"93a2bc39-a4ee-41fa-847b-ab74e1513e6c","system_id":"levelo_inurba_marseille","lat":43.297487,"lon":5.427849,"is_reserved":false,"is_disabled":false,"rental_uris":{"android":"levelo://app?vid=93a2bc39-a4ee-41fa-847b-ab74e1513e6c","ios":"levelo://app?vid=93a2bc39-a4ee-41fa-847b-ab74e1513e6c"},"vehicle_type_id":"4","last_reported":1778878222,"current_range_meters":2800,"station_id":"st_d3md5207bmas73dh9klg","pricing_plan_id":"cebpf4jnsgd1na2vs0mg"},{"bike_id":"a425dc35-cde2-40c2-9344-bb507b8b92a2","system_id":"levelo_inurba_marseille","lat":43.22538,"lon":5.34816,"is_reserved":false,"is_disabled":false,"rental_uris":{"android":"levelo://app?vid=a425dc35-cde2-40c2-9344-bb507b8b92a2","ios":"levelo://app?vid=a425dc35-cde2-40c2-9344-bb507b8b92a2"},"vehicle_type_id":"4","last_reported":1778878222,"current_range_meters":2800,"station_id":"st_cvj5dfep6f1abm77gieg","pricing_plan_id":"cebpf4jnsgd1na2vs0mg"},{"bike_id":"7e89b669-fefa-47a4-a0c6-d36cc17f0ef4","system_id":"levelo_inurba_marseille","lat":43.28682,"lon":5.38672,"is_reserved":false,"is_disabled":false,"rental_uris":{"android":"levelo://app?vid=7e89b669-fefa-47a4-a0c6-d36cc17f0ef4","ios":"levelo://app?vid=7e89b669-fefa-47a4-a0c6-d36cc17f0ef4"},"vehicle_type_id":"4","last_reported":1778878222,"current_range_meters":2800,"station_id":"ce4bh492rcd13ifvqdug","pricing_plan_id":"cebpf4jnsgd1na2vs0mg"},{"bike_id":"adacfdc5-1bbc-4e77-b6c3-cf0f66b77d62","system_id":"levelo_inurba_marseille","lat":43.314888,"lon":5.372856,"is_reserved":false,"is_disabled":false,"rental_uris":{"android":"levelo://app?vid=adacfdc5-1bbc-4e77-b6c3-cf0f66b77d62","ios":"levelo://app?vid=adacfdc5-1bbc-4e77-b6c3-cf0f66b77d62"},"vehicle_type_id":"4","last_reported":1778878222,"current_range_meters":2800,"station_id":"ce4bgt12rcd13ifvqcd0","pricing_plan_id":"cebpf4jnsgd1na2vs0mg"},{"bike_id":"e1dea803-5986-4e39-8d90-6c2f464f81c4","system_id":"levelo_inurba_marseille","lat":43.2694,"lon":5.40235,"is_reserved":false,"is_disabled":false,"rental_uris":{"android":"levelo://app?vid=e1dea803-5986-4e39-8d90-6c2f464f81c4","ios":"levelo://app?vid=e1dea803-5986-4e39-8d90-6c2f464f81c4"},"vehicle_type_id":"4","last_reported":1778878222,"current_range_meters":2800,"station_id":"cjm6bp8fraef2m0cb0m0","pricing_plan_id":"cebpf4jnsgd1na2vs0mg"},{"bike_id":"cab684fb-1a8c-4de6-a4a6-b6a51ee10f38","system_id":"levelo_inurba_marseille","lat":43.24472,"lon":5.42528,"is_reserved":false,"is_disabled":false,"rental_uris":{"android":"levelo://app?vid=cab684fb-1a8c-4de6-a4a6-b6a51ee10f38","ios":"levelo://app?vid=cab684fb-1a8c-4de6-a4a6-b6a51ee10f38"},"vehicle_type_id":"4","last_reported":1778878222,"current_range_meters":3200,"station_id":"st_d4a3vfp97mjs738cd8kg","pricing_plan_id":"cebpf4jnsgd1na2vs0mg"},{"bike_id":"3a226fb6-c981-429f-a39f-63a91f63282f","system_id":"levelo_inurba_marseille","lat":43.28849,"lon":5.39663,"is_reserved":false,"is_disabled":false,"rental_uris":{"android":"levelo://app?vid=3a226fb6-c981-429f-a39f-63a91f63282f","ios":"levelo://app?vid=3a226fb6-c981-429f-a39f-63a91f63282f"},"vehicle_type_id":"4","last_reported":1778878222,"current_range_meters":3200,"station_id":"","pricing_plan_id":"cebpf4jnsgd1na2vs0mg"},{"bike_id":"87d19575-119c-4310-a22e-2244e4cb8127","system_id":"levelo_inurba_marseille","lat":43.28539,"lon":5.44088,"is_reserved":false,"is_disabled":false,"rental_uris":{"android":"levelo://app?vid=87d19575-119c-4310-a22e-2244e4cb8127","ios":"levelo://app?vid=87d19575-119c-4310-a22e-2244e4cb8127"},"vehicle_type_id":"4","last_reported":1778878222,"current_range_meters":3200,"station_id":"st_d3j3df2ikq2c7380ej80","pricing_plan_id":"cebpf4jnsgd1na2vs0mg"},{"bike_id":"f70bca84-65a6-43de-b703-dac8e8850c7d","system_id":"levelo_inurba_marseille","lat":43.24077,"lon":5.37732,"is_reserved":false,"is_disabled":true,"rental_uris":{"android":"levelo://app?vid=f70bca84-65a6-43de-b703-dac8e8850c7d","ios":"levelo://app?vid=f70bca84-65a6-43de-b703-dac8e8850c7d"},"vehicle_type_id":"4","last_reported":1778878222,"current_range_meters":3200,"station_id":"ce4bhnp2rcd13ifvqgvg","pricing_plan_id":"cebpf4jnsgd1na2vs0mg"},{"bike_id":"0e803ba0-9b23-4306-a628-f7a5ed5f7c82","system_id":"levelo_inurba_marseille","lat":43.2997,"lon":5.384965,"is_reserved":false,"is_disabled":false,"rental_uris":{"android":"levelo://app?vid=0e803ba0-9b23-4306-a628-f7a5ed5f7c82","ios":"levelo://app?vid=0e803ba0-9b23-4306-a628-f7a5ed5f7c82"},"vehicle_type_id":"4","last_reported":1778878222,"current_range_meters":3200,"station_id":"ce4bgj92rcd13ifvqbd0","pricing_plan_id":"cebpf4jnsgd1na2vs0mg"},{"bike_id":"a83534c6-8983-4df2-bb5e-ab7ee4522c95","system_id":"levelo_inurba_marseille","lat":43.23908,"lon":5.37449,"is_reserved":false,"is_disabled":true,"rental_uris":{"android":"levelo://app?vid=a83534c6-8983-4df2-bb5e-ab7ee4522c95","ios":"levelo://app?vid=a83534c6-8983-4df2-bb5e-ab7ee4522c95"},"vehicle_type_id":"4","last_reported":1778878222,"current_range_meters":3200,"station_id":"st_d6sm7csbq4hs73f8fpjg","pricing_plan_id":"cebpf4jnsgd1na2vs0mg"},{"bike_id":"7f01470e-6688-4b4b-8791-6fcc4ba5ec74","system_id":"levelo_inurba_marseille","lat":43.29958,"lon":5.38476,"is_reserved":false,"is_disabled":false,"rental_uris":{"android":"levelo://app?vid=7f01470e-6688-4b4b-8791-6fcc4ba5ec74","ios":"levelo://app?vid=7f01470e-6688-4b4b-8791-6fcc4ba5ec74"},"vehicle_type_id":"4","last_reported":1778878222,"current_range_meters":3200,"station_id":"ce4bgj92rcd13ifvqbd0","pricing_plan_id":"cebpf4jnsgd1na2vs0mg"},{"bike_id":"229cf617-9c12-45d0-858e-a17d71f412f9","system_id":"levelo_inurba_marseille","lat":43.28586,"lon":5.39455,"is_reserved":false,"is_disabled":false,"rental_uris":{"android":"levelo://app?vid=229cf617-9c12-45d0-858e-a17d71f412f9","ios":"levelo://app?vid=229cf617-9c12-45d0-858e-a17d71f412f9"},"vehicle_type_id":"4","last_reported":1778878222,"current_range_meters":3200,"station_id":"ce4bh292rcd13ifvqdg0","pricing_plan_id":"cebpf4jnsgd1na2vs0mg"},{"bike_id":"7576fbfb-0ca9-489f-98e7-fb3fd80c0d1b","system_id":"levelo_inurba_marseille","lat":43.33166,"lon":5.40646,"is_reserved":false,"is_disabled":false,"rental_uris":{"android":"levelo://app?vid=7576fbfb-0ca9-489f-98e7-fb3fd80c0d1b","ios":"levelo://app?vid=7576fbfb-0ca9-489f-98e7-fb3fd80c0d1b"},"vehicle_type_id":"4","last_reported":1778878222,"current_range_meters":3200,"station_id":"","pricing_plan_id":"cebpf4jnsgd1na2vs0mg"},{"bike_id":"1b6d0811-6b17-4022-90eb-50134ee2dc6d","system_id":"levelo_inurba_marseille","lat":43.29919,"lon":5.374754,"is_reserved":false,"is_disabled":false,"rental_uris":{"android":"levelo://app?vid=1b6d0811-6b17-4022-90eb-50134ee2dc6d","ios":"levelo://app?vid=1b6d0811-6b17-4022-90eb-50134ee2dc6d"},"vehicle_type_id":"4","last_reported":1778878222,"current_range_meters":3200,"station_id":"ce4bgjh2rcd13ifvqbg0","pricing_plan_id":"cebpf4jnsgd1na2vs0mg"},{"bike_id":"6cdaac9a-3c34-410e-bb03-3a1a8b3f7871","system_id":"levelo_inurba_marseille","lat":43.25878,"lon":5.39906,"is_reserved":false,"is_disabled":false,"rental_uris":{"android":"levelo://app?vid=6cdaac9a-3c34-410e-bb03-3a1a8b3f7871","ios":"levelo://app?vid=6cdaac9a-3c34-410e-bb03-3a1a8b3f7871"},"vehicle_type_id":"4","last_reported":1778878222,"current_range_meters":3200,"station_id":"ce4bhl92rcd13ifvqghg","pricing_plan_id":"cebpf4jnsgd1na2vs0mg"},{"bike_id":"3baf5a9b-5559-4a36-b229-69997a870645","system_id":"levelo_inurba_marseille","lat":43.225359,"lon":5.348402,"is_reserved":false,"is_disabled":true,"rental_uris":{"android":"levelo://app?vid=3baf5a9b-5559-4a36-b229-69997a870645","ios":"levelo://app?vid=3baf5a9b-5559-4a36-b229-69997a870645"},"vehicle_type_id":"4","last_reported":1778878222,"current_range_meters":3200,"station_id":"st_cvj5dfep6f1abm77gieg","pricing_plan_id":"cebpf4jnsgd1na2vs0mg"},{"bike_id":"9baaa860-c88b-473f-a4f7-f64be18e993b","system_id":"levelo_inurba_marseille","lat":43.29762,"lon":5.42791,"is_reserved":false,"is_disabled":false,"rental_uris":{"android":"levelo://app?vid=9baaa860-c88b-473f-a4f7-f64be18e993b","ios":"levelo://app?vid=9baaa860-c88b-473f-a4f7-f64be18e993b"},"vehicle_type_id":"4","last_reported":1778878222,"current_range_meters":3200,"station_id":"st_d3md5207bmas73dh9klg","pricing_plan_id":"cebpf4jnsgd1na2vs0mg"},{"bike_id":"20510ebc-4076-4bcb-b761-db4b2c2956bd","system_id":"levelo_inurba_marseille","lat":43.287,"lon":5.46675,"is_reserved":false,"is_disabled":false,"rental_uris":{"android":"levelo://app?vid=20510ebc-4076-4bcb-b761-db4b2c2956bd","ios":"levelo://app?vid=20510ebc-4076-4bcb-b761-db4b2c2956bd"},"vehicle_type_id":"4","last_reported":1778878222,"current_range_meters":3600,"station_id":"st_d6tc3vkotcvc738tfjhg","pricing_plan_id":"cebpf4jnsgd1na2vs0mg"},{"bike_id":"d0269de8-3c32-4788-9b84-09624c71b6fe","system_id":"levelo_inurba_marseille","lat":43.28033,"lon":5.36946,"is_reserved":false,"is_disabled":false,"rental_uris":{"android":"levelo://app?vid=d0269de8-3c32-4788-9b84-09624c71b6fe","ios":"levelo://app?vid=d0269de8-3c32-4788-9b84-09624c71b6fe"},"vehicle_type_id":"4","last_reported":1778878222,"current_range_meters":3600,"station_id":"ce4bha12rcd13ifvqef0","pricing_plan_id":"cebpf4jnsgd1na2vs0mg"},{"bike_id":"b2cf1e67-26b8-452e-bd05-a37e3395c3c6","system_id":"levelo_inurba_marseille","lat":43.24381,"lon":5.37042,"is_reserved":false,"is_disabled":false,"rental_uris":{"android":"levelo://app?vid=b2cf1e67-26b8-452e-bd05-a37e3395c3c6","ios":"levelo://app?vid=b2cf1e67-26b8-452e-bd05-a37e3395c3c6"},"vehicle_type_id":"4","last_reported":1778878222,"current_range_meters":3600,"station_id":"ce4bhhh2rcd13ifvqfk0","pricing_plan_id":"cebpf4jnsgd1na2vs0mg"},{"bike_id":"74ea02df-538e-448f-9439-5f21372d602f","system_id":"levelo_inurba_marseille","lat":43.25496,"lon":5.37649,"is_reserved":false,"is_disabled":false,"rental_uris":{"android":"levelo://app?vid=74ea02df-538e-448f-9439-5f21372d602f","ios":"levelo://app?vid=74ea02df-538e-448f-9439-5f21372d602f"},"vehicle_type_id":"4","last_reported":1778878222,"current_range_meters":3600,"station_id":"ce4bhh12rcd13ifvqff0","pricing_plan_id":"cebpf4jnsgd1na2vs0mg"},{"bike_id":"0951e4e7-8ca2-467f-92b1-5178c4a428d3","system_id":"levelo_inurba_marseille","lat":43.28539,"lon":5.44088,"is_reserved":false,"is_disabled":false,"rental_uris":{"android":"levelo://app?vid=0951e4e7-8ca2-467f-92b1-5178c4a428d3","ios":"levelo://app?vid=0951e4e7-8ca2-467f-92b1-5178c4a428d3"},"vehicle_type_id":"4","last_reported":1778878222,"current_range_meters":3600,"station_id":"st_d3j3df2ikq2c7380ej80","pricing_plan_id":"cebpf4jnsgd1na2vs0mg"},{"bike_id":"923a6d89-695c-4ed7-a582-cda745eaac0f","system_id":"levelo_inurba_marseille","lat":43.28413,"lon":5.34963,"is_reserved":false,"is_disabled":false,"rental_uris":{"android":"levelo://app?vid=923a6d89-695c-4ed7-a582-cda745eaac0f","ios":"levelo://app?vid=923a6d89-695c-4ed7-a582-cda745eaac0f"},"vehicle_type_id":"4","last_reported":1778878222,"current_range_meters":3600,"station_id":"ce4bhbh2rcd13ifvqepg","pricing_plan_id":"cebpf4jnsgd1na2vs0mg"},{"bike_id":"e389ad5e-3f35-4215-9efa-61c7983b7a07","system_id":"levelo_inurba_marseille","lat":43.28641,"lon":5.39826,"is_reserved":false,"is_disabled":false,"rental_uris":{"android":"levelo://app?vid=e389ad5e-3f35-4215-9efa-61c7983b7a07","ios":"levelo://app?vid=e389ad5e-3f35-4215-9efa-61c7983b7a07"},"vehicle_type_id":"4","last_reported":1778878222,"current_range_meters":3600,"station_id":"st_d4a7ka997mjs738ck50g","pricing_plan_id":"cebpf4jnsgd1na2vs0mg"},{"bike_id":"adc60f23-2581-4bfe-996e-5755bc0a4701","system_id":"levelo_inurba_marseille","lat":43.26242,"lon":5.4044,"is_reserved":false,"is_disabled":false,"rental_uris":{"android":"levelo://app?vid=adc60f23-2581-4bfe-996e-5755bc0a4701","ios":"levelo://app?vid=adc60f23-2581-4bfe-996e-5755bc0a4701"},"vehicle_type_id":"4","last_reported":1778878222,"current_range_meters":3600,"station_id":"ce4bhmh2rcd13ifvqgmg","pricing_plan_id":"cebpf4jnsgd1na2vs0mg"},{"bike_id":"4fc08505-42e4-48a7-a5bf-d9993ec1155a","system_id":"levelo_inurba_marseille","lat":43.225351,"lon":5.348298,"is_reserved":false,"is_disabled":false,"rental_uris":{"android":"levelo://app?vid=4fc08505-42e4-48a7-a5bf-d9993ec1155a","ios":"levelo://app?vid=4fc08505-42e4-48a7-a5bf-d9993ec1155a"},"vehicle_type_id":"4","last_reported":1778878222,"current_range_meters":3600,"station_id":"st_cvj5dfep6f1abm77gieg","pricing_plan_id":"cebpf4jnsgd1na2vs0mg"},{"bike_id":"20568bb8-29c4-46a1-96e4-06b272b642c4","system_id":"levelo_inurba_marseille","lat":43.28533,"lon":5.44096,"is_reserved":false,"is_disabled":false,"rental_uris":{"android":"levelo://app?vid=20568bb8-29c4-46a1-96e4-06b272b642c4","ios":"levelo://app?vid=20568bb8-29c4-46a1-96e4-06b272b642c4"},"vehicle_type_id":"4","last_reported":1778878222,"current_range_meters":3600,"station_id":"st_d3j3df2ikq2c7380ej80","pricing_plan_id":"cebpf4jnsgd1na2vs0mg"},{"bike_id":"2f3b0200-d892-453c-959c-cf416ccc6fb2","system_id":"levelo_inurba_marseille","lat":43.25824,"lon":5.3946,"is_reserved":false,"is_disabled":false,"rental_uris":{"android":"levelo://app?vid=2f3b0200-d892-453c-959c-cf416ccc6fb2","ios":"levelo://app?vid=2f3b0200-d892-453c-959c-cf416ccc6fb2"},"vehicle_type_id":"4","last_reported":1778878222,"current_range_meters":3600,"station_id":"ce4bhip2rcd13ifvqft0","pricing_plan_id":"cebpf4jnsgd1na2vs0mg"},{"bike_id":"b0aa9fd1-d67e-4fa3-a25e-b66b707e61c2","system_id":"levelo_inurba_marseille","lat":43.27374,"lon":5.36261,"is_reserved":false,"is_disabled":true,"rental_uris":{"android":"levelo://app?vid=b0aa9fd1-d67e-4fa3-a25e-b66b707e61c2","ios":"levelo://app?vid=b0aa9fd1-d67e-4fa3-a25e-b66b707e61c2"},"vehicle_type_id":"4","last_reported":1778878222,"current_range_meters":3600,"station_id":"ce4bhbh2rcd13ifvqeo0","pricing_plan_id":"cebpf4jnsgd1na2vs0mg"},{"bike_id":"7d1978c5-5fd0-4426-9e46-d41b9fc839b9","system_id":"levelo_inurba_marseille","lat":43.284041,"lon":5.375041,"is_reserved":false,"is_disabled":false,"rental_uris":{"android":"levelo://app?vid=7d1978c5-5fd0-4426-9e46-d41b9fc839b9","ios":"levelo://app?vid=7d1978c5-5fd0-4426-9e46-d41b9fc839b9"},"vehicle_type_id":"4","last_reported":1778878222,"current_range_meters":3600,"station_id":"ce4bh412rcd13ifvqds0","pricing_plan_id":"cebpf4jnsgd1na2vs0mg"},{"bike_id":"eb01b7c9-e11a-44bd-8786-1b4f0e556357","system_id":"levelo_inurba_marseille","lat":43.28672,"lon":5.42708,"is_reserved":false,"is_disabled":false,"rental_uris":{"android":"levelo://app?vid=eb01b7c9-e11a-44bd-8786-1b4f0e556357","ios":"levelo://app?vid=eb01b7c9-e11a-44bd-8786-1b4f0e556357"},"vehicle_type_id":"4","last_reported":1778878222,"current_range_meters":3600,"station_id":"","pricing_plan_id":"cebpf4jnsgd1na2vs0mg"},{"bike_id":"ddad536b-89bd-494c-a0c0-671e7f1975f6","system_id":"levelo_inurba_marseille","lat":43.255035,"lon":5.376549,"is_reserved":false,"is_disabled":false,"rental_uris":{"android":"levelo://app?vid=ddad536b-89bd-494c-a0c0-671e7f1975f6","ios":"levelo://app?vid=ddad536b-89bd-494c-a0c0-671e7f1975f6"},"vehicle_type_id":"4","last_reported":1778878222,"current_range_meters":3600,"station_id":"ce4bhh12rcd13ifvqff0","pricing_plan_id":"cebpf4jnsgd1na2vs0mg"},{"bike_id":"86efcdfb-ed60-4fca-85cf-c777453d2e90","system_id":"levelo_inurba_marseille","lat":43.28965,"lon":5.37837,"is_reserved":false,"is_disabled":false,"rental_uris":{"android":"levelo://app?vid=86efcdfb-ed60-4fca-85cf-c777453d2e90","ios":"levelo://app?vid=86efcdfb-ed60-4fca-85cf-c777453d2e90"},"vehicle_type_id":"4","last_reported":1778878222,"current_range_meters":4000,"station_id":"ce4bh9p2rcd13ifvqed0","pricing_plan_id":"cebpf4jnsgd1na2vs0mg"},{"bike_id":"67a33be5-f4dc-4541-aca5-66e05c08daa5","system_id":"levelo_inurba_marseille","lat":43.27921,"lon":5.3959,"is_reserved":false,"is_disabled":false,"rental_uris":{"android":"levelo://app?vid=67a33be5-f4dc-4541-aca5-66e05c08daa5","ios":"levelo://app?vid=67a33be5-f4dc-4541-aca5-66e05c08daa5"},"vehicle_type_id":"4","last_reported":1778878222,"current_range_meters":4000,"station_id":"ce4bhf92rcd13ifvqf40","pricing_plan_id":"cebpf4jnsgd1na2vs0mg"},{"bike_id":"fbc85beb-6fb3-4171-a1e8-0833d0a077fd","system_id":"levelo_inurba_marseille","lat":43.30952,"lon":5.39034,"is_reserved":false,"is_disabled":false,"rental_uris":{"android":"levelo://app?vid=fbc85beb-6fb3-4171-a1e8-0833d0a077fd","ios":"levelo://app?vid=fbc85beb-6fb3-4171-a1e8-0833d0a077fd"},"vehicle_type_id":"4","last_reported":1778878222,"current_range_meters":4000,"station_id":"ce4bgup2rcd13ifvqco0","pricing_plan_id":"cebpf4jnsgd1na2vs0mg"},{"bike_id":"11fd4e86-90a0-4b3c-96a3-611564e6faf8","system_id":"levelo_inurba_marseille","lat":43.28157,"lon":5.4264,"is_reserved":false,"is_disabled":false,"rental_uris":{"android":"levelo://app?vid=11fd4e86-90a0-4b3c-96a3-611564e6faf8","ios":"levelo://app?vid=11fd4e86-90a0-4b3c-96a3-611564e6faf8"},"vehicle_type_id":"4","last_reported":1778878222,"current_range_meters":4000,"station_id":"ce4bhnh2rcd13ifvqgug","pricing_plan_id":"cebpf4jnsgd1na2vs0mg"},{"bike_id":"82d8c0a2-3a90-4e89-a6ee-bf27a2909cec","system_id":"levelo_inurba_marseille","lat":43.29033,"lon":5.37567,"is_reserved":false,"is_disabled":false,"rental_uris":{"android":"levelo://app?vid=82d8c0a2-3a90-4e89-a6ee-bf27a2909cec","ios":"levelo://app?vid=82d8c0a2-3a90-4e89-a6ee-bf27a2909cec"},"vehicle_type_id":"4","last_reported":1778878222,"current_range_meters":4000,"station_id":"ce4bh692rcd13ifvqe90","pricing_plan_id":"cebpf4jnsgd1na2vs0mg"},{"bike_id":"d9078591-9929-4904-b106-ea5544f50efb","system_id":"levelo_inurba_marseille","lat":43.24695,"lon":5.40097,"is_reserved":false,"is_disabled":false,"rental_uris":{"android":"levelo://app?vid=d9078591-9929-4904-b106-ea5544f50efb","ios":"levelo://app?vid=d9078591-9929-4904-b106-ea5544f50efb"},"vehicle_type_id":"4","last_reported":1778878222,"current_range_meters":4000,"station_id":"","pricing_plan_id":"cebpf4jnsgd1na2vs0mg"},{"bike_id":"bdc41801-fcc3-4e4e-a2b0-55f80b6e4151","system_id":"levelo_inurba_marseille","lat":43.2962,"lon":5.38031,"is_reserved":false,"is_disabled":false,"rental_uris":{"android":"levelo://app?vid=bdc41801-fcc3-4e4e-a2b0-55f80b6e4151","ios":"levelo://app?vid=bdc41801-fcc3-4e4e-a2b0-55f80b6e4151"},"vehicle_type_id":"4","last_reported":1778878222,"current_range_meters":4000,"station_id":"","pricing_plan_id":"cebpf4jnsgd1na2vs0mg"},{"bike_id":"34fce597-7941-48b5-9710-e83b553645a7","system_id":"levelo_inurba_marseille","lat":43.28229,"lon":5.35039,"is_reserved":false,"is_disabled":false,"rental_uris":{"android":"levelo://app?vid=34fce597-7941-48b5-9710-e83b553645a7","ios":"levelo://app?vid=34fce597-7941-48b5-9710-e83b553645a7"},"vehicle_type_id":"4","last_reported":1778878222,"current_range_meters":4000,"station_id":"","pricing_plan_id":"cebpf4jnsgd1na2vs0mg"},{"bike_id":"f757b207-3fa8-4bae-b327-6e89c0774852","system_id":"levelo_inurba_marseille","lat":43.31514,"lon":5.37294,"is_reserved":false,"is_disabled":false,"rental_uris":{"android":"levelo://app?vid=f757b207-3fa8-4bae-b327-6e89c0774852","ios":"levelo://app?vid=f757b207-3fa8-4bae-b327-6e89c0774852"},"vehicle_type_id":"4","last_reported":1778878222,"current_range_meters":4000,"station_id":"ce4bgt12rcd13ifvqcd0","pricing_plan_id":"cebpf4jnsgd1na2vs0mg"},{"bike_id":"3e36cc8c-8622-49e5-a5f2-cdc7cb308db3","system_id":"levelo_inurba_marseille","lat":43.31086,"lon":5.4244,"is_reserved":false,"is_disabled":false,"rental_uris":{"android":"levelo://app?vid=3e36cc8c-8622-49e5-a5f2-cdc7cb308db3","ios":"levelo://app?vid=3e36cc8c-8622-49e5-a5f2-cdc7cb308db3"},"vehicle_type_id":"4","last_reported":1778878222,"current_range_meters":4000,"station_id":"ce4bhp92rcd13ifvqhag","pricing_plan_id":"cebpf4jnsgd1na2vs0mg"},{"bike_id":"5f39954f-0ef3-43a7-805b-15f80d4bb64e","system_id":"levelo_inurba_marseille","lat":43.22532,"lon":5.34853,"is_reserved":false,"is_disabled":true,"rental_uris":{"android":"levelo://app?vid=5f39954f-0ef3-43a7-805b-15f80d4bb64e","ios":"levelo://app?vid=5f39954f-0ef3-43a7-805b-15f80d4bb64e"},"vehicle_type_id":"4","last_reported":1778878222,"current_range_meters":4400,"station_id":"st_cvj5dfep6f1abm77gieg","pricing_plan_id":"cebpf4jnsgd1na2vs0mg"},{"bike_id":"173083eb-433e-4f04-b2ba-0796bde21f85","system_id":"levelo_inurba_marseille","lat":43.24811,"lon":5.37441,"is_reserved":false,"is_disabled":true,"rental_uris":{"android":"levelo://app?vid=173083eb-433e-4f04-b2ba-0796bde21f85","ios":"levelo://app?vid=173083eb-433e-4f04-b2ba-0796bde21f85"},"vehicle_type_id":"4","last_reported":1778878222,"current_range_meters":4400,"station_id":"ce4bhgh2rcd13ifvqfb0","pricing_plan_id":"cebpf4jnsgd1na2vs0mg"},{"bike_id":"c090c313-44be-4930-ad6f-626c77f95a00","system_id":"levelo_inurba_marseille","lat":43.22535,"lon":5.34818,"is_reserved":false,"is_disabled":true,"rental_uris":{"android":"levelo://app?vid=c090c313-44be-4930-ad6f-626c77f95a00","ios":"levelo://app?vid=c090c313-44be-4930-ad6f-626c77f95a00"},"vehicle_type_id":"4","last_reported":1778878222,"current_range_meters":4400,"station_id":"st_cvj5dfep6f1abm77gieg","pricing_plan_id":"cebpf4jnsgd1na2vs0mg"},{"bike_id":"e8ad1249-b947-42ba-9a1a-88200a2dcdf6","system_id":"levelo_inurba_marseille","lat":43.27919,"lon":5.39223,"is_reserved":false,"is_disabled":false,"rental_uris":{"android":"levelo://app?vid=e8ad1249-b947-42ba-9a1a-88200a2dcdf6","ios":"levelo://app?vid=e8ad1249-b947-42ba-9a1a-88200a2dcdf6"},"vehicle_type_id":"4","last_reported":1778878222,"current_range_meters":4400,"station_id":"","pricing_plan_id":"cebpf4jnsgd1na2vs0mg"},{"bike_id":"a45e2033-7cb4-42b1-b861-fd52f6ea95fc","system_id":"levelo_inurba_marseille","lat":43.31739,"lon":5.42412,"is_reserved":false,"is_disabled":false,"rental_uris":{"android":"levelo://app?vid=a45e2033-7cb4-42b1-b861-fd52f6ea95fc","ios":"levelo://app?vid=a45e2033-7cb4-42b1-b861-fd52f6ea95fc"},"vehicle_type_id":"4","last_reported":1778878222,"current_range_meters":4400,"station_id":"ce4bhp92rcd13ifvqhbg","pricing_plan_id":"cebpf4jnsgd1na2vs0mg"},{"bike_id":"2cbe58e2-74dc-4a92-ba13-27962f110768","system_id":"levelo_inurba_marseille","lat":43.27569,"lon":5.38412,"is_reserved":false,"is_disabled":false,"rental_uris":{"android":"levelo://app?vid=2cbe58e2-74dc-4a92-ba13-27962f110768","ios":"levelo://app?vid=2cbe58e2-74dc-4a92-ba13-27962f110768"},"vehicle_type_id":"4","last_reported":1778878222,"current_range_meters":4400,"station_id":"ce4bhh92rcd13ifvqfi0","pricing_plan_id":"cebpf4jnsgd1na2vs0mg"},{"bike_id":"39a5dbab-05ec-4f18-bbef-231e0fc4f2ae","system_id":"levelo_inurba_marseille","lat":43.33557,"lon":5.37455,"is_reserved":false,"is_disabled":false,"rental_uris":{"android":"levelo://app?vid=39a5dbab-05ec-4f18-bbef-231e0fc4f2ae","ios":"levelo://app?vid=39a5dbab-05ec-4f18-bbef-231e0fc4f2ae"},"vehicle_type_id":"4","last_reported":1778878222,"current_range_meters":4400,"station_id":"st_d46tts09ee8s73dlu43g","pricing_plan_id":"cebpf4jnsgd1na2vs0mg"},{"bike_id":"55846432-7e4a-4f5d-ac61-c6cb9c409d52","system_id":"levelo_inurba_marseille","lat":43.26495,"lon":5.39138,"is_reserved":false,"is_disabled":false,"rental_uris":{"android":"levelo://app?vid=55846432-7e4a-4f5d-ac61-c6cb9c409d52","ios":"levelo://app?vid=55846432-7e4a-4f5d-ac61-c6cb9c409d52"},"vehicle_type_id":"4","last_reported":1778878222,"current_range_meters":4400,"station_id":"","pricing_plan_id":"cebpf4jnsgd1na2vs0mg"},{"bike_id":"ce378638-0a38-4470-8164-2ef0ba13d0a3","system_id":"levelo_inurba_marseille","lat":43.33544,"lon":5.37464,"is_reserved":false,"is_disabled":false,"rental_uris":{"android":"levelo://app?vid=ce378638-0a38-4470-8164-2ef0ba13d0a3","ios":"levelo://app?vid=ce378638-0a38-4470-8164-2ef0ba13d0a3"},"vehicle_type_id":"4","last_reported":1778878222,"current_range_meters":4400,"station_id":"st_d46tts09ee8s73dlu43g","pricing_plan_id":"cebpf4jnsgd1na2vs0mg"},{"bike_id":"44e24269-7eb7-45ce-9d42-d572499b42da","system_id":"levelo_inurba_marseille","lat":43.28233,"lon":5.40569,"is_reserved":false,"is_disabled":false,"rental_uris":{"android":"levelo://app?vid=44e24269-7eb7-45ce-9d42-d572499b42da","ios":"levelo://app?vid=44e24269-7eb7-45ce-9d42-d572499b42da"},"vehicle_type_id":"4","last_reported":1778878222,"current_range_meters":4400,"station_id":"","pricing_plan_id":"cebpf4jnsgd1na2vs0mg"},{"bike_id":"61c61177-32be-44d8-9a6b-da28b800c75f","system_id":"levelo_inurba_marseille","lat":43.27846,"lon":5.40672,"is_reserved":false,"is_disabled":false,"rental_uris":{"android":"levelo://app?vid=61c61177-32be-44d8-9a6b-da28b800c75f","ios":"levelo://app?vid=61c61177-32be-44d8-9a6b-da28b800c75f"},"vehicle_type_id":"4","last_reported":1778878222,"current_range_meters":4400,"station_id":"","pricing_plan_id":"cebpf4jnsgd1na2vs0mg"},{"bike_id":"5f5fedd2-e4c3-4155-b14a-6deae22bfed8","system_id":"levelo_inurba_marseille","lat":43.25509,"lon":5.37661,"is_reserved":false,"is_disabled":false,"rental_uris":{"android":"levelo://app?vid=5f5fedd2-e4c3-4155-b14a-6deae22bfed8","ios":"levelo://app?vid=5f5fedd2-e4c3-4155-b14a-6deae22bfed8"},"vehicle_type_id":"4","last_reported":1778878222,"current_range_meters":4400,"station_id":"ce4bhh12rcd13ifvqff0","pricing_plan_id":"cebpf4jnsgd1na2vs0mg"},{"bike_id":"858010ea-7ab7-49e7-af55-2486802a6464","system_id":"levelo_inurba_marseille","lat":43.26202,"lon":5.37436,"is_reserved":false,"is_disabled":true,"rental_uris":{"android":"levelo://app?vid=858010ea-7ab7-49e7-af55-2486802a6464","ios":"levelo://app?vid=858010ea-7ab7-49e7-af55-2486802a6464"},"vehicle_type_id":"4","last_reported":1778878222,"current_range_meters":4400,"station_id":"ce4bhgp2rcd13ifvqfc0","pricing_plan_id":"cebpf4jnsgd1na2vs0mg"},{"bike_id":"77d91acc-9e56-43bf-9714-858cc7d3f278","system_id":"levelo_inurba_marseille","lat":43.27992,"lon":5.41647,"is_reserved":false,"is_disabled":false,"rental_uris":{"android":"levelo://app?vid=77d91acc-9e56-43bf-9714-858cc7d3f278","ios":"levelo://app?vid=77d91acc-9e56-43bf-9714-858cc7d3f278"},"vehicle_type_id":"4","last_reported":1778878222,"current_range_meters":4400,"station_id":"ce4bho12rcd13ifvqh1g","pricing_plan_id":"cebpf4jnsgd1na2vs0mg"},{"bike_id":"424acaa8-5f08-4305-9a3e-ce08e8de5d03","system_id":"levelo_inurba_marseille","lat":43.28855,"lon":5.42513,"is_reserved":false,"is_disabled":false,"rental_uris":{"android":"levelo://app?vid=424acaa8-5f08-4305-9a3e-ce08e8de5d03","ios":"levelo://app?vid=424acaa8-5f08-4305-9a3e-ce08e8de5d03"},"vehicle_type_id":"4","last_reported":1778878222,"current_range_meters":4400,"station_id":"st_d3b462108ojc7389ooeg","pricing_plan_id":"cebpf4jnsgd1na2vs0mg"},{"bike_id":"ed49e17b-9a7d-43df-b711-0ff8aa94792e","system_id":"levelo_inurba_marseille","lat":43.24071,"lon":5.37723,"is_reserved":false,"is_disabled":false,"rental_uris":{"android":"levelo://app?vid=ed49e17b-9a7d-43df-b711-0ff8aa94792e","ios":"levelo://app?vid=ed49e17b-9a7d-43df-b711-0ff8aa94792e"},"vehicle_type_id":"4","last_reported":1778878222,"current_range_meters":4800,"station_id":"ce4bhnp2rcd13ifvqgvg","pricing_plan_id":"cebpf4jnsgd1na2vs0mg"},{"bike_id":"61445e47-7919-4819-9d39-69657e25af11","system_id":"levelo_inurba_marseille","lat":43.30952,"lon":5.39033,"is_reserved":false,"is_disabled":false,"rental_uris":{"android":"levelo://app?vid=61445e47-7919-4819-9d39-69657e25af11","ios":"levelo://app?vid=61445e47-7919-4819-9d39-69657e25af11"},"vehicle_type_id":"4","last_reported":1778878222,"current_range_meters":4800,"station_id":"ce4bgup2rcd13ifvqco0","pricing_plan_id":"cebpf4jnsgd1na2vs0mg"},{"bike_id":"5f3b52ad-bdf9-472d-9fc0-d9079595fa5d","system_id":"levelo_inurba_marseille","lat":43.28279,"lon":5.35073,"is_reserved":false,"is_disabled":true,"rental_uris":{"android":"levelo://app?vid=5f3b52ad-bdf9-472d-9fc0-d9079595fa5d","ios":"levelo://app?vid=5f3b52ad-bdf9-472d-9fc0-d9079595fa5d"},"vehicle_type_id":"4","last_reported":1778878222,"current_range_meters":4800,"station_id":"ce4bhbp2rcd13ifvqerg","pricing_plan_id":"cebpf4jnsgd1na2vs0mg"},{"bike_id":"4eaf8de3-c61e-4855-a897-15b99a55565b","system_id":"levelo_inurba_marseille","lat":43.3052,"lon":5.38433,"is_reserved":false,"is_disabled":false,"rental_uris":{"android":"levelo://app?vid=4eaf8de3-c61e-4855-a897-15b99a55565b","ios":"levelo://app?vid=4eaf8de3-c61e-4855-a897-15b99a55565b"},"vehicle_type_id":"4","last_reported":1778878222,"current_range_meters":4800,"station_id":"ce4bgg92rcd13ifvqb30","pricing_plan_id":"cebpf4jnsgd1na2vs0mg"},{"bike_id":"8357a3d0-c2c6-4075-9e91-893d5ba7e8be","system_id":"levelo_inurba_marseille","lat":43.29039,"lon":5.39982,"is_reserved":false,"is_disabled":false,"rental_uris":{"android":"levelo://app?vid=8357a3d0-c2c6-4075-9e91-893d5ba7e8be","ios":"levelo://app?vid=8357a3d0-c2c6-4075-9e91-893d5ba7e8be"},"vehicle_type_id":"4","last_reported":1778878222,"current_range_meters":4800,"station_id":"ce4bh392rcd13ifvqdm0","pricing_plan_id":"cebpf4jnsgd1na2vs0mg"},{"bike_id":"9743fbe4-bf9c-48ae-9b9d-5c9b1005539a","system_id":"levelo_inurba_marseille","lat":43.29012,"lon":5.35614,"is_reserved":false,"is_disabled":false,"rental_uris":{"android":"levelo://app?vid=9743fbe4-bf9c-48ae-9b9d-5c9b1005539a","ios":"levelo://app?vid=9743fbe4-bf9c-48ae-9b9d-5c9b1005539a"},"vehicle_type_id":"4","last_reported":1778878222,"current_range_meters":4800,"station_id":"ce4bhb92rcd13ifvqen0","pricing_plan_id":"cebpf4jnsgd1na2vs0mg"},{"bike_id":"ecb558d7-857a-4ff8-b8c9-4698ee03c775","system_id":"levelo_inurba_marseille","lat":43.29184,"lon":5.38592,"is_reserved":false,"is_disabled":false,"rental_uris":{"android":"levelo://app?vid=ecb558d7-857a-4ff8-b8c9-4698ee03c775","ios":"levelo://app?vid=ecb558d7-857a-4ff8-b8c9-4698ee03c775"},"vehicle_type_id":"4","last_reported":1778878222,"current_range_meters":4800,"station_id":"","pricing_plan_id":"cebpf4jnsgd1na2vs0mg"},{"bike_id":"7f9e6fa8-c11b-4b0c-8f86-15d6fc061ea4","system_id":"levelo_inurba_marseille","lat":43.28926,"lon":5.3839,"is_reserved":false,"is_disabled":false,"rental_uris":{"android":"levelo://app?vid=7f9e6fa8-c11b-4b0c-8f86-15d6fc061ea4","ios":"levelo://app?vid=7f9e6fa8-c11b-4b0c-8f86-15d6fc061ea4"},"vehicle_type_id":"4","last_reported":1778878222,"current_range_meters":4800,"station_id":"ce4bh612rcd13ifvqe6g","pricing_plan_id":"cebpf4jnsgd1na2vs0mg"},{"bike_id":"0f80474b-54f6-4cc1-bcf2-be968c9eae6b","system_id":"levelo_inurba_marseille","lat":43.30139,"lon":5.38095,"is_reserved":false,"is_disabled":true,"rental_uris":{"android":"levelo://app?vid=0f80474b-54f6-4cc1-bcf2-be968c9eae6b","ios":"levelo://app?vid=0f80474b-54f6-4cc1-bcf2-be968c9eae6b"},"vehicle_type_id":"4","last_reported":1778878222,"current_range_meters":4800,"station_id":"ce4bgjp2rcd13ifvqbh0","pricing_plan_id":"cebpf4jnsgd1na2vs0mg"},{"bike_id":"6a3d30b4-2ff8-40bf-8295-496fef4a1386","system_id":"levelo_inurba_marseille","lat":43.229304,"lon":5.353776,"is_reserved":false,"is_disabled":false,"rental_uris":{"android":"levelo://app?vid=6a3d30b4-2ff8-40bf-8295-496fef4a1386","ios":"levelo://app?vid=6a3d30b4-2ff8-40bf-8295-496fef4a1386"},"vehicle_type_id":"4","last_reported":1778878222,"current_range_meters":4800,"station_id":"cpo3532slgdg3j2ikp40","pricing_plan_id":"cebpf4jnsgd1na2vs0mg"},{"bike_id":"98b7075f-ebb0-481a-b262-f88a0794f8c2","system_id":"levelo_inurba_marseille","lat":43.270612,"lon":5.402586,"is_reserved":false,"is_disabled":false,"rental_uris":{"android":"levelo://app?vid=98b7075f-ebb0-481a-b262-f88a0794f8c2","ios":"levelo://app?vid=98b7075f-ebb0-481a-b262-f88a0794f8c2"},"vehicle_type_id":"4","last_reported":1778878222,"current_range_meters":4800,"station_id":"ce4bhk92rcd13ifvqgc0","pricing_plan_id":"cebpf4jnsgd1na2vs0mg"},{"bike_id":"e6d37f33-4c0a-4138-a006-2e1c3f741cc6","system_id":"levelo_inurba_marseille","lat":43.26346,"lon":5.40136,"is_reserved":false,"is_disabled":false,"rental_uris":{"android":"levelo://app?vid=e6d37f33-4c0a-4138-a006-2e1c3f741cc6","ios":"levelo://app?vid=e6d37f33-4c0a-4138-a006-2e1c3f741cc6"},"vehicle_type_id":"4","last_reported":1778878222,"current_range_meters":4800,"station_id":"","pricing_plan_id":"cebpf4jnsgd1na2vs0mg"},{"bike_id":"754cb02b-ff5a-4404-bd40-f4bed146b203","system_id":"levelo_inurba_marseille","lat":43.29811,"lon":5.38088,"is_reserved":false,"is_disabled":false,"rental_uris":{"android":"levelo://app?vid=754cb02b-ff5a-4404-bd40-f4bed146b203","ios":"levelo://app?vid=754cb02b-ff5a-4404-bd40-f4bed146b203"},"vehicle_type_id":"4","last_reported":1778878222,"current_range_meters":4800,"station_id":"ce4bgip2rcd13ifvqbb0","pricing_plan_id":"cebpf4jnsgd1na2vs0mg"},{"bike_id":"6fd6c72d-95b9-41e6-b823-3e6d8786eeb5","system_id":"levelo_inurba_marseille","lat":43.27072,"lon":5.42273,"is_reserved":false,"is_disabled":false,"rental_uris":{"android":"levelo://app?vid=6fd6c72d-95b9-41e6-b823-3e6d8786eeb5","ios":"levelo://app?vid=6fd6c72d-95b9-41e6-b823-3e6d8786eeb5"},"vehicle_type_id":"4","last_reported":1778878222,"current_range_meters":4800,"station_id":"ce4bhk92rcd13ifvqgb0","pricing_plan_id":"cebpf4jnsgd1na2vs0mg"},{"bike_id":"77ba83b6-ab22-408a-a53b-a8380da89f42","system_id":"levelo_inurba_marseille","lat":43.30961,"lon":5.39052,"is_reserved":false,"is_disabled":false,"rental_uris":{"android":"levelo://app?vid=77ba83b6-ab22-408a-a53b-a8380da89f42","ios":"levelo://app?vid=77ba83b6-ab22-408a-a53b-a8380da89f42"},"vehicle_type_id":"4","last_reported":1778878222,"current_range_meters":4800,"station_id":"ce4bgup2rcd13ifvqco0","pricing_plan_id":"cebpf4jnsgd1na2vs0mg"},{"bike_id":"e9540734-a0b5-4f81-803e-ebcad43790fa","system_id":"levelo_inurba_marseille","lat":43.29256,"lon":5.38448,"is_reserved":false,"is_disabled":false,"rental_uris":{"android":"levelo://app?vid=e9540734-a0b5-4f81-803e-ebcad43790fa","ios":"levelo://app?vid=e9540734-a0b5-4f81-803e-ebcad43790fa"},"vehicle_type_id":"4","last_reported":1778878222,"current_range_meters":4800,"station_id":"ce4bh692rcd13ifvqea0","pricing_plan_id":"cebpf4jnsgd1na2vs0mg"},{"bike_id":"2b549302-8bcd-4b7c-819e-5b1943de5c70","system_id":"levelo_inurba_marseille","lat":43.29524,"lon":5.40553,"is_reserved":false,"is_disabled":false,"rental_uris":{"android":"levelo://app?vid=2b549302-8bcd-4b7c-819e-5b1943de5c70","ios":"levelo://app?vid=2b549302-8bcd-4b7c-819e-5b1943de5c70"},"vehicle_type_id":"4","last_reported":1778878222,"current_range_meters":5600,"station_id":"","pricing_plan_id":"cebpf4jnsgd1na2vs0mg"},{"bike_id":"2e371db6-98fb-4a15-91a6-4a398ccbd280","system_id":"levelo_inurba_marseille","lat":43.30526,"lon":5.36538,"is_reserved":false,"is_disabled":false,"rental_uris":{"android":"levelo://app?vid=2e371db6-98fb-4a15-91a6-4a398ccbd280","ios":"levelo://app?vid=2e371db6-98fb-4a15-91a6-4a398ccbd280"},"vehicle_type_id":"4","last_reported":1778878222,"current_range_meters":5600,"station_id":"ce4bgs12rcd13ifvqcag","pricing_plan_id":"cebpf4jnsgd1na2vs0mg"},{"bike_id":"ce012fe2-c399-4366-83fa-6b429736e9fc","system_id":"levelo_inurba_marseille","lat":43.29929,"lon":5.36538,"is_reserved":false,"is_disabled":false,"rental_uris":{"android":"levelo://app?vid=ce012fe2-c399-4366-83fa-6b429736e9fc","ios":"levelo://app?vid=ce012fe2-c399-4366-83fa-6b429736e9fc"},"vehicle_type_id":"4","last_reported":1778878222,"current_range_meters":5600,"station_id":"ce4bh3h2rcd13ifvqdo0","pricing_plan_id":"cebpf4jnsgd1na2vs0mg"},{"bike_id":"c2efe719-dd3b-4484-a25a-adc7b444f382","system_id":"levelo_inurba_marseille","lat":43.24689,"lon":5.3813,"is_reserved":false,"is_disabled":true,"rental_uris":{"android":"levelo://app?vid=c2efe719-dd3b-4484-a25a-adc7b444f382","ios":"levelo://app?vid=c2efe719-dd3b-4484-a25a-adc7b444f382"},"vehicle_type_id":"4","last_reported":1778878222,"current_range_meters":5600,"station_id":"ce4bhih2rcd13ifvqfr0","pricing_plan_id":"cebpf4jnsgd1na2vs0mg"},{"bike_id":"fc868825-5a70-477f-8a40-b21a3356b96e","system_id":"levelo_inurba_marseille","lat":43.2926,"lon":5.36847,"is_reserved":false,"is_disabled":false,"rental_uris":{"android":"levelo://app?vid=fc868825-5a70-477f-8a40-b21a3356b96e","ios":"levelo://app?vid=fc868825-5a70-477f-8a40-b21a3356b96e"},"vehicle_type_id":"4","last_reported":1778878222,"current_range_meters":5600,"station_id":"ce4bhbp2rcd13ifvqesg","pricing_plan_id":"cebpf4jnsgd1na2vs0mg"},{"bike_id":"fdeaff8b-efca-4b46-9220-78e4605aa592","system_id":"levelo_inurba_marseille","lat":43.26225,"lon":5.38755,"is_reserved":false,"is_disabled":false,"rental_uris":{"android":"levelo://app?vid=fdeaff8b-efca-4b46-9220-78e4605aa592","ios":"levelo://app?vid=fdeaff8b-efca-4b46-9220-78e4605aa592"},"vehicle_type_id":"4","last_reported":1778878222,"current_range_meters":5600,"station_id":"","pricing_plan_id":"cebpf4jnsgd1na2vs0mg"},{"bike_id":"7ec6e17f-b6ca-43f7-94b8-59588844b14a","system_id":"levelo_inurba_marseille","lat":43.29569,"lon":5.37496,"is_reserved":false,"is_disabled":false,"rental_uris":{"android":"levelo://app?vid=7ec6e17f-b6ca-43f7-94b8-59588844b14a","ios":"levelo://app?vid=7ec6e17f-b6ca-43f7-94b8-59588844b14a"},"vehicle_type_id":"4","last_reported":1778878222,"current_range_meters":5600,"station_id":"ce4bgh92rcd13ifvqb50","pricing_plan_id":"cebpf4jnsgd1na2vs0mg"},{"bike_id":"b8c8afda-5bd9-4912-b2c2-29101f3ff765","system_id":"levelo_inurba_marseille","lat":43.24679,"lon":5.38156,"is_reserved":false,"is_disabled":false,"rental_uris":{"android":"levelo://app?vid=b8c8afda-5bd9-4912-b2c2-29101f3ff765","ios":"levelo://app?vid=b8c8afda-5bd9-4912-b2c2-29101f3ff765"},"vehicle_type_id":"4","last_reported":1778878222,"current_range_meters":5600,"station_id":"ce4bhih2rcd13ifvqfr0","pricing_plan_id":"cebpf4jnsgd1na2vs0mg"},{"bike_id":"cecd8450-5bd7-4658-915c-57bff291c467","system_id":"levelo_inurba_marseille","lat":43.23967,"lon":5.36627,"is_reserved":false,"is_disabled":false,"rental_uris":{"android":"levelo://app?vid=cecd8450-5bd7-4658-915c-57bff291c467","ios":"levelo://app?vid=cecd8450-5bd7-4658-915c-57bff291c467"},"vehicle_type_id":"4","last_reported":1778878222,"current_range_meters":5600,"station_id":"ce4bhi12rcd13ifvqfp0","pricing_plan_id":"cebpf4jnsgd1na2vs0mg"},{"bike_id":"1824e253-057b-40ee-a9ed-1bf9387f9376","system_id":"levelo_inurba_marseille","lat":43.22546,"lon":5.34897,"is_reserved":false,"is_disabled":false,"rental_uris":{"android":"levelo://app?vid=1824e253-057b-40ee-a9ed-1bf9387f9376","ios":"levelo://app?vid=1824e253-057b-40ee-a9ed-1bf9387f9376"},"vehicle_type_id":"4","last_reported":1778878222,"current_range_meters":5600,"station_id":"st_cvj5dfep6f1abm77gieg","pricing_plan_id":"cebpf4jnsgd1na2vs0mg"},{"bike_id":"5b301d4b-cbe6-45f2-a426-858b11807c8d","system_id":"levelo_inurba_marseille","lat":43.24412,"lon":5.37053,"is_reserved":false,"is_disabled":false,"rental_uris":{"android":"levelo://app?vid=5b301d4b-cbe6-45f2-a426-858b11807c8d","ios":"levelo://app?vid=5b301d4b-cbe6-45f2-a426-858b11807c8d"},"vehicle_type_id":"4","last_reported":1778878222,"current_range_meters":5600,"station_id":"ce4bhhh2rcd13ifvqfk0","pricing_plan_id":"cebpf4jnsgd1na2vs0mg"},{"bike_id":"d7b01c2f-31ff-455f-99f4-862a13fdb3d0","system_id":"levelo_inurba_marseille","lat":43.26012,"lon":5.37527,"is_reserved":false,"is_disabled":false,"rental_uris":{"android":"levelo://app?vid=d7b01c2f-31ff-455f-99f4-862a13fdb3d0","ios":"levelo://app?vid=d7b01c2f-31ff-455f-99f4-862a13fdb3d0"},"vehicle_type_id":"4","last_reported":1778878222,"current_range_meters":5600,"station_id":"ce4bhgh2rcd13ifvqfa0","pricing_plan_id":"cebpf4jnsgd1na2vs0mg"},{"bike_id":"c41ca7da-e721-45b7-bf6f-7c138b4dd414","system_id":"levelo_inurba_marseille","lat":43.2997,"lon":5.38701,"is_reserved":false,"is_disabled":false,"rental_uris":{"android":"levelo://app?vid=c41ca7da-e721-45b7-bf6f-7c138b4dd414","ios":"levelo://app?vid=c41ca7da-e721-45b7-bf6f-7c138b4dd414"},"vehicle_type_id":"4","last_reported":1778878222,"current_range_meters":5600,"station_id":"","pricing_plan_id":"cebpf4jnsgd1na2vs0mg"},{"bike_id":"29acf0fc-9708-413f-9f36-e2b08ea9b886","system_id":"levelo_inurba_marseille","lat":43.2448,"lon":5.42529,"is_reserved":false,"is_disabled":false,"rental_uris":{"android":"levelo://app?vid=29acf0fc-9708-413f-9f36-e2b08ea9b886","ios":"levelo://app?vid=29acf0fc-9708-413f-9f36-e2b08ea9b886"},"vehicle_type_id":"4","last_reported":1778878222,"current_range_meters":5600,"station_id":"st_d4a3vfp97mjs738cd8kg","pricing_plan_id":"cebpf4jnsgd1na2vs0mg"},{"bike_id":"1ab3b920-6e44-48ee-8445-ba27c71c0c0b","system_id":"levelo_inurba_marseille","lat":43.24074,"lon":5.37747,"is_reserved":false,"is_disabled":false,"rental_uris":{"android":"levelo://app?vid=1ab3b920-6e44-48ee-8445-ba27c71c0c0b","ios":"levelo://app?vid=1ab3b920-6e44-48ee-8445-ba27c71c0c0b"},"vehicle_type_id":"4","last_reported":1778878222,"current_range_meters":5600,"station_id":"ce4bhnp2rcd13ifvqgvg","pricing_plan_id":"cebpf4jnsgd1na2vs0mg"},{"bike_id":"506d52b5-bd08-4ef8-b66d-5f129d60df0a","system_id":"levelo_inurba_marseille","lat":43.27393,"lon":5.36275,"is_reserved":false,"is_disabled":false,"rental_uris":{"android":"levelo://app?vid=506d52b5-bd08-4ef8-b66d-5f129d60df0a","ios":"levelo://app?vid=506d52b5-bd08-4ef8-b66d-5f129d60df0a"},"vehicle_type_id":"4","last_reported":1778878222,"current_range_meters":5600,"station_id":"ce4bhbh2rcd13ifvqeo0","pricing_plan_id":"cebpf4jnsgd1na2vs0mg"},{"bike_id":"be4409b2-4863-46d2-9648-2f1ec2069cb7","system_id":"levelo_inurba_marseille","lat":43.286725,"lon":5.386723,"is_reserved":false,"is_disabled":false,"rental_uris":{"android":"levelo://app?vid=be4409b2-4863-46d2-9648-2f1ec2069cb7","ios":"levelo://app?vid=be4409b2-4863-46d2-9648-2f1ec2069cb7"},"vehicle_type_id":"4","last_reported":1778878222,"current_range_meters":5600,"station_id":"ce4bh492rcd13ifvqdug","pricing_plan_id":"cebpf4jnsgd1na2vs0mg"},{"bike_id":"c7b72166-1a0d-4403-96ce-bf48f49d4526","system_id":"levelo_inurba_marseille","lat":43.29505,"lon":5.38549,"is_reserved":false,"is_disabled":false,"rental_uris":{"android":"levelo://app?vid=c7b72166-1a0d-4403-96ce-bf48f49d4526","ios":"levelo://app?vid=c7b72166-1a0d-4403-96ce-bf48f49d4526"},"vehicle_type_id":"4","last_reported":1778878222,"current_range_meters":5600,"station_id":"ce4bgih2rcd13ifvqba0","pricing_plan_id":"cebpf4jnsgd1na2vs0mg"},{"bike_id":"3512f8b2-4a85-4663-951b-85607236c8fd","system_id":"levelo_inurba_marseille","lat":43.29564,"lon":5.37526,"is_reserved":false,"is_disabled":false,"rental_uris":{"android":"levelo://app?vid=3512f8b2-4a85-4663-951b-85607236c8fd","ios":"levelo://app?vid=3512f8b2-4a85-4663-951b-85607236c8fd"},"vehicle_type_id":"4","last_reported":1778878222,"current_range_meters":6000,"station_id":"ce4bgh92rcd13ifvqb50","pricing_plan_id":"cebpf4jnsgd1na2vs0mg"},{"bike_id":"e0306397-f038-4505-b826-faebdedc7791","system_id":"levelo_inurba_marseille","lat":43.28359,"lon":5.38091,"is_reserved":false,"is_disabled":false,"rental_uris":{"android":"levelo://app?vid=e0306397-f038-4505-b826-faebdedc7791","ios":"levelo://app?vid=e0306397-f038-4505-b826-faebdedc7791"},"vehicle_type_id":"4","last_reported":1778878222,"current_range_meters":6000,"station_id":"ce4bh412rcd13ifvqdr0","pricing_plan_id":"cebpf4jnsgd1na2vs0mg"},{"bike_id":"059d2731-674c-495e-8074-58c8637b837f","system_id":"levelo_inurba_marseille","lat":43.24796,"lon":5.37454,"is_reserved":false,"is_disabled":false,"rental_uris":{"android":"levelo://app?vid=059d2731-674c-495e-8074-58c8637b837f","ios":"levelo://app?vid=059d2731-674c-495e-8074-58c8637b837f"},"vehicle_type_id":"4","last_reported":1778878222,"current_range_meters":6000,"station_id":"ce4bhgh2rcd13ifvqfb0","pricing_plan_id":"cebpf4jnsgd1na2vs0mg"},{"bike_id":"aeb01a89-0963-4caf-a62a-62cc583a7a73","system_id":"levelo_inurba_marseille","lat":43.337444,"lon":5.374475,"is_reserved":false,"is_disabled":true,"rental_uris":{"android":"levelo://app?vid=aeb01a89-0963-4caf-a62a-62cc583a7a73","ios":"levelo://app?vid=aeb01a89-0963-4caf-a62a-62cc583a7a73"},"vehicle_type_id":"4","last_reported":1778878222,"current_range_meters":6000,"station_id":"","pricing_plan_id":"cebpf4jnsgd1na2vs0mg"},{"bike_id":"fc407f37-156e-432b-9d57-dcc9b4d0b667","system_id":"levelo_inurba_marseille","lat":43.255,"lon":5.37658,"is_reserved":false,"is_disabled":false,"rental_uris":{"android":"levelo://app?vid=fc407f37-156e-432b-9d57-dcc9b4d0b667","ios":"levelo://app?vid=fc407f37-156e-432b-9d57-dcc9b4d0b667"},"vehicle_type_id":"4","last_reported":1778878222,"current_range_meters":6000,"station_id":"ce4bhh12rcd13ifvqff0","pricing_plan_id":"cebpf4jnsgd1na2vs0mg"},{"bike_id":"85a82b0a-0eb4-4c23-82bd-afbae25a52ad","system_id":"levelo_inurba_marseille","lat":43.29634,"lon":5.37162,"is_reserved":false,"is_disabled":false,"rental_uris":{"android":"levelo://app?vid=85a82b0a-0eb4-4c23-82bd-afbae25a52ad","ios":"levelo://app?vid=85a82b0a-0eb4-4c23-82bd-afbae25a52ad"},"vehicle_type_id":"4","last_reported":1778878222,"current_range_meters":6000,"station_id":"ce4bgnh2rcd13ifvqc0g","pricing_plan_id":"cebpf4jnsgd1na2vs0mg"},{"bike_id":"e0bac867-b38a-4938-b7a4-8724cf4de814","system_id":"levelo_inurba_marseille","lat":43.27622,"lon":5.36106,"is_reserved":false,"is_disabled":false,"rental_uris":{"android":"levelo://app?vid=e0bac867-b38a-4938-b7a4-8724cf4de814","ios":"levelo://app?vid=e0bac867-b38a-4938-b7a4-8724cf4de814"},"vehicle_type_id":"4","last_reported":1778878222,"current_range_meters":6000,"station_id":"ce4bgj92rcd13ifvqbe0","pricing_plan_id":"cebpf4jnsgd1na2vs0mg"},{"bike_id":"453596bc-abb7-4cc4-8677-556e8d7ce35f","system_id":"levelo_inurba_marseille","lat":43.24827,"lon":5.37481,"is_reserved":false,"is_disabled":false,"rental_uris":{"android":"levelo://app?vid=453596bc-abb7-4cc4-8677-556e8d7ce35f","ios":"levelo://app?vid=453596bc-abb7-4cc4-8677-556e8d7ce35f"},"vehicle_type_id":"4","last_reported":1778878222,"current_range_meters":6000,"station_id":"ce4bhgh2rcd13ifvqfb0","pricing_plan_id":"cebpf4jnsgd1na2vs0mg"},{"bike_id":"ef0d8c70-6a90-42d2-ae31-412bf5cf5bb8","system_id":"levelo_inurba_marseille","lat":43.28701,"lon":5.39958,"is_reserved":false,"is_disabled":false,"rental_uris":{"android":"levelo://app?vid=ef0d8c70-6a90-42d2-ae31-412bf5cf5bb8","ios":"levelo://app?vid=ef0d8c70-6a90-42d2-ae31-412bf5cf5bb8"},"vehicle_type_id":"4","last_reported":1778878222,"current_range_meters":6000,"station_id":"ce4bho92rcd13ifvqh3g","pricing_plan_id":"cebpf4jnsgd1na2vs0mg"},{"bike_id":"dde52417-7789-4fcf-ade6-3dd4208b5dfc","system_id":"levelo_inurba_marseille","lat":43.32951,"lon":5.38919,"is_reserved":false,"is_disabled":false,"rental_uris":{"android":"levelo://app?vid=dde52417-7789-4fcf-ade6-3dd4208b5dfc","ios":"levelo://app?vid=dde52417-7789-4fcf-ade6-3dd4208b5dfc"},"vehicle_type_id":"4","last_reported":1778878222,"current_range_meters":6000,"station_id":"","pricing_plan_id":"cebpf4jnsgd1na2vs0mg"},{"bike_id":"5e6d6660-d7ee-4560-b488-11dbf100804c","system_id":"levelo_inurba_marseille","lat":43.23182,"lon":5.39998,"is_reserved":false,"is_disabled":false,"rental_uris":{"android":"levelo://app?vid=5e6d6660-d7ee-4560-b488-11dbf100804c","ios":"levelo://app?vid=5e6d6660-d7ee-4560-b488-11dbf100804c"},"vehicle_type_id":"4","last_reported":1778878222,"current_range_meters":6000,"station_id":"ce4bhn12rcd13ifvqgqg","pricing_plan_id":"cebpf4jnsgd1na2vs0mg"},{"bike_id":"3fc1aafd-d004-4aef-8fc6-3f7926e18c57","system_id":"levelo_inurba_marseille","lat":43.31088,"lon":5.42423,"is_reserved":false,"is_disabled":false,"rental_uris":{"android":"levelo://app?vid=3fc1aafd-d004-4aef-8fc6-3f7926e18c57","ios":"levelo://app?vid=3fc1aafd-d004-4aef-8fc6-3f7926e18c57"},"vehicle_type_id":"4","last_reported":1778878222,"current_range_meters":6000,"station_id":"ce4bhp92rcd13ifvqhag","pricing_plan_id":"cebpf4jnsgd1na2vs0mg"},{"bike_id":"77353cea-91d2-493c-a25c-1d1a4432617c","system_id":"levelo_inurba_marseille","lat":43.29285,"lon":5.37457,"is_reserved":false,"is_disabled":false,"rental_uris":{"android":"levelo://app?vid=77353cea-91d2-493c-a25c-1d1a4432617c","ios":"levelo://app?vid=77353cea-91d2-493c-a25c-1d1a4432617c"},"vehicle_type_id":"4","last_reported":1778878222,"current_range_meters":6000,"station_id":"ce4bgi12rcd13ifvqb70","pricing_plan_id":"cebpf4jnsgd1na2vs0mg"},{"bike_id":"2c750280-1755-4e52-831a-5782f129b868","system_id":"levelo_inurba_marseille","lat":43.24398,"lon":5.37084,"is_reserved":false,"is_disabled":false,"rental_uris":{"android":"levelo://app?vid=2c750280-1755-4e52-831a-5782f129b868","ios":"levelo://app?vid=2c750280-1755-4e52-831a-5782f129b868"},"vehicle_type_id":"4","last_reported":1778878222,"current_range_meters":6000,"station_id":"ce4bhhh2rcd13ifvqfk0","pricing_plan_id":"cebpf4jnsgd1na2vs0mg"},{"bike_id":"91a02ece-e5d5-42ad-9ba6-00225b65c23f","system_id":"levelo_inurba_marseille","lat":43.30589,"lon":5.39353,"is_reserved":false,"is_disabled":false,"rental_uris":{"android":"levelo://app?vid=91a02ece-e5d5-42ad-9ba6-00225b65c23f","ios":"levelo://app?vid=91a02ece-e5d5-42ad-9ba6-00225b65c23f"},"vehicle_type_id":"4","last_reported":1778878222,"current_range_meters":6000,"station_id":"ce4bh0p2rcd13ifvqd80","pricing_plan_id":"cebpf4jnsgd1na2vs0mg"},{"bike_id":"1fb95cb2-2666-4bcd-855a-a72f6fa54f4b","system_id":"levelo_inurba_marseille","lat":43.29263,"lon":5.3843,"is_reserved":false,"is_disabled":false,"rental_uris":{"android":"levelo://app?vid=1fb95cb2-2666-4bcd-855a-a72f6fa54f4b","ios":"levelo://app?vid=1fb95cb2-2666-4bcd-855a-a72f6fa54f4b"},"vehicle_type_id":"4","last_reported":1778878222,"current_range_meters":6000,"station_id":"ce4bh692rcd13ifvqea0","pricing_plan_id":"cebpf4jnsgd1na2vs0mg"},{"bike_id":"4276d436-7ab9-4318-93e3-13511e9e98a6","system_id":"levelo_inurba_marseille","lat":43.29775,"lon":5.37387,"is_reserved":false,"is_disabled":false,"rental_uris":{"android":"levelo://app?vid=4276d436-7ab9-4318-93e3-13511e9e98a6","ios":"levelo://app?vid=4276d436-7ab9-4318-93e3-13511e9e98a6"},"vehicle_type_id":"4","last_reported":1778878222,"current_range_meters":6000,"station_id":"","pricing_plan_id":"cebpf4jnsgd1na2vs0mg"},{"bike_id":"83a28509-f7bf-4927-853a-03bf72039b0e","system_id":"levelo_inurba_marseille","lat":43.27557,"lon":5.38414,"is_reserved":false,"is_disabled":false,"rental_uris":{"android":"levelo://app?vid=83a28509-f7bf-4927-853a-03bf72039b0e","ios":"levelo://app?vid=83a28509-f7bf-4927-853a-03bf72039b0e"},"vehicle_type_id":"4","last_reported":1778878222,"current_range_meters":6000,"station_id":"ce4bhh92rcd13ifvqfi0","pricing_plan_id":"cebpf4jnsgd1na2vs0mg"},{"bike_id":"79f4eccb-ffc6-4a72-b27a-07ae308651d7","system_id":"levelo_inurba_marseille","lat":43.24547,"lon":5.39522,"is_reserved":false,"is_disabled":false,"rental_uris":{"android":"levelo://app?vid=79f4eccb-ffc6-4a72-b27a-07ae308651d7","ios":"levelo://app?vid=79f4eccb-ffc6-4a72-b27a-07ae308651d7"},"vehicle_type_id":"4","last_reported":1778878222,"current_range_meters":6000,"station_id":"ce4bhlp2rcd13ifvqgjg","pricing_plan_id":"cebpf4jnsgd1na2vs0mg"},{"bike_id":"9ed6f0c7-8613-4eec-94c7-215c3ed75773","system_id":"levelo_inurba_marseille","lat":43.29393,"lon":5.37842,"is_reserved":false,"is_disabled":false,"rental_uris":{"android":"levelo://app?vid=9ed6f0c7-8613-4eec-94c7-215c3ed75773","ios":"levelo://app?vid=9ed6f0c7-8613-4eec-94c7-215c3ed75773"},"vehicle_type_id":"4","last_reported":1778878222,"current_range_meters":6000,"station_id":"ce4bgjh2rcd13ifvqbf0","pricing_plan_id":"cebpf4jnsgd1na2vs0mg"},{"bike_id":"9c7d8225-1d0a-4962-8e40-5c75c072c7c4","system_id":"levelo_inurba_marseille","lat":43.25818,"lon":5.39421,"is_reserved":false,"is_disabled":false,"rental_uris":{"android":"levelo://app?vid=9c7d8225-1d0a-4962-8e40-5c75c072c7c4","ios":"levelo://app?vid=9c7d8225-1d0a-4962-8e40-5c75c072c7c4"},"vehicle_type_id":"4","last_reported":1778878222,"current_range_meters":6000,"station_id":"ce4bhip2rcd13ifvqft0","pricing_plan_id":"cebpf4jnsgd1na2vs0mg"},{"bike_id":"a77718f4-bd25-485a-8157-b72c36907f92","system_id":"levelo_inurba_marseille","lat":43.28712,"lon":5.4669,"is_reserved":false,"is_disabled":false,"rental_uris":{"android":"levelo://app?vid=a77718f4-bd25-485a-8157-b72c36907f92","ios":"levelo://app?vid=a77718f4-bd25-485a-8157-b72c36907f92"},"vehicle_type_id":"4","last_reported":1778878222,"current_range_meters":6000,"station_id":"st_d6tc3vkotcvc738tfjhg","pricing_plan_id":"cebpf4jnsgd1na2vs0mg"},{"bike_id":"364da951-b7b0-486e-9875-f44d44863642","system_id":"levelo_inurba_marseille","lat":43.29227,"lon":5.3933,"is_reserved":false,"is_disabled":false,"rental_uris":{"android":"levelo://app?vid=364da951-b7b0-486e-9875-f44d44863642","ios":"levelo://app?vid=364da951-b7b0-486e-9875-f44d44863642"},"vehicle_type_id":"4","last_reported":1778878222,"current_range_meters":6000,"station_id":"ce4bh192rcd13ifvqdd0","pricing_plan_id":"cebpf4jnsgd1na2vs0mg"},{"bike_id":"134f4599-6d24-410b-95be-e1578823f5d8","system_id":"levelo_inurba_marseille","lat":43.309367,"lon":5.40138,"is_reserved":false,"is_disabled":false,"rental_uris":{"android":"levelo://app?vid=134f4599-6d24-410b-95be-e1578823f5d8","ios":"levelo://app?vid=134f4599-6d24-410b-95be-e1578823f5d8"},"vehicle_type_id":"4","last_reported":1778878222,"current_range_meters":6000,"station_id":"ce4bgvp2rcd13ifvqct0","pricing_plan_id":"cebpf4jnsgd1na2vs0mg"},{"bike_id":"0ad37603-7f48-4bb2-8acf-096f14585b6d","system_id":"levelo_inurba_marseille","lat":43.29534,"lon":5.39025,"is_reserved":false,"is_disabled":false,"rental_uris":{"android":"levelo://app?vid=0ad37603-7f48-4bb2-8acf-096f14585b6d","ios":"levelo://app?vid=0ad37603-7f48-4bb2-8acf-096f14585b6d"},"vehicle_type_id":"4","last_reported":1778878222,"current_range_meters":6400,"station_id":"ce4bh3p2rcd13ifvqdp0","pricing_plan_id":"cebpf4jnsgd1na2vs0mg"},{"bike_id":"3b3d7c53-ea38-445f-8c29-9e79a25cfa1b","system_id":"levelo_inurba_marseille","lat":43.29174,"lon":5.3715,"is_reserved":false,"is_disabled":false,"rental_uris":{"android":"levelo://app?vid=3b3d7c53-ea38-445f-8c29-9e79a25cfa1b","ios":"levelo://app?vid=3b3d7c53-ea38-445f-8c29-9e79a25cfa1b"},"vehicle_type_id":"4","last_reported":1778878222,"current_range_meters":6400,"station_id":"ce4bha92rcd13ifvqeh0","pricing_plan_id":"cebpf4jnsgd1na2vs0mg"},{"bike_id":"e2568c71-20cf-4f9d-b64e-925e744f4938","system_id":"levelo_inurba_marseille","lat":43.3052,"lon":5.36527,"is_reserved":false,"is_disabled":false,"rental_uris":{"android":"levelo://app?vid=e2568c71-20cf-4f9d-b64e-925e744f4938","ios":"levelo://app?vid=e2568c71-20cf-4f9d-b64e-925e744f4938"},"vehicle_type_id":"4","last_reported":1778878222,"current_range_meters":6400,"station_id":"","pricing_plan_id":"cebpf4jnsgd1na2vs0mg"},{"bike_id":"dce3d06f-3ae6-4899-86e0-78101801204e","system_id":"levelo_inurba_marseille","lat":43.29963,"lon":5.38503,"is_reserved":false,"is_disabled":false,"rental_uris":{"android":"levelo://app?vid=dce3d06f-3ae6-4899-86e0-78101801204e","ios":"levelo://app?vid=dce3d06f-3ae6-4899-86e0-78101801204e"},"vehicle_type_id":"4","last_reported":1778878222,"current_range_meters":6400,"station_id":"ce4bgj92rcd13ifvqbd0","pricing_plan_id":"cebpf4jnsgd1na2vs0mg"},{"bike_id":"0ebffc25-a6ec-4ab5-a13e-24c893eda166","system_id":"levelo_inurba_marseille","lat":43.2816,"lon":5.42649,"is_reserved":false,"is_disabled":false,"rental_uris":{"android":"levelo://app?vid=0ebffc25-a6ec-4ab5-a13e-24c893eda166","ios":"levelo://app?vid=0ebffc25-a6ec-4ab5-a13e-24c893eda166"},"vehicle_type_id":"4","last_reported":1778878222,"current_range_meters":6400,"station_id":"ce4bhnh2rcd13ifvqgug","pricing_plan_id":"cebpf4jnsgd1na2vs0mg"},{"bike_id":"0291be2f-bb75-4cf7-ab9a-8a7a50351638","system_id":"levelo_inurba_marseille","lat":43.27593,"lon":5.38402,"is_reserved":false,"is_disabled":false,"rental_uris":{"android":"levelo://app?vid=0291be2f-bb75-4cf7-ab9a-8a7a50351638","ios":"levelo://app?vid=0291be2f-bb75-4cf7-ab9a-8a7a50351638"},"vehicle_type_id":"4","last_reported":1778878222,"current_range_meters":6400,"station_id":"ce4bhh92rcd13ifvqfi0","pricing_plan_id":"cebpf4jnsgd1na2vs0mg"},{"bike_id":"0b4af277-1925-4bd3-aa9d-7d9710db68a5","system_id":"levelo_inurba_marseille","lat":43.24662,"lon":5.38147,"is_reserved":false,"is_disabled":false,"rental_uris":{"android":"levelo://app?vid=0b4af277-1925-4bd3-aa9d-7d9710db68a5","ios":"levelo://app?vid=0b4af277-1925-4bd3-aa9d-7d9710db68a5"},"vehicle_type_id":"4","last_reported":1778878222,"current_range_meters":6400,"station_id":"ce4bhih2rcd13ifvqfr0","pricing_plan_id":"cebpf4jnsgd1na2vs0mg"},{"bike_id":"015e2625-0298-4b2a-898b-c50d96796584","system_id":"levelo_inurba_marseille","lat":43.2737,"lon":5.36245,"is_reserved":false,"is_disabled":true,"rental_uris":{"android":"levelo://app?vid=015e2625-0298-4b2a-898b-c50d96796584","ios":"levelo://app?vid=015e2625-0298-4b2a-898b-c50d96796584"},"vehicle_type_id":"4","last_reported":1778878222,"current_range_meters":6400,"station_id":"ce4bhbh2rcd13ifvqeo0","pricing_plan_id":"cebpf4jnsgd1na2vs0mg"},{"bike_id":"c81a49d2-80bc-4670-bbe6-72be4cac6a16","system_id":"levelo_inurba_marseille","lat":43.28737,"lon":5.42698,"is_reserved":false,"is_disabled":false,"rental_uris":{"android":"levelo://app?vid=c81a49d2-80bc-4670-bbe6-72be4cac6a16","ios":"levelo://app?vid=c81a49d2-80bc-4670-bbe6-72be4cac6a16"},"vehicle_type_id":"4","last_reported":1778878222,"current_range_meters":6400,"station_id":"","pricing_plan_id":"cebpf4jnsgd1na2vs0mg"},{"bike_id":"4353647d-fb45-4921-b84e-b964725ad352","system_id":"levelo_inurba_marseille","lat":43.3104,"lon":5.37172,"is_reserved":false,"is_disabled":false,"rental_uris":{"android":"levelo://app?vid=4353647d-fb45-4921-b84e-b964725ad352","ios":"levelo://app?vid=4353647d-fb45-4921-b84e-b964725ad352"},"vehicle_type_id":"4","last_reported":1778878222,"current_range_meters":6400,"station_id":"st_d4kl2rp97mjs73e7tdfg","pricing_plan_id":"cebpf4jnsgd1na2vs0mg"},{"bike_id":"ff516486-77f8-434f-9af5-f421a1a4f62e","system_id":"levelo_inurba_marseille","lat":43.31237,"lon":5.37941,"is_reserved":false,"is_disabled":false,"rental_uris":{"android":"levelo://app?vid=ff516486-77f8-434f-9af5-f421a1a4f62e","ios":"levelo://app?vid=ff516486-77f8-434f-9af5-f421a1a4f62e"},"vehicle_type_id":"4","last_reported":1778878222,"current_range_meters":6400,"station_id":"","pricing_plan_id":"cebpf4jnsgd1na2vs0mg"},{"bike_id":"302b2fe3-85bf-41b4-9747-df128671a5aa","system_id":"levelo_inurba_marseille","lat":43.2735,"lon":5.36258,"is_reserved":false,"is_disabled":false,"rental_uris":{"android":"levelo://app?vid=302b2fe3-85bf-41b4-9747-df128671a5aa","ios":"levelo://app?vid=302b2fe3-85bf-41b4-9747-df128671a5aa"},"vehicle_type_id":"4","last_reported":1778878222,"current_range_meters":6400,"station_id":"ce4bhbh2rcd13ifvqeo0","pricing_plan_id":"cebpf4jnsgd1na2vs0mg"},{"bike_id":"0855dc90-e80e-472a-a9f5-ed645c409879","system_id":"levelo_inurba_marseille","lat":43.26221,"lon":5.40453,"is_reserved":false,"is_disabled":false,"rental_uris":{"android":"levelo://app?vid=0855dc90-e80e-472a-a9f5-ed645c409879","ios":"levelo://app?vid=0855dc90-e80e-472a-a9f5-ed645c409879"},"vehicle_type_id":"4","last_reported":1778878222,"current_range_meters":6400,"station_id":"ce4bhmh2rcd13ifvqgmg","pricing_plan_id":"cebpf4jnsgd1na2vs0mg"},{"bike_id":"3712392a-b273-4407-8ecc-a552b84c2491","system_id":"levelo_inurba_marseille","lat":43.27948,"lon":5.41043,"is_reserved":false,"is_disabled":false,"rental_uris":{"android":"levelo://app?vid=3712392a-b273-4407-8ecc-a552b84c2491","ios":"levelo://app?vid=3712392a-b273-4407-8ecc-a552b84c2491"},"vehicle_type_id":"4","last_reported":1778878222,"current_range_meters":6400,"station_id":"ce4bhnp2rcd13ifvqh0g","pricing_plan_id":"cebpf4jnsgd1na2vs0mg"},{"bike_id":"6162014e-c041-408b-a404-8c9a4ab59211","system_id":"levelo_inurba_marseille","lat":43.28698,"lon":5.46684,"is_reserved":false,"is_disabled":false,"rental_uris":{"android":"levelo://app?vid=6162014e-c041-408b-a404-8c9a4ab59211","ios":"levelo://app?vid=6162014e-c041-408b-a404-8c9a4ab59211"},"vehicle_type_id":"4","last_reported":1778878222,"current_range_meters":6400,"station_id":"st_d6tc3vkotcvc738tfjhg","pricing_plan_id":"cebpf4jnsgd1na2vs0mg"},{"bike_id":"7c264390-8c94-4a95-9a4d-f8209caaed4e","system_id":"levelo_inurba_marseille","lat":43.22564,"lon":5.41621,"is_reserved":false,"is_disabled":false,"rental_uris":{"android":"levelo://app?vid=7c264390-8c94-4a95-9a4d-f8209caaed4e","ios":"levelo://app?vid=7c264390-8c94-4a95-9a4d-f8209caaed4e"},"vehicle_type_id":"4","last_reported":1778878222,"current_range_meters":6400,"station_id":"st_d2o4gvlbi1j2169b742g","pricing_plan_id":"cebpf4jnsgd1na2vs0mg"},{"bike_id":"f13363ea-4c6f-479e-b8d1-87cbb5fa0fcd","system_id":"levelo_inurba_marseille","lat":43.25579,"lon":5.38249,"is_reserved":false,"is_disabled":false,"rental_uris":{"android":"levelo://app?vid=f13363ea-4c6f-479e-b8d1-87cbb5fa0fcd","ios":"levelo://app?vid=f13363ea-4c6f-479e-b8d1-87cbb5fa0fcd"},"vehicle_type_id":"4","last_reported":1778878222,"current_range_meters":6400,"station_id":"ce4bhih2rcd13ifvqfs0","pricing_plan_id":"cebpf4jnsgd1na2vs0mg"},{"bike_id":"d9b219be-883b-454f-be52-4206781bf1ac","system_id":"levelo_inurba_marseille","lat":43.2177,"lon":5.34607,"is_reserved":false,"is_disabled":false,"rental_uris":{"android":"levelo://app?vid=d9b219be-883b-454f-be52-4206781bf1ac","ios":"levelo://app?vid=d9b219be-883b-454f-be52-4206781bf1ac"},"vehicle_type_id":"4","last_reported":1778878222,"current_range_meters":6400,"station_id":"st_cvj6r9ubvosntc0bgbag","pricing_plan_id":"cebpf4jnsgd1na2vs0mg"},{"bike_id":"c5196c5d-3d7c-4ed6-a81e-2e099ad2743b","system_id":"levelo_inurba_marseille","lat":43.30464,"lon":5.37896,"is_reserved":false,"is_disabled":true,"rental_uris":{"android":"levelo://app?vid=c5196c5d-3d7c-4ed6-a81e-2e099ad2743b","ios":"levelo://app?vid=c5196c5d-3d7c-4ed6-a81e-2e099ad2743b"},"vehicle_type_id":"4","last_reported":1778878222,"current_range_meters":6800,"station_id":"ce4bgup2rcd13ifvqcn0","pricing_plan_id":"cebpf4jnsgd1na2vs0mg"},{"bike_id":"7b4564af-0331-47a8-b6ed-a2c763ae6fee","system_id":"levelo_inurba_marseille","lat":43.2978,"lon":5.38088,"is_reserved":false,"is_disabled":false,"rental_uris":{"android":"levelo://app?vid=7b4564af-0331-47a8-b6ed-a2c763ae6fee","ios":"levelo://app?vid=7b4564af-0331-47a8-b6ed-a2c763ae6fee"},"vehicle_type_id":"4","last_reported":1778878222,"current_range_meters":6800,"station_id":"ce4bgip2rcd13ifvqbb0","pricing_plan_id":"cebpf4jnsgd1na2vs0mg"},{"bike_id":"48ea04e3-0ff7-4ecb-b52f-cecc3f2eedcc","system_id":"levelo_inurba_marseille","lat":43.29824,"lon":5.39346,"is_reserved":false,"is_disabled":true,"rental_uris":{"android":"levelo://app?vid=48ea04e3-0ff7-4ecb-b52f-cecc3f2eedcc","ios":"levelo://app?vid=48ea04e3-0ff7-4ecb-b52f-cecc3f2eedcc"},"vehicle_type_id":"4","last_reported":1778878222,"current_range_meters":6800,"station_id":"chh1huq6cuj3fo74tm60","pricing_plan_id":"cebpf4jnsgd1na2vs0mg"},{"bike_id":"c8606e2a-db7d-46c8-bad7-b77b177ceef2","system_id":"levelo_inurba_marseille","lat":43.29814,"lon":5.38624,"is_reserved":false,"is_disabled":false,"rental_uris":{"android":"levelo://app?vid=c8606e2a-db7d-46c8-bad7-b77b177ceef2","ios":"levelo://app?vid=c8606e2a-db7d-46c8-bad7-b77b177ceef2"},"vehicle_type_id":"4","last_reported":1778878222,"current_range_meters":6800,"station_id":"","pricing_plan_id":"cebpf4jnsgd1na2vs0mg"},{"bike_id":"196cd092-24e1-425c-9835-98c02b6fbee5","system_id":"levelo_inurba_marseille","lat":43.283455,"lon":5.381061,"is_reserved":false,"is_disabled":false,"rental_uris":{"android":"levelo://app?vid=196cd092-24e1-425c-9835-98c02b6fbee5","ios":"levelo://app?vid=196cd092-24e1-425c-9835-98c02b6fbee5"},"vehicle_type_id":"4","last_reported":1778878222,"current_range_meters":6800,"station_id":"ce4bh412rcd13ifvqdr0","pricing_plan_id":"cebpf4jnsgd1na2vs0mg"},{"bike_id":"65e55a60-861d-45d6-986f-4b047f280f77","system_id":"levelo_inurba_marseille","lat":43.28608,"lon":5.37072,"is_reserved":false,"is_disabled":true,"rental_uris":{"android":"levelo://app?vid=65e55a60-861d-45d6-986f-4b047f280f77","ios":"levelo://app?vid=65e55a60-861d-45d6-986f-4b047f280f77"},"vehicle_type_id":"4","last_reported":1778878222,"current_range_meters":6800,"station_id":"ce4bht12rcd13ifvqi60","pricing_plan_id":"cebpf4jnsgd1na2vs0mg"},{"bike_id":"eea19700-2869-4a17-883c-e354791b057c","system_id":"levelo_inurba_marseille","lat":43.26648,"lon":5.37255,"is_reserved":false,"is_disabled":false,"rental_uris":{"android":"levelo://app?vid=eea19700-2869-4a17-883c-e354791b057c","ios":"levelo://app?vid=eea19700-2869-4a17-883c-e354791b057c"},"vehicle_type_id":"4","last_reported":1778878222,"current_range_meters":6800,"station_id":"","pricing_plan_id":"cebpf4jnsgd1na2vs0mg"},{"bike_id":"5f1aa714-d498-4e2b-aa2a-6e9a87384ca4","system_id":"levelo_inurba_marseille","lat":43.30548,"lon":5.36538,"is_reserved":false,"is_disabled":false,"rental_uris":{"android":"levelo://app?vid=5f1aa714-d498-4e2b-aa2a-6e9a87384ca4","ios":"levelo://app?vid=5f1aa714-d498-4e2b-aa2a-6e9a87384ca4"},"vehicle_type_id":"4","last_reported":1778878222,"current_range_meters":6800,"station_id":"ce4bgs12rcd13ifvqcag","pricing_plan_id":"cebpf4jnsgd1na2vs0mg"},{"bike_id":"d838269f-3f44-47cb-80ea-2c795a3bcea1","system_id":"levelo_inurba_marseille","lat":43.22948,"lon":5.35366,"is_reserved":false,"is_disabled":false,"rental_uris":{"android":"levelo://app?vid=d838269f-3f44-47cb-80ea-2c795a3bcea1","ios":"levelo://app?vid=d838269f-3f44-47cb-80ea-2c795a3bcea1"},"vehicle_type_id":"4","last_reported":1778878222,"current_range_meters":6800,"station_id":"cpo3532slgdg3j2ikp40","pricing_plan_id":"cebpf4jnsgd1na2vs0mg"},{"bike_id":"427c36f2-aa93-453d-b773-5884d54f82ee","system_id":"levelo_inurba_marseille","lat":43.29247,"lon":5.38503,"is_reserved":false,"is_disabled":false,"rental_uris":{"android":"levelo://app?vid=427c36f2-aa93-453d-b773-5884d54f82ee","ios":"levelo://app?vid=427c36f2-aa93-453d-b773-5884d54f82ee"},"vehicle_type_id":"4","last_reported":1778878222,"current_range_meters":6800,"station_id":"","pricing_plan_id":"cebpf4jnsgd1na2vs0mg"},{"bike_id":"2c691969-58ab-441d-be87-7ed936cfb60b","system_id":"levelo_inurba_marseille","lat":43.25097,"lon":5.39509,"is_reserved":false,"is_disabled":false,"rental_uris":{"android":"levelo://app?vid=2c691969-58ab-441d-be87-7ed936cfb60b","ios":"levelo://app?vid=2c691969-58ab-441d-be87-7ed936cfb60b"},"vehicle_type_id":"4","last_reported":1778878222,"current_range_meters":6800,"station_id":"ce4bhm12rcd13ifvqgkg","pricing_plan_id":"cebpf4jnsgd1na2vs0mg"},{"bike_id":"c139606e-22b7-4212-8341-6419748f65e3","system_id":"levelo_inurba_marseille","lat":43.29537,"lon":5.38534,"is_reserved":false,"is_disabled":false,"rental_uris":{"android":"levelo://app?vid=c139606e-22b7-4212-8341-6419748f65e3","ios":"levelo://app?vid=c139606e-22b7-4212-8341-6419748f65e3"},"vehicle_type_id":"4","last_reported":1778878222,"current_range_meters":6800,"station_id":"ce4bgih2rcd13ifvqba0","pricing_plan_id":"cebpf4jnsgd1na2vs0mg"},{"bike_id":"7a9b7781-e91b-4ecb-879e-c283d457ff33","system_id":"levelo_inurba_marseille","lat":43.29596,"lon":5.3812,"is_reserved":false,"is_disabled":true,"rental_uris":{"android":"levelo://app?vid=7a9b7781-e91b-4ecb-879e-c283d457ff33","ios":"levelo://app?vid=7a9b7781-e91b-4ecb-879e-c283d457ff33"},"vehicle_type_id":"4","last_reported":1778878222,"current_range_meters":6800,"station_id":"ce4bgl12rcd13ifvqbo0","pricing_plan_id":"cebpf4jnsgd1na2vs0mg"},{"bike_id":"0bc224e1-da7e-4c7f-b6ab-f0f1a8d8d6c7","system_id":"levelo_inurba_marseille","lat":43.31049,"lon":5.37176,"is_reserved":false,"is_disabled":false,"rental_uris":{"android":"levelo://app?vid=0bc224e1-da7e-4c7f-b6ab-f0f1a8d8d6c7","ios":"levelo://app?vid=0bc224e1-da7e-4c7f-b6ab-f0f1a8d8d6c7"},"vehicle_type_id":"4","last_reported":1778878222,"current_range_meters":6800,"station_id":"st_d4kl2rp97mjs73e7tdfg","pricing_plan_id":"cebpf4jnsgd1na2vs0mg"},{"bike_id":"2844e71d-120e-4ca4-800e-5c7042c5a100","system_id":"levelo_inurba_marseille","lat":43.250836,"lon":5.395278,"is_reserved":false,"is_disabled":false,"rental_uris":{"android":"levelo://app?vid=2844e71d-120e-4ca4-800e-5c7042c5a100","ios":"levelo://app?vid=2844e71d-120e-4ca4-800e-5c7042c5a100"},"vehicle_type_id":"4","last_reported":1778878222,"current_range_meters":6800,"station_id":"ce4bhm12rcd13ifvqgkg","pricing_plan_id":"cebpf4jnsgd1na2vs0mg"},{"bike_id":"9acc6307-b6aa-473f-b327-6f910bcc815a","system_id":"levelo_inurba_marseille","lat":43.30526,"lon":5.36536,"is_reserved":false,"is_disabled":true,"rental_uris":{"android":"levelo://app?vid=9acc6307-b6aa-473f-b327-6f910bcc815a","ios":"levelo://app?vid=9acc6307-b6aa-473f-b327-6f910bcc815a"},"vehicle_type_id":"4","last_reported":1778878222,"current_range_meters":6800,"station_id":"ce4bgs12rcd13ifvqcag","pricing_plan_id":"cebpf4jnsgd1na2vs0mg"},{"bike_id":"b42166c9-f9fb-459b-af81-24e91b0cef59","system_id":"levelo_inurba_marseille","lat":43.29715,"lon":5.37702,"is_reserved":false,"is_disabled":false,"rental_uris":{"android":"levelo://app?vid=b42166c9-f9fb-459b-af81-24e91b0cef59","ios":"levelo://app?vid=b42166c9-f9fb-459b-af81-24e91b0cef59"},"vehicle_type_id":"4","last_reported":1778878222,"current_range_meters":6800,"station_id":"ce4bgkh2rcd13ifvqbl0","pricing_plan_id":"cebpf4jnsgd1na2vs0mg"},{"bike_id":"077cdb34-3ba3-4506-af6d-60d81cc084e9","system_id":"levelo_inurba_marseille","lat":43.301,"lon":5.39119,"is_reserved":false,"is_disabled":false,"rental_uris":{"android":"levelo://app?vid=077cdb34-3ba3-4506-af6d-60d81cc084e9","ios":"levelo://app?vid=077cdb34-3ba3-4506-af6d-60d81cc084e9"},"vehicle_type_id":"4","last_reported":1778878222,"current_range_meters":6800,"station_id":"ce4bh192rcd13ifvqdb0","pricing_plan_id":"cebpf4jnsgd1na2vs0mg"},{"bike_id":"1932fa69-00fa-4ed5-bc9e-2269067bb2e0","system_id":"levelo_inurba_marseille","lat":43.255043,"lon":5.376549,"is_reserved":false,"is_disabled":false,"rental_uris":{"android":"levelo://app?vid=1932fa69-00fa-4ed5-bc9e-2269067bb2e0","ios":"levelo://app?vid=1932fa69-00fa-4ed5-bc9e-2269067bb2e0"},"vehicle_type_id":"4","last_reported":1778878222,"current_range_meters":6800,"station_id":"ce4bhh12rcd13ifvqff0","pricing_plan_id":"cebpf4jnsgd1na2vs0mg"},{"bike_id":"035e8111-500c-4f67-b4f0-73f029573720","system_id":"levelo_inurba_marseille","lat":43.25333,"lon":5.42127,"is_reserved":false,"is_disabled":false,"rental_uris":{"android":"levelo://app?vid=035e8111-500c-4f67-b4f0-73f029573720","ios":"levelo://app?vid=035e8111-500c-4f67-b4f0-73f029573720"},"vehicle_type_id":"4","last_reported":1778878222,"current_range_meters":6800,"station_id":"st_d2m65c5bi1j21697t3ng","pricing_plan_id":"cebpf4jnsgd1na2vs0mg"},{"bike_id":"72e9cd57-dfb8-490d-8556-1366758c92dd","system_id":"levelo_inurba_marseille","lat":43.249524,"lon":5.404919,"is_reserved":false,"is_disabled":false,"rental_uris":{"android":"levelo://app?vid=72e9cd57-dfb8-490d-8556-1366758c92dd","ios":"levelo://app?vid=72e9cd57-dfb8-490d-8556-1366758c92dd"},"vehicle_type_id":"4","last_reported":1778878222,"current_range_meters":6800,"station_id":"st_d2ngiaodas8pm72gd1h0","pricing_plan_id":"cebpf4jnsgd1na2vs0mg"},{"bike_id":"e5a81793-667e-431b-a652-6fbc83171ffa","system_id":"levelo_inurba_marseille","lat":43.30091,"lon":5.39078,"is_reserved":false,"is_disabled":false,"rental_uris":{"android":"levelo://app?vid=e5a81793-667e-431b-a652-6fbc83171ffa","ios":"levelo://app?vid=e5a81793-667e-431b-a652-6fbc83171ffa"},"vehicle_type_id":"4","last_reported":1778878222,"current_range_meters":7200,"station_id":"ce4bh192rcd13ifvqdb0","pricing_plan_id":"cebpf4jnsgd1na2vs0mg"},{"bike_id":"0fbd83fe-9ab3-4ef4-8958-36921b17a4e7","system_id":"levelo_inurba_marseille","lat":43.29575,"lon":5.37495,"is_reserved":false,"is_disabled":false,"rental_uris":{"android":"levelo://app?vid=0fbd83fe-9ab3-4ef4-8958-36921b17a4e7","ios":"levelo://app?vid=0fbd83fe-9ab3-4ef4-8958-36921b17a4e7"},"vehicle_type_id":"4","last_reported":1778878222,"current_range_meters":7200,"station_id":"ce4bgh92rcd13ifvqb50","pricing_plan_id":"cebpf4jnsgd1na2vs0mg"},{"bike_id":"ecaeb976-f8c3-4828-89dc-e802f2b1885c","system_id":"levelo_inurba_marseille","lat":43.25499,"lon":5.3764,"is_reserved":false,"is_disabled":false,"rental_uris":{"android":"levelo://app?vid=ecaeb976-f8c3-4828-89dc-e802f2b1885c","ios":"levelo://app?vid=ecaeb976-f8c3-4828-89dc-e802f2b1885c"},"vehicle_type_id":"4","last_reported":1778878222,"current_range_meters":7200,"station_id":"ce4bhh12rcd13ifvqff0","pricing_plan_id":"cebpf4jnsgd1na2vs0mg"},{"bike_id":"3bfbacba-06cc-48f9-a25c-99f0183f9960","system_id":"levelo_inurba_marseille","lat":43.272,"lon":5.39167,"is_reserved":false,"is_disabled":false,"rental_uris":{"android":"levelo://app?vid=3bfbacba-06cc-48f9-a25c-99f0183f9960","ios":"levelo://app?vid=3bfbacba-06cc-48f9-a25c-99f0183f9960"},"vehicle_type_id":"4","last_reported":1778878222,"current_range_meters":7200,"station_id":"ce4bhhp2rcd13ifvqfm0","pricing_plan_id":"cebpf4jnsgd1na2vs0mg"},{"bike_id":"fca619e1-1caa-4a1d-a31c-7e233afaaeed","system_id":"levelo_inurba_marseille","lat":43.28062,"lon":5.41743,"is_reserved":false,"is_disabled":true,"rental_uris":{"android":"levelo://app?vid=fca619e1-1caa-4a1d-a31c-7e233afaaeed","ios":"levelo://app?vid=fca619e1-1caa-4a1d-a31c-7e233afaaeed"},"vehicle_type_id":"4","last_reported":1778878222,"current_range_meters":7200,"station_id":"","pricing_plan_id":"cebpf4jnsgd1na2vs0mg"},{"bike_id":"6a280014-bb50-4759-b3d6-d8bc56e8c873","system_id":"levelo_inurba_marseille","lat":43.29567,"lon":5.4229,"is_reserved":false,"is_disabled":false,"rental_uris":{"android":"levelo://app?vid=6a280014-bb50-4759-b3d6-d8bc56e8c873","ios":"levelo://app?vid=6a280014-bb50-4759-b3d6-d8bc56e8c873"},"vehicle_type_id":"4","last_reported":1778878222,"current_range_meters":7200,"station_id":"ce4bhph2rcd13ifvqhdg","pricing_plan_id":"cebpf4jnsgd1na2vs0mg"},{"bike_id":"92520455-a7dd-40ff-9e44-f12ccb953c83","system_id":"levelo_inurba_marseille","lat":43.27371,"lon":5.36249,"is_reserved":false,"is_disabled":false,"rental_uris":{"android":"levelo://app?vid=92520455-a7dd-40ff-9e44-f12ccb953c83","ios":"levelo://app?vid=92520455-a7dd-40ff-9e44-f12ccb953c83"},"vehicle_type_id":"4","last_reported":1778878222,"current_range_meters":7200,"station_id":"ce4bhbh2rcd13ifvqeo0","pricing_plan_id":"cebpf4jnsgd1na2vs0mg"},{"bike_id":"e8f7f50d-d8c0-47a0-95c8-f938be25c407","system_id":"levelo_inurba_marseille","lat":43.27057,"lon":5.387,"is_reserved":false,"is_disabled":false,"rental_uris":{"android":"levelo://app?vid=e8f7f50d-d8c0-47a0-95c8-f938be25c407","ios":"levelo://app?vid=e8f7f50d-d8c0-47a0-95c8-f938be25c407"},"vehicle_type_id":"4","last_reported":1778878222,"current_range_meters":7200,"station_id":"","pricing_plan_id":"cebpf4jnsgd1na2vs0mg"},{"bike_id":"8ea54659-8a5e-4570-87cf-5235c2b33ba8","system_id":"levelo_inurba_marseille","lat":43.28709,"lon":5.39979,"is_reserved":false,"is_disabled":false,"rental_uris":{"android":"levelo://app?vid=8ea54659-8a5e-4570-87cf-5235c2b33ba8","ios":"levelo://app?vid=8ea54659-8a5e-4570-87cf-5235c2b33ba8"},"vehicle_type_id":"4","last_reported":1778878222,"current_range_meters":7200,"station_id":"ce4bho92rcd13ifvqh3g","pricing_plan_id":"cebpf4jnsgd1na2vs0mg"},{"bike_id":"f86e3d7e-3e22-49e6-94c1-cd13eb4ec284","system_id":"levelo_inurba_marseille","lat":43.30009,"lon":5.43037,"is_reserved":false,"is_disabled":false,"rental_uris":{"android":"levelo://app?vid=f86e3d7e-3e22-49e6-94c1-cd13eb4ec284","ios":"levelo://app?vid=f86e3d7e-3e22-49e6-94c1-cd13eb4ec284"},"vehicle_type_id":"4","last_reported":1778878222,"current_range_meters":7200,"station_id":"","pricing_plan_id":"cebpf4jnsgd1na2vs0mg"},{"bike_id":"d938771f-c844-4205-87ef-9b456b1e41bb","system_id":"levelo_inurba_marseille","lat":43.28076,"lon":5.38841,"is_reserved":false,"is_disabled":true,"rental_uris":{"android":"levelo://app?vid=d938771f-c844-4205-87ef-9b456b1e41bb","ios":"levelo://app?vid=d938771f-c844-4205-87ef-9b456b1e41bb"},"vehicle_type_id":"4","last_reported":1778878222,"current_range_meters":7200,"station_id":"","pricing_plan_id":"cebpf4jnsgd1na2vs0mg"},{"bike_id":"3d2c1031-cd47-4183-824e-f4eb5fa92b57","system_id":"levelo_inurba_marseille","lat":43.2656,"lon":5.37293,"is_reserved":false,"is_disabled":false,"rental_uris":{"android":"levelo://app?vid=3d2c1031-cd47-4183-824e-f4eb5fa92b57","ios":"levelo://app?vid=3d2c1031-cd47-4183-824e-f4eb5fa92b57"},"vehicle_type_id":"4","last_reported":1778878222,"current_range_meters":7200,"station_id":"ce4bhg12rcd13ifvqf70","pricing_plan_id":"cebpf4jnsgd1na2vs0mg"},{"bike_id":"08ba0176-b5b1-463a-98a3-2a26b9e5ddaf","system_id":"levelo_inurba_marseille","lat":43.2415,"lon":5.36404,"is_reserved":false,"is_disabled":false,"rental_uris":{"android":"levelo://app?vid=08ba0176-b5b1-463a-98a3-2a26b9e5ddaf","ios":"levelo://app?vid=08ba0176-b5b1-463a-98a3-2a26b9e5ddaf"},"vehicle_type_id":"4","last_reported":1778878222,"current_range_meters":7200,"station_id":"cpo36qri1sfpv3e86is0","pricing_plan_id":"cebpf4jnsgd1na2vs0mg"},{"bike_id":"eb13b8da-28b8-41b8-b840-6ba88ef91edf","system_id":"levelo_inurba_marseille","lat":43.28598,"lon":5.35134,"is_reserved":false,"is_disabled":false,"rental_uris":{"android":"levelo://app?vid=eb13b8da-28b8-41b8-b840-6ba88ef91edf","ios":"levelo://app?vid=eb13b8da-28b8-41b8-b840-6ba88ef91edf"},"vehicle_type_id":"4","last_reported":1778878222,"current_range_meters":7200,"station_id":"ce4bhch2rcd13ifvqeug","pricing_plan_id":"cebpf4jnsgd1na2vs0mg"},{"bike_id":"6fc3f240-6430-4228-bca8-36e8656fa0d8","system_id":"levelo_inurba_marseille","lat":43.26038,"lon":5.37531,"is_reserved":false,"is_disabled":false,"rental_uris":{"android":"levelo://app?vid=6fc3f240-6430-4228-bca8-36e8656fa0d8","ios":"levelo://app?vid=6fc3f240-6430-4228-bca8-36e8656fa0d8"},"vehicle_type_id":"4","last_reported":1778878222,"current_range_meters":7200,"station_id":"ce4bhgh2rcd13ifvqfa0","pricing_plan_id":"cebpf4jnsgd1na2vs0mg"},{"bike_id":"ef476346-24d4-41e8-ac31-d5207f90ef66","system_id":"levelo_inurba_marseille","lat":43.21206,"lon":5.35066,"is_reserved":false,"is_disabled":false,"rental_uris":{"android":"levelo://app?vid=ef476346-24d4-41e8-ac31-d5207f90ef66","ios":"levelo://app?vid=ef476346-24d4-41e8-ac31-d5207f90ef66"},"vehicle_type_id":"4","last_reported":1778878222,"current_range_meters":7200,"station_id":"st_cvj6sg6p6f1abm77japg","pricing_plan_id":"cebpf4jnsgd1na2vs0mg"},{"bike_id":"2a551dcd-93e8-4f77-bce4-980c68504ed9","system_id":"levelo_inurba_marseille","lat":43.27974,"lon":5.41669,"is_reserved":false,"is_disabled":false,"rental_uris":{"android":"levelo://app?vid=2a551dcd-93e8-4f77-bce4-980c68504ed9","ios":"levelo://app?vid=2a551dcd-93e8-4f77-bce4-980c68504ed9"},"vehicle_type_id":"4","last_reported":1778878222,"current_range_meters":7200,"station_id":"ce4bho12rcd13ifvqh1g","pricing_plan_id":"cebpf4jnsgd1na2vs0mg"},{"bike_id":"b23af521-8614-4176-822e-027f507112b8","system_id":"levelo_inurba_marseille","lat":43.27588,"lon":5.42922,"is_reserved":false,"is_disabled":false,"rental_uris":{"android":"levelo://app?vid=b23af521-8614-4176-822e-027f507112b8","ios":"levelo://app?vid=b23af521-8614-4176-822e-027f507112b8"},"vehicle_type_id":"4","last_reported":1778878222,"current_range_meters":7200,"station_id":"","pricing_plan_id":"cebpf4jnsgd1na2vs0mg"},{"bike_id":"3566bc50-1abc-40e8-aa5c-8df0947a1991","system_id":"levelo_inurba_marseille","lat":43.3011,"lon":5.39886,"is_reserved":false,"is_disabled":false,"rental_uris":{"android":"levelo://app?vid=3566bc50-1abc-40e8-aa5c-8df0947a1991","ios":"levelo://app?vid=3566bc50-1abc-40e8-aa5c-8df0947a1991"},"vehicle_type_id":"4","last_reported":1778878222,"current_range_meters":7200,"station_id":"ce4bh0h2rcd13ifvqd40","pricing_plan_id":"cebpf4jnsgd1na2vs0mg"},{"bike_id":"0cfc64e8-298a-4ff3-83c6-7b230370e337","system_id":"levelo_inurba_marseille","lat":43.28156,"lon":5.42642,"is_reserved":false,"is_disabled":false,"rental_uris":{"android":"levelo://app?vid=0cfc64e8-298a-4ff3-83c6-7b230370e337","ios":"levelo://app?vid=0cfc64e8-298a-4ff3-83c6-7b230370e337"},"vehicle_type_id":"4","last_reported":1778878222,"current_range_meters":7200,"station_id":"ce4bhnh2rcd13ifvqgug","pricing_plan_id":"cebpf4jnsgd1na2vs0mg"},{"bike_id":"d59167f9-283b-4a1c-b82d-eb117258c2eb","system_id":"levelo_inurba_marseille","lat":43.25586,"lon":5.3822,"is_reserved":false,"is_disabled":false,"rental_uris":{"android":"levelo://app?vid=d59167f9-283b-4a1c-b82d-eb117258c2eb","ios":"levelo://app?vid=d59167f9-283b-4a1c-b82d-eb117258c2eb"},"vehicle_type_id":"4","last_reported":1778878222,"current_range_meters":7200,"station_id":"ce4bhih2rcd13ifvqfs0","pricing_plan_id":"cebpf4jnsgd1na2vs0mg"},{"bike_id":"dcafa845-5b46-47a5-9ced-e0fed17743b5","system_id":"levelo_inurba_marseille","lat":43.293693,"lon":5.378491,"is_reserved":false,"is_disabled":false,"rental_uris":{"android":"levelo://app?vid=dcafa845-5b46-47a5-9ced-e0fed17743b5","ios":"levelo://app?vid=dcafa845-5b46-47a5-9ced-e0fed17743b5"},"vehicle_type_id":"4","last_reported":1778878222,"current_range_meters":7200,"station_id":"ce4bgjh2rcd13ifvqbf0","pricing_plan_id":"cebpf4jnsgd1na2vs0mg"},{"bike_id":"6c0937ec-4202-410f-9f53-1d644e97f843","system_id":"levelo_inurba_marseille","lat":43.26788,"lon":5.39417,"is_reserved":false,"is_disabled":false,"rental_uris":{"android":"levelo://app?vid=6c0937ec-4202-410f-9f53-1d644e97f843","ios":"levelo://app?vid=6c0937ec-4202-410f-9f53-1d644e97f843"},"vehicle_type_id":"4","last_reported":1778878222,"current_range_meters":7200,"station_id":"ce4bhh12rcd13ifvqfg0","pricing_plan_id":"cebpf4jnsgd1na2vs0mg"},{"bike_id":"728a7ef1-6895-4b0b-a813-601466685ad2","system_id":"levelo_inurba_marseille","lat":43.29502,"lon":5.4329,"is_reserved":false,"is_disabled":false,"rental_uris":{"android":"levelo://app?vid=728a7ef1-6895-4b0b-a813-601466685ad2","ios":"levelo://app?vid=728a7ef1-6895-4b0b-a813-601466685ad2"},"vehicle_type_id":"4","last_reported":1778878222,"current_range_meters":8000,"station_id":"st_d3j5ugp08ojc73fj9d10","pricing_plan_id":"cebpf4jnsgd1na2vs0mg"},{"bike_id":"f82729d7-a424-4d76-9857-dc264a2500ef","system_id":"levelo_inurba_marseille","lat":43.29275,"lon":5.38438,"is_reserved":false,"is_disabled":false,"rental_uris":{"android":"levelo://app?vid=f82729d7-a424-4d76-9857-dc264a2500ef","ios":"levelo://app?vid=f82729d7-a424-4d76-9857-dc264a2500ef"},"vehicle_type_id":"4","last_reported":1778878222,"current_range_meters":8000,"station_id":"ce4bh692rcd13ifvqea0","pricing_plan_id":"cebpf4jnsgd1na2vs0mg"},{"bike_id":"0ab2b135-2810-4ed7-a330-87df85308e15","system_id":"levelo_inurba_marseille","lat":43.29758,"lon":5.37069,"is_reserved":false,"is_disabled":true,"rental_uris":{"android":"levelo://app?vid=0ab2b135-2810-4ed7-a330-87df85308e15","ios":"levelo://app?vid=0ab2b135-2810-4ed7-a330-87df85308e15"},"vehicle_type_id":"4","last_reported":1778878222,"current_range_meters":8000,"station_id":"ce4bgop2rcd13ifvqc1g","pricing_plan_id":"cebpf4jnsgd1na2vs0mg"},{"bike_id":"8eace42f-db5c-4216-b790-9a92f2008eca","system_id":"levelo_inurba_marseille","lat":43.29743,"lon":5.37689,"is_reserved":false,"is_disabled":false,"rental_uris":{"android":"levelo://app?vid=8eace42f-db5c-4216-b790-9a92f2008eca","ios":"levelo://app?vid=8eace42f-db5c-4216-b790-9a92f2008eca"},"vehicle_type_id":"4","last_reported":1778878222,"current_range_meters":8000,"station_id":"ce4bgkh2rcd13ifvqbl0","pricing_plan_id":"cebpf4jnsgd1na2vs0mg"},{"bike_id":"a80de3f5-c097-4f16-b3da-75e510c8ba4a","system_id":"levelo_inurba_marseille","lat":43.33754,"lon":5.37506,"is_reserved":false,"is_disabled":false,"rental_uris":{"android":"levelo://app?vid=a80de3f5-c097-4f16-b3da-75e510c8ba4a","ios":"levelo://app?vid=a80de3f5-c097-4f16-b3da-75e510c8ba4a"},"vehicle_type_id":"4","last_reported":1778878222,"current_range_meters":8000,"station_id":"","pricing_plan_id":"cebpf4jnsgd1na2vs0mg"},{"bike_id":"e4913e56-14cd-4173-9a4d-7a5369ec500d","system_id":"levelo_inurba_marseille","lat":43.27907,"lon":5.37419,"is_reserved":false,"is_disabled":false,"rental_uris":{"android":"levelo://app?vid=e4913e56-14cd-4173-9a4d-7a5369ec500d","ios":"levelo://app?vid=e4913e56-14cd-4173-9a4d-7a5369ec500d"},"vehicle_type_id":"4","last_reported":1778878222,"current_range_meters":8000,"station_id":"","pricing_plan_id":"cebpf4jnsgd1na2vs0mg"},{"bike_id":"4c10ebaf-b6bc-466d-b3c1-84432c7104ce","system_id":"levelo_inurba_marseille","lat":43.27915,"lon":5.39582,"is_reserved":false,"is_disabled":true,"rental_uris":{"android":"levelo://app?vid=4c10ebaf-b6bc-466d-b3c1-84432c7104ce","ios":"levelo://app?vid=4c10ebaf-b6bc-466d-b3c1-84432c7104ce"},"vehicle_type_id":"4","last_reported":1778878222,"current_range_meters":8000,"station_id":"ce4bhf92rcd13ifvqf40","pricing_plan_id":"cebpf4jnsgd1na2vs0mg"},{"bike_id":"c636c900-e3e2-46f4-9eaf-8824c7c2681e","system_id":"levelo_inurba_marseille","lat":43.28108,"lon":5.37832,"is_reserved":false,"is_disabled":false,"rental_uris":{"android":"levelo://app?vid=c636c900-e3e2-46f4-9eaf-8824c7c2681e","ios":"levelo://app?vid=c636c900-e3e2-46f4-9eaf-8824c7c2681e"},"vehicle_type_id":"4","last_reported":1778878222,"current_range_meters":8000,"station_id":"ce4bha12rcd13ifvqee0","pricing_plan_id":"cebpf4jnsgd1na2vs0mg"},{"bike_id":"bc9b67c9-c3a5-4699-b44a-8705c477ac0f","system_id":"levelo_inurba_marseille","lat":43.29209,"lon":5.39319,"is_reserved":false,"is_disabled":false,"rental_uris":{"android":"levelo://app?vid=bc9b67c9-c3a5-4699-b44a-8705c477ac0f","ios":"levelo://app?vid=bc9b67c9-c3a5-4699-b44a-8705c477ac0f"},"vehicle_type_id":"4","last_reported":1778878222,"current_range_meters":8000,"station_id":"ce4bh192rcd13ifvqdd0","pricing_plan_id":"cebpf4jnsgd1na2vs0mg"},{"bike_id":"d02f12db-ec01-45ac-a9ec-d1adfe0b41fc","system_id":"levelo_inurba_marseille","lat":43.28588,"lon":5.35022,"is_reserved":false,"is_disabled":false,"rental_uris":{"android":"levelo://app?vid=d02f12db-ec01-45ac-a9ec-d1adfe0b41fc","ios":"levelo://app?vid=d02f12db-ec01-45ac-a9ec-d1adfe0b41fc"},"vehicle_type_id":"4","last_reported":1778878222,"current_range_meters":8000,"station_id":"","pricing_plan_id":"cebpf4jnsgd1na2vs0mg"},{"bike_id":"22cf903d-99bf-4165-af19-3b28132aeef0","system_id":"levelo_inurba_marseille","lat":43.305499,"lon":5.365505,"is_reserved":false,"is_disabled":false,"rental_uris":{"android":"levelo://app?vid=22cf903d-99bf-4165-af19-3b28132aeef0","ios":"levelo://app?vid=22cf903d-99bf-4165-af19-3b28132aeef0"},"vehicle_type_id":"4","last_reported":1778878222,"current_range_meters":8000,"station_id":"ce4bgs12rcd13ifvqcag","pricing_plan_id":"cebpf4jnsgd1na2vs0mg"},{"bike_id":"e6b8089d-cb1b-4e61-92ca-2730bbe69948","system_id":"levelo_inurba_marseille","lat":43.27969,"lon":5.38737,"is_reserved":false,"is_disabled":false,"rental_uris":{"android":"levelo://app?vid=e6b8089d-cb1b-4e61-92ca-2730bbe69948","ios":"levelo://app?vid=e6b8089d-cb1b-4e61-92ca-2730bbe69948"},"vehicle_type_id":"4","last_reported":1778878222,"current_range_meters":8000,"station_id":"ce4bhg12rcd13ifvqf80","pricing_plan_id":"cebpf4jnsgd1na2vs0mg"},{"bike_id":"0c04ea2d-ebba-4cf6-b674-3fa6fb471327","system_id":"levelo_inurba_marseille","lat":43.309018,"lon":5.37188,"is_reserved":false,"is_disabled":false,"rental_uris":{"android":"levelo://app?vid=0c04ea2d-ebba-4cf6-b674-3fa6fb471327","ios":"levelo://app?vid=0c04ea2d-ebba-4cf6-b674-3fa6fb471327"},"vehicle_type_id":"4","last_reported":1778878222,"current_range_meters":8000,"station_id":"","pricing_plan_id":"cebpf4jnsgd1na2vs0mg"},{"bike_id":"83bc6a32-ffd8-4981-9d20-8002a74a7b54","system_id":"levelo_inurba_marseille","lat":43.29546,"lon":5.42284,"is_reserved":false,"is_disabled":false,"rental_uris":{"android":"levelo://app?vid=83bc6a32-ffd8-4981-9d20-8002a74a7b54","ios":"levelo://app?vid=83bc6a32-ffd8-4981-9d20-8002a74a7b54"},"vehicle_type_id":"4","last_reported":1778878222,"current_range_meters":8000,"station_id":"ce4bhph2rcd13ifvqhdg","pricing_plan_id":"cebpf4jnsgd1na2vs0mg"},{"bike_id":"a916addf-f048-4198-bc62-789f4cc6f3a0","system_id":"levelo_inurba_marseille","lat":43.32115,"lon":5.36761,"is_reserved":false,"is_disabled":false,"rental_uris":{"android":"levelo://app?vid=a916addf-f048-4198-bc62-789f4cc6f3a0","ios":"levelo://app?vid=a916addf-f048-4198-bc62-789f4cc6f3a0"},"vehicle_type_id":"4","last_reported":1778878222,"current_range_meters":8000,"station_id":"ce4bhrh2rcd13ifvqhug","pricing_plan_id":"cebpf4jnsgd1na2vs0mg"},{"bike_id":"57f38846-0db8-4593-bd70-8a809f7b8e58","system_id":"levelo_inurba_marseille","lat":43.29021,"lon":5.38619,"is_reserved":false,"is_disabled":false,"rental_uris":{"android":"levelo://app?vid=57f38846-0db8-4593-bd70-8a809f7b8e58","ios":"levelo://app?vid=57f38846-0db8-4593-bd70-8a809f7b8e58"},"vehicle_type_id":"4","last_reported":1778878222,"current_range_meters":8000,"station_id":"ce4bh4p2rcd13ifvqe0g","pricing_plan_id":"cebpf4jnsgd1na2vs0mg"},{"bike_id":"a194b3f5-1435-44c8-8fa4-8689ab595817","system_id":"levelo_inurba_marseille","lat":43.29232,"lon":5.3685,"is_reserved":false,"is_disabled":false,"rental_uris":{"android":"levelo://app?vid=a194b3f5-1435-44c8-8fa4-8689ab595817","ios":"levelo://app?vid=a194b3f5-1435-44c8-8fa4-8689ab595817"},"vehicle_type_id":"4","last_reported":1778878222,"current_range_meters":8000,"station_id":"ce4bhbp2rcd13ifvqesg","pricing_plan_id":"cebpf4jnsgd1na2vs0mg"},{"bike_id":"70ba3053-f91d-4eae-83c1-595fb460e294","system_id":"levelo_inurba_marseille","lat":43.337679,"lon":5.374413,"is_reserved":false,"is_disabled":false,"rental_uris":{"android":"levelo://app?vid=70ba3053-f91d-4eae-83c1-595fb460e294","ios":"levelo://app?vid=70ba3053-f91d-4eae-83c1-595fb460e294"},"vehicle_type_id":"4","last_reported":1778878222,"current_range_meters":8000,"station_id":"","pricing_plan_id":"cebpf4jnsgd1na2vs0mg"},{"bike_id":"2f9695e2-07ee-4780-b455-fe98b798a443","system_id":"levelo_inurba_marseille","lat":43.23957,"lon":5.36621,"is_reserved":false,"is_disabled":true,"rental_uris":{"android":"levelo://app?vid=2f9695e2-07ee-4780-b455-fe98b798a443","ios":"levelo://app?vid=2f9695e2-07ee-4780-b455-fe98b798a443"},"vehicle_type_id":"4","last_reported":1778878222,"current_range_meters":8000,"station_id":"ce4bhi12rcd13ifvqfp0","pricing_plan_id":"cebpf4jnsgd1na2vs0mg"},{"bike_id":"8e19530f-b78a-4482-a4f8-647b91ba0389","system_id":"levelo_inurba_marseille","lat":43.25587,"lon":5.38239,"is_reserved":false,"is_disabled":false,"rental_uris":{"android":"levelo://app?vid=8e19530f-b78a-4482-a4f8-647b91ba0389","ios":"levelo://app?vid=8e19530f-b78a-4482-a4f8-647b91ba0389"},"vehicle_type_id":"4","last_reported":1778878222,"current_range_meters":8000,"station_id":"ce4bhih2rcd13ifvqfs0","pricing_plan_id":"cebpf4jnsgd1na2vs0mg"},{"bike_id":"4273f04e-5e9e-4e1f-9744-7845475ea1aa","system_id":"levelo_inurba_marseille","lat":43.26428,"lon":5.38797,"is_reserved":false,"is_disabled":false,"rental_uris":{"android":"levelo://app?vid=4273f04e-5e9e-4e1f-9744-7845475ea1aa","ios":"levelo://app?vid=4273f04e-5e9e-4e1f-9744-7845475ea1aa"},"vehicle_type_id":"4","last_reported":1778878222,"current_range_meters":8000,"station_id":"","pricing_plan_id":"cebpf4jnsgd1na2vs0mg"},{"bike_id":"a4235150-e4d9-44e6-81c3-4e46a785aec7","system_id":"levelo_inurba_marseille","lat":43.305379,"lon":5.384263,"is_reserved":false,"is_disabled":false,"rental_uris":{"android":"levelo://app?vid=a4235150-e4d9-44e6-81c3-4e46a785aec7","ios":"levelo://app?vid=a4235150-e4d9-44e6-81c3-4e46a785aec7"},"vehicle_type_id":"4","last_reported":1778878222,"current_range_meters":8000,"station_id":"ce4bgg92rcd13ifvqb30","pricing_plan_id":"cebpf4jnsgd1na2vs0mg"},{"bike_id":"a188ecfd-b092-4e34-8766-37467ef73c12","system_id":"levelo_inurba_marseille","lat":43.29521,"lon":5.38551,"is_reserved":false,"is_disabled":false,"rental_uris":{"android":"levelo://app?vid=a188ecfd-b092-4e34-8766-37467ef73c12","ios":"levelo://app?vid=a188ecfd-b092-4e34-8766-37467ef73c12"},"vehicle_type_id":"4","last_reported":1778878222,"current_range_meters":8000,"station_id":"ce4bgih2rcd13ifvqba0","pricing_plan_id":"cebpf4jnsgd1na2vs0mg"},{"bike_id":"b4b0c392-3330-4ffc-86a9-5b928051e8f4","system_id":"levelo_inurba_marseille","lat":43.276194,"lon":5.361131,"is_reserved":false,"is_disabled":false,"rental_uris":{"android":"levelo://app?vid=b4b0c392-3330-4ffc-86a9-5b928051e8f4","ios":"levelo://app?vid=b4b0c392-3330-4ffc-86a9-5b928051e8f4"},"vehicle_type_id":"4","last_reported":1778878222,"current_range_meters":8000,"station_id":"ce4bh3p2rcd13ifvqdq0","pricing_plan_id":"cebpf4jnsgd1na2vs0mg"},{"bike_id":"96dbebec-04df-49fe-83bd-864658224843","system_id":"levelo_inurba_marseille","lat":43.28542,"lon":5.44098,"is_reserved":false,"is_disabled":false,"rental_uris":{"android":"levelo://app?vid=96dbebec-04df-49fe-83bd-864658224843","ios":"levelo://app?vid=96dbebec-04df-49fe-83bd-864658224843"},"vehicle_type_id":"4","last_reported":1778878222,"current_range_meters":8000,"station_id":"st_d3j3df2ikq2c7380ej80","pricing_plan_id":"cebpf4jnsgd1na2vs0mg"},{"bike_id":"ea710fd3-eb4d-4ad8-9f4d-4288652fa743","system_id":"levelo_inurba_marseille","lat":43.28092,"lon":5.39699,"is_reserved":false,"is_disabled":false,"rental_uris":{"android":"levelo://app?vid=ea710fd3-eb4d-4ad8-9f4d-4288652fa743","ios":"levelo://app?vid=ea710fd3-eb4d-4ad8-9f4d-4288652fa743"},"vehicle_type_id":"4","last_reported":1778878222,"current_range_meters":8000,"station_id":"ce4bho12rcd13ifvqh2g","pricing_plan_id":"cebpf4jnsgd1na2vs0mg"},{"bike_id":"0be4e3f8-33cb-464e-b5db-d1d652053727","system_id":"levelo_inurba_marseille","lat":43.25603,"lon":5.38212,"is_reserved":false,"is_disabled":false,"rental_uris":{"android":"levelo://app?vid=0be4e3f8-33cb-464e-b5db-d1d652053727","ios":"levelo://app?vid=0be4e3f8-33cb-464e-b5db-d1d652053727"},"vehicle_type_id":"4","last_reported":1778878222,"current_range_meters":8000,"station_id":"ce4bhih2rcd13ifvqfs0","pricing_plan_id":"cebpf4jnsgd1na2vs0mg"},{"bike_id":"1af2e03a-13de-447d-a64a-89a5e87cb2a7","system_id":"levelo_inurba_marseille","lat":43.32477,"lon":5.38289,"is_reserved":false,"is_disabled":false,"rental_uris":{"android":"levelo://app?vid=1af2e03a-13de-447d-a64a-89a5e87cb2a7","ios":"levelo://app?vid=1af2e03a-13de-447d-a64a-89a5e87cb2a7"},"vehicle_type_id":"4","last_reported":1778878222,"current_range_meters":8000,"station_id":"st_d4asgbiv49dc73anf9m0","pricing_plan_id":"cebpf4jnsgd1na2vs0mg"},{"bike_id":"0e47e8e0-420c-4d94-b425-126c123f721a","system_id":"levelo_inurba_marseille","lat":43.28612,"lon":5.39873,"is_reserved":false,"is_disabled":false,"rental_uris":{"android":"levelo://app?vid=0e47e8e0-420c-4d94-b425-126c123f721a","ios":"levelo://app?vid=0e47e8e0-420c-4d94-b425-126c123f721a"},"vehicle_type_id":"4","last_reported":1778878222,"current_range_meters":8000,"station_id":"st_d4a7ka997mjs738ck50g","pricing_plan_id":"cebpf4jnsgd1na2vs0mg"},{"bike_id":"3039fab5-5123-48a2-80f9-c9640b908b81","system_id":"levelo_inurba_marseille","lat":43.24659,"lon":5.38875,"is_reserved":false,"is_disabled":false,"rental_uris":{"android":"levelo://app?vid=3039fab5-5123-48a2-80f9-c9640b908b81","ios":"levelo://app?vid=3039fab5-5123-48a2-80f9-c9640b908b81"},"vehicle_type_id":"4","last_reported":1778878222,"current_range_meters":8000,"station_id":"ce4bhg12rcd13ifvqf60","pricing_plan_id":"cebpf4jnsgd1na2vs0mg"},{"bike_id":"d1fa2190-291a-4b49-8c52-d76a10e44b83","system_id":"levelo_inurba_marseille","lat":43.24404,"lon":5.37033,"is_reserved":false,"is_disabled":false,"rental_uris":{"android":"levelo://app?vid=d1fa2190-291a-4b49-8c52-d76a10e44b83","ios":"levelo://app?vid=d1fa2190-291a-4b49-8c52-d76a10e44b83"},"vehicle_type_id":"4","last_reported":1778878222,"current_range_meters":8000,"station_id":"ce4bhhh2rcd13ifvqfk0","pricing_plan_id":"cebpf4jnsgd1na2vs0mg"},{"bike_id":"d2730c4c-e27d-48c0-87fe-ede5e35f011b","system_id":"levelo_inurba_marseille","lat":43.21757,"lon":5.34589,"is_reserved":false,"is_disabled":true,"rental_uris":{"android":"levelo://app?vid=d2730c4c-e27d-48c0-87fe-ede5e35f011b","ios":"levelo://app?vid=d2730c4c-e27d-48c0-87fe-ede5e35f011b"},"vehicle_type_id":"4","last_reported":1778878222,"current_range_meters":8000,"station_id":"st_cvj6r9ubvosntc0bgbag","pricing_plan_id":"cebpf4jnsgd1na2vs0mg"},{"bike_id":"c0b0bc25-9fa0-43f9-ad79-87898053f208","system_id":"levelo_inurba_marseille","lat":43.2482,"lon":5.37451,"is_reserved":false,"is_disabled":false,"rental_uris":{"android":"levelo://app?vid=c0b0bc25-9fa0-43f9-ad79-87898053f208","ios":"levelo://app?vid=c0b0bc25-9fa0-43f9-ad79-87898053f208"},"vehicle_type_id":"4","last_reported":1778878222,"current_range_meters":8000,"station_id":"ce4bhgh2rcd13ifvqfb0","pricing_plan_id":"cebpf4jnsgd1na2vs0mg"},{"bike_id":"4e0a7f5b-8fb2-4e5a-8363-171588d5bb30","system_id":"levelo_inurba_marseille","lat":43.29593,"lon":5.38096,"is_reserved":false,"is_disabled":true,"rental_uris":{"android":"levelo://app?vid=4e0a7f5b-8fb2-4e5a-8363-171588d5bb30","ios":"levelo://app?vid=4e0a7f5b-8fb2-4e5a-8363-171588d5bb30"},"vehicle_type_id":"4","last_reported":1778878222,"current_range_meters":8000,"station_id":"ce4bgl12rcd13ifvqbo0","pricing_plan_id":"cebpf4jnsgd1na2vs0mg"},{"bike_id":"d6445685-1bb9-4f16-a27f-7fe9536d3f1f","system_id":"levelo_inurba_marseille","lat":43.28709,"lon":5.37393,"is_reserved":false,"is_disabled":true,"rental_uris":{"android":"levelo://app?vid=d6445685-1bb9-4f16-a27f-7fe9536d3f1f","ios":"levelo://app?vid=d6445685-1bb9-4f16-a27f-7fe9536d3f1f"},"vehicle_type_id":"4","last_reported":1778878222,"current_range_meters":8000,"station_id":"ce4bh3p2rcd13ifvqdq0","pricing_plan_id":"cebpf4jnsgd1na2vs0mg"},{"bike_id":"d10ac326-9ced-4eee-acda-c78226d9be45","system_id":"levelo_inurba_marseille","lat":43.29633,"lon":5.38089,"is_reserved":false,"is_disabled":false,"rental_uris":{"android":"levelo://app?vid=d10ac326-9ced-4eee-acda-c78226d9be45","ios":"levelo://app?vid=d10ac326-9ced-4eee-acda-c78226d9be45"},"vehicle_type_id":"4","last_reported":1778878222,"current_range_meters":8400,"station_id":"ce4bgl12rcd13ifvqbo0","pricing_plan_id":"cebpf4jnsgd1na2vs0mg"},{"bike_id":"4994f607-7614-4467-b689-4e9c8dc3eb6a","system_id":"levelo_inurba_marseille","lat":43.31712,"lon":5.42397,"is_reserved":false,"is_disabled":false,"rental_uris":{"android":"levelo://app?vid=4994f607-7614-4467-b689-4e9c8dc3eb6a","ios":"levelo://app?vid=4994f607-7614-4467-b689-4e9c8dc3eb6a"},"vehicle_type_id":"4","last_reported":1778878222,"current_range_meters":8400,"station_id":"ce4bhp92rcd13ifvqhbg","pricing_plan_id":"cebpf4jnsgd1na2vs0mg"},{"bike_id":"5920a18f-71b7-40ec-a004-65643d6a3954","system_id":"levelo_inurba_marseille","lat":43.22564,"lon":5.41619,"is_reserved":false,"is_disabled":false,"rental_uris":{"android":"levelo://app?vid=5920a18f-71b7-40ec-a004-65643d6a3954","ios":"levelo://app?vid=5920a18f-71b7-40ec-a004-65643d6a3954"},"vehicle_type_id":"4","last_reported":1778878222,"current_range_meters":8400,"station_id":"st_d2o4gvlbi1j2169b742g","pricing_plan_id":"cebpf4jnsgd1na2vs0mg"},{"bike_id":"31384c0a-d9be-4619-b242-5aa8bbbb4194","system_id":"levelo_inurba_marseille","lat":43.28929,"lon":5.38399,"is_reserved":false,"is_disabled":false,"rental_uris":{"android":"levelo://app?vid=31384c0a-d9be-4619-b242-5aa8bbbb4194","ios":"levelo://app?vid=31384c0a-d9be-4619-b242-5aa8bbbb4194"},"vehicle_type_id":"4","last_reported":1778878222,"current_range_meters":8400,"station_id":"ce4bh612rcd13ifvqe6g","pricing_plan_id":"cebpf4jnsgd1na2vs0mg"},