{"last_updated":1753791827,"ttl":60,"version":"2.2","data":{"bikes":[{"bike_id":"94853d6b-d1c6-47a8-91b5-374c53669b16","system_id":"levelo_inurba_marseille","lat":43.28476,"lon":5.38426,"is_reserved":false,"is_disabled":false,"rental_uris":{"android":"levelo://app?vid=94853d6b-d1c6-47a8-91b5-374c53669b16","ios":"levelo://app?vid=94853d6b-d1c6-47a8-91b5-374c53669b16"},"vehicle_type_id":"4","last_reported":1753791828,"current_range_meters":800,"station_id":"ce4bh512rcd13ifvqe3g","pricing_plan_id":"cebpf4jnsgd1na2vs0mg"},{"bike_id":"1b039ae0-bd90-4af5-b917-f9e20c56f19e","system_id":"levelo_inurba_marseille","lat":43.29901,"lon":5.3864,"is_reserved":false,"is_disabled":true,"rental_uris":{"android":"levelo://app?vid=1b039ae0-bd90-4af5-b917-f9e20c56f19e","ios":"levelo://app?vid=1b039ae0-bd90-4af5-b917-f9e20c56f19e"},"vehicle_type_id":"4","last_reported":1753791828,"current_range_meters":2800,"station_id":"","pricing_plan_id":"cebpf4jnsgd1na2vs0mg"},{"bike_id":"b83ad5b2-6836-476d-b3b8-383bb4e00964","system_id":"levelo_inurba_marseille","lat":43.292973,"lon":5.37466,"is_reserved":false,"is_disabled":false,"rental_uris":{"android":"levelo://app?vid=b83ad5b2-6836-476d-b3b8-383bb4e00964","ios":"levelo://app?vid=b83ad5b2-6836-476d-b3b8-383bb4e00964"},"vehicle_type_id":"4","last_reported":1753791828,"current_range_meters":3200,"station_id":"ce4bgi12rcd13ifvqb70","pricing_plan_id":"cebpf4jnsgd1na2vs0mg"},{"bike_id":"552f724a-aab0-4509-a8e5-517bfa6e6a4b","system_id":"levelo_inurba_marseille","lat":43.21191,"lon":5.35058,"is_reserved":false,"is_disabled":false,"rental_uris":{"android":"levelo://app?vid=552f724a-aab0-4509-a8e5-517bfa6e6a4b","ios":"levelo://app?vid=552f724a-aab0-4509-a8e5-517bfa6e6a4b"},"vehicle_type_id":"4","last_reported":1753791828,"current_range_meters":3200,"station_id":"st_cvj6sg6p6f1abm77japg","pricing_plan_id":"cebpf4jnsgd1na2vs0mg"},{"bike_id":"553bd5a3-c073-43eb-9832-c5e6f4de70ca","system_id":"levelo_inurba_marseille","lat":43.287109,"lon":5.373731,"is_reserved":false,"is_disabled":false,"rental_uris":{"android":"levelo://app?vid=553bd5a3-c073-43eb-9832-c5e6f4de70ca","ios":"levelo://app?vid=553bd5a3-c073-43eb-9832-c5e6f4de70ca"},"vehicle_type_id":"4","last_reported":1753791828,"current_range_meters":3200,"station_id":"ce4bh3p2rcd13ifvqdq0","pricing_plan_id":"cebpf4jnsgd1na2vs0mg"},{"bike_id":"f81814d2-7f49-405e-8b06-147621d3731f","system_id":"levelo_inurba_marseille","lat":43.27814,"lon":5.4072,"is_reserved":false,"is_disabled":false,"rental_uris":{"android":"levelo://app?vid=f81814d2-7f49-405e-8b06-147621d3731f","ios":"levelo://app?vid=f81814d2-7f49-405e-8b06-147621d3731f"},"vehicle_type_id":"4","last_reported":1753791828,"current_range_meters":3200,"station_id":"ce4bhnh2rcd13ifvqgtg","pricing_plan_id":"cebpf4jnsgd1na2vs0mg"},{"bike_id":"70af7095-2516-4480-b65d-b3cc3be15c8d","system_id":"levelo_inurba_marseille","lat":43.323596,"lon":5.36752,"is_reserved":false,"is_disabled":false,"rental_uris":{"android":"levelo://app?vid=70af7095-2516-4480-b65d-b3cc3be15c8d","ios":"levelo://app?vid=70af7095-2516-4480-b65d-b3cc3be15c8d"},"vehicle_type_id":"4","last_reported":1753791828,"current_range_meters":3600,"station_id":"","pricing_plan_id":"cebpf4jnsgd1na2vs0mg"},{"bike_id":"ac1d4aac-faba-43bd-aed3-0bd75b037910","system_id":"levelo_inurba_marseille","lat":43.31276,"lon":5.40176,"is_reserved":false,"is_disabled":false,"rental_uris":{"android":"levelo://app?vid=ac1d4aac-faba-43bd-aed3-0bd75b037910","ios":"levelo://app?vid=ac1d4aac-faba-43bd-aed3-0bd75b037910"},"vehicle_type_id":"4","last_reported":1753791828,"current_range_meters":3600,"station_id":"ce4bh092rcd13ifvqd30","pricing_plan_id":"cebpf4jnsgd1na2vs0mg"},{"bike_id":"a090bf47-dd23-46cf-86f4-70fa58c2ae3a","system_id":"levelo_inurba_marseille","lat":43.24647,"lon":5.38916,"is_reserved":false,"is_disabled":false,"rental_uris":{"android":"levelo://app?vid=a090bf47-dd23-46cf-86f4-70fa58c2ae3a","ios":"levelo://app?vid=a090bf47-dd23-46cf-86f4-70fa58c2ae3a"},"vehicle_type_id":"4","last_reported":1753791828,"current_range_meters":3600,"station_id":"ce4bhg12rcd13ifvqf60","pricing_plan_id":"cebpf4jnsgd1na2vs0mg"},{"bike_id":"7a1dd3cb-0b3f-4bbc-98da-903e67a9bc94","system_id":"levelo_inurba_marseille","lat":43.29296,"lon":5.37462,"is_reserved":false,"is_disabled":false,"rental_uris":{"android":"levelo://app?vid=7a1dd3cb-0b3f-4bbc-98da-903e67a9bc94","ios":"levelo://app?vid=7a1dd3cb-0b3f-4bbc-98da-903e67a9bc94"},"vehicle_type_id":"4","last_reported":1753791828,"current_range_meters":3600,"station_id":"ce4bgi12rcd13ifvqb70","pricing_plan_id":"cebpf4jnsgd1na2vs0mg"},{"bike_id":"b737f5af-0780-4036-b91b-bf16c1b4afae","system_id":"levelo_inurba_marseille","lat":43.29619,"lon":5.37721,"is_reserved":false,"is_disabled":false,"rental_uris":{"android":"levelo://app?vid=b737f5af-0780-4036-b91b-bf16c1b4afae","ios":"levelo://app?vid=b737f5af-0780-4036-b91b-bf16c1b4afae"},"vehicle_type_id":"4","last_reported":1753791828,"current_range_meters":3600,"station_id":"ce4bgi92rcd13ifvqb90","pricing_plan_id":"cebpf4jnsgd1na2vs0mg"},{"bike_id":"a34948bd-cd82-42cf-8c17-0706287de6d8","system_id":"levelo_inurba_marseille","lat":43.29566,"lon":5.39978,"is_reserved":false,"is_disabled":false,"rental_uris":{"android":"levelo://app?vid=a34948bd-cd82-42cf-8c17-0706287de6d8","ios":"levelo://app?vid=a34948bd-cd82-42cf-8c17-0706287de6d8"},"vehicle_type_id":"4","last_reported":1753791828,"current_range_meters":800,"station_id":"ce4bh312rcd13ifvqdj0","pricing_plan_id":"cebpf4jnsgd1na2vs0mg"},{"bike_id":"c566fac1-bdc0-44b4-b51d-6079acd80ddc","system_id":"levelo_inurba_marseille","lat":43.32289,"lon":5.38288,"is_reserved":false,"is_disabled":false,"rental_uris":{"android":"levelo://app?vid=c566fac1-bdc0-44b4-b51d-6079acd80ddc","ios":"levelo://app?vid=c566fac1-bdc0-44b4-b51d-6079acd80ddc"},"vehicle_type_id":"4","last_reported":1753791828,"current_range_meters":4000,"station_id":"ce4bhr12rcd13ifvqhqg","pricing_plan_id":"cebpf4jnsgd1na2vs0mg"},{"bike_id":"bbb53d7f-00e9-4099-af2f-70a6b0ebb8f8","system_id":"levelo_inurba_marseille","lat":43.26554,"lon":5.37285,"is_reserved":false,"is_disabled":false,"rental_uris":{"android":"levelo://app?vid=bbb53d7f-00e9-4099-af2f-70a6b0ebb8f8","ios":"levelo://app?vid=bbb53d7f-00e9-4099-af2f-70a6b0ebb8f8"},"vehicle_type_id":"4","last_reported":1753791828,"current_range_meters":4000,"station_id":"ce4bhg12rcd13ifvqf70","pricing_plan_id":"cebpf4jnsgd1na2vs0mg"},{"bike_id":"50cc6e6a-95a1-4c89-90a4-f6d3c93e0d0b","system_id":"levelo_inurba_marseille","lat":43.30537,"lon":5.36546,"is_reserved":false,"is_disabled":false,"rental_uris":{"android":"levelo://app?vid=50cc6e6a-95a1-4c89-90a4-f6d3c93e0d0b","ios":"levelo://app?vid=50cc6e6a-95a1-4c89-90a4-f6d3c93e0d0b"},"vehicle_type_id":"4","last_reported":1753791828,"current_range_meters":4000,"station_id":"ce4bgs12rcd13ifvqcag","pricing_plan_id":"cebpf4jnsgd1na2vs0mg"},{"bike_id":"d5b0b670-4efe-49b4-9087-598a780fdf12","system_id":"levelo_inurba_marseille","lat":43.31477,"lon":5.37304,"is_reserved":false,"is_disabled":false,"rental_uris":{"android":"levelo://app?vid=d5b0b670-4efe-49b4-9087-598a780fdf12","ios":"levelo://app?vid=d5b0b670-4efe-49b4-9087-598a780fdf12"},"vehicle_type_id":"4","last_reported":1753791828,"current_range_meters":4400,"station_id":"ce4bgt12rcd13ifvqcd0","pricing_plan_id":"cebpf4jnsgd1na2vs0mg"},{"bike_id":"71f2db57-289e-4700-b9e9-371d07bab5a0","system_id":"levelo_inurba_marseille","lat":43.23958,"lon":5.36627,"is_reserved":false,"is_disabled":false,"rental_uris":{"android":"levelo://app?vid=71f2db57-289e-4700-b9e9-371d07bab5a0","ios":"levelo://app?vid=71f2db57-289e-4700-b9e9-371d07bab5a0"},"vehicle_type_id":"4","last_reported":1753791828,"current_range_meters":4400,"station_id":"ce4bhi12rcd13ifvqfp0","pricing_plan_id":"cebpf4jnsgd1na2vs0mg"},{"bike_id":"a1eb7dd8-c7da-44dc-9a28-a19004e94968","system_id":"levelo_inurba_marseille","lat":43.28266,"lon":5.3506,"is_reserved":false,"is_disabled":false,"rental_uris":{"android":"levelo://app?vid=a1eb7dd8-c7da-44dc-9a28-a19004e94968","ios":"levelo://app?vid=a1eb7dd8-c7da-44dc-9a28-a19004e94968"},"vehicle_type_id":"4","last_reported":1753791828,"current_range_meters":1200,"station_id":"ce4bhbp2rcd13ifvqerg","pricing_plan_id":"cebpf4jnsgd1na2vs0mg"},{"bike_id":"da0dea9a-07a2-4249-aa7c-2489e28d40de","system_id":"levelo_inurba_marseille","lat":43.2966,"lon":5.36243,"is_reserved":false,"is_disabled":false,"rental_uris":{"android":"levelo://app?vid=da0dea9a-07a2-4249-aa7c-2489e28d40de","ios":"levelo://app?vid=da0dea9a-07a2-4249-aa7c-2489e28d40de"},"vehicle_type_id":"4","last_reported":1753791828,"current_range_meters":5600,"station_id":"","pricing_plan_id":"cebpf4jnsgd1na2vs0mg"},{"bike_id":"5a67886b-2f40-46df-b0be-1179491cb0a7","system_id":"levelo_inurba_marseille","lat":43.299683,"lon":5.386239,"is_reserved":false,"is_disabled":false,"rental_uris":{"android":"levelo://app?vid=5a67886b-2f40-46df-b0be-1179491cb0a7","ios":"levelo://app?vid=5a67886b-2f40-46df-b0be-1179491cb0a7"},"vehicle_type_id":"4","last_reported":1753791828,"current_range_meters":6000,"station_id":"","pricing_plan_id":"cebpf4jnsgd1na2vs0mg"},{"bike_id":"6b38b7b1-17e2-4abb-a5ba-6be50414841b","system_id":"levelo_inurba_marseille","lat":43.29314,"lon":5.37035,"is_reserved":false,"is_disabled":false,"rental_uris":{"android":"levelo://app?vid=6b38b7b1-17e2-4abb-a5ba-6be50414841b","ios":"levelo://app?vid=6b38b7b1-17e2-4abb-a5ba-6be50414841b"},"vehicle_type_id":"4","last_reported":1753791828,"current_range_meters":6000,"station_id":"","pricing_plan_id":"cebpf4jnsgd1na2vs0mg"},{"bike_id":"6f36318b-b9aa-48ee-bc2b-085df57d7841","system_id":"levelo_inurba_marseille","lat":43.28473,"lon":5.38415,"is_reserved":false,"is_disabled":false,"rental_uris":{"android":"levelo://app?vid=6f36318b-b9aa-48ee-bc2b-085df57d7841","ios":"levelo://app?vid=6f36318b-b9aa-48ee-bc2b-085df57d7841"},"vehicle_type_id":"4","last_reported":1753791828,"current_range_meters":6000,"station_id":"ce4bh512rcd13ifvqe3g","pricing_plan_id":"cebpf4jnsgd1na2vs0mg"},{"bike_id":"744438be-36ee-4889-bbe5-60899ebed50d","system_id":"levelo_inurba_marseille","lat":43.30327,"lon":5.36899,"is_reserved":false,"is_disabled":false,"rental_uris":{"android":"levelo://app?vid=744438be-36ee-4889-bbe5-60899ebed50d","ios":"levelo://app?vid=744438be-36ee-4889-bbe5-60899ebed50d"},"vehicle_type_id":"4","last_reported":1753791828,"current_range_meters":6400,"station_id":"ce4bgqh2rcd13ifvqc5g","pricing_plan_id":"cebpf4jnsgd1na2vs0mg"},{"bike_id":"6cb11f4f-f451-4a1b-a7c5-61054d6b97f6","system_id":"levelo_inurba_marseille","lat":43.23626,"lon":5.41007,"is_reserved":false,"is_disabled":false,"rental_uris":{"android":"levelo://app?vid=6cb11f4f-f451-4a1b-a7c5-61054d6b97f6","ios":"levelo://app?vid=6cb11f4f-f451-4a1b-a7c5-61054d6b97f6"},"vehicle_type_id":"4","last_reported":1753791828,"current_range_meters":6400,"station_id":"","pricing_plan_id":"cebpf4jnsgd1na2vs0mg"},{"bike_id":"d878d17f-f998-4f33-b04f-5eab92f71226","system_id":"levelo_inurba_marseille","lat":43.21746,"lon":5.34595,"is_reserved":false,"is_disabled":false,"rental_uris":{"android":"levelo://app?vid=d878d17f-f998-4f33-b04f-5eab92f71226","ios":"levelo://app?vid=d878d17f-f998-4f33-b04f-5eab92f71226"},"vehicle_type_id":"4","last_reported":1753791828,"current_range_meters":6000,"station_id":"st_cvj6r9ubvosntc0bgbag","pricing_plan_id":"cebpf4jnsgd1na2vs0mg"},{"bike_id":"3152576e-d602-4c3f-980e-717f41aed773","system_id":"levelo_inurba_marseille","lat":43.33737,"lon":5.37465,"is_reserved":false,"is_disabled":false,"rental_uris":{"android":"levelo://app?vid=3152576e-d602-4c3f-980e-717f41aed773","ios":"levelo://app?vid=3152576e-d602-4c3f-980e-717f41aed773"},"vehicle_type_id":"4","last_reported":1753791828,"current_range_meters":6400,"station_id":"","pricing_plan_id":"cebpf4jnsgd1na2vs0mg"},{"bike_id":"1c53a8de-61e0-41ba-a07c-f799367be167","system_id":"levelo_inurba_marseille","lat":43.2907,"lon":5.37162,"is_reserved":false,"is_disabled":false,"rental_uris":{"android":"levelo://app?vid=1c53a8de-61e0-41ba-a07c-f799367be167","ios":"levelo://app?vid=1c53a8de-61e0-41ba-a07c-f799367be167"},"vehicle_type_id":"4","last_reported":1753791828,"current_range_meters":6800,"station_id":"ce4bh5p2rcd13ifvqe4g","pricing_plan_id":"cebpf4jnsgd1na2vs0mg"},{"bike_id":"fb45cff3-08fa-4cc9-bf53-0d8295f6b8d1","system_id":"levelo_inurba_marseille","lat":43.27879,"lon":5.42813,"is_reserved":false,"is_disabled":false,"rental_uris":{"android":"levelo://app?vid=fb45cff3-08fa-4cc9-bf53-0d8295f6b8d1","ios":"levelo://app?vid=fb45cff3-08fa-4cc9-bf53-0d8295f6b8d1"},"vehicle_type_id":"4","last_reported":1753791828,"current_range_meters":6800,"station_id":"","pricing_plan_id":"cebpf4jnsgd1na2vs0mg"},{"bike_id":"0ac90e99-5d28-4813-a26e-3fcb012f1acb","system_id":"levelo_inurba_marseille","lat":43.22503,"lon":5.34783,"is_reserved":false,"is_disabled":false,"rental_uris":{"android":"levelo://app?vid=0ac90e99-5d28-4813-a26e-3fcb012f1acb","ios":"levelo://app?vid=0ac90e99-5d28-4813-a26e-3fcb012f1acb"},"vehicle_type_id":"4","last_reported":1753791828,"current_range_meters":6800,"station_id":"st_cvj5dfep6f1abm77gieg","pricing_plan_id":"cebpf4jnsgd1na2vs0mg"},{"bike_id":"f4c59c80-40f0-4999-896e-9e0a199046c0","system_id":"levelo_inurba_marseille","lat":43.291692,"lon":5.355688,"is_reserved":false,"is_disabled":false,"rental_uris":{"android":"levelo://app?vid=f4c59c80-40f0-4999-896e-9e0a199046c0","ios":"levelo://app?vid=f4c59c80-40f0-4999-896e-9e0a199046c0"},"vehicle_type_id":"4","last_reported":1753791828,"current_range_meters":6800,"station_id":"ce4bhbh2rcd13ifvqepg","pricing_plan_id":"cebpf4jnsgd1na2vs0mg"},{"bike_id":"8d48a5eb-b088-4ca9-a4ec-9397ac74df39","system_id":"levelo_inurba_marseille","lat":43.24178,"lon":5.39732,"is_reserved":false,"is_disabled":false,"rental_uris":{"android":"levelo://app?vid=8d48a5eb-b088-4ca9-a4ec-9397ac74df39","ios":"levelo://app?vid=8d48a5eb-b088-4ca9-a4ec-9397ac74df39"},"vehicle_type_id":"4","last_reported":1753791828,"current_range_meters":7200,"station_id":"ce4bhn12rcd13ifvqgpg","pricing_plan_id":"cebpf4jnsgd1na2vs0mg"},{"bike_id":"a6922362-229d-41a8-aeb7-b5772e221610","system_id":"levelo_inurba_marseille","lat":43.29188,"lon":5.39314,"is_reserved":false,"is_disabled":true,"rental_uris":{"android":"levelo://app?vid=a6922362-229d-41a8-aeb7-b5772e221610","ios":"levelo://app?vid=a6922362-229d-41a8-aeb7-b5772e221610"},"vehicle_type_id":"4","last_reported":1753791828,"current_range_meters":7200,"station_id":"ce4bh192rcd13ifvqdd0","pricing_plan_id":"cebpf4jnsgd1na2vs0mg"},{"bike_id":"d84627e6-e435-4c0a-b1db-0750bc32ab4b","system_id":"levelo_inurba_marseille","lat":43.27612,"lon":5.36117,"is_reserved":false,"is_disabled":false,"rental_uris":{"android":"levelo://app?vid=d84627e6-e435-4c0a-b1db-0750bc32ab4b","ios":"levelo://app?vid=d84627e6-e435-4c0a-b1db-0750bc32ab4b"},"vehicle_type_id":"4","last_reported":1753791828,"current_range_meters":7200,"station_id":"ce4bgj92rcd13ifvqbe0","pricing_plan_id":"cebpf4jnsgd1na2vs0mg"},{"bike_id":"f078f85b-29cc-469a-b7a1-13876bebe32b","system_id":"levelo_inurba_marseille","lat":43.29575,"lon":5.36746,"is_reserved":false,"is_disabled":false,"rental_uris":{"android":"levelo://app?vid=f078f85b-29cc-469a-b7a1-13876bebe32b","ios":"levelo://app?vid=f078f85b-29cc-469a-b7a1-13876bebe32b"},"vehicle_type_id":"4","last_reported":1753791828,"current_range_meters":7200,"station_id":"ce4bgph2rcd13ifvqc2g","pricing_plan_id":"cebpf4jnsgd1na2vs0mg"},{"bike_id":"019501f5-4eaa-4845-895f-9abec0d71aa2","system_id":"levelo_inurba_marseille","lat":43.3044,"lon":5.37916,"is_reserved":false,"is_disabled":false,"rental_uris":{"android":"levelo://app?vid=019501f5-4eaa-4845-895f-9abec0d71aa2","ios":"levelo://app?vid=019501f5-4eaa-4845-895f-9abec0d71aa2"},"vehicle_type_id":"4","last_reported":1753791828,"current_range_meters":8000,"station_id":"ce4bgup2rcd13ifvqcn0","pricing_plan_id":"cebpf4jnsgd1na2vs0mg"},{"bike_id":"8bf2129d-0df0-4a35-ba38-615c802fc22c","system_id":"levelo_inurba_marseille","lat":43.27323,"lon":5.39064,"is_reserved":false,"is_disabled":false,"rental_uris":{"android":"levelo://app?vid=8bf2129d-0df0-4a35-ba38-615c802fc22c","ios":"levelo://app?vid=8bf2129d-0df0-4a35-ba38-615c802fc22c"},"vehicle_type_id":"4","last_reported":1753791828,"current_range_meters":8000,"station_id":"ce4bhgp2rcd13ifvqfe0","pricing_plan_id":"cebpf4jnsgd1na2vs0mg"},{"bike_id":"5dbe7c4d-1850-456b-8187-7bdbd8e55b07","system_id":"levelo_inurba_marseille","lat":43.28454,"lon":5.35889,"is_reserved":false,"is_disabled":false,"rental_uris":{"android":"levelo://app?vid=5dbe7c4d-1850-456b-8187-7bdbd8e55b07","ios":"levelo://app?vid=5dbe7c4d-1850-456b-8187-7bdbd8e55b07"},"vehicle_type_id":"4","last_reported":1753791828,"current_range_meters":8400,"station_id":"ce4bhah2rcd13ifvqei0","pricing_plan_id":"cebpf4jnsgd1na2vs0mg"},{"bike_id":"84036e62-78c0-42e9-a5c2-ad3d3703bc8c","system_id":"levelo_inurba_marseille","lat":43.2794,"lon":5.41047,"is_reserved":false,"is_disabled":false,"rental_uris":{"android":"levelo://app?vid=84036e62-78c0-42e9-a5c2-ad3d3703bc8c","ios":"levelo://app?vid=84036e62-78c0-42e9-a5c2-ad3d3703bc8c"},"vehicle_type_id":"4","last_reported":1753791828,"current_range_meters":8400,"station_id":"ce4bhnp2rcd13ifvqh0g","pricing_plan_id":"cebpf4jnsgd1na2vs0mg"},{"bike_id":"2c9fec61-bcf9-4dff-8cd3-e9212383fe43","system_id":"levelo_inurba_marseille","lat":43.2319,"lon":5.35554,"is_reserved":false,"is_disabled":false,"rental_uris":{"android":"levelo://app?vid=2c9fec61-bcf9-4dff-8cd3-e9212383fe43","ios":"levelo://app?vid=2c9fec61-bcf9-4dff-8cd3-e9212383fe43"},"vehicle_type_id":"4","last_reported":1753791828,"current_range_meters":8400,"station_id":"ce4bhu92rcd13ifvqi70","pricing_plan_id":"cebpf4jnsgd1na2vs0mg"},{"bike_id":"a09b6fbf-514f-4f85-98fb-726502937498","system_id":"levelo_inurba_marseille","lat":43.2319,"lon":5.35562,"is_reserved":false,"is_disabled":false,"rental_uris":{"android":"levelo://app?vid=a09b6fbf-514f-4f85-98fb-726502937498","ios":"levelo://app?vid=a09b6fbf-514f-4f85-98fb-726502937498"},"vehicle_type_id":"4","last_reported":1753791828,"current_range_meters":8800,"station_id":"ce4bhu92rcd13ifvqi70","pricing_plan_id":"cebpf4jnsgd1na2vs0mg"},{"bike_id":"55ba520c-4797-40d4-86c5-bf11ff6e5566","system_id":"levelo_inurba_marseille","lat":43.30373,"lon":5.42489,"is_reserved":false,"is_disabled":false,"rental_uris":{"android":"levelo://app?vid=55ba520c-4797-40d4-86c5-bf11ff6e5566","ios":"levelo://app?vid=55ba520c-4797-40d4-86c5-bf11ff6e5566"},"vehicle_type_id":"4","last_reported":1753791828,"current_range_meters":8800,"station_id":"ce4bhoh2rcd13ifvqh6g","pricing_plan_id":"cebpf4jnsgd1na2vs0mg"},{"bike_id":"80915a30-ef88-4d81-b5d1-969d1c17a42d","system_id":"levelo_inurba_marseille","lat":43.30398,"lon":5.40834,"is_reserved":false,"is_disabled":false,"rental_uris":{"android":"levelo://app?vid=80915a30-ef88-4d81-b5d1-969d1c17a42d","ios":"levelo://app?vid=80915a30-ef88-4d81-b5d1-969d1c17a42d"},"vehicle_type_id":"4","last_reported":1753791828,"current_range_meters":8800,"station_id":"","pricing_plan_id":"cebpf4jnsgd1na2vs0mg"},{"bike_id":"8e37ef79-bd01-46c2-9d9e-3d3f7741a07a","system_id":"levelo_inurba_marseille","lat":43.297302,"lon":5.374166,"is_reserved":false,"is_disabled":false,"rental_uris":{"android":"levelo://app?vid=8e37ef79-bd01-46c2-9d9e-3d3f7741a07a","ios":"levelo://app?vid=8e37ef79-bd01-46c2-9d9e-3d3f7741a07a"},"vehicle_type_id":"4","last_reported":1753791828,"current_range_meters":8800,"station_id":"","pricing_plan_id":"cebpf4jnsgd1na2vs0mg"},{"bike_id":"37fcf059-83b8-4b6e-bc28-0c83f77e3c05","system_id":"levelo_inurba_marseille","lat":43.337444,"lon":5.374475,"is_reserved":false,"is_disabled":false,"rental_uris":{"android":"levelo://app?vid=37fcf059-83b8-4b6e-bc28-0c83f77e3c05","ios":"levelo://app?vid=37fcf059-83b8-4b6e-bc28-0c83f77e3c05"},"vehicle_type_id":"4","last_reported":1753791828,"current_range_meters":8800,"station_id":"","pricing_plan_id":"cebpf4jnsgd1na2vs0mg"},{"bike_id":"95dd70e4-879c-49e7-b318-a6c71b22a43e","system_id":"levelo_inurba_marseille","lat":43.2703,"lon":5.39295,"is_reserved":false,"is_disabled":false,"rental_uris":{"android":"levelo://app?vid=95dd70e4-879c-49e7-b318-a6c71b22a43e","ios":"levelo://app?vid=95dd70e4-879c-49e7-b318-a6c71b22a43e"},"vehicle_type_id":"4","last_reported":1753791828,"current_range_meters":8800,"station_id":"","pricing_plan_id":"cebpf4jnsgd1na2vs0mg"},{"bike_id":"4aef7398-c5d6-4e73-8b24-cf78aa87d166","system_id":"levelo_inurba_marseille","lat":43.21749,"lon":5.34599,"is_reserved":false,"is_disabled":false,"rental_uris":{"android":"levelo://app?vid=4aef7398-c5d6-4e73-8b24-cf78aa87d166","ios":"levelo://app?vid=4aef7398-c5d6-4e73-8b24-cf78aa87d166"},"vehicle_type_id":"4","last_reported":1753791828,"current_range_meters":8800,"station_id":"st_cvj6r9ubvosntc0bgbag","pricing_plan_id":"cebpf4jnsgd1na2vs0mg"},{"bike_id":"209c73e6-1f69-4d13-9fed-77cb46eecd05","system_id":"levelo_inurba_marseille","lat":43.34681,"lon":5.38065,"is_reserved":false,"is_disabled":false,"rental_uris":{"android":"levelo://app?vid=209c73e6-1f69-4d13-9fed-77cb46eecd05","ios":"levelo://app?vid=209c73e6-1f69-4d13-9fed-77cb46eecd05"},"vehicle_type_id":"4","last_reported":1753791828,"current_range_meters":8800,"station_id":"","pricing_plan_id":"cebpf4jnsgd1na2vs0mg"},{"bike_id":"3dddabfb-566b-4525-981e-f94e9915ce4e","system_id":"levelo_inurba_marseille","lat":43.23149,"lon":5.4371,"is_reserved":false,"is_disabled":false,"rental_uris":{"android":"levelo://app?vid=3dddabfb-566b-4525-981e-f94e9915ce4e","ios":"levelo://app?vid=3dddabfb-566b-4525-981e-f94e9915ce4e"},"vehicle_type_id":"4","last_reported":1753791828,"current_range_meters":8800,"station_id":"ce4bhmp2rcd13ifvqgog","pricing_plan_id":"cebpf4jnsgd1na2vs0mg"},{"bike_id":"6b68e271-8900-46dd-b7bf-f83d3e9118f7","system_id":"levelo_inurba_marseille","lat":43.28033,"lon":5.36947,"is_reserved":false,"is_disabled":false,"rental_uris":{"android":"levelo://app?vid=6b68e271-8900-46dd-b7bf-f83d3e9118f7","ios":"levelo://app?vid=6b68e271-8900-46dd-b7bf-f83d3e9118f7"},"vehicle_type_id":"4","last_reported":1753791828,"current_range_meters":9200,"station_id":"ce4bha12rcd13ifvqef0","pricing_plan_id":"cebpf4jnsgd1na2vs0mg"},{"bike_id":"05cbfde1-bc8b-4494-8924-fea2291ddb1f","system_id":"levelo_inurba_marseille","lat":43.295494,"lon":5.365798,"is_reserved":false,"is_disabled":false,"rental_uris":{"android":"levelo://app?vid=05cbfde1-bc8b-4494-8924-fea2291ddb1f","ios":"levelo://app?vid=05cbfde1-bc8b-4494-8924-fea2291ddb1f"},"vehicle_type_id":"4","last_reported":1753791828,"current_range_meters":9200,"station_id":"","pricing_plan_id":"cebpf4jnsgd1na2vs0mg"},{"bike_id":"fecf40af-8412-46dd-92cc-5d076f7b1e03","system_id":"levelo_inurba_marseille","lat":43.239557,"lon":5.366293,"is_reserved":false,"is_disabled":false,"rental_uris":{"android":"levelo://app?vid=fecf40af-8412-46dd-92cc-5d076f7b1e03","ios":"levelo://app?vid=fecf40af-8412-46dd-92cc-5d076f7b1e03"},"vehicle_type_id":"4","last_reported":1753791828,"current_range_meters":9200,"station_id":"ce4bhi12rcd13ifvqfp0","pricing_plan_id":"cebpf4jnsgd1na2vs0mg"},{"bike_id":"65e3db07-f188-422b-b687-3d06cfe2bcf8","system_id":"levelo_inurba_marseille","lat":43.28041,"lon":5.35026,"is_reserved":false,"is_disabled":false,"rental_uris":{"android":"levelo://app?vid=65e3db07-f188-422b-b687-3d06cfe2bcf8","ios":"levelo://app?vid=65e3db07-f188-422b-b687-3d06cfe2bcf8"},"vehicle_type_id":"4","last_reported":1753791828,"current_range_meters":9200,"station_id":"","pricing_plan_id":"cebpf4jnsgd1na2vs0mg"},{"bike_id":"a72badfe-75b3-47bc-a956-b438a0765445","system_id":"levelo_inurba_marseille","lat":43.30787,"lon":5.43547,"is_reserved":false,"is_disabled":false,"rental_uris":{"android":"levelo://app?vid=a72badfe-75b3-47bc-a956-b438a0765445","ios":"levelo://app?vid=a72badfe-75b3-47bc-a956-b438a0765445"},"vehicle_type_id":"4","last_reported":1753791828,"current_range_meters":9600,"station_id":"ce4bhph2rcd13ifvqheg","pricing_plan_id":"cebpf4jnsgd1na2vs0mg"},{"bike_id":"24e4fbdb-edb3-4f7d-8c37-f4ec34322a64","system_id":"levelo_inurba_marseille","lat":43.30904,"lon":5.37204,"is_reserved":false,"is_disabled":false,"rental_uris":{"android":"levelo://app?vid=24e4fbdb-edb3-4f7d-8c37-f4ec34322a64","ios":"levelo://app?vid=24e4fbdb-edb3-4f7d-8c37-f4ec34322a64"},"vehicle_type_id":"4","last_reported":1753791828,"current_range_meters":9600,"station_id":"ce4bguh2rcd13ifvqckg","pricing_plan_id":"cebpf4jnsgd1na2vs0mg"},{"bike_id":"f8ac8139-456a-420b-acfd-e4ef18592b8c","system_id":"levelo_inurba_marseille","lat":43.32287,"lon":5.38266,"is_reserved":false,"is_disabled":false,"rental_uris":{"android":"levelo://app?vid=f8ac8139-456a-420b-acfd-e4ef18592b8c","ios":"levelo://app?vid=f8ac8139-456a-420b-acfd-e4ef18592b8c"},"vehicle_type_id":"4","last_reported":1753791828,"current_range_meters":9600,"station_id":"ce4bhr12rcd13ifvqhqg","pricing_plan_id":"cebpf4jnsgd1na2vs0mg"},{"bike_id":"415fcec9-58d1-4290-bf82-556862d1f3bb","system_id":"levelo_inurba_marseille","lat":43.21749,"lon":5.34603,"is_reserved":false,"is_disabled":false,"rental_uris":{"android":"levelo://app?vid=415fcec9-58d1-4290-bf82-556862d1f3bb","ios":"levelo://app?vid=415fcec9-58d1-4290-bf82-556862d1f3bb"},"vehicle_type_id":"4","last_reported":1753791828,"current_range_meters":9600,"station_id":"st_cvj6r9ubvosntc0bgbag","pricing_plan_id":"cebpf4jnsgd1na2vs0mg"},{"bike_id":"149fbe11-3bce-47a0-b584-c7c7bd6bb12f","system_id":"levelo_inurba_marseille","lat":43.21614,"lon":5.34445,"is_reserved":false,"is_disabled":false,"rental_uris":{"android":"levelo://app?vid=149fbe11-3bce-47a0-b584-c7c7bd6bb12f","ios":"levelo://app?vid=149fbe11-3bce-47a0-b584-c7c7bd6bb12f"},"vehicle_type_id":"4","last_reported":1753791828,"current_range_meters":9600,"station_id":"","pricing_plan_id":"cebpf4jnsgd1na2vs0mg"},{"bike_id":"fca69529-c5fa-41a3-baad-0323d297d932","system_id":"levelo_inurba_marseille","lat":43.2827,"lon":5.35059,"is_reserved":false,"is_disabled":false,"rental_uris":{"android":"levelo://app?vid=fca69529-c5fa-41a3-baad-0323d297d932","ios":"levelo://app?vid=fca69529-c5fa-41a3-baad-0323d297d932"},"vehicle_type_id":"4","last_reported":1753791828,"current_range_meters":9600,"station_id":"ce4bhbp2rcd13ifvqerg","pricing_plan_id":"cebpf4jnsgd1na2vs0mg"},{"bike_id":"64f258c6-1e92-4dd0-a4f6-11b336a5b138","system_id":"levelo_inurba_marseille","lat":43.225,"lon":5.34785,"is_reserved":false,"is_disabled":false,"rental_uris":{"android":"levelo://app?vid=64f258c6-1e92-4dd0-a4f6-11b336a5b138","ios":"levelo://app?vid=64f258c6-1e92-4dd0-a4f6-11b336a5b138"},"vehicle_type_id":"4","last_reported":1753791828,"current_range_meters":9600,"station_id":"","pricing_plan_id":"cebpf4jnsgd1na2vs0mg"},{"bike_id":"fd144613-88c1-41d1-90c4-6f2da4136453","system_id":"levelo_inurba_marseille","lat":43.30372,"lon":5.42486,"is_reserved":false,"is_disabled":false,"rental_uris":{"android":"levelo://app?vid=fd144613-88c1-41d1-90c4-6f2da4136453","ios":"levelo://app?vid=fd144613-88c1-41d1-90c4-6f2da4136453"},"vehicle_type_id":"4","last_reported":1753791828,"current_range_meters":9600,"station_id":"ce4bhoh2rcd13ifvqh6g","pricing_plan_id":"cebpf4jnsgd1na2vs0mg"},{"bike_id":"2f6ee565-31e0-47cd-8193-c7ca68a19abb","system_id":"levelo_inurba_marseille","lat":43.337444,"lon":5.374475,"is_reserved":false,"is_disabled":true,"rental_uris":{"android":"levelo://app?vid=2f6ee565-31e0-47cd-8193-c7ca68a19abb","ios":"levelo://app?vid=2f6ee565-31e0-47cd-8193-c7ca68a19abb"},"vehicle_type_id":"4","last_reported":1753791828,"current_range_meters":10000,"station_id":"","pricing_plan_id":"cebpf4jnsgd1na2vs0mg"},{"bike_id":"088b283b-ceea-4364-9408-4c6cdef4b84d","system_id":"levelo_inurba_marseille","lat":43.22912,"lon":5.35379,"is_reserved":false,"is_disabled":false,"rental_uris":{"android":"levelo://app?vid=088b283b-ceea-4364-9408-4c6cdef4b84d","ios":"levelo://app?vid=088b283b-ceea-4364-9408-4c6cdef4b84d"},"vehicle_type_id":"4","last_reported":1753791828,"current_range_meters":10000,"station_id":"cpo3532slgdg3j2ikp40","pricing_plan_id":"cebpf4jnsgd1na2vs0mg"},{"bike_id":"8afadadd-641c-466a-a8b4-41592bf7e6fd","system_id":"levelo_inurba_marseille","lat":43.29031,"lon":5.37548,"is_reserved":false,"is_disabled":false,"rental_uris":{"android":"levelo://app?vid=8afadadd-641c-466a-a8b4-41592bf7e6fd","ios":"levelo://app?vid=8afadadd-641c-466a-a8b4-41592bf7e6fd"},"vehicle_type_id":"4","last_reported":1753791828,"current_range_meters":10000,"station_id":"ce4bh692rcd13ifvqe90","pricing_plan_id":"cebpf4jnsgd1na2vs0mg"},{"bike_id":"af5d0ad4-b8ea-4903-8d2f-c257f6c058fd","system_id":"levelo_inurba_marseille","lat":43.26212,"lon":5.37439,"is_reserved":false,"is_disabled":false,"rental_uris":{"android":"levelo://app?vid=af5d0ad4-b8ea-4903-8d2f-c257f6c058fd","ios":"levelo://app?vid=af5d0ad4-b8ea-4903-8d2f-c257f6c058fd"},"vehicle_type_id":"4","last_reported":1753791828,"current_range_meters":10000,"station_id":"ce4bhgp2rcd13ifvqfc0","pricing_plan_id":"cebpf4jnsgd1na2vs0mg"},{"bike_id":"c3730f35-fdd4-4c6f-a0bd-b6e54a456dc4","system_id":"levelo_inurba_marseille","lat":43.21749,"lon":5.34602,"is_reserved":false,"is_disabled":false,"rental_uris":{"android":"levelo://app?vid=c3730f35-fdd4-4c6f-a0bd-b6e54a456dc4","ios":"levelo://app?vid=c3730f35-fdd4-4c6f-a0bd-b6e54a456dc4"},"vehicle_type_id":"4","last_reported":1753791828,"current_range_meters":10000,"station_id":"st_cvj6r9ubvosntc0bgbag","pricing_plan_id":"cebpf4jnsgd1na2vs0mg"},{"bike_id":"d1dbd224-6e02-4cfa-9082-d9becb346ddd","system_id":"levelo_inurba_marseille","lat":43.27817,"lon":5.39218,"is_reserved":false,"is_disabled":false,"rental_uris":{"android":"levelo://app?vid=d1dbd224-6e02-4cfa-9082-d9becb346ddd","ios":"levelo://app?vid=d1dbd224-6e02-4cfa-9082-d9becb346ddd"},"vehicle_type_id":"4","last_reported":1753791828,"current_range_meters":10000,"station_id":"ce4bhjp2rcd13ifvqga0","pricing_plan_id":"cebpf4jnsgd1na2vs0mg"},{"bike_id":"c5d6c16c-667e-4c61-9e09-b5efae6e86bc","system_id":"levelo_inurba_marseille","lat":43.29897,"lon":5.43658,"is_reserved":false,"is_disabled":false,"rental_uris":{"android":"levelo://app?vid=c5d6c16c-667e-4c61-9e09-b5efae6e86bc","ios":"levelo://app?vid=c5d6c16c-667e-4c61-9e09-b5efae6e86bc"},"vehicle_type_id":"4","last_reported":1753791828,"current_range_meters":10000,"station_id":"ce4bhpp2rcd13ifvqhfg","pricing_plan_id":"cebpf4jnsgd1na2vs0mg"},{"bike_id":"e0ce0053-71c4-4b07-8b9e-379e7ce2bf22","system_id":"levelo_inurba_marseille","lat":43.30299,"lon":5.39814,"is_reserved":false,"is_disabled":false,"rental_uris":{"android":"levelo://app?vid=e0ce0053-71c4-4b07-8b9e-379e7ce2bf22","ios":"levelo://app?vid=e0ce0053-71c4-4b07-8b9e-379e7ce2bf22"},"vehicle_type_id":"4","last_reported":1753791828,"current_range_meters":10000,"station_id":"","pricing_plan_id":"cebpf4jnsgd1na2vs0mg"},{"bike_id":"962879c5-ede6-4ad1-8ad6-e3e238b6e210","system_id":"levelo_inurba_marseille","lat":43.28276,"lon":5.35082,"is_reserved":false,"is_disabled":false,"rental_uris":{"android":"levelo://app?vid=962879c5-ede6-4ad1-8ad6-e3e238b6e210","ios":"levelo://app?vid=962879c5-ede6-4ad1-8ad6-e3e238b6e210"},"vehicle_type_id":"4","last_reported":1753791828,"current_range_meters":10800,"station_id":"ce4bhbp2rcd13ifvqerg","pricing_plan_id":"cebpf4jnsgd1na2vs0mg"},{"bike_id":"882bdff1-651a-41c1-9ab0-596f43205cf1","system_id":"levelo_inurba_marseille","lat":43.337444,"lon":5.374475,"is_reserved":false,"is_disabled":false,"rental_uris":{"android":"levelo://app?vid=882bdff1-651a-41c1-9ab0-596f43205cf1","ios":"levelo://app?vid=882bdff1-651a-41c1-9ab0-596f43205cf1"},"vehicle_type_id":"4","last_reported":1753791828,"current_range_meters":10800,"station_id":"ce4bgkp2rcd13ifvqbmg","pricing_plan_id":"cebpf4jnsgd1na2vs0mg"},{"bike_id":"c13ce413-660f-4ff8-9547-d17d0704485e","system_id":"levelo_inurba_marseille","lat":43.211986,"lon":5.350803,"is_reserved":false,"is_disabled":false,"rental_uris":{"android":"levelo://app?vid=c13ce413-660f-4ff8-9547-d17d0704485e","ios":"levelo://app?vid=c13ce413-660f-4ff8-9547-d17d0704485e"},"vehicle_type_id":"4","last_reported":1753791828,"current_range_meters":10800,"station_id":"","pricing_plan_id":"cebpf4jnsgd1na2vs0mg"},{"bike_id":"be212796-3e05-4c13-a7e0-68d94733671a","system_id":"levelo_inurba_marseille","lat":43.29788,"lon":5.39338,"is_reserved":false,"is_disabled":false,"rental_uris":{"android":"levelo://app?vid=be212796-3e05-4c13-a7e0-68d94733671a","ios":"levelo://app?vid=be212796-3e05-4c13-a7e0-68d94733671a"},"vehicle_type_id":"4","last_reported":1753791828,"current_range_meters":10800,"station_id":"chh1huq6cuj3fo74tm60","pricing_plan_id":"cebpf4jnsgd1na2vs0mg"},{"bike_id":"c127afcb-07ac-42e9-b3b6-f9eb00fc071e","system_id":"levelo_inurba_marseille","lat":43.24659,"lon":5.38154,"is_reserved":false,"is_disabled":false,"rental_uris":{"android":"levelo://app?vid=c127afcb-07ac-42e9-b3b6-f9eb00fc071e","ios":"levelo://app?vid=c127afcb-07ac-42e9-b3b6-f9eb00fc071e"},"vehicle_type_id":"4","last_reported":1753791828,"current_range_meters":10800,"station_id":"ce4bhih2rcd13ifvqfr0","pricing_plan_id":"cebpf4jnsgd1na2vs0mg"},{"bike_id":"ca925fc2-2f2d-4856-ab96-1d6d55f0e4dc","system_id":"levelo_inurba_marseille","lat":43.284187,"lon":5.349876,"is_reserved":false,"is_disabled":false,"rental_uris":{"android":"levelo://app?vid=ca925fc2-2f2d-4856-ab96-1d6d55f0e4dc","ios":"levelo://app?vid=ca925fc2-2f2d-4856-ab96-1d6d55f0e4dc"},"vehicle_type_id":"4","last_reported":1753791828,"current_range_meters":10800,"station_id":"ce4bhbh2rcd13ifvqepg","pricing_plan_id":"cebpf4jnsgd1na2vs0mg"},{"bike_id":"f1115025-b766-49f3-b81d-6f0ef60e3558","system_id":"levelo_inurba_marseille","lat":43.26932,"lon":5.38921,"is_reserved":false,"is_disabled":false,"rental_uris":{"android":"levelo://app?vid=f1115025-b766-49f3-b81d-6f0ef60e3558","ios":"levelo://app?vid=f1115025-b766-49f3-b81d-6f0ef60e3558"},"vehicle_type_id":"4","last_reported":1753791828,"current_range_meters":10800,"station_id":"ce4bhhh2rcd13ifvqfl0","pricing_plan_id":"cebpf4jnsgd1na2vs0mg"},{"bike_id":"2a3a9f20-00d1-4c95-a093-ba8e28724bc0","system_id":"levelo_inurba_marseille","lat":43.30648,"lon":5.37572,"is_reserved":false,"is_disabled":false,"rental_uris":{"android":"levelo://app?vid=2a3a9f20-00d1-4c95-a093-ba8e28724bc0","ios":"levelo://app?vid=2a3a9f20-00d1-4c95-a093-ba8e28724bc0"},"vehicle_type_id":"4","last_reported":1753791828,"current_range_meters":10800,"station_id":"","pricing_plan_id":"cebpf4jnsgd1na2vs0mg"},{"bike_id":"94530bf9-23e8-4aff-985d-6e54875670df","system_id":"levelo_inurba_marseille","lat":43.30286,"lon":5.37696,"is_reserved":false,"is_disabled":false,"rental_uris":{"android":"levelo://app?vid=94530bf9-23e8-4aff-985d-6e54875670df","ios":"levelo://app?vid=94530bf9-23e8-4aff-985d-6e54875670df"},"vehicle_type_id":"4","last_reported":1753791828,"current_range_meters":11200,"station_id":"ce4bguh2rcd13ifvqcj0","pricing_plan_id":"cebpf4jnsgd1na2vs0mg"},{"bike_id":"853e7e47-422b-46ea-a183-4bbbde26a585","system_id":"levelo_inurba_marseille","lat":43.2997,"lon":5.37179,"is_reserved":false,"is_disabled":false,"rental_uris":{"android":"levelo://app?vid=853e7e47-422b-46ea-a183-4bbbde26a585","ios":"levelo://app?vid=853e7e47-422b-46ea-a183-4bbbde26a585"},"vehicle_type_id":"4","last_reported":1753791828,"current_range_meters":11600,"station_id":"ce4bgr92rcd13ifvqc7g","pricing_plan_id":"cebpf4jnsgd1na2vs0mg"},{"bike_id":"6cb5102f-b02e-4103-99d7-e259a00fdcc8","system_id":"levelo_inurba_marseille","lat":43.29973,"lon":5.3718,"is_reserved":false,"is_disabled":false,"rental_uris":{"android":"levelo://app?vid=6cb5102f-b02e-4103-99d7-e259a00fdcc8","ios":"levelo://app?vid=6cb5102f-b02e-4103-99d7-e259a00fdcc8"},"vehicle_type_id":"4","last_reported":1753791828,"current_range_meters":9600,"station_id":"ce4bgr92rcd13ifvqc7g","pricing_plan_id":"cebpf4jnsgd1na2vs0mg"},{"bike_id":"847e7356-4e79-42d8-94bc-124e83e76df6","system_id":"levelo_inurba_marseille","lat":43.29911,"lon":5.37455,"is_reserved":false,"is_disabled":false,"rental_uris":{"android":"levelo://app?vid=847e7356-4e79-42d8-94bc-124e83e76df6","ios":"levelo://app?vid=847e7356-4e79-42d8-94bc-124e83e76df6"},"vehicle_type_id":"4","last_reported":1753791828,"current_range_meters":11200,"station_id":"ce4bgjh2rcd13ifvqbg0","pricing_plan_id":"cebpf4jnsgd1na2vs0mg"},{"bike_id":"694d489e-5515-4efb-b214-96aceec5eadb","system_id":"levelo_inurba_marseille","lat":43.31322,"lon":5.36791,"is_reserved":false,"is_disabled":false,"rental_uris":{"android":"levelo://app?vid=694d489e-5515-4efb-b214-96aceec5eadb","ios":"levelo://app?vid=694d489e-5515-4efb-b214-96aceec5eadb"},"vehicle_type_id":"4","last_reported":1753791828,"current_range_meters":11200,"station_id":"ce4bgr92rcd13ifvqc6g","pricing_plan_id":"cebpf4jnsgd1na2vs0mg"},{"bike_id":"20a40cc7-6b1e-49b3-8066-0bb241f80c44","system_id":"levelo_inurba_marseille","lat":43.310827,"lon":5.385327,"is_reserved":false,"is_disabled":false,"rental_uris":{"android":"levelo://app?vid=20a40cc7-6b1e-49b3-8066-0bb241f80c44","ios":"levelo://app?vid=20a40cc7-6b1e-49b3-8066-0bb241f80c44"},"vehicle_type_id":"4","last_reported":1753791828,"current_range_meters":11200,"station_id":"","pricing_plan_id":"cebpf4jnsgd1na2vs0mg"},{"bike_id":"6389bd7e-5188-4a03-b7bc-8772439d1d73","system_id":"levelo_inurba_marseille","lat":43.26931,"lon":5.38914,"is_reserved":false,"is_disabled":false,"rental_uris":{"android":"levelo://app?vid=6389bd7e-5188-4a03-b7bc-8772439d1d73","ios":"levelo://app?vid=6389bd7e-5188-4a03-b7bc-8772439d1d73"},"vehicle_type_id":"4","last_reported":1753791828,"current_range_meters":11600,"station_id":"ce4bhhh2rcd13ifvqfl0","pricing_plan_id":"cebpf4jnsgd1na2vs0mg"},{"bike_id":"1d599ca9-96fe-4939-8af9-7954ed58ad38","system_id":"levelo_inurba_marseille","lat":43.235461,"lon":5.360222,"is_reserved":false,"is_disabled":false,"rental_uris":{"android":"levelo://app?vid=1d599ca9-96fe-4939-8af9-7954ed58ad38","ios":"levelo://app?vid=1d599ca9-96fe-4939-8af9-7954ed58ad38"},"vehicle_type_id":"4","last_reported":1753791828,"current_range_meters":11600,"station_id":"","pricing_plan_id":"cebpf4jnsgd1na2vs0mg"},{"bike_id":"177924ce-99cf-47a9-973a-f08a6a4a2af2","system_id":"levelo_inurba_marseille","lat":43.26571,"lon":5.39007,"is_reserved":false,"is_disabled":false,"rental_uris":{"android":"levelo://app?vid=177924ce-99cf-47a9-973a-f08a6a4a2af2","ios":"levelo://app?vid=177924ce-99cf-47a9-973a-f08a6a4a2af2"},"vehicle_type_id":"4","last_reported":1753791828,"current_range_meters":11600,"station_id":"ce4bhe12rcd13ifvqf30","pricing_plan_id":"cebpf4jnsgd1na2vs0mg"},{"bike_id":"b94344d2-67ca-4360-9ff5-776ed0721023","system_id":"levelo_inurba_marseille","lat":43.23055,"lon":5.35489,"is_reserved":false,"is_disabled":false,"rental_uris":{"android":"levelo://app?vid=b94344d2-67ca-4360-9ff5-776ed0721023","ios":"levelo://app?vid=b94344d2-67ca-4360-9ff5-776ed0721023"},"vehicle_type_id":"4","last_reported":1753791828,"current_range_meters":11600,"station_id":"cpo3342slgdg3j2ifvpg","pricing_plan_id":"cebpf4jnsgd1na2vs0mg"},{"bike_id":"d4b0442d-37e3-4887-8827-87b59f4e9086","system_id":"levelo_inurba_marseille","lat":43.2977,"lon":5.38108,"is_reserved":false,"is_disabled":false,"rental_uris":{"android":"levelo://app?vid=d4b0442d-37e3-4887-8827-87b59f4e9086","ios":"levelo://app?vid=d4b0442d-37e3-4887-8827-87b59f4e9086"},"vehicle_type_id":"4","last_reported":1753791828,"current_range_meters":11600,"station_id":"","pricing_plan_id":"cebpf4jnsgd1na2vs0mg"},{"bike_id":"8883b928-02f2-49a3-b0f3-1767aad3bd67","system_id":"levelo_inurba_marseille","lat":43.217511,"lon":5.346008,"is_reserved":false,"is_disabled":false,"rental_uris":{"android":"levelo://app?vid=8883b928-02f2-49a3-b0f3-1767aad3bd67","ios":"levelo://app?vid=8883b928-02f2-49a3-b0f3-1767aad3bd67"},"vehicle_type_id":"4","last_reported":1753791828,"current_range_meters":11600,"station_id":"","pricing_plan_id":"cebpf4jnsgd1na2vs0mg"},{"bike_id":"b11f1456-4a1a-4e51-9dd4-b48933a25f68","system_id":"levelo_inurba_marseille","lat":43.25076,"lon":5.39519,"is_reserved":false,"is_disabled":false,"rental_uris":{"android":"levelo://app?vid=b11f1456-4a1a-4e51-9dd4-b48933a25f68","ios":"levelo://app?vid=b11f1456-4a1a-4e51-9dd4-b48933a25f68"},"vehicle_type_id":"4","last_reported":1753791828,"current_range_meters":11600,"station_id":"ce4bhm12rcd13ifvqgkg","pricing_plan_id":"cebpf4jnsgd1na2vs0mg"},{"bike_id":"0e5a74b8-004e-4231-af53-f8215053ed7c","system_id":"levelo_inurba_marseille","lat":43.28406,"lon":5.37505,"is_reserved":false,"is_disabled":true,"rental_uris":{"android":"levelo://app?vid=0e5a74b8-004e-4231-af53-f8215053ed7c","ios":"levelo://app?vid=0e5a74b8-004e-4231-af53-f8215053ed7c"},"vehicle_type_id":"4","last_reported":1753791828,"current_range_meters":12000,"station_id":"","pricing_plan_id":"cebpf4jnsgd1na2vs0mg"},{"bike_id":"4b03818f-38c0-4721-8299-a39ad77b6df1","system_id":"levelo_inurba_marseille","lat":43.32484,"lon":5.36573,"is_reserved":false,"is_disabled":false,"rental_uris":{"android":"levelo://app?vid=4b03818f-38c0-4721-8299-a39ad77b6df1","ios":"levelo://app?vid=4b03818f-38c0-4721-8299-a39ad77b6df1"},"vehicle_type_id":"4","last_reported":1753791828,"current_range_meters":12000,"station_id":"ce4bhs12rcd13ifvqhvg","pricing_plan_id":"cebpf4jnsgd1na2vs0mg"},{"bike_id":"fd7c228a-74ed-4201-aa41-704c1a3fdd8c","system_id":"levelo_inurba_marseille","lat":43.24666,"lon":5.38154,"is_reserved":false,"is_disabled":false,"rental_uris":{"android":"levelo://app?vid=fd7c228a-74ed-4201-aa41-704c1a3fdd8c","ios":"levelo://app?vid=fd7c228a-74ed-4201-aa41-704c1a3fdd8c"},"vehicle_type_id":"4","last_reported":1753791828,"current_range_meters":12400,"station_id":"ce4bhih2rcd13ifvqfr0","pricing_plan_id":"cebpf4jnsgd1na2vs0mg"},{"bike_id":"a3f6fcde-afcd-45f1-92b0-72893fa8786e","system_id":"levelo_inurba_marseille","lat":43.27368,"lon":5.36257,"is_reserved":false,"is_disabled":false,"rental_uris":{"android":"levelo://app?vid=a3f6fcde-afcd-45f1-92b0-72893fa8786e","ios":"levelo://app?vid=a3f6fcde-afcd-45f1-92b0-72893fa8786e"},"vehicle_type_id":"4","last_reported":1753791828,"current_range_meters":12400,"station_id":"ce4bhbh2rcd13ifvqeo0","pricing_plan_id":"cebpf4jnsgd1na2vs0mg"},{"bike_id":"3b8fff58-2b8e-4e79-96f2-08e4d31023fa","system_id":"levelo_inurba_marseille","lat":43.30896,"lon":5.36843,"is_reserved":false,"is_disabled":false,"rental_uris":{"android":"levelo://app?vid=3b8fff58-2b8e-4e79-96f2-08e4d31023fa","ios":"levelo://app?vid=3b8fff58-2b8e-4e79-96f2-08e4d31023fa"},"vehicle_type_id":"4","last_reported":1753791828,"current_range_meters":12800,"station_id":"","pricing_plan_id":"cebpf4jnsgd1na2vs0mg"},{"bike_id":"62f5da51-1009-4002-b725-5765ccaaf3ec","system_id":"levelo_inurba_marseille","lat":43.29431,"lon":5.43248,"is_reserved":false,"is_disabled":false,"rental_uris":{"android":"levelo://app?vid=62f5da51-1009-4002-b725-5765ccaaf3ec","ios":"levelo://app?vid=62f5da51-1009-4002-b725-5765ccaaf3ec"},"vehicle_type_id":"4","last_reported":1753791828,"current_range_meters":12800,"station_id":"","pricing_plan_id":"cebpf4jnsgd1na2vs0mg"},{"bike_id":"b63d0bc4-52ab-4459-b62f-c2b475ecb03c","system_id":"levelo_inurba_marseille","lat":43.2842,"lon":5.3498,"is_reserved":false,"is_disabled":false,"rental_uris":{"android":"levelo://app?vid=b63d0bc4-52ab-4459-b62f-c2b475ecb03c","ios":"levelo://app?vid=b63d0bc4-52ab-4459-b62f-c2b475ecb03c"},"vehicle_type_id":"4","last_reported":1753791828,"current_range_meters":12800,"station_id":"ce4bhbh2rcd13ifvqepg","pricing_plan_id":"cebpf4jnsgd1na2vs0mg"},{"bike_id":"7cf62c04-91f9-4e0a-bdd9-c677d355fb11","system_id":"levelo_inurba_marseille","lat":43.292473,"lon":5.382669,"is_reserved":false,"is_disabled":false,"rental_uris":{"android":"levelo://app?vid=7cf62c04-91f9-4e0a-bdd9-c677d355fb11","ios":"levelo://app?vid=7cf62c04-91f9-4e0a-bdd9-c677d355fb11"},"vehicle_type_id":"4","last_reported":1753791828,"current_range_meters":12800,"station_id":"","pricing_plan_id":"cebpf4jnsgd1na2vs0mg"},{"bike_id":"e101e50b-21bd-45a0-b214-c938397e4d5c","system_id":"levelo_inurba_marseille","lat":43.26924,"lon":5.3892,"is_reserved":false,"is_disabled":false,"rental_uris":{"android":"levelo://app?vid=e101e50b-21bd-45a0-b214-c938397e4d5c","ios":"levelo://app?vid=e101e50b-21bd-45a0-b214-c938397e4d5c"},"vehicle_type_id":"4","last_reported":1753791828,"current_range_meters":13600,"station_id":"ce4bhhh2rcd13ifvqfl0","pricing_plan_id":"cebpf4jnsgd1na2vs0mg"},{"bike_id":"edeebce6-e3cf-4eac-ac64-0399354a083c","system_id":"levelo_inurba_marseille","lat":43.308982,"lon":5.371928,"is_reserved":false,"is_disabled":false,"rental_uris":{"android":"levelo://app?vid=edeebce6-e3cf-4eac-ac64-0399354a083c","ios":"levelo://app?vid=edeebce6-e3cf-4eac-ac64-0399354a083c"},"vehicle_type_id":"4","last_reported":1753791828,"current_range_meters":13600,"station_id":"ce4bguh2rcd13ifvqckg","pricing_plan_id":"cebpf4jnsgd1na2vs0mg"},{"bike_id":"3d9f2061-7fb9-4387-9262-8d2451911c2b","system_id":"levelo_inurba_marseille","lat":43.22955,"lon":5.35326,"is_reserved":false,"is_disabled":false,"rental_uris":{"android":"levelo://app?vid=3d9f2061-7fb9-4387-9262-8d2451911c2b","ios":"levelo://app?vid=3d9f2061-7fb9-4387-9262-8d2451911c2b"},"vehicle_type_id":"4","last_reported":1753791828,"current_range_meters":13600,"station_id":"cpo3532slgdg3j2ikp40","pricing_plan_id":"cebpf4jnsgd1na2vs0mg"},{"bike_id":"b0fb19f2-5e80-4955-b64a-ad78765cdc5c","system_id":"levelo_inurba_marseille","lat":43.27911,"lon":5.39582,"is_reserved":false,"is_disabled":false,"rental_uris":{"android":"levelo://app?vid=b0fb19f2-5e80-4955-b64a-ad78765cdc5c","ios":"levelo://app?vid=b0fb19f2-5e80-4955-b64a-ad78765cdc5c"},"vehicle_type_id":"4","last_reported":1753791828,"current_range_meters":14000,"station_id":"ce4bhf92rcd13ifvqf40","pricing_plan_id":"cebpf4jnsgd1na2vs0mg"},{"bike_id":"e137dc03-26cf-440c-b3ea-1ea522645199","system_id":"levelo_inurba_marseille","lat":43.280815,"lon":5.396626,"is_reserved":false,"is_disabled":false,"rental_uris":{"android":"levelo://app?vid=e137dc03-26cf-440c-b3ea-1ea522645199","ios":"levelo://app?vid=e137dc03-26cf-440c-b3ea-1ea522645199"},"vehicle_type_id":"4","last_reported":1753791828,"current_range_meters":14000,"station_id":"","pricing_plan_id":"cebpf4jnsgd1na2vs0mg"},{"bike_id":"5c5a65cd-e05d-45c6-a719-a72f6e62723b","system_id":"levelo_inurba_marseille","lat":43.28145,"lon":5.42655,"is_reserved":false,"is_disabled":false,"rental_uris":{"android":"levelo://app?vid=5c5a65cd-e05d-45c6-a719-a72f6e62723b","ios":"levelo://app?vid=5c5a65cd-e05d-45c6-a719-a72f6e62723b"},"vehicle_type_id":"4","last_reported":1753791828,"current_range_meters":14000,"station_id":"ce4bhnh2rcd13ifvqgug","pricing_plan_id":"cebpf4jnsgd1na2vs0mg"},{"bike_id":"21940e4e-6bc8-4aed-b45d-7245fb1a66c5","system_id":"levelo_inurba_marseille","lat":43.27205,"lon":5.39189,"is_reserved":false,"is_disabled":false,"rental_uris":{"android":"levelo://app?vid=21940e4e-6bc8-4aed-b45d-7245fb1a66c5","ios":"levelo://app?vid=21940e4e-6bc8-4aed-b45d-7245fb1a66c5"},"vehicle_type_id":"4","last_reported":1753791828,"current_range_meters":14000,"station_id":"ce4bhhp2rcd13ifvqfm0","pricing_plan_id":"cebpf4jnsgd1na2vs0mg"},{"bike_id":"6f2e21e5-2437-4d81-b4c7-f124ffe8c6fd","system_id":"levelo_inurba_marseille","lat":43.29045,"lon":5.35918,"is_reserved":false,"is_disabled":false,"rental_uris":{"android":"levelo://app?vid=6f2e21e5-2437-4d81-b4c7-f124ffe8c6fd","ios":"levelo://app?vid=6f2e21e5-2437-4d81-b4c7-f124ffe8c6fd"},"vehicle_type_id":"4","last_reported":1753791828,"current_range_meters":14000,"station_id":"ce4bha92rcd13ifvqeg0","pricing_plan_id":"cebpf4jnsgd1na2vs0mg"},{"bike_id":"0a5484f2-a0b8-4cea-ac01-f6c1175c309d","system_id":"levelo_inurba_marseille","lat":43.2406,"lon":5.37758,"is_reserved":false,"is_disabled":false,"rental_uris":{"android":"levelo://app?vid=0a5484f2-a0b8-4cea-ac01-f6c1175c309d","ios":"levelo://app?vid=0a5484f2-a0b8-4cea-ac01-f6c1175c309d"},"vehicle_type_id":"4","last_reported":1753791828,"current_range_meters":14400,"station_id":"ce4bhnp2rcd13ifvqgvg","pricing_plan_id":"cebpf4jnsgd1na2vs0mg"},{"bike_id":"5dfabdc2-b806-44aa-94b4-47dba92b8204","system_id":"levelo_inurba_marseille","lat":43.22933,"lon":5.35367,"is_reserved":false,"is_disabled":false,"rental_uris":{"android":"levelo://app?vid=5dfabdc2-b806-44aa-94b4-47dba92b8204","ios":"levelo://app?vid=5dfabdc2-b806-44aa-94b4-47dba92b8204"},"vehicle_type_id":"4","last_reported":1753791828,"current_range_meters":14400,"station_id":"cpo3532slgdg3j2ikp40","pricing_plan_id":"cebpf4jnsgd1na2vs0mg"},{"bike_id":"65985a21-6a62-453f-ad58-6fe5c23fd966","system_id":"levelo_inurba_marseille","lat":43.29003,"lon":5.35617,"is_reserved":false,"is_disabled":false,"rental_uris":{"android":"levelo://app?vid=65985a21-6a62-453f-ad58-6fe5c23fd966","ios":"levelo://app?vid=65985a21-6a62-453f-ad58-6fe5c23fd966"},"vehicle_type_id":"4","last_reported":1753791828,"current_range_meters":14400,"station_id":"ce4bhb92rcd13ifvqen0","pricing_plan_id":"cebpf4jnsgd1na2vs0mg"},{"bike_id":"62e54455-0cad-476e-836b-6efe5dee6c34","system_id":"levelo_inurba_marseille","lat":43.225076,"lon":5.347842,"is_reserved":false,"is_disabled":false,"rental_uris":{"android":"levelo://app?vid=62e54455-0cad-476e-836b-6efe5dee6c34","ios":"levelo://app?vid=62e54455-0cad-476e-836b-6efe5dee6c34"},"vehicle_type_id":"4","last_reported":1753791828,"current_range_meters":14400,"station_id":"st_cvj5dfep6f1abm77gieg","pricing_plan_id":"cebpf4jnsgd1na2vs0mg"},{"bike_id":"947cf9dd-0905-42a3-aafb-8e1c05b7ea7a","system_id":"levelo_inurba_marseille","lat":43.30713,"lon":5.38415,"is_reserved":false,"is_disabled":false,"rental_uris":{"android":"levelo://app?vid=947cf9dd-0905-42a3-aafb-8e1c05b7ea7a","ios":"levelo://app?vid=947cf9dd-0905-42a3-aafb-8e1c05b7ea7a"},"vehicle_type_id":"4","last_reported":1753791828,"current_range_meters":14400,"station_id":"","pricing_plan_id":"cebpf4jnsgd1na2vs0mg"},{"bike_id":"4d199580-883e-4a55-b503-2f2d48122bc5","system_id":"levelo_inurba_marseille","lat":43.25931,"lon":5.40904,"is_reserved":false,"is_disabled":false,"rental_uris":{"android":"levelo://app?vid=4d199580-883e-4a55-b503-2f2d48122bc5","ios":"levelo://app?vid=4d199580-883e-4a55-b503-2f2d48122bc5"},"vehicle_type_id":"4","last_reported":1753791828,"current_range_meters":14800,"station_id":"ce4bhm92rcd13ifvqglg","pricing_plan_id":"cebpf4jnsgd1na2vs0mg"},{"bike_id":"4ffc9d79-d56a-482d-b7d9-a5892348f435","system_id":"levelo_inurba_marseille","lat":43.28399,"lon":5.35,"is_reserved":false,"is_disabled":false,"rental_uris":{"android":"levelo://app?vid=4ffc9d79-d56a-482d-b7d9-a5892348f435","ios":"levelo://app?vid=4ffc9d79-d56a-482d-b7d9-a5892348f435"},"vehicle_type_id":"4","last_reported":1753791828,"current_range_meters":14800,"station_id":"ce4bhbh2rcd13ifvqepg","pricing_plan_id":"cebpf4jnsgd1na2vs0mg"},{"bike_id":"6417f94c-7833-42a3-8770-bee520a8551e","system_id":"levelo_inurba_marseille","lat":43.24996,"lon":5.38931,"is_reserved":false,"is_disabled":false,"rental_uris":{"android":"levelo://app?vid=6417f94c-7833-42a3-8770-bee520a8551e","ios":"levelo://app?vid=6417f94c-7833-42a3-8770-bee520a8551e"},"vehicle_type_id":"4","last_reported":1753791828,"current_range_meters":14800,"station_id":"ce4bhgp2rcd13ifvqfd0","pricing_plan_id":"cebpf4jnsgd1na2vs0mg"},{"bike_id":"6060b829-bea4-41d7-a09a-aae3bf11f599","system_id":"levelo_inurba_marseille","lat":43.28267,"lon":5.35067,"is_reserved":false,"is_disabled":false,"rental_uris":{"android":"levelo://app?vid=6060b829-bea4-41d7-a09a-aae3bf11f599","ios":"levelo://app?vid=6060b829-bea4-41d7-a09a-aae3bf11f599"},"vehicle_type_id":"4","last_reported":1753791828,"current_range_meters":14800,"station_id":"ce4bhbp2rcd13ifvqerg","pricing_plan_id":"cebpf4jnsgd1na2vs0mg"},{"bike_id":"e8a52718-378a-42ad-924f-fc4470f369e1","system_id":"levelo_inurba_marseille","lat":43.28269,"lon":5.3507,"is_reserved":false,"is_disabled":false,"rental_uris":{"android":"levelo://app?vid=e8a52718-378a-42ad-924f-fc4470f369e1","ios":"levelo://app?vid=e8a52718-378a-42ad-924f-fc4470f369e1"},"vehicle_type_id":"4","last_reported":1753791828,"current_range_meters":14800,"station_id":"ce4bhbp2rcd13ifvqerg","pricing_plan_id":"cebpf4jnsgd1na2vs0mg"},{"bike_id":"75aa074a-8804-4fec-88d9-260a8abf5ca1","system_id":"levelo_inurba_marseille","lat":43.26549,"lon":5.37289,"is_reserved":false,"is_disabled":false,"rental_uris":{"android":"levelo://app?vid=75aa074a-8804-4fec-88d9-260a8abf5ca1","ios":"levelo://app?vid=75aa074a-8804-4fec-88d9-260a8abf5ca1"},"vehicle_type_id":"4","last_reported":1753791828,"current_range_meters":14800,"station_id":"ce4bhg12rcd13ifvqf70","pricing_plan_id":"cebpf4jnsgd1na2vs0mg"},{"bike_id":"e65acc05-153b-4942-8607-11c4ec4f142a","system_id":"levelo_inurba_marseille","lat":43.30894,"lon":5.36859,"is_reserved":false,"is_disabled":false,"rental_uris":{"android":"levelo://app?vid=e65acc05-153b-4942-8607-11c4ec4f142a","ios":"levelo://app?vid=e65acc05-153b-4942-8607-11c4ec4f142a"},"vehicle_type_id":"4","last_reported":1753791828,"current_range_meters":14800,"station_id":"ce4bgn92rcd13ifvqbvg","pricing_plan_id":"cebpf4jnsgd1na2vs0mg"},{"bike_id":"a2839b36-aba4-4065-8c6e-08a10e893a30","system_id":"levelo_inurba_marseille","lat":43.29261,"lon":5.37631,"is_reserved":false,"is_disabled":false,"rental_uris":{"android":"levelo://app?vid=a2839b36-aba4-4065-8c6e-08a10e893a30","ios":"levelo://app?vid=a2839b36-aba4-4065-8c6e-08a10e893a30"},"vehicle_type_id":"4","last_reported":1753791828,"current_range_meters":14800,"station_id":"ce4bgi12rcd13ifvqb80","pricing_plan_id":"cebpf4jnsgd1na2vs0mg"},{"bike_id":"5d5e0ed8-53a8-4dd4-81bf-ff5624b38868","system_id":"levelo_inurba_marseille","lat":43.24171,"lon":5.39727,"is_reserved":false,"is_disabled":false,"rental_uris":{"android":"levelo://app?vid=5d5e0ed8-53a8-4dd4-81bf-ff5624b38868","ios":"levelo://app?vid=5d5e0ed8-53a8-4dd4-81bf-ff5624b38868"},"vehicle_type_id":"4","last_reported":1753791828,"current_range_meters":14800,"station_id":"ce4bhn12rcd13ifvqgpg","pricing_plan_id":"cebpf4jnsgd1na2vs0mg"},{"bike_id":"040be5fc-2e33-40e1-bfac-8d779eb56372","system_id":"levelo_inurba_marseille","lat":43.31277,"lon":5.40156,"is_reserved":false,"is_disabled":false,"rental_uris":{"android":"levelo://app?vid=040be5fc-2e33-40e1-bfac-8d779eb56372","ios":"levelo://app?vid=040be5fc-2e33-40e1-bfac-8d779eb56372"},"vehicle_type_id":"4","last_reported":1753791828,"current_range_meters":14000,"station_id":"ce4bh092rcd13ifvqd30","pricing_plan_id":"cebpf4jnsgd1na2vs0mg"},{"bike_id":"d8e6094c-0de7-412e-bab8-3969f4a35524","system_id":"levelo_inurba_marseille","lat":43.29847,"lon":5.37574,"is_reserved":false,"is_disabled":false,"rental_uris":{"android":"levelo://app?vid=d8e6094c-0de7-412e-bab8-3969f4a35524","ios":"levelo://app?vid=d8e6094c-0de7-412e-bab8-3969f4a35524"},"vehicle_type_id":"4","last_reported":1753791828,"current_range_meters":15200,"station_id":"","pricing_plan_id":"cebpf4jnsgd1na2vs0mg"},{"bike_id":"a5d21f19-a2f8-4c79-9341-84f97b97beb0","system_id":"levelo_inurba_marseille","lat":43.33396,"lon":5.40066,"is_reserved":false,"is_disabled":false,"rental_uris":{"android":"levelo://app?vid=a5d21f19-a2f8-4c79-9341-84f97b97beb0","ios":"levelo://app?vid=a5d21f19-a2f8-4c79-9341-84f97b97beb0"},"vehicle_type_id":"4","last_reported":1753791828,"current_range_meters":15200,"station_id":"","pricing_plan_id":"cebpf4jnsgd1na2vs0mg"},{"bike_id":"0284b153-ed18-4aff-854a-398618bd67fc","system_id":"levelo_inurba_marseille","lat":43.28419,"lon":5.34988,"is_reserved":false,"is_disabled":false,"rental_uris":{"android":"levelo://app?vid=0284b153-ed18-4aff-854a-398618bd67fc","ios":"levelo://app?vid=0284b153-ed18-4aff-854a-398618bd67fc"},"vehicle_type_id":"4","last_reported":1753791828,"current_range_meters":15200,"station_id":"ce4bhbh2rcd13ifvqepg","pricing_plan_id":"cebpf4jnsgd1na2vs0mg"},{"bike_id":"3d1c2d31-b7d6-4041-828b-3e4bd4f92106","system_id":"levelo_inurba_marseille","lat":43.30781,"lon":5.37652,"is_reserved":false,"is_disabled":true,"rental_uris":{"android":"levelo://app?vid=3d1c2d31-b7d6-4041-828b-3e4bd4f92106","ios":"levelo://app?vid=3d1c2d31-b7d6-4041-828b-3e4bd4f92106"},"vehicle_type_id":"4","last_reported":1753791828,"current_range_meters":15200,"station_id":"ce4bgv92rcd13ifvqcq0","pricing_plan_id":"cebpf4jnsgd1na2vs0mg"},{"bike_id":"35de3041-f147-4c24-adb1-261b2212777d","system_id":"levelo_inurba_marseille","lat":43.24806,"lon":5.37465,"is_reserved":false,"is_disabled":false,"rental_uris":{"android":"levelo://app?vid=35de3041-f147-4c24-adb1-261b2212777d","ios":"levelo://app?vid=35de3041-f147-4c24-adb1-261b2212777d"},"vehicle_type_id":"4","last_reported":1753791828,"current_range_meters":16000,"station_id":"ce4bhgh2rcd13ifvqfb0","pricing_plan_id":"cebpf4jnsgd1na2vs0mg"},{"bike_id":"aaff8af6-91af-4df2-8c68-82cb4864e017","system_id":"levelo_inurba_marseille","lat":43.29516,"lon":5.39023,"is_reserved":false,"is_disabled":false,"rental_uris":{"android":"levelo://app?vid=aaff8af6-91af-4df2-8c68-82cb4864e017","ios":"levelo://app?vid=aaff8af6-91af-4df2-8c68-82cb4864e017"},"vehicle_type_id":"4","last_reported":1753791828,"current_range_meters":14400,"station_id":"ce4bh3p2rcd13ifvqdp0","pricing_plan_id":"cebpf4jnsgd1na2vs0mg"},{"bike_id":"a911c590-3fc3-41d8-a717-3e33faf888d9","system_id":"levelo_inurba_marseille","lat":43.250842,"lon":5.395205,"is_reserved":false,"is_disabled":false,"rental_uris":{"android":"levelo://app?vid=a911c590-3fc3-41d8-a717-3e33faf888d9","ios":"levelo://app?vid=a911c590-3fc3-41d8-a717-3e33faf888d9"},"vehicle_type_id":"4","last_reported":1753791828,"current_range_meters":16000,"station_id":"ce4bhm12rcd13ifvqgkg","pricing_plan_id":"cebpf4jnsgd1na2vs0mg"},{"bike_id":"6f7ccb69-bf92-486d-92b3-1d25f0d6e17f","system_id":"levelo_inurba_marseille","lat":43.26225,"lon":5.37441,"is_reserved":false,"is_disabled":false,"rental_uris":{"android":"levelo://app?vid=6f7ccb69-bf92-486d-92b3-1d25f0d6e17f","ios":"levelo://app?vid=6f7ccb69-bf92-486d-92b3-1d25f0d6e17f"},"vehicle_type_id":"4","last_reported":1753791828,"current_range_meters":16000,"station_id":"ce4bhgp2rcd13ifvqfc0","pricing_plan_id":"cebpf4jnsgd1na2vs0mg"},{"bike_id":"c4783560-bf3d-48ba-b051-8b8d0ef48af7","system_id":"levelo_inurba_marseille","lat":43.32484,"lon":5.36558,"is_reserved":false,"is_disabled":false,"rental_uris":{"android":"levelo://app?vid=c4783560-bf3d-48ba-b051-8b8d0ef48af7","ios":"levelo://app?vid=c4783560-bf3d-48ba-b051-8b8d0ef48af7"},"vehicle_type_id":"4","last_reported":1753791828,"current_range_meters":16000,"station_id":"ce4bhs12rcd13ifvqhvg","pricing_plan_id":"cebpf4jnsgd1na2vs0mg"},{"bike_id":"c9c657b6-c652-4e87-8413-1edd95c3b0a6","system_id":"levelo_inurba_marseille","lat":43.29261,"lon":5.38432,"is_reserved":false,"is_disabled":false,"rental_uris":{"android":"levelo://app?vid=c9c657b6-c652-4e87-8413-1edd95c3b0a6","ios":"levelo://app?vid=c9c657b6-c652-4e87-8413-1edd95c3b0a6"},"vehicle_type_id":"4","last_reported":1753791828,"current_range_meters":16000,"station_id":"ce4bh692rcd13ifvqea0","pricing_plan_id":"cebpf4jnsgd1na2vs0mg"},{"bike_id":"6f70fa56-f0bf-42dc-b242-04817dc6fa72","system_id":"levelo_inurba_marseille","lat":43.278106,"lon":5.407125,"is_reserved":false,"is_disabled":false,"rental_uris":{"android":"levelo://app?vid=6f70fa56-f0bf-42dc-b242-04817dc6fa72","ios":"levelo://app?vid=6f70fa56-f0bf-42dc-b242-04817dc6fa72"},"vehicle_type_id":"4","last_reported":1753791828,"current_range_meters":16000,"station_id":"ce4bhnh2rcd13ifvqgtg","pricing_plan_id":"cebpf4jnsgd1na2vs0mg"},{"bike_id":"b7234136-bf62-4ef1-9964-a9c43529d354","system_id":"levelo_inurba_marseille","lat":43.3181,"lon":5.39451,"is_reserved":false,"is_disabled":false,"rental_uris":{"android":"levelo://app?vid=b7234136-bf62-4ef1-9964-a9c43529d354","ios":"levelo://app?vid=b7234136-bf62-4ef1-9964-a9c43529d354"},"vehicle_type_id":"4","last_reported":1753791828,"current_range_meters":16000,"station_id":"","pricing_plan_id":"cebpf4jnsgd1na2vs0mg"},{"bike_id":"b3ff5414-4917-4c3d-b55a-8ee3a9d5eb27","system_id":"levelo_inurba_marseille","lat":43.30526,"lon":5.36714,"is_reserved":false,"is_disabled":false,"rental_uris":{"android":"levelo://app?vid=b3ff5414-4917-4c3d-b55a-8ee3a9d5eb27","ios":"levelo://app?vid=b3ff5414-4917-4c3d-b55a-8ee3a9d5eb27"},"vehicle_type_id":"4","last_reported":1753791828,"current_range_meters":16000,"station_id":"ce4bgrp2rcd13ifvqc9g","pricing_plan_id":"cebpf4jnsgd1na2vs0mg"},{"bike_id":"47aa1595-7f9b-454c-b236-7e42e13fe541","system_id":"levelo_inurba_marseille","lat":43.29244,"lon":5.36466,"is_reserved":false,"is_disabled":false,"rental_uris":{"android":"levelo://app?vid=47aa1595-7f9b-454c-b236-7e42e13fe541","ios":"levelo://app?vid=47aa1595-7f9b-454c-b236-7e42e13fe541"},"vehicle_type_id":"4","last_reported":1753791828,"current_range_meters":16000,"station_id":"","pricing_plan_id":"cebpf4jnsgd1na2vs0mg"},{"bike_id":"d52bd79a-479d-43b4-ad86-786143dffe7c","system_id":"levelo_inurba_marseille","lat":43.31085,"lon":5.424465,"is_reserved":false,"is_disabled":false,"rental_uris":{"android":"levelo://app?vid=d52bd79a-479d-43b4-ad86-786143dffe7c","ios":"levelo://app?vid=d52bd79a-479d-43b4-ad86-786143dffe7c"},"vehicle_type_id":"4","last_reported":1753791828,"current_range_meters":16000,"station_id":"ce4bhp92rcd13ifvqhag","pricing_plan_id":"cebpf4jnsgd1na2vs0mg"},{"bike_id":"50b74655-6640-4d2a-83d7-4e3abf44c0a1","system_id":"levelo_inurba_marseille","lat":43.24992,"lon":5.38933,"is_reserved":false,"is_disabled":false,"rental_uris":{"android":"levelo://app?vid=50b74655-6640-4d2a-83d7-4e3abf44c0a1","ios":"levelo://app?vid=50b74655-6640-4d2a-83d7-4e3abf44c0a1"},"vehicle_type_id":"4","last_reported":1753791828,"current_range_meters":16000,"station_id":"ce4bhgp2rcd13ifvqfd0","pricing_plan_id":"cebpf4jnsgd1na2vs0mg"},{"bike_id":"e8a0c05d-7272-4138-a1f4-e9de17058e9b","system_id":"levelo_inurba_marseille","lat":43.28293,"lon":5.35058,"is_reserved":false,"is_disabled":false,"rental_uris":{"android":"levelo://app?vid=e8a0c05d-7272-4138-a1f4-e9de17058e9b","ios":"levelo://app?vid=e8a0c05d-7272-4138-a1f4-e9de17058e9b"},"vehicle_type_id":"4","last_reported":1753791828,"current_range_meters":16400,"station_id":"ce4bhbp2rcd13ifvqerg","pricing_plan_id":"cebpf4jnsgd1na2vs0mg"},{"bike_id":"6688b234-e2ab-4042-9518-5f2fcd353a74","system_id":"levelo_inurba_marseille","lat":43.3053,"lon":5.36695,"is_reserved":false,"is_disabled":false,"rental_uris":{"android":"levelo://app?vid=6688b234-e2ab-4042-9518-5f2fcd353a74","ios":"levelo://app?vid=6688b234-e2ab-4042-9518-5f2fcd353a74"},"vehicle_type_id":"4","last_reported":1753791828,"current_range_meters":16000,"station_id":"ce4bgrp2rcd13ifvqc9g","pricing_plan_id":"cebpf4jnsgd1na2vs0mg"},{"bike_id":"6ad44a24-4533-4da0-9fd0-e52d1925d207","system_id":"levelo_inurba_marseille","lat":43.22929,"lon":5.35381,"is_reserved":false,"is_disabled":false,"rental_uris":{"android":"levelo://app?vid=6ad44a24-4533-4da0-9fd0-e52d1925d207","ios":"levelo://app?vid=6ad44a24-4533-4da0-9fd0-e52d1925d207"},"vehicle_type_id":"4","last_reported":1753791828,"current_range_meters":16400,"station_id":"cpo3532slgdg3j2ikp40","pricing_plan_id":"cebpf4jnsgd1na2vs0mg"},{"bike_id":"b1aa2840-59b3-4d83-b7e4-e18082fe14ba","system_id":"levelo_inurba_marseille","lat":43.266254,"lon":5.394584,"is_reserved":false,"is_disabled":false,"rental_uris":{"android":"levelo://app?vid=b1aa2840-59b3-4d83-b7e4-e18082fe14ba","ios":"levelo://app?vid=b1aa2840-59b3-4d83-b7e4-e18082fe14ba"},"vehicle_type_id":"4","last_reported":1753791828,"current_range_meters":16400,"station_id":"ce4bhi12rcd13ifvqfq0","pricing_plan_id":"cebpf4jnsgd1na2vs0mg"},{"bike_id":"ab9c577b-9cc3-4d9b-9e71-2ee231744295","system_id":"levelo_inurba_marseille","lat":43.28112,"lon":5.38343,"is_reserved":false,"is_disabled":false,"rental_uris":{"android":"levelo://app?vid=ab9c577b-9cc3-4d9b-9e71-2ee231744295","ios":"levelo://app?vid=ab9c577b-9cc3-4d9b-9e71-2ee231744295"},"vehicle_type_id":"4","last_reported":1753791828,"current_range_meters":16400,"station_id":"","pricing_plan_id":"cebpf4jnsgd1na2vs0mg"},{"bike_id":"4808e70d-a53d-409f-abe1-f8e8adeae228","system_id":"levelo_inurba_marseille","lat":43.2963,"lon":5.37139,"is_reserved":false,"is_disabled":false,"rental_uris":{"android":"levelo://app?vid=4808e70d-a53d-409f-abe1-f8e8adeae228","ios":"levelo://app?vid=4808e70d-a53d-409f-abe1-f8e8adeae228"},"vehicle_type_id":"4","last_reported":1753791828,"current_range_meters":16400,"station_id":"ce4bgnh2rcd13ifvqc0g","pricing_plan_id":"cebpf4jnsgd1na2vs0mg"},{"bike_id":"07eaa5c6-166d-4bb2-aacf-4829c97689fc","system_id":"levelo_inurba_marseille","lat":43.27906,"lon":5.3959,"is_reserved":false,"is_disabled":false,"rental_uris":{"android":"levelo://app?vid=07eaa5c6-166d-4bb2-aacf-4829c97689fc","ios":"levelo://app?vid=07eaa5c6-166d-4bb2-aacf-4829c97689fc"},"vehicle_type_id":"4","last_reported":1753791828,"current_range_meters":16400,"station_id":"ce4bhf92rcd13ifvqf40","pricing_plan_id":"cebpf4jnsgd1na2vs0mg"},{"bike_id":"551f94cf-4b7b-42e6-b52f-3b44b47e6fc5","system_id":"levelo_inurba_marseille","lat":43.2742,"lon":5.39412,"is_reserved":false,"is_disabled":false,"rental_uris":{"android":"levelo://app?vid=551f94cf-4b7b-42e6-b52f-3b44b47e6fc5","ios":"levelo://app?vid=551f94cf-4b7b-42e6-b52f-3b44b47e6fc5"},"vehicle_type_id":"4","last_reported":1753791828,"current_range_meters":16400,"station_id":"ce4bhdp2rcd13ifvqf20","pricing_plan_id":"cebpf4jnsgd1na2vs0mg"},{"bike_id":"6f065043-ed0b-4200-9939-0bbf54781fa6","system_id":"levelo_inurba_marseille","lat":43.28267,"lon":5.3506,"is_reserved":false,"is_disabled":false,"rental_uris":{"android":"levelo://app?vid=6f065043-ed0b-4200-9939-0bbf54781fa6","ios":"levelo://app?vid=6f065043-ed0b-4200-9939-0bbf54781fa6"},"vehicle_type_id":"4","last_reported":1753791828,"current_range_meters":15200,"station_id":"ce4bhbp2rcd13ifvqerg","pricing_plan_id":"cebpf4jnsgd1na2vs0mg"},{"bike_id":"ef65f066-de96-432a-a3bf-b1b3ad0e62a1","system_id":"levelo_inurba_marseille","lat":43.32093,"lon":5.36774,"is_reserved":false,"is_disabled":false,"rental_uris":{"android":"levelo://app?vid=ef65f066-de96-432a-a3bf-b1b3ad0e62a1","ios":"levelo://app?vid=ef65f066-de96-432a-a3bf-b1b3ad0e62a1"},"vehicle_type_id":"4","last_reported":1753791828,"current_range_meters":16400,"station_id":"ce4bhrh2rcd13ifvqhug","pricing_plan_id":"cebpf4jnsgd1na2vs0mg"},{"bike_id":"9ec8faa6-a535-4fad-aa79-6cc1d20d11a0","system_id":"levelo_inurba_marseille","lat":43.3373,"lon":5.39194,"is_reserved":false,"is_disabled":false,"rental_uris":{"android":"levelo://app?vid=9ec8faa6-a535-4fad-aa79-6cc1d20d11a0","ios":"levelo://app?vid=9ec8faa6-a535-4fad-aa79-6cc1d20d11a0"},"vehicle_type_id":"4","last_reported":1753791828,"current_range_meters":16800,"station_id":"ce4bhr92rcd13ifvqhsg","pricing_plan_id":"cebpf4jnsgd1na2vs0mg"},{"bike_id":"aa4716fe-6d34-41b4-8141-31acbdff3118","system_id":"levelo_inurba_marseille","lat":43.28254,"lon":5.35076,"is_reserved":false,"is_disabled":false,"rental_uris":{"android":"levelo://app?vid=aa4716fe-6d34-41b4-8141-31acbdff3118","ios":"levelo://app?vid=aa4716fe-6d34-41b4-8141-31acbdff3118"},"vehicle_type_id":"4","last_reported":1753791828,"current_range_meters":16800,"station_id":"ce4bhbp2rcd13ifvqerg","pricing_plan_id":"cebpf4jnsgd1na2vs0mg"},{"bike_id":"b9d1584e-b290-4358-969e-2ed4ca58eaad","system_id":"levelo_inurba_marseille","lat":43.23958,"lon":5.36624,"is_reserved":false,"is_disabled":false,"rental_uris":{"android":"levelo://app?vid=b9d1584e-b290-4358-969e-2ed4ca58eaad","ios":"levelo://app?vid=b9d1584e-b290-4358-969e-2ed4ca58eaad"},"vehicle_type_id":"4","last_reported":1753791828,"current_range_meters":16800,"station_id":"ce4bhi12rcd13ifvqfp0","pricing_plan_id":"cebpf4jnsgd1na2vs0mg"},{"bike_id":"96f2817b-2168-4f43-87e5-f90384c5b505","system_id":"levelo_inurba_marseille","lat":43.231885,"lon":5.355607,"is_reserved":false,"is_disabled":false,"rental_uris":{"android":"levelo://app?vid=96f2817b-2168-4f43-87e5-f90384c5b505","ios":"levelo://app?vid=96f2817b-2168-4f43-87e5-f90384c5b505"},"vehicle_type_id":"4","last_reported":1753791828,"current_range_meters":16800,"station_id":"ce4bhu92rcd13ifvqi70","pricing_plan_id":"cebpf4jnsgd1na2vs0mg"},{"bike_id":"cd0e60e3-d89c-40b5-8663-139ea5784c7b","system_id":"levelo_inurba_marseille","lat":43.27613,"lon":5.36104,"is_reserved":false,"is_disabled":false,"rental_uris":{"android":"levelo://app?vid=cd0e60e3-d89c-40b5-8663-139ea5784c7b","ios":"levelo://app?vid=cd0e60e3-d89c-40b5-8663-139ea5784c7b"},"vehicle_type_id":"4","last_reported":1753791828,"current_range_meters":16800,"station_id":"ce4bgj92rcd13ifvqbe0","pricing_plan_id":"cebpf4jnsgd1na2vs0mg"},{"bike_id":"3c65e3a4-d98b-4db2-8d36-951b9612ba65","system_id":"levelo_inurba_marseille","lat":43.23182,"lon":5.35565,"is_reserved":false,"is_disabled":false,"rental_uris":{"android":"levelo://app?vid=3c65e3a4-d98b-4db2-8d36-951b9612ba65","ios":"levelo://app?vid=3c65e3a4-d98b-4db2-8d36-951b9612ba65"},"vehicle_type_id":"4","last_reported":1753791828,"current_range_meters":16800,"station_id":"ce4bhu92rcd13ifvqi70","pricing_plan_id":"cebpf4jnsgd1na2vs0mg"},{"bike_id":"daabd21d-fe72-4bef-9caa-c5886e1b6fe4","system_id":"levelo_inurba_marseille","lat":43.32193,"lon":5.38759,"is_reserved":false,"is_disabled":false,"rental_uris":{"android":"levelo://app?vid=daabd21d-fe72-4bef-9caa-c5886e1b6fe4","ios":"levelo://app?vid=daabd21d-fe72-4bef-9caa-c5886e1b6fe4"},"vehicle_type_id":"4","last_reported":1753791828,"current_range_meters":16800,"station_id":"","pricing_plan_id":"cebpf4jnsgd1na2vs0mg"},{"bike_id":"3e632e67-e785-475b-93e1-b0a668624c02","system_id":"levelo_inurba_marseille","lat":43.2814,"lon":5.42629,"is_reserved":false,"is_disabled":false,"rental_uris":{"android":"levelo://app?vid=3e632e67-e785-475b-93e1-b0a668624c02","ios":"levelo://app?vid=3e632e67-e785-475b-93e1-b0a668624c02"},"vehicle_type_id":"4","last_reported":1753791828,"current_range_meters":16800,"station_id":"ce4bhnh2rcd13ifvqgug","pricing_plan_id":"cebpf4jnsgd1na2vs0mg"},{"bike_id":"583fe4cd-2e74-4e07-9efb-40c9db83ffb6","system_id":"levelo_inurba_marseille","lat":43.23053,"lon":5.35495,"is_reserved":false,"is_disabled":true,"rental_uris":{"android":"levelo://app?vid=583fe4cd-2e74-4e07-9efb-40c9db83ffb6","ios":"levelo://app?vid=583fe4cd-2e74-4e07-9efb-40c9db83ffb6"},"vehicle_type_id":"4","last_reported":1753791828,"current_range_meters":16800,"station_id":"cpo3342slgdg3j2ifvpg","pricing_plan_id":"cebpf4jnsgd1na2vs0mg"},{"bike_id":"40d7c689-16fc-4e4b-8a08-dec3a25ee09d","system_id":"levelo_inurba_marseille","lat":43.28852,"lon":5.35857,"is_reserved":false,"is_disabled":false,"rental_uris":{"android":"levelo://app?vid=40d7c689-16fc-4e4b-8a08-dec3a25ee09d","ios":"levelo://app?vid=40d7c689-16fc-4e4b-8a08-dec3a25ee09d"},"vehicle_type_id":"4","last_reported":1753791828,"current_range_meters":17200,"station_id":"ce4bhb12rcd13ifvqem0","pricing_plan_id":"cebpf4jnsgd1na2vs0mg"},{"bike_id":"863b2e2b-1f2d-4c94-b7fc-5e3cf1d176ec","system_id":"levelo_inurba_marseille","lat":43.32107,"lon":5.36789,"is_reserved":false,"is_disabled":false,"rental_uris":{"android":"levelo://app?vid=863b2e2b-1f2d-4c94-b7fc-5e3cf1d176ec","ios":"levelo://app?vid=863b2e2b-1f2d-4c94-b7fc-5e3cf1d176ec"},"vehicle_type_id":"4","last_reported":1753791828,"current_range_meters":17200,"station_id":"ce4bhrh2rcd13ifvqhug","pricing_plan_id":"cebpf4jnsgd1na2vs0mg"},{"bike_id":"b5f153ec-cf87-409f-aa27-f1d9d587a0b5","system_id":"levelo_inurba_marseille","lat":43.28371,"lon":5.38642,"is_reserved":false,"is_disabled":false,"rental_uris":{"android":"levelo://app?vid=b5f153ec-cf87-409f-aa27-f1d9d587a0b5","ios":"levelo://app?vid=b5f153ec-cf87-409f-aa27-f1d9d587a0b5"},"vehicle_type_id":"4","last_reported":1753791828,"current_range_meters":16800,"station_id":"ce4bh492rcd13ifvqdvg","pricing_plan_id":"cebpf4jnsgd1na2vs0mg"},{"bike_id":"31f03d77-514b-4193-862f-78c2033bdd37","system_id":"levelo_inurba_marseille","lat":43.21189,"lon":5.35067,"is_reserved":false,"is_disabled":false,"rental_uris":{"android":"levelo://app?vid=31f03d77-514b-4193-862f-78c2033bdd37","ios":"levelo://app?vid=31f03d77-514b-4193-862f-78c2033bdd37"},"vehicle_type_id":"4","last_reported":1753791828,"current_range_meters":17200,"station_id":"st_cvj6sg6p6f1abm77japg","pricing_plan_id":"cebpf4jnsgd1na2vs0mg"},{"bike_id":"e65ddf96-fc47-43d0-895b-064cf5a0f1e0","system_id":"levelo_inurba_marseille","lat":43.27214,"lon":5.39182,"is_reserved":false,"is_disabled":false,"rental_uris":{"android":"levelo://app?vid=e65ddf96-fc47-43d0-895b-064cf5a0f1e0","ios":"levelo://app?vid=e65ddf96-fc47-43d0-895b-064cf5a0f1e0"},"vehicle_type_id":"4","last_reported":1753791828,"current_range_meters":17200,"station_id":"ce4bhhp2rcd13ifvqfm0","pricing_plan_id":"cebpf4jnsgd1na2vs0mg"},{"bike_id":"b6007c38-3c84-4a44-b1b1-a56557fa67c5","system_id":"levelo_inurba_marseille","lat":43.24165,"lon":5.3639,"is_reserved":false,"is_disabled":false,"rental_uris":{"android":"levelo://app?vid=b6007c38-3c84-4a44-b1b1-a56557fa67c5","ios":"levelo://app?vid=b6007c38-3c84-4a44-b1b1-a56557fa67c5"},"vehicle_type_id":"4","last_reported":1753791828,"current_range_meters":17200,"station_id":"cpo36qri1sfpv3e86is0","pricing_plan_id":"cebpf4jnsgd1na2vs0mg"},{"bike_id":"00de3457-bb26-4f86-be97-d29604933a4d","system_id":"levelo_inurba_marseille","lat":43.286404,"lon":5.371868,"is_reserved":false,"is_disabled":false,"rental_uris":{"android":"levelo://app?vid=00de3457-bb26-4f86-be97-d29604933a4d","ios":"levelo://app?vid=00de3457-bb26-4f86-be97-d29604933a4d"},"vehicle_type_id":"4","last_reported":1753791828,"current_range_meters":17200,"station_id":"","pricing_plan_id":"cebpf4jnsgd1na2vs0mg"},{"bike_id":"b4c74b11-a67e-40a3-9e0c-b42217416a86","system_id":"levelo_inurba_marseille","lat":43.266959,"lon":5.382781,"is_reserved":false,"is_disabled":false,"rental_uris":{"android":"levelo://app?vid=b4c74b11-a67e-40a3-9e0c-b42217416a86","ios":"levelo://app?vid=b4c74b11-a67e-40a3-9e0c-b42217416a86"},"vehicle_type_id":"4","last_reported":1753791828,"current_range_meters":17600,"station_id":"ce4bhg92rcd13ifvqf90","pricing_plan_id":"cebpf4jnsgd1na2vs0mg"},{"bike_id":"135ab1ea-fc9a-4785-9240-6bfa3adf7c7c","system_id":"levelo_inurba_marseille","lat":43.32348,"lon":5.36721,"is_reserved":false,"is_disabled":false,"rental_uris":{"android":"levelo://app?vid=135ab1ea-fc9a-4785-9240-6bfa3adf7c7c","ios":"levelo://app?vid=135ab1ea-fc9a-4785-9240-6bfa3adf7c7c"},"vehicle_type_id":"4","last_reported":1753791828,"current_range_meters":17600,"station_id":"ce4bhsh2rcd13ifvqi2g","pricing_plan_id":"cebpf4jnsgd1na2vs0mg"},{"bike_id":"b284b620-aa7d-4811-a5e8-71e127544b9e","system_id":"levelo_inurba_marseille","lat":43.30878,"lon":5.37184,"is_reserved":false,"is_disabled":false,"rental_uris":{"android":"levelo://app?vid=b284b620-aa7d-4811-a5e8-71e127544b9e","ios":"levelo://app?vid=b284b620-aa7d-4811-a5e8-71e127544b9e"},"vehicle_type_id":"4","last_reported":1753791828,"current_range_meters":17600,"station_id":"ce4bguh2rcd13ifvqckg","pricing_plan_id":"cebpf4jnsgd1na2vs0mg"},{"bike_id":"b48f5dd0-6dba-4454-bab2-8fe0e77c0439","system_id":"levelo_inurba_marseille","lat":43.24172,"lon":5.3639,"is_reserved":false,"is_disabled":false,"rental_uris":{"android":"levelo://app?vid=b48f5dd0-6dba-4454-bab2-8fe0e77c0439","ios":"levelo://app?vid=b48f5dd0-6dba-4454-bab2-8fe0e77c0439"},"vehicle_type_id":"4","last_reported":1753791828,"current_range_meters":17600,"station_id":"cpo36qri1sfpv3e86is0","pricing_plan_id":"cebpf4jnsgd1na2vs0mg"},{"bike_id":"b906014d-c817-415b-96e8-e90ed3a7a080","system_id":"levelo_inurba_marseille","lat":43.29964,"lon":5.38493,"is_reserved":false,"is_disabled":false,"rental_uris":{"android":"levelo://app?vid=b906014d-c817-415b-96e8-e90ed3a7a080","ios":"levelo://app?vid=b906014d-c817-415b-96e8-e90ed3a7a080"},"vehicle_type_id":"4","last_reported":1753791828,"current_range_meters":17600,"station_id":"ce4bgj92rcd13ifvqbd0","pricing_plan_id":"cebpf4jnsgd1na2vs0mg"},{"bike_id":"ae160175-06a8-4ec4-8cd4-b0c682909b29","system_id":"levelo_inurba_marseille","lat":43.28612,"lon":5.35103,"is_reserved":false,"is_disabled":false,"rental_uris":{"android":"levelo://app?vid=ae160175-06a8-4ec4-8cd4-b0c682909b29","ios":"levelo://app?vid=ae160175-06a8-4ec4-8cd4-b0c682909b29"},"vehicle_type_id":"4","last_reported":1753791828,"current_range_meters":17600,"station_id":"ce4bhch2rcd13ifvqeug","pricing_plan_id":"cebpf4jnsgd1na2vs0mg"},{"bike_id":"24ddc855-9db1-447b-8cc7-fb33f85a47fb","system_id":"levelo_inurba_marseille","lat":43.30595,"lon":5.37213,"is_reserved":false,"is_disabled":false,"rental_uris":{"android":"levelo://app?vid=24ddc855-9db1-447b-8cc7-fb33f85a47fb","ios":"levelo://app?vid=24ddc855-9db1-447b-8cc7-fb33f85a47fb"},"vehicle_type_id":"4","last_reported":1753791828,"current_range_meters":17600,"station_id":"ce4bgqh2rcd13ifvqc4g","pricing_plan_id":"cebpf4jnsgd1na2vs0mg"},{"bike_id":"c686771c-e4d6-4ee5-934b-f3ca190b833e","system_id":"levelo_inurba_marseille","lat":43.32765,"lon":5.39204,"is_reserved":false,"is_disabled":false,"rental_uris":{"android":"levelo://app?vid=c686771c-e4d6-4ee5-934b-f3ca190b833e","ios":"levelo://app?vid=c686771c-e4d6-4ee5-934b-f3ca190b833e"},"vehicle_type_id":"4","last_reported":1753791828,"current_range_meters":17600,"station_id":"","pricing_plan_id":"cebpf4jnsgd1na2vs0mg"},{"bike_id":"f12b9382-480f-4638-a50b-a0ab6d0fcb7b","system_id":"levelo_inurba_marseille","lat":43.23152,"lon":5.43695,"is_reserved":false,"is_disabled":false,"rental_uris":{"android":"levelo://app?vid=f12b9382-480f-4638-a50b-a0ab6d0fcb7b","ios":"levelo://app?vid=f12b9382-480f-4638-a50b-a0ab6d0fcb7b"},"vehicle_type_id":"4","last_reported":1753791828,"current_range_meters":18000,"station_id":"ce4bhmp2rcd13ifvqgog","pricing_plan_id":"cebpf4jnsgd1na2vs0mg"},{"bike_id":"a186bdc7-b9ff-4a98-8414-7f1cfa00d32e","system_id":"levelo_inurba_marseille","lat":43.30545,"lon":5.36726,"is_reserved":false,"is_disabled":false,"rental_uris":{"android":"levelo://app?vid=a186bdc7-b9ff-4a98-8414-7f1cfa00d32e","ios":"levelo://app?vid=a186bdc7-b9ff-4a98-8414-7f1cfa00d32e"},"vehicle_type_id":"4","last_reported":1753791828,"current_range_meters":18000,"station_id":"ce4bgrp2rcd13ifvqc9g","pricing_plan_id":"cebpf4jnsgd1na2vs0mg"},{"bike_id":"72cf6b31-8731-4125-9212-e01f80d70bfe","system_id":"levelo_inurba_marseille","lat":43.22498,"lon":5.34773,"is_reserved":false,"is_disabled":false,"rental_uris":{"android":"levelo://app?vid=72cf6b31-8731-4125-9212-e01f80d70bfe","ios":"levelo://app?vid=72cf6b31-8731-4125-9212-e01f80d70bfe"},"vehicle_type_id":"4","last_reported":1753791828,"current_range_meters":18000,"station_id":"st_cvj5dfep6f1abm77gieg","pricing_plan_id":"cebpf4jnsgd1na2vs0mg"},{"bike_id":"23cb5642-15b1-4dff-8751-77349dab4204","system_id":"levelo_inurba_marseille","lat":43.22925,"lon":5.35382,"is_reserved":false,"is_disabled":false,"rental_uris":{"android":"levelo://app?vid=23cb5642-15b1-4dff-8751-77349dab4204","ios":"levelo://app?vid=23cb5642-15b1-4dff-8751-77349dab4204"},"vehicle_type_id":"4","last_reported":1753791828,"current_range_meters":18000,"station_id":"cpo3532slgdg3j2ikp40","pricing_plan_id":"cebpf4jnsgd1na2vs0mg"},{"bike_id":"16c6ac9b-1f47-4108-9866-f88d1f2ebac1","system_id":"levelo_inurba_marseille","lat":43.23145,"lon":5.43719,"is_reserved":false,"is_disabled":false,"rental_uris":{"android":"levelo://app?vid=16c6ac9b-1f47-4108-9866-f88d1f2ebac1","ios":"levelo://app?vid=16c6ac9b-1f47-4108-9866-f88d1f2ebac1"},"vehicle_type_id":"4","last_reported":1753791828,"current_range_meters":18000,"station_id":"ce4bhmp2rcd13ifvqgog","pricing_plan_id":"cebpf4jnsgd1na2vs0mg"},{"bike_id":"64c0f7db-806d-4f64-9223-4dc39c52a1ee","system_id":"levelo_inurba_marseille","lat":43.29606,"lon":5.37715,"is_reserved":false,"is_disabled":false,"rental_uris":{"android":"levelo://app?vid=64c0f7db-806d-4f64-9223-4dc39c52a1ee","ios":"levelo://app?vid=64c0f7db-806d-4f64-9223-4dc39c52a1ee"},"vehicle_type_id":"4","last_reported":1753791828,"current_range_meters":18000,"station_id":"","pricing_plan_id":"cebpf4jnsgd1na2vs0mg"},{"bike_id":"6a8221ad-83c9-40bd-8997-bb175766af1b","system_id":"levelo_inurba_marseille","lat":43.28414,"lon":5.35003,"is_reserved":false,"is_disabled":false,"rental_uris":{"android":"levelo://app?vid=6a8221ad-83c9-40bd-8997-bb175766af1b","ios":"levelo://app?vid=6a8221ad-83c9-40bd-8997-bb175766af1b"},"vehicle_type_id":"4","last_reported":1753791828,"current_range_meters":18000,"station_id":"ce4bhbh2rcd13ifvqepg","pricing_plan_id":"cebpf4jnsgd1na2vs0mg"},{"bike_id":"c3f643b4-cbb2-458a-a37a-92a845005663","system_id":"levelo_inurba_marseille","lat":43.225031,"lon":5.347785,"is_reserved":false,"is_disabled":false,"rental_uris":{"android":"levelo://app?vid=c3f643b4-cbb2-458a-a37a-92a845005663","ios":"levelo://app?vid=c3f643b4-cbb2-458a-a37a-92a845005663"},"vehicle_type_id":"4","last_reported":1753791828,"current_range_meters":18000,"station_id":"","pricing_plan_id":"cebpf4jnsgd1na2vs0mg"},{"bike_id":"e7a548be-cab7-42f7-9bdc-e660ec352b7b","system_id":"levelo_inurba_marseille","lat":43.31175,"lon":5.3872,"is_reserved":false,"is_disabled":false,"rental_uris":{"android":"levelo://app?vid=e7a548be-cab7-42f7-9bdc-e660ec352b7b","ios":"levelo://app?vid=e7a548be-cab7-42f7-9bdc-e660ec352b7b"},"vehicle_type_id":"4","last_reported":1753791828,"current_range_meters":18000,"station_id":"ce4bgv12rcd13ifvqcp0","pricing_plan_id":"cebpf4jnsgd1na2vs0mg"},{"bike_id":"6f865df7-db91-4988-aa46-abb1a28dea07","system_id":"levelo_inurba_marseille","lat":43.26922,"lon":5.40263,"is_reserved":false,"is_disabled":false,"rental_uris":{"android":"levelo://app?vid=6f865df7-db91-4988-aa46-abb1a28dea07","ios":"levelo://app?vid=6f865df7-db91-4988-aa46-abb1a28dea07"},"vehicle_type_id":"4","last_reported":1753791828,"current_range_meters":18000,"station_id":"cjm6bp8fraef2m0cb0m0","pricing_plan_id":"cebpf4jnsgd1na2vs0mg"},{"bike_id":"a6a46ae2-d764-44ee-baf2-a76e49bd9084","system_id":"levelo_inurba_marseille","lat":43.26983,"lon":5.40297,"is_reserved":false,"is_disabled":false,"rental_uris":{"android":"levelo://app?vid=a6a46ae2-d764-44ee-baf2-a76e49bd9084","ios":"levelo://app?vid=a6a46ae2-d764-44ee-baf2-a76e49bd9084"},"vehicle_type_id":"4","last_reported":1753791828,"current_range_meters":18000,"station_id":"cjm6bp8fraef2m0cb0m0","pricing_plan_id":"cebpf4jnsgd1na2vs0mg"},{"bike_id":"5aae0171-8e81-41e3-9059-0b6db07bd8e8","system_id":"levelo_inurba_marseille","lat":43.28416,"lon":5.35002,"is_reserved":false,"is_disabled":false,"rental_uris":{"android":"levelo://app?vid=5aae0171-8e81-41e3-9059-0b6db07bd8e8","ios":"levelo://app?vid=5aae0171-8e81-41e3-9059-0b6db07bd8e8"},"vehicle_type_id":"4","last_reported":1753791828,"current_range_meters":18000,"station_id":"ce4bhbh2rcd13ifvqepg","pricing_plan_id":"cebpf4jnsgd1na2vs0mg"},{"bike_id":"6c40ec02-1921-499d-8c43-12f25ee6244b","system_id":"levelo_inurba_marseille","lat":43.240949,"lon":5.377624,"is_reserved":false,"is_disabled":false,"rental_uris":{"android":"levelo://app?vid=6c40ec02-1921-499d-8c43-12f25ee6244b","ios":"levelo://app?vid=6c40ec02-1921-499d-8c43-12f25ee6244b"},"vehicle_type_id":"4","last_reported":1753791828,"current_range_meters":18000,"station_id":"ce4bhnp2rcd13ifvqgvg","pricing_plan_id":"cebpf4jnsgd1na2vs0mg"},{"bike_id":"3b0fc468-0f53-43b2-bdc9-2accbf6297e5","system_id":"levelo_inurba_marseille","lat":43.29646,"lon":5.3791,"is_reserved":false,"is_disabled":false,"rental_uris":{"android":"levelo://app?vid=3b0fc468-0f53-43b2-bdc9-2accbf6297e5","ios":"levelo://app?vid=3b0fc468-0f53-43b2-bdc9-2accbf6297e5"},"vehicle_type_id":"4","last_reported":1753791828,"current_range_meters":18800,"station_id":"","pricing_plan_id":"cebpf4jnsgd1na2vs0mg"},{"bike_id":"62a8ca34-b956-4001-82f0-1ac1322279bb","system_id":"levelo_inurba_marseille","lat":43.27805,"lon":5.40711,"is_reserved":false,"is_disabled":false,"rental_uris":{"android":"levelo://app?vid=62a8ca34-b956-4001-82f0-1ac1322279bb","ios":"levelo://app?vid=62a8ca34-b956-4001-82f0-1ac1322279bb"},"vehicle_type_id":"4","last_reported":1753791828,"current_range_meters":18800,"station_id":"ce4bhnh2rcd13ifvqgtg","pricing_plan_id":"cebpf4jnsgd1na2vs0mg"},{"bike_id":"c4563eff-9749-4445-9070-7a1df6dc7f77","system_id":"levelo_inurba_marseille","lat":43.27842,"lon":5.39196,"is_reserved":false,"is_disabled":false,"rental_uris":{"android":"levelo://app?vid=c4563eff-9749-4445-9070-7a1df6dc7f77","ios":"levelo://app?vid=c4563eff-9749-4445-9070-7a1df6dc7f77"},"vehicle_type_id":"4","last_reported":1753791828,"current_range_meters":18800,"station_id":"ce4bhjp2rcd13ifvqga0","pricing_plan_id":"cebpf4jnsgd1na2vs0mg"},{"bike_id":"0f45e594-403b-40f9-b8bc-5580f03a277f","system_id":"levelo_inurba_marseille","lat":43.29775,"lon":5.37103,"is_reserved":false,"is_disabled":false,"rental_uris":{"android":"levelo://app?vid=0f45e594-403b-40f9-b8bc-5580f03a277f","ios":"levelo://app?vid=0f45e594-403b-40f9-b8bc-5580f03a277f"},"vehicle_type_id":"4","last_reported":1753791828,"current_range_meters":18800,"station_id":"ce4bgop2rcd13ifvqc1g","pricing_plan_id":"cebpf4jnsgd1na2vs0mg"},{"bike_id":"e5025d75-0be2-4ade-983e-e7b1f4a71865","system_id":"levelo_inurba_marseille","lat":43.24377,"lon":5.3708,"is_reserved":false,"is_disabled":false,"rental_uris":{"android":"levelo://app?vid=e5025d75-0be2-4ade-983e-e7b1f4a71865","ios":"levelo://app?vid=e5025d75-0be2-4ade-983e-e7b1f4a71865"},"vehicle_type_id":"4","last_reported":1753791828,"current_range_meters":18800,"station_id":"ce4bhhh2rcd13ifvqfk0","pricing_plan_id":"cebpf4jnsgd1na2vs0mg"},{"bike_id":"2fad1b6f-d0b7-4211-9b9d-661d7c090096","system_id":"levelo_inurba_marseille","lat":43.29808,"lon":5.43324,"is_reserved":false,"is_disabled":false,"rental_uris":{"android":"levelo://app?vid=2fad1b6f-d0b7-4211-9b9d-661d7c090096","ios":"levelo://app?vid=2fad1b6f-d0b7-4211-9b9d-661d7c090096"},"vehicle_type_id":"4","last_reported":1753791828,"current_range_meters":18800,"station_id":"","pricing_plan_id":"cebpf4jnsgd1na2vs0mg"},{"bike_id":"0d40fed9-8302-4321-b341-691187b2ca0e","system_id":"levelo_inurba_marseille","lat":43.3079,"lon":5.38182,"is_reserved":false,"is_disabled":false,"rental_uris":{"android":"levelo://app?vid=0d40fed9-8302-4321-b341-691187b2ca0e","ios":"levelo://app?vid=0d40fed9-8302-4321-b341-691187b2ca0e"},"vehicle_type_id":"4","last_reported":1753791828,"current_range_meters":18800,"station_id":"ce4bgt12rcd13ifvqce0","pricing_plan_id":"cebpf4jnsgd1na2vs0mg"},{"bike_id":"9334f34a-980a-401c-82f4-9a8b79f8762a","system_id":"levelo_inurba_marseille","lat":43.32468,"lon":5.36571,"is_reserved":false,"is_disabled":false,"rental_uris":{"android":"levelo://app?vid=9334f34a-980a-401c-82f4-9a8b79f8762a","ios":"levelo://app?vid=9334f34a-980a-401c-82f4-9a8b79f8762a"},"vehicle_type_id":"4","last_reported":1753791828,"current_range_meters":18800,"station_id":"ce4bhs12rcd13ifvqhvg","pricing_plan_id":"cebpf4jnsgd1na2vs0mg"},{"bike_id":"4a603a1b-8916-4ee3-a7f2-c2bcbd917399","system_id":"levelo_inurba_marseille","lat":43.26561,"lon":5.37291,"is_reserved":false,"is_disabled":false,"rental_uris":{"android":"levelo://app?vid=4a603a1b-8916-4ee3-a7f2-c2bcbd917399","ios":"levelo://app?vid=4a603a1b-8916-4ee3-a7f2-c2bcbd917399"},"vehicle_type_id":"4","last_reported":1753791828,"current_range_meters":18800,"station_id":"ce4bhg12rcd13ifvqf70","pricing_plan_id":"cebpf4jnsgd1na2vs0mg"},{"bike_id":"4afe8461-c4ec-4681-86f7-9be99a1839d8","system_id":"levelo_inurba_marseille","lat":43.25938,"lon":5.40903,"is_reserved":false,"is_disabled":false,"rental_uris":{"android":"levelo://app?vid=4afe8461-c4ec-4681-86f7-9be99a1839d8","ios":"levelo://app?vid=4afe8461-c4ec-4681-86f7-9be99a1839d8"},"vehicle_type_id":"4","last_reported":1753791828,"current_range_meters":18800,"station_id":"ce4bhm92rcd13ifvqglg","pricing_plan_id":"cebpf4jnsgd1na2vs0mg"},{"bike_id":"915513aa-2ef0-4e1b-9aa3-73608a47efab","system_id":"levelo_inurba_marseille","lat":43.22493,"lon":5.34769,"is_reserved":false,"is_disabled":false,"rental_uris":{"android":"levelo://app?vid=915513aa-2ef0-4e1b-9aa3-73608a47efab","ios":"levelo://app?vid=915513aa-2ef0-4e1b-9aa3-73608a47efab"},"vehicle_type_id":"4","last_reported":1753791828,"current_range_meters":18800,"station_id":"st_cvj5dfep6f1abm77gieg","pricing_plan_id":"cebpf4jnsgd1na2vs0mg"},{"bike_id":"7d63cf5a-0da2-4b18-a94a-562fda8ccf0c","system_id":"levelo_inurba_marseille","lat":43.241728,"lon":5.364143,"is_reserved":false,"is_disabled":false,"rental_uris":{"android":"levelo://app?vid=7d63cf5a-0da2-4b18-a94a-562fda8ccf0c","ios":"levelo://app?vid=7d63cf5a-0da2-4b18-a94a-562fda8ccf0c"},"vehicle_type_id":"4","last_reported":1753791828,"current_range_meters":18800,"station_id":"cpo36qri1sfpv3e86is0","pricing_plan_id":"cebpf4jnsgd1na2vs0mg"},{"bike_id":"3596eb69-67f4-4cab-afe6-cd48989893f7","system_id":"levelo_inurba_marseille","lat":43.29197,"lon":5.35803,"is_reserved":false,"is_disabled":false,"rental_uris":{"android":"levelo://app?vid=3596eb69-67f4-4cab-afe6-cd48989893f7","ios":"levelo://app?vid=3596eb69-67f4-4cab-afe6-cd48989893f7"},"vehicle_type_id":"4","last_reported":1753791828,"current_range_meters":18800,"station_id":"ce4bhb12rcd13ifvqel0","pricing_plan_id":"cebpf4jnsgd1na2vs0mg"},{"bike_id":"1693ba52-918e-486b-baac-8fb9593fa093","system_id":"levelo_inurba_marseille","lat":43.27832,"lon":5.39213,"is_reserved":false,"is_disabled":false,"rental_uris":{"android":"levelo://app?vid=1693ba52-918e-486b-baac-8fb9593fa093","ios":"levelo://app?vid=1693ba52-918e-486b-baac-8fb9593fa093"},"vehicle_type_id":"4","last_reported":1753791828,"current_range_meters":19200,"station_id":"ce4bhjp2rcd13ifvqga0","pricing_plan_id":"cebpf4jnsgd1na2vs0mg"},{"bike_id":"b44d763b-4f92-4731-b76a-85ebcd91acd5","system_id":"levelo_inurba_marseille","lat":43.30213,"lon":5.37119,"is_reserved":false,"is_disabled":false,"rental_uris":{"android":"levelo://app?vid=b44d763b-4f92-4731-b76a-85ebcd91acd5","ios":"levelo://app?vid=b44d763b-4f92-4731-b76a-85ebcd91acd5"},"vehicle_type_id":"4","last_reported":1753791828,"current_range_meters":19200,"station_id":"","pricing_plan_id":"cebpf4jnsgd1na2vs0mg"},{"bike_id":"94701e02-c6f1-443a-81ad-610be4f78b1d","system_id":"levelo_inurba_marseille","lat":43.28107,"lon":5.38927,"is_reserved":false,"is_disabled":false,"rental_uris":{"android":"levelo://app?vid=94701e02-c6f1-443a-81ad-610be4f78b1d","ios":"levelo://app?vid=94701e02-c6f1-443a-81ad-610be4f78b1d"},"vehicle_type_id":"4","last_reported":1753791828,"current_range_meters":19200,"station_id":"","pricing_plan_id":"cebpf4jnsgd1na2vs0mg"},{"bike_id":"11a1b103-3025-4e7c-a909-8ea3cfd36f8f","system_id":"levelo_inurba_marseille","lat":43.3237,"lon":5.38909,"is_reserved":false,"is_disabled":false,"rental_uris":{"android":"levelo://app?vid=11a1b103-3025-4e7c-a909-8ea3cfd36f8f","ios":"levelo://app?vid=11a1b103-3025-4e7c-a909-8ea3cfd36f8f"},"vehicle_type_id":"4","last_reported":1753791828,"current_range_meters":19200,"station_id":"ce4bhqp2rcd13ifvqhog","pricing_plan_id":"cebpf4jnsgd1na2vs0mg"},{"bike_id":"19ec0e97-5b3a-408d-8539-cb41e42ef699","system_id":"levelo_inurba_marseille","lat":43.28408,"lon":5.37514,"is_reserved":false,"is_disabled":true,"rental_uris":{"android":"levelo://app?vid=19ec0e97-5b3a-408d-8539-cb41e42ef699","ios":"levelo://app?vid=19ec0e97-5b3a-408d-8539-cb41e42ef699"},"vehicle_type_id":"4","last_reported":1753791828,"current_range_meters":19200,"station_id":"ce4bh412rcd13ifvqds0","pricing_plan_id":"cebpf4jnsgd1na2vs0mg"},{"bike_id":"347541b0-e2f3-42c7-96f4-367904768e18","system_id":"levelo_inurba_marseille","lat":43.27486,"lon":5.42458,"is_reserved":false,"is_disabled":false,"rental_uris":{"android":"levelo://app?vid=347541b0-e2f3-42c7-96f4-367904768e18","ios":"levelo://app?vid=347541b0-e2f3-42c7-96f4-367904768e18"},"vehicle_type_id":"4","last_reported":1753791828,"current_range_meters":19200,"station_id":"ce4bhn92rcd13ifvqgrg","pricing_plan_id":"cebpf4jnsgd1na2vs0mg"},{"bike_id":"6f72a999-8cbb-4630-999b-52e53e67d483","system_id":"levelo_inurba_marseille","lat":43.26247,"lon":5.40373,"is_reserved":false,"is_disabled":false,"rental_uris":{"android":"levelo://app?vid=6f72a999-8cbb-4630-999b-52e53e67d483","ios":"levelo://app?vid=6f72a999-8cbb-4630-999b-52e53e67d483"},"vehicle_type_id":"4","last_reported":1753791828,"current_range_meters":19200,"station_id":"","pricing_plan_id":"cebpf4jnsgd1na2vs0mg"},{"bike_id":"17b23f6f-8523-4ede-9192-841d6e39ec2d","system_id":"levelo_inurba_marseille","lat":43.31264,"lon":5.3951,"is_reserved":false,"is_disabled":false,"rental_uris":{"android":"levelo://app?vid=17b23f6f-8523-4ede-9192-841d6e39ec2d","ios":"levelo://app?vid=17b23f6f-8523-4ede-9192-841d6e39ec2d"},"vehicle_type_id":"4","last_reported":1753791828,"current_range_meters":19200,"station_id":"","pricing_plan_id":"cebpf4jnsgd1na2vs0mg"},{"bike_id":"192b0d30-957d-44ba-8144-33c4e668d739","system_id":"levelo_inurba_marseille","lat":43.309336,"lon":5.401641,"is_reserved":false,"is_disabled":false,"rental_uris":{"android":"levelo://app?vid=192b0d30-957d-44ba-8144-33c4e668d739","ios":"levelo://app?vid=192b0d30-957d-44ba-8144-33c4e668d739"},"vehicle_type_id":"4","last_reported":1753791828,"current_range_meters":19200,"station_id":"ce4bgvp2rcd13ifvqct0","pricing_plan_id":"cebpf4jnsgd1na2vs0mg"},{"bike_id":"5ff7b424-be72-460e-9279-c80ac3b388ac","system_id":"levelo_inurba_marseille","lat":43.23184,"lon":5.39989,"is_reserved":false,"is_disabled":false,"rental_uris":{"android":"levelo://app?vid=5ff7b424-be72-460e-9279-c80ac3b388ac","ios":"levelo://app?vid=5ff7b424-be72-460e-9279-c80ac3b388ac"},"vehicle_type_id":"4","last_reported":1753791828,"current_range_meters":19200,"station_id":"ce4bhn12rcd13ifvqgqg","pricing_plan_id":"cebpf4jnsgd1na2vs0mg"},{"bike_id":"4077ec11-50f2-45c8-ab63-bd5c0ed0a661","system_id":"levelo_inurba_marseille","lat":43.243972,"lon":5.37088,"is_reserved":false,"is_disabled":false,"rental_uris":{"android":"levelo://app?vid=4077ec11-50f2-45c8-ab63-bd5c0ed0a661","ios":"levelo://app?vid=4077ec11-50f2-45c8-ab63-bd5c0ed0a661"},"vehicle_type_id":"4","last_reported":1753791828,"current_range_meters":19200,"station_id":"ce4bhhh2rcd13ifvqfk0","pricing_plan_id":"cebpf4jnsgd1na2vs0mg"},{"bike_id":"4bf24824-712e-4879-9aea-8a3178a74908","system_id":"levelo_inurba_marseille","lat":43.28148,"lon":5.42647,"is_reserved":false,"is_disabled":false,"rental_uris":{"android":"levelo://app?vid=4bf24824-712e-4879-9aea-8a3178a74908","ios":"levelo://app?vid=4bf24824-712e-4879-9aea-8a3178a74908"},"vehicle_type_id":"4","last_reported":1753791828,"current_range_meters":19200,"station_id":"ce4bhnh2rcd13ifvqgug","pricing_plan_id":"cebpf4jnsgd1na2vs0mg"},{"bike_id":"576af7c0-c5de-490a-8a95-54f180c1dbf8","system_id":"levelo_inurba_marseille","lat":43.32363,"lon":5.38878,"is_reserved":false,"is_disabled":false,"rental_uris":{"android":"levelo://app?vid=576af7c0-c5de-490a-8a95-54f180c1dbf8","ios":"levelo://app?vid=576af7c0-c5de-490a-8a95-54f180c1dbf8"},"vehicle_type_id":"4","last_reported":1753791828,"current_range_meters":18000,"station_id":"ce4bhqp2rcd13ifvqhog","pricing_plan_id":"cebpf4jnsgd1na2vs0mg"},{"bike_id":"9139160d-a507-41fe-930f-006c29dcf61a","system_id":"levelo_inurba_marseille","lat":43.25581,"lon":5.38232,"is_reserved":false,"is_disabled":false,"rental_uris":{"android":"levelo://app?vid=9139160d-a507-41fe-930f-006c29dcf61a","ios":"levelo://app?vid=9139160d-a507-41fe-930f-006c29dcf61a"},"vehicle_type_id":"4","last_reported":1753791828,"current_range_meters":19200,"station_id":"ce4bhih2rcd13ifvqfs0","pricing_plan_id":"cebpf4jnsgd1na2vs0mg"},{"bike_id":"69d38a7e-1fcd-4d86-82ea-8c496eb3852b","system_id":"levelo_inurba_marseille","lat":43.290026,"lon":5.356182,"is_reserved":false,"is_disabled":true,"rental_uris":{"android":"levelo://app?vid=69d38a7e-1fcd-4d86-82ea-8c496eb3852b","ios":"levelo://app?vid=69d38a7e-1fcd-4d86-82ea-8c496eb3852b"},"vehicle_type_id":"4","last_reported":1753791828,"current_range_meters":19600,"station_id":"","pricing_plan_id":"cebpf4jnsgd1na2vs0mg"},{"bike_id":"0f2a9734-7860-4393-850c-ee0cf61b4466","system_id":"levelo_inurba_marseille","lat":43.23178,"lon":5.39987,"is_reserved":false,"is_disabled":false,"rental_uris":{"android":"levelo://app?vid=0f2a9734-7860-4393-850c-ee0cf61b4466","ios":"levelo://app?vid=0f2a9734-7860-4393-850c-ee0cf61b4466"},"vehicle_type_id":"4","last_reported":1753791828,"current_range_meters":19200,"station_id":"ce4bhn12rcd13ifvqgqg","pricing_plan_id":"cebpf4jnsgd1na2vs0mg"},{"bike_id":"99a1e43c-c2cb-42af-9710-8525937960f2","system_id":"levelo_inurba_marseille","lat":43.24066,"lon":5.37765,"is_reserved":false,"is_disabled":false,"rental_uris":{"android":"levelo://app?vid=99a1e43c-c2cb-42af-9710-8525937960f2","ios":"levelo://app?vid=99a1e43c-c2cb-42af-9710-8525937960f2"},"vehicle_type_id":"4","last_reported":1753791828,"current_range_meters":19600,"station_id":"ce4bhnp2rcd13ifvqgvg","pricing_plan_id":"cebpf4jnsgd1na2vs0mg"},{"bike_id":"1c551052-93aa-4f27-a7a0-ce7ef92bf860","system_id":"levelo_inurba_marseille","lat":43.32469,"lon":5.3657,"is_reserved":false,"is_disabled":false,"rental_uris":{"android":"levelo://app?vid=1c551052-93aa-4f27-a7a0-ce7ef92bf860","ios":"levelo://app?vid=1c551052-93aa-4f27-a7a0-ce7ef92bf860"},"vehicle_type_id":"4","last_reported":1753791828,"current_range_meters":19600,"station_id":"ce4bhs12rcd13ifvqhvg","pricing_plan_id":"cebpf4jnsgd1na2vs0mg"},{"bike_id":"b0896673-1872-4533-b3cb-1fce54c59418","system_id":"levelo_inurba_marseille","lat":43.26919,"lon":5.38913,"is_reserved":false,"is_disabled":false,"rental_uris":{"android":"levelo://app?vid=b0896673-1872-4533-b3cb-1fce54c59418","ios":"levelo://app?vid=b0896673-1872-4533-b3cb-1fce54c59418"},"vehicle_type_id":"4","last_reported":1753791828,"current_range_meters":19600,"station_id":"ce4bhhh2rcd13ifvqfl0","pricing_plan_id":"cebpf4jnsgd1na2vs0mg"},{"bike_id":"848c56c7-2a0b-4468-ac75-c997f31d827c","system_id":"levelo_inurba_marseille","lat":43.217563,"lon":5.346082,"is_reserved":false,"is_disabled":false,"rental_uris":{"android":"levelo://app?vid=848c56c7-2a0b-4468-ac75-c997f31d827c","ios":"levelo://app?vid=848c56c7-2a0b-4468-ac75-c997f31d827c"},"vehicle_type_id":"4","last_reported":1753791828,"current_range_meters":20000,"station_id":"st_cvj6r9ubvosntc0bgbag","pricing_plan_id":"cebpf4jnsgd1na2vs0mg"},{"bike_id":"61009ed9-f35f-461a-aa6c-4706a758daab","system_id":"levelo_inurba_marseille","lat":43.31486,"lon":5.37306,"is_reserved":false,"is_disabled":false,"rental_uris":{"android":"levelo://app?vid=61009ed9-f35f-461a-aa6c-4706a758daab","ios":"levelo://app?vid=61009ed9-f35f-461a-aa6c-4706a758daab"},"vehicle_type_id":"4","last_reported":1753791828,"current_range_meters":20000,"station_id":"ce4bgt12rcd13ifvqcd0","pricing_plan_id":"cebpf4jnsgd1na2vs0mg"},{"bike_id":"d09b03a6-95ec-493c-80b0-6644e41ac765","system_id":"levelo_inurba_marseille","lat":43.28616,"lon":5.35093,"is_reserved":false,"is_disabled":false,"rental_uris":{"android":"levelo://app?vid=d09b03a6-95ec-493c-80b0-6644e41ac765","ios":"levelo://app?vid=d09b03a6-95ec-493c-80b0-6644e41ac765"},"vehicle_type_id":"4","last_reported":1753791828,"current_range_meters":20000,"station_id":"ce4bhch2rcd13ifvqeug","pricing_plan_id":"cebpf4jnsgd1na2vs0mg"},{"bike_id":"0d1cf7d5-d415-4efe-a85b-c97b4728c464","system_id":"levelo_inurba_marseille","lat":43.26458,"lon":5.3736,"is_reserved":false,"is_disabled":false,"rental_uris":{"android":"levelo://app?vid=0d1cf7d5-d415-4efe-a85b-c97b4728c464","ios":"levelo://app?vid=0d1cf7d5-d415-4efe-a85b-c97b4728c464"},"vehicle_type_id":"4","last_reported":1753791828,"current_range_meters":20000,"station_id":"","pricing_plan_id":"cebpf4jnsgd1na2vs0mg"},{"bike_id":"5f72df66-2d68-4c6e-a917-44e1dcfede98","system_id":"levelo_inurba_marseille","lat":43.22937,"lon":5.35386,"is_reserved":false,"is_disabled":false,"rental_uris":{"android":"levelo://app?vid=5f72df66-2d68-4c6e-a917-44e1dcfede98","ios":"levelo://app?vid=5f72df66-2d68-4c6e-a917-44e1dcfede98"},"vehicle_type_id":"4","last_reported":1753791828,"current_range_meters":20000,"station_id":"cpo3532slgdg3j2ikp40","pricing_plan_id":"cebpf4jnsgd1na2vs0mg"},{"bike_id":"6590494b-43e7-43e0-b312-c754fd5ea433","system_id":"levelo_inurba_marseille","lat":43.29034,"lon":5.43,"is_reserved":false,"is_disabled":false,"rental_uris":{"android":"levelo://app?vid=6590494b-43e7-43e0-b312-c754fd5ea433","ios":"levelo://app?vid=6590494b-43e7-43e0-b312-c754fd5ea433"},