{"last_updated":1765887857,"ttl":60,"version":"2.2","data":{"bikes":[{"bike_id":"2e1a59f5-351c-4cbe-92ee-eadc31657efd","system_id":"levelo_inurba_marseille","lat":43.27667,"lon":5.38931,"is_reserved":false,"is_disabled":false,"rental_uris":{"android":"levelo://app?vid=2e1a59f5-351c-4cbe-92ee-eadc31657efd","ios":"levelo://app?vid=2e1a59f5-351c-4cbe-92ee-eadc31657efd"},"vehicle_type_id":"4","last_reported":1765887858,"current_range_meters":2800,"station_id":"ce4bhi12rcd13ifvqfo0","pricing_plan_id":"cebpf4jnsgd1na2vs0mg"},{"bike_id":"badd8d20-9209-4436-9c1f-a017c0e70e8a","system_id":"levelo_inurba_marseille","lat":43.3256,"lon":5.39321,"is_reserved":false,"is_disabled":false,"rental_uris":{"android":"levelo://app?vid=badd8d20-9209-4436-9c1f-a017c0e70e8a","ios":"levelo://app?vid=badd8d20-9209-4436-9c1f-a017c0e70e8a"},"vehicle_type_id":"4","last_reported":1765887858,"current_range_meters":3200,"station_id":"","pricing_plan_id":"cebpf4jnsgd1na2vs0mg"},{"bike_id":"f252bbac-89d2-42fe-81a4-fb3c06828d5b","system_id":"levelo_inurba_marseille","lat":43.28497,"lon":5.38554,"is_reserved":false,"is_disabled":false,"rental_uris":{"android":"levelo://app?vid=f252bbac-89d2-42fe-81a4-fb3c06828d5b","ios":"levelo://app?vid=f252bbac-89d2-42fe-81a4-fb3c06828d5b"},"vehicle_type_id":"4","last_reported":1765887858,"current_range_meters":3200,"station_id":"ce4bh8p2rcd13ifvqeb0","pricing_plan_id":"cebpf4jnsgd1na2vs0mg"},{"bike_id":"f5f25559-d746-4be8-afc4-49941e97fed4","system_id":"levelo_inurba_marseille","lat":43.255034,"lon":5.376485,"is_reserved":false,"is_disabled":false,"rental_uris":{"android":"levelo://app?vid=f5f25559-d746-4be8-afc4-49941e97fed4","ios":"levelo://app?vid=f5f25559-d746-4be8-afc4-49941e97fed4"},"vehicle_type_id":"4","last_reported":1765887858,"current_range_meters":3600,"station_id":"ce4bhh12rcd13ifvqff0","pricing_plan_id":"cebpf4jnsgd1na2vs0mg"},{"bike_id":"8d4f5a24-2254-43a9-b444-9b442b1a4d62","system_id":"levelo_inurba_marseille","lat":43.29571,"lon":5.37523,"is_reserved":false,"is_disabled":false,"rental_uris":{"android":"levelo://app?vid=8d4f5a24-2254-43a9-b444-9b442b1a4d62","ios":"levelo://app?vid=8d4f5a24-2254-43a9-b444-9b442b1a4d62"},"vehicle_type_id":"4","last_reported":1765887858,"current_range_meters":3600,"station_id":"ce4bgh92rcd13ifvqb50","pricing_plan_id":"cebpf4jnsgd1na2vs0mg"},{"bike_id":"31ab4b60-9262-4dfc-bd74-3e2844a490f9","system_id":"levelo_inurba_marseille","lat":43.30296,"lon":5.36897,"is_reserved":false,"is_disabled":false,"rental_uris":{"android":"levelo://app?vid=31ab4b60-9262-4dfc-bd74-3e2844a490f9","ios":"levelo://app?vid=31ab4b60-9262-4dfc-bd74-3e2844a490f9"},"vehicle_type_id":"4","last_reported":1765887858,"current_range_meters":4000,"station_id":"ce4bgqh2rcd13ifvqc5g","pricing_plan_id":"cebpf4jnsgd1na2vs0mg"},{"bike_id":"8216a2ff-4fd2-4239-8e95-dcaef5335360","system_id":"levelo_inurba_marseille","lat":43.3211,"lon":5.36764,"is_reserved":false,"is_disabled":false,"rental_uris":{"android":"levelo://app?vid=8216a2ff-4fd2-4239-8e95-dcaef5335360","ios":"levelo://app?vid=8216a2ff-4fd2-4239-8e95-dcaef5335360"},"vehicle_type_id":"4","last_reported":1765887858,"current_range_meters":4400,"station_id":"ce4bhrh2rcd13ifvqhug","pricing_plan_id":"cebpf4jnsgd1na2vs0mg"},{"bike_id":"a6bfd9b2-7f15-426c-b73b-e405e8711977","system_id":"levelo_inurba_marseille","lat":43.31031,"lon":5.37506,"is_reserved":false,"is_disabled":false,"rental_uris":{"android":"levelo://app?vid=a6bfd9b2-7f15-426c-b73b-e405e8711977","ios":"levelo://app?vid=a6bfd9b2-7f15-426c-b73b-e405e8711977"},"vehicle_type_id":"4","last_reported":1765887858,"current_range_meters":4800,"station_id":"","pricing_plan_id":"cebpf4jnsgd1na2vs0mg"},{"bike_id":"1517032b-4096-4a25-86da-3363f157c2c8","system_id":"levelo_inurba_marseille","lat":43.296117,"lon":5.376862,"is_reserved":false,"is_disabled":false,"rental_uris":{"android":"levelo://app?vid=1517032b-4096-4a25-86da-3363f157c2c8","ios":"levelo://app?vid=1517032b-4096-4a25-86da-3363f157c2c8"},"vehicle_type_id":"4","last_reported":1765887858,"current_range_meters":4800,"station_id":"ce4bgi92rcd13ifvqb90","pricing_plan_id":"cebpf4jnsgd1na2vs0mg"},{"bike_id":"c0cdf6f7-0365-41bc-8d8b-e67546e0dc68","system_id":"levelo_inurba_marseille","lat":43.30929,"lon":5.4015,"is_reserved":false,"is_disabled":false,"rental_uris":{"android":"levelo://app?vid=c0cdf6f7-0365-41bc-8d8b-e67546e0dc68","ios":"levelo://app?vid=c0cdf6f7-0365-41bc-8d8b-e67546e0dc68"},"vehicle_type_id":"4","last_reported":1765887858,"current_range_meters":4800,"station_id":"ce4bgvp2rcd13ifvqct0","pricing_plan_id":"cebpf4jnsgd1na2vs0mg"},{"bike_id":"0df75339-2299-4ed1-b76d-715ae0dfd819","system_id":"levelo_inurba_marseille","lat":43.29163,"lon":5.37142,"is_reserved":false,"is_disabled":false,"rental_uris":{"android":"levelo://app?vid=0df75339-2299-4ed1-b76d-715ae0dfd819","ios":"levelo://app?vid=0df75339-2299-4ed1-b76d-715ae0dfd819"},"vehicle_type_id":"4","last_reported":1765887858,"current_range_meters":4800,"station_id":"ce4bha92rcd13ifvqeh0","pricing_plan_id":"cebpf4jnsgd1na2vs0mg"},{"bike_id":"47fc7da4-dec3-49e7-9774-62b528bead8f","system_id":"levelo_inurba_marseille","lat":43.26563,"lon":5.39008,"is_reserved":false,"is_disabled":false,"rental_uris":{"android":"levelo://app?vid=47fc7da4-dec3-49e7-9774-62b528bead8f","ios":"levelo://app?vid=47fc7da4-dec3-49e7-9774-62b528bead8f"},"vehicle_type_id":"4","last_reported":1765887858,"current_range_meters":5600,"station_id":"ce4bhe12rcd13ifvqf30","pricing_plan_id":"cebpf4jnsgd1na2vs0mg"},{"bike_id":"9e86a8f6-999b-4b74-a782-0cc143493b72","system_id":"levelo_inurba_marseille","lat":43.27324,"lon":5.39117,"is_reserved":false,"is_disabled":false,"rental_uris":{"android":"levelo://app?vid=9e86a8f6-999b-4b74-a782-0cc143493b72","ios":"levelo://app?vid=9e86a8f6-999b-4b74-a782-0cc143493b72"},"vehicle_type_id":"4","last_reported":1765887858,"current_range_meters":5600,"station_id":"ce4bhgp2rcd13ifvqfe0","pricing_plan_id":"cebpf4jnsgd1na2vs0mg"},{"bike_id":"06e04164-d3c6-47b3-a71d-f5122b44e162","system_id":"levelo_inurba_marseille","lat":43.251151,"lon":5.403159,"is_reserved":false,"is_disabled":false,"rental_uris":{"android":"levelo://app?vid=06e04164-d3c6-47b3-a71d-f5122b44e162","ios":"levelo://app?vid=06e04164-d3c6-47b3-a71d-f5122b44e162"},"vehicle_type_id":"4","last_reported":1765887858,"current_range_meters":6000,"station_id":"ce4bhlh2rcd13ifvqgig","pricing_plan_id":"cebpf4jnsgd1na2vs0mg"},{"bike_id":"66e10194-8e2d-4634-89ad-d66d649b5e60","system_id":"levelo_inurba_marseille","lat":43.28473,"lon":5.48396,"is_reserved":false,"is_disabled":false,"rental_uris":{"android":"levelo://app?vid=66e10194-8e2d-4634-89ad-d66d649b5e60","ios":"levelo://app?vid=66e10194-8e2d-4634-89ad-d66d649b5e60"},"vehicle_type_id":"4","last_reported":1765887858,"current_range_meters":6000,"station_id":"","pricing_plan_id":"cebpf4jnsgd1na2vs0mg"},{"bike_id":"af60ad45-1773-4b17-8cbf-b5714f9a120e","system_id":"levelo_inurba_marseille","lat":43.337666,"lon":5.374436,"is_reserved":false,"is_disabled":false,"rental_uris":{"android":"levelo://app?vid=af60ad45-1773-4b17-8cbf-b5714f9a120e","ios":"levelo://app?vid=af60ad45-1773-4b17-8cbf-b5714f9a120e"},"vehicle_type_id":"4","last_reported":1765887858,"current_range_meters":6400,"station_id":"","pricing_plan_id":"cebpf4jnsgd1na2vs0mg"},{"bike_id":"e28c64da-3779-4876-9765-52afcddbb52c","system_id":"levelo_inurba_marseille","lat":43.31163,"lon":5.38255,"is_reserved":false,"is_disabled":true,"rental_uris":{"android":"levelo://app?vid=e28c64da-3779-4876-9765-52afcddbb52c","ios":"levelo://app?vid=e28c64da-3779-4876-9765-52afcddbb52c"},"vehicle_type_id":"4","last_reported":1765887858,"current_range_meters":6400,"station_id":"","pricing_plan_id":"cebpf4jnsgd1na2vs0mg"},{"bike_id":"6fe3060f-17ee-4243-91a2-653d74d75a11","system_id":"levelo_inurba_marseille","lat":43.22544,"lon":5.34814,"is_reserved":false,"is_disabled":false,"rental_uris":{"android":"levelo://app?vid=6fe3060f-17ee-4243-91a2-653d74d75a11","ios":"levelo://app?vid=6fe3060f-17ee-4243-91a2-653d74d75a11"},"vehicle_type_id":"4","last_reported":1765887858,"current_range_meters":6400,"station_id":"","pricing_plan_id":"cebpf4jnsgd1na2vs0mg"},{"bike_id":"4a0d3cd1-7adf-484f-a589-90c80406ab4e","system_id":"levelo_inurba_marseille","lat":43.23782,"lon":5.4359,"is_reserved":false,"is_disabled":false,"rental_uris":{"android":"levelo://app?vid=4a0d3cd1-7adf-484f-a589-90c80406ab4e","ios":"levelo://app?vid=4a0d3cd1-7adf-484f-a589-90c80406ab4e"},"vehicle_type_id":"4","last_reported":1765887858,"current_range_meters":6400,"station_id":"","pricing_plan_id":"cebpf4jnsgd1na2vs0mg"},{"bike_id":"5cfcac19-e885-4209-96ab-a70a0192b25a","system_id":"levelo_inurba_marseille","lat":43.3376,"lon":5.3745,"is_reserved":false,"is_disabled":false,"rental_uris":{"android":"levelo://app?vid=5cfcac19-e885-4209-96ab-a70a0192b25a","ios":"levelo://app?vid=5cfcac19-e885-4209-96ab-a70a0192b25a"},"vehicle_type_id":"4","last_reported":1765887858,"current_range_meters":6400,"station_id":"","pricing_plan_id":"cebpf4jnsgd1na2vs0mg"},{"bike_id":"c12e9237-e0ba-41c7-9f27-5ed59f8914bf","system_id":"levelo_inurba_marseille","lat":43.2408,"lon":5.37757,"is_reserved":false,"is_disabled":false,"rental_uris":{"android":"levelo://app?vid=c12e9237-e0ba-41c7-9f27-5ed59f8914bf","ios":"levelo://app?vid=c12e9237-e0ba-41c7-9f27-5ed59f8914bf"},"vehicle_type_id":"4","last_reported":1765887858,"current_range_meters":6400,"station_id":"ce4bhnp2rcd13ifvqgvg","pricing_plan_id":"cebpf4jnsgd1na2vs0mg"},{"bike_id":"17054cb0-9a4b-4e43-85e9-195bd3672f2a","system_id":"levelo_inurba_marseille","lat":43.26365,"lon":5.41087,"is_reserved":false,"is_disabled":false,"rental_uris":{"android":"levelo://app?vid=17054cb0-9a4b-4e43-85e9-195bd3672f2a","ios":"levelo://app?vid=17054cb0-9a4b-4e43-85e9-195bd3672f2a"},"vehicle_type_id":"4","last_reported":1765887858,"current_range_meters":6400,"station_id":"st_d4e5ca6na9uc73bfl5fg","pricing_plan_id":"cebpf4jnsgd1na2vs0mg"},{"bike_id":"8f076c74-59b9-49bb-bac4-501ac7900e2b","system_id":"levelo_inurba_marseille","lat":43.30303,"lon":5.36891,"is_reserved":false,"is_disabled":false,"rental_uris":{"android":"levelo://app?vid=8f076c74-59b9-49bb-bac4-501ac7900e2b","ios":"levelo://app?vid=8f076c74-59b9-49bb-bac4-501ac7900e2b"},"vehicle_type_id":"4","last_reported":1765887858,"current_range_meters":6400,"station_id":"ce4bgqh2rcd13ifvqc5g","pricing_plan_id":"cebpf4jnsgd1na2vs0mg"},{"bike_id":"4b4e7998-1829-4838-b65c-b08ec7ab9d1d","system_id":"levelo_inurba_marseille","lat":43.30183,"lon":5.36627,"is_reserved":false,"is_disabled":false,"rental_uris":{"android":"levelo://app?vid=4b4e7998-1829-4838-b65c-b08ec7ab9d1d","ios":"levelo://app?vid=4b4e7998-1829-4838-b65c-b08ec7ab9d1d"},"vehicle_type_id":"4","last_reported":1765887858,"current_range_meters":6800,"station_id":"ce4bgrh2rcd13ifvqc8g","pricing_plan_id":"cebpf4jnsgd1na2vs0mg"},{"bike_id":"a7e3ace6-d44a-4c63-99da-1687ceacd258","system_id":"levelo_inurba_marseille","lat":43.309167,"lon":5.368563,"is_reserved":false,"is_disabled":false,"rental_uris":{"android":"levelo://app?vid=a7e3ace6-d44a-4c63-99da-1687ceacd258","ios":"levelo://app?vid=a7e3ace6-d44a-4c63-99da-1687ceacd258"},"vehicle_type_id":"4","last_reported":1765887858,"current_range_meters":6800,"station_id":"ce4bgn92rcd13ifvqbvg","pricing_plan_id":"cebpf4jnsgd1na2vs0mg"},{"bike_id":"7150a3f2-b3d9-4219-a22e-e8facc248a29","system_id":"levelo_inurba_marseille","lat":43.30168,"lon":5.36637,"is_reserved":false,"is_disabled":false,"rental_uris":{"android":"levelo://app?vid=7150a3f2-b3d9-4219-a22e-e8facc248a29","ios":"levelo://app?vid=7150a3f2-b3d9-4219-a22e-e8facc248a29"},"vehicle_type_id":"4","last_reported":1765887858,"current_range_meters":6800,"station_id":"ce4bgrh2rcd13ifvqc8g","pricing_plan_id":"cebpf4jnsgd1na2vs0mg"},{"bike_id":"0300703c-eb70-486d-8dcb-3ab8dd70d6cc","system_id":"levelo_inurba_marseille","lat":43.28536,"lon":5.44104,"is_reserved":false,"is_disabled":false,"rental_uris":{"android":"levelo://app?vid=0300703c-eb70-486d-8dcb-3ab8dd70d6cc","ios":"levelo://app?vid=0300703c-eb70-486d-8dcb-3ab8dd70d6cc"},"vehicle_type_id":"4","last_reported":1765887858,"current_range_meters":6800,"station_id":"st_d3j3df2ikq2c7380ej80","pricing_plan_id":"cebpf4jnsgd1na2vs0mg"},{"bike_id":"960921cb-e531-4892-9a62-233a8cf2732c","system_id":"levelo_inurba_marseille","lat":43.341405,"lon":5.40915,"is_reserved":false,"is_disabled":false,"rental_uris":{"android":"levelo://app?vid=960921cb-e531-4892-9a62-233a8cf2732c","ios":"levelo://app?vid=960921cb-e531-4892-9a62-233a8cf2732c"},"vehicle_type_id":"4","last_reported":1765887858,"current_range_meters":6800,"station_id":"ce4bhqh2rcd13ifvqhlg","pricing_plan_id":"cebpf4jnsgd1na2vs0mg"},{"bike_id":"aac3a556-eab0-4156-bc9c-29564664e6f5","system_id":"levelo_inurba_marseille","lat":43.337725,"lon":5.374316,"is_reserved":false,"is_disabled":false,"rental_uris":{"android":"levelo://app?vid=aac3a556-eab0-4156-bc9c-29564664e6f5","ios":"levelo://app?vid=aac3a556-eab0-4156-bc9c-29564664e6f5"},"vehicle_type_id":"4","last_reported":1765887858,"current_range_meters":6800,"station_id":"","pricing_plan_id":"cebpf4jnsgd1na2vs0mg"},{"bike_id":"b5d63cab-7292-4c85-8075-cef67fadeb9d","system_id":"levelo_inurba_marseille","lat":43.28473,"lon":5.48398,"is_reserved":false,"is_disabled":false,"rental_uris":{"android":"levelo://app?vid=b5d63cab-7292-4c85-8075-cef67fadeb9d","ios":"levelo://app?vid=b5d63cab-7292-4c85-8075-cef67fadeb9d"},"vehicle_type_id":"4","last_reported":1765887858,"current_range_meters":6800,"station_id":"st_d3svhcjqgbts73a3dn0g","pricing_plan_id":"cebpf4jnsgd1na2vs0mg"},{"bike_id":"e5967918-583b-4714-bec6-e89ae6b5ee60","system_id":"levelo_inurba_marseille","lat":43.26689,"lon":5.382736,"is_reserved":false,"is_disabled":false,"rental_uris":{"android":"levelo://app?vid=e5967918-583b-4714-bec6-e89ae6b5ee60","ios":"levelo://app?vid=e5967918-583b-4714-bec6-e89ae6b5ee60"},"vehicle_type_id":"4","last_reported":1765887858,"current_range_meters":6800,"station_id":"ce4bhg92rcd13ifvqf90","pricing_plan_id":"cebpf4jnsgd1na2vs0mg"},{"bike_id":"83896f83-33b9-4829-a690-ca6ae44c7c9a","system_id":"levelo_inurba_marseille","lat":43.28975,"lon":5.3784,"is_reserved":false,"is_disabled":false,"rental_uris":{"android":"levelo://app?vid=83896f83-33b9-4829-a690-ca6ae44c7c9a","ios":"levelo://app?vid=83896f83-33b9-4829-a690-ca6ae44c7c9a"},"vehicle_type_id":"4","last_reported":1765887858,"current_range_meters":6800,"station_id":"ce4bh9p2rcd13ifvqed0","pricing_plan_id":"cebpf4jnsgd1na2vs0mg"},{"bike_id":"0b07cc94-0470-42f2-b500-46c310285bac","system_id":"levelo_inurba_marseille","lat":43.26941,"lon":5.38915,"is_reserved":false,"is_disabled":false,"rental_uris":{"android":"levelo://app?vid=0b07cc94-0470-42f2-b500-46c310285bac","ios":"levelo://app?vid=0b07cc94-0470-42f2-b500-46c310285bac"},"vehicle_type_id":"4","last_reported":1765887858,"current_range_meters":6800,"station_id":"ce4bhhh2rcd13ifvqfl0","pricing_plan_id":"cebpf4jnsgd1na2vs0mg"},{"bike_id":"0224f08a-bd8a-4dcc-9ae0-e6df47d6d7f2","system_id":"levelo_inurba_marseille","lat":43.337444,"lon":5.374475,"is_reserved":false,"is_disabled":false,"rental_uris":{"android":"levelo://app?vid=0224f08a-bd8a-4dcc-9ae0-e6df47d6d7f2","ios":"levelo://app?vid=0224f08a-bd8a-4dcc-9ae0-e6df47d6d7f2"},"vehicle_type_id":"4","last_reported":1765887858,"current_range_meters":6800,"station_id":"","pricing_plan_id":"cebpf4jnsgd1na2vs0mg"},{"bike_id":"4db0f712-4962-426c-8649-deb79e15efea","system_id":"levelo_inurba_marseille","lat":43.24063,"lon":5.37768,"is_reserved":false,"is_disabled":false,"rental_uris":{"android":"levelo://app?vid=4db0f712-4962-426c-8649-deb79e15efea","ios":"levelo://app?vid=4db0f712-4962-426c-8649-deb79e15efea"},"vehicle_type_id":"4","last_reported":1765887858,"current_range_meters":7200,"station_id":"ce4bhnp2rcd13ifvqgvg","pricing_plan_id":"cebpf4jnsgd1na2vs0mg"},{"bike_id":"d3c83fe0-d981-40bd-809a-723ce3ba3f18","system_id":"levelo_inurba_marseille","lat":43.31564,"lon":5.3667,"is_reserved":false,"is_disabled":false,"rental_uris":{"android":"levelo://app?vid=d3c83fe0-d981-40bd-809a-723ce3ba3f18","ios":"levelo://app?vid=d3c83fe0-d981-40bd-809a-723ce3ba3f18"},"vehicle_type_id":"4","last_reported":1765887858,"current_range_meters":7200,"station_id":"","pricing_plan_id":"cebpf4jnsgd1na2vs0mg"},{"bike_id":"dfb8a60a-d43f-4cf8-8d3e-47ce7eede152","system_id":"levelo_inurba_marseille","lat":43.337444,"lon":5.374475,"is_reserved":false,"is_disabled":true,"rental_uris":{"android":"levelo://app?vid=dfb8a60a-d43f-4cf8-8d3e-47ce7eede152","ios":"levelo://app?vid=dfb8a60a-d43f-4cf8-8d3e-47ce7eede152"},"vehicle_type_id":"4","last_reported":1765887858,"current_range_meters":7200,"station_id":"","pricing_plan_id":"cebpf4jnsgd1na2vs0mg"},{"bike_id":"86cb98da-ce0d-4bf0-b84d-b72e0c069fbf","system_id":"levelo_inurba_marseille","lat":43.2315,"lon":5.43717,"is_reserved":false,"is_disabled":false,"rental_uris":{"android":"levelo://app?vid=86cb98da-ce0d-4bf0-b84d-b72e0c069fbf","ios":"levelo://app?vid=86cb98da-ce0d-4bf0-b84d-b72e0c069fbf"},"vehicle_type_id":"4","last_reported":1765887858,"current_range_meters":7200,"station_id":"ce4bhmp2rcd13ifvqgog","pricing_plan_id":"cebpf4jnsgd1na2vs0mg"},{"bike_id":"eb86711d-b111-4b2e-92f8-04ced77aef4b","system_id":"levelo_inurba_marseille","lat":43.26266,"lon":5.40398,"is_reserved":false,"is_disabled":false,"rental_uris":{"android":"levelo://app?vid=eb86711d-b111-4b2e-92f8-04ced77aef4b","ios":"levelo://app?vid=eb86711d-b111-4b2e-92f8-04ced77aef4b"},"vehicle_type_id":"4","last_reported":1765887858,"current_range_meters":7200,"station_id":"","pricing_plan_id":"cebpf4jnsgd1na2vs0mg"},{"bike_id":"0e49c737-64fa-42df-b477-b17639740d5d","system_id":"levelo_inurba_marseille","lat":43.21187,"lon":5.35072,"is_reserved":false,"is_disabled":false,"rental_uris":{"android":"levelo://app?vid=0e49c737-64fa-42df-b477-b17639740d5d","ios":"levelo://app?vid=0e49c737-64fa-42df-b477-b17639740d5d"},"vehicle_type_id":"4","last_reported":1765887858,"current_range_meters":7200,"station_id":"","pricing_plan_id":"cebpf4jnsgd1na2vs0mg"},{"bike_id":"df008900-bc4c-41cd-ae99-ab8b3cce350c","system_id":"levelo_inurba_marseille","lat":43.2997,"lon":5.3718,"is_reserved":false,"is_disabled":false,"rental_uris":{"android":"levelo://app?vid=df008900-bc4c-41cd-ae99-ab8b3cce350c","ios":"levelo://app?vid=df008900-bc4c-41cd-ae99-ab8b3cce350c"},"vehicle_type_id":"4","last_reported":1765887858,"current_range_meters":7200,"station_id":"ce4bgr92rcd13ifvqc7g","pricing_plan_id":"cebpf4jnsgd1na2vs0mg"},{"bike_id":"367033a3-5548-451a-85ad-6fd00080cf5f","system_id":"levelo_inurba_marseille","lat":43.29498,"lon":5.37522,"is_reserved":false,"is_disabled":false,"rental_uris":{"android":"levelo://app?vid=367033a3-5548-451a-85ad-6fd00080cf5f","ios":"levelo://app?vid=367033a3-5548-451a-85ad-6fd00080cf5f"},"vehicle_type_id":"4","last_reported":1765887858,"current_range_meters":8000,"station_id":"ce4bgkp2rcd13ifvqbmg","pricing_plan_id":"cebpf4jnsgd1na2vs0mg"},{"bike_id":"a5d71f69-05a2-40d7-bfe2-3a8e95c5eb6d","system_id":"levelo_inurba_marseille","lat":43.27672,"lon":5.38915,"is_reserved":false,"is_disabled":false,"rental_uris":{"android":"levelo://app?vid=a5d71f69-05a2-40d7-bfe2-3a8e95c5eb6d","ios":"levelo://app?vid=a5d71f69-05a2-40d7-bfe2-3a8e95c5eb6d"},"vehicle_type_id":"4","last_reported":1765887858,"current_range_meters":8000,"station_id":"ce4bhi12rcd13ifvqfo0","pricing_plan_id":"cebpf4jnsgd1na2vs0mg"},{"bike_id":"00eafb0b-a777-49c7-ac3f-63c81191ed66","system_id":"levelo_inurba_marseille","lat":43.27622,"lon":5.36112,"is_reserved":false,"is_disabled":false,"rental_uris":{"android":"levelo://app?vid=00eafb0b-a777-49c7-ac3f-63c81191ed66","ios":"levelo://app?vid=00eafb0b-a777-49c7-ac3f-63c81191ed66"},"vehicle_type_id":"4","last_reported":1765887858,"current_range_meters":8000,"station_id":"ce4bgj92rcd13ifvqbe0","pricing_plan_id":"cebpf4jnsgd1na2vs0mg"},{"bike_id":"5e7e082d-c949-4efd-b442-be6d0cf3943e","system_id":"levelo_inurba_marseille","lat":43.24522,"lon":5.40027,"is_reserved":false,"is_disabled":false,"rental_uris":{"android":"levelo://app?vid=5e7e082d-c949-4efd-b442-be6d0cf3943e","ios":"levelo://app?vid=5e7e082d-c949-4efd-b442-be6d0cf3943e"},"vehicle_type_id":"4","last_reported":1765887858,"current_range_meters":8000,"station_id":"","pricing_plan_id":"cebpf4jnsgd1na2vs0mg"},{"bike_id":"9916aee8-38ee-4718-8ab5-188be146fb87","system_id":"levelo_inurba_marseille","lat":43.30064,"lon":5.36545,"is_reserved":false,"is_disabled":false,"rental_uris":{"android":"levelo://app?vid=9916aee8-38ee-4718-8ab5-188be146fb87","ios":"levelo://app?vid=9916aee8-38ee-4718-8ab5-188be146fb87"},"vehicle_type_id":"4","last_reported":1765887858,"current_range_meters":8000,"station_id":"","pricing_plan_id":"cebpf4jnsgd1na2vs0mg"},{"bike_id":"1046e1ae-881e-4bfb-b514-bc3860830077","system_id":"levelo_inurba_marseille","lat":43.29063,"lon":5.37162,"is_reserved":false,"is_disabled":false,"rental_uris":{"android":"levelo://app?vid=1046e1ae-881e-4bfb-b514-bc3860830077","ios":"levelo://app?vid=1046e1ae-881e-4bfb-b514-bc3860830077"},"vehicle_type_id":"4","last_reported":1765887858,"current_range_meters":8400,"station_id":"ce4bh5p2rcd13ifvqe4g","pricing_plan_id":"cebpf4jnsgd1na2vs0mg"},{"bike_id":"e080d691-4951-43e9-9ffd-9277319373bb","system_id":"levelo_inurba_marseille","lat":43.316035,"lon":5.379218,"is_reserved":false,"is_disabled":false,"rental_uris":{"android":"levelo://app?vid=e080d691-4951-43e9-9ffd-9277319373bb","ios":"levelo://app?vid=e080d691-4951-43e9-9ffd-9277319373bb"},"vehicle_type_id":"4","last_reported":1765887858,"current_range_meters":8400,"station_id":"","pricing_plan_id":"cebpf4jnsgd1na2vs0mg"},{"bike_id":"7ca0e605-b45f-4d99-b2d3-33833399c457","system_id":"levelo_inurba_marseille","lat":43.26931,"lon":5.38698,"is_reserved":false,"is_disabled":false,"rental_uris":{"android":"levelo://app?vid=7ca0e605-b45f-4d99-b2d3-33833399c457","ios":"levelo://app?vid=7ca0e605-b45f-4d99-b2d3-33833399c457"},"vehicle_type_id":"4","last_reported":1765887858,"current_range_meters":8400,"station_id":"ce4bhh92rcd13ifvqfh0","pricing_plan_id":"cebpf4jnsgd1na2vs0mg"},{"bike_id":"42944f8c-fd54-45a4-8948-0785338cb92a","system_id":"levelo_inurba_marseille","lat":43.30796,"lon":5.38192,"is_reserved":false,"is_disabled":false,"rental_uris":{"android":"levelo://app?vid=42944f8c-fd54-45a4-8948-0785338cb92a","ios":"levelo://app?vid=42944f8c-fd54-45a4-8948-0785338cb92a"},"vehicle_type_id":"4","last_reported":1765887858,"current_range_meters":8400,"station_id":"ce4bgt12rcd13ifvqce0","pricing_plan_id":"cebpf4jnsgd1na2vs0mg"},{"bike_id":"2600d7c1-1534-4f76-aab2-bf609c047bb4","system_id":"levelo_inurba_marseille","lat":43.27679,"lon":5.388752,"is_reserved":false,"is_disabled":false,"rental_uris":{"android":"levelo://app?vid=2600d7c1-1534-4f76-aab2-bf609c047bb4","ios":"levelo://app?vid=2600d7c1-1534-4f76-aab2-bf609c047bb4"},"vehicle_type_id":"4","last_reported":1765887858,"current_range_meters":8800,"station_id":"ce4bhi12rcd13ifvqfo0","pricing_plan_id":"cebpf4jnsgd1na2vs0mg"},{"bike_id":"a6ed2c81-21f7-42bb-948a-21a0549ca85a","system_id":"levelo_inurba_marseille","lat":43.269375,"lon":5.402623,"is_reserved":false,"is_disabled":false,"rental_uris":{"android":"levelo://app?vid=a6ed2c81-21f7-42bb-948a-21a0549ca85a","ios":"levelo://app?vid=a6ed2c81-21f7-42bb-948a-21a0549ca85a"},"vehicle_type_id":"4","last_reported":1765887858,"current_range_meters":8800,"station_id":"cjm6bp8fraef2m0cb0m0","pricing_plan_id":"cebpf4jnsgd1na2vs0mg"},{"bike_id":"1cddcec7-61b5-44fc-b79f-318324e34da8","system_id":"levelo_inurba_marseille","lat":43.31372,"lon":5.38504,"is_reserved":false,"is_disabled":false,"rental_uris":{"android":"levelo://app?vid=1cddcec7-61b5-44fc-b79f-318324e34da8","ios":"levelo://app?vid=1cddcec7-61b5-44fc-b79f-318324e34da8"},"vehicle_type_id":"4","last_reported":1765887858,"current_range_meters":8800,"station_id":"ce4bgt92rcd13ifvqcf0","pricing_plan_id":"cebpf4jnsgd1na2vs0mg"},{"bike_id":"ae7030ab-2ef4-43fe-969b-2771e6ce928f","system_id":"levelo_inurba_marseille","lat":43.27967,"lon":5.41682,"is_reserved":false,"is_disabled":false,"rental_uris":{"android":"levelo://app?vid=ae7030ab-2ef4-43fe-969b-2771e6ce928f","ios":"levelo://app?vid=ae7030ab-2ef4-43fe-969b-2771e6ce928f"},"vehicle_type_id":"4","last_reported":1765887858,"current_range_meters":8800,"station_id":"ce4bho12rcd13ifvqh1g","pricing_plan_id":"cebpf4jnsgd1na2vs0mg"},{"bike_id":"b3017178-55b4-4238-8f58-051c7a4b328b","system_id":"levelo_inurba_marseille","lat":43.28536,"lon":5.44098,"is_reserved":false,"is_disabled":false,"rental_uris":{"android":"levelo://app?vid=b3017178-55b4-4238-8f58-051c7a4b328b","ios":"levelo://app?vid=b3017178-55b4-4238-8f58-051c7a4b328b"},"vehicle_type_id":"4","last_reported":1765887858,"current_range_meters":8800,"station_id":"st_d3j3df2ikq2c7380ej80","pricing_plan_id":"cebpf4jnsgd1na2vs0mg"},{"bike_id":"7c36070f-bddc-40ed-a333-875a2d58c60c","system_id":"levelo_inurba_marseille","lat":43.26523,"lon":5.39488,"is_reserved":false,"is_disabled":false,"rental_uris":{"android":"levelo://app?vid=7c36070f-bddc-40ed-a333-875a2d58c60c","ios":"levelo://app?vid=7c36070f-bddc-40ed-a333-875a2d58c60c"},"vehicle_type_id":"4","last_reported":1765887858,"current_range_meters":8800,"station_id":"","pricing_plan_id":"cebpf4jnsgd1na2vs0mg"},{"bike_id":"b400b619-ab4a-43f6-871c-407aad335208","system_id":"levelo_inurba_marseille","lat":43.28711,"lon":5.37926,"is_reserved":false,"is_disabled":false,"rental_uris":{"android":"levelo://app?vid=b400b619-ab4a-43f6-871c-407aad335208","ios":"levelo://app?vid=b400b619-ab4a-43f6-871c-407aad335208"},"vehicle_type_id":"4","last_reported":1765887858,"current_range_meters":8800,"station_id":"ce4bh9p2rcd13ifvqec0","pricing_plan_id":"cebpf4jnsgd1na2vs0mg"},{"bike_id":"07146be8-e052-444d-b8a6-3ecbb4e8b421","system_id":"levelo_inurba_marseille","lat":43.286724,"lon":5.363666,"is_reserved":false,"is_disabled":false,"rental_uris":{"android":"levelo://app?vid=07146be8-e052-444d-b8a6-3ecbb4e8b421","ios":"levelo://app?vid=07146be8-e052-444d-b8a6-3ecbb4e8b421"},"vehicle_type_id":"4","last_reported":1765887858,"current_range_meters":8800,"station_id":"ce4bhah2rcd13ifvqej0","pricing_plan_id":"cebpf4jnsgd1na2vs0mg"},{"bike_id":"a59fef70-c689-483c-8d85-5fd358f8f5fe","system_id":"levelo_inurba_marseille","lat":43.28362,"lon":5.3883,"is_reserved":false,"is_disabled":false,"rental_uris":{"android":"levelo://app?vid=a59fef70-c689-483c-8d85-5fd358f8f5fe","ios":"levelo://app?vid=a59fef70-c689-483c-8d85-5fd358f8f5fe"},"vehicle_type_id":"4","last_reported":1765887858,"current_range_meters":9200,"station_id":"","pricing_plan_id":"cebpf4jnsgd1na2vs0mg"},{"bike_id":"6356d692-513f-43d8-acc6-06940ee30f78","system_id":"levelo_inurba_marseille","lat":43.29089,"lon":5.38121,"is_reserved":false,"is_disabled":false,"rental_uris":{"android":"levelo://app?vid=6356d692-513f-43d8-acc6-06940ee30f78","ios":"levelo://app?vid=6356d692-513f-43d8-acc6-06940ee30f78"},"vehicle_type_id":"4","last_reported":1765887858,"current_range_meters":9200,"station_id":"","pricing_plan_id":"cebpf4jnsgd1na2vs0mg"},{"bike_id":"645d4269-85cd-45bc-a133-0960fb7d90f7","system_id":"levelo_inurba_marseille","lat":43.24074,"lon":5.3776,"is_reserved":false,"is_disabled":false,"rental_uris":{"android":"levelo://app?vid=645d4269-85cd-45bc-a133-0960fb7d90f7","ios":"levelo://app?vid=645d4269-85cd-45bc-a133-0960fb7d90f7"},"vehicle_type_id":"4","last_reported":1765887858,"current_range_meters":9200,"station_id":"ce4bhnp2rcd13ifvqgvg","pricing_plan_id":"cebpf4jnsgd1na2vs0mg"},{"bike_id":"d0c0ef1a-0cc3-4dac-b7e8-9af1d11cd42e","system_id":"levelo_inurba_marseille","lat":43.24959,"lon":5.40502,"is_reserved":false,"is_disabled":false,"rental_uris":{"android":"levelo://app?vid=d0c0ef1a-0cc3-4dac-b7e8-9af1d11cd42e","ios":"levelo://app?vid=d0c0ef1a-0cc3-4dac-b7e8-9af1d11cd42e"},"vehicle_type_id":"4","last_reported":1765887858,"current_range_meters":9200,"station_id":"st_d2ngiaodas8pm72gd1h0","pricing_plan_id":"cebpf4jnsgd1na2vs0mg"},{"bike_id":"f4f8013f-0c15-4e1b-9ac9-9b433126e362","system_id":"levelo_inurba_marseille","lat":43.29815,"lon":5.37233,"is_reserved":false,"is_disabled":false,"rental_uris":{"android":"levelo://app?vid=f4f8013f-0c15-4e1b-9ac9-9b433126e362","ios":"levelo://app?vid=f4f8013f-0c15-4e1b-9ac9-9b433126e362"},"vehicle_type_id":"4","last_reported":1765887858,"current_range_meters":9200,"station_id":"","pricing_plan_id":"cebpf4jnsgd1na2vs0mg"},{"bike_id":"20f8b7d0-8719-4bd3-a820-542760417103","system_id":"levelo_inurba_marseille","lat":43.30132,"lon":5.38132,"is_reserved":false,"is_disabled":false,"rental_uris":{"android":"levelo://app?vid=20f8b7d0-8719-4bd3-a820-542760417103","ios":"levelo://app?vid=20f8b7d0-8719-4bd3-a820-542760417103"},"vehicle_type_id":"4","last_reported":1765887858,"current_range_meters":9200,"station_id":"ce4bgjp2rcd13ifvqbh0","pricing_plan_id":"cebpf4jnsgd1na2vs0mg"},{"bike_id":"d66b1817-d5b6-4aac-8df3-2534825b91f9","system_id":"levelo_inurba_marseille","lat":43.29835,"lon":5.36292,"is_reserved":false,"is_disabled":false,"rental_uris":{"android":"levelo://app?vid=d66b1817-d5b6-4aac-8df3-2534825b91f9","ios":"levelo://app?vid=d66b1817-d5b6-4aac-8df3-2534825b91f9"},"vehicle_type_id":"4","last_reported":1765887858,"current_range_meters":9600,"station_id":"ce4bgpp2rcd13ifvqc3g","pricing_plan_id":"cebpf4jnsgd1na2vs0mg"},{"bike_id":"1aae4000-4f4b-4822-8ad6-2328845283f3","system_id":"levelo_inurba_marseille","lat":43.29987,"lon":5.37187,"is_reserved":false,"is_disabled":false,"rental_uris":{"android":"levelo://app?vid=1aae4000-4f4b-4822-8ad6-2328845283f3","ios":"levelo://app?vid=1aae4000-4f4b-4822-8ad6-2328845283f3"},"vehicle_type_id":"4","last_reported":1765887858,"current_range_meters":9600,"station_id":"ce4bgr92rcd13ifvqc7g","pricing_plan_id":"cebpf4jnsgd1na2vs0mg"},{"bike_id":"a0250cd9-047b-4dcb-96a7-b1959783fdaf","system_id":"levelo_inurba_marseille","lat":43.337713,"lon":5.374268,"is_reserved":false,"is_disabled":false,"rental_uris":{"android":"levelo://app?vid=a0250cd9-047b-4dcb-96a7-b1959783fdaf","ios":"levelo://app?vid=a0250cd9-047b-4dcb-96a7-b1959783fdaf"},"vehicle_type_id":"4","last_reported":1765887858,"current_range_meters":9600,"station_id":"","pricing_plan_id":"cebpf4jnsgd1na2vs0mg"},{"bike_id":"71c6674f-8a51-476d-bbe5-276ee5eae537","system_id":"levelo_inurba_marseille","lat":43.27062,"lon":5.42268,"is_reserved":false,"is_disabled":false,"rental_uris":{"android":"levelo://app?vid=71c6674f-8a51-476d-bbe5-276ee5eae537","ios":"levelo://app?vid=71c6674f-8a51-476d-bbe5-276ee5eae537"},"vehicle_type_id":"4","last_reported":1765887858,"current_range_meters":9600,"station_id":"ce4bhk92rcd13ifvqgb0","pricing_plan_id":"cebpf4jnsgd1na2vs0mg"},{"bike_id":"3c636660-a4c9-44f9-a3c8-7904d76de699","system_id":"levelo_inurba_marseille","lat":43.262201,"lon":5.374454,"is_reserved":false,"is_disabled":false,"rental_uris":{"android":"levelo://app?vid=3c636660-a4c9-44f9-a3c8-7904d76de699","ios":"levelo://app?vid=3c636660-a4c9-44f9-a3c8-7904d76de699"},"vehicle_type_id":"4","last_reported":1765887858,"current_range_meters":9600,"station_id":"ce4bhgp2rcd13ifvqfc0","pricing_plan_id":"cebpf4jnsgd1na2vs0mg"},{"bike_id":"7a3e6838-9d3e-4c76-bcee-bdbba33b8ca3","system_id":"levelo_inurba_marseille","lat":43.284749,"lon":5.483974,"is_reserved":false,"is_disabled":false,"rental_uris":{"android":"levelo://app?vid=7a3e6838-9d3e-4c76-bcee-bdbba33b8ca3","ios":"levelo://app?vid=7a3e6838-9d3e-4c76-bcee-bdbba33b8ca3"},"vehicle_type_id":"4","last_reported":1765887858,"current_range_meters":9600,"station_id":"st_d3svhcjqgbts73a3dn0g","pricing_plan_id":"cebpf4jnsgd1na2vs0mg"},{"bike_id":"187e95dd-1ca0-44dd-bfaf-b9ad8a869387","system_id":"levelo_inurba_marseille","lat":43.31436,"lon":5.37399,"is_reserved":false,"is_disabled":false,"rental_uris":{"android":"levelo://app?vid=187e95dd-1ca0-44dd-bfaf-b9ad8a869387","ios":"levelo://app?vid=187e95dd-1ca0-44dd-bfaf-b9ad8a869387"},"vehicle_type_id":"4","last_reported":1765887858,"current_range_meters":10000,"station_id":"","pricing_plan_id":"cebpf4jnsgd1na2vs0mg"},{"bike_id":"bdedb51b-c0c7-4e81-8046-2d1b2001a496","system_id":"levelo_inurba_marseille","lat":43.29533,"lon":5.385493,"is_reserved":false,"is_disabled":true,"rental_uris":{"android":"levelo://app?vid=bdedb51b-c0c7-4e81-8046-2d1b2001a496","ios":"levelo://app?vid=bdedb51b-c0c7-4e81-8046-2d1b2001a496"},"vehicle_type_id":"4","last_reported":1765887858,"current_range_meters":10000,"station_id":"ce4bgih2rcd13ifvqba0","pricing_plan_id":"cebpf4jnsgd1na2vs0mg"},{"bike_id":"de703928-a818-43ad-b2be-d85e3a5f72c8","system_id":"levelo_inurba_marseille","lat":43.284768,"lon":5.484021,"is_reserved":false,"is_disabled":false,"rental_uris":{"android":"levelo://app?vid=de703928-a818-43ad-b2be-d85e3a5f72c8","ios":"levelo://app?vid=de703928-a818-43ad-b2be-d85e3a5f72c8"},"vehicle_type_id":"4","last_reported":1765887858,"current_range_meters":10000,"station_id":"st_d3svhcjqgbts73a3dn0g","pricing_plan_id":"cebpf4jnsgd1na2vs0mg"},{"bike_id":"593a172c-4b80-4e03-a5ab-4eddc889b3cb","system_id":"levelo_inurba_marseille","lat":43.29012,"lon":5.38138,"is_reserved":false,"is_disabled":false,"rental_uris":{"android":"levelo://app?vid=593a172c-4b80-4e03-a5ab-4eddc889b3cb","ios":"levelo://app?vid=593a172c-4b80-4e03-a5ab-4eddc889b3cb"},"vehicle_type_id":"4","last_reported":1765887858,"current_range_meters":10000,"station_id":"ce4bh4p2rcd13ifvqe1g","pricing_plan_id":"cebpf4jnsgd1na2vs0mg"},{"bike_id":"f3a29dab-f9eb-4fef-a367-223c84a46b46","system_id":"levelo_inurba_marseille","lat":43.2677,"lon":5.39433,"is_reserved":false,"is_disabled":false,"rental_uris":{"android":"levelo://app?vid=f3a29dab-f9eb-4fef-a367-223c84a46b46","ios":"levelo://app?vid=f3a29dab-f9eb-4fef-a367-223c84a46b46"},"vehicle_type_id":"4","last_reported":1765887858,"current_range_meters":10000,"station_id":"ce4bhh12rcd13ifvqfg0","pricing_plan_id":"cebpf4jnsgd1na2vs0mg"},{"bike_id":"9f0f320a-9e34-4af8-8f6f-7a4152825910","system_id":"levelo_inurba_marseille","lat":43.30106,"lon":5.43127,"is_reserved":false,"is_disabled":false,"rental_uris":{"android":"levelo://app?vid=9f0f320a-9e34-4af8-8f6f-7a4152825910","ios":"levelo://app?vid=9f0f320a-9e34-4af8-8f6f-7a4152825910"},"vehicle_type_id":"4","last_reported":1765887858,"current_range_meters":10800,"station_id":"st_d3js3co5814s73ftftug","pricing_plan_id":"cebpf4jnsgd1na2vs0mg"},{"bike_id":"b53051f4-dcfe-4033-931c-b06023679117","system_id":"levelo_inurba_marseille","lat":43.30779,"lon":5.37653,"is_reserved":false,"is_disabled":false,"rental_uris":{"android":"levelo://app?vid=b53051f4-dcfe-4033-931c-b06023679117","ios":"levelo://app?vid=b53051f4-dcfe-4033-931c-b06023679117"},"vehicle_type_id":"4","last_reported":1765887858,"current_range_meters":10800,"station_id":"ce4bgv92rcd13ifvqcq0","pricing_plan_id":"cebpf4jnsgd1na2vs0mg"},{"bike_id":"94ad5f4a-de6f-43b0-9c9d-a21df85c9393","system_id":"levelo_inurba_marseille","lat":43.320122,"lon":5.414729,"is_reserved":false,"is_disabled":false,"rental_uris":{"android":"levelo://app?vid=94ad5f4a-de6f-43b0-9c9d-a21df85c9393","ios":"levelo://app?vid=94ad5f4a-de6f-43b0-9c9d-a21df85c9393"},"vehicle_type_id":"4","last_reported":1765887858,"current_range_meters":10800,"station_id":"ce4bhq92rcd13ifvqhkg","pricing_plan_id":"cebpf4jnsgd1na2vs0mg"},{"bike_id":"9b173e86-3ede-4973-b8cb-b42ea2c91907","system_id":"levelo_inurba_marseille","lat":43.310213,"lon":5.393437,"is_reserved":false,"is_disabled":false,"rental_uris":{"android":"levelo://app?vid=9b173e86-3ede-4973-b8cb-b42ea2c91907","ios":"levelo://app?vid=9b173e86-3ede-4973-b8cb-b42ea2c91907"},"vehicle_type_id":"4","last_reported":1765887858,"current_range_meters":10800,"station_id":"","pricing_plan_id":"cebpf4jnsgd1na2vs0mg"},{"bike_id":"f9e14766-119a-4cc9-814a-3510e7849c5d","system_id":"levelo_inurba_marseille","lat":43.285374,"lon":5.481999,"is_reserved":false,"is_disabled":false,"rental_uris":{"android":"levelo://app?vid=f9e14766-119a-4cc9-814a-3510e7849c5d","ios":"levelo://app?vid=f9e14766-119a-4cc9-814a-3510e7849c5d"},"vehicle_type_id":"4","last_reported":1765887858,"current_range_meters":10800,"station_id":"","pricing_plan_id":"cebpf4jnsgd1na2vs0mg"},{"bike_id":"08e06d6d-9496-4403-b8a2-10349ecf84a3","system_id":"levelo_inurba_marseille","lat":43.30114,"lon":5.43132,"is_reserved":false,"is_disabled":false,"rental_uris":{"android":"levelo://app?vid=08e06d6d-9496-4403-b8a2-10349ecf84a3","ios":"levelo://app?vid=08e06d6d-9496-4403-b8a2-10349ecf84a3"},"vehicle_type_id":"4","last_reported":1765887858,"current_range_meters":11200,"station_id":"st_d3js3co5814s73ftftug","pricing_plan_id":"cebpf4jnsgd1na2vs0mg"},{"bike_id":"44f392bf-fa3a-4853-bae6-404b3fa563ab","system_id":"levelo_inurba_marseille","lat":43.24056,"lon":5.37747,"is_reserved":false,"is_disabled":false,"rental_uris":{"android":"levelo://app?vid=44f392bf-fa3a-4853-bae6-404b3fa563ab","ios":"levelo://app?vid=44f392bf-fa3a-4853-bae6-404b3fa563ab"},"vehicle_type_id":"4","last_reported":1765887858,"current_range_meters":11200,"station_id":"","pricing_plan_id":"cebpf4jnsgd1na2vs0mg"},{"bike_id":"6df4c56c-c6f5-4fb1-84fc-9f50cb5ef178","system_id":"levelo_inurba_marseille","lat":43.23191,"lon":5.35589,"is_reserved":false,"is_disabled":true,"rental_uris":{"android":"levelo://app?vid=6df4c56c-c6f5-4fb1-84fc-9f50cb5ef178","ios":"levelo://app?vid=6df4c56c-c6f5-4fb1-84fc-9f50cb5ef178"},"vehicle_type_id":"4","last_reported":1765887858,"current_range_meters":11200,"station_id":"ce4bhu92rcd13ifvqi70","pricing_plan_id":"cebpf4jnsgd1na2vs0mg"},{"bike_id":"cac87912-c676-4b2a-bd7b-433323e0f09c","system_id":"levelo_inurba_marseille","lat":43.28539,"lon":5.44116,"is_reserved":false,"is_disabled":false,"rental_uris":{"android":"levelo://app?vid=cac87912-c676-4b2a-bd7b-433323e0f09c","ios":"levelo://app?vid=cac87912-c676-4b2a-bd7b-433323e0f09c"},"vehicle_type_id":"4","last_reported":1765887858,"current_range_meters":11200,"station_id":"st_d3j3df2ikq2c7380ej80","pricing_plan_id":"cebpf4jnsgd1na2vs0mg"},{"bike_id":"46b9da8e-600f-4b77-a964-111e9eafd3fa","system_id":"levelo_inurba_marseille","lat":43.26457,"lon":5.37361,"is_reserved":false,"is_disabled":false,"rental_uris":{"android":"levelo://app?vid=46b9da8e-600f-4b77-a964-111e9eafd3fa","ios":"levelo://app?vid=46b9da8e-600f-4b77-a964-111e9eafd3fa"},"vehicle_type_id":"4","last_reported":1765887858,"current_range_meters":11200,"station_id":"","pricing_plan_id":"cebpf4jnsgd1na2vs0mg"},{"bike_id":"1dbaa383-1aa6-47ef-8b06-6969a979b35e","system_id":"levelo_inurba_marseille","lat":43.29937,"lon":5.3655,"is_reserved":false,"is_disabled":false,"rental_uris":{"android":"levelo://app?vid=1dbaa383-1aa6-47ef-8b06-6969a979b35e","ios":"levelo://app?vid=1dbaa383-1aa6-47ef-8b06-6969a979b35e"},"vehicle_type_id":"4","last_reported":1765887858,"current_range_meters":11200,"station_id":"ce4bgm92rcd13ifvqbr0","pricing_plan_id":"cebpf4jnsgd1na2vs0mg"},{"bike_id":"5af242e8-7e04-4d52-adb3-be60671fad57","system_id":"levelo_inurba_marseille","lat":43.30119,"lon":5.43114,"is_reserved":false,"is_disabled":false,"rental_uris":{"android":"levelo://app?vid=5af242e8-7e04-4d52-adb3-be60671fad57","ios":"levelo://app?vid=5af242e8-7e04-4d52-adb3-be60671fad57"},"vehicle_type_id":"4","last_reported":1765887858,"current_range_meters":11200,"station_id":"st_d3js3co5814s73ftftug","pricing_plan_id":"cebpf4jnsgd1na2vs0mg"},{"bike_id":"7a3437e6-f3b5-4e7e-bc2b-d836f2cc9416","system_id":"levelo_inurba_marseille","lat":43.30526,"lon":5.36729,"is_reserved":false,"is_disabled":false,"rental_uris":{"android":"levelo://app?vid=7a3437e6-f3b5-4e7e-bc2b-d836f2cc9416","ios":"levelo://app?vid=7a3437e6-f3b5-4e7e-bc2b-d836f2cc9416"},"vehicle_type_id":"4","last_reported":1765887858,"current_range_meters":11200,"station_id":"ce4bgrp2rcd13ifvqc9g","pricing_plan_id":"cebpf4jnsgd1na2vs0mg"},{"bike_id":"fa572029-00ad-43f1-92ae-a858d89b998c","system_id":"levelo_inurba_marseille","lat":43.30277,"lon":5.3771,"is_reserved":false,"is_disabled":false,"rental_uris":{"android":"levelo://app?vid=fa572029-00ad-43f1-92ae-a858d89b998c","ios":"levelo://app?vid=fa572029-00ad-43f1-92ae-a858d89b998c"},"vehicle_type_id":"4","last_reported":1765887858,"current_range_meters":11200,"station_id":"ce4bguh2rcd13ifvqcj0","pricing_plan_id":"cebpf4jnsgd1na2vs0mg"},{"bike_id":"31262add-e6aa-488c-aab7-e30cb4586499","system_id":"levelo_inurba_marseille","lat":43.26569,"lon":5.39009,"is_reserved":false,"is_disabled":false,"rental_uris":{"android":"levelo://app?vid=31262add-e6aa-488c-aab7-e30cb4586499","ios":"levelo://app?vid=31262add-e6aa-488c-aab7-e30cb4586499"},"vehicle_type_id":"4","last_reported":1765887858,"current_range_meters":11600,"station_id":"ce4bhe12rcd13ifvqf30","pricing_plan_id":"cebpf4jnsgd1na2vs0mg"},{"bike_id":"fd7fe341-e9e1-43e0-9282-b94a778a6675","system_id":"levelo_inurba_marseille","lat":43.337444,"lon":5.374475,"is_reserved":false,"is_disabled":false,"rental_uris":{"android":"levelo://app?vid=fd7fe341-e9e1-43e0-9282-b94a778a6675","ios":"levelo://app?vid=fd7fe341-e9e1-43e0-9282-b94a778a6675"},"vehicle_type_id":"4","last_reported":1765887858,"current_range_meters":11600,"station_id":"","pricing_plan_id":"cebpf4jnsgd1na2vs0mg"},{"bike_id":"f0607238-9fab-432e-a6c6-c5acd6257feb","system_id":"levelo_inurba_marseille","lat":43.30353,"lon":5.39294,"is_reserved":false,"is_disabled":true,"rental_uris":{"android":"levelo://app?vid=f0607238-9fab-432e-a6c6-c5acd6257feb","ios":"levelo://app?vid=f0607238-9fab-432e-a6c6-c5acd6257feb"},"vehicle_type_id":"4","last_reported":1765887858,"current_range_meters":11600,"station_id":"","pricing_plan_id":"cebpf4jnsgd1na2vs0mg"},{"bike_id":"c2dbecdc-0ef9-48e5-a6d6-1106c2dfe04a","system_id":"levelo_inurba_marseille","lat":43.274902,"lon":5.424391,"is_reserved":false,"is_disabled":false,"rental_uris":{"android":"levelo://app?vid=c2dbecdc-0ef9-48e5-a6d6-1106c2dfe04a","ios":"levelo://app?vid=c2dbecdc-0ef9-48e5-a6d6-1106c2dfe04a"},"vehicle_type_id":"4","last_reported":1765887858,"current_range_meters":11600,"station_id":"ce4bhn92rcd13ifvqgrg","pricing_plan_id":"cebpf4jnsgd1na2vs0mg"},{"bike_id":"dbd4ee99-e250-413d-bdce-471d46749382","system_id":"levelo_inurba_marseille","lat":43.30537,"lon":5.36724,"is_reserved":false,"is_disabled":false,"rental_uris":{"android":"levelo://app?vid=dbd4ee99-e250-413d-bdce-471d46749382","ios":"levelo://app?vid=dbd4ee99-e250-413d-bdce-471d46749382"},"vehicle_type_id":"4","last_reported":1765887858,"current_range_meters":11600,"station_id":"ce4bgrp2rcd13ifvqc9g","pricing_plan_id":"cebpf4jnsgd1na2vs0mg"},{"bike_id":"f5d9a9b3-558f-4d87-a4a3-2e93dcd5a3b9","system_id":"levelo_inurba_marseille","lat":43.28506,"lon":5.48366,"is_reserved":false,"is_disabled":false,"rental_uris":{"android":"levelo://app?vid=f5d9a9b3-558f-4d87-a4a3-2e93dcd5a3b9","ios":"levelo://app?vid=f5d9a9b3-558f-4d87-a4a3-2e93dcd5a3b9"},"vehicle_type_id":"4","last_reported":1765887858,"current_range_meters":11600,"station_id":"st_d3svhcjqgbts73a3dn0g","pricing_plan_id":"cebpf4jnsgd1na2vs0mg"},{"bike_id":"2fcd73b8-379e-4702-98da-2632faa211c6","system_id":"levelo_inurba_marseille","lat":43.29701,"lon":5.37715,"is_reserved":false,"is_disabled":false,"rental_uris":{"android":"levelo://app?vid=2fcd73b8-379e-4702-98da-2632faa211c6","ios":"levelo://app?vid=2fcd73b8-379e-4702-98da-2632faa211c6"},"vehicle_type_id":"4","last_reported":1765887858,"current_range_meters":11600,"station_id":"ce4bgkh2rcd13ifvqbl0","pricing_plan_id":"cebpf4jnsgd1na2vs0mg"},{"bike_id":"9095e80a-13ef-4441-a322-44bfc7d197dc","system_id":"levelo_inurba_marseille","lat":43.30535,"lon":5.36568,"is_reserved":false,"is_disabled":false,"rental_uris":{"android":"levelo://app?vid=9095e80a-13ef-4441-a322-44bfc7d197dc","ios":"levelo://app?vid=9095e80a-13ef-4441-a322-44bfc7d197dc"},"vehicle_type_id":"4","last_reported":1765887858,"current_range_meters":11600,"station_id":"ce4bgs12rcd13ifvqcag","pricing_plan_id":"cebpf4jnsgd1na2vs0mg"},{"bike_id":"985e76d9-f377-42e6-8fe2-ca92cc88db73","system_id":"levelo_inurba_marseille","lat":43.31395,"lon":5.36673,"is_reserved":false,"is_disabled":false,"rental_uris":{"android":"levelo://app?vid=985e76d9-f377-42e6-8fe2-ca92cc88db73","ios":"levelo://app?vid=985e76d9-f377-42e6-8fe2-ca92cc88db73"},"vehicle_type_id":"4","last_reported":1765887858,"current_range_meters":12000,"station_id":"","pricing_plan_id":"cebpf4jnsgd1na2vs0mg"},{"bike_id":"dcf86aea-2e35-4fc9-b06f-cfd052d91d73","system_id":"levelo_inurba_marseille","lat":43.2119,"lon":5.35075,"is_reserved":false,"is_disabled":false,"rental_uris":{"android":"levelo://app?vid=dcf86aea-2e35-4fc9-b06f-cfd052d91d73","ios":"levelo://app?vid=dcf86aea-2e35-4fc9-b06f-cfd052d91d73"},"vehicle_type_id":"4","last_reported":1765887858,"current_range_meters":12000,"station_id":"st_cvj6sg6p6f1abm77japg","pricing_plan_id":"cebpf4jnsgd1na2vs0mg"},{"bike_id":"bc74ef6c-60c8-4f6c-abb8-03b7a515cf09","system_id":"levelo_inurba_marseille","lat":43.31585,"lon":5.37305,"is_reserved":false,"is_disabled":false,"rental_uris":{"android":"levelo://app?vid=bc74ef6c-60c8-4f6c-abb8-03b7a515cf09","ios":"levelo://app?vid=bc74ef6c-60c8-4f6c-abb8-03b7a515cf09"},"vehicle_type_id":"4","last_reported":1765887858,"current_range_meters":12000,"station_id":"","pricing_plan_id":"cebpf4jnsgd1na2vs0mg"},{"bike_id":"8d0936eb-b8f6-4ce2-a015-ad20ee3fbb14","system_id":"levelo_inurba_marseille","lat":43.24078,"lon":5.37758,"is_reserved":false,"is_disabled":false,"rental_uris":{"android":"levelo://app?vid=8d0936eb-b8f6-4ce2-a015-ad20ee3fbb14","ios":"levelo://app?vid=8d0936eb-b8f6-4ce2-a015-ad20ee3fbb14"},"vehicle_type_id":"4","last_reported":1765887858,"current_range_meters":12000,"station_id":"ce4bhnp2rcd13ifvqgvg","pricing_plan_id":"cebpf4jnsgd1na2vs0mg"},{"bike_id":"cb9f436f-0853-42dc-a5c9-f08fb71d8cba","system_id":"levelo_inurba_marseille","lat":43.34143,"lon":5.40908,"is_reserved":false,"is_disabled":false,"rental_uris":{"android":"levelo://app?vid=cb9f436f-0853-42dc-a5c9-f08fb71d8cba","ios":"levelo://app?vid=cb9f436f-0853-42dc-a5c9-f08fb71d8cba"},"vehicle_type_id":"4","last_reported":1765887858,"current_range_meters":12000,"station_id":"ce4bhqh2rcd13ifvqhlg","pricing_plan_id":"cebpf4jnsgd1na2vs0mg"},{"bike_id":"173dfdab-e48d-4042-9e51-fbddf5d60f74","system_id":"levelo_inurba_marseille","lat":43.27986,"lon":5.41669,"is_reserved":false,"is_disabled":false,"rental_uris":{"android":"levelo://app?vid=173dfdab-e48d-4042-9e51-fbddf5d60f74","ios":"levelo://app?vid=173dfdab-e48d-4042-9e51-fbddf5d60f74"},"vehicle_type_id":"4","last_reported":1765887858,"current_range_meters":12000,"station_id":"ce4bho12rcd13ifvqh1g","pricing_plan_id":"cebpf4jnsgd1na2vs0mg"},{"bike_id":"b959cc19-b00a-4f78-bf9b-f737abeb0c3b","system_id":"levelo_inurba_marseille","lat":43.29479,"lon":5.38298,"is_reserved":false,"is_disabled":false,"rental_uris":{"android":"levelo://app?vid=b959cc19-b00a-4f78-bf9b-f737abeb0c3b","ios":"levelo://app?vid=b959cc19-b00a-4f78-bf9b-f737abeb0c3b"},"vehicle_type_id":"4","last_reported":1765887858,"current_range_meters":12000,"station_id":"","pricing_plan_id":"cebpf4jnsgd1na2vs0mg"},{"bike_id":"9672f7b4-3941-4a08-9640-a232d0ad4eff","system_id":"levelo_inurba_marseille","lat":43.24816,"lon":5.37441,"is_reserved":false,"is_disabled":false,"rental_uris":{"android":"levelo://app?vid=9672f7b4-3941-4a08-9640-a232d0ad4eff","ios":"levelo://app?vid=9672f7b4-3941-4a08-9640-a232d0ad4eff"},"vehicle_type_id":"4","last_reported":1765887858,"current_range_meters":12400,"station_id":"ce4bhgh2rcd13ifvqfb0","pricing_plan_id":"cebpf4jnsgd1na2vs0mg"},{"bike_id":"7f9fff93-e33e-420a-9b54-f8bb1cef799f","system_id":"levelo_inurba_marseille","lat":43.27429,"lon":5.39408,"is_reserved":false,"is_disabled":false,"rental_uris":{"android":"levelo://app?vid=7f9fff93-e33e-420a-9b54-f8bb1cef799f","ios":"levelo://app?vid=7f9fff93-e33e-420a-9b54-f8bb1cef799f"},"vehicle_type_id":"4","last_reported":1765887858,"current_range_meters":12400,"station_id":"ce4bhdp2rcd13ifvqf20","pricing_plan_id":"cebpf4jnsgd1na2vs0mg"},{"bike_id":"c5547eb1-b807-4e32-9a0f-4542087fc227","system_id":"levelo_inurba_marseille","lat":43.31295,"lon":5.37566,"is_reserved":false,"is_disabled":false,"rental_uris":{"android":"levelo://app?vid=c5547eb1-b807-4e32-9a0f-4542087fc227","ios":"levelo://app?vid=c5547eb1-b807-4e32-9a0f-4542087fc227"},"vehicle_type_id":"4","last_reported":1765887858,"current_range_meters":12400,"station_id":"","pricing_plan_id":"cebpf4jnsgd1na2vs0mg"},{"bike_id":"bd024060-3d01-4686-b2d5-3489b843570e","system_id":"levelo_inurba_marseille","lat":43.26945,"lon":5.38653,"is_reserved":false,"is_disabled":false,"rental_uris":{"android":"levelo://app?vid=bd024060-3d01-4686-b2d5-3489b843570e","ios":"levelo://app?vid=bd024060-3d01-4686-b2d5-3489b843570e"},"vehicle_type_id":"4","last_reported":1765887858,"current_range_meters":12400,"station_id":"ce4bhh92rcd13ifvqfh0","pricing_plan_id":"cebpf4jnsgd1na2vs0mg"},{"bike_id":"4c1c7053-1690-46ae-b248-e8260967b03f","system_id":"levelo_inurba_marseille","lat":43.316791,"lon":5.375612,"is_reserved":false,"is_disabled":false,"rental_uris":{"android":"levelo://app?vid=4c1c7053-1690-46ae-b248-e8260967b03f","ios":"levelo://app?vid=4c1c7053-1690-46ae-b248-e8260967b03f"},"vehicle_type_id":"4","last_reported":1765887858,"current_range_meters":12800,"station_id":"","pricing_plan_id":"cebpf4jnsgd1na2vs0mg"},{"bike_id":"d6f90051-adc4-44d1-a726-3c1a90bf2e04","system_id":"levelo_inurba_marseille","lat":43.28216,"lon":5.34898,"is_reserved":false,"is_disabled":false,"rental_uris":{"android":"levelo://app?vid=d6f90051-adc4-44d1-a726-3c1a90bf2e04","ios":"levelo://app?vid=d6f90051-adc4-44d1-a726-3c1a90bf2e04"},"vehicle_type_id":"4","last_reported":1765887858,"current_range_meters":12800,"station_id":"","pricing_plan_id":"cebpf4jnsgd1na2vs0mg"},{"bike_id":"d3a2e4e7-6aac-4366-981a-52d89642477a","system_id":"levelo_inurba_marseille","lat":43.30301,"lon":5.3778,"is_reserved":false,"is_disabled":true,"rental_uris":{"android":"levelo://app?vid=d3a2e4e7-6aac-4366-981a-52d89642477a","ios":"levelo://app?vid=d3a2e4e7-6aac-4366-981a-52d89642477a"},"vehicle_type_id":"4","last_reported":1765887858,"current_range_meters":12800,"station_id":"","pricing_plan_id":"cebpf4jnsgd1na2vs0mg"},{"bike_id":"2ef24484-8e4e-49c0-a3a9-f83b77f53191","system_id":"levelo_inurba_marseille","lat":43.27061,"lon":5.42278,"is_reserved":false,"is_disabled":true,"rental_uris":{"android":"levelo://app?vid=2ef24484-8e4e-49c0-a3a9-f83b77f53191","ios":"levelo://app?vid=2ef24484-8e4e-49c0-a3a9-f83b77f53191"},"vehicle_type_id":"4","last_reported":1765887858,"current_range_meters":12800,"station_id":"ce4bhk92rcd13ifvqgb0","pricing_plan_id":"cebpf4jnsgd1na2vs0mg"},{"bike_id":"b0990504-d9bd-44c9-b240-34452d031dd2","system_id":"levelo_inurba_marseille","lat":43.31373,"lon":5.38508,"is_reserved":false,"is_disabled":false,"rental_uris":{"android":"levelo://app?vid=b0990504-d9bd-44c9-b240-34452d031dd2","ios":"levelo://app?vid=b0990504-d9bd-44c9-b240-34452d031dd2"},"vehicle_type_id":"4","last_reported":1765887858,"current_range_meters":12800,"station_id":"ce4bgt92rcd13ifvqcf0","pricing_plan_id":"cebpf4jnsgd1na2vs0mg"},{"bike_id":"2833047e-5d18-4b3c-9479-5d7320904cd9","system_id":"levelo_inurba_marseille","lat":43.28533,"lon":5.44096,"is_reserved":false,"is_disabled":false,"rental_uris":{"android":"levelo://app?vid=2833047e-5d18-4b3c-9479-5d7320904cd9","ios":"levelo://app?vid=2833047e-5d18-4b3c-9479-5d7320904cd9"},"vehicle_type_id":"4","last_reported":1765887858,"current_range_meters":12800,"station_id":"st_d3j3df2ikq2c7380ej80","pricing_plan_id":"cebpf4jnsgd1na2vs0mg"},{"bike_id":"58141032-fd77-495b-9998-c231fa461851","system_id":"levelo_inurba_marseille","lat":43.31284,"lon":5.36809,"is_reserved":false,"is_disabled":false,"rental_uris":{"android":"levelo://app?vid=58141032-fd77-495b-9998-c231fa461851","ios":"levelo://app?vid=58141032-fd77-495b-9998-c231fa461851"},"vehicle_type_id":"4","last_reported":1765887858,"current_range_meters":12800,"station_id":"","pricing_plan_id":"cebpf4jnsgd1na2vs0mg"},{"bike_id":"9ebcaad2-2e19-4608-9c02-cecea313b5ae","system_id":"levelo_inurba_marseille","lat":43.24627,"lon":5.43188,"is_reserved":false,"is_disabled":false,"rental_uris":{"android":"levelo://app?vid=9ebcaad2-2e19-4608-9c02-cecea313b5ae","ios":"levelo://app?vid=9ebcaad2-2e19-4608-9c02-cecea313b5ae"},"vehicle_type_id":"4","last_reported":1765887858,"current_range_meters":13600,"station_id":"st_d2m6c4gdas8pm72e190g","pricing_plan_id":"cebpf4jnsgd1na2vs0mg"},{"bike_id":"ec025ddd-e46a-46ed-b97d-7c73102604e0","system_id":"levelo_inurba_marseille","lat":43.27306,"lon":5.3915,"is_reserved":false,"is_disabled":false,"rental_uris":{"android":"levelo://app?vid=ec025ddd-e46a-46ed-b97d-7c73102604e0","ios":"levelo://app?vid=ec025ddd-e46a-46ed-b97d-7c73102604e0"},"vehicle_type_id":"4","last_reported":1765887858,"current_range_meters":13600,"station_id":"","pricing_plan_id":"cebpf4jnsgd1na2vs0mg"},{"bike_id":"b5ae6e46-55cd-43d2-a3d0-34a885858b7a","system_id":"levelo_inurba_marseille","lat":43.27922,"lon":5.39564,"is_reserved":false,"is_disabled":false,"rental_uris":{"android":"levelo://app?vid=b5ae6e46-55cd-43d2-a3d0-34a885858b7a","ios":"levelo://app?vid=b5ae6e46-55cd-43d2-a3d0-34a885858b7a"},"vehicle_type_id":"4","last_reported":1765887858,"current_range_meters":13600,"station_id":"ce4bhf92rcd13ifvqf40","pricing_plan_id":"cebpf4jnsgd1na2vs0mg"},{"bike_id":"2d86c40d-4192-41c9-a7b4-db0dc0596bb6","system_id":"levelo_inurba_marseille","lat":43.29252,"lon":5.38442,"is_reserved":false,"is_disabled":false,"rental_uris":{"android":"levelo://app?vid=2d86c40d-4192-41c9-a7b4-db0dc0596bb6","ios":"levelo://app?vid=2d86c40d-4192-41c9-a7b4-db0dc0596bb6"},"vehicle_type_id":"4","last_reported":1765887858,"current_range_meters":13600,"station_id":"ce4bh692rcd13ifvqea0","pricing_plan_id":"cebpf4jnsgd1na2vs0mg"},{"bike_id":"f05b62bf-51c2-416a-9bb9-920886629b58","system_id":"levelo_inurba_marseille","lat":43.31356,"lon":5.3849,"is_reserved":false,"is_disabled":false,"rental_uris":{"android":"levelo://app?vid=f05b62bf-51c2-416a-9bb9-920886629b58","ios":"levelo://app?vid=f05b62bf-51c2-416a-9bb9-920886629b58"},"vehicle_type_id":"4","last_reported":1765887858,"current_range_meters":13600,"station_id":"ce4bgt92rcd13ifvqcf0","pricing_plan_id":"cebpf4jnsgd1na2vs0mg"},{"bike_id":"eb479364-649c-4e59-b035-b23aa12faf5a","system_id":"levelo_inurba_marseille","lat":43.249457,"lon":5.404837,"is_reserved":false,"is_disabled":false,"rental_uris":{"android":"levelo://app?vid=eb479364-649c-4e59-b035-b23aa12faf5a","ios":"levelo://app?vid=eb479364-649c-4e59-b035-b23aa12faf5a"},"vehicle_type_id":"4","last_reported":1765887858,"current_range_meters":13600,"station_id":"st_d2ngiaodas8pm72gd1h0","pricing_plan_id":"cebpf4jnsgd1na2vs0mg"},{"bike_id":"094e6f42-8188-456e-b536-25ce771d7e44","system_id":"levelo_inurba_marseille","lat":43.241664,"lon":5.363884,"is_reserved":false,"is_disabled":false,"rental_uris":{"android":"levelo://app?vid=094e6f42-8188-456e-b536-25ce771d7e44","ios":"levelo://app?vid=094e6f42-8188-456e-b536-25ce771d7e44"},"vehicle_type_id":"4","last_reported":1765887858,"current_range_meters":14000,"station_id":"cpo36qri1sfpv3e86is0","pricing_plan_id":"cebpf4jnsgd1na2vs0mg"},{"bike_id":"cd85a53c-bbdd-4ef6-8a95-6a1984508907","system_id":"levelo_inurba_marseille","lat":43.28608,"lon":5.3988,"is_reserved":false,"is_disabled":false,"rental_uris":{"android":"levelo://app?vid=cd85a53c-bbdd-4ef6-8a95-6a1984508907","ios":"levelo://app?vid=cd85a53c-bbdd-4ef6-8a95-6a1984508907"},"vehicle_type_id":"4","last_reported":1765887858,"current_range_meters":14000,"station_id":"st_d4a7ka997mjs738ck50g","pricing_plan_id":"cebpf4jnsgd1na2vs0mg"},{"bike_id":"e2cbb5e6-3f9d-4a3d-a899-57d885f29ddd","system_id":"levelo_inurba_marseille","lat":43.337444,"lon":5.374475,"is_reserved":false,"is_disabled":false,"rental_uris":{"android":"levelo://app?vid=e2cbb5e6-3f9d-4a3d-a899-57d885f29ddd","ios":"levelo://app?vid=e2cbb5e6-3f9d-4a3d-a899-57d885f29ddd"},"vehicle_type_id":"4","last_reported":1765887858,"current_range_meters":14400,"station_id":"","pricing_plan_id":"cebpf4jnsgd1na2vs0mg"},{"bike_id":"92a8a748-a152-4b5f-b8dd-2bef93ac9964","system_id":"levelo_inurba_marseille","lat":43.24071,"lon":5.37762,"is_reserved":false,"is_disabled":false,"rental_uris":{"android":"levelo://app?vid=92a8a748-a152-4b5f-b8dd-2bef93ac9964","ios":"levelo://app?vid=92a8a748-a152-4b5f-b8dd-2bef93ac9964"},"vehicle_type_id":"4","last_reported":1765887858,"current_range_meters":14400,"station_id":"ce4bhnp2rcd13ifvqgvg","pricing_plan_id":"cebpf4jnsgd1na2vs0mg"},{"bike_id":"f837d56d-31b1-408e-9253-49517fa48e44","system_id":"levelo_inurba_marseille","lat":43.269502,"lon":5.386258,"is_reserved":false,"is_disabled":false,"rental_uris":{"android":"levelo://app?vid=f837d56d-31b1-408e-9253-49517fa48e44","ios":"levelo://app?vid=f837d56d-31b1-408e-9253-49517fa48e44"},"vehicle_type_id":"4","last_reported":1765887858,"current_range_meters":14400,"station_id":"ce4bhh92rcd13ifvqfh0","pricing_plan_id":"cebpf4jnsgd1na2vs0mg"},{"bike_id":"22ba5e64-4d4e-4757-b0b6-9a833ad02d51","system_id":"levelo_inurba_marseille","lat":43.24679,"lon":5.38119,"is_reserved":false,"is_disabled":false,"rental_uris":{"android":"levelo://app?vid=22ba5e64-4d4e-4757-b0b6-9a833ad02d51","ios":"levelo://app?vid=22ba5e64-4d4e-4757-b0b6-9a833ad02d51"},"vehicle_type_id":"4","last_reported":1765887858,"current_range_meters":14400,"station_id":"ce4bhih2rcd13ifvqfr0","pricing_plan_id":"cebpf4jnsgd1na2vs0mg"},{"bike_id":"b32e4917-4651-4915-accd-6ad72ebf913f","system_id":"levelo_inurba_marseille","lat":43.29212,"lon":5.36056,"is_reserved":false,"is_disabled":true,"rental_uris":{"android":"levelo://app?vid=b32e4917-4651-4915-accd-6ad72ebf913f","ios":"levelo://app?vid=b32e4917-4651-4915-accd-6ad72ebf913f"},"vehicle_type_id":"4","last_reported":1765887858,"current_range_meters":14400,"station_id":"ce4bhbh2rcd13ifvqeqg","pricing_plan_id":"cebpf4jnsgd1na2vs0mg"},{"bike_id":"37c64312-bacf-418e-938c-ab682523f7de","system_id":"levelo_inurba_marseille","lat":43.285415,"lon":5.441068,"is_reserved":false,"is_disabled":false,"rental_uris":{"android":"levelo://app?vid=37c64312-bacf-418e-938c-ab682523f7de","ios":"levelo://app?vid=37c64312-bacf-418e-938c-ab682523f7de"},"vehicle_type_id":"4","last_reported":1765887858,"current_range_meters":14400,"station_id":"st_d3j3df2ikq2c7380ej80","pricing_plan_id":"cebpf4jnsgd1na2vs0mg"},{"bike_id":"8377e891-0775-4522-a52c-48ab9aeb4664","system_id":"levelo_inurba_marseille","lat":43.303821,"lon":5.424864,"is_reserved":false,"is_disabled":false,"rental_uris":{"android":"levelo://app?vid=8377e891-0775-4522-a52c-48ab9aeb4664","ios":"levelo://app?vid=8377e891-0775-4522-a52c-48ab9aeb4664"},"vehicle_type_id":"4","last_reported":1765887858,"current_range_meters":14400,"station_id":"ce4bhoh2rcd13ifvqh6g","pricing_plan_id":"cebpf4jnsgd1na2vs0mg"},{"bike_id":"dc139897-2f1c-40a6-8ac6-ec8dec58bbe4","system_id":"levelo_inurba_marseille","lat":43.31486,"lon":5.37288,"is_reserved":false,"is_disabled":false,"rental_uris":{"android":"levelo://app?vid=dc139897-2f1c-40a6-8ac6-ec8dec58bbe4","ios":"levelo://app?vid=dc139897-2f1c-40a6-8ac6-ec8dec58bbe4"},"vehicle_type_id":"4","last_reported":1765887858,"current_range_meters":14800,"station_id":"ce4bgt12rcd13ifvqcd0","pricing_plan_id":"cebpf4jnsgd1na2vs0mg"},{"bike_id":"9fa82477-96ee-478e-b7b8-066aa6a6a0ef","system_id":"levelo_inurba_marseille","lat":43.29784,"lon":5.40421,"is_reserved":false,"is_disabled":false,"rental_uris":{"android":"levelo://app?vid=9fa82477-96ee-478e-b7b8-066aa6a6a0ef","ios":"levelo://app?vid=9fa82477-96ee-478e-b7b8-066aa6a6a0ef"},"vehicle_type_id":"4","last_reported":1765887858,"current_range_meters":14800,"station_id":"ce4bh112rcd13ifvqd90","pricing_plan_id":"cebpf4jnsgd1na2vs0mg"},{"bike_id":"4bbf8a1f-0ae4-4cdf-b267-9b918cacad1a","system_id":"levelo_inurba_marseille","lat":43.28667,"lon":5.36352,"is_reserved":false,"is_disabled":false,"rental_uris":{"android":"levelo://app?vid=4bbf8a1f-0ae4-4cdf-b267-9b918cacad1a","ios":"levelo://app?vid=4bbf8a1f-0ae4-4cdf-b267-9b918cacad1a"},"vehicle_type_id":"4","last_reported":1765887858,"current_range_meters":14800,"station_id":"ce4bhah2rcd13ifvqej0","pricing_plan_id":"cebpf4jnsgd1na2vs0mg"},{"bike_id":"33583a3e-eb6f-4736-a38d-d228e9cd63c0","system_id":"levelo_inurba_marseille","lat":43.29814,"lon":5.44069,"is_reserved":false,"is_disabled":false,"rental_uris":{"android":"levelo://app?vid=33583a3e-eb6f-4736-a38d-d228e9cd63c0","ios":"levelo://app?vid=33583a3e-eb6f-4736-a38d-d228e9cd63c0"},"vehicle_type_id":"4","last_reported":1765887858,"current_range_meters":14800,"station_id":"","pricing_plan_id":"cebpf4jnsgd1na2vs0mg"},{"bike_id":"ab082a5c-b378-4e51-a9a8-a4e2921c11ea","system_id":"levelo_inurba_marseille","lat":43.30544,"lon":5.38417,"is_reserved":false,"is_disabled":false,"rental_uris":{"android":"levelo://app?vid=ab082a5c-b378-4e51-a9a8-a4e2921c11ea","ios":"levelo://app?vid=ab082a5c-b378-4e51-a9a8-a4e2921c11ea"},"vehicle_type_id":"4","last_reported":1765887858,"current_range_meters":14800,"station_id":"ce4bgg92rcd13ifvqb30","pricing_plan_id":"cebpf4jnsgd1na2vs0mg"},{"bike_id":"2ab2710b-733d-44fe-a9f8-fe4cbf8606c7","system_id":"levelo_inurba_marseille","lat":43.33542,"lon":5.37467,"is_reserved":false,"is_disabled":false,"rental_uris":{"android":"levelo://app?vid=2ab2710b-733d-44fe-a9f8-fe4cbf8606c7","ios":"levelo://app?vid=2ab2710b-733d-44fe-a9f8-fe4cbf8606c7"},"vehicle_type_id":"4","last_reported":1765887858,"current_range_meters":14800,"station_id":"st_d46tts09ee8s73dlu43g","pricing_plan_id":"cebpf4jnsgd1na2vs0mg"},{"bike_id":"79087407-a02e-4abe-832a-2de3d85bc945","system_id":"levelo_inurba_marseille","lat":43.24995,"lon":5.38946,"is_reserved":false,"is_disabled":false,"rental_uris":{"android":"levelo://app?vid=79087407-a02e-4abe-832a-2de3d85bc945","ios":"levelo://app?vid=79087407-a02e-4abe-832a-2de3d85bc945"},"vehicle_type_id":"4","last_reported":1765887858,"current_range_meters":14800,"station_id":"ce4bhgp2rcd13ifvqfd0","pricing_plan_id":"cebpf4jnsgd1na2vs0mg"},{"bike_id":"8c2c2ce3-73da-4ebf-ba92-d3797395fcb1","system_id":"levelo_inurba_marseille","lat":43.2465,"lon":5.43138,"is_reserved":false,"is_disabled":true,"rental_uris":{"android":"levelo://app?vid=8c2c2ce3-73da-4ebf-ba92-d3797395fcb1","ios":"levelo://app?vid=8c2c2ce3-73da-4ebf-ba92-d3797395fcb1"},"vehicle_type_id":"4","last_reported":1765887858,"current_range_meters":15200,"station_id":"st_d2m6c4gdas8pm72e190g","pricing_plan_id":"cebpf4jnsgd1na2vs0mg"},{"bike_id":"b972c994-16b3-47fe-974f-b887645957a5","system_id":"levelo_inurba_marseille","lat":43.265576,"lon":5.372854,"is_reserved":false,"is_disabled":false,"rental_uris":{"android":"levelo://app?vid=b972c994-16b3-47fe-974f-b887645957a5","ios":"levelo://app?vid=b972c994-16b3-47fe-974f-b887645957a5"},"vehicle_type_id":"4","last_reported":1765887858,"current_range_meters":15200,"station_id":"ce4bhih2rcd13ifvqfr0","pricing_plan_id":"cebpf4jnsgd1na2vs0mg"},{"bike_id":"f96d197e-d68e-4b9e-b261-84222baa54d9","system_id":"levelo_inurba_marseille","lat":43.2378,"lon":5.36637,"is_reserved":false,"is_disabled":false,"rental_uris":{"android":"levelo://app?vid=f96d197e-d68e-4b9e-b261-84222baa54d9","ios":"levelo://app?vid=f96d197e-d68e-4b9e-b261-84222baa54d9"},"vehicle_type_id":"4","last_reported":1765887858,"current_range_meters":15200,"station_id":"st_d3nk18o9ro0c73en2l3g","pricing_plan_id":"cebpf4jnsgd1na2vs0mg"},{"bike_id":"651b29d3-4f51-4bd5-bf59-d7b9bcb7f108","system_id":"levelo_inurba_marseille","lat":43.25353,"lon":5.42164,"is_reserved":false,"is_disabled":true,"rental_uris":{"android":"levelo://app?vid=651b29d3-4f51-4bd5-bf59-d7b9bcb7f108","ios":"levelo://app?vid=651b29d3-4f51-4bd5-bf59-d7b9bcb7f108"},"vehicle_type_id":"4","last_reported":1765887858,"current_range_meters":15200,"station_id":"st_d2m65c5bi1j21697t3ng","pricing_plan_id":"cebpf4jnsgd1na2vs0mg"},{"bike_id":"5b9b0249-af26-48bc-a6fd-72f489db67a9","system_id":"levelo_inurba_marseille","lat":43.323853,"lon":5.367356,"is_reserved":false,"is_disabled":false,"rental_uris":{"android":"levelo://app?vid=5b9b0249-af26-48bc-a6fd-72f489db67a9","ios":"levelo://app?vid=5b9b0249-af26-48bc-a6fd-72f489db67a9"},"vehicle_type_id":"4","last_reported":1765887858,"current_range_meters":15200,"station_id":"ce4bhsh2rcd13ifvqi2g","pricing_plan_id":"cebpf4jnsgd1na2vs0mg"},{"bike_id":"5d02573e-2aa7-4684-8622-d29060b07fc5","system_id":"levelo_inurba_marseille","lat":43.298442,"lon":5.362769,"is_reserved":false,"is_disabled":false,"rental_uris":{"android":"levelo://app?vid=5d02573e-2aa7-4684-8622-d29060b07fc5","ios":"levelo://app?vid=5d02573e-2aa7-4684-8622-d29060b07fc5"},"vehicle_type_id":"4","last_reported":1765887858,"current_range_meters":15200,"station_id":"ce4bhm92rcd13ifvqglg","pricing_plan_id":"cebpf4jnsgd1na2vs0mg"},{"bike_id":"73622435-c5fd-4005-8594-c94cc5b0c5e3","system_id":"levelo_inurba_marseille","lat":43.29519,"lon":5.39053,"is_reserved":false,"is_disabled":true,"rental_uris":{"android":"levelo://app?vid=73622435-c5fd-4005-8594-c94cc5b0c5e3","ios":"levelo://app?vid=73622435-c5fd-4005-8594-c94cc5b0c5e3"},"vehicle_type_id":"4","last_reported":1765887858,"current_range_meters":15200,"station_id":"ce4bh3p2rcd13ifvqdp0","pricing_plan_id":"cebpf4jnsgd1na2vs0mg"},{"bike_id":"19b66638-3211-46a9-8beb-4f12406d7672","system_id":"levelo_inurba_marseille","lat":43.27283,"lon":5.41078,"is_reserved":false,"is_disabled":false,"rental_uris":{"android":"levelo://app?vid=19b66638-3211-46a9-8beb-4f12406d7672","ios":"levelo://app?vid=19b66638-3211-46a9-8beb-4f12406d7672"},"vehicle_type_id":"4","last_reported":1765887858,"current_range_meters":15200,"station_id":"","pricing_plan_id":"cebpf4jnsgd1na2vs0mg"},{"bike_id":"d5c521b5-e46a-4dc7-9620-7162de33ed0f","system_id":"levelo_inurba_marseille","lat":43.29759,"lon":5.42778,"is_reserved":false,"is_disabled":false,"rental_uris":{"android":"levelo://app?vid=d5c521b5-e46a-4dc7-9620-7162de33ed0f","ios":"levelo://app?vid=d5c521b5-e46a-4dc7-9620-7162de33ed0f"},"vehicle_type_id":"4","last_reported":1765887858,"current_range_meters":15200,"station_id":"st_d3md5207bmas73dh9klg","pricing_plan_id":"cebpf4jnsgd1na2vs0mg"},{"bike_id":"80cfe5dc-c42e-4b1d-b11b-cf8812d53be9","system_id":"levelo_inurba_marseille","lat":43.28849,"lon":5.39296,"is_reserved":false,"is_disabled":false,"rental_uris":{"android":"levelo://app?vid=80cfe5dc-c42e-4b1d-b11b-cf8812d53be9","ios":"levelo://app?vid=80cfe5dc-c42e-4b1d-b11b-cf8812d53be9"},"vehicle_type_id":"4","last_reported":1765887858,"current_range_meters":15200,"station_id":"ce4bh2p2rcd13ifvqdi0","pricing_plan_id":"cebpf4jnsgd1na2vs0mg"},{"bike_id":"9f2dca18-3508-4a29-b83d-4e2afd34ac4d","system_id":"levelo_inurba_marseille","lat":43.262257,"lon":5.40456,"is_reserved":false,"is_disabled":false,"rental_uris":{"android":"levelo://app?vid=9f2dca18-3508-4a29-b83d-4e2afd34ac4d","ios":"levelo://app?vid=9f2dca18-3508-4a29-b83d-4e2afd34ac4d"},"vehicle_type_id":"4","last_reported":1765887858,"current_range_meters":16000,"station_id":"ce4bhmh2rcd13ifvqgmg","pricing_plan_id":"cebpf4jnsgd1na2vs0mg"},{"bike_id":"6d2b7267-ae67-41db-9a3b-cc6a7577f2f0","system_id":"levelo_inurba_marseille","lat":43.2885,"lon":5.42532,"is_reserved":false,"is_disabled":false,"rental_uris":{"android":"levelo://app?vid=6d2b7267-ae67-41db-9a3b-cc6a7577f2f0","ios":"levelo://app?vid=6d2b7267-ae67-41db-9a3b-cc6a7577f2f0"},"vehicle_type_id":"4","last_reported":1765887858,"current_range_meters":16000,"station_id":"st_d3b462108ojc7389ooeg","pricing_plan_id":"cebpf4jnsgd1na2vs0mg"},{"bike_id":"ddb7d15d-3f99-4d7a-aae0-1a9d45669c33","system_id":"levelo_inurba_marseille","lat":43.23119,"lon":5.43751,"is_reserved":false,"is_disabled":true,"rental_uris":{"android":"levelo://app?vid=ddb7d15d-3f99-4d7a-aae0-1a9d45669c33","ios":"levelo://app?vid=ddb7d15d-3f99-4d7a-aae0-1a9d45669c33"},"vehicle_type_id":"4","last_reported":1765887858,"current_range_meters":16000,"station_id":"","pricing_plan_id":"cebpf4jnsgd1na2vs0mg"},{"bike_id":"5eabb89b-be95-4b4f-a683-fccb6531d8cd","system_id":"levelo_inurba_marseille","lat":43.30961,"lon":5.39272,"is_reserved":false,"is_disabled":false,"rental_uris":{"android":"levelo://app?vid=5eabb89b-be95-4b4f-a683-fccb6531d8cd","ios":"levelo://app?vid=5eabb89b-be95-4b4f-a683-fccb6531d8cd"},"vehicle_type_id":"4","last_reported":1765887858,"current_range_meters":16000,"station_id":"","pricing_plan_id":"cebpf4jnsgd1na2vs0mg"},{"bike_id":"b87f237b-bed1-4605-8614-65c124626701","system_id":"levelo_inurba_marseille","lat":43.31334,"lon":5.36744,"is_reserved":false,"is_disabled":false,"rental_uris":{"android":"levelo://app?vid=b87f237b-bed1-4605-8614-65c124626701","ios":"levelo://app?vid=b87f237b-bed1-4605-8614-65c124626701"},"vehicle_type_id":"4","last_reported":1765887858,"current_range_meters":16000,"station_id":"ce4bgr92rcd13ifvqc6g","pricing_plan_id":"cebpf4jnsgd1na2vs0mg"},{"bike_id":"a46445b0-0e05-4854-90e8-7e9116d714dc","system_id":"levelo_inurba_marseille","lat":43.337634,"lon":5.37441,"is_reserved":false,"is_disabled":false,"rental_uris":{"android":"levelo://app?vid=a46445b0-0e05-4854-90e8-7e9116d714dc","ios":"levelo://app?vid=a46445b0-0e05-4854-90e8-7e9116d714dc"},"vehicle_type_id":"4","last_reported":1765887858,"current_range_meters":16000,"station_id":"","pricing_plan_id":"cebpf4jnsgd1na2vs0mg"},{"bike_id":"88009fd1-4964-4861-9d79-7f8e3fc220eb","system_id":"levelo_inurba_marseille","lat":43.33605,"lon":5.40957,"is_reserved":false,"is_disabled":false,"rental_uris":{"android":"levelo://app?vid=88009fd1-4964-4861-9d79-7f8e3fc220eb","ios":"levelo://app?vid=88009fd1-4964-4861-9d79-7f8e3fc220eb"},"vehicle_type_id":"4","last_reported":1765887858,"current_range_meters":16000,"station_id":"","pricing_plan_id":"cebpf4jnsgd1na2vs0mg"},{"bike_id":"1761dee6-2fc9-43ea-a081-e6bc83df43e8","system_id":"levelo_inurba_marseille","lat":43.31686,"lon":5.37699,"is_reserved":false,"is_disabled":false,"rental_uris":{"android":"levelo://app?vid=1761dee6-2fc9-43ea-a081-e6bc83df43e8","ios":"levelo://app?vid=1761dee6-2fc9-43ea-a081-e6bc83df43e8"},"vehicle_type_id":"4","last_reported":1765887858,"current_range_meters":16400,"station_id":"ce4bgth2rcd13ifvqch0","pricing_plan_id":"cebpf4jnsgd1na2vs0mg"},{"bike_id":"9f40ca96-9b03-40c2-824f-a6918a253dba","system_id":"levelo_inurba_marseille","lat":43.28232,"lon":5.39038,"is_reserved":false,"is_disabled":false,"rental_uris":{"android":"levelo://app?vid=9f40ca96-9b03-40c2-824f-a6918a253dba","ios":"levelo://app?vid=9f40ca96-9b03-40c2-824f-a6918a253dba"},"vehicle_type_id":"4","last_reported":1765887858,"current_range_meters":16400,"station_id":"ce4bhn92rcd13ifvqgsg","pricing_plan_id":"cebpf4jnsgd1na2vs0mg"},{"bike_id":"4fa41bf2-a255-4eea-86fc-52affbe7875d","system_id":"levelo_inurba_marseille","lat":43.2619,"lon":5.37448,"is_reserved":false,"is_disabled":false,"rental_uris":{"android":"levelo://app?vid=4fa41bf2-a255-4eea-86fc-52affbe7875d","ios":"levelo://app?vid=4fa41bf2-a255-4eea-86fc-52affbe7875d"},"vehicle_type_id":"4","last_reported":1765887858,"current_range_meters":16400,"station_id":"ce4bhgp2rcd13ifvqfc0","pricing_plan_id":"cebpf4jnsgd1na2vs0mg"},{"bike_id":"d2e5b3a0-c3df-47b2-89a3-604f4485f33c","system_id":"levelo_inurba_marseille","lat":43.337444,"lon":5.374475,"is_reserved":false,"is_disabled":true,"rental_uris":{"android":"levelo://app?vid=d2e5b3a0-c3df-47b2-89a3-604f4485f33c","ios":"levelo://app?vid=d2e5b3a0-c3df-47b2-89a3-604f4485f33c"},"vehicle_type_id":"4","last_reported":1765887858,"current_range_meters":16400,"station_id":"","pricing_plan_id":"cebpf4jnsgd1na2vs0mg"},{"bike_id":"2d9be9df-3d9b-45f9-8822-775a0a71b6a1","system_id":"levelo_inurba_marseille","lat":43.28151,"lon":5.42639,"is_reserved":false,"is_disabled":false,"rental_uris":{"android":"levelo://app?vid=2d9be9df-3d9b-45f9-8822-775a0a71b6a1","ios":"levelo://app?vid=2d9be9df-3d9b-45f9-8822-775a0a71b6a1"},"vehicle_type_id":"4","last_reported":1765887858,"current_range_meters":16400,"station_id":"ce4bhnh2rcd13ifvqgug","pricing_plan_id":"cebpf4jnsgd1na2vs0mg"},{"bike_id":"499a34fc-f1a1-464a-8193-2260d7c5c51c","system_id":"levelo_inurba_marseille","lat":43.30744,"lon":5.42451,"is_reserved":false,"is_disabled":false,"rental_uris":{"android":"levelo://app?vid=499a34fc-f1a1-464a-8193-2260d7c5c51c","ios":"levelo://app?vid=499a34fc-f1a1-464a-8193-2260d7c5c51c"},"vehicle_type_id":"4","last_reported":1765887858,"current_range_meters":16400,"station_id":"st_cvj6ca6bvosntc0bfgr0","pricing_plan_id":"cebpf4jnsgd1na2vs0mg"},{"bike_id":"1985a16d-974e-4764-a075-1c51a005d839","system_id":"levelo_inurba_marseille","lat":43.298176,"lon":5.440623,"is_reserved":false,"is_disabled":false,"rental_uris":{"android":"levelo://app?vid=1985a16d-974e-4764-a075-1c51a005d839","ios":"levelo://app?vid=1985a16d-974e-4764-a075-1c51a005d839"},"vehicle_type_id":"4","last_reported":1765887858,"current_range_meters":16400,"station_id":"st_d3jp68qikq2c7381ktn0","pricing_plan_id":"cebpf4jnsgd1na2vs0mg"},{"bike_id":"282fa995-69bb-4d59-b72f-92858f4d535d","system_id":"levelo_inurba_marseille","lat":43.30177,"lon":5.36625,"is_reserved":false,"is_disabled":false,"rental_uris":{"android":"levelo://app?vid=282fa995-69bb-4d59-b72f-92858f4d535d","ios":"levelo://app?vid=282fa995-69bb-4d59-b72f-92858f4d535d"},"vehicle_type_id":"4","last_reported":1765887858,"current_range_meters":16400,"station_id":"ce4bgrh2rcd13ifvqc8g","pricing_plan_id":"cebpf4jnsgd1na2vs0mg"},{"bike_id":"64b6d9da-99fb-4f89-b300-f9a85c2b82c0","system_id":"levelo_inurba_marseille","lat":43.301429,"lon":5.37416,"is_reserved":false,"is_disabled":false,"rental_uris":{"android":"levelo://app?vid=64b6d9da-99fb-4f89-b300-f9a85c2b82c0","ios":"levelo://app?vid=64b6d9da-99fb-4f89-b300-f9a85c2b82c0"},"vehicle_type_id":"4","last_reported":1765887858,"current_range_meters":16400,"station_id":"ce4bgs92rcd13ifvqcc0","pricing_plan_id":"cebpf4jnsgd1na2vs0mg"},{"bike_id":"5a015a9a-fc6a-4412-961e-8b275c5ed707","system_id":"levelo_inurba_marseille","lat":43.27336,"lon":5.39102,"is_reserved":false,"is_disabled":false,"rental_uris":{"android":"levelo://app?vid=5a015a9a-fc6a-4412-961e-8b275c5ed707","ios":"levelo://app?vid=5a015a9a-fc6a-4412-961e-8b275c5ed707"},"vehicle_type_id":"4","last_reported":1765887858,"current_range_meters":16400,"station_id":"ce4bhgp2rcd13ifvqfe0","pricing_plan_id":"cebpf4jnsgd1na2vs0mg"},{"bike_id":"a3cf6e32-8a5b-405a-8e1a-e62fc2a41c92","system_id":"levelo_inurba_marseille","lat":43.2802,"lon":5.42134,"is_reserved":false,"is_disabled":false,"rental_uris":{"android":"levelo://app?vid=a3cf6e32-8a5b-405a-8e1a-e62fc2a41c92","ios":"levelo://app?vid=a3cf6e32-8a5b-405a-8e1a-e62fc2a41c92"},"vehicle_type_id":"4","last_reported":1765887858,"current_range_meters":16800,"station_id":"","pricing_plan_id":"cebpf4jnsgd1na2vs0mg"},{"bike_id":"e67c3a20-a572-4d47-b22d-bd27706c2000","system_id":"levelo_inurba_marseille","lat":43.30142,"lon":5.38759,"is_reserved":false,"is_disabled":false,"rental_uris":{"android":"levelo://app?vid=e67c3a20-a572-4d47-b22d-bd27706c2000","ios":"levelo://app?vid=e67c3a20-a572-4d47-b22d-bd27706c2000"},"vehicle_type_id":"4","last_reported":1765887858,"current_range_meters":16800,"station_id":"ce4bghh2rcd13ifvqb60","pricing_plan_id":"cebpf4jnsgd1na2vs0mg"},{"bike_id":"2e2d5abd-a5ef-410b-b72e-d38d80e78f52","system_id":"levelo_inurba_marseille","lat":43.30121,"lon":5.43136,"is_reserved":false,"is_disabled":false,"rental_uris":{"android":"levelo://app?vid=2e2d5abd-a5ef-410b-b72e-d38d80e78f52","ios":"levelo://app?vid=2e2d5abd-a5ef-410b-b72e-d38d80e78f52"},"vehicle_type_id":"4","last_reported":1765887858,"current_range_meters":16800,"station_id":"st_d3js3co5814s73ftftug","pricing_plan_id":"cebpf4jnsgd1na2vs0mg"},{"bike_id":"4824a2bb-7351-4049-8fb9-1f8b55445bbe","system_id":"levelo_inurba_marseille","lat":43.24167,"lon":5.36395,"is_reserved":false,"is_disabled":false,"rental_uris":{"android":"levelo://app?vid=4824a2bb-7351-4049-8fb9-1f8b55445bbe","ios":"levelo://app?vid=4824a2bb-7351-4049-8fb9-1f8b55445bbe"},"vehicle_type_id":"4","last_reported":1765887858,"current_range_meters":16800,"station_id":"cpo36qri1sfpv3e86is0","pricing_plan_id":"cebpf4jnsgd1na2vs0mg"},{"bike_id":"31f3ec68-bf81-4ff3-9b05-9e3dec25ddd5","system_id":"levelo_inurba_marseille","lat":43.30466,"lon":5.37911,"is_reserved":false,"is_disabled":false,"rental_uris":{"android":"levelo://app?vid=31f3ec68-bf81-4ff3-9b05-9e3dec25ddd5","ios":"levelo://app?vid=31f3ec68-bf81-4ff3-9b05-9e3dec25ddd5"},"vehicle_type_id":"4","last_reported":1765887858,"current_range_meters":16800,"station_id":"ce4bgup2rcd13ifvqcn0","pricing_plan_id":"cebpf4jnsgd1na2vs0mg"},{"bike_id":"b8c79d81-a7ce-437c-9c10-52d76f3db7d8","system_id":"levelo_inurba_marseille","lat":43.306464,"lon":5.400769,"is_reserved":false,"is_disabled":false,"rental_uris":{"android":"levelo://app?vid=b8c79d81-a7ce-437c-9c10-52d76f3db7d8","ios":"levelo://app?vid=b8c79d81-a7ce-437c-9c10-52d76f3db7d8"},"vehicle_type_id":"4","last_reported":1765887858,"current_range_meters":16800,"station_id":"","pricing_plan_id":"cebpf4jnsgd1na2vs0mg"},{"bike_id":"6c7631b2-9bb1-45d3-abcd-6fdb69c6f423","system_id":"levelo_inurba_marseille","lat":43.32479,"lon":5.36562,"is_reserved":false,"is_disabled":false,"rental_uris":{"android":"levelo://app?vid=6c7631b2-9bb1-45d3-abcd-6fdb69c6f423","ios":"levelo://app?vid=6c7631b2-9bb1-45d3-abcd-6fdb69c6f423"},"vehicle_type_id":"4","last_reported":1765887858,"current_range_meters":16800,"station_id":"ce4bhs12rcd13ifvqhvg","pricing_plan_id":"cebpf4jnsgd1na2vs0mg"},{"bike_id":"ba3970ea-1713-489a-b609-5f3326dccc78","system_id":"levelo_inurba_marseille","lat":43.337444,"lon":5.374475,"is_reserved":false,"is_disabled":true,"rental_uris":{"android":"levelo://app?vid=ba3970ea-1713-489a-b609-5f3326dccc78","ios":"levelo://app?vid=ba3970ea-1713-489a-b609-5f3326dccc78"},"vehicle_type_id":"4","last_reported":1765887858,"current_range_meters":16800,"station_id":"","pricing_plan_id":"cebpf4jnsgd1na2vs0mg"},{"bike_id":"ddbd0f0e-a1b9-49c1-aeed-8719453f4d8a","system_id":"levelo_inurba_marseille","lat":43.27554,"lon":5.38424,"is_reserved":false,"is_disabled":false,"rental_uris":{"android":"levelo://app?vid=ddbd0f0e-a1b9-49c1-aeed-8719453f4d8a","ios":"levelo://app?vid=ddbd0f0e-a1b9-49c1-aeed-8719453f4d8a"},"vehicle_type_id":"4","last_reported":1765887858,"current_range_meters":16800,"station_id":"ce4bhh92rcd13ifvqfi0","pricing_plan_id":"cebpf4jnsgd1na2vs0mg"},{"bike_id":"82dad92f-136d-4ce5-b362-ce7c3b800179","system_id":"levelo_inurba_marseille","lat":43.271026,"lon":5.396242,"is_reserved":false,"is_disabled":false,"rental_uris":{"android":"levelo://app?vid=82dad92f-136d-4ce5-b362-ce7c3b800179","ios":"levelo://app?vid=82dad92f-136d-4ce5-b362-ce7c3b800179"},"vehicle_type_id":"4","last_reported":1765887858,"current_range_meters":16800,"station_id":"ce4bhhp2rcd13ifvqfm0","pricing_plan_id":"cebpf4jnsgd1na2vs0mg"},{"bike_id":"3810678c-d231-4afa-9600-04bee263798d","system_id":"levelo_inurba_marseille","lat":43.26206,"lon":5.41547,"is_reserved":false,"is_disabled":false,"rental_uris":{"android":"levelo://app?vid=3810678c-d231-4afa-9600-04bee263798d","ios":"levelo://app?vid=3810678c-d231-4afa-9600-04bee263798d"},"vehicle_type_id":"4","last_reported":1765887858,"current_range_meters":16800,"station_id":"","pricing_plan_id":"cebpf4jnsgd1na2vs0mg"},{"bike_id":"ab51e3eb-1d8d-4ebc-825c-82b35f73d191","system_id":"levelo_inurba_marseille","lat":43.30148,"lon":5.37415,"is_reserved":false,"is_disabled":false,"rental_uris":{"android":"levelo://app?vid=ab51e3eb-1d8d-4ebc-825c-82b35f73d191","ios":"levelo://app?vid=ab51e3eb-1d8d-4ebc-825c-82b35f73d191"},"vehicle_type_id":"4","last_reported":1765887858,"current_range_meters":16800,"station_id":"ce4bgs92rcd13ifvqcc0","pricing_plan_id":"cebpf4jnsgd1na2vs0mg"},{"bike_id":"fbc8ea1a-b567-4ee6-a86b-bc4fe5ba24ca","system_id":"levelo_inurba_marseille","lat":43.27058,"lon":5.42295,"is_reserved":false,"is_disabled":false,"rental_uris":{"android":"levelo://app?vid=fbc8ea1a-b567-4ee6-a86b-bc4fe5ba24ca","ios":"levelo://app?vid=fbc8ea1a-b567-4ee6-a86b-bc4fe5ba24ca"},"vehicle_type_id":"4","last_reported":1765887858,"current_range_meters":17200,"station_id":"ce4bhk92rcd13ifvqgb0","pricing_plan_id":"cebpf4jnsgd1na2vs0mg"},{"bike_id":"ee49364c-3ad7-437b-9b29-c52035c6d428","system_id":"levelo_inurba_marseille","lat":43.31346,"lon":5.36746,"is_reserved":false,"is_disabled":false,"rental_uris":{"android":"levelo://app?vid=ee49364c-3ad7-437b-9b29-c52035c6d428","ios":"levelo://app?vid=ee49364c-3ad7-437b-9b29-c52035c6d428"},"vehicle_type_id":"4","last_reported":1765887858,"current_range_meters":17200,"station_id":"ce4bgr92rcd13ifvqc6g","pricing_plan_id":"cebpf4jnsgd1na2vs0mg"},{"bike_id":"03e74853-621e-4e59-8103-de48b526324d","system_id":"levelo_inurba_marseille","lat":43.25936,"lon":5.40908,"is_reserved":false,"is_disabled":false,"rental_uris":{"android":"levelo://app?vid=03e74853-621e-4e59-8103-de48b526324d","ios":"levelo://app?vid=03e74853-621e-4e59-8103-de48b526324d"},"vehicle_type_id":"4","last_reported":1765887858,"current_range_meters":17200,"station_id":"ce4bhm92rcd13ifvqglg","pricing_plan_id":"cebpf4jnsgd1na2vs0mg"},{"bike_id":"f7a7c48a-9529-4a62-870c-83c6bb5fc874","system_id":"levelo_inurba_marseille","lat":43.31273,"lon":5.36663,"is_reserved":false,"is_disabled":false,"rental_uris":{"android":"levelo://app?vid=f7a7c48a-9529-4a62-870c-83c6bb5fc874","ios":"levelo://app?vid=f7a7c48a-9529-4a62-870c-83c6bb5fc874"},"vehicle_type_id":"4","last_reported":1765887858,"current_range_meters":17200,"station_id":"","pricing_plan_id":"cebpf4jnsgd1na2vs0mg"},{"bike_id":"67c7e79a-224b-4b44-989d-014bf008ff29","system_id":"levelo_inurba_marseille","lat":43.33727,"lon":5.3918,"is_reserved":false,"is_disabled":false,"rental_uris":{"android":"levelo://app?vid=67c7e79a-224b-4b44-989d-014bf008ff29","ios":"levelo://app?vid=67c7e79a-224b-4b44-989d-014bf008ff29"},"vehicle_type_id":"4","last_reported":1765887858,"current_range_meters":17200,"station_id":"ce4bhr92rcd13ifvqhsg","pricing_plan_id":"cebpf4jnsgd1na2vs0mg"},{"bike_id":"8e42f5bd-0a55-4d3c-9096-d82a20a55cfc","system_id":"levelo_inurba_marseille","lat":43.286,"lon":5.38356,"is_reserved":false,"is_disabled":false,"rental_uris":{"android":"levelo://app?vid=8e42f5bd-0a55-4d3c-9096-d82a20a55cfc","ios":"levelo://app?vid=8e42f5bd-0a55-4d3c-9096-d82a20a55cfc"},"vehicle_type_id":"4","last_reported":1765887858,"current_range_meters":17200,"station_id":"","pricing_plan_id":"cebpf4jnsgd1na2vs0mg"},{"bike_id":"47386b70-d1a6-403d-bcde-2b22b9b9b4a4","system_id":"levelo_inurba_marseille","lat":43.2918,"lon":5.39307,"is_reserved":false,"is_disabled":true,"rental_uris":{"android":"levelo://app?vid=47386b70-d1a6-403d-bcde-2b22b9b9b4a4","ios":"levelo://app?vid=47386b70-d1a6-403d-bcde-2b22b9b9b4a4"},"vehicle_type_id":"4","last_reported":1765887858,"current_range_meters":17200,"station_id":"ce4bh192rcd13ifvqdd0","pricing_plan_id":"cebpf4jnsgd1na2vs0mg"},{"bike_id":"c942b942-b3f0-46de-9458-cb90386bb8d0","system_id":"levelo_inurba_marseille","lat":43.2407,"lon":5.37763,"is_reserved":false,"is_disabled":false,"rental_uris":{"android":"levelo://app?vid=c942b942-b3f0-46de-9458-cb90386bb8d0","ios":"levelo://app?vid=c942b942-b3f0-46de-9458-cb90386bb8d0"},"vehicle_type_id":"4","last_reported":1765887858,"current_range_meters":17200,"station_id":"ce4bhnp2rcd13ifvqgvg","pricing_plan_id":"cebpf4jnsgd1na2vs0mg"},{"bike_id":"7ff35f83-1e74-47b1-b306-a75e8d53470a","system_id":"levelo_inurba_marseille","lat":43.30136,"lon":5.43168,"is_reserved":false,"is_disabled":false,"rental_uris":{"android":"levelo://app?vid=7ff35f83-1e74-47b1-b306-a75e8d53470a","ios":"levelo://app?vid=7ff35f83-1e74-47b1-b306-a75e8d53470a"},"vehicle_type_id":"4","last_reported":1765887858,"current_range_meters":17200,"station_id":"st_d3js3co5814s73ftftug","pricing_plan_id":"cebpf4jnsgd1na2vs0mg"},{"bike_id":"3559ec2a-d4fa-4a99-8ad6-95237c097e66","system_id":"levelo_inurba_marseille","lat":43.312177,"lon":5.368525,"is_reserved":false,"is_disabled":false,"rental_uris":{"android":"levelo://app?vid=3559ec2a-d4fa-4a99-8ad6-95237c097e66","ios":"levelo://app?vid=3559ec2a-d4fa-4a99-8ad6-95237c097e66"},"vehicle_type_id":"4","last_reported":1765887858,"current_range_meters":17200,"station_id":"ce4bgl92rcd13ifvqbq0","pricing_plan_id":"cebpf4jnsgd1na2vs0mg"},{"bike_id":"4c7183a5-2276-418c-8cb3-1a5de655e169","system_id":"levelo_inurba_marseille","lat":43.2638,"lon":5.41036,"is_reserved":false,"is_disabled":false,"rental_uris":{"android":"levelo://app?vid=4c7183a5-2276-418c-8cb3-1a5de655e169","ios":"levelo://app?vid=4c7183a5-2276-418c-8cb3-1a5de655e169"},"vehicle_type_id":"4","last_reported":1765887858,"current_range_meters":17200,"station_id":"st_d4e5ca6na9uc73bfl5fg","pricing_plan_id":"cebpf4jnsgd1na2vs0mg"},{"bike_id":"5193af94-cd08-4645-ab66-06055fe41ecc","system_id":"levelo_inurba_marseille","lat":43.2645,"lon":5.39313,"is_reserved":false,"is_disabled":false,"rental_uris":{"android":"levelo://app?vid=5193af94-cd08-4645-ab66-06055fe41ecc","ios":"levelo://app?vid=5193af94-cd08-4645-ab66-06055fe41ecc"},"vehicle_type_id":"4","last_reported":1765887858,"current_range_meters":17200,"station_id":"","pricing_plan_id":"cebpf4jnsgd1na2vs0mg"},{"bike_id":"64241879-576c-4442-8e9a-9d904cc084a1","system_id":"levelo_inurba_marseille","lat":43.24996,"lon":5.38939,"is_reserved":false,"is_disabled":false,"rental_uris":{"android":"levelo://app?vid=64241879-576c-4442-8e9a-9d904cc084a1","ios":"levelo://app?vid=64241879-576c-4442-8e9a-9d904cc084a1"},"vehicle_type_id":"4","last_reported":1765887858,"current_range_meters":17200,"station_id":"ce4bhgp2rcd13ifvqfd0","pricing_plan_id":"cebpf4jnsgd1na2vs0mg"},{"bike_id":"80ec9dd0-be08-4981-a35d-953729a18898","system_id":"levelo_inurba_marseille","lat":43.3045,"lon":5.37927,"is_reserved":false,"is_disabled":false,"rental_uris":{"android":"levelo://app?vid=80ec9dd0-be08-4981-a35d-953729a18898","ios":"levelo://app?vid=80ec9dd0-be08-4981-a35d-953729a18898"},"vehicle_type_id":"4","last_reported":1765887858,"current_range_meters":17200,"station_id":"ce4bgup2rcd13ifvqcn0","pricing_plan_id":"cebpf4jnsgd1na2vs0mg"},{"bike_id":"d5f47dab-732d-4f2f-9c2e-2d1173dc7601","system_id":"levelo_inurba_marseille","lat":43.26225,"lon":5.40476,"is_reserved":false,"is_disabled":false,"rental_uris":{"android":"levelo://app?vid=d5f47dab-732d-4f2f-9c2e-2d1173dc7601","ios":"levelo://app?vid=d5f47dab-732d-4f2f-9c2e-2d1173dc7601"},"vehicle_type_id":"4","last_reported":1765887858,"current_range_meters":17600,"station_id":"ce4bhmh2rcd13ifvqgmg","pricing_plan_id":"cebpf4jnsgd1na2vs0mg"},{"bike_id":"325f0ac2-d292-4c5b-acba-55502e937e17","system_id":"levelo_inurba_marseille","lat":43.29814,"lon":5.44058,"is_reserved":false,"is_disabled":false,"rental_uris":{"android":"levelo://app?vid=325f0ac2-d292-4c5b-acba-55502e937e17","ios":"levelo://app?vid=325f0ac2-d292-4c5b-acba-55502e937e17"},"vehicle_type_id":"4","last_reported":1765887858,"current_range_meters":17600,"station_id":"st_d3jp68qikq2c7381ktn0","pricing_plan_id":"cebpf4jnsgd1na2vs0mg"},{"bike_id":"65502716-189f-4d9d-9cba-33f5cf2a30ff","system_id":"levelo_inurba_marseille","lat":43.29815,"lon":5.44068,"is_reserved":false,"is_disabled":false,"rental_uris":{"android":"levelo://app?vid=65502716-189f-4d9d-9cba-33f5cf2a30ff","ios":"levelo://app?vid=65502716-189f-4d9d-9cba-33f5cf2a30ff"},"vehicle_type_id":"4","last_reported":1765887858,"current_range_meters":17600,"station_id":"st_d3jp68qikq2c7381ktn0","pricing_plan_id":"cebpf4jnsgd1na2vs0mg"},{"bike_id":"aae25742-9eeb-49ec-a8e5-f2b92e66260e","system_id":"levelo_inurba_marseille","lat":43.28441,"lon":5.48424,"is_reserved":false,"is_disabled":false,"rental_uris":{"android":"levelo://app?vid=aae25742-9eeb-49ec-a8e5-f2b92e66260e","ios":"levelo://app?vid=aae25742-9eeb-49ec-a8e5-f2b92e66260e"},"vehicle_type_id":"4","last_reported":1765887858,"current_range_meters":17600,"station_id":"st_d3svhcjqgbts73a3dn0g","pricing_plan_id":"cebpf4jnsgd1na2vs0mg"},{"bike_id":"50a5b016-cf9a-497e-8e9c-2f2d39e2c6a3","system_id":"levelo_inurba_marseille","lat":43.32079,"lon":5.36822,"is_reserved":false,"is_disabled":false,"rental_uris":{"android":"levelo://app?vid=50a5b016-cf9a-497e-8e9c-2f2d39e2c6a3","ios":"levelo://app?vid=50a5b016-cf9a-497e-8e9c-2f2d39e2c6a3"},"vehicle_type_id":"4","last_reported":1765887858,"current_range_meters":17600,"station_id":"ce4bhrh2rcd13ifvqhug","pricing_plan_id":"cebpf4jnsgd1na2vs0mg"},{"bike_id":"20fe6be0-dda4-4581-9ce9-d6b30a0492b3","system_id":"levelo_inurba_marseille","lat":43.288652,"lon":5.425182,"is_reserved":false,"is_disabled":false,"rental_uris":{"android":"levelo://app?vid=20fe6be0-dda4-4581-9ce9-d6b30a0492b3","ios":"levelo://app?vid=20fe6be0-dda4-4581-9ce9-d6b30a0492b3"},"vehicle_type_id":"4","last_reported":1765887858,"current_range_meters":17600,"station_id":"st_d3b462108ojc7389ooeg","pricing_plan_id":"cebpf4jnsgd1na2vs0mg"},{"bike_id":"4515132a-3268-4b1c-81eb-02cb63ec18dc","system_id":"levelo_inurba_marseille","lat":43.33158,"lon":5.37701,"is_reserved":false,"is_disabled":false,"rental_uris":{"android":"levelo://app?vid=4515132a-3268-4b1c-81eb-02cb63ec18dc","ios":"levelo://app?vid=4515132a-3268-4b1c-81eb-02cb63ec18dc"},"vehicle_type_id":"4","last_reported":1765887858,"current_range_meters":17600,"station_id":"st_d46cu089ee8s73dldbu0","pricing_plan_id":"cebpf4jnsgd1na2vs0mg"},{"bike_id":"a5f85ed1-5432-4565-9d3f-00675e2bbf99","system_id":"levelo_inurba_marseille","lat":43.30131,"lon":5.38118,"is_reserved":false,"is_disabled":true,"rental_uris":{"android":"levelo://app?vid=a5f85ed1-5432-4565-9d3f-00675e2bbf99","ios":"levelo://app?vid=a5f85ed1-5432-4565-9d3f-00675e2bbf99"},"vehicle_type_id":"4","last_reported":1765887858,"current_range_meters":17600,"station_id":"ce4bgjp2rcd13ifvqbh0","pricing_plan_id":"cebpf4jnsgd1na2vs0mg"},{"bike_id":"ce1ef2d4-3393-4864-b07c-ca8ff9ca92ea","system_id":"levelo_inurba_marseille","lat":43.27799,"lon":5.40683,"is_reserved":false,"is_disabled":false,"rental_uris":{"android":"levelo://app?vid=ce1ef2d4-3393-4864-b07c-ca8ff9ca92ea","ios":"levelo://app?vid=ce1ef2d4-3393-4864-b07c-ca8ff9ca92ea"},"vehicle_type_id":"4","last_reported":1765887858,"current_range_meters":17600,"station_id":"ce4bhnh2rcd13ifvqgtg","pricing_plan_id":"cebpf4jnsgd1na2vs0mg"},{"bike_id":"9d37ea91-906b-40a0-81eb-87a036fc7c29","system_id":"levelo_inurba_marseille","lat":43.282688,"lon":5.350711,"is_reserved":false,"is_disabled":false,"rental_uris":{"android":"levelo://app?vid=9d37ea91-906b-40a0-81eb-87a036fc7c29","ios":"levelo://app?vid=9d37ea91-906b-40a0-81eb-87a036fc7c29"},"vehicle_type_id":"4","last_reported":1765887858,"current_range_meters":17600,"station_id":"ce4bhbp2rcd13ifvqerg","pricing_plan_id":"cebpf4jnsgd1na2vs0mg"},{"bike_id":"26352419-eee7-4d17-9285-311ca20eedf0","system_id":"levelo_inurba_marseille","lat":43.30195,"lon":5.36627,"is_reserved":false,"is_disabled":false,"rental_uris":{"android":"levelo://app?vid=26352419-eee7-4d17-9285-311ca20eedf0","ios":"levelo://app?vid=26352419-eee7-4d17-9285-311ca20eedf0"},"vehicle_type_id":"4","last_reported":1765887858,"current_range_meters":17600,"station_id":"ce4bgrh2rcd13ifvqc8g","pricing_plan_id":"cebpf4jnsgd1na2vs0mg"},{"bike_id":"5b64e687-2ab5-4a68-8b3d-7fc8bb0478bf","system_id":"levelo_inurba_marseille","lat":43.23148,"lon":5.43732,"is_reserved":false,"is_disabled":false,"rental_uris":{"android":"levelo://app?vid=5b64e687-2ab5-4a68-8b3d-7fc8bb0478bf","ios":"levelo://app?vid=5b64e687-2ab5-4a68-8b3d-7fc8bb0478bf"},"vehicle_type_id":"4","last_reported":1765887858,"current_range_meters":18000,"station_id":"ce4bhmp2rcd13ifvqgog","pricing_plan_id":"cebpf4jnsgd1na2vs0mg"},{"bike_id":"30728fe0-93dc-49a4-adc2-35392431a70e","system_id":"levelo_inurba_marseille","lat":43.26955,"lon":5.38628,"is_reserved":false,"is_disabled":false,"rental_uris":{"android":"levelo://app?vid=30728fe0-93dc-49a4-adc2-35392431a70e","ios":"levelo://app?vid=30728fe0-93dc-49a4-adc2-35392431a70e"},"vehicle_type_id":"4","last_reported":1765887858,"current_range_meters":18000,"station_id":"ce4bhh92rcd13ifvqfh0","pricing_plan_id":"cebpf4jnsgd1na2vs0mg"},{"bike_id":"7de989ba-ef07-4de9-9aa0-515264fde8fd","system_id":"levelo_inurba_marseille","lat":43.26954,"lon":5.38634,"is_reserved":false,"is_disabled":false,"rental_uris":{"android":"levelo://app?vid=7de989ba-ef07-4de9-9aa0-515264fde8fd","ios":"levelo://app?vid=7de989ba-ef07-4de9-9aa0-515264fde8fd"},"vehicle_type_id":"4","last_reported":1765887858,"current_range_meters":18000,"station_id":"ce4bhh92rcd13ifvqfh0","pricing_plan_id":"cebpf4jnsgd1na2vs0mg"},{"bike_id":"d0e47d82-46b1-4391-9c6a-cf32785e1c0d","system_id":"levelo_inurba_marseille","lat":43.2848,"lon":5.3845,"is_reserved":false,"is_disabled":true,"rental_uris":{"android":"levelo://app?vid=d0e47d82-46b1-4391-9c6a-cf32785e1c0d","ios":"levelo://app?vid=d0e47d82-46b1-4391-9c6a-cf32785e1c0d"},"vehicle_type_id":"4","last_reported":1765887858,"current_range_meters":18000,"station_id":"ce4bh512rcd13ifvqe3g","pricing_plan_id":"cebpf4jnsgd1na2vs0mg"},{"bike_id":"68162ada-3616-4a3e-99e2-46c98004851e","system_id":"levelo_inurba_marseille","lat":43.30375,"lon":5.42488,"is_reserved":false,"is_disabled":false,"rental_uris":{"android":"levelo://app?vid=68162ada-3616-4a3e-99e2-46c98004851e","ios":"levelo://app?vid=68162ada-3616-4a3e-99e2-46c98004851e"},"vehicle_type_id":"4","last_reported":1765887858,"current_range_meters":18000,"station_id":"ce4bhoh2rcd13ifvqh6g","pricing_plan_id":"cebpf4jnsgd1na2vs0mg"},{"bike_id":"e21f959b-b32b-4121-9b18-45968d8c64ce","system_id":"levelo_inurba_marseille","lat":43.33723,"lon":5.3748,"is_reserved":false,"is_disabled":false,"rental_uris":{"android":"levelo://app?vid=e21f959b-b32b-4121-9b18-45968d8c64ce","ios":"levelo://app?vid=e21f959b-b32b-4121-9b18-45968d8c64ce"},"vehicle_type_id":"4","last_reported":1765887858,"current_range_meters":18000,"station_id":"","pricing_plan_id":"cebpf4jnsgd1na2vs0mg"},{"bike_id":"b59ff811-6970-45fd-b80b-6b10b47be4c7","system_id":"levelo_inurba_marseille","lat":43.28463,"lon":5.35884,"is_reserved":false,"is_disabled":false,"rental_uris":{"android":"levelo://app?vid=b59ff811-6970-45fd-b80b-6b10b47be4c7","ios":"levelo://app?vid=b59ff811-6970-45fd-b80b-6b10b47be4c7"},"vehicle_type_id":"4","last_reported":1765887858,"current_range_meters":18000,"station_id":"ce4bhah2rcd13ifvqei0","pricing_plan_id":"cebpf4jnsgd1na2vs0mg"},{"bike_id":"333a6506-6fc2-4aa8-90d7-4823d52ddbe5","system_id":"levelo_inurba_marseille","lat":43.28536,"lon":5.44099,"is_reserved":false,"is_disabled":false,"rental_uris":{"android":"levelo://app?vid=333a6506-6fc2-4aa8-90d7-4823d52ddbe5","ios":"levelo://app?vid=333a6506-6fc2-4aa8-90d7-4823d52ddbe5"},"vehicle_type_id":"4","last_reported":1765887858,"current_range_meters":18000,"station_id":"st_d3j3df2ikq2c7380ej80","pricing_plan_id":"cebpf4jnsgd1na2vs0mg"},{"bike_id":"c93b87cb-0034-4a55-98ff-df5564894ba8","system_id":"levelo_inurba_marseille","lat":43.31347,"lon":5.36725,"is_reserved":false,"is_disabled":false,"rental_uris":{"android":"levelo://app?vid=c93b87cb-0034-4a55-98ff-df5564894ba8","ios":"levelo://app?vid=c93b87cb-0034-4a55-98ff-df5564894ba8"},"vehicle_type_id":"4","last_reported":1765887858,"current_range_meters":18000,"station_id":"ce4bgr92rcd13ifvqc6g","pricing_plan_id":"cebpf4jnsgd1na2vs0mg"},{"bike_id":"7ee3c49a-b0d6-4ace-9ebc-d7fb564066cf","system_id":"levelo_inurba_marseille","lat":43.2655,"lon":5.37292,"is_reserved":false,"is_disabled":false,"rental_uris":{"android":"levelo://app?vid=7ee3c49a-b0d6-4ace-9ebc-d7fb564066cf","ios":"levelo://app?vid=7ee3c49a-b0d6-4ace-9ebc-d7fb564066cf"},"vehicle_type_id":"4","last_reported":1765887858,"current_range_meters":18000,"station_id":"ce4bhg12rcd13ifvqf70","pricing_plan_id":"cebpf4jnsgd1na2vs0mg"},{"bike_id":"dbb6bbc7-af84-4a1c-b1c2-1d4e179c620c","system_id":"levelo_inurba_marseille","lat":43.301404,"lon":5.374106,"is_reserved":false,"is_disabled":false,"rental_uris":{"android":"levelo://app?vid=dbb6bbc7-af84-4a1c-b1c2-1d4e179c620c","ios":"levelo://app?vid=dbb6bbc7-af84-4a1c-b1c2-1d4e179c620c"},"vehicle_type_id":"4","last_reported":1765887858,"current_range_meters":18800,"station_id":"","pricing_plan_id":"cebpf4jnsgd1na2vs0mg"},{"bike_id":"6dffc6c0-fa04-4069-aa1a-66668ec5b81b","system_id":"levelo_inurba_marseille","lat":43.30465,"lon":5.37912,"is_reserved":false,"is_disabled":false,"rental_uris":{"android":"levelo://app?vid=6dffc6c0-fa04-4069-aa1a-66668ec5b81b","ios":"levelo://app?vid=6dffc6c0-fa04-4069-aa1a-66668ec5b81b"},"vehicle_type_id":"4","last_reported":1765887858,"current_range_meters":18800,"station_id":"ce4bgup2rcd13ifvqcn0","pricing_plan_id":"cebpf4jnsgd1na2vs0mg"},{"bike_id":"9511f591-aa95-4ed8-9c28-9ed5860153f3","system_id":"levelo_inurba_marseille","lat":43.29992,"lon":5.37169,"is_reserved":false,"is_disabled":true,"rental_uris":{"android":"levelo://app?vid=9511f591-aa95-4ed8-9c28-9ed5860153f3","ios":"levelo://app?vid=9511f591-aa95-4ed8-9c28-9ed5860153f3"},"vehicle_type_id":"4","last_reported":1765887858,"current_range_meters":18800,"station_id":"ce4bgr92rcd13ifvqc7g","pricing_plan_id":"cebpf4jnsgd1na2vs0mg"},{"bike_id":"ff97be5b-ccf3-45a0-acce-fa67ef6b054e","system_id":"levelo_inurba_marseille","lat":43.3137,"lon":5.36772,"is_reserved":false,"is_disabled":false,"rental_uris":{"android":"levelo://app?vid=ff97be5b-ccf3-45a0-acce-fa67ef6b054e","ios":"levelo://app?vid=ff97be5b-ccf3-45a0-acce-fa67ef6b054e"},"vehicle_type_id":"4","last_reported":1765887858,"current_range_meters":18800,"station_id":"","pricing_plan_id":"cebpf4jnsgd1na2vs0mg"},{"bike_id":"39499d74-eb6f-4fa0-9998-d5974978d4ab","system_id":"levelo_inurba_marseille","lat":43.27491,"lon":5.42469,"is_reserved":false,"is_disabled":false,"rental_uris":{"android":"levelo://app?vid=39499d74-eb6f-4fa0-9998-d5974978d4ab","ios":"levelo://app?vid=39499d74-eb6f-4fa0-9998-d5974978d4ab"},"vehicle_type_id":"4","last_reported":1765887858,"current_range_meters":18800,"station_id":"ce4bhn92rcd13ifvqgrg","pricing_plan_id":"cebpf4jnsgd1na2vs0mg"},{"bike_id":"53bfbf4d-ba22-41ef-b3bd-9da5262ace56","system_id":"levelo_inurba_marseille","lat":43.31552,"lon":5.38803,"is_reserved":false,"is_disabled":false,"rental_uris":{"android":"levelo://app?vid=53bfbf4d-ba22-41ef-b3bd-9da5262ace56","ios":"levelo://app?vid=53bfbf4d-ba22-41ef-b3bd-9da5262ace56"},"vehicle_type_id":"4","last_reported":1765887858,"current_range_meters":18800,"station_id":"ce4bgt12rcd13ifvqce0","pricing_plan_id":"cebpf4jnsgd1na2vs0mg"},{"bike_id":"ea7c978d-fdee-4c1f-a611-e02237b8b917","system_id":"levelo_inurba_marseille","lat":43.27072,"lon":5.42292,"is_reserved":false,"is_disabled":false,"rental_uris":{"android":"levelo://app?vid=ea7c978d-fdee-4c1f-a611-e02237b8b917","ios":"levelo://app?vid=ea7c978d-fdee-4c1f-a611-e02237b8b917"},"vehicle_type_id":"4","last_reported":1765887858,"current_range_meters":18800,"station_id":"ce4bhk92rcd13ifvqgb0","pricing_plan_id":"cebpf4jnsgd1na2vs0mg"},{"bike_id":"40f85ecc-9625-4aae-9fe2-c3582fc90e67","system_id":"levelo_inurba_marseille","lat":43.2742,"lon":5.39428,"is_reserved":false,"is_disabled":false,"rental_uris":{"android":"levelo://app?vid=40f85ecc-9625-4aae-9fe2-c3582fc90e67","ios":"levelo://app?vid=40f85ecc-9625-4aae-9fe2-c3582fc90e67"},"vehicle_type_id":"4","last_reported":1765887858,"current_range_meters":18800,"station_id":"ce4bhdp2rcd13ifvqf20","pricing_plan_id":"cebpf4jnsgd1na2vs0mg"},{"bike_id":"cb19c46a-9c99-46ca-ae90-dced0257df91","system_id":"levelo_inurba_marseille","lat":43.301058,"lon":5.368609,"is_reserved":false,"is_disabled":false,"rental_uris":{"android":"levelo://app?vid=cb19c46a-9c99-46ca-ae90-dced0257df91","ios":"levelo://app?vid=cb19c46a-9c99-46ca-ae90-dced0257df91"},"vehicle_type_id":"4","last_reported":1765887858,"current_range_meters":18800,"station_id":"","pricing_plan_id":"cebpf4jnsgd1na2vs0mg"},{"bike_id":"7e886a38-571f-450a-8774-3736a884e64e","system_id":"levelo_inurba_marseille","lat":43.27699,"lon":5.38856,"is_reserved":false,"is_disabled":false,"rental_uris":{"android":"levelo://app?vid=7e886a38-571f-450a-8774-3736a884e64e","ios":"levelo://app?vid=7e886a38-571f-450a-8774-3736a884e64e"},"vehicle_type_id":"4","last_reported":1765887858,"current_range_meters":18800,"station_id":"ce4bhi12rcd13ifvqfo0","pricing_plan_id":"cebpf4jnsgd1na2vs0mg"},