{"last_updated":1741248782,"ttl":60,"version":"2.2","data":{"bikes":[{"bike_id":"8fe93df6-2fe6-41ee-aeb3-48d22ff05290","system_id":"levelo_inurba_marseille","lat":43.29152,"lon":5.3862,"is_reserved":false,"is_disabled":false,"rental_uris":{"android":"levelo://app?vid=8fe93df6-2fe6-41ee-aeb3-48d22ff05290","ios":"levelo://app?vid=8fe93df6-2fe6-41ee-aeb3-48d22ff05290"},"vehicle_type_id":"4","last_reported":1741248782,"current_range_meters":2800,"station_id":"","pricing_plan_id":"cebpf4jnsgd1na2vs0mg"},{"bike_id":"cc38dee9-ecfb-436e-a11b-40215f63c381","system_id":"levelo_inurba_marseille","lat":43.30129,"lon":5.39879,"is_reserved":false,"is_disabled":false,"rental_uris":{"android":"levelo://app?vid=cc38dee9-ecfb-436e-a11b-40215f63c381","ios":"levelo://app?vid=cc38dee9-ecfb-436e-a11b-40215f63c381"},"vehicle_type_id":"4","last_reported":1741248782,"current_range_meters":2000,"station_id":"ce4bh0h2rcd13ifvqd40","pricing_plan_id":"cebpf4jnsgd1na2vs0mg"},{"bike_id":"a5f92959-0898-47dc-b5bf-3abfeb242496","system_id":"levelo_inurba_marseille","lat":43.29526,"lon":5.39397,"is_reserved":false,"is_disabled":false,"rental_uris":{"android":"levelo://app?vid=a5f92959-0898-47dc-b5bf-3abfeb242496","ios":"levelo://app?vid=a5f92959-0898-47dc-b5bf-3abfeb242496"},"vehicle_type_id":"4","last_reported":1741248782,"current_range_meters":2800,"station_id":"ce4bh292rcd13ifvqdf0","pricing_plan_id":"cebpf4jnsgd1na2vs0mg"},{"bike_id":"ee1d2ad1-36ca-49dd-a328-f2a9a9994ecb","system_id":"levelo_inurba_marseille","lat":43.310846,"lon":5.381308,"is_reserved":false,"is_disabled":false,"rental_uris":{"android":"levelo://app?vid=ee1d2ad1-36ca-49dd-a328-f2a9a9994ecb","ios":"levelo://app?vid=ee1d2ad1-36ca-49dd-a328-f2a9a9994ecb"},"vehicle_type_id":"4","last_reported":1741248782,"current_range_meters":3200,"station_id":"","pricing_plan_id":"cebpf4jnsgd1na2vs0mg"},{"bike_id":"cb379330-9ecf-41f8-afbd-727337f4b1df","system_id":"levelo_inurba_marseille","lat":43.31363,"lon":5.36713,"is_reserved":false,"is_disabled":false,"rental_uris":{"android":"levelo://app?vid=cb379330-9ecf-41f8-afbd-727337f4b1df","ios":"levelo://app?vid=cb379330-9ecf-41f8-afbd-727337f4b1df"},"vehicle_type_id":"4","last_reported":1741248782,"current_range_meters":3200,"station_id":"ce4bgr92rcd13ifvqc6g","pricing_plan_id":"cebpf4jnsgd1na2vs0mg"},{"bike_id":"e45cf102-f974-413e-96ce-c1aa1b85a5dc","system_id":"levelo_inurba_marseille","lat":43.29283,"lon":5.40126,"is_reserved":false,"is_disabled":false,"rental_uris":{"android":"levelo://app?vid=e45cf102-f974-413e-96ce-c1aa1b85a5dc","ios":"levelo://app?vid=e45cf102-f974-413e-96ce-c1aa1b85a5dc"},"vehicle_type_id":"4","last_reported":1741248782,"current_range_meters":3200,"station_id":"ce4bh312rcd13ifvqdk0","pricing_plan_id":"cebpf4jnsgd1na2vs0mg"},{"bike_id":"54991513-f878-4116-a08f-541b88281cf9","system_id":"levelo_inurba_marseille","lat":43.27988,"lon":5.40007,"is_reserved":false,"is_disabled":true,"rental_uris":{"android":"levelo://app?vid=54991513-f878-4116-a08f-541b88281cf9","ios":"levelo://app?vid=54991513-f878-4116-a08f-541b88281cf9"},"vehicle_type_id":"4","last_reported":1741248782,"current_range_meters":3200,"station_id":"ce4bho92rcd13ifvqh4g","pricing_plan_id":"cebpf4jnsgd1na2vs0mg"},{"bike_id":"c711ab6a-df18-4572-85d8-a9a6ab71f5dd","system_id":"levelo_inurba_marseille","lat":43.29787,"lon":5.38102,"is_reserved":false,"is_disabled":true,"rental_uris":{"android":"levelo://app?vid=c711ab6a-df18-4572-85d8-a9a6ab71f5dd","ios":"levelo://app?vid=c711ab6a-df18-4572-85d8-a9a6ab71f5dd"},"vehicle_type_id":"4","last_reported":1741248782,"current_range_meters":3600,"station_id":"ce4bgip2rcd13ifvqbb0","pricing_plan_id":"cebpf4jnsgd1na2vs0mg"},{"bike_id":"9f76210d-4d3f-4a6b-81a5-10d8db3c8d11","system_id":"levelo_inurba_marseille","lat":43.28701,"lon":5.37942,"is_reserved":false,"is_disabled":false,"rental_uris":{"android":"levelo://app?vid=9f76210d-4d3f-4a6b-81a5-10d8db3c8d11","ios":"levelo://app?vid=9f76210d-4d3f-4a6b-81a5-10d8db3c8d11"},"vehicle_type_id":"4","last_reported":1741248782,"current_range_meters":3600,"station_id":"ce4bh9p2rcd13ifvqec0","pricing_plan_id":"cebpf4jnsgd1na2vs0mg"},{"bike_id":"d1036841-bcdc-450d-813f-db392c9c8545","system_id":"levelo_inurba_marseille","lat":43.25093,"lon":5.40345,"is_reserved":false,"is_disabled":false,"rental_uris":{"android":"levelo://app?vid=d1036841-bcdc-450d-813f-db392c9c8545","ios":"levelo://app?vid=d1036841-bcdc-450d-813f-db392c9c8545"},"vehicle_type_id":"4","last_reported":1741248782,"current_range_meters":3600,"station_id":"ce4bhlh2rcd13ifvqgig","pricing_plan_id":"cebpf4jnsgd1na2vs0mg"},{"bike_id":"d40ca5b7-f8f6-4e3b-ae24-bc399ee648e8","system_id":"levelo_inurba_marseille","lat":43.27815,"lon":5.40728,"is_reserved":false,"is_disabled":false,"rental_uris":{"android":"levelo://app?vid=d40ca5b7-f8f6-4e3b-ae24-bc399ee648e8","ios":"levelo://app?vid=d40ca5b7-f8f6-4e3b-ae24-bc399ee648e8"},"vehicle_type_id":"4","last_reported":1741248782,"current_range_meters":3600,"station_id":"ce4bhnh2rcd13ifvqgtg","pricing_plan_id":"cebpf4jnsgd1na2vs0mg"},{"bike_id":"40d727b2-72cb-498c-8c1a-9c33ec2a16cb","system_id":"levelo_inurba_marseille","lat":43.28154,"lon":5.42658,"is_reserved":false,"is_disabled":false,"rental_uris":{"android":"levelo://app?vid=40d727b2-72cb-498c-8c1a-9c33ec2a16cb","ios":"levelo://app?vid=40d727b2-72cb-498c-8c1a-9c33ec2a16cb"},"vehicle_type_id":"4","last_reported":1741248782,"current_range_meters":3600,"station_id":"ce4bhnh2rcd13ifvqgug","pricing_plan_id":"cebpf4jnsgd1na2vs0mg"},{"bike_id":"8a77dcc0-fb3a-4e57-96c0-17d2b233fd77","system_id":"levelo_inurba_marseille","lat":43.28701,"lon":5.3793,"is_reserved":false,"is_disabled":false,"rental_uris":{"android":"levelo://app?vid=8a77dcc0-fb3a-4e57-96c0-17d2b233fd77","ios":"levelo://app?vid=8a77dcc0-fb3a-4e57-96c0-17d2b233fd77"},"vehicle_type_id":"4","last_reported":1741248782,"current_range_meters":4000,"station_id":"ce4bh9p2rcd13ifvqec0","pricing_plan_id":"cebpf4jnsgd1na2vs0mg"},{"bike_id":"795b3911-f198-49a1-8d8a-a95f21aa490d","system_id":"levelo_inurba_marseille","lat":43.27965,"lon":5.38772,"is_reserved":false,"is_disabled":false,"rental_uris":{"android":"levelo://app?vid=795b3911-f198-49a1-8d8a-a95f21aa490d","ios":"levelo://app?vid=795b3911-f198-49a1-8d8a-a95f21aa490d"},"vehicle_type_id":"4","last_reported":1741248782,"current_range_meters":4000,"station_id":"ce4bhg12rcd13ifvqf80","pricing_plan_id":"cebpf4jnsgd1na2vs0mg"},{"bike_id":"a192c267-5938-4aa7-8ef1-60d2d01ee328","system_id":"levelo_inurba_marseille","lat":43.31213,"lon":5.36869,"is_reserved":false,"is_disabled":false,"rental_uris":{"android":"levelo://app?vid=a192c267-5938-4aa7-8ef1-60d2d01ee328","ios":"levelo://app?vid=a192c267-5938-4aa7-8ef1-60d2d01ee328"},"vehicle_type_id":"4","last_reported":1741248782,"current_range_meters":4000,"station_id":"ce4bgl92rcd13ifvqbq0","pricing_plan_id":"cebpf4jnsgd1na2vs0mg"},{"bike_id":"6b676f0f-92bf-4eac-a0db-df275b567041","system_id":"levelo_inurba_marseille","lat":43.3046,"lon":5.37904,"is_reserved":false,"is_disabled":false,"rental_uris":{"android":"levelo://app?vid=6b676f0f-92bf-4eac-a0db-df275b567041","ios":"levelo://app?vid=6b676f0f-92bf-4eac-a0db-df275b567041"},"vehicle_type_id":"4","last_reported":1741248782,"current_range_meters":4000,"station_id":"ce4bgup2rcd13ifvqcn0","pricing_plan_id":"cebpf4jnsgd1na2vs0mg"},{"bike_id":"4278fde4-80a7-4aae-b633-e2ae44be0565","system_id":"levelo_inurba_marseille","lat":43.31338,"lon":5.36723,"is_reserved":false,"is_disabled":false,"rental_uris":{"android":"levelo://app?vid=4278fde4-80a7-4aae-b633-e2ae44be0565","ios":"levelo://app?vid=4278fde4-80a7-4aae-b633-e2ae44be0565"},"vehicle_type_id":"4","last_reported":1741248782,"current_range_meters":4000,"station_id":"ce4bgr92rcd13ifvqc6g","pricing_plan_id":"cebpf4jnsgd1na2vs0mg"},{"bike_id":"9e463dc6-b6b8-42a5-a8dd-4c1f50af2a4c","system_id":"levelo_inurba_marseille","lat":43.26687,"lon":5.38277,"is_reserved":false,"is_disabled":false,"rental_uris":{"android":"levelo://app?vid=9e463dc6-b6b8-42a5-a8dd-4c1f50af2a4c","ios":"levelo://app?vid=9e463dc6-b6b8-42a5-a8dd-4c1f50af2a4c"},"vehicle_type_id":"4","last_reported":1741248782,"current_range_meters":4000,"station_id":"ce4bhg92rcd13ifvqf90","pricing_plan_id":"cebpf4jnsgd1na2vs0mg"},{"bike_id":"bc28d2af-5623-42ae-bdef-43ec4e1bde8c","system_id":"levelo_inurba_marseille","lat":43.30522,"lon":5.36535,"is_reserved":false,"is_disabled":false,"rental_uris":{"android":"levelo://app?vid=bc28d2af-5623-42ae-bdef-43ec4e1bde8c","ios":"levelo://app?vid=bc28d2af-5623-42ae-bdef-43ec4e1bde8c"},"vehicle_type_id":"4","last_reported":1741248782,"current_range_meters":4000,"station_id":"ce4bgs12rcd13ifvqcag","pricing_plan_id":"cebpf4jnsgd1na2vs0mg"},{"bike_id":"c3e12cd0-5b55-4fa8-9b46-bb2eb8bd5487","system_id":"levelo_inurba_marseille","lat":43.30946,"lon":5.40174,"is_reserved":false,"is_disabled":true,"rental_uris":{"android":"levelo://app?vid=c3e12cd0-5b55-4fa8-9b46-bb2eb8bd5487","ios":"levelo://app?vid=c3e12cd0-5b55-4fa8-9b46-bb2eb8bd5487"},"vehicle_type_id":"4","last_reported":1741248782,"current_range_meters":4000,"station_id":"ce4bgvp2rcd13ifvqct0","pricing_plan_id":"cebpf4jnsgd1na2vs0mg"},{"bike_id":"938ada6e-62cf-47f8-bf09-1a7ad8af1be3","system_id":"levelo_inurba_marseille","lat":43.29299,"lon":5.37466,"is_reserved":false,"is_disabled":false,"rental_uris":{"android":"levelo://app?vid=938ada6e-62cf-47f8-bf09-1a7ad8af1be3","ios":"levelo://app?vid=938ada6e-62cf-47f8-bf09-1a7ad8af1be3"},"vehicle_type_id":"4","last_reported":1741248782,"current_range_meters":4000,"station_id":"ce4bh492rcd13ifvqdug","pricing_plan_id":"cebpf4jnsgd1na2vs0mg"},{"bike_id":"f6662bde-1632-4b0f-a966-f86b33b7c3b9","system_id":"levelo_inurba_marseille","lat":43.33755,"lon":5.3752,"is_reserved":false,"is_disabled":false,"rental_uris":{"android":"levelo://app?vid=f6662bde-1632-4b0f-a966-f86b33b7c3b9","ios":"levelo://app?vid=f6662bde-1632-4b0f-a966-f86b33b7c3b9"},"vehicle_type_id":"4","last_reported":1741248782,"current_range_meters":4400,"station_id":"","pricing_plan_id":"cebpf4jnsgd1na2vs0mg"},{"bike_id":"cdc6f852-7d9e-4b2f-98f9-653f0dbecdc7","system_id":"levelo_inurba_marseille","lat":43.25929,"lon":5.40898,"is_reserved":false,"is_disabled":false,"rental_uris":{"android":"levelo://app?vid=cdc6f852-7d9e-4b2f-98f9-653f0dbecdc7","ios":"levelo://app?vid=cdc6f852-7d9e-4b2f-98f9-653f0dbecdc7"},"vehicle_type_id":"4","last_reported":1741248782,"current_range_meters":4400,"station_id":"ce4bhm92rcd13ifvqglg","pricing_plan_id":"cebpf4jnsgd1na2vs0mg"},{"bike_id":"969c8c12-ecd0-4225-b5e7-603f411cd88e","system_id":"levelo_inurba_marseille","lat":43.28941,"lon":5.39633,"is_reserved":false,"is_disabled":false,"rental_uris":{"android":"levelo://app?vid=969c8c12-ecd0-4225-b5e7-603f411cd88e","ios":"levelo://app?vid=969c8c12-ecd0-4225-b5e7-603f411cd88e"},"vehicle_type_id":"4","last_reported":1741248782,"current_range_meters":4400,"station_id":"ce4bh3h2rcd13ifvqdn0","pricing_plan_id":"cebpf4jnsgd1na2vs0mg"},{"bike_id":"1c0978b7-e0b0-4c04-8863-236630968acd","system_id":"levelo_inurba_marseille","lat":43.25853,"lon":5.40987,"is_reserved":false,"is_disabled":false,"rental_uris":{"android":"levelo://app?vid=1c0978b7-e0b0-4c04-8863-236630968acd","ios":"levelo://app?vid=1c0978b7-e0b0-4c04-8863-236630968acd"},"vehicle_type_id":"4","last_reported":1741248782,"current_range_meters":4400,"station_id":"ce4bhm92rcd13ifvqglg","pricing_plan_id":"cebpf4jnsgd1na2vs0mg"},{"bike_id":"9796ac4f-13e5-41cd-993f-35b958fd78f1","system_id":"levelo_inurba_marseille","lat":43.30957,"lon":5.39049,"is_reserved":false,"is_disabled":false,"rental_uris":{"android":"levelo://app?vid=9796ac4f-13e5-41cd-993f-35b958fd78f1","ios":"levelo://app?vid=9796ac4f-13e5-41cd-993f-35b958fd78f1"},"vehicle_type_id":"4","last_reported":1741248782,"current_range_meters":4400,"station_id":"ce4bgup2rcd13ifvqco0","pricing_plan_id":"cebpf4jnsgd1na2vs0mg"},{"bike_id":"5d327b88-d8a2-4c59-9a43-4a7a4b07402a","system_id":"levelo_inurba_marseille","lat":43.29538,"lon":5.39031,"is_reserved":false,"is_disabled":true,"rental_uris":{"android":"levelo://app?vid=5d327b88-d8a2-4c59-9a43-4a7a4b07402a","ios":"levelo://app?vid=5d327b88-d8a2-4c59-9a43-4a7a4b07402a"},"vehicle_type_id":"4","last_reported":1741248782,"current_range_meters":4400,"station_id":"ce4bh3p2rcd13ifvqdp0","pricing_plan_id":"cebpf4jnsgd1na2vs0mg"},{"bike_id":"e801bcbc-d049-4630-a72d-4b023e7f1e32","system_id":"levelo_inurba_marseille","lat":43.30956,"lon":5.40164,"is_reserved":false,"is_disabled":false,"rental_uris":{"android":"levelo://app?vid=e801bcbc-d049-4630-a72d-4b023e7f1e32","ios":"levelo://app?vid=e801bcbc-d049-4630-a72d-4b023e7f1e32"},"vehicle_type_id":"4","last_reported":1741248782,"current_range_meters":4400,"station_id":"ce4bgvp2rcd13ifvqct0","pricing_plan_id":"cebpf4jnsgd1na2vs0mg"},{"bike_id":"37245f92-27b0-4d71-94ad-9f00978bde25","system_id":"levelo_inurba_marseille","lat":43.27999,"lon":5.40001,"is_reserved":false,"is_disabled":true,"rental_uris":{"android":"levelo://app?vid=37245f92-27b0-4d71-94ad-9f00978bde25","ios":"levelo://app?vid=37245f92-27b0-4d71-94ad-9f00978bde25"},"vehicle_type_id":"4","last_reported":1741248782,"current_range_meters":4400,"station_id":"ce4bho92rcd13ifvqh4g","pricing_plan_id":"cebpf4jnsgd1na2vs0mg"},{"bike_id":"541b7efd-860a-4d8b-831a-30746bc829c1","system_id":"levelo_inurba_marseille","lat":43.32354,"lon":5.38883,"is_reserved":false,"is_disabled":false,"rental_uris":{"android":"levelo://app?vid=541b7efd-860a-4d8b-831a-30746bc829c1","ios":"levelo://app?vid=541b7efd-860a-4d8b-831a-30746bc829c1"},"vehicle_type_id":"4","last_reported":1741248782,"current_range_meters":4800,"station_id":"ce4bhqp2rcd13ifvqhog","pricing_plan_id":"cebpf4jnsgd1na2vs0mg"},{"bike_id":"44a7153b-0fd7-4509-836b-676bbf84fb06","system_id":"levelo_inurba_marseille","lat":43.23186,"lon":5.355608,"is_reserved":false,"is_disabled":false,"rental_uris":{"android":"levelo://app?vid=44a7153b-0fd7-4509-836b-676bbf84fb06","ios":"levelo://app?vid=44a7153b-0fd7-4509-836b-676bbf84fb06"},"vehicle_type_id":"4","last_reported":1741248782,"current_range_meters":4800,"station_id":"ce4bhu92rcd13ifvqi70","pricing_plan_id":"cebpf4jnsgd1na2vs0mg"},{"bike_id":"f2a16f0c-8e0b-4b97-84eb-8bca1bd33eb2","system_id":"levelo_inurba_marseille","lat":43.32534,"lon":5.41495,"is_reserved":false,"is_disabled":false,"rental_uris":{"android":"levelo://app?vid=f2a16f0c-8e0b-4b97-84eb-8bca1bd33eb2","ios":"levelo://app?vid=f2a16f0c-8e0b-4b97-84eb-8bca1bd33eb2"},"vehicle_type_id":"4","last_reported":1741248782,"current_range_meters":5600,"station_id":"ce4bhq12rcd13ifvqhhg","pricing_plan_id":"cebpf4jnsgd1na2vs0mg"},{"bike_id":"03f4b745-3154-42cf-a381-d25d3406601e","system_id":"levelo_inurba_marseille","lat":43.28939,"lon":5.39642,"is_reserved":false,"is_disabled":true,"rental_uris":{"android":"levelo://app?vid=03f4b745-3154-42cf-a381-d25d3406601e","ios":"levelo://app?vid=03f4b745-3154-42cf-a381-d25d3406601e"},"vehicle_type_id":"4","last_reported":1741248782,"current_range_meters":5600,"station_id":"ce4bh3h2rcd13ifvqdn0","pricing_plan_id":"cebpf4jnsgd1na2vs0mg"},{"bike_id":"d20bfba6-3a43-4261-a14b-d008a17bf89a","system_id":"levelo_inurba_marseille","lat":43.24386,"lon":5.37063,"is_reserved":false,"is_disabled":false,"rental_uris":{"android":"levelo://app?vid=d20bfba6-3a43-4261-a14b-d008a17bf89a","ios":"levelo://app?vid=d20bfba6-3a43-4261-a14b-d008a17bf89a"},"vehicle_type_id":"4","last_reported":1741248782,"current_range_meters":5600,"station_id":"ce4bhhh2rcd13ifvqfk0","pricing_plan_id":"cebpf4jnsgd1na2vs0mg"},{"bike_id":"68aa17c1-770a-489a-8e1c-7e245072baa2","system_id":"levelo_inurba_marseille","lat":43.2797,"lon":5.38746,"is_reserved":false,"is_disabled":false,"rental_uris":{"android":"levelo://app?vid=68aa17c1-770a-489a-8e1c-7e245072baa2","ios":"levelo://app?vid=68aa17c1-770a-489a-8e1c-7e245072baa2"},"vehicle_type_id":"4","last_reported":1741248782,"current_range_meters":5600,"station_id":"ce4bhg12rcd13ifvqf80","pricing_plan_id":"cebpf4jnsgd1na2vs0mg"},{"bike_id":"5f8f0693-d520-43eb-bc16-636997028df9","system_id":"levelo_inurba_marseille","lat":43.26698,"lon":5.38214,"is_reserved":false,"is_disabled":false,"rental_uris":{"android":"levelo://app?vid=5f8f0693-d520-43eb-bc16-636997028df9","ios":"levelo://app?vid=5f8f0693-d520-43eb-bc16-636997028df9"},"vehicle_type_id":"4","last_reported":1741248782,"current_range_meters":5600,"station_id":"ce4bhg92rcd13ifvqf90","pricing_plan_id":"cebpf4jnsgd1na2vs0mg"},{"bike_id":"b0603f8c-190f-4853-a7e5-0d0ca367341f","system_id":"levelo_inurba_marseille","lat":43.28142,"lon":5.4268,"is_reserved":false,"is_disabled":false,"rental_uris":{"android":"levelo://app?vid=b0603f8c-190f-4853-a7e5-0d0ca367341f","ios":"levelo://app?vid=b0603f8c-190f-4853-a7e5-0d0ca367341f"},"vehicle_type_id":"4","last_reported":1741248782,"current_range_meters":5600,"station_id":"ce4bhnh2rcd13ifvqgug","pricing_plan_id":"cebpf4jnsgd1na2vs0mg"},{"bike_id":"3ee7dc76-2898-4b93-89ea-701f945b3d31","system_id":"levelo_inurba_marseille","lat":43.28492,"lon":5.38546,"is_reserved":false,"is_disabled":false,"rental_uris":{"android":"levelo://app?vid=3ee7dc76-2898-4b93-89ea-701f945b3d31","ios":"levelo://app?vid=3ee7dc76-2898-4b93-89ea-701f945b3d31"},"vehicle_type_id":"4","last_reported":1741248782,"current_range_meters":6000,"station_id":"ce4bh8p2rcd13ifvqeb0","pricing_plan_id":"cebpf4jnsgd1na2vs0mg"},{"bike_id":"37563648-973c-42f7-8f2f-cfdab793ff0f","system_id":"levelo_inurba_marseille","lat":43.2903,"lon":5.37552,"is_reserved":false,"is_disabled":false,"rental_uris":{"android":"levelo://app?vid=37563648-973c-42f7-8f2f-cfdab793ff0f","ios":"levelo://app?vid=37563648-973c-42f7-8f2f-cfdab793ff0f"},"vehicle_type_id":"4","last_reported":1741248782,"current_range_meters":6000,"station_id":"ce4bh692rcd13ifvqe90","pricing_plan_id":"cebpf4jnsgd1na2vs0mg"},{"bike_id":"e59fccdd-f60b-4fcf-8101-4a747bffb1c1","system_id":"levelo_inurba_marseille","lat":43.24384,"lon":5.37059,"is_reserved":false,"is_disabled":false,"rental_uris":{"android":"levelo://app?vid=e59fccdd-f60b-4fcf-8101-4a747bffb1c1","ios":"levelo://app?vid=e59fccdd-f60b-4fcf-8101-4a747bffb1c1"},"vehicle_type_id":"4","last_reported":1741248782,"current_range_meters":6000,"station_id":"ce4bhhh2rcd13ifvqfk0","pricing_plan_id":"cebpf4jnsgd1na2vs0mg"},{"bike_id":"fabf6c24-fc98-4780-a1ba-f979a6a39a36","system_id":"levelo_inurba_marseille","lat":43.31119,"lon":5.37704,"is_reserved":false,"is_disabled":false,"rental_uris":{"android":"levelo://app?vid=fabf6c24-fc98-4780-a1ba-f979a6a39a36","ios":"levelo://app?vid=fabf6c24-fc98-4780-a1ba-f979a6a39a36"},"vehicle_type_id":"4","last_reported":1741248782,"current_range_meters":6400,"station_id":"","pricing_plan_id":"cebpf4jnsgd1na2vs0mg"},{"bike_id":"818ebfb9-2613-43a7-b856-530ff05a8208","system_id":"levelo_inurba_marseille","lat":43.24083,"lon":5.37721,"is_reserved":false,"is_disabled":false,"rental_uris":{"android":"levelo://app?vid=818ebfb9-2613-43a7-b856-530ff05a8208","ios":"levelo://app?vid=818ebfb9-2613-43a7-b856-530ff05a8208"},"vehicle_type_id":"4","last_reported":1741248782,"current_range_meters":6400,"station_id":"ce4bhnp2rcd13ifvqgvg","pricing_plan_id":"cebpf4jnsgd1na2vs0mg"},{"bike_id":"8d9ccc4a-1011-4c35-8110-21069259a7d9","system_id":"levelo_inurba_marseille","lat":43.29104,"lon":5.38176,"is_reserved":false,"is_disabled":true,"rental_uris":{"android":"levelo://app?vid=8d9ccc4a-1011-4c35-8110-21069259a7d9","ios":"levelo://app?vid=8d9ccc4a-1011-4c35-8110-21069259a7d9"},"vehicle_type_id":"4","last_reported":1741248782,"current_range_meters":6400,"station_id":"ce4bh512rcd13ifvqe2g","pricing_plan_id":"cebpf4jnsgd1na2vs0mg"},{"bike_id":"9993451f-799b-406b-a3da-253f53ed57ce","system_id":"levelo_inurba_marseille","lat":43.24688,"lon":5.38816,"is_reserved":false,"is_disabled":false,"rental_uris":{"android":"levelo://app?vid=9993451f-799b-406b-a3da-253f53ed57ce","ios":"levelo://app?vid=9993451f-799b-406b-a3da-253f53ed57ce"},"vehicle_type_id":"4","last_reported":1741248782,"current_range_meters":6400,"station_id":"","pricing_plan_id":"cebpf4jnsgd1na2vs0mg"},{"bike_id":"345296b4-45d9-4ada-873d-237ce9579591","system_id":"levelo_inurba_marseille","lat":43.29841,"lon":5.36277,"is_reserved":false,"is_disabled":false,"rental_uris":{"android":"levelo://app?vid=345296b4-45d9-4ada-873d-237ce9579591","ios":"levelo://app?vid=345296b4-45d9-4ada-873d-237ce9579591"},"vehicle_type_id":"4","last_reported":1741248782,"current_range_meters":6400,"station_id":"ce4bgpp2rcd13ifvqc3g","pricing_plan_id":"cebpf4jnsgd1na2vs0mg"},{"bike_id":"85622fb5-d9f0-4348-bf08-97a467e58c47","system_id":"levelo_inurba_marseille","lat":43.29967,"lon":5.37172,"is_reserved":false,"is_disabled":false,"rental_uris":{"android":"levelo://app?vid=85622fb5-d9f0-4348-bf08-97a467e58c47","ios":"levelo://app?vid=85622fb5-d9f0-4348-bf08-97a467e58c47"},"vehicle_type_id":"4","last_reported":1741248782,"current_range_meters":6400,"station_id":"ce4bgr92rcd13ifvqc7g","pricing_plan_id":"cebpf4jnsgd1na2vs0mg"},{"bike_id":"e9993293-cb22-4b58-9104-8ef93003d618","system_id":"levelo_inurba_marseille","lat":43.26678,"lon":5.38274,"is_reserved":false,"is_disabled":false,"rental_uris":{"android":"levelo://app?vid=e9993293-cb22-4b58-9104-8ef93003d618","ios":"levelo://app?vid=e9993293-cb22-4b58-9104-8ef93003d618"},"vehicle_type_id":"4","last_reported":1741248782,"current_range_meters":6400,"station_id":"ce4bhg92rcd13ifvqf90","pricing_plan_id":"cebpf4jnsgd1na2vs0mg"},{"bike_id":"3439a580-4b13-4596-bc3a-9d40342307f1","system_id":"levelo_inurba_marseille","lat":43.32089,"lon":5.368,"is_reserved":false,"is_disabled":false,"rental_uris":{"android":"levelo://app?vid=3439a580-4b13-4596-bc3a-9d40342307f1","ios":"levelo://app?vid=3439a580-4b13-4596-bc3a-9d40342307f1"},"vehicle_type_id":"4","last_reported":1741248782,"current_range_meters":6400,"station_id":"ce4bhrh2rcd13ifvqhug","pricing_plan_id":"cebpf4jnsgd1na2vs0mg"},{"bike_id":"1029c0c6-1581-4aa3-8be6-696b2afab641","system_id":"levelo_inurba_marseille","lat":43.3153,"lon":5.38037,"is_reserved":false,"is_disabled":false,"rental_uris":{"android":"levelo://app?vid=1029c0c6-1581-4aa3-8be6-696b2afab641","ios":"levelo://app?vid=1029c0c6-1581-4aa3-8be6-696b2afab641"},"vehicle_type_id":"4","last_reported":1741248782,"current_range_meters":6400,"station_id":"ce4bhsp2rcd13ifvqi50","pricing_plan_id":"cebpf4jnsgd1na2vs0mg"},{"bike_id":"9b9062d7-f1cb-444b-bd95-acca8a69b85e","system_id":"levelo_inurba_marseille","lat":43.30953,"lon":5.39031,"is_reserved":false,"is_disabled":false,"rental_uris":{"android":"levelo://app?vid=9b9062d7-f1cb-444b-bd95-acca8a69b85e","ios":"levelo://app?vid=9b9062d7-f1cb-444b-bd95-acca8a69b85e"},"vehicle_type_id":"4","last_reported":1741248782,"current_range_meters":6800,"station_id":"ce4bgup2rcd13ifvqco0","pricing_plan_id":"cebpf4jnsgd1na2vs0mg"},{"bike_id":"b8b19ae4-9e1f-4f8e-933c-45c41b074935","system_id":"levelo_inurba_marseille","lat":43.26688,"lon":5.38278,"is_reserved":false,"is_disabled":true,"rental_uris":{"android":"levelo://app?vid=b8b19ae4-9e1f-4f8e-933c-45c41b074935","ios":"levelo://app?vid=b8b19ae4-9e1f-4f8e-933c-45c41b074935"},"vehicle_type_id":"4","last_reported":1741248782,"current_range_meters":6800,"station_id":"ce4bhg92rcd13ifvqf90","pricing_plan_id":"cebpf4jnsgd1na2vs0mg"},{"bike_id":"4d859da8-1930-47e6-aa67-e883f2ef51d5","system_id":"levelo_inurba_marseille","lat":43.25939,"lon":5.40902,"is_reserved":false,"is_disabled":false,"rental_uris":{"android":"levelo://app?vid=4d859da8-1930-47e6-aa67-e883f2ef51d5","ios":"levelo://app?vid=4d859da8-1930-47e6-aa67-e883f2ef51d5"},"vehicle_type_id":"4","last_reported":1741248782,"current_range_meters":6800,"station_id":"ce4bhm92rcd13ifvqglg","pricing_plan_id":"cebpf4jnsgd1na2vs0mg"},{"bike_id":"97399946-e3e6-4c82-9064-b3472fe1a6d0","system_id":"levelo_inurba_marseille","lat":43.26217,"lon":5.4044,"is_reserved":false,"is_disabled":true,"rental_uris":{"android":"levelo://app?vid=97399946-e3e6-4c82-9064-b3472fe1a6d0","ios":"levelo://app?vid=97399946-e3e6-4c82-9064-b3472fe1a6d0"},"vehicle_type_id":"4","last_reported":1741248782,"current_range_meters":6800,"station_id":"","pricing_plan_id":"cebpf4jnsgd1na2vs0mg"},{"bike_id":"ff22ac5f-4107-4c43-91dd-83932ff30650","system_id":"levelo_inurba_marseille","lat":43.26692,"lon":5.38278,"is_reserved":false,"is_disabled":true,"rental_uris":{"android":"levelo://app?vid=ff22ac5f-4107-4c43-91dd-83932ff30650","ios":"levelo://app?vid=ff22ac5f-4107-4c43-91dd-83932ff30650"},"vehicle_type_id":"4","last_reported":1741248782,"current_range_meters":6800,"station_id":"ce4bhg92rcd13ifvqf90","pricing_plan_id":"cebpf4jnsgd1na2vs0mg"},{"bike_id":"0f905ccd-abd3-4c8f-bec6-eaa615d910b8","system_id":"levelo_inurba_marseille","lat":43.28468,"lon":5.38423,"is_reserved":false,"is_disabled":true,"rental_uris":{"android":"levelo://app?vid=0f905ccd-abd3-4c8f-bec6-eaa615d910b8","ios":"levelo://app?vid=0f905ccd-abd3-4c8f-bec6-eaa615d910b8"},"vehicle_type_id":"4","last_reported":1741248782,"current_range_meters":6800,"station_id":"ce4bh512rcd13ifvqe3g","pricing_plan_id":"cebpf4jnsgd1na2vs0mg"},{"bike_id":"52709a12-fb27-4124-ab54-c03694ff54bb","system_id":"levelo_inurba_marseille","lat":43.32541,"lon":5.41428,"is_reserved":false,"is_disabled":false,"rental_uris":{"android":"levelo://app?vid=52709a12-fb27-4124-ab54-c03694ff54bb","ios":"levelo://app?vid=52709a12-fb27-4124-ab54-c03694ff54bb"},"vehicle_type_id":"4","last_reported":1741248782,"current_range_meters":7200,"station_id":"ce4bhq12rcd13ifvqhhg","pricing_plan_id":"cebpf4jnsgd1na2vs0mg"},{"bike_id":"04602ea3-ac36-4387-91cd-683c524f904f","system_id":"levelo_inurba_marseille","lat":43.2799,"lon":5.4001,"is_reserved":false,"is_disabled":true,"rental_uris":{"android":"levelo://app?vid=04602ea3-ac36-4387-91cd-683c524f904f","ios":"levelo://app?vid=04602ea3-ac36-4387-91cd-683c524f904f"},"vehicle_type_id":"4","last_reported":1741248782,"current_range_meters":7200,"station_id":"ce4bho92rcd13ifvqh4g","pricing_plan_id":"cebpf4jnsgd1na2vs0mg"},{"bike_id":"3c6b425a-c5e1-432c-9168-3af67e083428","system_id":"levelo_inurba_marseille","lat":43.29273,"lon":5.40121,"is_reserved":false,"is_disabled":false,"rental_uris":{"android":"levelo://app?vid=3c6b425a-c5e1-432c-9168-3af67e083428","ios":"levelo://app?vid=3c6b425a-c5e1-432c-9168-3af67e083428"},"vehicle_type_id":"4","last_reported":1741248782,"current_range_meters":7200,"station_id":"ce4bh312rcd13ifvqdk0","pricing_plan_id":"cebpf4jnsgd1na2vs0mg"},{"bike_id":"0ec63000-c3e6-4ebf-aa56-a6b75770e1d6","system_id":"levelo_inurba_marseille","lat":43.29266,"lon":5.37622,"is_reserved":false,"is_disabled":false,"rental_uris":{"android":"levelo://app?vid=0ec63000-c3e6-4ebf-aa56-a6b75770e1d6","ios":"levelo://app?vid=0ec63000-c3e6-4ebf-aa56-a6b75770e1d6"},"vehicle_type_id":"4","last_reported":1741248782,"current_range_meters":7200,"station_id":"ce4bgi12rcd13ifvqb80","pricing_plan_id":"cebpf4jnsgd1na2vs0mg"},{"bike_id":"702e915e-d609-4b62-be02-0f4639cfb0e1","system_id":"levelo_inurba_marseille","lat":43.27368,"lon":5.36263,"is_reserved":false,"is_disabled":false,"rental_uris":{"android":"levelo://app?vid=702e915e-d609-4b62-be02-0f4639cfb0e1","ios":"levelo://app?vid=702e915e-d609-4b62-be02-0f4639cfb0e1"},"vehicle_type_id":"4","last_reported":1741248782,"current_range_meters":6800,"station_id":"ce4bhbh2rcd13ifvqeo0","pricing_plan_id":"cebpf4jnsgd1na2vs0mg"},{"bike_id":"cdfbd217-a6f7-49fd-94b3-19969f91f64b","system_id":"levelo_inurba_marseille","lat":43.27491,"lon":5.42461,"is_reserved":false,"is_disabled":false,"rental_uris":{"android":"levelo://app?vid=cdfbd217-a6f7-49fd-94b3-19969f91f64b","ios":"levelo://app?vid=cdfbd217-a6f7-49fd-94b3-19969f91f64b"},"vehicle_type_id":"4","last_reported":1741248782,"current_range_meters":7200,"station_id":"ce4bhn92rcd13ifvqgrg","pricing_plan_id":"cebpf4jnsgd1na2vs0mg"},{"bike_id":"93c6d989-0cf6-46fc-98ce-814eb16de367","system_id":"levelo_inurba_marseille","lat":43.29193,"lon":5.39316,"is_reserved":false,"is_disabled":false,"rental_uris":{"android":"levelo://app?vid=93c6d989-0cf6-46fc-98ce-814eb16de367","ios":"levelo://app?vid=93c6d989-0cf6-46fc-98ce-814eb16de367"},"vehicle_type_id":"4","last_reported":1741248782,"current_range_meters":7200,"station_id":"ce4bh192rcd13ifvqdd0","pricing_plan_id":"cebpf4jnsgd1na2vs0mg"},{"bike_id":"b5e4f50c-99ce-44bb-9cd6-1fe06ca45800","system_id":"levelo_inurba_marseille","lat":43.31204,"lon":5.38717,"is_reserved":false,"is_disabled":false,"rental_uris":{"android":"levelo://app?vid=b5e4f50c-99ce-44bb-9cd6-1fe06ca45800","ios":"levelo://app?vid=b5e4f50c-99ce-44bb-9cd6-1fe06ca45800"},"vehicle_type_id":"4","last_reported":1741248782,"current_range_meters":7200,"station_id":"ce4bgv12rcd13ifvqcp0","pricing_plan_id":"cebpf4jnsgd1na2vs0mg"},{"bike_id":"a4f9c0a7-37a3-4724-bf69-0d1843c8440e","system_id":"levelo_inurba_marseille","lat":43.24073,"lon":5.37756,"is_reserved":false,"is_disabled":false,"rental_uris":{"android":"levelo://app?vid=a4f9c0a7-37a3-4724-bf69-0d1843c8440e","ios":"levelo://app?vid=a4f9c0a7-37a3-4724-bf69-0d1843c8440e"},"vehicle_type_id":"4","last_reported":1741248782,"current_range_meters":7200,"station_id":"ce4bhnp2rcd13ifvqgvg","pricing_plan_id":"cebpf4jnsgd1na2vs0mg"},{"bike_id":"5c2bb6ab-bce8-454d-a986-4586d71340a3","system_id":"levelo_inurba_marseille","lat":43.2902,"lon":5.37564,"is_reserved":false,"is_disabled":false,"rental_uris":{"android":"levelo://app?vid=5c2bb6ab-bce8-454d-a986-4586d71340a3","ios":"levelo://app?vid=5c2bb6ab-bce8-454d-a986-4586d71340a3"},"vehicle_type_id":"4","last_reported":1741248782,"current_range_meters":7200,"station_id":"ce4bh692rcd13ifvqe90","pricing_plan_id":"cebpf4jnsgd1na2vs0mg"},{"bike_id":"c55557ad-1ed5-4997-aee7-ac92107f14b6","system_id":"levelo_inurba_marseille","lat":43.2648,"lon":5.37489,"is_reserved":false,"is_disabled":false,"rental_uris":{"android":"levelo://app?vid=c55557ad-1ed5-4997-aee7-ac92107f14b6","ios":"levelo://app?vid=c55557ad-1ed5-4997-aee7-ac92107f14b6"},"vehicle_type_id":"4","last_reported":1741248782,"current_range_meters":8000,"station_id":"","pricing_plan_id":"cebpf4jnsgd1na2vs0mg"},{"bike_id":"9fc9ecf0-ae9f-4a14-a3f8-71d09644aa9c","system_id":"levelo_inurba_marseille","lat":43.31361,"lon":5.36723,"is_reserved":false,"is_disabled":false,"rental_uris":{"android":"levelo://app?vid=9fc9ecf0-ae9f-4a14-a3f8-71d09644aa9c","ios":"levelo://app?vid=9fc9ecf0-ae9f-4a14-a3f8-71d09644aa9c"},"vehicle_type_id":"4","last_reported":1741248782,"current_range_meters":8000,"station_id":"ce4bgr92rcd13ifvqc6g","pricing_plan_id":"cebpf4jnsgd1na2vs0mg"},{"bike_id":"c072514f-cdef-44ff-a069-cf55d71c0741","system_id":"levelo_inurba_marseille","lat":43.24082,"lon":5.37754,"is_reserved":false,"is_disabled":false,"rental_uris":{"android":"levelo://app?vid=c072514f-cdef-44ff-a069-cf55d71c0741","ios":"levelo://app?vid=c072514f-cdef-44ff-a069-cf55d71c0741"},"vehicle_type_id":"4","last_reported":1741248782,"current_range_meters":8000,"station_id":"ce4bhnp2rcd13ifvqgvg","pricing_plan_id":"cebpf4jnsgd1na2vs0mg"},{"bike_id":"81b03393-fef8-4d0a-abf9-eabf8565c299","system_id":"levelo_inurba_marseille","lat":43.30292,"lon":5.37414,"is_reserved":false,"is_disabled":false,"rental_uris":{"android":"levelo://app?vid=81b03393-fef8-4d0a-abf9-eabf8565c299","ios":"levelo://app?vid=81b03393-fef8-4d0a-abf9-eabf8565c299"},"vehicle_type_id":"4","last_reported":1741248782,"current_range_meters":8000,"station_id":"ce4bgqh2rcd13ifvqc4g","pricing_plan_id":"cebpf4jnsgd1na2vs0mg"},{"bike_id":"6197849e-2d65-43f5-84f7-cc5b48ba886f","system_id":"levelo_inurba_marseille","lat":43.25938,"lon":5.409,"is_reserved":false,"is_disabled":false,"rental_uris":{"android":"levelo://app?vid=6197849e-2d65-43f5-84f7-cc5b48ba886f","ios":"levelo://app?vid=6197849e-2d65-43f5-84f7-cc5b48ba886f"},"vehicle_type_id":"4","last_reported":1741248782,"current_range_meters":8000,"station_id":"ce4bhm92rcd13ifvqglg","pricing_plan_id":"cebpf4jnsgd1na2vs0mg"},{"bike_id":"1ae679cc-613d-44de-9c49-10aa5cef907c","system_id":"levelo_inurba_marseille","lat":43.2749,"lon":5.42459,"is_reserved":false,"is_disabled":false,"rental_uris":{"android":"levelo://app?vid=1ae679cc-613d-44de-9c49-10aa5cef907c","ios":"levelo://app?vid=1ae679cc-613d-44de-9c49-10aa5cef907c"},"vehicle_type_id":"4","last_reported":1741248782,"current_range_meters":8000,"station_id":"ce4bhn92rcd13ifvqgrg","pricing_plan_id":"cebpf4jnsgd1na2vs0mg"},{"bike_id":"bc393c01-9128-437d-8f54-fb73529d8647","system_id":"levelo_inurba_marseille","lat":43.26957,"lon":5.38638,"is_reserved":false,"is_disabled":false,"rental_uris":{"android":"levelo://app?vid=bc393c01-9128-437d-8f54-fb73529d8647","ios":"levelo://app?vid=bc393c01-9128-437d-8f54-fb73529d8647"},"vehicle_type_id":"4","last_reported":1741248782,"current_range_meters":8400,"station_id":"ce4bhh92rcd13ifvqfh0","pricing_plan_id":"cebpf4jnsgd1na2vs0mg"},{"bike_id":"87cc2b62-b442-4215-a043-611256d11643","system_id":"levelo_inurba_marseille","lat":43.3109,"lon":5.42438,"is_reserved":false,"is_disabled":false,"rental_uris":{"android":"levelo://app?vid=87cc2b62-b442-4215-a043-611256d11643","ios":"levelo://app?vid=87cc2b62-b442-4215-a043-611256d11643"},"vehicle_type_id":"4","last_reported":1741248782,"current_range_meters":8400,"station_id":"ce4bhp92rcd13ifvqhag","pricing_plan_id":"cebpf4jnsgd1na2vs0mg"},{"bike_id":"f8a818ec-b7e9-4d1f-9bec-510cc5e6b980","system_id":"levelo_inurba_marseille","lat":43.27276,"lon":5.39199,"is_reserved":false,"is_disabled":true,"rental_uris":{"android":"levelo://app?vid=f8a818ec-b7e9-4d1f-9bec-510cc5e6b980","ios":"levelo://app?vid=f8a818ec-b7e9-4d1f-9bec-510cc5e6b980"},"vehicle_type_id":"4","last_reported":1741248782,"current_range_meters":8400,"station_id":"","pricing_plan_id":"cebpf4jnsgd1na2vs0mg"},{"bike_id":"6244ba9c-1efc-4fc2-afbb-78c2d7ead349","system_id":"levelo_inurba_marseille","lat":43.274922,"lon":5.42455,"is_reserved":false,"is_disabled":false,"rental_uris":{"android":"levelo://app?vid=6244ba9c-1efc-4fc2-afbb-78c2d7ead349","ios":"levelo://app?vid=6244ba9c-1efc-4fc2-afbb-78c2d7ead349"},"vehicle_type_id":"4","last_reported":1741248782,"current_range_meters":8400,"station_id":"ce4bhnh2rcd13ifvqgug","pricing_plan_id":"cebpf4jnsgd1na2vs0mg"},{"bike_id":"86723d49-325c-4da0-97b3-2b48647b3a72","system_id":"levelo_inurba_marseille","lat":43.309377,"lon":5.39052,"is_reserved":false,"is_disabled":false,"rental_uris":{"android":"levelo://app?vid=86723d49-325c-4da0-97b3-2b48647b3a72","ios":"levelo://app?vid=86723d49-325c-4da0-97b3-2b48647b3a72"},"vehicle_type_id":"4","last_reported":1741248782,"current_range_meters":8400,"station_id":"ce4bgup2rcd13ifvqco0","pricing_plan_id":"cebpf4jnsgd1na2vs0mg"},{"bike_id":"06fb113e-3e7d-4397-b696-febf3533d9ba","system_id":"levelo_inurba_marseille","lat":43.26682,"lon":5.3827,"is_reserved":false,"is_disabled":false,"rental_uris":{"android":"levelo://app?vid=06fb113e-3e7d-4397-b696-febf3533d9ba","ios":"levelo://app?vid=06fb113e-3e7d-4397-b696-febf3533d9ba"},"vehicle_type_id":"4","last_reported":1741248782,"current_range_meters":8400,"station_id":"ce4bhg92rcd13ifvqf90","pricing_plan_id":"cebpf4jnsgd1na2vs0mg"},{"bike_id":"ecb30204-856e-4551-b122-313eabd56e36","system_id":"levelo_inurba_marseille","lat":43.2695,"lon":5.38647,"is_reserved":false,"is_disabled":false,"rental_uris":{"android":"levelo://app?vid=ecb30204-856e-4551-b122-313eabd56e36","ios":"levelo://app?vid=ecb30204-856e-4551-b122-313eabd56e36"},"vehicle_type_id":"4","last_reported":1741248782,"current_range_meters":8400,"station_id":"ce4bhh92rcd13ifvqfh0","pricing_plan_id":"cebpf4jnsgd1na2vs0mg"},{"bike_id":"3f012b55-43c2-4f72-af68-bad9b36f123a","system_id":"levelo_inurba_marseille","lat":43.259163,"lon":5.385835,"is_reserved":false,"is_disabled":false,"rental_uris":{"android":"levelo://app?vid=3f012b55-43c2-4f72-af68-bad9b36f123a","ios":"levelo://app?vid=3f012b55-43c2-4f72-af68-bad9b36f123a"},"vehicle_type_id":"4","last_reported":1741248782,"current_range_meters":8800,"station_id":"ce4bhih2rcd13ifvqfs0","pricing_plan_id":"cebpf4jnsgd1na2vs0mg"},{"bike_id":"478c7561-14a7-4b9d-bd73-431246676f26","system_id":"levelo_inurba_marseille","lat":43.33585,"lon":5.41005,"is_reserved":false,"is_disabled":false,"rental_uris":{"android":"levelo://app?vid=478c7561-14a7-4b9d-bd73-431246676f26","ios":"levelo://app?vid=478c7561-14a7-4b9d-bd73-431246676f26"},"vehicle_type_id":"4","last_reported":1741248782,"current_range_meters":8800,"station_id":"ce4bhqh2rcd13ifvqhmg","pricing_plan_id":"cebpf4jnsgd1na2vs0mg"},{"bike_id":"9208d63c-369f-4c4e-a7fc-9ad972621275","system_id":"levelo_inurba_marseille","lat":43.25917,"lon":5.40919,"is_reserved":false,"is_disabled":false,"rental_uris":{"android":"levelo://app?vid=9208d63c-369f-4c4e-a7fc-9ad972621275","ios":"levelo://app?vid=9208d63c-369f-4c4e-a7fc-9ad972621275"},"vehicle_type_id":"4","last_reported":1741248782,"current_range_meters":8800,"station_id":"ce4bhm92rcd13ifvqglg","pricing_plan_id":"cebpf4jnsgd1na2vs0mg"},{"bike_id":"9ab92d0f-c5ad-4f39-82c9-1ee4bddf0b97","system_id":"levelo_inurba_marseille","lat":43.30642,"lon":5.40107,"is_reserved":false,"is_disabled":false,"rental_uris":{"android":"levelo://app?vid=9ab92d0f-c5ad-4f39-82c9-1ee4bddf0b97","ios":"levelo://app?vid=9ab92d0f-c5ad-4f39-82c9-1ee4bddf0b97"},"vehicle_type_id":"4","last_reported":1741248782,"current_range_meters":8800,"station_id":"ce4bh112rcd13ifvqda0","pricing_plan_id":"cebpf4jnsgd1na2vs0mg"},{"bike_id":"8e67c6c2-1f86-420e-855b-676e159ed831","system_id":"levelo_inurba_marseille","lat":43.230632,"lon":5.354936,"is_reserved":false,"is_disabled":false,"rental_uris":{"android":"levelo://app?vid=8e67c6c2-1f86-420e-855b-676e159ed831","ios":"levelo://app?vid=8e67c6c2-1f86-420e-855b-676e159ed831"},"vehicle_type_id":"4","last_reported":1741248782,"current_range_meters":9200,"station_id":"cpo3342slgdg3j2ifvpg","pricing_plan_id":"cebpf4jnsgd1na2vs0mg"},{"bike_id":"4b37d7b2-e4f0-4881-ae4a-14e74b2ab8e7","system_id":"levelo_inurba_marseille","lat":43.2943,"lon":5.39755,"is_reserved":false,"is_disabled":true,"rental_uris":{"android":"levelo://app?vid=4b37d7b2-e4f0-4881-ae4a-14e74b2ab8e7","ios":"levelo://app?vid=4b37d7b2-e4f0-4881-ae4a-14e74b2ab8e7"},"vehicle_type_id":"4","last_reported":1741248782,"current_range_meters":9200,"station_id":"ce4bh3h2rcd13ifvqdo0","pricing_plan_id":"cebpf4jnsgd1na2vs0mg"},{"bike_id":"7be10eac-e616-4904-8cdc-c543b04d589f","system_id":"levelo_inurba_marseille","lat":43.24162,"lon":5.36399,"is_reserved":false,"is_disabled":false,"rental_uris":{"android":"levelo://app?vid=7be10eac-e616-4904-8cdc-c543b04d589f","ios":"levelo://app?vid=7be10eac-e616-4904-8cdc-c543b04d589f"},"vehicle_type_id":"4","last_reported":1741248782,"current_range_meters":9200,"station_id":"cpo36qri1sfpv3e86is0","pricing_plan_id":"cebpf4jnsgd1na2vs0mg"},{"bike_id":"72c4bed9-ea0a-493d-a6be-779348345778","system_id":"levelo_inurba_marseille","lat":43.29363,"lon":5.37849,"is_reserved":false,"is_disabled":false,"rental_uris":{"android":"levelo://app?vid=72c4bed9-ea0a-493d-a6be-779348345778","ios":"levelo://app?vid=72c4bed9-ea0a-493d-a6be-779348345778"},"vehicle_type_id":"4","last_reported":1741248782,"current_range_meters":9200,"station_id":"ce4bgjh2rcd13ifvqbf0","pricing_plan_id":"cebpf4jnsgd1na2vs0mg"},{"bike_id":"997d6d29-cdf6-481f-a2c3-43d99ec8e071","system_id":"levelo_inurba_marseille","lat":43.30644,"lon":5.40113,"is_reserved":false,"is_disabled":true,"rental_uris":{"android":"levelo://app?vid=997d6d29-cdf6-481f-a2c3-43d99ec8e071","ios":"levelo://app?vid=997d6d29-cdf6-481f-a2c3-43d99ec8e071"},"vehicle_type_id":"4","last_reported":1741248782,"current_range_meters":9200,"station_id":"ce4bh112rcd13ifvqda0","pricing_plan_id":"cebpf4jnsgd1na2vs0mg"},{"bike_id":"d8b6aa6a-b3b3-4a53-a09e-0095ddf91dd1","system_id":"levelo_inurba_marseille","lat":43.29072,"lon":5.38159,"is_reserved":false,"is_disabled":false,"rental_uris":{"android":"levelo://app?vid=d8b6aa6a-b3b3-4a53-a09e-0095ddf91dd1","ios":"levelo://app?vid=d8b6aa6a-b3b3-4a53-a09e-0095ddf91dd1"},"vehicle_type_id":"4","last_reported":1741248782,"current_range_meters":8800,"station_id":"ce4bh512rcd13ifvqe2g","pricing_plan_id":"cebpf4jnsgd1na2vs0mg"},{"bike_id":"05f87e83-2cc2-43c9-92e0-26f4789f605e","system_id":"levelo_inurba_marseille","lat":43.32539,"lon":5.41428,"is_reserved":false,"is_disabled":false,"rental_uris":{"android":"levelo://app?vid=05f87e83-2cc2-43c9-92e0-26f4789f605e","ios":"levelo://app?vid=05f87e83-2cc2-43c9-92e0-26f4789f605e"},"vehicle_type_id":"4","last_reported":1741248782,"current_range_meters":9600,"station_id":"ce4bhq12rcd13ifvqhhg","pricing_plan_id":"cebpf4jnsgd1na2vs0mg"},{"bike_id":"1a745b30-9e09-468a-ac27-64787cfb2ab8","system_id":"levelo_inurba_marseille","lat":43.2957,"lon":5.3752,"is_reserved":false,"is_disabled":false,"rental_uris":{"android":"levelo://app?vid=1a745b30-9e09-468a-ac27-64787cfb2ab8","ios":"levelo://app?vid=1a745b30-9e09-468a-ac27-64787cfb2ab8"},"vehicle_type_id":"4","last_reported":1741248782,"current_range_meters":9600,"station_id":"ce4bgh92rcd13ifvqb50","pricing_plan_id":"cebpf4jnsgd1na2vs0mg"},{"bike_id":"4589d892-1f98-4311-a7b9-7f9e45a85f9a","system_id":"levelo_inurba_marseille","lat":43.28717,"lon":5.37957,"is_reserved":false,"is_disabled":false,"rental_uris":{"android":"levelo://app?vid=4589d892-1f98-4311-a7b9-7f9e45a85f9a","ios":"levelo://app?vid=4589d892-1f98-4311-a7b9-7f9e45a85f9a"},"vehicle_type_id":"4","last_reported":1741248782,"current_range_meters":9600,"station_id":"ce4bh9p2rcd13ifvqec0","pricing_plan_id":"cebpf4jnsgd1na2vs0mg"},{"bike_id":"e5db92b7-fb1b-4296-b2fb-221116a0d070","system_id":"levelo_inurba_marseille","lat":43.290134,"lon":5.399972,"is_reserved":false,"is_disabled":false,"rental_uris":{"android":"levelo://app?vid=e5db92b7-fb1b-4296-b2fb-221116a0d070","ios":"levelo://app?vid=e5db92b7-fb1b-4296-b2fb-221116a0d070"},"vehicle_type_id":"4","last_reported":1741248782,"current_range_meters":9600,"station_id":"ce4bh392rcd13ifvqdm0","pricing_plan_id":"cebpf4jnsgd1na2vs0mg"},{"bike_id":"105a6dda-d478-49ab-a99a-e250e44758dd","system_id":"levelo_inurba_marseille","lat":43.30544,"lon":5.38433,"is_reserved":false,"is_disabled":false,"rental_uris":{"android":"levelo://app?vid=105a6dda-d478-49ab-a99a-e250e44758dd","ios":"levelo://app?vid=105a6dda-d478-49ab-a99a-e250e44758dd"},"vehicle_type_id":"4","last_reported":1741248782,"current_range_meters":9600,"station_id":"ce4bgg92rcd13ifvqb30","pricing_plan_id":"cebpf4jnsgd1na2vs0mg"},{"bike_id":"0f0c01f1-8344-478d-bd63-41fbc91ad188","system_id":"levelo_inurba_marseille","lat":43.24067,"lon":5.37762,"is_reserved":false,"is_disabled":false,"rental_uris":{"android":"levelo://app?vid=0f0c01f1-8344-478d-bd63-41fbc91ad188","ios":"levelo://app?vid=0f0c01f1-8344-478d-bd63-41fbc91ad188"},"vehicle_type_id":"4","last_reported":1741248782,"current_range_meters":9600,"station_id":"ce4bhnp2rcd13ifvqgvg","pricing_plan_id":"cebpf4jnsgd1na2vs0mg"},{"bike_id":"6677cd50-1a42-4a45-a2b5-dd81b6c142f3","system_id":"levelo_inurba_marseille","lat":43.30269,"lon":5.37706,"is_reserved":false,"is_disabled":false,"rental_uris":{"android":"levelo://app?vid=6677cd50-1a42-4a45-a2b5-dd81b6c142f3","ios":"levelo://app?vid=6677cd50-1a42-4a45-a2b5-dd81b6c142f3"},"vehicle_type_id":"4","last_reported":1741248782,"current_range_meters":10000,"station_id":"ce4bguh2rcd13ifvqcj0","pricing_plan_id":"cebpf4jnsgd1na2vs0mg"},{"bike_id":"f1969ae6-398f-4ca1-9c4a-74f3b1e55c0e","system_id":"levelo_inurba_marseille","lat":43.308801,"lon":5.396269,"is_reserved":false,"is_disabled":true,"rental_uris":{"android":"levelo://app?vid=f1969ae6-398f-4ca1-9c4a-74f3b1e55c0e","ios":"levelo://app?vid=f1969ae6-398f-4ca1-9c4a-74f3b1e55c0e"},"vehicle_type_id":"4","last_reported":1741248782,"current_range_meters":10000,"station_id":"ce4bh012rcd13ifvqcv0","pricing_plan_id":"cebpf4jnsgd1na2vs0mg"},{"bike_id":"99a2eab6-350e-426a-a192-3902eb8f89dc","system_id":"levelo_inurba_marseille","lat":43.30254,"lon":5.40073,"is_reserved":false,"is_disabled":false,"rental_uris":{"android":"levelo://app?vid=99a2eab6-350e-426a-a192-3902eb8f89dc","ios":"levelo://app?vid=99a2eab6-350e-426a-a192-3902eb8f89dc"},"vehicle_type_id":"4","last_reported":1741248782,"current_range_meters":10000,"station_id":"ce4bgvh2rcd13ifvqcs0","pricing_plan_id":"cebpf4jnsgd1na2vs0mg"},{"bike_id":"aeea33c7-6c33-44a3-a755-be3c836fb527","system_id":"levelo_inurba_marseille","lat":43.3126,"lon":5.40167,"is_reserved":false,"is_disabled":false,"rental_uris":{"android":"levelo://app?vid=aeea33c7-6c33-44a3-a755-be3c836fb527","ios":"levelo://app?vid=aeea33c7-6c33-44a3-a755-be3c836fb527"},"vehicle_type_id":"4","last_reported":1741248782,"current_range_meters":10000,"station_id":"ce4bh092rcd13ifvqd30","pricing_plan_id":"cebpf4jnsgd1na2vs0mg"},{"bike_id":"431ccc62-558f-4557-a25f-b241214671ff","system_id":"levelo_inurba_marseille","lat":43.23172,"lon":5.39993,"is_reserved":false,"is_disabled":false,"rental_uris":{"android":"levelo://app?vid=431ccc62-558f-4557-a25f-b241214671ff","ios":"levelo://app?vid=431ccc62-558f-4557-a25f-b241214671ff"},"vehicle_type_id":"4","last_reported":1741248782,"current_range_meters":10000,"station_id":"ce4bhn12rcd13ifvqgqg","pricing_plan_id":"cebpf4jnsgd1na2vs0mg"},{"bike_id":"03ecd1c6-76fe-4de2-8510-439603adae47","system_id":"levelo_inurba_marseille","lat":43.27488,"lon":5.42456,"is_reserved":false,"is_disabled":false,"rental_uris":{"android":"levelo://app?vid=03ecd1c6-76fe-4de2-8510-439603adae47","ios":"levelo://app?vid=03ecd1c6-76fe-4de2-8510-439603adae47"},"vehicle_type_id":"4","last_reported":1741248782,"current_range_meters":10000,"station_id":"ce4bhn92rcd13ifvqgrg","pricing_plan_id":"cebpf4jnsgd1na2vs0mg"},{"bike_id":"19101734-3ad1-4907-825f-39826c67a179","system_id":"levelo_inurba_marseille","lat":43.30541,"lon":5.38439,"is_reserved":false,"is_disabled":false,"rental_uris":{"android":"levelo://app?vid=19101734-3ad1-4907-825f-39826c67a179","ios":"levelo://app?vid=19101734-3ad1-4907-825f-39826c67a179"},"vehicle_type_id":"4","last_reported":1741248782,"current_range_meters":9600,"station_id":"ce4bgg92rcd13ifvqb30","pricing_plan_id":"cebpf4jnsgd1na2vs0mg"},{"bike_id":"1a8dd9c6-471b-45b4-8521-664ae5f96f06","system_id":"levelo_inurba_marseille","lat":43.28142,"lon":5.38512,"is_reserved":false,"is_disabled":false,"rental_uris":{"android":"levelo://app?vid=1a8dd9c6-471b-45b4-8521-664ae5f96f06","ios":"levelo://app?vid=1a8dd9c6-471b-45b4-8521-664ae5f96f06"},"vehicle_type_id":"4","last_reported":1741248782,"current_range_meters":10000,"station_id":"","pricing_plan_id":"cebpf4jnsgd1na2vs0mg"},{"bike_id":"08a27dbb-01ff-42cf-b34b-e6f6191aad46","system_id":"levelo_inurba_marseille","lat":43.26212,"lon":5.3744,"is_reserved":false,"is_disabled":false,"rental_uris":{"android":"levelo://app?vid=08a27dbb-01ff-42cf-b34b-e6f6191aad46","ios":"levelo://app?vid=08a27dbb-01ff-42cf-b34b-e6f6191aad46"},"vehicle_type_id":"4","last_reported":1741248782,"current_range_meters":10000,"station_id":"ce4bhgp2rcd13ifvqfc0","pricing_plan_id":"cebpf4jnsgd1na2vs0mg"},{"bike_id":"e0c0bec3-454a-410d-a60f-3aed516ec149","system_id":"levelo_inurba_marseille","lat":43.23188,"lon":5.35567,"is_reserved":false,"is_disabled":false,"rental_uris":{"android":"levelo://app?vid=e0c0bec3-454a-410d-a60f-3aed516ec149","ios":"levelo://app?vid=e0c0bec3-454a-410d-a60f-3aed516ec149"},"vehicle_type_id":"4","last_reported":1741248782,"current_range_meters":10800,"station_id":"ce4bhu92rcd13ifvqi70","pricing_plan_id":"cebpf4jnsgd1na2vs0mg"},{"bike_id":"3acabc1e-11c2-491e-bc5d-b11d8884d3d4","system_id":"levelo_inurba_marseille","lat":43.28705,"lon":5.3873,"is_reserved":false,"is_disabled":false,"rental_uris":{"android":"levelo://app?vid=3acabc1e-11c2-491e-bc5d-b11d8884d3d4","ios":"levelo://app?vid=3acabc1e-11c2-491e-bc5d-b11d8884d3d4"},"vehicle_type_id":"4","last_reported":1741248782,"current_range_meters":10800,"station_id":"","pricing_plan_id":"cebpf4jnsgd1na2vs0mg"},{"bike_id":"9242c352-7633-4d98-b4cc-45cd3d9a69a4","system_id":"levelo_inurba_marseille","lat":43.29295,"lon":5.374748,"is_reserved":false,"is_disabled":false,"rental_uris":{"android":"levelo://app?vid=9242c352-7633-4d98-b4cc-45cd3d9a69a4","ios":"levelo://app?vid=9242c352-7633-4d98-b4cc-45cd3d9a69a4"},"vehicle_type_id":"4","last_reported":1741248782,"current_range_meters":10800,"station_id":"ce4bgi12rcd13ifvqb70","pricing_plan_id":"cebpf4jnsgd1na2vs0mg"},{"bike_id":"81abd46f-88a5-433e-b996-c4028ce46154","system_id":"levelo_inurba_marseille","lat":43.30462,"lon":5.37916,"is_reserved":false,"is_disabled":false,"rental_uris":{"android":"levelo://app?vid=81abd46f-88a5-433e-b996-c4028ce46154","ios":"levelo://app?vid=81abd46f-88a5-433e-b996-c4028ce46154"},"vehicle_type_id":"4","last_reported":1741248782,"current_range_meters":10800,"station_id":"ce4bgup2rcd13ifvqcn0","pricing_plan_id":"cebpf4jnsgd1na2vs0mg"},{"bike_id":"d042490b-89be-4965-8498-025836790f65","system_id":"levelo_inurba_marseille","lat":43.25916,"lon":5.40861,"is_reserved":false,"is_disabled":false,"rental_uris":{"android":"levelo://app?vid=d042490b-89be-4965-8498-025836790f65","ios":"levelo://app?vid=d042490b-89be-4965-8498-025836790f65"},"vehicle_type_id":"4","last_reported":1741248782,"current_range_meters":10800,"station_id":"ce4bhm92rcd13ifvqglg","pricing_plan_id":"cebpf4jnsgd1na2vs0mg"},{"bike_id":"e0fb2c78-eac2-4ca1-8d1c-5606bae9b50b","system_id":"levelo_inurba_marseille","lat":43.26563,"lon":5.39009,"is_reserved":false,"is_disabled":false,"rental_uris":{"android":"levelo://app?vid=e0fb2c78-eac2-4ca1-8d1c-5606bae9b50b","ios":"levelo://app?vid=e0fb2c78-eac2-4ca1-8d1c-5606bae9b50b"},"vehicle_type_id":"4","last_reported":1741248782,"current_range_meters":10800,"station_id":"ce4bhe12rcd13ifvqf30","pricing_plan_id":"cebpf4jnsgd1na2vs0mg"},{"bike_id":"1aadcffe-0079-4d4e-9ba0-50872582b492","system_id":"levelo_inurba_marseille","lat":43.30327,"lon":5.40426,"is_reserved":false,"is_disabled":false,"rental_uris":{"android":"levelo://app?vid=1aadcffe-0079-4d4e-9ba0-50872582b492","ios":"levelo://app?vid=1aadcffe-0079-4d4e-9ba0-50872582b492"},"vehicle_type_id":"4","last_reported":1741248782,"current_range_meters":10800,"station_id":"ce4bh012rcd13ifvqd10","pricing_plan_id":"cebpf4jnsgd1na2vs0mg"},{"bike_id":"52f75514-cf26-4a08-b04c-ac660db37149","system_id":"levelo_inurba_marseille","lat":43.31242,"lon":5.36849,"is_reserved":false,"is_disabled":false,"rental_uris":{"android":"levelo://app?vid=52f75514-cf26-4a08-b04c-ac660db37149","ios":"levelo://app?vid=52f75514-cf26-4a08-b04c-ac660db37149"},"vehicle_type_id":"4","last_reported":1741248782,"current_range_meters":10800,"station_id":"ce4bgl92rcd13ifvqbq0","pricing_plan_id":"cebpf4jnsgd1na2vs0mg"},{"bike_id":"7f1905bf-da4d-4f13-af14-c5d46804e585","system_id":"levelo_inurba_marseille","lat":43.23184,"lon":5.35558,"is_reserved":false,"is_disabled":false,"rental_uris":{"android":"levelo://app?vid=7f1905bf-da4d-4f13-af14-c5d46804e585","ios":"levelo://app?vid=7f1905bf-da4d-4f13-af14-c5d46804e585"},"vehicle_type_id":"4","last_reported":1741248782,"current_range_meters":10800,"station_id":"ce4bhu92rcd13ifvqi70","pricing_plan_id":"cebpf4jnsgd1na2vs0mg"},{"bike_id":"688005ae-256f-49f2-be6a-b71974489857","system_id":"levelo_inurba_marseille","lat":43.291277,"lon":5.370963,"is_reserved":false,"is_disabled":false,"rental_uris":{"android":"levelo://app?vid=688005ae-256f-49f2-be6a-b71974489857","ios":"levelo://app?vid=688005ae-256f-49f2-be6a-b71974489857"},"vehicle_type_id":"4","last_reported":1741248782,"current_range_meters":10800,"station_id":"ce4bh5p2rcd13ifvqe4g","pricing_plan_id":"cebpf4jnsgd1na2vs0mg"},{"bike_id":"deccb326-0579-4f88-8ded-8a796f163b88","system_id":"levelo_inurba_marseille","lat":43.3142,"lon":5.37628,"is_reserved":false,"is_disabled":false,"rental_uris":{"android":"levelo://app?vid=deccb326-0579-4f88-8ded-8a796f163b88","ios":"levelo://app?vid=deccb326-0579-4f88-8ded-8a796f163b88"},"vehicle_type_id":"4","last_reported":1741248782,"current_range_meters":10800,"station_id":"","pricing_plan_id":"cebpf4jnsgd1na2vs0mg"},{"bike_id":"c73740cd-c6d7-4fd4-9ef4-71dcda844117","system_id":"levelo_inurba_marseille","lat":43.31281,"lon":5.36862,"is_reserved":false,"is_disabled":false,"rental_uris":{"android":"levelo://app?vid=c73740cd-c6d7-4fd4-9ef4-71dcda844117","ios":"levelo://app?vid=c73740cd-c6d7-4fd4-9ef4-71dcda844117"},"vehicle_type_id":"4","last_reported":1741248782,"current_range_meters":10800,"station_id":"ce4bgl92rcd13ifvqbq0","pricing_plan_id":"cebpf4jnsgd1na2vs0mg"},{"bike_id":"bc1ff28f-0226-4fe1-bb42-0a1e2869659e","system_id":"levelo_inurba_marseille","lat":43.32369,"lon":5.38873,"is_reserved":false,"is_disabled":false,"rental_uris":{"android":"levelo://app?vid=bc1ff28f-0226-4fe1-bb42-0a1e2869659e","ios":"levelo://app?vid=bc1ff28f-0226-4fe1-bb42-0a1e2869659e"},"vehicle_type_id":"4","last_reported":1741248782,"current_range_meters":10800,"station_id":"ce4bhqp2rcd13ifvqhog","pricing_plan_id":"cebpf4jnsgd1na2vs0mg"},{"bike_id":"64978948-b5cc-464a-8114-c992d027496b","system_id":"levelo_inurba_marseille","lat":43.30209,"lon":5.39472,"is_reserved":false,"is_disabled":false,"rental_uris":{"android":"levelo://app?vid=64978948-b5cc-464a-8114-c992d027496b","ios":"levelo://app?vid=64978948-b5cc-464a-8114-c992d027496b"},"vehicle_type_id":"4","last_reported":1741248782,"current_range_meters":11200,"station_id":"ce4bh0p2rcd13ifvqd70","pricing_plan_id":"cebpf4jnsgd1na2vs0mg"},{"bike_id":"9806457d-4f4b-480b-82f9-5f8a7b8c485c","system_id":"levelo_inurba_marseille","lat":43.30277,"lon":5.37698,"is_reserved":false,"is_disabled":false,"rental_uris":{"android":"levelo://app?vid=9806457d-4f4b-480b-82f9-5f8a7b8c485c","ios":"levelo://app?vid=9806457d-4f4b-480b-82f9-5f8a7b8c485c"},"vehicle_type_id":"4","last_reported":1741248782,"current_range_meters":11200,"station_id":"ce4bguh2rcd13ifvqcj0","pricing_plan_id":"cebpf4jnsgd1na2vs0mg"},{"bike_id":"8b7c8588-dfb2-4df4-8c03-931e74f734a9","system_id":"levelo_inurba_marseille","lat":43.275757,"lon":5.360689,"is_reserved":false,"is_disabled":false,"rental_uris":{"android":"levelo://app?vid=8b7c8588-dfb2-4df4-8c03-931e74f734a9","ios":"levelo://app?vid=8b7c8588-dfb2-4df4-8c03-931e74f734a9"},"vehicle_type_id":"4","last_reported":1741248782,"current_range_meters":10800,"station_id":"ce4bhbp2rcd13ifvqerg","pricing_plan_id":"cebpf4jnsgd1na2vs0mg"},{"bike_id":"0b3cb245-c1ab-4265-9e03-36f6b9bfa685","system_id":"levelo_inurba_marseille","lat":43.23076,"lon":5.35478,"is_reserved":false,"is_disabled":false,"rental_uris":{"android":"levelo://app?vid=0b3cb245-c1ab-4265-9e03-36f6b9bfa685","ios":"levelo://app?vid=0b3cb245-c1ab-4265-9e03-36f6b9bfa685"},"vehicle_type_id":"4","last_reported":1741248782,"current_range_meters":11200,"station_id":"cpo3342slgdg3j2ifvpg","pricing_plan_id":"cebpf4jnsgd1na2vs0mg"},{"bike_id":"2392f0e6-59d1-421f-98df-1a13fdcd8e57","system_id":"levelo_inurba_marseille","lat":43.24999,"lon":5.38926,"is_reserved":false,"is_disabled":false,"rental_uris":{"android":"levelo://app?vid=2392f0e6-59d1-421f-98df-1a13fdcd8e57","ios":"levelo://app?vid=2392f0e6-59d1-421f-98df-1a13fdcd8e57"},"vehicle_type_id":"4","last_reported":1741248782,"current_range_meters":11200,"station_id":"ce4bhgp2rcd13ifvqfd0","pricing_plan_id":"cebpf4jnsgd1na2vs0mg"},{"bike_id":"9109bf38-4e22-4f79-95b6-2d4197ce8722","system_id":"levelo_inurba_marseille","lat":43.24065,"lon":5.37771,"is_reserved":false,"is_disabled":false,"rental_uris":{"android":"levelo://app?vid=9109bf38-4e22-4f79-95b6-2d4197ce8722","ios":"levelo://app?vid=9109bf38-4e22-4f79-95b6-2d4197ce8722"},"vehicle_type_id":"4","last_reported":1741248782,"current_range_meters":11200,"station_id":"ce4bhnp2rcd13ifvqgvg","pricing_plan_id":"cebpf4jnsgd1na2vs0mg"},{"bike_id":"0f13f769-97f3-4b1a-8d22-2da31e473a93","system_id":"levelo_inurba_marseille","lat":43.25938,"lon":5.40906,"is_reserved":false,"is_disabled":false,"rental_uris":{"android":"levelo://app?vid=0f13f769-97f3-4b1a-8d22-2da31e473a93","ios":"levelo://app?vid=0f13f769-97f3-4b1a-8d22-2da31e473a93"},"vehicle_type_id":"4","last_reported":1741248782,"current_range_meters":11600,"station_id":"ce4bhm92rcd13ifvqglg","pricing_plan_id":"cebpf4jnsgd1na2vs0mg"},{"bike_id":"0ee41297-494b-4863-9244-82ca146a7e04","system_id":"levelo_inurba_marseille","lat":43.25714,"lon":5.41113,"is_reserved":false,"is_disabled":false,"rental_uris":{"android":"levelo://app?vid=0ee41297-494b-4863-9244-82ca146a7e04","ios":"levelo://app?vid=0ee41297-494b-4863-9244-82ca146a7e04"},"vehicle_type_id":"4","last_reported":1741248782,"current_range_meters":11600,"station_id":"ce4bhkp2rcd13ifvqgd0","pricing_plan_id":"cebpf4jnsgd1na2vs0mg"},{"bike_id":"d13cc840-c2bc-4909-bc15-2ca4969bea2f","system_id":"levelo_inurba_marseille","lat":43.32538,"lon":5.41425,"is_reserved":false,"is_disabled":false,"rental_uris":{"android":"levelo://app?vid=d13cc840-c2bc-4909-bc15-2ca4969bea2f","ios":"levelo://app?vid=d13cc840-c2bc-4909-bc15-2ca4969bea2f"},"vehicle_type_id":"4","last_reported":1741248782,"current_range_meters":11600,"station_id":"ce4bhq12rcd13ifvqhhg","pricing_plan_id":"cebpf4jnsgd1na2vs0mg"},{"bike_id":"0b683b62-1c3f-4a4a-85fc-cfde6a0ada9c","system_id":"levelo_inurba_marseille","lat":43.26922,"lon":5.38936,"is_reserved":false,"is_disabled":false,"rental_uris":{"android":"levelo://app?vid=0b683b62-1c3f-4a4a-85fc-cfde6a0ada9c","ios":"levelo://app?vid=0b683b62-1c3f-4a4a-85fc-cfde6a0ada9c"},"vehicle_type_id":"4","last_reported":1741248782,"current_range_meters":11600,"station_id":"ce4bhhh2rcd13ifvqfl0","pricing_plan_id":"cebpf4jnsgd1na2vs0mg"},{"bike_id":"88f1cdf8-d5f9-4bd1-9807-7495f7918208","system_id":"levelo_inurba_marseille","lat":43.31279,"lon":5.36818,"is_reserved":false,"is_disabled":false,"rental_uris":{"android":"levelo://app?vid=88f1cdf8-d5f9-4bd1-9807-7495f7918208","ios":"levelo://app?vid=88f1cdf8-d5f9-4bd1-9807-7495f7918208"},"vehicle_type_id":"4","last_reported":1741248782,"current_range_meters":11600,"station_id":"","pricing_plan_id":"cebpf4jnsgd1na2vs0mg"},{"bike_id":"9b22f99c-672f-4a4b-8e1f-44110c116e72","system_id":"levelo_inurba_marseille","lat":43.28964,"lon":5.37843,"is_reserved":false,"is_disabled":false,"rental_uris":{"android":"levelo://app?vid=9b22f99c-672f-4a4b-8e1f-44110c116e72","ios":"levelo://app?vid=9b22f99c-672f-4a4b-8e1f-44110c116e72"},"vehicle_type_id":"4","last_reported":1741248782,"current_range_meters":11600,"station_id":"ce4bh9p2rcd13ifvqed0","pricing_plan_id":"cebpf4jnsgd1na2vs0mg"},{"bike_id":"742e49a2-0f9a-4fce-973e-fd6c568cf9f9","system_id":"levelo_inurba_marseille","lat":43.29863,"lon":5.40167,"is_reserved":false,"is_disabled":false,"rental_uris":{"android":"levelo://app?vid=742e49a2-0f9a-4fce-973e-fd6c568cf9f9","ios":"levelo://app?vid=742e49a2-0f9a-4fce-973e-fd6c568cf9f9"},"vehicle_type_id":"4","last_reported":1741248782,"current_range_meters":11600,"station_id":"","pricing_plan_id":"cebpf4jnsgd1na2vs0mg"},{"bike_id":"5e1e23fa-c9a1-4e0c-be84-bf81860921f1","system_id":"levelo_inurba_marseille","lat":43.29569,"lon":5.37502,"is_reserved":false,"is_disabled":false,"rental_uris":{"android":"levelo://app?vid=5e1e23fa-c9a1-4e0c-be84-bf81860921f1","ios":"levelo://app?vid=5e1e23fa-c9a1-4e0c-be84-bf81860921f1"},"vehicle_type_id":"4","last_reported":1741248782,"current_range_meters":11600,"station_id":"ce4bgh92rcd13ifvqb50","pricing_plan_id":"cebpf4jnsgd1na2vs0mg"},{"bike_id":"6ec3a4f4-60e9-4f50-8fdf-a828493c5d94","system_id":"levelo_inurba_marseille","lat":43.25819,"lon":5.39441,"is_reserved":false,"is_disabled":false,"rental_uris":{"android":"levelo://app?vid=6ec3a4f4-60e9-4f50-8fdf-a828493c5d94","ios":"levelo://app?vid=6ec3a4f4-60e9-4f50-8fdf-a828493c5d94"},"vehicle_type_id":"4","last_reported":1741248782,"current_range_meters":11200,"station_id":"ce4bhip2rcd13ifvqft0","pricing_plan_id":"cebpf4jnsgd1na2vs0mg"},{"bike_id":"2f13ac6e-5ae7-4fa4-ada4-d67c6ba6ff87","system_id":"levelo_inurba_marseille","lat":43.24069,"lon":5.37765,"is_reserved":false,"is_disabled":false,"rental_uris":{"android":"levelo://app?vid=2f13ac6e-5ae7-4fa4-ada4-d67c6ba6ff87","ios":"levelo://app?vid=2f13ac6e-5ae7-4fa4-ada4-d67c6ba6ff87"},"vehicle_type_id":"4","last_reported":1741248782,"current_range_meters":11600,"station_id":"ce4bhnp2rcd13ifvqgvg","pricing_plan_id":"cebpf4jnsgd1na2vs0mg"},{"bike_id":"6a10ab3a-3ca6-4b1f-815c-473ed184eb58","system_id":"levelo_inurba_marseille","lat":43.2971,"lon":5.37697,"is_reserved":false,"is_disabled":true,"rental_uris":{"android":"levelo://app?vid=6a10ab3a-3ca6-4b1f-815c-473ed184eb58","ios":"levelo://app?vid=6a10ab3a-3ca6-4b1f-815c-473ed184eb58"},"vehicle_type_id":"4","last_reported":1741248782,"current_range_meters":12000,"station_id":"ce4bgkh2rcd13ifvqbl0","pricing_plan_id":"cebpf4jnsgd1na2vs0mg"},{"bike_id":"4e1cdc49-af7b-47c8-9d94-cfe80a7f541e","system_id":"levelo_inurba_marseille","lat":43.28931,"lon":5.36407,"is_reserved":false,"is_disabled":false,"rental_uris":{"android":"levelo://app?vid=4e1cdc49-af7b-47c8-9d94-cfe80a7f541e","ios":"levelo://app?vid=4e1cdc49-af7b-47c8-9d94-cfe80a7f541e"},"vehicle_type_id":"4","last_reported":1741248782,"current_range_meters":12000,"station_id":"ce4bhc92rcd13ifvqetg","pricing_plan_id":"cebpf4jnsgd1na2vs0mg"},{"bike_id":"256ec39e-52a0-462f-859c-5a80cf63590f","system_id":"levelo_inurba_marseille","lat":43.28152,"lon":5.42652,"is_reserved":false,"is_disabled":false,"rental_uris":{"android":"levelo://app?vid=256ec39e-52a0-462f-859c-5a80cf63590f","ios":"levelo://app?vid=256ec39e-52a0-462f-859c-5a80cf63590f"},"vehicle_type_id":"4","last_reported":1741248782,"current_range_meters":12000,"station_id":"ce4bhnh2rcd13ifvqgug","pricing_plan_id":"cebpf4jnsgd1na2vs0mg"},{"bike_id":"6141413a-76b4-458f-bc62-7dd44b9ebc8a","system_id":"levelo_inurba_marseille","lat":43.23963,"lon":5.36636,"is_reserved":false,"is_disabled":false,"rental_uris":{"android":"levelo://app?vid=6141413a-76b4-458f-bc62-7dd44b9ebc8a","ios":"levelo://app?vid=6141413a-76b4-458f-bc62-7dd44b9ebc8a"},"vehicle_type_id":"4","last_reported":1741248782,"current_range_meters":12000,"station_id":"ce4bhi12rcd13ifvqfp0","pricing_plan_id":"cebpf4jnsgd1na2vs0mg"},{"bike_id":"5767adce-4b87-4fa6-ab5a-cd6bc1f79831","system_id":"levelo_inurba_marseille","lat":43.29577,"lon":5.40245,"is_reserved":false,"is_disabled":false,"rental_uris":{"android":"levelo://app?vid=5767adce-4b87-4fa6-ab5a-cd6bc1f79831","ios":"levelo://app?vid=5767adce-4b87-4fa6-ab5a-cd6bc1f79831"},"vehicle_type_id":"4","last_reported":1741248782,"current_range_meters":12000,"station_id":"","pricing_plan_id":"cebpf4jnsgd1na2vs0mg"},{"bike_id":"555571b1-4467-4936-add6-ddfc1b7acb97","system_id":"levelo_inurba_marseille","lat":43.29165,"lon":5.37167,"is_reserved":false,"is_disabled":false,"rental_uris":{"android":"levelo://app?vid=555571b1-4467-4936-add6-ddfc1b7acb97","ios":"levelo://app?vid=555571b1-4467-4936-add6-ddfc1b7acb97"},"vehicle_type_id":"4","last_reported":1741248782,"current_range_meters":12400,"station_id":"ce4bha92rcd13ifvqeh0","pricing_plan_id":"cebpf4jnsgd1na2vs0mg"},{"bike_id":"8134f7ea-26fd-45e4-a10d-7b2983f8d709","system_id":"levelo_inurba_marseille","lat":43.27316,"lon":5.39075,"is_reserved":false,"is_disabled":false,"rental_uris":{"android":"levelo://app?vid=8134f7ea-26fd-45e4-a10d-7b2983f8d709","ios":"levelo://app?vid=8134f7ea-26fd-45e4-a10d-7b2983f8d709"},"vehicle_type_id":"4","last_reported":1741248782,"current_range_meters":12400,"station_id":"ce4bhgp2rcd13ifvqfe0","pricing_plan_id":"cebpf4jnsgd1na2vs0mg"},{"bike_id":"acf20595-7755-43d3-8c8f-296b234b0f1b","system_id":"levelo_inurba_marseille","lat":43.25092,"lon":5.41093,"is_reserved":false,"is_disabled":false,"rental_uris":{"android":"levelo://app?vid=acf20595-7755-43d3-8c8f-296b234b0f1b","ios":"levelo://app?vid=acf20595-7755-43d3-8c8f-296b234b0f1b"},"vehicle_type_id":"4","last_reported":1741248782,"current_range_meters":12400,"station_id":"","pricing_plan_id":"cebpf4jnsgd1na2vs0mg"},{"bike_id":"34eb7e1a-e697-4832-8325-771d27e75dc2","system_id":"levelo_inurba_marseille","lat":43.30143,"lon":5.38085,"is_reserved":false,"is_disabled":false,"rental_uris":{"android":"levelo://app?vid=34eb7e1a-e697-4832-8325-771d27e75dc2","ios":"levelo://app?vid=34eb7e1a-e697-4832-8325-771d27e75dc2"},"vehicle_type_id":"4","last_reported":1741248782,"current_range_meters":12800,"station_id":"ce4bgjp2rcd13ifvqbh0","pricing_plan_id":"cebpf4jnsgd1na2vs0mg"},{"bike_id":"874c23c8-e11f-44da-acf3-2a35d786f614","system_id":"levelo_inurba_marseille","lat":43.32066,"lon":5.41566,"is_reserved":false,"is_disabled":false,"rental_uris":{"android":"levelo://app?vid=874c23c8-e11f-44da-acf3-2a35d786f614","ios":"levelo://app?vid=874c23c8-e11f-44da-acf3-2a35d786f614"},"vehicle_type_id":"4","last_reported":1741248782,"current_range_meters":12800,"station_id":"ce4bhq92rcd13ifvqhkg","pricing_plan_id":"cebpf4jnsgd1na2vs0mg"},{"bike_id":"80af55fa-34d7-4164-a471-70c17fa994c2","system_id":"levelo_inurba_marseille","lat":43.27493,"lon":5.42468,"is_reserved":false,"is_disabled":false,"rental_uris":{"android":"levelo://app?vid=80af55fa-34d7-4164-a471-70c17fa994c2","ios":"levelo://app?vid=80af55fa-34d7-4164-a471-70c17fa994c2"},"vehicle_type_id":"4","last_reported":1741248782,"current_range_meters":12800,"station_id":"ce4bhn92rcd13ifvqgrg","pricing_plan_id":"cebpf4jnsgd1na2vs0mg"},{"bike_id":"fbe84848-7cd9-4c96-bce4-a1b0c23e4f2a","system_id":"levelo_inurba_marseille","lat":43.29339,"lon":5.37869,"is_reserved":false,"is_disabled":false,"rental_uris":{"android":"levelo://app?vid=fbe84848-7cd9-4c96-bce4-a1b0c23e4f2a","ios":"levelo://app?vid=fbe84848-7cd9-4c96-bce4-a1b0c23e4f2a"},"vehicle_type_id":"4","last_reported":1741248782,"current_range_meters":12800,"station_id":"ce4bgjh2rcd13ifvqbf0","pricing_plan_id":"cebpf4jnsgd1na2vs0mg"},{"bike_id":"b0dd1700-a77f-4882-839d-b1813f6c5375","system_id":"levelo_inurba_marseille","lat":43.27203,"lon":5.39196,"is_reserved":false,"is_disabled":true,"rental_uris":{"android":"levelo://app?vid=b0dd1700-a77f-4882-839d-b1813f6c5375","ios":"levelo://app?vid=b0dd1700-a77f-4882-839d-b1813f6c5375"},"vehicle_type_id":"4","last_reported":1741248782,"current_range_meters":12800,"station_id":"ce4bhhp2rcd13ifvqfm0","pricing_plan_id":"cebpf4jnsgd1na2vs0mg"},{"bike_id":"01dfbd8b-ab52-4dd2-ac7a-a7b688f1fa8e","system_id":"levelo_inurba_marseille","lat":43.27485,"lon":5.42467,"is_reserved":false,"is_disabled":false,"rental_uris":{"android":"levelo://app?vid=01dfbd8b-ab52-4dd2-ac7a-a7b688f1fa8e","ios":"levelo://app?vid=01dfbd8b-ab52-4dd2-ac7a-a7b688f1fa8e"},"vehicle_type_id":"4","last_reported":1741248782,"current_range_meters":12800,"station_id":"ce4bhn92rcd13ifvqgrg","pricing_plan_id":"cebpf4jnsgd1na2vs0mg"},{"bike_id":"c58daae2-b17d-4b5b-826f-cfd507262ada","system_id":"levelo_inurba_marseille","lat":43.27486,"lon":5.42461,"is_reserved":false,"is_disabled":false,"rental_uris":{"android":"levelo://app?vid=c58daae2-b17d-4b5b-826f-cfd507262ada","ios":"levelo://app?vid=c58daae2-b17d-4b5b-826f-cfd507262ada"},"vehicle_type_id":"4","last_reported":1741248782,"current_range_meters":12800,"station_id":"ce4bhn92rcd13ifvqgrg","pricing_plan_id":"cebpf4jnsgd1na2vs0mg"},{"bike_id":"ebc35e79-9ed2-4996-806d-80a78a55576c","system_id":"levelo_inurba_marseille","lat":43.29573,"lon":5.37529,"is_reserved":false,"is_disabled":false,"rental_uris":{"android":"levelo://app?vid=ebc35e79-9ed2-4996-806d-80a78a55576c","ios":"levelo://app?vid=ebc35e79-9ed2-4996-806d-80a78a55576c"},"vehicle_type_id":"4","last_reported":1741248782,"current_range_meters":13600,"station_id":"ce4bgh92rcd13ifvqb50","pricing_plan_id":"cebpf4jnsgd1na2vs0mg"},{"bike_id":"f927a9c8-5d84-472f-b8fd-88f2fc3bc3e6","system_id":"levelo_inurba_marseille","lat":43.29886,"lon":5.43672,"is_reserved":false,"is_disabled":false,"rental_uris":{"android":"levelo://app?vid=f927a9c8-5d84-472f-b8fd-88f2fc3bc3e6","ios":"levelo://app?vid=f927a9c8-5d84-472f-b8fd-88f2fc3bc3e6"},"vehicle_type_id":"4","last_reported":1741248782,"current_range_meters":13600,"station_id":"ce4bhpp2rcd13ifvqhfg","pricing_plan_id":"cebpf4jnsgd1na2vs0mg"},{"bike_id":"94aa6fdd-407a-4b35-bdeb-c61a6a730bb2","system_id":"levelo_inurba_marseille","lat":43.3188,"lon":5.40738,"is_reserved":false,"is_disabled":false,"rental_uris":{"android":"levelo://app?vid=94aa6fdd-407a-4b35-bdeb-c61a6a730bb2","ios":"levelo://app?vid=94aa6fdd-407a-4b35-bdeb-c61a6a730bb2"},"vehicle_type_id":"4","last_reported":1741248782,"current_range_meters":13600,"station_id":"ce4bhq12rcd13ifvqhig","pricing_plan_id":"cebpf4jnsgd1na2vs0mg"},{"bike_id":"117ff0a2-4b59-42de-85b5-00fcb4ead14f","system_id":"levelo_inurba_marseille","lat":43.23962,"lon":5.36636,"is_reserved":false,"is_disabled":false,"rental_uris":{"android":"levelo://app?vid=117ff0a2-4b59-42de-85b5-00fcb4ead14f","ios":"levelo://app?vid=117ff0a2-4b59-42de-85b5-00fcb4ead14f"},"vehicle_type_id":"4","last_reported":1741248782,"current_range_meters":13600,"station_id":"ce4bhi12rcd13ifvqfp0","pricing_plan_id":"cebpf4jnsgd1na2vs0mg"},{"bike_id":"f18533d3-e8c2-4394-96b5-cb952d5fa39b","system_id":"levelo_inurba_marseille","lat":43.24059,"lon":5.37761,"is_reserved":false,"is_disabled":false,"rental_uris":{"android":"levelo://app?vid=f18533d3-e8c2-4394-96b5-cb952d5fa39b","ios":"levelo://app?vid=f18533d3-e8c2-4394-96b5-cb952d5fa39b"},"vehicle_type_id":"4","last_reported":1741248782,"current_range_meters":14000,"station_id":"ce4bhnp2rcd13ifvqgvg","pricing_plan_id":"cebpf4jnsgd1na2vs0mg"},{"bike_id":"14c614bb-d452-444b-9510-0dd691159d3e","system_id":"levelo_inurba_marseille","lat":43.30961,"lon":5.39039,"is_reserved":false,"is_disabled":false,"rental_uris":{"android":"levelo://app?vid=14c614bb-d452-444b-9510-0dd691159d3e","ios":"levelo://app?vid=14c614bb-d452-444b-9510-0dd691159d3e"},"vehicle_type_id":"4","last_reported":1741248782,"current_range_meters":14000,"station_id":"ce4bgup2rcd13ifvqco0","pricing_plan_id":"cebpf4jnsgd1na2vs0mg"},{"bike_id":"9ec83695-2c29-406b-930c-97d35d980aad","system_id":"levelo_inurba_marseille","lat":43.31344,"lon":5.36727,"is_reserved":false,"is_disabled":false,"rental_uris":{"android":"levelo://app?vid=9ec83695-2c29-406b-930c-97d35d980aad","ios":"levelo://app?vid=9ec83695-2c29-406b-930c-97d35d980aad"},"vehicle_type_id":"4","last_reported":1741248782,"current_range_meters":14000,"station_id":"ce4bgr92rcd13ifvqc6g","pricing_plan_id":"cebpf4jnsgd1na2vs0mg"},{"bike_id":"0683a293-51f0-4d0e-abbf-5ca227d6f896","system_id":"levelo_inurba_marseille","lat":43.32517,"lon":5.36581,"is_reserved":false,"is_disabled":false,"rental_uris":{"android":"levelo://app?vid=0683a293-51f0-4d0e-abbf-5ca227d6f896","ios":"levelo://app?vid=0683a293-51f0-4d0e-abbf-5ca227d6f896"},"vehicle_type_id":"4","last_reported":1741248782,"current_range_meters":14000,"station_id":"ce4bhs12rcd13ifvqhvg","pricing_plan_id":"cebpf4jnsgd1na2vs0mg"},{"bike_id":"ce51e43d-08e5-4352-a6bd-d7aa7e8463bf","system_id":"levelo_inurba_marseille","lat":43.32471,"lon":5.36589,"is_reserved":false,"is_disabled":false,"rental_uris":{"android":"levelo://app?vid=ce51e43d-08e5-4352-a6bd-d7aa7e8463bf","ios":"levelo://app?vid=ce51e43d-08e5-4352-a6bd-d7aa7e8463bf"},"vehicle_type_id":"4","last_reported":1741248782,"current_range_meters":14400,"station_id":"ce4bhs12rcd13ifvqhvg","pricing_plan_id":"cebpf4jnsgd1na2vs0mg"},{"bike_id":"6e083c3e-306f-4458-b91b-e9249cf82727","system_id":"levelo_inurba_marseille","lat":43.28717,"lon":5.37927,"is_reserved":false,"is_disabled":false,"rental_uris":{"android":"levelo://app?vid=6e083c3e-306f-4458-b91b-e9249cf82727","ios":"levelo://app?vid=6e083c3e-306f-4458-b91b-e9249cf82727"},"vehicle_type_id":"4","last_reported":1741248782,"current_range_meters":14400,"station_id":"ce4bh9p2rcd13ifvqec0","pricing_plan_id":"cebpf4jnsgd1na2vs0mg"},{"bike_id":"6c99dfd8-d625-4300-885c-051572aeff3f","system_id":"levelo_inurba_marseille","lat":43.25935,"lon":5.40911,"is_reserved":false,"is_disabled":false,"rental_uris":{"android":"levelo://app?vid=6c99dfd8-d625-4300-885c-051572aeff3f","ios":"levelo://app?vid=6c99dfd8-d625-4300-885c-051572aeff3f"},"vehicle_type_id":"4","last_reported":1741248782,"current_range_meters":14800,"station_id":"ce4bhm92rcd13ifvqglg","pricing_plan_id":"cebpf4jnsgd1na2vs0mg"},{"bike_id":"75c6c646-6ede-44e8-83f0-659d8c20c0df","system_id":"levelo_inurba_marseille","lat":43.29031,"lon":5.39971,"is_reserved":false,"is_disabled":false,"rental_uris":{"android":"levelo://app?vid=75c6c646-6ede-44e8-83f0-659d8c20c0df","ios":"levelo://app?vid=75c6c646-6ede-44e8-83f0-659d8c20c0df"},"vehicle_type_id":"4","last_reported":1741248782,"current_range_meters":14800,"station_id":"ce4bh392rcd13ifvqdm0","pricing_plan_id":"cebpf4jnsgd1na2vs0mg"},{"bike_id":"b0766de9-90bf-4a08-b876-4d127002ea41","system_id":"levelo_inurba_marseille","lat":43.29932,"lon":5.36548,"is_reserved":false,"is_disabled":false,"rental_uris":{"android":"levelo://app?vid=b0766de9-90bf-4a08-b876-4d127002ea41","ios":"levelo://app?vid=b0766de9-90bf-4a08-b876-4d127002ea41"},"vehicle_type_id":"4","last_reported":1741248782,"current_range_meters":14800,"station_id":"ce4bgm92rcd13ifvqbr0","pricing_plan_id":"cebpf4jnsgd1na2vs0mg"},{"bike_id":"0ebf0413-9c61-450c-8df7-460a531d70cc","system_id":"levelo_inurba_marseille","lat":43.30295,"lon":5.3687,"is_reserved":false,"is_disabled":false,"rental_uris":{"android":"levelo://app?vid=0ebf0413-9c61-450c-8df7-460a531d70cc","ios":"levelo://app?vid=0ebf0413-9c61-450c-8df7-460a531d70cc"},"vehicle_type_id":"4","last_reported":1741248782,"current_range_meters":15200,"station_id":"ce4bgqh2rcd13ifvqc5g","pricing_plan_id":"cebpf4jnsgd1na2vs0mg"},{"bike_id":"3ceff1ce-ec01-40f7-aa8f-3eb11f7a7eb0","system_id":"levelo_inurba_marseille","lat":43.2668,"lon":5.38276,"is_reserved":false,"is_disabled":false,"rental_uris":{"android":"levelo://app?vid=3ceff1ce-ec01-40f7-aa8f-3eb11f7a7eb0","ios":"levelo://app?vid=3ceff1ce-ec01-40f7-aa8f-3eb11f7a7eb0"},"vehicle_type_id":"4","last_reported":1741248782,"current_range_meters":15200,"station_id":"ce4bhg92rcd13ifvqf90","pricing_plan_id":"cebpf4jnsgd1na2vs0mg"},{"bike_id":"b81487e6-4e94-4796-b0f1-26f672c3916d","system_id":"levelo_inurba_marseille","lat":43.30914,"lon":5.36846,"is_reserved":false,"is_disabled":false,"rental_uris":{"android":"levelo://app?vid=b81487e6-4e94-4796-b0f1-26f672c3916d","ios":"levelo://app?vid=b81487e6-4e94-4796-b0f1-26f672c3916d"},"vehicle_type_id":"4","last_reported":1741248782,"current_range_meters":15200,"station_id":"ce4bgn92rcd13ifvqbvg","pricing_plan_id":"cebpf4jnsgd1na2vs0mg"},{"bike_id":"7940066d-cd24-41b6-836e-1355fc2b9e03","system_id":"levelo_inurba_marseille","lat":43.231909,"lon":5.355595,"is_reserved":false,"is_disabled":false,"rental_uris":{"android":"levelo://app?vid=7940066d-cd24-41b6-836e-1355fc2b9e03","ios":"levelo://app?vid=7940066d-cd24-41b6-836e-1355fc2b9e03"},"vehicle_type_id":"4","last_reported":1741248782,"current_range_meters":15200,"station_id":"ce4bhu92rcd13ifvqi70","pricing_plan_id":"cebpf4jnsgd1na2vs0mg"},{"bike_id":"14b2df03-59da-4e8a-a6db-62ffbf999cf7","system_id":"levelo_inurba_marseille","lat":43.30462,"lon":5.37917,"is_reserved":false,"is_disabled":false,"rental_uris":{"android":"levelo://app?vid=14b2df03-59da-4e8a-a6db-62ffbf999cf7","ios":"levelo://app?vid=14b2df03-59da-4e8a-a6db-62ffbf999cf7"},"vehicle_type_id":"4","last_reported":1741248782,"current_range_meters":15200,"station_id":"ce4bgup2rcd13ifvqcn0","pricing_plan_id":"cebpf4jnsgd1na2vs0mg"},{"bike_id":"2fca19b5-9798-4007-b717-4383dc17e6a6","system_id":"levelo_inurba_marseille","lat":43.29281,"lon":5.36847,"is_reserved":false,"is_disabled":false,"rental_uris":{"android":"levelo://app?vid=2fca19b5-9798-4007-b717-4383dc17e6a6","ios":"levelo://app?vid=2fca19b5-9798-4007-b717-4383dc17e6a6"},"vehicle_type_id":"4","last_reported":1741248782,"current_range_meters":15200,"station_id":"ce4bhbp2rcd13ifvqesg","pricing_plan_id":"cebpf4jnsgd1na2vs0mg"},{"bike_id":"43a21f8b-75c9-4ec3-95f2-27f994c3c63d","system_id":"levelo_inurba_marseille","lat":43.2936,"lon":5.37854,"is_reserved":false,"is_disabled":false,"rental_uris":{"android":"levelo://app?vid=43a21f8b-75c9-4ec3-95f2-27f994c3c63d","ios":"levelo://app?vid=43a21f8b-75c9-4ec3-95f2-27f994c3c63d"},"vehicle_type_id":"4","last_reported":1741248782,"current_range_meters":15200,"station_id":"ce4bgjh2rcd13ifvqbf0","pricing_plan_id":"cebpf4jnsgd1na2vs0mg"},{"bike_id":"b7e46344-26a2-46d7-b6ce-f842f527b1ec","system_id":"levelo_inurba_marseille","lat":43.26751,"lon":5.39418,"is_reserved":false,"is_disabled":false,"rental_uris":{"android":"levelo://app?vid=b7e46344-26a2-46d7-b6ce-f842f527b1ec","ios":"levelo://app?vid=b7e46344-26a2-46d7-b6ce-f842f527b1ec"},"vehicle_type_id":"4","last_reported":1741248782,"current_range_meters":14800,"station_id":"ce4bhh12rcd13ifvqfg0","pricing_plan_id":"cebpf4jnsgd1na2vs0mg"},{"bike_id":"5c6be960-a5b3-4d43-a35f-9c2d69c5c96c","system_id":"levelo_inurba_marseille","lat":43.30527,"lon":5.36719,"is_reserved":false,"is_disabled":false,"rental_uris":{"android":"levelo://app?vid=5c6be960-a5b3-4d43-a35f-9c2d69c5c96c","ios":"levelo://app?vid=5c6be960-a5b3-4d43-a35f-9c2d69c5c96c"},"vehicle_type_id":"4","last_reported":1741248782,"current_range_meters":16000,"station_id":"ce4bgrp2rcd13ifvqc9g","pricing_plan_id":"cebpf4jnsgd1na2vs0mg"},{"bike_id":"52b19b0a-896e-4508-971e-9b8862ef11d0","system_id":"levelo_inurba_marseille","lat":43.23056,"lon":5.35512,"is_reserved":false,"is_disabled":false,"rental_uris":{"android":"levelo://app?vid=52b19b0a-896e-4508-971e-9b8862ef11d0","ios":"levelo://app?vid=52b19b0a-896e-4508-971e-9b8862ef11d0"},"vehicle_type_id":"4","last_reported":1741248782,"current_range_meters":16000,"station_id":"cpo3342slgdg3j2ifvpg","pricing_plan_id":"cebpf4jnsgd1na2vs0mg"},{"bike_id":"3de79faf-845c-411a-bed1-d17338ee94c9","system_id":"levelo_inurba_marseille","lat":43.29932,"lon":5.36554,"is_reserved":false,"is_disabled":false,"rental_uris":{"android":"levelo://app?vid=3de79faf-845c-411a-bed1-d17338ee94c9","ios":"levelo://app?vid=3de79faf-845c-411a-bed1-d17338ee94c9"},"vehicle_type_id":"4","last_reported":1741248782,"current_range_meters":16000,"station_id":"ce4bgm92rcd13ifvqbr0","pricing_plan_id":"cebpf4jnsgd1na2vs0mg"},{"bike_id":"f2896ecd-b24b-46c4-8d75-7e3bebc05adf","system_id":"levelo_inurba_marseille","lat":43.29523,"lon":5.38564,"is_reserved":false,"is_disabled":true,"rental_uris":{"android":"levelo://app?vid=f2896ecd-b24b-46c4-8d75-7e3bebc05adf","ios":"levelo://app?vid=f2896ecd-b24b-46c4-8d75-7e3bebc05adf"},"vehicle_type_id":"4","last_reported":1741248782,"current_range_meters":16000,"station_id":"ce4bgih2rcd13ifvqba0","pricing_plan_id":"cebpf4jnsgd1na2vs0mg"},{"bike_id":"7233be05-6f76-45bb-a8fd-8e7cb22511bd","system_id":"levelo_inurba_marseille","lat":43.3149,"lon":5.37296,"is_reserved":false,"is_disabled":false,"rental_uris":{"android":"levelo://app?vid=7233be05-6f76-45bb-a8fd-8e7cb22511bd","ios":"levelo://app?vid=7233be05-6f76-45bb-a8fd-8e7cb22511bd"},"vehicle_type_id":"4","last_reported":1741248782,"current_range_meters":16000,"station_id":"ce4bgt12rcd13ifvqcd0","pricing_plan_id":"cebpf4jnsgd1na2vs0mg"},{"bike_id":"cdc8e7fb-4ec4-4ee1-93cd-c6a9c51d8011","system_id":"levelo_inurba_marseille","lat":43.3055,"lon":5.38418,"is_reserved":false,"is_disabled":false,"rental_uris":{"android":"levelo://app?vid=cdc8e7fb-4ec4-4ee1-93cd-c6a9c51d8011","ios":"levelo://app?vid=cdc8e7fb-4ec4-4ee1-93cd-c6a9c51d8011"},"vehicle_type_id":"4","last_reported":1741248782,"current_range_meters":16000,"station_id":"ce4bgg92rcd13ifvqb30","pricing_plan_id":"cebpf4jnsgd1na2vs0mg"},{"bike_id":"0881235a-065f-4c74-9752-beabaa0e1114","system_id":"levelo_inurba_marseille","lat":43.30954,"lon":5.4017,"is_reserved":false,"is_disabled":false,"rental_uris":{"android":"levelo://app?vid=0881235a-065f-4c74-9752-beabaa0e1114","ios":"levelo://app?vid=0881235a-065f-4c74-9752-beabaa0e1114"},"vehicle_type_id":"4","last_reported":1741248782,"current_range_meters":16000,"station_id":"ce4bgvp2rcd13ifvqct0","pricing_plan_id":"cebpf4jnsgd1na2vs0mg"},{"bike_id":"46f153d7-d367-47e8-ba20-9670ea3e5713","system_id":"levelo_inurba_marseille","lat":43.25725,"lon":5.4111,"is_reserved":false,"is_disabled":false,"rental_uris":{"android":"levelo://app?vid=46f153d7-d367-47e8-ba20-9670ea3e5713","ios":"levelo://app?vid=46f153d7-d367-47e8-ba20-9670ea3e5713"},"vehicle_type_id":"4","last_reported":1741248782,"current_range_meters":15200,"station_id":"ce4bhkp2rcd13ifvqgd0","pricing_plan_id":"cebpf4jnsgd1na2vs0mg"},{"bike_id":"b4889f0f-05ff-4cbb-9e94-655e83898777","system_id":"levelo_inurba_marseille","lat":43.27065,"lon":5.42277,"is_reserved":false,"is_disabled":false,"rental_uris":{"android":"levelo://app?vid=b4889f0f-05ff-4cbb-9e94-655e83898777","ios":"levelo://app?vid=b4889f0f-05ff-4cbb-9e94-655e83898777"},"vehicle_type_id":"4","last_reported":1741248782,"current_range_meters":15200,"station_id":"ce4bhk92rcd13ifvqgb0","pricing_plan_id":"cebpf4jnsgd1na2vs0mg"},{"bike_id":"1aa82c63-75b3-46e7-ac7d-0ef2e8ebbc04","system_id":"levelo_inurba_marseille","lat":43.29801,"lon":5.38103,"is_reserved":false,"is_disabled":false,"rental_uris":{"android":"levelo://app?vid=1aa82c63-75b3-46e7-ac7d-0ef2e8ebbc04","ios":"levelo://app?vid=1aa82c63-75b3-46e7-ac7d-0ef2e8ebbc04"},"vehicle_type_id":"4","last_reported":1741248782,"current_range_meters":16000,"station_id":"ce4bgip2rcd13ifvqbb0","pricing_plan_id":"cebpf4jnsgd1na2vs0mg"},{"bike_id":"1beb12c1-e629-4277-b647-869437ab09f2","system_id":"levelo_inurba_marseille","lat":43.24172,"lon":5.39748,"is_reserved":false,"is_disabled":false,"rental_uris":{"android":"levelo://app?vid=1beb12c1-e629-4277-b647-869437ab09f2","ios":"levelo://app?vid=1beb12c1-e629-4277-b647-869437ab09f2"},"vehicle_type_id":"4","last_reported":1741248782,"current_range_meters":16000,"station_id":"ce4bhn12rcd13ifvqgpg","pricing_plan_id":"cebpf4jnsgd1na2vs0mg"},{"bike_id":"d0975067-6820-4c9b-8967-2dcd7378fd4f","system_id":"levelo_inurba_marseille","lat":43.30468,"lon":5.37918,"is_reserved":false,"is_disabled":false,"rental_uris":{"android":"levelo://app?vid=d0975067-6820-4c9b-8967-2dcd7378fd4f","ios":"levelo://app?vid=d0975067-6820-4c9b-8967-2dcd7378fd4f"},"vehicle_type_id":"4","last_reported":1741248782,"current_range_meters":16000,"station_id":"ce4bgup2rcd13ifvqcn0","pricing_plan_id":"cebpf4jnsgd1na2vs0mg"},{"bike_id":"c457bd3f-62ab-4ed1-b5f6-522eb15d06bb","system_id":"levelo_inurba_marseille","lat":43.291966,"lon":5.358029,"is_reserved":false,"is_disabled":false,"rental_uris":{"android":"levelo://app?vid=c457bd3f-62ab-4ed1-b5f6-522eb15d06bb","ios":"levelo://app?vid=c457bd3f-62ab-4ed1-b5f6-522eb15d06bb"},"vehicle_type_id":"4","last_reported":1741248782,"current_range_meters":16000,"station_id":"ce4bhc92rcd13ifvqetg","pricing_plan_id":"cebpf4jnsgd1na2vs0mg"},{"bike_id":"96466a0c-1384-4def-a6a0-c76c0eb0954d","system_id":"levelo_inurba_marseille","lat":43.30912,"lon":5.3685,"is_reserved":false,"is_disabled":false,"rental_uris":{"android":"levelo://app?vid=96466a0c-1384-4def-a6a0-c76c0eb0954d","ios":"levelo://app?vid=96466a0c-1384-4def-a6a0-c76c0eb0954d"},"vehicle_type_id":"4","last_reported":1741248782,"current_range_meters":16000,"station_id":"ce4bgn92rcd13ifvqbvg","pricing_plan_id":"cebpf4jnsgd1na2vs0mg"},{"bike_id":"f099266f-1198-4bef-a4fe-16c8cb3386fc","system_id":"levelo_inurba_marseille","lat":43.30528,"lon":5.36538,"is_reserved":false,"is_disabled":false,"rental_uris":{"android":"levelo://app?vid=f099266f-1198-4bef-a4fe-16c8cb3386fc","ios":"levelo://app?vid=f099266f-1198-4bef-a4fe-16c8cb3386fc"},"vehicle_type_id":"4","last_reported":1741248782,"current_range_meters":16400,"station_id":"ce4bgs12rcd13ifvqcag","pricing_plan_id":"cebpf4jnsgd1na2vs0mg"},{"bike_id":"5185f4c6-e83b-4664-bd97-fc9642e2a1d6","system_id":"levelo_inurba_marseille","lat":43.30541,"lon":5.36544,"is_reserved":false,"is_disabled":false,"rental_uris":{"android":"levelo://app?vid=5185f4c6-e83b-4664-bd97-fc9642e2a1d6","ios":"levelo://app?vid=5185f4c6-e83b-4664-bd97-fc9642e2a1d6"},"vehicle_type_id":"4","last_reported":1741248782,"current_range_meters":16400,"station_id":"ce4bgs12rcd13ifvqcag","pricing_plan_id":"cebpf4jnsgd1na2vs0mg"},{"bike_id":"8ee5f723-8d35-4bd4-90aa-e1609b359182","system_id":"levelo_inurba_marseille","lat":43.274897,"lon":5.424637,"is_reserved":false,"is_disabled":false,"rental_uris":{"android":"levelo://app?vid=8ee5f723-8d35-4bd4-90aa-e1609b359182","ios":"levelo://app?vid=8ee5f723-8d35-4bd4-90aa-e1609b359182"},"vehicle_type_id":"4","last_reported":1741248782,"current_range_meters":16400,"station_id":"ce4bhn92rcd13ifvqgrg","pricing_plan_id":"cebpf4jnsgd1na2vs0mg"},{"bike_id":"f76ef92a-afcb-4eb8-8085-0b627333f957","system_id":"levelo_inurba_marseille","lat":43.29357,"lon":5.37837,"is_reserved":false,"is_disabled":false,"rental_uris":{"android":"levelo://app?vid=f76ef92a-afcb-4eb8-8085-0b627333f957","ios":"levelo://app?vid=f76ef92a-afcb-4eb8-8085-0b627333f957"},"vehicle_type_id":"4","last_reported":1741248782,"current_range_meters":16000,"station_id":"ce4bgjh2rcd13ifvqbf0","pricing_plan_id":"cebpf4jnsgd1na2vs0mg"},{"bike_id":"b085439e-cb6b-496a-a8f4-7c0b0e3f5ec0","system_id":"levelo_inurba_marseille","lat":43.33765,"lon":5.35572,"is_reserved":false,"is_disabled":false,"rental_uris":{"android":"levelo://app?vid=b085439e-cb6b-496a-a8f4-7c0b0e3f5ec0","ios":"levelo://app?vid=b085439e-cb6b-496a-a8f4-7c0b0e3f5ec0"},"vehicle_type_id":"4","last_reported":1741248782,"current_range_meters":16400,"station_id":"","pricing_plan_id":"cebpf4jnsgd1na2vs0mg"},{"bike_id":"b2d7984b-f695-4724-b688-65efa1ea68ce","system_id":"levelo_inurba_marseille","lat":43.260199,"lon":5.375552,"is_reserved":false,"is_disabled":false,"rental_uris":{"android":"levelo://app?vid=b2d7984b-f695-4724-b688-65efa1ea68ce","ios":"levelo://app?vid=b2d7984b-f695-4724-b688-65efa1ea68ce"},"vehicle_type_id":"4","last_reported":1741248782,"current_range_meters":16800,"station_id":"ce4bgn92rcd13ifvqbvg","pricing_plan_id":"cebpf4jnsgd1na2vs0mg"},{"bike_id":"075c435d-6b14-4dfb-91b7-09fb5f865434","system_id":"levelo_inurba_marseille","lat":43.313596,"lon":5.366916,"is_reserved":false,"is_disabled":false,"rental_uris":{"android":"levelo://app?vid=075c435d-6b14-4dfb-91b7-09fb5f865434","ios":"levelo://app?vid=075c435d-6b14-4dfb-91b7-09fb5f865434"},"vehicle_type_id":"4","last_reported":1741248782,"current_range_meters":16800,"station_id":"ce4bgr92rcd13ifvqc6g","pricing_plan_id":"cebpf4jnsgd1na2vs0mg"},{"bike_id":"9d48d9fa-a15e-4d33-9598-696d2dab2014","system_id":"levelo_inurba_marseille","lat":43.24067,"lon":5.37773,"is_reserved":false,"is_disabled":false,"rental_uris":{"android":"levelo://app?vid=9d48d9fa-a15e-4d33-9598-696d2dab2014","ios":"levelo://app?vid=9d48d9fa-a15e-4d33-9598-696d2dab2014"},"vehicle_type_id":"4","last_reported":1741248782,"current_range_meters":16800,"station_id":"ce4bhnp2rcd13ifvqgvg","pricing_plan_id":"cebpf4jnsgd1na2vs0mg"},{"bike_id":"218732f9-7aab-45b6-927d-b736f1586618","system_id":"levelo_inurba_marseille","lat":43.3186,"lon":5.38771,"is_reserved":false,"is_disabled":false,"rental_uris":{"android":"levelo://app?vid=218732f9-7aab-45b6-927d-b736f1586618","ios":"levelo://app?vid=218732f9-7aab-45b6-927d-b736f1586618"},"vehicle_type_id":"4","last_reported":1741248782,"current_range_meters":16800,"station_id":"","pricing_plan_id":"cebpf4jnsgd1na2vs0mg"},{"bike_id":"ea42ef47-bb04-4cb3-8d82-9b6dbd8b4b2b","system_id":"levelo_inurba_marseille","lat":43.28403,"lon":5.37514,"is_reserved":false,"is_disabled":false,"rental_uris":{"android":"levelo://app?vid=ea42ef47-bb04-4cb3-8d82-9b6dbd8b4b2b","ios":"levelo://app?vid=ea42ef47-bb04-4cb3-8d82-9b6dbd8b4b2b"},"vehicle_type_id":"4","last_reported":1741248782,"current_range_meters":16800,"station_id":"ce4bh412rcd13ifvqds0","pricing_plan_id":"cebpf4jnsgd1na2vs0mg"},{"bike_id":"94512417-7e3b-48f9-b4db-2d349dac6212","system_id":"levelo_inurba_marseille","lat":43.315218,"lon":5.380384,"is_reserved":false,"is_disabled":false,"rental_uris":{"android":"levelo://app?vid=94512417-7e3b-48f9-b4db-2d349dac6212","ios":"levelo://app?vid=94512417-7e3b-48f9-b4db-2d349dac6212"},"vehicle_type_id":"4","last_reported":1741248782,"current_range_meters":16800,"station_id":"ce4bhsp2rcd13ifvqi50","pricing_plan_id":"cebpf4jnsgd1na2vs0mg"},{"bike_id":"43bf0e86-1072-4836-816e-dbe642614423","system_id":"levelo_inurba_marseille","lat":43.30461,"lon":5.37919,"is_reserved":false,"is_disabled":false,"rental_uris":{"android":"levelo://app?vid=43bf0e86-1072-4836-816e-dbe642614423","ios":"levelo://app?vid=43bf0e86-1072-4836-816e-dbe642614423"},"vehicle_type_id":"4","last_reported":1741248782,"current_range_meters":17200,"station_id":"ce4bgup2rcd13ifvqcn0","pricing_plan_id":"cebpf4jnsgd1na2vs0mg"},{"bike_id":"89a239ee-7c47-4377-a55d-c10cfde61abd","system_id":"levelo_inurba_marseille","lat":43.30528,"lon":5.36719,"is_reserved":false,"is_disabled":false,"rental_uris":{"android":"levelo://app?vid=89a239ee-7c47-4377-a55d-c10cfde61abd","ios":"levelo://app?vid=89a239ee-7c47-4377-a55d-c10cfde61abd"},"vehicle_type_id":"4","last_reported":1741248782,"current_range_meters":17200,"station_id":"ce4bgrp2rcd13ifvqc9g","pricing_plan_id":"cebpf4jnsgd1na2vs0mg"},{"bike_id":"0ccbe65e-5a9b-44d7-bfb3-3707e18855b1","system_id":"levelo_inurba_marseille","lat":43.28919,"lon":5.39666,"is_reserved":false,"is_disabled":false,"rental_uris":{"android":"levelo://app?vid=0ccbe65e-5a9b-44d7-bfb3-3707e18855b1","ios":"levelo://app?vid=0ccbe65e-5a9b-44d7-bfb3-3707e18855b1"},"vehicle_type_id":"4","last_reported":1741248782,"current_range_meters":17200,"station_id":"ce4bh3h2rcd13ifvqdn0","pricing_plan_id":"cebpf4jnsgd1na2vs0mg"},{"bike_id":"01c1b8c5-bbb6-4eec-b567-3b2cf5da7537","system_id":"levelo_inurba_marseille","lat":43.30461,"lon":5.37912,"is_reserved":false,"is_disabled":false,"rental_uris":{"android":"levelo://app?vid=01c1b8c5-bbb6-4eec-b567-3b2cf5da7537","ios":"levelo://app?vid=01c1b8c5-bbb6-4eec-b567-3b2cf5da7537"},"vehicle_type_id":"4","last_reported":1741248782,"current_range_meters":17200,"station_id":"ce4bgup2rcd13ifvqcn0","pricing_plan_id":"cebpf4jnsgd1na2vs0mg"},{"bike_id":"1cd69c1e-f2a2-4a5c-bf79-adc85fbf8cc4","system_id":"levelo_inurba_marseille","lat":43.31235,"lon":5.38705,"is_reserved":false,"is_disabled":false,"rental_uris":{"android":"levelo://app?vid=1cd69c1e-f2a2-4a5c-bf79-adc85fbf8cc4","ios":"levelo://app?vid=1cd69c1e-f2a2-4a5c-bf79-adc85fbf8cc4"},"vehicle_type_id":"4","last_reported":1741248782,"current_range_meters":17200,"station_id":"","pricing_plan_id":"cebpf4jnsgd1na2vs0mg"},{"bike_id":"321ea678-7140-4fe7-a0c8-7dbf31a652be","system_id":"levelo_inurba_marseille","lat":43.32541,"lon":5.41442,"is_reserved":false,"is_disabled":false,"rental_uris":{"android":"levelo://app?vid=321ea678-7140-4fe7-a0c8-7dbf31a652be","ios":"levelo://app?vid=321ea678-7140-4fe7-a0c8-7dbf31a652be"},"vehicle_type_id":"4","last_reported":1741248782,"current_range_meters":17200,"station_id":"ce4bhq12rcd13ifvqhhg","pricing_plan_id":"cebpf4jnsgd1na2vs0mg"},{"bike_id":"54833c0a-a9a7-4c42-873b-474bce89055b","system_id":"levelo_inurba_marseille","lat":43.23053,"lon":5.35494,"is_reserved":false,"is_disabled":false,"rental_uris":{"android":"levelo://app?vid=54833c0a-a9a7-4c42-873b-474bce89055b","ios":"levelo://app?vid=54833c0a-a9a7-4c42-873b-474bce89055b"},"vehicle_type_id":"4","last_reported":1741248782,"current_range_meters":17200,"station_id":"cpo3342slgdg3j2ifvpg","pricing_plan_id":"cebpf4jnsgd1na2vs0mg"},{"bike_id":"fdfd9970-9b62-49a9-95cb-d82c5ed603c9","system_id":"levelo_inurba_marseille","lat":43.2407,"lon":5.37757,"is_reserved":false,"is_disabled":false,"rental_uris":{"android":"levelo://app?vid=fdfd9970-9b62-49a9-95cb-d82c5ed603c9","ios":"levelo://app?vid=fdfd9970-9b62-49a9-95cb-d82c5ed603c9"},"vehicle_type_id":"4","last_reported":1741248782,"current_range_meters":17200,"station_id":"ce4bhnp2rcd13ifvqgvg","pricing_plan_id":"cebpf4jnsgd1na2vs0mg"},{"bike_id":"8539877a-9deb-47ef-9258-c2e88ce6eb6a","system_id":"levelo_inurba_marseille","lat":43.31214,"lon":5.36829,"is_reserved":false,"is_disabled":false,"rental_uris":{"android":"levelo://app?vid=8539877a-9deb-47ef-9258-c2e88ce6eb6a","ios":"levelo://app?vid=8539877a-9deb-47ef-9258-c2e88ce6eb6a"},"vehicle_type_id":"4","last_reported":1741248782,"current_range_meters":17600,"station_id":"ce4bgl92rcd13ifvqbq0","pricing_plan_id":"cebpf4jnsgd1na2vs0mg"},{"bike_id":"459ed71f-fb70-4100-aa95-83a472c1824f","system_id":"levelo_inurba_marseille","lat":43.301437,"lon":5.37411,"is_reserved":false,"is_disabled":false,"rental_uris":{"android":"levelo://app?vid=459ed71f-fb70-4100-aa95-83a472c1824f","ios":"levelo://app?vid=459ed71f-fb70-4100-aa95-83a472c1824f"},"vehicle_type_id":"4","last_reported":1741248782,"current_range_meters":17600,"station_id":"ce4bgs92rcd13ifvqcc0","pricing_plan_id":"cebpf4jnsgd1na2vs0mg"},{"bike_id":"9b9d9974-5a54-42bc-9756-5def0b0a2eb4","system_id":"levelo_inurba_marseille","lat":43.26681,"lon":5.38272,"is_reserved":false,"is_disabled":false,"rental_uris":{"android":"levelo://app?vid=9b9d9974-5a54-42bc-9756-5def0b0a2eb4","ios":"levelo://app?vid=9b9d9974-5a54-42bc-9756-5def0b0a2eb4"},"vehicle_type_id":"4","last_reported":1741248782,"current_range_meters":17600,"station_id":"ce4bhg92rcd13ifvqf90","pricing_plan_id":"cebpf4jnsgd1na2vs0mg"},{"bike_id":"21f77531-f874-4b3e-96d2-1cb42736d7e7","system_id":"levelo_inurba_marseille","lat":43.27826,"lon":5.40725,"is_reserved":false,"is_disabled":false,"rental_uris":{"android":"levelo://app?vid=21f77531-f874-4b3e-96d2-1cb42736d7e7","ios":"levelo://app?vid=21f77531-f874-4b3e-96d2-1cb42736d7e7"},"vehicle_type_id":"4","last_reported":1741248782,"current_range_meters":17600,"station_id":"ce4bhnh2rcd13ifvqgtg","pricing_plan_id":"cebpf4jnsgd1na2vs0mg"},{"bike_id":"6b509aed-b387-4110-a1fb-ac182346d166","system_id":"levelo_inurba_marseille","lat":43.2749,"lon":5.42465,"is_reserved":false,"is_disabled":false,"rental_uris":{"android":"levelo://app?vid=6b509aed-b387-4110-a1fb-ac182346d166","ios":"levelo://app?vid=6b509aed-b387-4110-a1fb-ac182346d166"},"vehicle_type_id":"4","last_reported":1741248782,"current_range_meters":17600,"station_id":"ce4bhn92rcd13ifvqgrg","pricing_plan_id":"cebpf4jnsgd1na2vs0mg"},{"bike_id":"8e253005-1e67-480d-9b43-caaa2b70656b","system_id":"levelo_inurba_marseille","lat":43.27482,"lon":5.42467,"is_reserved":false,"is_disabled":true,"rental_uris":{"android":"levelo://app?vid=8e253005-1e67-480d-9b43-caaa2b70656b","ios":"levelo://app?vid=8e253005-1e67-480d-9b43-caaa2b70656b"},"vehicle_type_id":"4","last_reported":1741248782,"current_range_meters":17600,"station_id":"ce4bhn92rcd13ifvqgrg","pricing_plan_id":"cebpf4jnsgd1na2vs0mg"},{"bike_id":"cebb6504-396c-41fc-9943-57e158751507","system_id":"levelo_inurba_marseille","lat":43.29042,"lon":5.40004,"is_reserved":false,"is_disabled":false,"rental_uris":{"android":"levelo://app?vid=cebb6504-396c-41fc-9943-57e158751507","ios":"levelo://app?vid=cebb6504-396c-41fc-9943-57e158751507"},"vehicle_type_id":"4","last_reported":1741248782,"current_range_meters":17600,"station_id":"ce4bh392rcd13ifvqdm0","pricing_plan_id":"cebpf4jnsgd1na2vs0mg"},{"bike_id":"1baecbd8-cbe4-442a-b057-d93857883888","system_id":"levelo_inurba_marseille","lat":43.24652,"lon":5.40838,"is_reserved":false,"is_disabled":false,"rental_uris":{"android":"levelo://app?vid=1baecbd8-cbe4-442a-b057-d93857883888","ios":"levelo://app?vid=1baecbd8-cbe4-442a-b057-d93857883888"},"vehicle_type_id":"4","last_reported":1741248782,"current_range_meters":17600,"station_id":"","pricing_plan_id":"cebpf4jnsgd1na2vs0mg"},{"bike_id":"bae67248-9a8a-4587-845f-5a0502875c0f","system_id":"levelo_inurba_marseille","lat":43.27666,"lon":5.38845,"is_reserved":false,"is_disabled":false,"rental_uris":{"android":"levelo://app?vid=bae67248-9a8a-4587-845f-5a0502875c0f","ios":"levelo://app?vid=bae67248-9a8a-4587-845f-5a0502875c0f"},"vehicle_type_id":"4","last_reported":1741248782,"current_range_meters":17600,"station_id":"ce4bhi12rcd13ifvqfo0","pricing_plan_id":"cebpf4jnsgd1na2vs0mg"},{"bike_id":"96effe73-85e8-4e89-8bfb-70b0e1c469f7","system_id":"levelo_inurba_marseille","lat":43.31255,"lon":5.40173,"is_reserved":false,"is_disabled":false,"rental_uris":{"android":"levelo://app?vid=96effe73-85e8-4e89-8bfb-70b0e1c469f7","ios":"levelo://app?vid=96effe73-85e8-4e89-8bfb-70b0e1c469f7"},"vehicle_type_id":"4","last_reported":1741248782,"current_range_meters":17600,"station_id":"ce4bh092rcd13ifvqd30","pricing_plan_id":"cebpf4jnsgd1na2vs0mg"},{"bike_id":"c92bfcd4-eec3-4a93-89eb-9760b76a2e31","system_id":"levelo_inurba_marseille","lat":43.25934,"lon":5.40911,"is_reserved":false,"is_disabled":false,"rental_uris":{"android":"levelo://app?vid=c92bfcd4-eec3-4a93-89eb-9760b76a2e31","ios":"levelo://app?vid=c92bfcd4-eec3-4a93-89eb-9760b76a2e31"},"vehicle_type_id":"4","last_reported":1741248782,"current_range_meters":17600,"station_id":"ce4bhm92rcd13ifvqglg","pricing_plan_id":"cebpf4jnsgd1na2vs0mg"},{"bike_id":"d0a9e0b6-7460-48af-b167-fa241d6b44c3","system_id":"levelo_inurba_marseille","lat":43.32147,"lon":5.36796,"is_reserved":false,"is_disabled":false,"rental_uris":{"android":"levelo://app?vid=d0a9e0b6-7460-48af-b167-fa241d6b44c3","ios":"levelo://app?vid=d0a9e0b6-7460-48af-b167-fa241d6b44c3"},"vehicle_type_id":"4","last_reported":1741248782,"current_range_meters":17600,"station_id":"","pricing_plan_id":"cebpf4jnsgd1na2vs0mg"},{"bike_id":"5638fe3a-b34f-40a1-a811-e8becc858504","system_id":"levelo_inurba_marseille","lat":43.32703,"lon":5.37493,"is_reserved":false,"is_disabled":false,"rental_uris":{"android":"levelo://app?vid=5638fe3a-b34f-40a1-a811-e8becc858504","ios":"levelo://app?vid=5638fe3a-b34f-40a1-a811-e8becc858504"},"vehicle_type_id":"4","last_reported":1741248782,"current_range_meters":19200,"station_id":"","pricing_plan_id":"cebpf4jnsgd1na2vs0mg"},{"bike_id":"67d91b02-f2b7-4862-9a17-5bcc567241ce","system_id":"levelo_inurba_marseille","lat":43.28166,"lon":5.42619,"is_reserved":false,"is_disabled":false,"rental_uris":{"android":"levelo://app?vid=67d91b02-f2b7-4862-9a17-5bcc567241ce","ios":"levelo://app?vid=67d91b02-f2b7-4862-9a17-5bcc567241ce"},"vehicle_type_id":"4","last_reported":1741248782,"current_range_meters":18000,"station_id":"ce4bhnh2rcd13ifvqgug","pricing_plan_id":"cebpf4jnsgd1na2vs0mg"},{"bike_id":"8f8ffd82-d094-4076-99ce-302d87adc130","system_id":"levelo_inurba_marseille","lat":43.30958,"lon":5.39036,"is_reserved":false,"is_disabled":true,"rental_uris":{"android":"levelo://app?vid=8f8ffd82-d094-4076-99ce-302d87adc130","ios":"levelo://app?vid=8f8ffd82-d094-4076-99ce-302d87adc130"},"vehicle_type_id":"4","last_reported":1741248782,"current_range_meters":18000,"station_id":"ce4bgup2rcd13ifvqco0","pricing_plan_id":"cebpf4jnsgd1na2vs0mg"},{"bike_id":"62d8c192-894f-4275-a242-e6c3f3de0572","system_id":"levelo_inurba_marseille","lat":43.28938,"lon":5.36628,"is_reserved":false,"is_disabled":false,"rental_uris":{"android":"levelo://app?vid=62d8c192-894f-4275-a242-e6c3f3de0572","ios":"levelo://app?vid=62d8c192-894f-4275-a242-e6c3f3de0572"},"vehicle_type_id":"4","last_reported":1741248782,"current_range_meters":18000,"station_id":"ce4bhap2rcd13ifvqek0","pricing_plan_id":"cebpf4jnsgd1na2vs0mg"},{"bike_id":"10b74c6d-04bc-43c8-b892-4a1d3e03c2bd","system_id":"levelo_inurba_marseille","lat":43.23065,"lon":5.35497,"is_reserved":false,"is_disabled":false,"rental_uris":{"android":"levelo://app?vid=10b74c6d-04bc-43c8-b892-4a1d3e03c2bd","ios":"levelo://app?vid=10b74c6d-04bc-43c8-b892-4a1d3e03c2bd"},"vehicle_type_id":"4","last_reported":1741248782,"current_range_meters":18000,"station_id":"cpo3342slgdg3j2ifvpg","pricing_plan_id":"cebpf4jnsgd1na2vs0mg"},{"bike_id":"e2d4d5f1-ef63-4a99-adfd-b18af2f049a6","system_id":"levelo_inurba_marseille","lat":43.31881,"lon":5.40739,"is_reserved":false,"is_disabled":false,"rental_uris":{"android":"levelo://app?vid=e2d4d5f1-ef63-4a99-adfd-b18af2f049a6","ios":"levelo://app?vid=e2d4d5f1-ef63-4a99-adfd-b18af2f049a6"},"vehicle_type_id":"4","last_reported":1741248782,"current_range_meters":18000,"station_id":"ce4bhq12rcd13ifvqhig","pricing_plan_id":"cebpf4jnsgd1na2vs0mg"},{"bike_id":"2d3bd672-59ac-4dac-9de9-2ca67269e174","system_id":"levelo_inurba_marseille","lat":43.24061,"lon":5.37765,"is_reserved":false,"is_disabled":false,"rental_uris":{"android":"levelo://app?vid=2d3bd672-59ac-4dac-9de9-2ca67269e174","ios":"levelo://app?vid=2d3bd672-59ac-4dac-9de9-2ca67269e174"},