{"last_updated":1777287119,"ttl":60,"version":"2.2","data":{"bikes":[{"bike_id":"5fdff1d7-b2d7-4e39-ad7f-00ed09411d1d","system_id":"levelo_inurba_marseille","lat":43.28509,"lon":5.48368,"is_reserved":false,"is_disabled":false,"rental_uris":{"android":"levelo://app?vid=5fdff1d7-b2d7-4e39-ad7f-00ed09411d1d","ios":"levelo://app?vid=5fdff1d7-b2d7-4e39-ad7f-00ed09411d1d"},"vehicle_type_id":"4","last_reported":1777287120,"current_range_meters":2800,"station_id":"st_d3svhcjqgbts73a3dn0g","pricing_plan_id":"cebpf4jnsgd1na2vs0mg"},{"bike_id":"9d44cff7-4d7d-484f-a431-7ffc9f136f24","system_id":"levelo_inurba_marseille","lat":43.25926,"lon":5.40902,"is_reserved":false,"is_disabled":false,"rental_uris":{"android":"levelo://app?vid=9d44cff7-4d7d-484f-a431-7ffc9f136f24","ios":"levelo://app?vid=9d44cff7-4d7d-484f-a431-7ffc9f136f24"},"vehicle_type_id":"4","last_reported":1777287120,"current_range_meters":2800,"station_id":"ce4bhm92rcd13ifvqglg","pricing_plan_id":"cebpf4jnsgd1na2vs0mg"},{"bike_id":"9a7c39d8-ef30-4694-b180-b6fe0a089530","system_id":"levelo_inurba_marseille","lat":43.30131,"lon":5.43119,"is_reserved":false,"is_disabled":false,"rental_uris":{"android":"levelo://app?vid=9a7c39d8-ef30-4694-b180-b6fe0a089530","ios":"levelo://app?vid=9a7c39d8-ef30-4694-b180-b6fe0a089530"},"vehicle_type_id":"4","last_reported":1777287120,"current_range_meters":2800,"station_id":"st_d3js3co5814s73ftftug","pricing_plan_id":"cebpf4jnsgd1na2vs0mg"},{"bike_id":"8e41c180-eea9-4988-8ead-9087dde64a48","system_id":"levelo_inurba_marseille","lat":43.25821,"lon":5.39445,"is_reserved":false,"is_disabled":false,"rental_uris":{"android":"levelo://app?vid=8e41c180-eea9-4988-8ead-9087dde64a48","ios":"levelo://app?vid=8e41c180-eea9-4988-8ead-9087dde64a48"},"vehicle_type_id":"4","last_reported":1777287120,"current_range_meters":2800,"station_id":"ce4bhip2rcd13ifvqft0","pricing_plan_id":"cebpf4jnsgd1na2vs0mg"},{"bike_id":"8e864376-8b3a-42df-abb1-7e5139c8e42c","system_id":"levelo_inurba_marseille","lat":43.24627,"lon":5.43159,"is_reserved":false,"is_disabled":false,"rental_uris":{"android":"levelo://app?vid=8e864376-8b3a-42df-abb1-7e5139c8e42c","ios":"levelo://app?vid=8e864376-8b3a-42df-abb1-7e5139c8e42c"},"vehicle_type_id":"4","last_reported":1777287120,"current_range_meters":2800,"station_id":"st_d2m6c4gdas8pm72e190g","pricing_plan_id":"cebpf4jnsgd1na2vs0mg"},{"bike_id":"6e73c027-12ba-4315-b97f-7ddb45714629","system_id":"levelo_inurba_marseille","lat":43.27522,"lon":5.41569,"is_reserved":false,"is_disabled":false,"rental_uris":{"android":"levelo://app?vid=6e73c027-12ba-4315-b97f-7ddb45714629","ios":"levelo://app?vid=6e73c027-12ba-4315-b97f-7ddb45714629"},"vehicle_type_id":"4","last_reported":1777287120,"current_range_meters":2800,"station_id":"st_d6im8g6chgec73a5pndg","pricing_plan_id":"cebpf4jnsgd1na2vs0mg"},{"bike_id":"fda983b3-301e-40f3-bb07-e5c67ab620e4","system_id":"levelo_inurba_marseille","lat":43.25023,"lon":5.40436,"is_reserved":false,"is_disabled":false,"rental_uris":{"android":"levelo://app?vid=fda983b3-301e-40f3-bb07-e5c67ab620e4","ios":"levelo://app?vid=fda983b3-301e-40f3-bb07-e5c67ab620e4"},"vehicle_type_id":"4","last_reported":1777287120,"current_range_meters":2800,"station_id":"","pricing_plan_id":"cebpf4jnsgd1na2vs0mg"},{"bike_id":"7deaafa9-6ace-4952-b19f-2796421c7b4d","system_id":"levelo_inurba_marseille","lat":43.27055,"lon":5.40266,"is_reserved":false,"is_disabled":false,"rental_uris":{"android":"levelo://app?vid=7deaafa9-6ace-4952-b19f-2796421c7b4d","ios":"levelo://app?vid=7deaafa9-6ace-4952-b19f-2796421c7b4d"},"vehicle_type_id":"4","last_reported":1777287120,"current_range_meters":3200,"station_id":"ce4bhk92rcd13ifvqgc0","pricing_plan_id":"cebpf4jnsgd1na2vs0mg"},{"bike_id":"1f3b9ac9-442d-47ad-a9d5-5062dfaa11d9","system_id":"levelo_inurba_marseille","lat":43.26512,"lon":5.39522,"is_reserved":false,"is_disabled":false,"rental_uris":{"android":"levelo://app?vid=1f3b9ac9-442d-47ad-a9d5-5062dfaa11d9","ios":"levelo://app?vid=1f3b9ac9-442d-47ad-a9d5-5062dfaa11d9"},"vehicle_type_id":"4","last_reported":1777287120,"current_range_meters":3200,"station_id":"ce4bhi12rcd13ifvqfq0","pricing_plan_id":"cebpf4jnsgd1na2vs0mg"},{"bike_id":"757fdfcb-45d7-4c45-8e18-f9ab346e8260","system_id":"levelo_inurba_marseille","lat":43.25448,"lon":5.38145,"is_reserved":false,"is_disabled":false,"rental_uris":{"android":"levelo://app?vid=757fdfcb-45d7-4c45-8e18-f9ab346e8260","ios":"levelo://app?vid=757fdfcb-45d7-4c45-8e18-f9ab346e8260"},"vehicle_type_id":"4","last_reported":1777287120,"current_range_meters":3200,"station_id":"","pricing_plan_id":"cebpf4jnsgd1na2vs0mg"},{"bike_id":"c35ef435-7351-4292-8bd0-8be9078d3a7d","system_id":"levelo_inurba_marseille","lat":43.30957,"lon":5.3902,"is_reserved":false,"is_disabled":false,"rental_uris":{"android":"levelo://app?vid=c35ef435-7351-4292-8bd0-8be9078d3a7d","ios":"levelo://app?vid=c35ef435-7351-4292-8bd0-8be9078d3a7d"},"vehicle_type_id":"4","last_reported":1777287120,"current_range_meters":3200,"station_id":"ce4bgup2rcd13ifvqco0","pricing_plan_id":"cebpf4jnsgd1na2vs0mg"},{"bike_id":"ae39d7c4-205f-4324-8d19-ae83888cf973","system_id":"levelo_inurba_marseille","lat":43.28349,"lon":5.38084,"is_reserved":false,"is_disabled":true,"rental_uris":{"android":"levelo://app?vid=ae39d7c4-205f-4324-8d19-ae83888cf973","ios":"levelo://app?vid=ae39d7c4-205f-4324-8d19-ae83888cf973"},"vehicle_type_id":"4","last_reported":1777287120,"current_range_meters":3200,"station_id":"ce4bh412rcd13ifvqdr0","pricing_plan_id":"cebpf4jnsgd1na2vs0mg"},{"bike_id":"90b73c5f-1499-4752-889d-9a528f3252b9","system_id":"levelo_inurba_marseille","lat":43.30214,"lon":5.39474,"is_reserved":false,"is_disabled":false,"rental_uris":{"android":"levelo://app?vid=90b73c5f-1499-4752-889d-9a528f3252b9","ios":"levelo://app?vid=90b73c5f-1499-4752-889d-9a528f3252b9"},"vehicle_type_id":"4","last_reported":1777287120,"current_range_meters":3200,"station_id":"ce4bh0p2rcd13ifvqd70","pricing_plan_id":"cebpf4jnsgd1na2vs0mg"},{"bike_id":"6b60b3c8-da35-492c-9411-418199a97ad7","system_id":"levelo_inurba_marseille","lat":43.28484,"lon":5.48394,"is_reserved":false,"is_disabled":false,"rental_uris":{"android":"levelo://app?vid=6b60b3c8-da35-492c-9411-418199a97ad7","ios":"levelo://app?vid=6b60b3c8-da35-492c-9411-418199a97ad7"},"vehicle_type_id":"4","last_reported":1777287120,"current_range_meters":3200,"station_id":"","pricing_plan_id":"cebpf4jnsgd1na2vs0mg"},{"bike_id":"f655dd6a-67ed-4067-be6f-471ca5bc2495","system_id":"levelo_inurba_marseille","lat":43.26027,"lon":5.37549,"is_reserved":false,"is_disabled":false,"rental_uris":{"android":"levelo://app?vid=f655dd6a-67ed-4067-be6f-471ca5bc2495","ios":"levelo://app?vid=f655dd6a-67ed-4067-be6f-471ca5bc2495"},"vehicle_type_id":"4","last_reported":1777287120,"current_range_meters":3200,"station_id":"ce4bhgh2rcd13ifvqfa0","pricing_plan_id":"cebpf4jnsgd1na2vs0mg"},{"bike_id":"31ce8eff-1c0a-4202-bd1b-24b41234d06b","system_id":"levelo_inurba_marseille","lat":43.28563,"lon":5.39922,"is_reserved":false,"is_disabled":false,"rental_uris":{"android":"levelo://app?vid=31ce8eff-1c0a-4202-bd1b-24b41234d06b","ios":"levelo://app?vid=31ce8eff-1c0a-4202-bd1b-24b41234d06b"},"vehicle_type_id":"4","last_reported":1777287120,"current_range_meters":3200,"station_id":"","pricing_plan_id":"cebpf4jnsgd1na2vs0mg"},{"bike_id":"58941945-4168-4a89-a6de-dfcea4669fc9","system_id":"levelo_inurba_marseille","lat":43.30938,"lon":5.40149,"is_reserved":false,"is_disabled":false,"rental_uris":{"android":"levelo://app?vid=58941945-4168-4a89-a6de-dfcea4669fc9","ios":"levelo://app?vid=58941945-4168-4a89-a6de-dfcea4669fc9"},"vehicle_type_id":"4","last_reported":1777287120,"current_range_meters":3200,"station_id":"ce4bgvp2rcd13ifvqct0","pricing_plan_id":"cebpf4jnsgd1na2vs0mg"},{"bike_id":"1fa7c290-baf4-43ed-aa99-7181dabef99e","system_id":"levelo_inurba_marseille","lat":43.33567,"lon":5.37453,"is_reserved":false,"is_disabled":false,"rental_uris":{"android":"levelo://app?vid=1fa7c290-baf4-43ed-aa99-7181dabef99e","ios":"levelo://app?vid=1fa7c290-baf4-43ed-aa99-7181dabef99e"},"vehicle_type_id":"4","last_reported":1777287120,"current_range_meters":3600,"station_id":"st_d46tts09ee8s73dlu43g","pricing_plan_id":"cebpf4jnsgd1na2vs0mg"},{"bike_id":"416272b9-83b2-4a7a-9648-31bdac292b2a","system_id":"levelo_inurba_marseille","lat":43.29599,"lon":5.37703,"is_reserved":false,"is_disabled":false,"rental_uris":{"android":"levelo://app?vid=416272b9-83b2-4a7a-9648-31bdac292b2a","ios":"levelo://app?vid=416272b9-83b2-4a7a-9648-31bdac292b2a"},"vehicle_type_id":"4","last_reported":1777287120,"current_range_meters":3600,"station_id":"ce4bgi92rcd13ifvqb90","pricing_plan_id":"cebpf4jnsgd1na2vs0mg"},{"bike_id":"494fd0fc-3b39-4504-a26b-321afbf22977","system_id":"levelo_inurba_marseille","lat":43.2383,"lon":5.38586,"is_reserved":false,"is_disabled":false,"rental_uris":{"android":"levelo://app?vid=494fd0fc-3b39-4504-a26b-321afbf22977","ios":"levelo://app?vid=494fd0fc-3b39-4504-a26b-321afbf22977"},"vehicle_type_id":"4","last_reported":1777287120,"current_range_meters":4000,"station_id":"","pricing_plan_id":"cebpf4jnsgd1na2vs0mg"},{"bike_id":"a6a789a2-f074-41eb-8249-0f521eeb4b79","system_id":"levelo_inurba_marseille","lat":43.29773,"lon":5.37085,"is_reserved":false,"is_disabled":false,"rental_uris":{"android":"levelo://app?vid=a6a789a2-f074-41eb-8249-0f521eeb4b79","ios":"levelo://app?vid=a6a789a2-f074-41eb-8249-0f521eeb4b79"},"vehicle_type_id":"4","last_reported":1777287120,"current_range_meters":4000,"station_id":"ce4bgop2rcd13ifvqc1g","pricing_plan_id":"cebpf4jnsgd1na2vs0mg"},{"bike_id":"aebaebc7-8192-49df-8570-616114367675","system_id":"levelo_inurba_marseille","lat":43.26551,"lon":5.37289,"is_reserved":false,"is_disabled":false,"rental_uris":{"android":"levelo://app?vid=aebaebc7-8192-49df-8570-616114367675","ios":"levelo://app?vid=aebaebc7-8192-49df-8570-616114367675"},"vehicle_type_id":"4","last_reported":1777287120,"current_range_meters":4000,"station_id":"ce4bhg12rcd13ifvqf70","pricing_plan_id":"cebpf4jnsgd1na2vs0mg"},{"bike_id":"a5d1c5f8-e551-41de-b7f3-a52119a1050b","system_id":"levelo_inurba_marseille","lat":43.27812,"lon":5.37462,"is_reserved":false,"is_disabled":false,"rental_uris":{"android":"levelo://app?vid=a5d1c5f8-e551-41de-b7f3-a52119a1050b","ios":"levelo://app?vid=a5d1c5f8-e551-41de-b7f3-a52119a1050b"},"vehicle_type_id":"4","last_reported":1777287120,"current_range_meters":4000,"station_id":"","pricing_plan_id":"cebpf4jnsgd1na2vs0mg"},{"bike_id":"7582504f-db10-45ad-8eae-9360229bd3e9","system_id":"levelo_inurba_marseille","lat":43.27064,"lon":5.4228,"is_reserved":false,"is_disabled":false,"rental_uris":{"android":"levelo://app?vid=7582504f-db10-45ad-8eae-9360229bd3e9","ios":"levelo://app?vid=7582504f-db10-45ad-8eae-9360229bd3e9"},"vehicle_type_id":"4","last_reported":1777287120,"current_range_meters":4400,"station_id":"ce4bhk92rcd13ifvqgb0","pricing_plan_id":"cebpf4jnsgd1na2vs0mg"},{"bike_id":"eb8406fa-0e90-4b34-9098-ef8f51ec47cd","system_id":"levelo_inurba_marseille","lat":43.26947,"lon":5.40249,"is_reserved":false,"is_disabled":false,"rental_uris":{"android":"levelo://app?vid=eb8406fa-0e90-4b34-9098-ef8f51ec47cd","ios":"levelo://app?vid=eb8406fa-0e90-4b34-9098-ef8f51ec47cd"},"vehicle_type_id":"4","last_reported":1777287120,"current_range_meters":4400,"station_id":"cjm6bp8fraef2m0cb0m0","pricing_plan_id":"cebpf4jnsgd1na2vs0mg"},{"bike_id":"c33949d2-0583-412f-b966-8ca6dfee3e91","system_id":"levelo_inurba_marseille","lat":43.30894,"lon":5.3719,"is_reserved":false,"is_disabled":false,"rental_uris":{"android":"levelo://app?vid=c33949d2-0583-412f-b966-8ca6dfee3e91","ios":"levelo://app?vid=c33949d2-0583-412f-b966-8ca6dfee3e91"},"vehicle_type_id":"4","last_reported":1777287120,"current_range_meters":4400,"station_id":"ce4bguh2rcd13ifvqckg","pricing_plan_id":"cebpf4jnsgd1na2vs0mg"},{"bike_id":"0101b385-7fdc-4006-bd16-0bed1b43b14f","system_id":"levelo_inurba_marseille","lat":43.302604,"lon":5.39899,"is_reserved":false,"is_disabled":false,"rental_uris":{"android":"levelo://app?vid=0101b385-7fdc-4006-bd16-0bed1b43b14f","ios":"levelo://app?vid=0101b385-7fdc-4006-bd16-0bed1b43b14f"},"vehicle_type_id":"4","last_reported":1777287120,"current_range_meters":4400,"station_id":"ce4bgvh2rcd13ifvqcs0","pricing_plan_id":"cebpf4jnsgd1na2vs0mg"},{"bike_id":"19db31f9-a0de-4a14-b18e-3c2ff272ec01","system_id":"levelo_inurba_marseille","lat":43.2256,"lon":5.41626,"is_reserved":false,"is_disabled":false,"rental_uris":{"android":"levelo://app?vid=19db31f9-a0de-4a14-b18e-3c2ff272ec01","ios":"levelo://app?vid=19db31f9-a0de-4a14-b18e-3c2ff272ec01"},"vehicle_type_id":"4","last_reported":1777287120,"current_range_meters":4400,"station_id":"st_d2o4gvlbi1j2169b742g","pricing_plan_id":"cebpf4jnsgd1na2vs0mg"},{"bike_id":"1e467ca0-2768-4108-a598-baca0cc991f8","system_id":"levelo_inurba_marseille","lat":43.27491,"lon":5.41545,"is_reserved":false,"is_disabled":true,"rental_uris":{"android":"levelo://app?vid=1e467ca0-2768-4108-a598-baca0cc991f8","ios":"levelo://app?vid=1e467ca0-2768-4108-a598-baca0cc991f8"},"vehicle_type_id":"4","last_reported":1777287120,"current_range_meters":4400,"station_id":"st_d6im8g6chgec73a5pndg","pricing_plan_id":"cebpf4jnsgd1na2vs0mg"},{"bike_id":"8fe127c6-34c2-4871-83c2-5470f90f2c9d","system_id":"levelo_inurba_marseille","lat":43.26943,"lon":5.38627,"is_reserved":false,"is_disabled":true,"rental_uris":{"android":"levelo://app?vid=8fe127c6-34c2-4871-83c2-5470f90f2c9d","ios":"levelo://app?vid=8fe127c6-34c2-4871-83c2-5470f90f2c9d"},"vehicle_type_id":"4","last_reported":1777287120,"current_range_meters":4800,"station_id":"ce4bhh92rcd13ifvqfh0","pricing_plan_id":"cebpf4jnsgd1na2vs0mg"},{"bike_id":"d84dad1f-3355-427c-a81e-a3f872caa973","system_id":"levelo_inurba_marseille","lat":43.28699,"lon":5.46683,"is_reserved":false,"is_disabled":false,"rental_uris":{"android":"levelo://app?vid=d84dad1f-3355-427c-a81e-a3f872caa973","ios":"levelo://app?vid=d84dad1f-3355-427c-a81e-a3f872caa973"},"vehicle_type_id":"4","last_reported":1777287120,"current_range_meters":4800,"station_id":"st_d6tc3vkotcvc738tfjhg","pricing_plan_id":"cebpf4jnsgd1na2vs0mg"},{"bike_id":"ba54c037-f92d-4268-aaf4-53c9f179da6a","system_id":"levelo_inurba_marseille","lat":43.33766,"lon":5.37468,"is_reserved":false,"is_disabled":false,"rental_uris":{"android":"levelo://app?vid=ba54c037-f92d-4268-aaf4-53c9f179da6a","ios":"levelo://app?vid=ba54c037-f92d-4268-aaf4-53c9f179da6a"},"vehicle_type_id":"4","last_reported":1777287120,"current_range_meters":4800,"station_id":"st_d46tts09ee8s73dlu43g","pricing_plan_id":"cebpf4jnsgd1na2vs0mg"},{"bike_id":"73aae967-5a2a-40a5-b2c3-e9f615f0a5f1","system_id":"levelo_inurba_marseille","lat":43.2782,"lon":5.4073,"is_reserved":false,"is_disabled":false,"rental_uris":{"android":"levelo://app?vid=73aae967-5a2a-40a5-b2c3-e9f615f0a5f1","ios":"levelo://app?vid=73aae967-5a2a-40a5-b2c3-e9f615f0a5f1"},"vehicle_type_id":"4","last_reported":1777287120,"current_range_meters":4800,"station_id":"ce4bhnh2rcd13ifvqgtg","pricing_plan_id":"cebpf4jnsgd1na2vs0mg"},{"bike_id":"35ef112e-98e9-4c5d-b945-e6e7b1469a12","system_id":"levelo_inurba_marseille","lat":43.28155,"lon":5.42668,"is_reserved":false,"is_disabled":false,"rental_uris":{"android":"levelo://app?vid=35ef112e-98e9-4c5d-b945-e6e7b1469a12","ios":"levelo://app?vid=35ef112e-98e9-4c5d-b945-e6e7b1469a12"},"vehicle_type_id":"4","last_reported":1777287120,"current_range_meters":4800,"station_id":"ce4bhnh2rcd13ifvqgug","pricing_plan_id":"cebpf4jnsgd1na2vs0mg"},{"bike_id":"724d0869-017c-4e7e-9911-705be0df09b1","system_id":"levelo_inurba_marseille","lat":43.31448,"lon":5.37378,"is_reserved":false,"is_disabled":false,"rental_uris":{"android":"levelo://app?vid=724d0869-017c-4e7e-9911-705be0df09b1","ios":"levelo://app?vid=724d0869-017c-4e7e-9911-705be0df09b1"},"vehicle_type_id":"4","last_reported":1777287120,"current_range_meters":4800,"station_id":"","pricing_plan_id":"cebpf4jnsgd1na2vs0mg"},{"bike_id":"d2d3bd8e-fd14-4ec9-b340-d789c6f7f3e7","system_id":"levelo_inurba_marseille","lat":43.29072,"lon":5.37156,"is_reserved":false,"is_disabled":false,"rental_uris":{"android":"levelo://app?vid=d2d3bd8e-fd14-4ec9-b340-d789c6f7f3e7","ios":"levelo://app?vid=d2d3bd8e-fd14-4ec9-b340-d789c6f7f3e7"},"vehicle_type_id":"4","last_reported":1777287120,"current_range_meters":4800,"station_id":"ce4bh5p2rcd13ifvqe4g","pricing_plan_id":"cebpf4jnsgd1na2vs0mg"},{"bike_id":"a622452f-d7f8-43f3-8edd-5eb1e81489d8","system_id":"levelo_inurba_marseille","lat":43.23149,"lon":5.43712,"is_reserved":false,"is_disabled":false,"rental_uris":{"android":"levelo://app?vid=a622452f-d7f8-43f3-8edd-5eb1e81489d8","ios":"levelo://app?vid=a622452f-d7f8-43f3-8edd-5eb1e81489d8"},"vehicle_type_id":"4","last_reported":1777287120,"current_range_meters":4800,"station_id":"ce4bhmp2rcd13ifvqgog","pricing_plan_id":"cebpf4jnsgd1na2vs0mg"},{"bike_id":"7917a9d5-4ac9-40bd-8834-5d3047c76c9d","system_id":"levelo_inurba_marseille","lat":43.32497,"lon":5.40755,"is_reserved":false,"is_disabled":false,"rental_uris":{"android":"levelo://app?vid=7917a9d5-4ac9-40bd-8834-5d3047c76c9d","ios":"levelo://app?vid=7917a9d5-4ac9-40bd-8834-5d3047c76c9d"},"vehicle_type_id":"4","last_reported":1777287120,"current_range_meters":4800,"station_id":"","pricing_plan_id":"cebpf4jnsgd1na2vs0mg"},{"bike_id":"1e85b119-41e1-4230-b10a-2da667c13d61","system_id":"levelo_inurba_marseille","lat":43.26215,"lon":5.37436,"is_reserved":false,"is_disabled":false,"rental_uris":{"android":"levelo://app?vid=1e85b119-41e1-4230-b10a-2da667c13d61","ios":"levelo://app?vid=1e85b119-41e1-4230-b10a-2da667c13d61"},"vehicle_type_id":"4","last_reported":1777287120,"current_range_meters":4800,"station_id":"ce4bhgp2rcd13ifvqfc0","pricing_plan_id":"cebpf4jnsgd1na2vs0mg"},{"bike_id":"50fcb081-4b05-4355-adf3-07f022c0399c","system_id":"levelo_inurba_marseille","lat":43.30993,"lon":5.37913,"is_reserved":false,"is_disabled":false,"rental_uris":{"android":"levelo://app?vid=50fcb081-4b05-4355-adf3-07f022c0399c","ios":"levelo://app?vid=50fcb081-4b05-4355-adf3-07f022c0399c"},"vehicle_type_id":"4","last_reported":1777287120,"current_range_meters":4800,"station_id":"","pricing_plan_id":"cebpf4jnsgd1na2vs0mg"},{"bike_id":"6645508c-07b2-4360-a280-ec105e5db600","system_id":"levelo_inurba_marseille","lat":43.29889,"lon":5.38898,"is_reserved":false,"is_disabled":false,"rental_uris":{"android":"levelo://app?vid=6645508c-07b2-4360-a280-ec105e5db600","ios":"levelo://app?vid=6645508c-07b2-4360-a280-ec105e5db600"},"vehicle_type_id":"4","last_reported":1777287120,"current_range_meters":5600,"station_id":"ce4bh392rcd13ifvqdl0","pricing_plan_id":"cebpf4jnsgd1na2vs0mg"},{"bike_id":"b492b0b1-54c7-4f13-a8a7-868a06bf6c91","system_id":"levelo_inurba_marseille","lat":43.30439,"lon":5.38898,"is_reserved":false,"is_disabled":false,"rental_uris":{"android":"levelo://app?vid=b492b0b1-54c7-4f13-a8a7-868a06bf6c91","ios":"levelo://app?vid=b492b0b1-54c7-4f13-a8a7-868a06bf6c91"},"vehicle_type_id":"4","last_reported":1777287120,"current_range_meters":5600,"station_id":"ce4bgk12rcd13ifvqbi0","pricing_plan_id":"cebpf4jnsgd1na2vs0mg"},{"bike_id":"5676b1df-3102-49f0-94ea-6bd037dc90c9","system_id":"levelo_inurba_marseille","lat":43.31134,"lon":5.38057,"is_reserved":false,"is_disabled":false,"rental_uris":{"android":"levelo://app?vid=5676b1df-3102-49f0-94ea-6bd037dc90c9","ios":"levelo://app?vid=5676b1df-3102-49f0-94ea-6bd037dc90c9"},"vehicle_type_id":"4","last_reported":1777287120,"current_range_meters":5600,"station_id":"","pricing_plan_id":"cebpf4jnsgd1na2vs0mg"},{"bike_id":"b94b5f96-79f0-48ca-b92d-080a31da1387","system_id":"levelo_inurba_marseille","lat":43.24095,"lon":5.37764,"is_reserved":false,"is_disabled":false,"rental_uris":{"android":"levelo://app?vid=b94b5f96-79f0-48ca-b92d-080a31da1387","ios":"levelo://app?vid=b94b5f96-79f0-48ca-b92d-080a31da1387"},"vehicle_type_id":"4","last_reported":1777287120,"current_range_meters":5600,"station_id":"ce4bhnp2rcd13ifvqgvg","pricing_plan_id":"cebpf4jnsgd1na2vs0mg"},{"bike_id":"d9386575-8774-4a46-966c-91eb5443fb87","system_id":"levelo_inurba_marseille","lat":43.30152,"lon":5.387499,"is_reserved":false,"is_disabled":false,"rental_uris":{"android":"levelo://app?vid=d9386575-8774-4a46-966c-91eb5443fb87","ios":"levelo://app?vid=d9386575-8774-4a46-966c-91eb5443fb87"},"vehicle_type_id":"4","last_reported":1777287120,"current_range_meters":5600,"station_id":"chh1huq6cuj3fo74tm60","pricing_plan_id":"cebpf4jnsgd1na2vs0mg"},{"bike_id":"1f13452b-ac27-48ca-bbd2-1255b0865067","system_id":"levelo_inurba_marseille","lat":43.27846,"lon":5.37931,"is_reserved":false,"is_disabled":false,"rental_uris":{"android":"levelo://app?vid=1f13452b-ac27-48ca-bbd2-1255b0865067","ios":"levelo://app?vid=1f13452b-ac27-48ca-bbd2-1255b0865067"},"vehicle_type_id":"4","last_reported":1777287120,"current_range_meters":5600,"station_id":"","pricing_plan_id":"cebpf4jnsgd1na2vs0mg"},{"bike_id":"b2f75ab3-b8ee-4be8-bb35-01753fef901c","system_id":"levelo_inurba_marseille","lat":43.29838,"lon":5.3763,"is_reserved":false,"is_disabled":false,"rental_uris":{"android":"levelo://app?vid=b2f75ab3-b8ee-4be8-bb35-01753fef901c","ios":"levelo://app?vid=b2f75ab3-b8ee-4be8-bb35-01753fef901c"},"vehicle_type_id":"4","last_reported":1777287120,"current_range_meters":5600,"station_id":"","pricing_plan_id":"cebpf4jnsgd1na2vs0mg"},{"bike_id":"d2dcdcc5-6d4d-4600-bd20-6f143cfea1e9","system_id":"levelo_inurba_marseille","lat":43.25116,"lon":5.40324,"is_reserved":false,"is_disabled":false,"rental_uris":{"android":"levelo://app?vid=d2dcdcc5-6d4d-4600-bd20-6f143cfea1e9","ios":"levelo://app?vid=d2dcdcc5-6d4d-4600-bd20-6f143cfea1e9"},"vehicle_type_id":"4","last_reported":1777287120,"current_range_meters":5600,"station_id":"ce4bhlh2rcd13ifvqgig","pricing_plan_id":"cebpf4jnsgd1na2vs0mg"},{"bike_id":"699a92c3-f6f0-4fe9-9372-83491655f30c","system_id":"levelo_inurba_marseille","lat":43.23118,"lon":5.43712,"is_reserved":false,"is_disabled":false,"rental_uris":{"android":"levelo://app?vid=699a92c3-f6f0-4fe9-9372-83491655f30c","ios":"levelo://app?vid=699a92c3-f6f0-4fe9-9372-83491655f30c"},"vehicle_type_id":"4","last_reported":1777287120,"current_range_meters":5600,"station_id":"ce4bhmp2rcd13ifvqgog","pricing_plan_id":"cebpf4jnsgd1na2vs0mg"},{"bike_id":"c6941364-0b3e-415d-827c-e48038694e60","system_id":"levelo_inurba_marseille","lat":43.30764,"lon":5.43524,"is_reserved":false,"is_disabled":false,"rental_uris":{"android":"levelo://app?vid=c6941364-0b3e-415d-827c-e48038694e60","ios":"levelo://app?vid=c6941364-0b3e-415d-827c-e48038694e60"},"vehicle_type_id":"4","last_reported":1777287120,"current_range_meters":5600,"station_id":"","pricing_plan_id":"cebpf4jnsgd1na2vs0mg"},{"bike_id":"8bd8e528-5bef-409e-b5f7-cfe4c9ffb74d","system_id":"levelo_inurba_marseille","lat":43.31668,"lon":5.37708,"is_reserved":false,"is_disabled":false,"rental_uris":{"android":"levelo://app?vid=8bd8e528-5bef-409e-b5f7-cfe4c9ffb74d","ios":"levelo://app?vid=8bd8e528-5bef-409e-b5f7-cfe4c9ffb74d"},"vehicle_type_id":"4","last_reported":1777287120,"current_range_meters":5600,"station_id":"ce4bgth2rcd13ifvqch0","pricing_plan_id":"cebpf4jnsgd1na2vs0mg"},{"bike_id":"867e4efb-03e8-466f-a027-d873140a375d","system_id":"levelo_inurba_marseille","lat":43.24807,"lon":5.37461,"is_reserved":false,"is_disabled":false,"rental_uris":{"android":"levelo://app?vid=867e4efb-03e8-466f-a027-d873140a375d","ios":"levelo://app?vid=867e4efb-03e8-466f-a027-d873140a375d"},"vehicle_type_id":"4","last_reported":1777287120,"current_range_meters":5600,"station_id":"ce4bhgh2rcd13ifvqfb0","pricing_plan_id":"cebpf4jnsgd1na2vs0mg"},{"bike_id":"daa88225-e0d8-4902-989b-918dd752413a","system_id":"levelo_inurba_marseille","lat":43.24176,"lon":5.39727,"is_reserved":false,"is_disabled":false,"rental_uris":{"android":"levelo://app?vid=daa88225-e0d8-4902-989b-918dd752413a","ios":"levelo://app?vid=daa88225-e0d8-4902-989b-918dd752413a"},"vehicle_type_id":"4","last_reported":1777287120,"current_range_meters":6000,"station_id":"ce4bhn12rcd13ifvqgpg","pricing_plan_id":"cebpf4jnsgd1na2vs0mg"},{"bike_id":"b21748b2-fb24-4ee6-8e6a-c7c61264faec","system_id":"levelo_inurba_marseille","lat":43.27381,"lon":5.42214,"is_reserved":false,"is_disabled":false,"rental_uris":{"android":"levelo://app?vid=b21748b2-fb24-4ee6-8e6a-c7c61264faec","ios":"levelo://app?vid=b21748b2-fb24-4ee6-8e6a-c7c61264faec"},"vehicle_type_id":"4","last_reported":1777287120,"current_range_meters":6000,"station_id":"","pricing_plan_id":"cebpf4jnsgd1na2vs0mg"},{"bike_id":"969c178c-95ca-4231-a8bc-fac7f6adb517","system_id":"levelo_inurba_marseille","lat":43.30585,"lon":5.39347,"is_reserved":false,"is_disabled":false,"rental_uris":{"android":"levelo://app?vid=969c178c-95ca-4231-a8bc-fac7f6adb517","ios":"levelo://app?vid=969c178c-95ca-4231-a8bc-fac7f6adb517"},"vehicle_type_id":"4","last_reported":1777287120,"current_range_meters":6000,"station_id":"ce4bh0p2rcd13ifvqd80","pricing_plan_id":"cebpf4jnsgd1na2vs0mg"},{"bike_id":"fd583349-9e7d-4e5b-8155-1da1a7a44b99","system_id":"levelo_inurba_marseille","lat":43.27943,"lon":5.41048,"is_reserved":false,"is_disabled":false,"rental_uris":{"android":"levelo://app?vid=fd583349-9e7d-4e5b-8155-1da1a7a44b99","ios":"levelo://app?vid=fd583349-9e7d-4e5b-8155-1da1a7a44b99"},"vehicle_type_id":"4","last_reported":1777287120,"current_range_meters":6000,"station_id":"ce4bhnp2rcd13ifvqh0g","pricing_plan_id":"cebpf4jnsgd1na2vs0mg"},{"bike_id":"b23b1a3d-d0aa-4536-a08d-3e88e135daa2","system_id":"levelo_inurba_marseille","lat":43.28971,"lon":5.37825,"is_reserved":false,"is_disabled":false,"rental_uris":{"android":"levelo://app?vid=b23b1a3d-d0aa-4536-a08d-3e88e135daa2","ios":"levelo://app?vid=b23b1a3d-d0aa-4536-a08d-3e88e135daa2"},"vehicle_type_id":"4","last_reported":1777287120,"current_range_meters":6000,"station_id":"ce4bh9p2rcd13ifvqed0","pricing_plan_id":"cebpf4jnsgd1na2vs0mg"},{"bike_id":"5367fafd-42a5-4c52-bd35-5d85953af91c","system_id":"levelo_inurba_marseille","lat":43.30833,"lon":5.38101,"is_reserved":false,"is_disabled":true,"rental_uris":{"android":"levelo://app?vid=5367fafd-42a5-4c52-bd35-5d85953af91c","ios":"levelo://app?vid=5367fafd-42a5-4c52-bd35-5d85953af91c"},"vehicle_type_id":"4","last_reported":1777287120,"current_range_meters":6400,"station_id":"","pricing_plan_id":"cebpf4jnsgd1na2vs0mg"},{"bike_id":"27cd71a7-0940-4415-a67f-21597fbf1cd9","system_id":"levelo_inurba_marseille","lat":43.34486,"lon":5.37818,"is_reserved":false,"is_disabled":false,"rental_uris":{"android":"levelo://app?vid=27cd71a7-0940-4415-a67f-21597fbf1cd9","ios":"levelo://app?vid=27cd71a7-0940-4415-a67f-21597fbf1cd9"},"vehicle_type_id":"4","last_reported":1777287120,"current_range_meters":6400,"station_id":"","pricing_plan_id":"cebpf4jnsgd1na2vs0mg"},{"bike_id":"ad06fbeb-2893-47bd-9310-693ccba410e9","system_id":"levelo_inurba_marseille","lat":43.28763,"lon":5.46823,"is_reserved":false,"is_disabled":false,"rental_uris":{"android":"levelo://app?vid=ad06fbeb-2893-47bd-9310-693ccba410e9","ios":"levelo://app?vid=ad06fbeb-2893-47bd-9310-693ccba410e9"},"vehicle_type_id":"4","last_reported":1777287120,"current_range_meters":6400,"station_id":"","pricing_plan_id":"cebpf4jnsgd1na2vs0mg"},{"bike_id":"cf4537a9-051c-4080-9a3f-93f632ce0082","system_id":"levelo_inurba_marseille","lat":43.337444,"lon":5.374475,"is_reserved":false,"is_disabled":false,"rental_uris":{"android":"levelo://app?vid=cf4537a9-051c-4080-9a3f-93f632ce0082","ios":"levelo://app?vid=cf4537a9-051c-4080-9a3f-93f632ce0082"},"vehicle_type_id":"4","last_reported":1777287120,"current_range_meters":6400,"station_id":"","pricing_plan_id":"cebpf4jnsgd1na2vs0mg"},{"bike_id":"c11d1808-32dc-4683-bc6f-c818ed8e14de","system_id":"levelo_inurba_marseille","lat":43.27498,"lon":5.42455,"is_reserved":false,"is_disabled":true,"rental_uris":{"android":"levelo://app?vid=c11d1808-32dc-4683-bc6f-c818ed8e14de","ios":"levelo://app?vid=c11d1808-32dc-4683-bc6f-c818ed8e14de"},"vehicle_type_id":"4","last_reported":1777287120,"current_range_meters":6400,"station_id":"ce4bhn92rcd13ifvqgrg","pricing_plan_id":"cebpf4jnsgd1na2vs0mg"},{"bike_id":"a9335f62-4c73-44b2-8914-e3f52e6941ca","system_id":"levelo_inurba_marseille","lat":43.32106,"lon":5.36779,"is_reserved":false,"is_disabled":false,"rental_uris":{"android":"levelo://app?vid=a9335f62-4c73-44b2-8914-e3f52e6941ca","ios":"levelo://app?vid=a9335f62-4c73-44b2-8914-e3f52e6941ca"},"vehicle_type_id":"4","last_reported":1777287120,"current_range_meters":6400,"station_id":"ce4bhrh2rcd13ifvqhug","pricing_plan_id":"cebpf4jnsgd1na2vs0mg"},{"bike_id":"2725b0c0-a653-43ae-bc24-ce0141576499","system_id":"levelo_inurba_marseille","lat":43.30139,"lon":5.43111,"is_reserved":false,"is_disabled":false,"rental_uris":{"android":"levelo://app?vid=2725b0c0-a653-43ae-bc24-ce0141576499","ios":"levelo://app?vid=2725b0c0-a653-43ae-bc24-ce0141576499"},"vehicle_type_id":"4","last_reported":1777287120,"current_range_meters":6400,"station_id":"st_d3js3co5814s73ftftug","pricing_plan_id":"cebpf4jnsgd1na2vs0mg"},{"bike_id":"30901e68-34b0-4309-84e6-a6859a560b2f","system_id":"levelo_inurba_marseille","lat":43.30271,"lon":5.37707,"is_reserved":false,"is_disabled":false,"rental_uris":{"android":"levelo://app?vid=30901e68-34b0-4309-84e6-a6859a560b2f","ios":"levelo://app?vid=30901e68-34b0-4309-84e6-a6859a560b2f"},"vehicle_type_id":"4","last_reported":1777287120,"current_range_meters":6400,"station_id":"ce4bguh2rcd13ifvqcj0","pricing_plan_id":"cebpf4jnsgd1na2vs0mg"},{"bike_id":"a15c039d-dcd1-4a55-add3-1c3f0f1d12e3","system_id":"levelo_inurba_marseille","lat":43.28616,"lon":5.35106,"is_reserved":false,"is_disabled":false,"rental_uris":{"android":"levelo://app?vid=a15c039d-dcd1-4a55-add3-1c3f0f1d12e3","ios":"levelo://app?vid=a15c039d-dcd1-4a55-add3-1c3f0f1d12e3"},"vehicle_type_id":"4","last_reported":1777287120,"current_range_meters":6400,"station_id":"ce4bhch2rcd13ifvqeug","pricing_plan_id":"cebpf4jnsgd1na2vs0mg"},{"bike_id":"51eba344-e5f0-4cde-925e-6a52f8c991ba","system_id":"levelo_inurba_marseille","lat":43.29765,"lon":5.37095,"is_reserved":false,"is_disabled":false,"rental_uris":{"android":"levelo://app?vid=51eba344-e5f0-4cde-925e-6a52f8c991ba","ios":"levelo://app?vid=51eba344-e5f0-4cde-925e-6a52f8c991ba"},"vehicle_type_id":"4","last_reported":1777287120,"current_range_meters":6400,"station_id":"ce4bgop2rcd13ifvqc1g","pricing_plan_id":"cebpf4jnsgd1na2vs0mg"},{"bike_id":"257b022b-58f3-4894-a9bd-52e9cd91af3a","system_id":"levelo_inurba_marseille","lat":43.29034,"lon":5.37566,"is_reserved":false,"is_disabled":false,"rental_uris":{"android":"levelo://app?vid=257b022b-58f3-4894-a9bd-52e9cd91af3a","ios":"levelo://app?vid=257b022b-58f3-4894-a9bd-52e9cd91af3a"},"vehicle_type_id":"4","last_reported":1777287120,"current_range_meters":6400,"station_id":"ce4bh692rcd13ifvqe90","pricing_plan_id":"cebpf4jnsgd1na2vs0mg"},{"bike_id":"706ecd89-bafe-46bb-8b99-a5d007005819","system_id":"levelo_inurba_marseille","lat":43.24801,"lon":5.37474,"is_reserved":false,"is_disabled":false,"rental_uris":{"android":"levelo://app?vid=706ecd89-bafe-46bb-8b99-a5d007005819","ios":"levelo://app?vid=706ecd89-bafe-46bb-8b99-a5d007005819"},"vehicle_type_id":"4","last_reported":1777287120,"current_range_meters":6800,"station_id":"ce4bhgh2rcd13ifvqfb0","pricing_plan_id":"cebpf4jnsgd1na2vs0mg"},{"bike_id":"91e4eed8-7aa0-4ca6-bc8b-33ffc5693469","system_id":"levelo_inurba_marseille","lat":43.31334,"lon":5.37908,"is_reserved":false,"is_disabled":false,"rental_uris":{"android":"levelo://app?vid=91e4eed8-7aa0-4ca6-bc8b-33ffc5693469","ios":"levelo://app?vid=91e4eed8-7aa0-4ca6-bc8b-33ffc5693469"},"vehicle_type_id":"4","last_reported":1777287120,"current_range_meters":6800,"station_id":"","pricing_plan_id":"cebpf4jnsgd1na2vs0mg"},{"bike_id":"dddac9b2-d585-4cc6-81fd-79953cd6bf7f","system_id":"levelo_inurba_marseille","lat":43.23166,"lon":5.437,"is_reserved":false,"is_disabled":false,"rental_uris":{"android":"levelo://app?vid=dddac9b2-d585-4cc6-81fd-79953cd6bf7f","ios":"levelo://app?vid=dddac9b2-d585-4cc6-81fd-79953cd6bf7f"},"vehicle_type_id":"4","last_reported":1777287120,"current_range_meters":6800,"station_id":"ce4bhmp2rcd13ifvqgog","pricing_plan_id":"cebpf4jnsgd1na2vs0mg"},{"bike_id":"d2a170e9-4683-45e4-8ad8-6a20e503868b","system_id":"levelo_inurba_marseille","lat":43.2551,"lon":5.37659,"is_reserved":false,"is_disabled":false,"rental_uris":{"android":"levelo://app?vid=d2a170e9-4683-45e4-8ad8-6a20e503868b","ios":"levelo://app?vid=d2a170e9-4683-45e4-8ad8-6a20e503868b"},"vehicle_type_id":"4","last_reported":1777287120,"current_range_meters":6800,"station_id":"ce4bhh12rcd13ifvqff0","pricing_plan_id":"cebpf4jnsgd1na2vs0mg"},{"bike_id":"67e10cd9-bca1-4e53-8e72-b832e0b5ba8a","system_id":"levelo_inurba_marseille","lat":43.23157,"lon":5.43704,"is_reserved":false,"is_disabled":false,"rental_uris":{"android":"levelo://app?vid=67e10cd9-bca1-4e53-8e72-b832e0b5ba8a","ios":"levelo://app?vid=67e10cd9-bca1-4e53-8e72-b832e0b5ba8a"},"vehicle_type_id":"4","last_reported":1777287120,"current_range_meters":6800,"station_id":"ce4bhmp2rcd13ifvqgog","pricing_plan_id":"cebpf4jnsgd1na2vs0mg"},{"bike_id":"e6e0181d-d51b-42d7-93b1-7e8f4d00629c","system_id":"levelo_inurba_marseille","lat":43.2982,"lon":5.42043,"is_reserved":false,"is_disabled":true,"rental_uris":{"android":"levelo://app?vid=e6e0181d-d51b-42d7-93b1-7e8f4d00629c","ios":"levelo://app?vid=e6e0181d-d51b-42d7-93b1-7e8f4d00629c"},"vehicle_type_id":"4","last_reported":1777287120,"current_range_meters":6800,"station_id":"","pricing_plan_id":"cebpf4jnsgd1na2vs0mg"},{"bike_id":"5f507e31-3dd6-447e-a9b5-15992546554f","system_id":"levelo_inurba_marseille","lat":43.28144,"lon":5.42634,"is_reserved":false,"is_disabled":false,"rental_uris":{"android":"levelo://app?vid=5f507e31-3dd6-447e-a9b5-15992546554f","ios":"levelo://app?vid=5f507e31-3dd6-447e-a9b5-15992546554f"},"vehicle_type_id":"4","last_reported":1777287120,"current_range_meters":6800,"station_id":"ce4bhnh2rcd13ifvqgug","pricing_plan_id":"cebpf4jnsgd1na2vs0mg"},{"bike_id":"bbd9cfc8-16d4-4d6e-8f3d-85156505aadd","system_id":"levelo_inurba_marseille","lat":43.28843,"lon":5.35885,"is_reserved":false,"is_disabled":false,"rental_uris":{"android":"levelo://app?vid=bbd9cfc8-16d4-4d6e-8f3d-85156505aadd","ios":"levelo://app?vid=bbd9cfc8-16d4-4d6e-8f3d-85156505aadd"},"vehicle_type_id":"4","last_reported":1777287120,"current_range_meters":6800,"station_id":"ce4bhb12rcd13ifvqem0","pricing_plan_id":"cebpf4jnsgd1na2vs0mg"},{"bike_id":"75093eee-2e0f-42fb-add2-6ff3cb994c2b","system_id":"levelo_inurba_marseille","lat":43.27916,"lon":5.3958,"is_reserved":false,"is_disabled":false,"rental_uris":{"android":"levelo://app?vid=75093eee-2e0f-42fb-add2-6ff3cb994c2b","ios":"levelo://app?vid=75093eee-2e0f-42fb-add2-6ff3cb994c2b"},"vehicle_type_id":"4","last_reported":1777287120,"current_range_meters":6800,"station_id":"ce4bhf92rcd13ifvqf40","pricing_plan_id":"cebpf4jnsgd1na2vs0mg"},{"bike_id":"8050b833-adef-43e8-8f24-94a8d1b4458b","system_id":"levelo_inurba_marseille","lat":43.2751,"lon":5.42466,"is_reserved":false,"is_disabled":false,"rental_uris":{"android":"levelo://app?vid=8050b833-adef-43e8-8f24-94a8d1b4458b","ios":"levelo://app?vid=8050b833-adef-43e8-8f24-94a8d1b4458b"},"vehicle_type_id":"4","last_reported":1777287120,"current_range_meters":6800,"station_id":"ce4bhn92rcd13ifvqgrg","pricing_plan_id":"cebpf4jnsgd1na2vs0mg"},{"bike_id":"cfa40bf7-7c5f-4567-b9c8-9841fba1763e","system_id":"levelo_inurba_marseille","lat":43.2659,"lon":5.40285,"is_reserved":false,"is_disabled":false,"rental_uris":{"android":"levelo://app?vid=cfa40bf7-7c5f-4567-b9c8-9841fba1763e","ios":"levelo://app?vid=cfa40bf7-7c5f-4567-b9c8-9841fba1763e"},"vehicle_type_id":"4","last_reported":1777287120,"current_range_meters":6800,"station_id":"","pricing_plan_id":"cebpf4jnsgd1na2vs0mg"},{"bike_id":"2ecb7814-e231-4e51-a3ee-b3315f0bc596","system_id":"levelo_inurba_marseille","lat":43.25577,"lon":5.38228,"is_reserved":false,"is_disabled":false,"rental_uris":{"android":"levelo://app?vid=2ecb7814-e231-4e51-a3ee-b3315f0bc596","ios":"levelo://app?vid=2ecb7814-e231-4e51-a3ee-b3315f0bc596"},"vehicle_type_id":"4","last_reported":1777287120,"current_range_meters":6800,"station_id":"ce4bhih2rcd13ifvqfs0","pricing_plan_id":"cebpf4jnsgd1na2vs0mg"},{"bike_id":"5c6dbc22-6dc1-4a74-95d1-677c3ccf7a7b","system_id":"levelo_inurba_marseille","lat":43.29942,"lon":5.36552,"is_reserved":false,"is_disabled":false,"rental_uris":{"android":"levelo://app?vid=5c6dbc22-6dc1-4a74-95d1-677c3ccf7a7b","ios":"levelo://app?vid=5c6dbc22-6dc1-4a74-95d1-677c3ccf7a7b"},"vehicle_type_id":"4","last_reported":1777287120,"current_range_meters":7200,"station_id":"ce4bgm92rcd13ifvqbr0","pricing_plan_id":"cebpf4jnsgd1na2vs0mg"},{"bike_id":"c14336fa-2d5d-48b6-863d-09b5884806aa","system_id":"levelo_inurba_marseille","lat":43.28983,"lon":5.3784,"is_reserved":false,"is_disabled":false,"rental_uris":{"android":"levelo://app?vid=c14336fa-2d5d-48b6-863d-09b5884806aa","ios":"levelo://app?vid=c14336fa-2d5d-48b6-863d-09b5884806aa"},"vehicle_type_id":"4","last_reported":1777287120,"current_range_meters":7200,"station_id":"ce4bh9p2rcd13ifvqed0","pricing_plan_id":"cebpf4jnsgd1na2vs0mg"},{"bike_id":"70ab68a7-f252-47fa-a529-01a3240781ee","system_id":"levelo_inurba_marseille","lat":43.23147,"lon":5.43682,"is_reserved":false,"is_disabled":false,"rental_uris":{"android":"levelo://app?vid=70ab68a7-f252-47fa-a529-01a3240781ee","ios":"levelo://app?vid=70ab68a7-f252-47fa-a529-01a3240781ee"},"vehicle_type_id":"4","last_reported":1777287120,"current_range_meters":7200,"station_id":"ce4bhmp2rcd13ifvqgog","pricing_plan_id":"cebpf4jnsgd1na2vs0mg"},{"bike_id":"e71479ac-2c75-4920-9d3c-08826be0b2df","system_id":"levelo_inurba_marseille","lat":43.28862,"lon":5.42514,"is_reserved":false,"is_disabled":false,"rental_uris":{"android":"levelo://app?vid=e71479ac-2c75-4920-9d3c-08826be0b2df","ios":"levelo://app?vid=e71479ac-2c75-4920-9d3c-08826be0b2df"},"vehicle_type_id":"4","last_reported":1777287120,"current_range_meters":7200,"station_id":"st_d3b462108ojc7389ooeg","pricing_plan_id":"cebpf4jnsgd1na2vs0mg"},{"bike_id":"11a5074f-be5e-43a9-8f56-2fea90effe08","system_id":"levelo_inurba_marseille","lat":43.24554,"lon":5.39523,"is_reserved":false,"is_disabled":false,"rental_uris":{"android":"levelo://app?vid=11a5074f-be5e-43a9-8f56-2fea90effe08","ios":"levelo://app?vid=11a5074f-be5e-43a9-8f56-2fea90effe08"},"vehicle_type_id":"4","last_reported":1777287120,"current_range_meters":7200,"station_id":"ce4bhlp2rcd13ifvqgjg","pricing_plan_id":"cebpf4jnsgd1na2vs0mg"},{"bike_id":"b2d8e6f5-de60-4023-8fa7-3be9228fef54","system_id":"levelo_inurba_marseille","lat":43.24172,"lon":5.36405,"is_reserved":false,"is_disabled":false,"rental_uris":{"android":"levelo://app?vid=b2d8e6f5-de60-4023-8fa7-3be9228fef54","ios":"levelo://app?vid=b2d8e6f5-de60-4023-8fa7-3be9228fef54"},"vehicle_type_id":"4","last_reported":1777287120,"current_range_meters":7200,"station_id":"cpo36qri1sfpv3e86is0","pricing_plan_id":"cebpf4jnsgd1na2vs0mg"},{"bike_id":"d1063a8e-a667-4f9b-9166-4b2ea1244e5f","system_id":"levelo_inurba_marseille","lat":43.24814,"lon":5.37447,"is_reserved":false,"is_disabled":false,"rental_uris":{"android":"levelo://app?vid=d1063a8e-a667-4f9b-9166-4b2ea1244e5f","ios":"levelo://app?vid=d1063a8e-a667-4f9b-9166-4b2ea1244e5f"},"vehicle_type_id":"4","last_reported":1777287120,"current_range_meters":7200,"station_id":"ce4bhgh2rcd13ifvqfb0","pricing_plan_id":"cebpf4jnsgd1na2vs0mg"},{"bike_id":"a17a356a-6340-4eae-b4d5-d59f3247dda3","system_id":"levelo_inurba_marseille","lat":43.25978,"lon":5.39234,"is_reserved":false,"is_disabled":false,"rental_uris":{"android":"levelo://app?vid=a17a356a-6340-4eae-b4d5-d59f3247dda3","ios":"levelo://app?vid=a17a356a-6340-4eae-b4d5-d59f3247dda3"},"vehicle_type_id":"4","last_reported":1777287120,"current_range_meters":7200,"station_id":"","pricing_plan_id":"cebpf4jnsgd1na2vs0mg"},{"bike_id":"bd2c7d31-fe9e-468d-9d54-feca4b12126c","system_id":"levelo_inurba_marseille","lat":43.3089,"lon":5.37182,"is_reserved":false,"is_disabled":false,"rental_uris":{"android":"levelo://app?vid=bd2c7d31-fe9e-468d-9d54-feca4b12126c","ios":"levelo://app?vid=bd2c7d31-fe9e-468d-9d54-feca4b12126c"},"vehicle_type_id":"4","last_reported":1777287120,"current_range_meters":7200,"station_id":"ce4bguh2rcd13ifvqckg","pricing_plan_id":"cebpf4jnsgd1na2vs0mg"},{"bike_id":"6b5b9e45-67f3-4a64-a294-ead66e30dbef","system_id":"levelo_inurba_marseille","lat":43.24663,"lon":5.38169,"is_reserved":false,"is_disabled":false,"rental_uris":{"android":"levelo://app?vid=6b5b9e45-67f3-4a64-a294-ead66e30dbef","ios":"levelo://app?vid=6b5b9e45-67f3-4a64-a294-ead66e30dbef"},"vehicle_type_id":"4","last_reported":1777287120,"current_range_meters":7200,"station_id":"ce4bhih2rcd13ifvqfr0","pricing_plan_id":"cebpf4jnsgd1na2vs0mg"},{"bike_id":"ad26b8dc-edee-444c-8fc3-cb83169b331a","system_id":"levelo_inurba_marseille","lat":43.28166,"lon":5.42637,"is_reserved":false,"is_disabled":false,"rental_uris":{"android":"levelo://app?vid=ad26b8dc-edee-444c-8fc3-cb83169b331a","ios":"levelo://app?vid=ad26b8dc-edee-444c-8fc3-cb83169b331a"},"vehicle_type_id":"4","last_reported":1777287120,"current_range_meters":7200,"station_id":"ce4bhnh2rcd13ifvqgug","pricing_plan_id":"cebpf4jnsgd1na2vs0mg"},{"bike_id":"34c90ce6-0466-4001-8dce-7f55b9daf2f7","system_id":"levelo_inurba_marseille","lat":43.27073,"lon":5.42291,"is_reserved":false,"is_disabled":false,"rental_uris":{"android":"levelo://app?vid=34c90ce6-0466-4001-8dce-7f55b9daf2f7","ios":"levelo://app?vid=34c90ce6-0466-4001-8dce-7f55b9daf2f7"},"vehicle_type_id":"4","last_reported":1777287120,"current_range_meters":7200,"station_id":"ce4bhk92rcd13ifvqgb0","pricing_plan_id":"cebpf4jnsgd1na2vs0mg"},{"bike_id":"50f8bdff-b169-44f8-8920-840c94d5e30a","system_id":"levelo_inurba_marseille","lat":43.28479,"lon":5.48385,"is_reserved":false,"is_disabled":true,"rental_uris":{"android":"levelo://app?vid=50f8bdff-b169-44f8-8920-840c94d5e30a","ios":"levelo://app?vid=50f8bdff-b169-44f8-8920-840c94d5e30a"},"vehicle_type_id":"4","last_reported":1777287120,"current_range_meters":7200,"station_id":"","pricing_plan_id":"cebpf4jnsgd1na2vs0mg"},{"bike_id":"d52e1645-df44-4071-b1cb-b900a44b7ad1","system_id":"levelo_inurba_marseille","lat":43.29579,"lon":5.37477,"is_reserved":false,"is_disabled":false,"rental_uris":{"android":"levelo://app?vid=d52e1645-df44-4071-b1cb-b900a44b7ad1","ios":"levelo://app?vid=d52e1645-df44-4071-b1cb-b900a44b7ad1"},"vehicle_type_id":"4","last_reported":1777287120,"current_range_meters":7200,"station_id":"ce4bgh92rcd13ifvqb50","pricing_plan_id":"cebpf4jnsgd1na2vs0mg"},{"bike_id":"a20c828c-7e17-4850-9066-77d1ff8b1605","system_id":"levelo_inurba_marseille","lat":43.30545,"lon":5.36556,"is_reserved":false,"is_disabled":false,"rental_uris":{"android":"levelo://app?vid=a20c828c-7e17-4850-9066-77d1ff8b1605","ios":"levelo://app?vid=a20c828c-7e17-4850-9066-77d1ff8b1605"},"vehicle_type_id":"4","last_reported":1777287120,"current_range_meters":7200,"station_id":"ce4bgs12rcd13ifvqcag","pricing_plan_id":"cebpf4jnsgd1na2vs0mg"},{"bike_id":"0ac6fe75-176f-47ca-97df-dc3691075e50","system_id":"levelo_inurba_marseille","lat":43.27075,"lon":5.38312,"is_reserved":false,"is_disabled":false,"rental_uris":{"android":"levelo://app?vid=0ac6fe75-176f-47ca-97df-dc3691075e50","ios":"levelo://app?vid=0ac6fe75-176f-47ca-97df-dc3691075e50"},"vehicle_type_id":"4","last_reported":1777287120,"current_range_meters":7200,"station_id":"st_d3n2fo6cfp8s73cte1j0","pricing_plan_id":"cebpf4jnsgd1na2vs0mg"},{"bike_id":"4cbcd6e2-8ef2-4387-8836-4253a4f4e4a7","system_id":"levelo_inurba_marseille","lat":43.31479,"lon":5.3739,"is_reserved":false,"is_disabled":true,"rental_uris":{"android":"levelo://app?vid=4cbcd6e2-8ef2-4387-8836-4253a4f4e4a7","ios":"levelo://app?vid=4cbcd6e2-8ef2-4387-8836-4253a4f4e4a7"},"vehicle_type_id":"4","last_reported":1777287120,"current_range_meters":8000,"station_id":"","pricing_plan_id":"cebpf4jnsgd1na2vs0mg"},{"bike_id":"c5e4557e-a579-4ba0-b540-76be6c2c51d2","system_id":"levelo_inurba_marseille","lat":43.26946,"lon":5.4029,"is_reserved":false,"is_disabled":false,"rental_uris":{"android":"levelo://app?vid=c5e4557e-a579-4ba0-b540-76be6c2c51d2","ios":"levelo://app?vid=c5e4557e-a579-4ba0-b540-76be6c2c51d2"},"vehicle_type_id":"4","last_reported":1777287120,"current_range_meters":8000,"station_id":"cjm6bp8fraef2m0cb0m0","pricing_plan_id":"cebpf4jnsgd1na2vs0mg"},{"bike_id":"ecc99f8b-6f1e-458a-9867-63da3375c47c","system_id":"levelo_inurba_marseille","lat":43.27683,"lon":5.38878,"is_reserved":false,"is_disabled":false,"rental_uris":{"android":"levelo://app?vid=ecc99f8b-6f1e-458a-9867-63da3375c47c","ios":"levelo://app?vid=ecc99f8b-6f1e-458a-9867-63da3375c47c"},"vehicle_type_id":"4","last_reported":1777287120,"current_range_meters":8000,"station_id":"ce4bhi12rcd13ifvqfo0","pricing_plan_id":"cebpf4jnsgd1na2vs0mg"},{"bike_id":"d87e5569-0261-4533-9033-6ed1790b62fb","system_id":"levelo_inurba_marseille","lat":43.27498,"lon":5.42461,"is_reserved":false,"is_disabled":false,"rental_uris":{"android":"levelo://app?vid=d87e5569-0261-4533-9033-6ed1790b62fb","ios":"levelo://app?vid=d87e5569-0261-4533-9033-6ed1790b62fb"},"vehicle_type_id":"4","last_reported":1777287120,"current_range_meters":8000,"station_id":"ce4bhn92rcd13ifvqgrg","pricing_plan_id":"cebpf4jnsgd1na2vs0mg"},{"bike_id":"181f2449-0d9a-4f74-aed9-d4a85cc5ef6a","system_id":"levelo_inurba_marseille","lat":43.31492,"lon":5.37286,"is_reserved":false,"is_disabled":false,"rental_uris":{"android":"levelo://app?vid=181f2449-0d9a-4f74-aed9-d4a85cc5ef6a","ios":"levelo://app?vid=181f2449-0d9a-4f74-aed9-d4a85cc5ef6a"},"vehicle_type_id":"4","last_reported":1777287120,"current_range_meters":8000,"station_id":"ce4bgt12rcd13ifvqcd0","pricing_plan_id":"cebpf4jnsgd1na2vs0mg"},{"bike_id":"95fcacf0-7086-4a79-916d-eb3549d744d3","system_id":"levelo_inurba_marseille","lat":43.337444,"lon":5.374475,"is_reserved":false,"is_disabled":false,"rental_uris":{"android":"levelo://app?vid=95fcacf0-7086-4a79-916d-eb3549d744d3","ios":"levelo://app?vid=95fcacf0-7086-4a79-916d-eb3549d744d3"},"vehicle_type_id":"4","last_reported":1777287120,"current_range_meters":8000,"station_id":"","pricing_plan_id":"cebpf4jnsgd1na2vs0mg"},{"bike_id":"cdd50d49-7c37-47de-a1be-749cb6156ae7","system_id":"levelo_inurba_marseille","lat":43.31496,"lon":5.37305,"is_reserved":false,"is_disabled":false,"rental_uris":{"android":"levelo://app?vid=cdd50d49-7c37-47de-a1be-749cb6156ae7","ios":"levelo://app?vid=cdd50d49-7c37-47de-a1be-749cb6156ae7"},"vehicle_type_id":"4","last_reported":1777287120,"current_range_meters":8000,"station_id":"ce4bgt12rcd13ifvqcd0","pricing_plan_id":"cebpf4jnsgd1na2vs0mg"},{"bike_id":"6b9ceb44-f98b-4474-bf14-5e53602be7a5","system_id":"levelo_inurba_marseille","lat":43.3354,"lon":5.37459,"is_reserved":false,"is_disabled":false,"rental_uris":{"android":"levelo://app?vid=6b9ceb44-f98b-4474-bf14-5e53602be7a5","ios":"levelo://app?vid=6b9ceb44-f98b-4474-bf14-5e53602be7a5"},"vehicle_type_id":"4","last_reported":1777287120,"current_range_meters":8000,"station_id":"st_d46tts09ee8s73dlu43g","pricing_plan_id":"cebpf4jnsgd1na2vs0mg"},{"bike_id":"b9ec8ac2-f12d-450c-92a3-3acf90c86aa3","system_id":"levelo_inurba_marseille","lat":43.27919,"lon":5.39582,"is_reserved":false,"is_disabled":false,"rental_uris":{"android":"levelo://app?vid=b9ec8ac2-f12d-450c-92a3-3acf90c86aa3","ios":"levelo://app?vid=b9ec8ac2-f12d-450c-92a3-3acf90c86aa3"},"vehicle_type_id":"4","last_reported":1777287120,"current_range_meters":8000,"station_id":"ce4bhf92rcd13ifvqf40","pricing_plan_id":"cebpf4jnsgd1na2vs0mg"},{"bike_id":"8566a950-70e0-4304-90df-6849e1a802d9","system_id":"levelo_inurba_marseille","lat":43.275276,"lon":5.43436,"is_reserved":false,"is_disabled":false,"rental_uris":{"android":"levelo://app?vid=8566a950-70e0-4304-90df-6849e1a802d9","ios":"levelo://app?vid=8566a950-70e0-4304-90df-6849e1a802d9"},"vehicle_type_id":"4","last_reported":1777287120,"current_range_meters":8000,"station_id":"","pricing_plan_id":"cebpf4jnsgd1na2vs0mg"},{"bike_id":"0d8c3362-be20-49ce-8a46-7df1fa0c42ea","system_id":"levelo_inurba_marseille","lat":43.24831,"lon":5.37445,"is_reserved":false,"is_disabled":false,"rental_uris":{"android":"levelo://app?vid=0d8c3362-be20-49ce-8a46-7df1fa0c42ea","ios":"levelo://app?vid=0d8c3362-be20-49ce-8a46-7df1fa0c42ea"},"vehicle_type_id":"4","last_reported":1777287120,"current_range_meters":8000,"station_id":"ce4bhgh2rcd13ifvqfb0","pricing_plan_id":"cebpf4jnsgd1na2vs0mg"},{"bike_id":"8645f80a-80c6-4ed4-a15e-683f6be96bbe","system_id":"levelo_inurba_marseille","lat":43.24072,"lon":5.37755,"is_reserved":false,"is_disabled":false,"rental_uris":{"android":"levelo://app?vid=8645f80a-80c6-4ed4-a15e-683f6be96bbe","ios":"levelo://app?vid=8645f80a-80c6-4ed4-a15e-683f6be96bbe"},"vehicle_type_id":"4","last_reported":1777287120,"current_range_meters":8000,"station_id":"ce4bhnp2rcd13ifvqgvg","pricing_plan_id":"cebpf4jnsgd1na2vs0mg"},{"bike_id":"53a3123f-fa9d-45d9-b284-09876e4c2ad8","system_id":"levelo_inurba_marseille","lat":43.24061,"lon":5.37755,"is_reserved":false,"is_disabled":false,"rental_uris":{"android":"levelo://app?vid=53a3123f-fa9d-45d9-b284-09876e4c2ad8","ios":"levelo://app?vid=53a3123f-fa9d-45d9-b284-09876e4c2ad8"},"vehicle_type_id":"4","last_reported":1777287120,"current_range_meters":8000,"station_id":"ce4bhnp2rcd13ifvqgvg","pricing_plan_id":"cebpf4jnsgd1na2vs0mg"},{"bike_id":"6b8549bf-30d2-490f-8f61-d9ca43e4d06c","system_id":"levelo_inurba_marseille","lat":43.27019,"lon":5.40253,"is_reserved":false,"is_disabled":false,"rental_uris":{"android":"levelo://app?vid=6b8549bf-30d2-490f-8f61-d9ca43e4d06c","ios":"levelo://app?vid=6b8549bf-30d2-490f-8f61-d9ca43e4d06c"},"vehicle_type_id":"4","last_reported":1777287120,"current_range_meters":8000,"station_id":"ce4bhk92rcd13ifvqgc0","pricing_plan_id":"cebpf4jnsgd1na2vs0mg"},{"bike_id":"02f03480-132f-4ba2-8692-4d2160fb9d35","system_id":"levelo_inurba_marseille","lat":43.21186,"lon":5.35069,"is_reserved":false,"is_disabled":false,"rental_uris":{"android":"levelo://app?vid=02f03480-132f-4ba2-8692-4d2160fb9d35","ios":"levelo://app?vid=02f03480-132f-4ba2-8692-4d2160fb9d35"},"vehicle_type_id":"4","last_reported":1777287120,"current_range_meters":8000,"station_id":"st_cvj6sg6p6f1abm77japg","pricing_plan_id":"cebpf4jnsgd1na2vs0mg"},{"bike_id":"f48d89b5-f15c-435f-8a60-21eec0766a55","system_id":"levelo_inurba_marseille","lat":43.28621,"lon":5.35101,"is_reserved":false,"is_disabled":false,"rental_uris":{"android":"levelo://app?vid=f48d89b5-f15c-435f-8a60-21eec0766a55","ios":"levelo://app?vid=f48d89b5-f15c-435f-8a60-21eec0766a55"},"vehicle_type_id":"4","last_reported":1777287120,"current_range_meters":8000,"station_id":"ce4bhch2rcd13ifvqeug","pricing_plan_id":"cebpf4jnsgd1na2vs0mg"},{"bike_id":"969b0eaf-1182-4875-a1f1-5398a28d21b3","system_id":"levelo_inurba_marseille","lat":43.23165,"lon":5.43711,"is_reserved":false,"is_disabled":false,"rental_uris":{"android":"levelo://app?vid=969b0eaf-1182-4875-a1f1-5398a28d21b3","ios":"levelo://app?vid=969b0eaf-1182-4875-a1f1-5398a28d21b3"},"vehicle_type_id":"4","last_reported":1777287120,"current_range_meters":8000,"station_id":"ce4bhmp2rcd13ifvqgog","pricing_plan_id":"cebpf4jnsgd1na2vs0mg"},{"bike_id":"45016ab2-cba4-493e-b53b-ed959d96f6eb","system_id":"levelo_inurba_marseille","lat":43.23155,"lon":5.4372,"is_reserved":false,"is_disabled":false,"rental_uris":{"android":"levelo://app?vid=45016ab2-cba4-493e-b53b-ed959d96f6eb","ios":"levelo://app?vid=45016ab2-cba4-493e-b53b-ed959d96f6eb"},"vehicle_type_id":"4","last_reported":1777287120,"current_range_meters":8000,"station_id":"ce4bhmp2rcd13ifvqgog","pricing_plan_id":"cebpf4jnsgd1na2vs0mg"},{"bike_id":"71016f77-2094-4ed9-8956-75ef0073cf6a","system_id":"levelo_inurba_marseille","lat":43.24544,"lon":5.39514,"is_reserved":false,"is_disabled":false,"rental_uris":{"android":"levelo://app?vid=71016f77-2094-4ed9-8956-75ef0073cf6a","ios":"levelo://app?vid=71016f77-2094-4ed9-8956-75ef0073cf6a"},"vehicle_type_id":"4","last_reported":1777287120,"current_range_meters":8400,"station_id":"ce4bhlp2rcd13ifvqgjg","pricing_plan_id":"cebpf4jnsgd1na2vs0mg"},{"bike_id":"8f13b61e-8a25-4927-8213-0f8d3090195b","system_id":"levelo_inurba_marseille","lat":43.28478,"lon":5.48399,"is_reserved":false,"is_disabled":false,"rental_uris":{"android":"levelo://app?vid=8f13b61e-8a25-4927-8213-0f8d3090195b","ios":"levelo://app?vid=8f13b61e-8a25-4927-8213-0f8d3090195b"},"vehicle_type_id":"4","last_reported":1777287120,"current_range_meters":8400,"station_id":"","pricing_plan_id":"cebpf4jnsgd1na2vs0mg"},{"bike_id":"e1ed0d6c-571b-47d3-bd40-eea4fd60ac4e","system_id":"levelo_inurba_marseille","lat":43.28724,"lon":5.3794,"is_reserved":false,"is_disabled":false,"rental_uris":{"android":"levelo://app?vid=e1ed0d6c-571b-47d3-bd40-eea4fd60ac4e","ios":"levelo://app?vid=e1ed0d6c-571b-47d3-bd40-eea4fd60ac4e"},"vehicle_type_id":"4","last_reported":1777287120,"current_range_meters":8400,"station_id":"ce4bh9p2rcd13ifvqec0","pricing_plan_id":"cebpf4jnsgd1na2vs0mg"},{"bike_id":"11effbb2-3489-4e85-aec9-0e018fcdcc03","system_id":"levelo_inurba_marseille","lat":43.23212,"lon":5.35551,"is_reserved":false,"is_disabled":false,"rental_uris":{"android":"levelo://app?vid=11effbb2-3489-4e85-aec9-0e018fcdcc03","ios":"levelo://app?vid=11effbb2-3489-4e85-aec9-0e018fcdcc03"},"vehicle_type_id":"4","last_reported":1777287120,"current_range_meters":8400,"station_id":"ce4bhu92rcd13ifvqi70","pricing_plan_id":"cebpf4jnsgd1na2vs0mg"},{"bike_id":"5beb5164-03ab-4367-89aa-16759f8fc2ab","system_id":"levelo_inurba_marseille","lat":43.28036,"lon":5.36945,"is_reserved":false,"is_disabled":false,"rental_uris":{"android":"levelo://app?vid=5beb5164-03ab-4367-89aa-16759f8fc2ab","ios":"levelo://app?vid=5beb5164-03ab-4367-89aa-16759f8fc2ab"},"vehicle_type_id":"4","last_reported":1777287120,"current_range_meters":8400,"station_id":"ce4bha12rcd13ifvqef0","pricing_plan_id":"cebpf4jnsgd1na2vs0mg"},{"bike_id":"2e1487b5-ffbe-4174-a3cb-5f2ca03b60ce","system_id":"levelo_inurba_marseille","lat":43.28461,"lon":5.48485,"is_reserved":false,"is_disabled":false,"rental_uris":{"android":"levelo://app?vid=2e1487b5-ffbe-4174-a3cb-5f2ca03b60ce","ios":"levelo://app?vid=2e1487b5-ffbe-4174-a3cb-5f2ca03b60ce"},"vehicle_type_id":"4","last_reported":1777287120,"current_range_meters":8400,"station_id":"st_d3svhcjqgbts73a3dn0g","pricing_plan_id":"cebpf4jnsgd1na2vs0mg"},{"bike_id":"2e013045-b635-4629-a87d-995ec1628a85","system_id":"levelo_inurba_marseille","lat":43.32108,"lon":5.36758,"is_reserved":false,"is_disabled":false,"rental_uris":{"android":"levelo://app?vid=2e013045-b635-4629-a87d-995ec1628a85","ios":"levelo://app?vid=2e013045-b635-4629-a87d-995ec1628a85"},"vehicle_type_id":"4","last_reported":1777287120,"current_range_meters":8400,"station_id":"ce4bhrh2rcd13ifvqhug","pricing_plan_id":"cebpf4jnsgd1na2vs0mg"},{"bike_id":"fd2d5cdd-668e-474d-b85f-8e17dc95e099","system_id":"levelo_inurba_marseille","lat":43.2928,"lon":5.37408,"is_reserved":false,"is_disabled":false,"rental_uris":{"android":"levelo://app?vid=fd2d5cdd-668e-474d-b85f-8e17dc95e099","ios":"levelo://app?vid=fd2d5cdd-668e-474d-b85f-8e17dc95e099"},"vehicle_type_id":"4","last_reported":1777287120,"current_range_meters":8400,"station_id":"ce4bgi12rcd13ifvqb70","pricing_plan_id":"cebpf4jnsgd1na2vs0mg"},{"bike_id":"9668853e-b5b8-4eff-a715-7c0d9a106cad","system_id":"levelo_inurba_marseille","lat":43.3056,"lon":5.38115,"is_reserved":false,"is_disabled":false,"rental_uris":{"android":"levelo://app?vid=9668853e-b5b8-4eff-a715-7c0d9a106cad","ios":"levelo://app?vid=9668853e-b5b8-4eff-a715-7c0d9a106cad"},"vehicle_type_id":"4","last_reported":1777287120,"current_range_meters":8400,"station_id":"","pricing_plan_id":"cebpf4jnsgd1na2vs0mg"},{"bike_id":"3248178a-505b-4681-91df-2321b14a57fa","system_id":"levelo_inurba_marseille","lat":43.29055,"lon":5.35902,"is_reserved":false,"is_disabled":false,"rental_uris":{"android":"levelo://app?vid=3248178a-505b-4681-91df-2321b14a57fa","ios":"levelo://app?vid=3248178a-505b-4681-91df-2321b14a57fa"},"vehicle_type_id":"4","last_reported":1777287120,"current_range_meters":8400,"station_id":"ce4bha92rcd13ifvqeg0","pricing_plan_id":"cebpf4jnsgd1na2vs0mg"},{"bike_id":"20390428-a7a1-452e-834a-56424711f53c","system_id":"levelo_inurba_marseille","lat":43.26493,"lon":5.39551,"is_reserved":false,"is_disabled":false,"rental_uris":{"android":"levelo://app?vid=20390428-a7a1-452e-834a-56424711f53c","ios":"levelo://app?vid=20390428-a7a1-452e-834a-56424711f53c"},"vehicle_type_id":"4","last_reported":1777287120,"current_range_meters":8400,"station_id":"ce4bhi12rcd13ifvqfq0","pricing_plan_id":"cebpf4jnsgd1na2vs0mg"},{"bike_id":"817e62a5-586b-4a94-9d67-2b9878ab2e45","system_id":"levelo_inurba_marseille","lat":43.26568,"lon":5.39001,"is_reserved":false,"is_disabled":false,"rental_uris":{"android":"levelo://app?vid=817e62a5-586b-4a94-9d67-2b9878ab2e45","ios":"levelo://app?vid=817e62a5-586b-4a94-9d67-2b9878ab2e45"},"vehicle_type_id":"4","last_reported":1777287120,"current_range_meters":8400,"station_id":"ce4bhe12rcd13ifvqf30","pricing_plan_id":"cebpf4jnsgd1na2vs0mg"},{"bike_id":"e13a4a0e-5a40-4e49-93d3-5b888f84b216","system_id":"levelo_inurba_marseille","lat":43.32104,"lon":5.36778,"is_reserved":false,"is_disabled":false,"rental_uris":{"android":"levelo://app?vid=e13a4a0e-5a40-4e49-93d3-5b888f84b216","ios":"levelo://app?vid=e13a4a0e-5a40-4e49-93d3-5b888f84b216"},"vehicle_type_id":"4","last_reported":1777287120,"current_range_meters":8400,"station_id":"ce4bhrh2rcd13ifvqhug","pricing_plan_id":"cebpf4jnsgd1na2vs0mg"},{"bike_id":"11609c4d-9dc3-4a55-988f-faa6a53a3eff","system_id":"levelo_inurba_marseille","lat":43.21743,"lon":5.34604,"is_reserved":false,"is_disabled":false,"rental_uris":{"android":"levelo://app?vid=11609c4d-9dc3-4a55-988f-faa6a53a3eff","ios":"levelo://app?vid=11609c4d-9dc3-4a55-988f-faa6a53a3eff"},"vehicle_type_id":"4","last_reported":1777287120,"current_range_meters":8400,"station_id":"st_cvj6r9ubvosntc0bgbag","pricing_plan_id":"cebpf4jnsgd1na2vs0mg"},{"bike_id":"76b92ed2-bd33-4f23-8e21-d765c14d6eb5","system_id":"levelo_inurba_marseille","lat":43.24172,"lon":5.39701,"is_reserved":false,"is_disabled":true,"rental_uris":{"android":"levelo://app?vid=76b92ed2-bd33-4f23-8e21-d765c14d6eb5","ios":"levelo://app?vid=76b92ed2-bd33-4f23-8e21-d765c14d6eb5"},"vehicle_type_id":"4","last_reported":1777287120,"current_range_meters":8400,"station_id":"ce4bhn12rcd13ifvqgpg","pricing_plan_id":"cebpf4jnsgd1na2vs0mg"},{"bike_id":"7d0f23e1-6449-4825-a980-398491de7e11","system_id":"levelo_inurba_marseille","lat":43.255,"lon":5.37637,"is_reserved":false,"is_disabled":false,"rental_uris":{"android":"levelo://app?vid=7d0f23e1-6449-4825-a980-398491de7e11","ios":"levelo://app?vid=7d0f23e1-6449-4825-a980-398491de7e11"},"vehicle_type_id":"4","last_reported":1777287120,"current_range_meters":8400,"station_id":"ce4bhh12rcd13ifvqff0","pricing_plan_id":"cebpf4jnsgd1na2vs0mg"},{"bike_id":"a613ec48-8652-47ac-9246-dcfba5774b3a","system_id":"levelo_inurba_marseille","lat":43.24402,"lon":5.3706,"is_reserved":false,"is_disabled":false,"rental_uris":{"android":"levelo://app?vid=a613ec48-8652-47ac-9246-dcfba5774b3a","ios":"levelo://app?vid=a613ec48-8652-47ac-9246-dcfba5774b3a"},"vehicle_type_id":"4","last_reported":1777287120,"current_range_meters":8400,"station_id":"ce4bhhh2rcd13ifvqfk0","pricing_plan_id":"cebpf4jnsgd1na2vs0mg"},{"bike_id":"6c0e44b5-b4c6-4989-a0ec-b3c6d257ac1d","system_id":"levelo_inurba_marseille","lat":43.33186,"lon":5.37828,"is_reserved":false,"is_disabled":false,"rental_uris":{"android":"levelo://app?vid=6c0e44b5-b4c6-4989-a0ec-b3c6d257ac1d","ios":"levelo://app?vid=6c0e44b5-b4c6-4989-a0ec-b3c6d257ac1d"},"vehicle_type_id":"4","last_reported":1777287120,"current_range_meters":8800,"station_id":"","pricing_plan_id":"cebpf4jnsgd1na2vs0mg"},{"bike_id":"f78bf31c-df78-48c6-9a47-5c19da562946","system_id":"levelo_inurba_marseille","lat":43.3043,"lon":5.37907,"is_reserved":false,"is_disabled":false,"rental_uris":{"android":"levelo://app?vid=f78bf31c-df78-48c6-9a47-5c19da562946","ios":"levelo://app?vid=f78bf31c-df78-48c6-9a47-5c19da562946"},"vehicle_type_id":"4","last_reported":1777287120,"current_range_meters":8800,"station_id":"ce4bgup2rcd13ifvqcn0","pricing_plan_id":"cebpf4jnsgd1na2vs0mg"},{"bike_id":"a17b2fbf-8606-49a8-ae8b-5fed72d5e1ba","system_id":"levelo_inurba_marseille","lat":43.23185,"lon":5.40003,"is_reserved":false,"is_disabled":false,"rental_uris":{"android":"levelo://app?vid=a17b2fbf-8606-49a8-ae8b-5fed72d5e1ba","ios":"levelo://app?vid=a17b2fbf-8606-49a8-ae8b-5fed72d5e1ba"},"vehicle_type_id":"4","last_reported":1777287120,"current_range_meters":8800,"station_id":"ce4bhn12rcd13ifvqgqg","pricing_plan_id":"cebpf4jnsgd1na2vs0mg"},{"bike_id":"7d24a3ee-0eb9-47a1-8904-33af700bdc69","system_id":"levelo_inurba_marseille","lat":43.28476,"lon":5.48399,"is_reserved":false,"is_disabled":false,"rental_uris":{"android":"levelo://app?vid=7d24a3ee-0eb9-47a1-8904-33af700bdc69","ios":"levelo://app?vid=7d24a3ee-0eb9-47a1-8904-33af700bdc69"},"vehicle_type_id":"4","last_reported":1777287120,"current_range_meters":8800,"station_id":"st_d3svhcjqgbts73a3dn0g","pricing_plan_id":"cebpf4jnsgd1na2vs0mg"},{"bike_id":"c31b5d1c-46cc-4d73-b4e1-46ad96a77cbe","system_id":"levelo_inurba_marseille","lat":43.24079,"lon":5.37769,"is_reserved":false,"is_disabled":false,"rental_uris":{"android":"levelo://app?vid=c31b5d1c-46cc-4d73-b4e1-46ad96a77cbe","ios":"levelo://app?vid=c31b5d1c-46cc-4d73-b4e1-46ad96a77cbe"},"vehicle_type_id":"4","last_reported":1777287120,"current_range_meters":8800,"station_id":"ce4bhnp2rcd13ifvqgvg","pricing_plan_id":"cebpf4jnsgd1na2vs0mg"},{"bike_id":"1401200e-5936-42c2-aba3-47659625462c","system_id":"levelo_inurba_marseille","lat":43.2848,"lon":5.38465,"is_reserved":false,"is_disabled":false,"rental_uris":{"android":"levelo://app?vid=1401200e-5936-42c2-aba3-47659625462c","ios":"levelo://app?vid=1401200e-5936-42c2-aba3-47659625462c"},"vehicle_type_id":"4","last_reported":1777287120,"current_range_meters":8800,"station_id":"ce4bh512rcd13ifvqe3g","pricing_plan_id":"cebpf4jnsgd1na2vs0mg"},{"bike_id":"2f755aa1-105e-447f-807e-a8d37a45e600","system_id":"levelo_inurba_marseille","lat":43.28964,"lon":5.3928,"is_reserved":false,"is_disabled":false,"rental_uris":{"android":"levelo://app?vid=2f755aa1-105e-447f-807e-a8d37a45e600","ios":"levelo://app?vid=2f755aa1-105e-447f-807e-a8d37a45e600"},"vehicle_type_id":"4","last_reported":1777287120,"current_range_meters":8800,"station_id":"","pricing_plan_id":"cebpf4jnsgd1na2vs0mg"},{"bike_id":"ff8d3f37-8ad4-405e-ba70-67022972202f","system_id":"levelo_inurba_marseille","lat":43.3094,"lon":5.3905,"is_reserved":false,"is_disabled":false,"rental_uris":{"android":"levelo://app?vid=ff8d3f37-8ad4-405e-ba70-67022972202f","ios":"levelo://app?vid=ff8d3f37-8ad4-405e-ba70-67022972202f"},"vehicle_type_id":"4","last_reported":1777287120,"current_range_meters":8800,"station_id":"ce4bgup2rcd13ifvqco0","pricing_plan_id":"cebpf4jnsgd1na2vs0mg"},{"bike_id":"2b65de70-3491-4fde-9d8f-d4c1c189d866","system_id":"levelo_inurba_marseille","lat":43.29304,"lon":5.37443,"is_reserved":false,"is_disabled":false,"rental_uris":{"android":"levelo://app?vid=2b65de70-3491-4fde-9d8f-d4c1c189d866","ios":"levelo://app?vid=2b65de70-3491-4fde-9d8f-d4c1c189d866"},"vehicle_type_id":"4","last_reported":1777287120,"current_range_meters":8800,"station_id":"ce4bgi12rcd13ifvqb70","pricing_plan_id":"cebpf4jnsgd1na2vs0mg"},{"bike_id":"0e3f7ceb-919a-406e-9d3e-4f56f15ae515","system_id":"levelo_inurba_marseille","lat":43.30144,"lon":5.38762,"is_reserved":false,"is_disabled":false,"rental_uris":{"android":"levelo://app?vid=0e3f7ceb-919a-406e-9d3e-4f56f15ae515","ios":"levelo://app?vid=0e3f7ceb-919a-406e-9d3e-4f56f15ae515"},"vehicle_type_id":"4","last_reported":1777287120,"current_range_meters":8800,"station_id":"ce4bghh2rcd13ifvqb60","pricing_plan_id":"cebpf4jnsgd1na2vs0mg"},{"bike_id":"d91a79ea-757d-4fb0-822d-efffb3df9a9a","system_id":"levelo_inurba_marseille","lat":43.24652,"lon":5.38891,"is_reserved":false,"is_disabled":false,"rental_uris":{"android":"levelo://app?vid=d91a79ea-757d-4fb0-822d-efffb3df9a9a","ios":"levelo://app?vid=d91a79ea-757d-4fb0-822d-efffb3df9a9a"},"vehicle_type_id":"4","last_reported":1777287120,"current_range_meters":8800,"station_id":"ce4bhg12rcd13ifvqf60","pricing_plan_id":"cebpf4jnsgd1na2vs0mg"},{"bike_id":"4accdb47-cb85-4ed7-8dd4-079c98771fc3","system_id":"levelo_inurba_marseille","lat":43.31118,"lon":5.37752,"is_reserved":false,"is_disabled":false,"rental_uris":{"android":"levelo://app?vid=4accdb47-cb85-4ed7-8dd4-079c98771fc3","ios":"levelo://app?vid=4accdb47-cb85-4ed7-8dd4-079c98771fc3"},"vehicle_type_id":"4","last_reported":1777287120,"current_range_meters":8800,"station_id":"ce4bgt92rcd13ifvqcg0","pricing_plan_id":"cebpf4jnsgd1na2vs0mg"},{"bike_id":"751bc786-9504-4c6e-af89-5b2ef3a43b0a","system_id":"levelo_inurba_marseille","lat":43.24472,"lon":5.42536,"is_reserved":false,"is_disabled":false,"rental_uris":{"android":"levelo://app?vid=751bc786-9504-4c6e-af89-5b2ef3a43b0a","ios":"levelo://app?vid=751bc786-9504-4c6e-af89-5b2ef3a43b0a"},"vehicle_type_id":"4","last_reported":1777287120,"current_range_meters":8800,"station_id":"st_d4a3vfp97mjs738cd8kg","pricing_plan_id":"cebpf4jnsgd1na2vs0mg"},{"bike_id":"32d08e55-44b7-4d77-9bf9-77dafdc725ce","system_id":"levelo_inurba_marseille","lat":43.29289,"lon":5.3746,"is_reserved":false,"is_disabled":false,"rental_uris":{"android":"levelo://app?vid=32d08e55-44b7-4d77-9bf9-77dafdc725ce","ios":"levelo://app?vid=32d08e55-44b7-4d77-9bf9-77dafdc725ce"},"vehicle_type_id":"4","last_reported":1777287120,"current_range_meters":8800,"station_id":"ce4bgi12rcd13ifvqb70","pricing_plan_id":"cebpf4jnsgd1na2vs0mg"},{"bike_id":"486a6bd7-6877-47a7-872d-b6d92138ce35","system_id":"levelo_inurba_marseille","lat":43.28156,"lon":5.42647,"is_reserved":false,"is_disabled":false,"rental_uris":{"android":"levelo://app?vid=486a6bd7-6877-47a7-872d-b6d92138ce35","ios":"levelo://app?vid=486a6bd7-6877-47a7-872d-b6d92138ce35"},"vehicle_type_id":"4","last_reported":1777287120,"current_range_meters":8800,"station_id":"ce4bhnh2rcd13ifvqgug","pricing_plan_id":"cebpf4jnsgd1na2vs0mg"},{"bike_id":"aeb95ca1-f519-468a-a185-e4581ad4ff10","system_id":"levelo_inurba_marseille","lat":43.282294,"lon":5.390634,"is_reserved":false,"is_disabled":false,"rental_uris":{"android":"levelo://app?vid=aeb95ca1-f519-468a-a185-e4581ad4ff10","ios":"levelo://app?vid=aeb95ca1-f519-468a-a185-e4581ad4ff10"},"vehicle_type_id":"4","last_reported":1777287120,"current_range_meters":8800,"station_id":"ce4bhn92rcd13ifvqgsg","pricing_plan_id":"cebpf4jnsgd1na2vs0mg"},{"bike_id":"4b49ab9b-eeca-4117-b1e9-4b53277a58b0","system_id":"levelo_inurba_marseille","lat":43.23199,"lon":5.35553,"is_reserved":false,"is_disabled":false,"rental_uris":{"android":"levelo://app?vid=4b49ab9b-eeca-4117-b1e9-4b53277a58b0","ios":"levelo://app?vid=4b49ab9b-eeca-4117-b1e9-4b53277a58b0"},"vehicle_type_id":"4","last_reported":1777287120,"current_range_meters":8800,"station_id":"ce4bhu92rcd13ifvqi70","pricing_plan_id":"cebpf4jnsgd1na2vs0mg"},{"bike_id":"4c2971f7-eae4-49fd-bc83-d05570f8db1b","system_id":"levelo_inurba_marseille","lat":43.31167,"lon":5.38721,"is_reserved":false,"is_disabled":false,"rental_uris":{"android":"levelo://app?vid=4c2971f7-eae4-49fd-bc83-d05570f8db1b","ios":"levelo://app?vid=4c2971f7-eae4-49fd-bc83-d05570f8db1b"},"vehicle_type_id":"4","last_reported":1777287120,"current_range_meters":8800,"station_id":"ce4bgv12rcd13ifvqcp0","pricing_plan_id":"cebpf4jnsgd1na2vs0mg"},{"bike_id":"1d51c702-75ba-494d-89c9-6b8c4379e860","system_id":"levelo_inurba_marseille","lat":43.31214,"lon":5.3783,"is_reserved":false,"is_disabled":false,"rental_uris":{"android":"levelo://app?vid=1d51c702-75ba-494d-89c9-6b8c4379e860","ios":"levelo://app?vid=1d51c702-75ba-494d-89c9-6b8c4379e860"},"vehicle_type_id":"4","last_reported":1777287120,"current_range_meters":8800,"station_id":"","pricing_plan_id":"cebpf4jnsgd1na2vs0mg"},{"bike_id":"39424c10-5183-43d9-9b4f-35b493478ea7","system_id":"levelo_inurba_marseille","lat":43.30153,"lon":5.3808,"is_reserved":false,"is_disabled":false,"rental_uris":{"android":"levelo://app?vid=39424c10-5183-43d9-9b4f-35b493478ea7","ios":"levelo://app?vid=39424c10-5183-43d9-9b4f-35b493478ea7"},"vehicle_type_id":"4","last_reported":1777287120,"current_range_meters":8800,"station_id":"ce4bgjp2rcd13ifvqbh0","pricing_plan_id":"cebpf4jnsgd1na2vs0mg"},{"bike_id":"f9d371b3-5eca-4684-83e4-83febb4192ee","system_id":"levelo_inurba_marseille","lat":43.25934,"lon":5.40892,"is_reserved":false,"is_disabled":false,"rental_uris":{"android":"levelo://app?vid=f9d371b3-5eca-4684-83e4-83febb4192ee","ios":"levelo://app?vid=f9d371b3-5eca-4684-83e4-83febb4192ee"},"vehicle_type_id":"4","last_reported":1777287120,"current_range_meters":9200,"station_id":"ce4bhm92rcd13ifvqglg","pricing_plan_id":"cebpf4jnsgd1na2vs0mg"},{"bike_id":"2bf5909e-db5d-4f9b-8a8e-19055fa02988","system_id":"levelo_inurba_marseille","lat":43.23896,"lon":5.37437,"is_reserved":false,"is_disabled":false,"rental_uris":{"android":"levelo://app?vid=2bf5909e-db5d-4f9b-8a8e-19055fa02988","ios":"levelo://app?vid=2bf5909e-db5d-4f9b-8a8e-19055fa02988"},"vehicle_type_id":"4","last_reported":1777287120,"current_range_meters":9200,"station_id":"st_d6sm7csbq4hs73f8fpjg","pricing_plan_id":"cebpf4jnsgd1na2vs0mg"},{"bike_id":"633a7919-24b3-4ba2-b51c-27b65dc34870","system_id":"levelo_inurba_marseille","lat":43.26211,"lon":5.37452,"is_reserved":false,"is_disabled":false,"rental_uris":{"android":"levelo://app?vid=633a7919-24b3-4ba2-b51c-27b65dc34870","ios":"levelo://app?vid=633a7919-24b3-4ba2-b51c-27b65dc34870"},"vehicle_type_id":"4","last_reported":1777287120,"current_range_meters":9200,"station_id":"ce4bhgp2rcd13ifvqfc0","pricing_plan_id":"cebpf4jnsgd1na2vs0mg"},{"bike_id":"a81e7873-8538-45aa-91fc-d0ac52b881da","system_id":"levelo_inurba_marseille","lat":43.32487,"lon":5.38269,"is_reserved":false,"is_disabled":false,"rental_uris":{"android":"levelo://app?vid=a81e7873-8538-45aa-91fc-d0ac52b881da","ios":"levelo://app?vid=a81e7873-8538-45aa-91fc-d0ac52b881da"},"vehicle_type_id":"4","last_reported":1777287120,"current_range_meters":9200,"station_id":"st_d4asgbiv49dc73anf9m0","pricing_plan_id":"cebpf4jnsgd1na2vs0mg"},{"bike_id":"e593377f-0b04-468e-be39-461905e9f322","system_id":"levelo_inurba_marseille","lat":43.24655,"lon":5.38919,"is_reserved":false,"is_disabled":false,"rental_uris":{"android":"levelo://app?vid=e593377f-0b04-468e-be39-461905e9f322","ios":"levelo://app?vid=e593377f-0b04-468e-be39-461905e9f322"},"vehicle_type_id":"4","last_reported":1777287120,"current_range_meters":9200,"station_id":"ce4bhg12rcd13ifvqf60","pricing_plan_id":"cebpf4jnsgd1na2vs0mg"},{"bike_id":"a71f56a3-6bdd-404b-a959-eadccffe4fa9","system_id":"levelo_inurba_marseille","lat":43.29266,"lon":5.3761,"is_reserved":false,"is_disabled":false,"rental_uris":{"android":"levelo://app?vid=a71f56a3-6bdd-404b-a959-eadccffe4fa9","ios":"levelo://app?vid=a71f56a3-6bdd-404b-a959-eadccffe4fa9"},"vehicle_type_id":"4","last_reported":1777287120,"current_range_meters":9200,"station_id":"ce4bgi12rcd13ifvqb80","pricing_plan_id":"cebpf4jnsgd1na2vs0mg"},{"bike_id":"d5cf04ab-8f5f-444a-b1ba-9b398a058ccb","system_id":"levelo_inurba_marseille","lat":43.29276,"lon":5.40127,"is_reserved":false,"is_disabled":false,"rental_uris":{"android":"levelo://app?vid=d5cf04ab-8f5f-444a-b1ba-9b398a058ccb","ios":"levelo://app?vid=d5cf04ab-8f5f-444a-b1ba-9b398a058ccb"},"vehicle_type_id":"4","last_reported":1777287120,"current_range_meters":9200,"station_id":"ce4bh312rcd13ifvqdk0","pricing_plan_id":"cebpf4jnsgd1na2vs0mg"},{"bike_id":"0eeba63f-6270-4aac-bd3a-8bc686e22c79","system_id":"levelo_inurba_marseille","lat":43.29602,"lon":5.36744,"is_reserved":false,"is_disabled":false,"rental_uris":{"android":"levelo://app?vid=0eeba63f-6270-4aac-bd3a-8bc686e22c79","ios":"levelo://app?vid=0eeba63f-6270-4aac-bd3a-8bc686e22c79"},"vehicle_type_id":"4","last_reported":1777287120,"current_range_meters":9200,"station_id":"ce4bgph2rcd13ifvqc2g","pricing_plan_id":"cebpf4jnsgd1na2vs0mg"},{"bike_id":"6a75b25a-947b-4f90-b741-9bbf71e7ef2a","system_id":"levelo_inurba_marseille","lat":43.29722,"lon":5.366,"is_reserved":false,"is_disabled":false,"rental_uris":{"android":"levelo://app?vid=6a75b25a-947b-4f90-b741-9bbf71e7ef2a","ios":"levelo://app?vid=6a75b25a-947b-4f90-b741-9bbf71e7ef2a"},"vehicle_type_id":"4","last_reported":1777287120,"current_range_meters":9600,"station_id":"ce4bgn12rcd13ifvqbt0","pricing_plan_id":"cebpf4jnsgd1na2vs0mg"},{"bike_id":"3462feaa-c9a2-441c-b3a1-f70058c367e6","system_id":"levelo_inurba_marseille","lat":43.24391,"lon":5.37104,"is_reserved":false,"is_disabled":false,"rental_uris":{"android":"levelo://app?vid=3462feaa-c9a2-441c-b3a1-f70058c367e6","ios":"levelo://app?vid=3462feaa-c9a2-441c-b3a1-f70058c367e6"},"vehicle_type_id":"4","last_reported":1777287120,"current_range_meters":9600,"station_id":"ce4bhhh2rcd13ifvqfk0","pricing_plan_id":"cebpf4jnsgd1na2vs0mg"},{"bike_id":"0d4dfb01-63c5-4be7-bdb0-5163c6b2578c","system_id":"levelo_inurba_marseille","lat":43.31964,"lon":5.36766,"is_reserved":false,"is_disabled":false,"rental_uris":{"android":"levelo://app?vid=0d4dfb01-63c5-4be7-bdb0-5163c6b2578c","ios":"levelo://app?vid=0d4dfb01-63c5-4be7-bdb0-5163c6b2578c"},"vehicle_type_id":"4","last_reported":1777287120,"current_range_meters":9600,"station_id":"","pricing_plan_id":"cebpf4jnsgd1na2vs0mg"},{"bike_id":"b19c60d7-da5c-48c7-93ec-3c4828aa80b3","system_id":"levelo_inurba_marseille","lat":43.3113,"lon":5.37768,"is_reserved":false,"is_disabled":false,"rental_uris":{"android":"levelo://app?vid=b19c60d7-da5c-48c7-93ec-3c4828aa80b3","ios":"levelo://app?vid=b19c60d7-da5c-48c7-93ec-3c4828aa80b3"},"vehicle_type_id":"4","last_reported":1777287120,"current_range_meters":9600,"station_id":"ce4bgt92rcd13ifvqcg0","pricing_plan_id":"cebpf4jnsgd1na2vs0mg"},{"bike_id":"3a7235ef-da47-4891-95e3-b8bb3abde9bd","system_id":"levelo_inurba_marseille","lat":43.25112,"lon":5.40316,"is_reserved":false,"is_disabled":false,"rental_uris":{"android":"levelo://app?vid=3a7235ef-da47-4891-95e3-b8bb3abde9bd","ios":"levelo://app?vid=3a7235ef-da47-4891-95e3-b8bb3abde9bd"},"vehicle_type_id":"4","last_reported":1777287120,"current_range_meters":9600,"station_id":"ce4bhlh2rcd13ifvqgig","pricing_plan_id":"cebpf4jnsgd1na2vs0mg"},{"bike_id":"b5088cd7-5e45-457a-ae9f-32446d67355c","system_id":"levelo_inurba_marseille","lat":43.32465,"lon":5.36589,"is_reserved":false,"is_disabled":false,"rental_uris":{"android":"levelo://app?vid=b5088cd7-5e45-457a-ae9f-32446d67355c","ios":"levelo://app?vid=b5088cd7-5e45-457a-ae9f-32446d67355c"},"vehicle_type_id":"4","last_reported":1777287120,"current_range_meters":9600,"station_id":"ce4bhs12rcd13ifvqhvg","pricing_plan_id":"cebpf4jnsgd1na2vs0mg"},{"bike_id":"2d1843ce-a387-4613-8160-a39bed14de38","system_id":"levelo_inurba_marseille","lat":43.29797,"lon":5.3811,"is_reserved":false,"is_disabled":false,"rental_uris":{"android":"levelo://app?vid=2d1843ce-a387-4613-8160-a39bed14de38","ios":"levelo://app?vid=2d1843ce-a387-4613-8160-a39bed14de38"},"vehicle_type_id":"4","last_reported":1777287120,"current_range_meters":9600,"station_id":"ce4bgip2rcd13ifvqbb0","pricing_plan_id":"cebpf4jnsgd1na2vs0mg"},{"bike_id":"72537800-eb38-424c-92f0-1bf18ed86886","system_id":"levelo_inurba_marseille","lat":43.29849,"lon":5.36322,"is_reserved":false,"is_disabled":false,"rental_uris":{"android":"levelo://app?vid=72537800-eb38-424c-92f0-1bf18ed86886","ios":"levelo://app?vid=72537800-eb38-424c-92f0-1bf18ed86886"},"vehicle_type_id":"4","last_reported":1777287120,"current_range_meters":9600,"station_id":"ce4bgpp2rcd13ifvqc3g","pricing_plan_id":"cebpf4jnsgd1na2vs0mg"},{"bike_id":"9daae5fc-029a-4575-8080-71abfd7ee94e","system_id":"levelo_inurba_marseille","lat":43.21207,"lon":5.35039,"is_reserved":false,"is_disabled":false,"rental_uris":{"android":"levelo://app?vid=9daae5fc-029a-4575-8080-71abfd7ee94e","ios":"levelo://app?vid=9daae5fc-029a-4575-8080-71abfd7ee94e"},"vehicle_type_id":"4","last_reported":1777287120,"current_range_meters":9600,"station_id":"st_cvj6sg6p6f1abm77japg","pricing_plan_id":"cebpf4jnsgd1na2vs0mg"},{"bike_id":"33a1263a-9885-45e7-ae17-2a5d1619410f","system_id":"levelo_inurba_marseille","lat":43.30494,"lon":5.379,"is_reserved":false,"is_disabled":false,"rental_uris":{"android":"levelo://app?vid=33a1263a-9885-45e7-ae17-2a5d1619410f","ios":"levelo://app?vid=33a1263a-9885-45e7-ae17-2a5d1619410f"},"vehicle_type_id":"4","last_reported":1777287120,"current_range_meters":9600,"station_id":"ce4bgup2rcd13ifvqcn0","pricing_plan_id":"cebpf4jnsgd1na2vs0mg"},{"bike_id":"2c0723cd-1e58-41d0-adf2-86f18938714b","system_id":"levelo_inurba_marseille","lat":43.26208,"lon":5.37463,"is_reserved":false,"is_disabled":false,"rental_uris":{"android":"levelo://app?vid=2c0723cd-1e58-41d0-adf2-86f18938714b","ios":"levelo://app?vid=2c0723cd-1e58-41d0-adf2-86f18938714b"},"vehicle_type_id":"4","last_reported":1777287120,"current_range_meters":9600,"station_id":"ce4bhgp2rcd13ifvqfc0","pricing_plan_id":"cebpf4jnsgd1na2vs0mg"},{"bike_id":"8b4e6bd3-1e82-4277-a45a-3a8abaa4e3ab","system_id":"levelo_inurba_marseille","lat":43.28463,"lon":5.48366,"is_reserved":false,"is_disabled":false,"rental_uris":{"android":"levelo://app?vid=8b4e6bd3-1e82-4277-a45a-3a8abaa4e3ab","ios":"levelo://app?vid=8b4e6bd3-1e82-4277-a45a-3a8abaa4e3ab"},"vehicle_type_id":"4","last_reported":1777287120,"current_range_meters":9600,"station_id":"","pricing_plan_id":"cebpf4jnsgd1na2vs0mg"},{"bike_id":"d22d4105-2f6c-4b18-949d-c0d1d665c21d","system_id":"levelo_inurba_marseille","lat":43.31725,"lon":5.42386,"is_reserved":false,"is_disabled":false,"rental_uris":{"android":"levelo://app?vid=d22d4105-2f6c-4b18-949d-c0d1d665c21d","ios":"levelo://app?vid=d22d4105-2f6c-4b18-949d-c0d1d665c21d"},"vehicle_type_id":"4","last_reported":1777287120,"current_range_meters":9600,"station_id":"ce4bhp92rcd13ifvqhbg","pricing_plan_id":"cebpf4jnsgd1na2vs0mg"},{"bike_id":"3cf26fe4-db96-49b5-bc58-4564bf731331","system_id":"levelo_inurba_marseille","lat":43.26812,"lon":5.40264,"is_reserved":false,"is_disabled":false,"rental_uris":{"android":"levelo://app?vid=3cf26fe4-db96-49b5-bc58-4564bf731331","ios":"levelo://app?vid=3cf26fe4-db96-49b5-bc58-4564bf731331"},"vehicle_type_id":"4","last_reported":1777287120,"current_range_meters":9600,"station_id":"ce501612rcd8frsf0b60","pricing_plan_id":"cebpf4jnsgd1na2vs0mg"},{"bike_id":"312799b7-bca9-4abf-91f7-76a61892299b","system_id":"levelo_inurba_marseille","lat":43.24033,"lon":5.37713,"is_reserved":false,"is_disabled":false,"rental_uris":{"android":"levelo://app?vid=312799b7-bca9-4abf-91f7-76a61892299b","ios":"levelo://app?vid=312799b7-bca9-4abf-91f7-76a61892299b"},"vehicle_type_id":"4","last_reported":1777287120,"current_range_meters":9600,"station_id":"","pricing_plan_id":"cebpf4jnsgd1na2vs0mg"},{"bike_id":"ae6258ad-56b9-450a-ad78-fe4dc5074414","system_id":"levelo_inurba_marseille","lat":43.306358,"lon":5.401,"is_reserved":false,"is_disabled":false,"rental_uris":{"android":"levelo://app?vid=ae6258ad-56b9-450a-ad78-fe4dc5074414","ios":"levelo://app?vid=ae6258ad-56b9-450a-ad78-fe4dc5074414"},"vehicle_type_id":"4","last_reported":1777287120,"current_range_meters":9600,"station_id":"ce4bh112rcd13ifvqda0","pricing_plan_id":"cebpf4jnsgd1na2vs0mg"},{"bike_id":"511b6884-6d1a-4909-add3-762ec103ac5b","system_id":"levelo_inurba_marseille","lat":43.28998,"lon":5.35611,"is_reserved":false,"is_disabled":false,"rental_uris":{"android":"levelo://app?vid=511b6884-6d1a-4909-add3-762ec103ac5b","ios":"levelo://app?vid=511b6884-6d1a-4909-add3-762ec103ac5b"},"vehicle_type_id":"4","last_reported":1777287120,"current_range_meters":9600,"station_id":"ce4bhb92rcd13ifvqen0","pricing_plan_id":"cebpf4jnsgd1na2vs0mg"},{"bike_id":"ca970bed-dff0-40b1-aa6e-d0db5b10d8ee","system_id":"levelo_inurba_marseille","lat":43.2744,"lon":5.39414,"is_reserved":false,"is_disabled":true,"rental_uris":{"android":"levelo://app?vid=ca970bed-dff0-40b1-aa6e-d0db5b10d8ee","ios":"levelo://app?vid=ca970bed-dff0-40b1-aa6e-d0db5b10d8ee"},"vehicle_type_id":"4","last_reported":1777287120,"current_range_meters":10000,"station_id":"ce4bhdp2rcd13ifvqf20","pricing_plan_id":"cebpf4jnsgd1na2vs0mg"},{"bike_id":"61d91b6f-51c5-4c97-9b15-0d227be874ce","system_id":"levelo_inurba_marseille","lat":43.29287,"lon":5.37428,"is_reserved":false,"is_disabled":false,"rental_uris":{"android":"levelo://app?vid=61d91b6f-51c5-4c97-9b15-0d227be874ce","ios":"levelo://app?vid=61d91b6f-51c5-4c97-9b15-0d227be874ce"},"vehicle_type_id":"4","last_reported":1777287120,"current_range_meters":10000,"station_id":"ce4bgi12rcd13ifvqb70","pricing_plan_id":"cebpf4jnsgd1na2vs0mg"},{"bike_id":"697fb2a4-e494-4242-8576-17a670ff6a6a","system_id":"levelo_inurba_marseille","lat":43.31326,"lon":5.36734,"is_reserved":false,"is_disabled":false,"rental_uris":{"android":"levelo://app?vid=697fb2a4-e494-4242-8576-17a670ff6a6a","ios":"levelo://app?vid=697fb2a4-e494-4242-8576-17a670ff6a6a"},"vehicle_type_id":"4","last_reported":1777287120,"current_range_meters":10000,"station_id":"ce4bgr92rcd13ifvqc6g","pricing_plan_id":"cebpf4jnsgd1na2vs0mg"},{"bike_id":"46fad596-45d5-4459-9fa6-82adab3bcc85","system_id":"levelo_inurba_marseille","lat":43.30122,"lon":5.38093,"is_reserved":false,"is_disabled":false,"rental_uris":{"android":"levelo://app?vid=46fad596-45d5-4459-9fa6-82adab3bcc85","ios":"levelo://app?vid=46fad596-45d5-4459-9fa6-82adab3bcc85"},"vehicle_type_id":"4","last_reported":1777287120,"current_range_meters":10000,"station_id":"ce4bgjp2rcd13ifvqbh0","pricing_plan_id":"cebpf4jnsgd1na2vs0mg"},{"bike_id":"4470e9b0-5d96-4aee-9a22-d394cb29d060","system_id":"levelo_inurba_marseille","lat":43.31075,"lon":5.37163,"is_reserved":false,"is_disabled":false,"rental_uris":{"android":"levelo://app?vid=4470e9b0-5d96-4aee-9a22-d394cb29d060","ios":"levelo://app?vid=4470e9b0-5d96-4aee-9a22-d394cb29d060"},"vehicle_type_id":"4","last_reported":1777287120,"current_range_meters":10000,"station_id":"st_d4kl2rp97mjs73e7tdfg","pricing_plan_id":"cebpf4jnsgd1na2vs0mg"},{"bike_id":"5df7cbee-8963-4800-91aa-7eba37416633","system_id":"levelo_inurba_marseille","lat":43.2929,"lon":5.37433,"is_reserved":false,"is_disabled":false,"rental_uris":{"android":"levelo://app?vid=5df7cbee-8963-4800-91aa-7eba37416633","ios":"levelo://app?vid=5df7cbee-8963-4800-91aa-7eba37416633"},"vehicle_type_id":"4","last_reported":1777287120,"current_range_meters":10000,"station_id":"ce4bgi12rcd13ifvqb70","pricing_plan_id":"cebpf4jnsgd1na2vs0mg"},{"bike_id":"36080542-6349-4f50-a674-af97dd89998f","system_id":"levelo_inurba_marseille","lat":43.23908,"lon":5.37448,"is_reserved":false,"is_disabled":false,"rental_uris":{"android":"levelo://app?vid=36080542-6349-4f50-a674-af97dd89998f","ios":"levelo://app?vid=36080542-6349-4f50-a674-af97dd89998f"},"vehicle_type_id":"4","last_reported":1777287120,"current_range_meters":10000,"station_id":"st_d6sm7csbq4hs73f8fpjg","pricing_plan_id":"cebpf4jnsgd1na2vs0mg"},{"bike_id":"81e52b6e-bff7-4875-a0d8-d533ea21c465","system_id":"levelo_inurba_marseille","lat":43.28164,"lon":5.42646,"is_reserved":false,"is_disabled":false,"rental_uris":{"android":"levelo://app?vid=81e52b6e-bff7-4875-a0d8-d533ea21c465","ios":"levelo://app?vid=81e52b6e-bff7-4875-a0d8-d533ea21c465"},"vehicle_type_id":"4","last_reported":1777287120,"current_range_meters":10000,"station_id":"ce4bhnh2rcd13ifvqgug","pricing_plan_id":"cebpf4jnsgd1na2vs0mg"},{"bike_id":"e5cd69c7-9379-4379-93b8-62cf25a54177","system_id":"levelo_inurba_marseille","lat":43.337497,"lon":5.374492,"is_reserved":false,"is_disabled":false,"rental_uris":{"android":"levelo://app?vid=e5cd69c7-9379-4379-93b8-62cf25a54177","ios":"levelo://app?vid=e5cd69c7-9379-4379-93b8-62cf25a54177"},"vehicle_type_id":"4","last_reported":1777287120,"current_range_meters":10000,"station_id":"","pricing_plan_id":"cebpf4jnsgd1na2vs0mg"},{"bike_id":"12e15759-51ca-40ce-9bbd-e5a6f6025980","system_id":"levelo_inurba_marseille","lat":43.30548,"lon":5.36541,"is_reserved":false,"is_disabled":false,"rental_uris":{"android":"levelo://app?vid=12e15759-51ca-40ce-9bbd-e5a6f6025980","ios":"levelo://app?vid=12e15759-51ca-40ce-9bbd-e5a6f6025980"},"vehicle_type_id":"4","last_reported":1777287120,"current_range_meters":10000,"station_id":"ce4bgs12rcd13ifvqcag","pricing_plan_id":"cebpf4jnsgd1na2vs0mg"},{"bike_id":"4ba61b34-f7bb-4ca0-9046-9b3e3c519121","system_id":"levelo_inurba_marseille","lat":43.24033,"lon":5.37652,"is_reserved":false,"is_disabled":false,"rental_uris":{"android":"levelo://app?vid=4ba61b34-f7bb-4ca0-9046-9b3e3c519121","ios":"levelo://app?vid=4ba61b34-f7bb-4ca0-9046-9b3e3c519121"},"vehicle_type_id":"4","last_reported":1777287120,"current_range_meters":10000,"station_id":"","pricing_plan_id":"cebpf4jnsgd1na2vs0mg"},{"bike_id":"a7ef47ae-ac7a-4811-8371-2ebdbd6eea38","system_id":"levelo_inurba_marseille","lat":43.2175,"lon":5.34593,"is_reserved":false,"is_disabled":false,"rental_uris":{"android":"levelo://app?vid=a7ef47ae-ac7a-4811-8371-2ebdbd6eea38","ios":"levelo://app?vid=a7ef47ae-ac7a-4811-8371-2ebdbd6eea38"},"vehicle_type_id":"4","last_reported":1777287120,"current_range_meters":10000,"station_id":"st_cvj6r9ubvosntc0bgbag","pricing_plan_id":"cebpf4jnsgd1na2vs0mg"},{"bike_id":"76907408-a8ff-4688-9cbf-66e48bb415e8","system_id":"levelo_inurba_marseille","lat":43.28703,"lon":5.46669,"is_reserved":false,"is_disabled":false,"rental_uris":{"android":"levelo://app?vid=76907408-a8ff-4688-9cbf-66e48bb415e8","ios":"levelo://app?vid=76907408-a8ff-4688-9cbf-66e48bb415e8"},"vehicle_type_id":"4","last_reported":1777287120,"current_range_meters":10000,"station_id":"st_d6tc3vkotcvc738tfjhg","pricing_plan_id":"cebpf4jnsgd1na2vs0mg"},{"bike_id":"987eda33-b3ad-4fac-a63c-0e3ff496e921","system_id":"levelo_inurba_marseille","lat":43.32355,"lon":5.36707,"is_reserved":false,"is_disabled":false,"rental_uris":{"android":"levelo://app?vid=987eda33-b3ad-4fac-a63c-0e3ff496e921","ios":"levelo://app?vid=987eda33-b3ad-4fac-a63c-0e3ff496e921"},"vehicle_type_id":"4","last_reported":1777287120,"current_range_meters":10000,"station_id":"","pricing_plan_id":"cebpf4jnsgd1na2vs0mg"},{"bike_id":"afde96ac-1493-4085-af72-e5da568a87fd","system_id":"levelo_inurba_marseille","lat":43.28485,"lon":5.4838,"is_reserved":false,"is_disabled":false,"rental_uris":{"android":"levelo://app?vid=afde96ac-1493-4085-af72-e5da568a87fd","ios":"levelo://app?vid=afde96ac-1493-4085-af72-e5da568a87fd"},"vehicle_type_id":"4","last_reported":1777287120,"current_range_meters":10000,"station_id":"st_d3svhcjqgbts73a3dn0g","pricing_plan_id":"cebpf4jnsgd1na2vs0mg"},{"bike_id":"ccc64b12-fba8-4953-9e4c-789c15629674","system_id":"levelo_inurba_marseille","lat":43.23204,"lon":5.35092,"is_reserved":false,"is_disabled":false,"rental_uris":{"android":"levelo://app?vid=ccc64b12-fba8-4953-9e4c-789c15629674","ios":"levelo://app?vid=ccc64b12-fba8-4953-9e4c-789c15629674"},"vehicle_type_id":"4","last_reported":1777287120,"current_range_meters":10000,"station_id":"","pricing_plan_id":"cebpf4jnsgd1na2vs0mg"},{"bike_id":"2ad6b02a-4059-4551-8c9d-f88bebe453ce","system_id":"levelo_inurba_marseille","lat":43.29295,"lon":5.37455,"is_reserved":false,"is_disabled":false,"rental_uris":{"android":"levelo://app?vid=2ad6b02a-4059-4551-8c9d-f88bebe453ce","ios":"levelo://app?vid=2ad6b02a-4059-4551-8c9d-f88bebe453ce"},"vehicle_type_id":"4","last_reported":1777287120,"current_range_meters":10000,"station_id":"ce4bgi12rcd13ifvqb70","pricing_plan_id":"cebpf4jnsgd1na2vs0mg"},{"bike_id":"20111a87-41c4-4eaf-9fe8-f7469b02a4e4","system_id":"levelo_inurba_marseille","lat":43.30141,"lon":5.43118,"is_reserved":false,"is_disabled":false,"rental_uris":{"android":"levelo://app?vid=20111a87-41c4-4eaf-9fe8-f7469b02a4e4","ios":"levelo://app?vid=20111a87-41c4-4eaf-9fe8-f7469b02a4e4"},"vehicle_type_id":"4","last_reported":1777287120,"current_range_meters":10000,"station_id":"st_d3js3co5814s73ftftug","pricing_plan_id":"cebpf4jnsgd1na2vs0mg"},{"bike_id":"dc4f256b-dad1-4b0e-b0aa-70815278bacb","system_id":"levelo_inurba_marseille","lat":43.28967,"lon":5.39318,"is_reserved":false,"is_disabled":false,"rental_uris":{"android":"levelo://app?vid=dc4f256b-dad1-4b0e-b0aa-70815278bacb","ios":"levelo://app?vid=dc4f256b-dad1-4b0e-b0aa-70815278bacb"},"vehicle_type_id":"4","last_reported":1777287120,"current_range_meters":10000,"station_id":"","pricing_plan_id":"cebpf4jnsgd1na2vs0mg"},{"bike_id":"74b0aff8-bcbc-4720-b4ee-1008108db705","system_id":"levelo_inurba_marseille","lat":43.3016,"lon":5.38088,"is_reserved":false,"is_disabled":false,"rental_uris":{"android":"levelo://app?vid=74b0aff8-bcbc-4720-b4ee-1008108db705","ios":"levelo://app?vid=74b0aff8-bcbc-4720-b4ee-1008108db705"},"vehicle_type_id":"4","last_reported":1777287120,"current_range_meters":10000,"station_id":"ce4bgjp2rcd13ifvqbh0","pricing_plan_id":"cebpf4jnsgd1na2vs0mg"},{"bike_id":"49ca01f6-a447-4248-b492-9befda6f4764","system_id":"levelo_inurba_marseille","lat":43.29529,"lon":5.38545,"is_reserved":false,"is_disabled":false,"rental_uris":{"android":"levelo://app?vid=49ca01f6-a447-4248-b492-9befda6f4764","ios":"levelo://app?vid=49ca01f6-a447-4248-b492-9befda6f4764"},"vehicle_type_id":"4","last_reported":1777287120,"current_range_meters":10000,"station_id":"ce4bgih2rcd13ifvqba0","pricing_plan_id":"cebpf4jnsgd1na2vs0mg"},{"bike_id":"bd8c90d7-60d3-4d36-ba77-9cf5ca28e807","system_id":"levelo_inurba_marseille","lat":43.23145,"lon":5.43716,"is_reserved":false,"is_disabled":false,"rental_uris":{"android":"levelo://app?vid=bd8c90d7-60d3-4d36-ba77-9cf5ca28e807","ios":"levelo://app?vid=bd8c90d7-60d3-4d36-ba77-9cf5ca28e807"},"vehicle_type_id":"4","last_reported":1777287120,"current_range_meters":10000,"station_id":"ce4bhmp2rcd13ifvqgog","pricing_plan_id":"cebpf4jnsgd1na2vs0mg"},{"bike_id":"64276637-3e1c-443b-93ab-151270870127","system_id":"levelo_inurba_marseille","lat":43.23143,"lon":5.4371,"is_reserved":false,"is_disabled":false,"rental_uris":{"android":"levelo://app?vid=64276637-3e1c-443b-93ab-151270870127","ios":"levelo://app?vid=64276637-3e1c-443b-93ab-151270870127"},"vehicle_type_id":"4","last_reported":1777287120,"current_range_meters":10000,"station_id":"ce4bhmp2rcd13ifvqgog","pricing_plan_id":"cebpf4jnsgd1na2vs0mg"},{"bike_id":"18f747dd-9212-40a5-a151-0f82a905bfb8","system_id":"levelo_inurba_marseille","lat":43.28415,"lon":5.34982,"is_reserved":false,"is_disabled":false,"rental_uris":{"android":"levelo://app?vid=18f747dd-9212-40a5-a151-0f82a905bfb8","ios":"levelo://app?vid=18f747dd-9212-40a5-a151-0f82a905bfb8"},"vehicle_type_id":"4","last_reported":1777287120,"current_range_meters":10000,"station_id":"ce4bhbh2rcd13ifvqepg","pricing_plan_id":"cebpf4jnsgd1na2vs0mg"},{"bike_id":"dd203bea-73f8-483b-9ab1-161a950b0c6a","system_id":"levelo_inurba_marseille","lat":43.337444,"lon":5.374475,"is_reserved":false,"is_disabled":false,"rental_uris":{"android":"levelo://app?vid=dd203bea-73f8-483b-9ab1-161a950b0c6a","ios":"levelo://app?vid=dd203bea-73f8-483b-9ab1-161a950b0c6a"},"vehicle_type_id":"4","last_reported":1777287120,"current_range_meters":10000,"station_id":"","pricing_plan_id":"cebpf4jnsgd1na2vs0mg"},{"bike_id":"c04c42cf-36a4-4a3c-b656-dde2fe1bae7e","system_id":"levelo_inurba_marseille","lat":43.28574,"lon":5.40268,"is_reserved":false,"is_disabled":false,"rental_uris":{"android":"levelo://app?vid=c04c42cf-36a4-4a3c-b656-dde2fe1bae7e","ios":"levelo://app?vid=c04c42cf-36a4-4a3c-b656-dde2fe1bae7e"},"vehicle_type_id":"4","last_reported":1777287120,"current_range_meters":10000,"station_id":"","pricing_plan_id":"cebpf4jnsgd1na2vs0mg"},{"bike_id":"ffd5c4f5-564f-4571-abe7-44df0387d92e","system_id":"levelo_inurba_marseille","lat":43.28765,"lon":5.37834,"is_reserved":false,"is_disabled":false,"rental_uris":{"android":"levelo://app?vid=ffd5c4f5-564f-4571-abe7-44df0387d92e","ios":"levelo://app?vid=ffd5c4f5-564f-4571-abe7-44df0387d92e"},"vehicle_type_id":"4","last_reported":1777287120,"current_range_meters":10800,"station_id":"","pricing_plan_id":"cebpf4jnsgd1na2vs0mg"},{"bike_id":"5f9c3b69-bd1f-4193-8539-44f621c927b9","system_id":"levelo_inurba_marseille","lat":43.23151,"lon":5.43706,"is_reserved":false,"is_disabled":true,"rental_uris":{"android":"levelo://app?vid=5f9c3b69-bd1f-4193-8539-44f621c927b9","ios":"levelo://app?vid=5f9c3b69-bd1f-4193-8539-44f621c927b9"},"vehicle_type_id":"4","last_reported":1777287120,"current_range_meters":10800,"station_id":"ce4bhmp2rcd13ifvqgog","pricing_plan_id":"cebpf4jnsgd1na2vs0mg"},{"bike_id":"4d2549ed-dc01-4208-96a0-c3a28d3fff4b","system_id":"levelo_inurba_marseille","lat":43.28077,"lon":5.39656,"is_reserved":false,"is_disabled":false,"rental_uris":{"android":"levelo://app?vid=4d2549ed-dc01-4208-96a0-c3a28d3fff4b","ios":"levelo://app?vid=4d2549ed-dc01-4208-96a0-c3a28d3fff4b"},"vehicle_type_id":"4","last_reported":1777287120,"current_range_meters":10800,"station_id":"ce4bho12rcd13ifvqh2g","pricing_plan_id":"cebpf4jnsgd1na2vs0mg"},{"bike_id":"dabc5e28-b9df-4b1a-affa-f2e365a8b45b","system_id":"levelo_inurba_marseille","lat":43.32089,"lon":5.36823,"is_reserved":false,"is_disabled":false,"rental_uris":{"android":"levelo://app?vid=dabc5e28-b9df-4b1a-affa-f2e365a8b45b","ios":"levelo://app?vid=dabc5e28-b9df-4b1a-affa-f2e365a8b45b"},"vehicle_type_id":"4","last_reported":1777287120,"current_range_meters":10800,"station_id":"ce4bhrh2rcd13ifvqhug","pricing_plan_id":"cebpf4jnsgd1na2vs0mg"},{"bike_id":"89b292ff-19a4-45e1-8050-c13116ae5eed","system_id":"levelo_inurba_marseille","lat":43.28976,"lon":5.37862,"is_reserved":false,"is_disabled":false,"rental_uris":{"android":"levelo://app?vid=89b292ff-19a4-45e1-8050-c13116ae5eed","ios":"levelo://app?vid=89b292ff-19a4-45e1-8050-c13116ae5eed"},"vehicle_type_id":"4","last_reported":1777287120,"current_range_meters":10800,"station_id":"","pricing_plan_id":"cebpf4jnsgd1na2vs0mg"},{"bike_id":"f447fec5-f118-42c2-be2c-8ef32b6d20a2","system_id":"levelo_inurba_marseille","lat":43.26002,"lon":5.4171,"is_reserved":false,"is_disabled":false,"rental_uris":{"android":"levelo://app?vid=f447fec5-f118-42c2-be2c-8ef32b6d20a2","ios":"levelo://app?vid=f447fec5-f118-42c2-be2c-8ef32b6d20a2"},"vehicle_type_id":"4","last_reported":1777287120,"current_range_meters":10800,"station_id":"","pricing_plan_id":"cebpf4jnsgd1na2vs0mg"},{"bike_id":"23b9edcd-305b-48b3-b42b-c5b2d1a2cdca","system_id":"levelo_inurba_marseille","lat":43.27038,"lon":5.38618,"is_reserved":false,"is_disabled":false,"rental_uris":{"android":"levelo://app?vid=23b9edcd-305b-48b3-b42b-c5b2d1a2cdca","ios":"levelo://app?vid=23b9edcd-305b-48b3-b42b-c5b2d1a2cdca"},"vehicle_type_id":"4","last_reported":1777287120,"current_range_meters":10800,"station_id":"","pricing_plan_id":"cebpf4jnsgd1na2vs0mg"},{"bike_id":"94b1d427-102e-4c64-aa76-0c93e226150f","system_id":"levelo_inurba_marseille","lat":43.28478,"lon":5.48407,"is_reserved":false,"is_disabled":false,"rental_uris":{"android":"levelo://app?vid=94b1d427-102e-4c64-aa76-0c93e226150f","ios":"levelo://app?vid=94b1d427-102e-4c64-aa76-0c93e226150f"},"vehicle_type_id":"4","last_reported":1777287120,"current_range_meters":10800,"station_id":"st_d3svhcjqgbts73a3dn0g","pricing_plan_id":"cebpf4jnsgd1na2vs0mg"},{"bike_id":"33652e9a-370e-42c4-8715-1a0d225681b7","system_id":"levelo_inurba_marseille","lat":43.3096,"lon":5.39035,"is_reserved":false,"is_disabled":false,"rental_uris":{"android":"levelo://app?vid=33652e9a-370e-42c4-8715-1a0d225681b7","ios":"levelo://app?vid=33652e9a-370e-42c4-8715-1a0d225681b7"},"vehicle_type_id":"4","last_reported":1777287120,"current_range_meters":10800,"station_id":"ce4bgup2rcd13ifvqco0","pricing_plan_id":"cebpf4jnsgd1na2vs0mg"},{"bike_id":"eaacdb91-1c5b-4303-af36-dd942656ca09","system_id":"levelo_inurba_marseille","lat":43.25822,"lon":5.39418,"is_reserved":false,"is_disabled":false,"rental_uris":{"android":"levelo://app?vid=eaacdb91-1c5b-4303-af36-dd942656ca09","ios":"levelo://app?vid=eaacdb91-1c5b-4303-af36-dd942656ca09"},"vehicle_type_id":"4","last_reported":1777287120,"current_range_meters":10800,"station_id":"ce4bhip2rcd13ifvqft0","pricing_plan_id":"cebpf4jnsgd1na2vs0mg"},{"bike_id":"1f016d3d-9fe4-4abc-b992-a842e1174acb","system_id":"levelo_inurba_marseille","lat":43.24656,"lon":5.38151,"is_reserved":false,"is_disabled":false,"rental_uris":{"android":"levelo://app?vid=1f016d3d-9fe4-4abc-b992-a842e1174acb","ios":"levelo://app?vid=1f016d3d-9fe4-4abc-b992-a842e1174acb"},"vehicle_type_id":"4","last_reported":1777287120,"current_range_meters":10800,"station_id":"ce4bhih2rcd13ifvqfr0","pricing_plan_id":"cebpf4jnsgd1na2vs0mg"},{"bike_id":"74929e98-c2e0-43cc-b447-0901251d01cb","system_id":"levelo_inurba_marseille","lat":43.2549,"lon":5.37677,"is_reserved":false,"is_disabled":false,"rental_uris":{"android":"levelo://app?vid=74929e98-c2e0-43cc-b447-0901251d01cb","ios":"levelo://app?vid=74929e98-c2e0-43cc-b447-0901251d01cb"},"vehicle_type_id":"4","last_reported":1777287120,"current_range_meters":10800,"station_id":"ce4bhh12rcd13ifvqff0","pricing_plan_id":"cebpf4jnsgd1na2vs0mg"},{"bike_id":"1d2e7b3a-beca-4b45-a4fb-def9b5340e8a","system_id":"levelo_inurba_marseille","lat":43.28715,"lon":5.37942,"is_reserved":false,"is_disabled":false,"rental_uris":{"android":"levelo://app?vid=1d2e7b3a-beca-4b45-a4fb-def9b5340e8a","ios":"levelo://app?vid=1d2e7b3a-beca-4b45-a4fb-def9b5340e8a"},"vehicle_type_id":"4","last_reported":1777287120,"current_range_meters":10800,"station_id":"ce4bh9p2rcd13ifvqec0","pricing_plan_id":"cebpf4jnsgd1na2vs0mg"},{"bike_id":"626afedd-d732-4bc8-be6f-6408a29380b2","system_id":"levelo_inurba_marseille","lat":43.2119,"lon":5.35069,"is_reserved":false,"is_disabled":false,"rental_uris":{"android":"levelo://app?vid=626afedd-d732-4bc8-be6f-6408a29380b2","ios":"levelo://app?vid=626afedd-d732-4bc8-be6f-6408a29380b2"},"vehicle_type_id":"4","last_reported":1777287120,"current_range_meters":10800,"station_id":"st_cvj6sg6p6f1abm77japg","pricing_plan_id":"cebpf4jnsgd1na2vs0mg"},{"bike_id":"c4397524-2feb-433f-b008-ba296dd93855","system_id":"levelo_inurba_marseille","lat":43.29792,"lon":5.37099,"is_reserved":false,"is_disabled":false,"rental_uris":{"android":"levelo://app?vid=c4397524-2feb-433f-b008-ba296dd93855","ios":"levelo://app?vid=c4397524-2feb-433f-b008-ba296dd93855"},"vehicle_type_id":"4","last_reported":1777287120,"current_range_meters":10800,"station_id":"ce4bgop2rcd13ifvqc1g","pricing_plan_id":"cebpf4jnsgd1na2vs0mg"},{"bike_id":"68ecf2f6-4ac5-45b8-9640-383e9e07a83c","system_id":"levelo_inurba_marseille","lat":43.24552,"lon":5.41589,"is_reserved":false,"is_disabled":false,"rental_uris":{"android":"levelo://app?vid=68ecf2f6-4ac5-45b8-9640-383e9e07a83c","ios":"levelo://app?vid=68ecf2f6-4ac5-45b8-9640-383e9e07a83c"},"vehicle_type_id":"4","last_reported":1777287120,"current_range_meters":10800,"station_id":"","pricing_plan_id":"cebpf4jnsgd1na2vs0mg"},{"bike_id":"f13c1412-9987-4b53-aa5c-79a6ecb2ba2d","system_id":"levelo_inurba_marseille","lat":43.32356,"lon":5.36733,"is_reserved":false,"is_disabled":false,"rental_uris":{"android":"levelo://app?vid=f13c1412-9987-4b53-aa5c-79a6ecb2ba2d","ios":"levelo://app?vid=f13c1412-9987-4b53-aa5c-79a6ecb2ba2d"},"vehicle_type_id":"4","last_reported":1777287120,"current_range_meters":10800,"station_id":"ce4bhsh2rcd13ifvqi2g","pricing_plan_id":"cebpf4jnsgd1na2vs0mg"},{"bike_id":"f910f006-6469-4189-b18f-2d7d32e9f493","system_id":"levelo_inurba_marseille","lat":43.23154,"lon":5.43704,"is_reserved":false,"is_disabled":false,"rental_uris":{"android":"levelo://app?vid=f910f006-6469-4189-b18f-2d7d32e9f493","ios":"levelo://app?vid=f910f006-6469-4189-b18f-2d7d32e9f493"},"vehicle_type_id":"4","last_reported":1777287120,"current_range_meters":10800,"station_id":"ce4bhmp2rcd13ifvqgog","pricing_plan_id":"cebpf4jnsgd1na2vs0mg"},{"bike_id":"773d310b-f882-4af8-bc58-2df6517fed8c","system_id":"levelo_inurba_marseille","lat":43.30154,"lon":5.38089,"is_reserved":false,"is_disabled":false,"rental_uris":{"android":"levelo://app?vid=773d310b-f882-4af8-bc58-2df6517fed8c","ios":"levelo://app?vid=773d310b-f882-4af8-bc58-2df6517fed8c"},