{"last_updated":1737234512,"ttl":60,"version":"2.2","data":{"bikes":[{"bike_id":"fe9584c6-d7c2-4da9-a68c-49720b62392c","system_id":"levelo_inurba_marseille","lat":43.28567,"lon":5.39489,"is_reserved":false,"is_disabled":false,"rental_uris":{"android":"levelo://app?vid=fe9584c6-d7c2-4da9-a68c-49720b62392c","ios":"levelo://app?vid=fe9584c6-d7c2-4da9-a68c-49720b62392c"},"vehicle_type_id":"4","last_reported":1737234512,"current_range_meters":36000,"station_id":"ce4bh292rcd13ifvqdg0","pricing_plan_id":"cebpf4jnsgd1na2vs0mg"},{"bike_id":"311fb0b2-04d9-4113-b92b-92a223c03d3c","system_id":"levelo_inurba_marseille","lat":43.29265,"lon":5.38439,"is_reserved":false,"is_disabled":false,"rental_uris":{"android":"levelo://app?vid=311fb0b2-04d9-4113-b92b-92a223c03d3c","ios":"levelo://app?vid=311fb0b2-04d9-4113-b92b-92a223c03d3c"},"vehicle_type_id":"4","last_reported":1737234512,"current_range_meters":20400,"station_id":"ce4bh692rcd13ifvqea0","pricing_plan_id":"cebpf4jnsgd1na2vs0mg"},{"bike_id":"2e499e90-5e62-44ce-85f4-3a9a36ff3c3c","system_id":"levelo_inurba_marseille","lat":43.289277,"lon":5.384065,"is_reserved":false,"is_disabled":false,"rental_uris":{"android":"levelo://app?vid=2e499e90-5e62-44ce-85f4-3a9a36ff3c3c","ios":"levelo://app?vid=2e499e90-5e62-44ce-85f4-3a9a36ff3c3c"},"vehicle_type_id":"4","last_reported":1737234512,"current_range_meters":19600,"station_id":"ce4bh612rcd13ifvqe6g","pricing_plan_id":"cebpf4jnsgd1na2vs0mg"},{"bike_id":"a2acfcf5-a2f4-4227-800b-90a2385f3572","system_id":"levelo_inurba_marseille","lat":43.29054,"lon":5.37152,"is_reserved":false,"is_disabled":false,"rental_uris":{"android":"levelo://app?vid=a2acfcf5-a2f4-4227-800b-90a2385f3572","ios":"levelo://app?vid=a2acfcf5-a2f4-4227-800b-90a2385f3572"},"vehicle_type_id":"4","last_reported":1737234512,"current_range_meters":38800,"station_id":"ce4bh5p2rcd13ifvqe4g","pricing_plan_id":"cebpf4jnsgd1na2vs0mg"},{"bike_id":"ca44593c-de63-46cd-83e6-04f934053468","system_id":"levelo_inurba_marseille","lat":43.26562,"lon":5.39011,"is_reserved":false,"is_disabled":false,"rental_uris":{"android":"levelo://app?vid=ca44593c-de63-46cd-83e6-04f934053468","ios":"levelo://app?vid=ca44593c-de63-46cd-83e6-04f934053468"},"vehicle_type_id":"4","last_reported":1737234512,"current_range_meters":28000,"station_id":"ce4bhe12rcd13ifvqf30","pricing_plan_id":"cebpf4jnsgd1na2vs0mg"},{"bike_id":"c53467de-1d7f-4a00-975b-29dfcdfe1664","system_id":"levelo_inurba_marseille","lat":43.29373,"lon":5.37853,"is_reserved":false,"is_disabled":false,"rental_uris":{"android":"levelo://app?vid=c53467de-1d7f-4a00-975b-29dfcdfe1664","ios":"levelo://app?vid=c53467de-1d7f-4a00-975b-29dfcdfe1664"},"vehicle_type_id":"4","last_reported":1737234512,"current_range_meters":38000,"station_id":"ce4bgjh2rcd13ifvqbf0","pricing_plan_id":"cebpf4jnsgd1na2vs0mg"},{"bike_id":"8b98b548-b779-4c97-8cf9-4f6940cce818","system_id":"levelo_inurba_marseille","lat":43.29538,"lon":5.38549,"is_reserved":false,"is_disabled":false,"rental_uris":{"android":"levelo://app?vid=8b98b548-b779-4c97-8cf9-4f6940cce818","ios":"levelo://app?vid=8b98b548-b779-4c97-8cf9-4f6940cce818"},"vehicle_type_id":"4","last_reported":1737234512,"current_range_meters":20400,"station_id":"ce4bgih2rcd13ifvqba0","pricing_plan_id":"cebpf4jnsgd1na2vs0mg"},{"bike_id":"48dc0dc0-0476-4a51-ab5e-63119005b192","system_id":"levelo_inurba_marseille","lat":43.29517,"lon":5.39033,"is_reserved":false,"is_disabled":false,"rental_uris":{"android":"levelo://app?vid=48dc0dc0-0476-4a51-ab5e-63119005b192","ios":"levelo://app?vid=48dc0dc0-0476-4a51-ab5e-63119005b192"},"vehicle_type_id":"4","last_reported":1737234512,"current_range_meters":25600,"station_id":"ce4bh3p2rcd13ifvqdp0","pricing_plan_id":"cebpf4jnsgd1na2vs0mg"},{"bike_id":"a5cfd84d-4cae-4412-b199-dcb982d64799","system_id":"levelo_inurba_marseille","lat":43.28455,"lon":5.39182,"is_reserved":false,"is_disabled":true,"rental_uris":{"android":"levelo://app?vid=a5cfd84d-4cae-4412-b199-dcb982d64799","ios":"levelo://app?vid=a5cfd84d-4cae-4412-b199-dcb982d64799"},"vehicle_type_id":"4","last_reported":1737234512,"current_range_meters":1200,"station_id":"ce4bhoh2rcd13ifvqh5g","pricing_plan_id":"cebpf4jnsgd1na2vs0mg"},{"bike_id":"047285ab-b4ee-4474-8e6e-f98e1ab33731","system_id":"levelo_inurba_marseille","lat":43.2997,"lon":5.38467,"is_reserved":false,"is_disabled":false,"rental_uris":{"android":"levelo://app?vid=047285ab-b4ee-4474-8e6e-f98e1ab33731","ios":"levelo://app?vid=047285ab-b4ee-4474-8e6e-f98e1ab33731"},"vehicle_type_id":"4","last_reported":1737234512,"current_range_meters":23200,"station_id":"ce4bgj92rcd13ifvqbd0","pricing_plan_id":"cebpf4jnsgd1na2vs0mg"},{"bike_id":"02ce3e8e-6ef8-48e8-8e39-50ed964e3fb8","system_id":"levelo_inurba_marseille","lat":43.29403,"lon":5.39422,"is_reserved":false,"is_disabled":true,"rental_uris":{"android":"levelo://app?vid=02ce3e8e-6ef8-48e8-8e39-50ed964e3fb8","ios":"levelo://app?vid=02ce3e8e-6ef8-48e8-8e39-50ed964e3fb8"},"vehicle_type_id":"4","last_reported":1737234512,"current_range_meters":0,"station_id":"","pricing_plan_id":"cebpf4jnsgd1na2vs0mg"},{"bike_id":"072a81da-3ccb-4670-8007-d7a50c2a96da","system_id":"levelo_inurba_marseille","lat":43.25718,"lon":5.41106,"is_reserved":false,"is_disabled":false,"rental_uris":{"android":"levelo://app?vid=072a81da-3ccb-4670-8007-d7a50c2a96da","ios":"levelo://app?vid=072a81da-3ccb-4670-8007-d7a50c2a96da"},"vehicle_type_id":"4","last_reported":1737234512,"current_range_meters":26000,"station_id":"ce4bhkp2rcd13ifvqgd0","pricing_plan_id":"cebpf4jnsgd1na2vs0mg"},{"bike_id":"4fb6a51d-9d4a-4bf2-b0b9-93d4d4401950","system_id":"levelo_inurba_marseille","lat":43.32477,"lon":5.36571,"is_reserved":false,"is_disabled":false,"rental_uris":{"android":"levelo://app?vid=4fb6a51d-9d4a-4bf2-b0b9-93d4d4401950","ios":"levelo://app?vid=4fb6a51d-9d4a-4bf2-b0b9-93d4d4401950"},"vehicle_type_id":"4","last_reported":1737234512,"current_range_meters":30800,"station_id":"ce4bhs12rcd13ifvqhvg","pricing_plan_id":"cebpf4jnsgd1na2vs0mg"},{"bike_id":"90c165c3-eff9-4a4a-8f28-cfa68619e419","system_id":"levelo_inurba_marseille","lat":43.28706,"lon":5.39997,"is_reserved":false,"is_disabled":true,"rental_uris":{"android":"levelo://app?vid=90c165c3-eff9-4a4a-8f28-cfa68619e419","ios":"levelo://app?vid=90c165c3-eff9-4a4a-8f28-cfa68619e419"},"vehicle_type_id":"4","last_reported":1737234512,"current_range_meters":30800,"station_id":"ce4bho92rcd13ifvqh3g","pricing_plan_id":"cebpf4jnsgd1na2vs0mg"},{"bike_id":"7ee1237b-29eb-4929-908c-8cd94366fa7d","system_id":"levelo_inurba_marseille","lat":43.31231,"lon":5.36889,"is_reserved":false,"is_disabled":false,"rental_uris":{"android":"levelo://app?vid=7ee1237b-29eb-4929-908c-8cd94366fa7d","ios":"levelo://app?vid=7ee1237b-29eb-4929-908c-8cd94366fa7d"},"vehicle_type_id":"4","last_reported":1737234512,"current_range_meters":12400,"station_id":"ce4bgl92rcd13ifvqbq0","pricing_plan_id":"cebpf4jnsgd1na2vs0mg"},{"bike_id":"4975d3c5-1381-4300-914e-0a110da6ae0f","system_id":"levelo_inurba_marseille","lat":43.24071,"lon":5.37762,"is_reserved":false,"is_disabled":false,"rental_uris":{"android":"levelo://app?vid=4975d3c5-1381-4300-914e-0a110da6ae0f","ios":"levelo://app?vid=4975d3c5-1381-4300-914e-0a110da6ae0f"},"vehicle_type_id":"4","last_reported":1737234512,"current_range_meters":12400,"station_id":"ce4bhnp2rcd13ifvqgvg","pricing_plan_id":"cebpf4jnsgd1na2vs0mg"},{"bike_id":"2fe88d16-af55-4de4-84b3-2988d3ee891a","system_id":"levelo_inurba_marseille","lat":43.30358,"lon":5.41881,"is_reserved":false,"is_disabled":false,"rental_uris":{"android":"levelo://app?vid=2fe88d16-af55-4de4-84b3-2988d3ee891a","ios":"levelo://app?vid=2fe88d16-af55-4de4-84b3-2988d3ee891a"},"vehicle_type_id":"4","last_reported":1737234512,"current_range_meters":38800,"station_id":"ce4bhop2rcd13ifvqh7g","pricing_plan_id":"cebpf4jnsgd1na2vs0mg"},{"bike_id":"46efa326-c02d-4314-a6fe-f05976f22b94","system_id":"levelo_inurba_marseille","lat":43.28033,"lon":5.36947,"is_reserved":false,"is_disabled":false,"rental_uris":{"android":"levelo://app?vid=46efa326-c02d-4314-a6fe-f05976f22b94","ios":"levelo://app?vid=46efa326-c02d-4314-a6fe-f05976f22b94"},"vehicle_type_id":"4","last_reported":1737234512,"current_range_meters":18000,"station_id":"ce4bha12rcd13ifvqef0","pricing_plan_id":"cebpf4jnsgd1na2vs0mg"},{"bike_id":"763ed4fc-16fd-47a0-aedf-62c028daa66f","system_id":"levelo_inurba_marseille","lat":43.36392,"lon":5.35565,"is_reserved":false,"is_disabled":false,"rental_uris":{"android":"levelo://app?vid=763ed4fc-16fd-47a0-aedf-62c028daa66f","ios":"levelo://app?vid=763ed4fc-16fd-47a0-aedf-62c028daa66f"},"vehicle_type_id":"4","last_reported":1737234512,"current_range_meters":17200,"station_id":"","pricing_plan_id":"cebpf4jnsgd1na2vs0mg"},{"bike_id":"23af0b39-e151-454d-95df-fe8caca6e2f7","system_id":"levelo_inurba_marseille","lat":43.30942,"lon":5.36843,"is_reserved":false,"is_disabled":false,"rental_uris":{"android":"levelo://app?vid=23af0b39-e151-454d-95df-fe8caca6e2f7","ios":"levelo://app?vid=23af0b39-e151-454d-95df-fe8caca6e2f7"},"vehicle_type_id":"4","last_reported":1737234512,"current_range_meters":39200,"station_id":"ce4bgn92rcd13ifvqbvg","pricing_plan_id":"cebpf4jnsgd1na2vs0mg"},{"bike_id":"1022f24d-239e-49a1-a4b8-988e34719576","system_id":"levelo_inurba_marseille","lat":43.24549,"lon":5.39519,"is_reserved":false,"is_disabled":false,"rental_uris":{"android":"levelo://app?vid=1022f24d-239e-49a1-a4b8-988e34719576","ios":"levelo://app?vid=1022f24d-239e-49a1-a4b8-988e34719576"},"vehicle_type_id":"4","last_reported":1737234512,"current_range_meters":16800,"station_id":"ce4bhlp2rcd13ifvqgjg","pricing_plan_id":"cebpf4jnsgd1na2vs0mg"},{"bike_id":"115ac15a-d3a3-4b40-a595-350d10d48153","system_id":"levelo_inurba_marseille","lat":43.29265,"lon":5.38431,"is_reserved":false,"is_disabled":false,"rental_uris":{"android":"levelo://app?vid=115ac15a-d3a3-4b40-a595-350d10d48153","ios":"levelo://app?vid=115ac15a-d3a3-4b40-a595-350d10d48153"},"vehicle_type_id":"4","last_reported":1737234512,"current_range_meters":30800,"station_id":"ce4bh692rcd13ifvqea0","pricing_plan_id":"cebpf4jnsgd1na2vs0mg"},{"bike_id":"415d90fa-e6d8-4b54-8c36-5e9472ab1fc5","system_id":"levelo_inurba_marseille","lat":43.29246,"lon":5.384477,"is_reserved":false,"is_disabled":false,"rental_uris":{"android":"levelo://app?vid=415d90fa-e6d8-4b54-8c36-5e9472ab1fc5","ios":"levelo://app?vid=415d90fa-e6d8-4b54-8c36-5e9472ab1fc5"},"vehicle_type_id":"4","last_reported":1737234512,"current_range_meters":38800,"station_id":"ce4bh692rcd13ifvqea0","pricing_plan_id":"cebpf4jnsgd1na2vs0mg"},{"bike_id":"f64f4764-61e4-4bdb-aea6-d8e590bda1eb","system_id":"levelo_inurba_marseille","lat":43.25008,"lon":5.3891,"is_reserved":false,"is_disabled":false,"rental_uris":{"android":"levelo://app?vid=f64f4764-61e4-4bdb-aea6-d8e590bda1eb","ios":"levelo://app?vid=f64f4764-61e4-4bdb-aea6-d8e590bda1eb"},"vehicle_type_id":"4","last_reported":1737234512,"current_range_meters":6400,"station_id":"ce4bhgp2rcd13ifvqfd0","pricing_plan_id":"cebpf4jnsgd1na2vs0mg"},{"bike_id":"f3c94274-f861-4c89-8bb1-1ebe1a531935","system_id":"levelo_inurba_marseille","lat":43.25008,"lon":5.38906,"is_reserved":false,"is_disabled":false,"rental_uris":{"android":"levelo://app?vid=f3c94274-f861-4c89-8bb1-1ebe1a531935","ios":"levelo://app?vid=f3c94274-f861-4c89-8bb1-1ebe1a531935"},"vehicle_type_id":"4","last_reported":1737234512,"current_range_meters":38800,"station_id":"ce4bhgp2rcd13ifvqfd0","pricing_plan_id":"cebpf4jnsgd1na2vs0mg"},{"bike_id":"e3d95e52-5c27-49c4-b832-b51212d70559","system_id":"levelo_inurba_marseille","lat":43.30801,"lon":5.37938,"is_reserved":false,"is_disabled":true,"rental_uris":{"android":"levelo://app?vid=e3d95e52-5c27-49c4-b832-b51212d70559","ios":"levelo://app?vid=e3d95e52-5c27-49c4-b832-b51212d70559"},"vehicle_type_id":"4","last_reported":1737234512,"current_range_meters":1200,"station_id":"","pricing_plan_id":"cebpf4jnsgd1na2vs0mg"},{"bike_id":"ea820ade-d81d-428e-82b9-7f165f7e8e75","system_id":"levelo_inurba_marseille","lat":43.32349,"lon":5.36748,"is_reserved":false,"is_disabled":false,"rental_uris":{"android":"levelo://app?vid=ea820ade-d81d-428e-82b9-7f165f7e8e75","ios":"levelo://app?vid=ea820ade-d81d-428e-82b9-7f165f7e8e75"},"vehicle_type_id":"4","last_reported":1737234512,"current_range_meters":20400,"station_id":"ce4bhsh2rcd13ifvqi2g","pricing_plan_id":"cebpf4jnsgd1na2vs0mg"},{"bike_id":"c29020e0-83ef-4b06-ac4f-c4422257f84a","system_id":"levelo_inurba_marseille","lat":43.36379,"lon":5.35616,"is_reserved":false,"is_disabled":false,"rental_uris":{"android":"levelo://app?vid=c29020e0-83ef-4b06-ac4f-c4422257f84a","ios":"levelo://app?vid=c29020e0-83ef-4b06-ac4f-c4422257f84a"},"vehicle_type_id":"4","last_reported":1737234512,"current_range_meters":22800,"station_id":"","pricing_plan_id":"cebpf4jnsgd1na2vs0mg"},{"bike_id":"5df9bdf2-6c98-4243-ab6c-10dc8147c182","system_id":"levelo_inurba_marseille","lat":43.30535,"lon":5.36689,"is_reserved":false,"is_disabled":false,"rental_uris":{"android":"levelo://app?vid=5df9bdf2-6c98-4243-ab6c-10dc8147c182","ios":"levelo://app?vid=5df9bdf2-6c98-4243-ab6c-10dc8147c182"},"vehicle_type_id":"4","last_reported":1737234512,"current_range_meters":33200,"station_id":"ce4bgrp2rcd13ifvqc9g","pricing_plan_id":"cebpf4jnsgd1na2vs0mg"},{"bike_id":"ac91f09f-fc82-4d21-b08e-2c2e894bfc32","system_id":"levelo_inurba_marseille","lat":43.3093,"lon":5.36887,"is_reserved":false,"is_disabled":false,"rental_uris":{"android":"levelo://app?vid=ac91f09f-fc82-4d21-b08e-2c2e894bfc32","ios":"levelo://app?vid=ac91f09f-fc82-4d21-b08e-2c2e894bfc32"},"vehicle_type_id":"4","last_reported":1737234512,"current_range_meters":8400,"station_id":"ce4bgn92rcd13ifvqbvg","pricing_plan_id":"cebpf4jnsgd1na2vs0mg"},{"bike_id":"37ba85cd-4ae9-4e6a-94ae-19965ee43afa","system_id":"levelo_inurba_marseille","lat":43.29239,"lon":5.38207,"is_reserved":false,"is_disabled":false,"rental_uris":{"android":"levelo://app?vid=37ba85cd-4ae9-4e6a-94ae-19965ee43afa","ios":"levelo://app?vid=37ba85cd-4ae9-4e6a-94ae-19965ee43afa"},"vehicle_type_id":"4","last_reported":1737234512,"current_range_meters":27600,"station_id":"","pricing_plan_id":"cebpf4jnsgd1na2vs0mg"},{"bike_id":"a554bc87-8a4b-49aa-a145-da59c8ab9d1b","system_id":"levelo_inurba_marseille","lat":43.2997,"lon":5.38486,"is_reserved":false,"is_disabled":false,"rental_uris":{"android":"levelo://app?vid=a554bc87-8a4b-49aa-a145-da59c8ab9d1b","ios":"levelo://app?vid=a554bc87-8a4b-49aa-a145-da59c8ab9d1b"},"vehicle_type_id":"4","last_reported":1737234512,"current_range_meters":24400,"station_id":"ce4bgj92rcd13ifvqbd0","pricing_plan_id":"cebpf4jnsgd1na2vs0mg"},{"bike_id":"4d4ec566-516b-4793-a5be-68a8e0188dc4","system_id":"levelo_inurba_marseille","lat":43.33027,"lon":5.39026,"is_reserved":false,"is_disabled":false,"rental_uris":{"android":"levelo://app?vid=4d4ec566-516b-4793-a5be-68a8e0188dc4","ios":"levelo://app?vid=4d4ec566-516b-4793-a5be-68a8e0188dc4"},"vehicle_type_id":"4","last_reported":1737234512,"current_range_meters":38800,"station_id":"ce4bhr92rcd13ifvqhrg","pricing_plan_id":"cebpf4jnsgd1na2vs0mg"},{"bike_id":"b672b566-ae6e-4181-a2cb-0155be334a04","system_id":"levelo_inurba_marseille","lat":43.28954,"lon":5.36628,"is_reserved":false,"is_disabled":true,"rental_uris":{"android":"levelo://app?vid=b672b566-ae6e-4181-a2cb-0155be334a04","ios":"levelo://app?vid=b672b566-ae6e-4181-a2cb-0155be334a04"},"vehicle_type_id":"4","last_reported":1737234512,"current_range_meters":36400,"station_id":"ce4bhap2rcd13ifvqek0","pricing_plan_id":"cebpf4jnsgd1na2vs0mg"},{"bike_id":"b76718c7-cd1b-4fa4-b075-c637c477644b","system_id":"levelo_inurba_marseille","lat":43.29621,"lon":5.38083,"is_reserved":false,"is_disabled":false,"rental_uris":{"android":"levelo://app?vid=b76718c7-cd1b-4fa4-b075-c637c477644b","ios":"levelo://app?vid=b76718c7-cd1b-4fa4-b075-c637c477644b"},"vehicle_type_id":"4","last_reported":1737234512,"current_range_meters":25600,"station_id":"ce4bgl12rcd13ifvqbo0","pricing_plan_id":"cebpf4jnsgd1na2vs0mg"},{"bike_id":"231f841f-a1ec-4be6-b98d-50e1fa0785de","system_id":"levelo_inurba_marseille","lat":43.29263,"lon":5.38438,"is_reserved":false,"is_disabled":false,"rental_uris":{"android":"levelo://app?vid=231f841f-a1ec-4be6-b98d-50e1fa0785de","ios":"levelo://app?vid=231f841f-a1ec-4be6-b98d-50e1fa0785de"},"vehicle_type_id":"4","last_reported":1737234512,"current_range_meters":38800,"station_id":"ce4bh692rcd13ifvqea0","pricing_plan_id":"cebpf4jnsgd1na2vs0mg"},{"bike_id":"04e7f6b2-1170-476d-8eb7-54bc6ab7d23c","system_id":"levelo_inurba_marseille","lat":43.2439,"lon":5.37047,"is_reserved":false,"is_disabled":false,"rental_uris":{"android":"levelo://app?vid=04e7f6b2-1170-476d-8eb7-54bc6ab7d23c","ios":"levelo://app?vid=04e7f6b2-1170-476d-8eb7-54bc6ab7d23c"},"vehicle_type_id":"4","last_reported":1737234512,"current_range_meters":38800,"station_id":"ce4bhhh2rcd13ifvqfk0","pricing_plan_id":"cebpf4jnsgd1na2vs0mg"},{"bike_id":"4395dfba-4e3d-4b8b-aa73-f3e693689e94","system_id":"levelo_inurba_marseille","lat":43.24665,"lon":5.38162,"is_reserved":false,"is_disabled":false,"rental_uris":{"android":"levelo://app?vid=4395dfba-4e3d-4b8b-aa73-f3e693689e94","ios":"levelo://app?vid=4395dfba-4e3d-4b8b-aa73-f3e693689e94"},"vehicle_type_id":"4","last_reported":1737234512,"current_range_meters":26000,"station_id":"ce4bhih2rcd13ifvqfr0","pricing_plan_id":"cebpf4jnsgd1na2vs0mg"},{"bike_id":"acc680f7-f8f0-4d32-8953-9bdfc37e973c","system_id":"levelo_inurba_marseille","lat":43.30345,"lon":5.40418,"is_reserved":false,"is_disabled":false,"rental_uris":{"android":"levelo://app?vid=acc680f7-f8f0-4d32-8953-9bdfc37e973c","ios":"levelo://app?vid=acc680f7-f8f0-4d32-8953-9bdfc37e973c"},"vehicle_type_id":"4","last_reported":1737234512,"current_range_meters":28000,"station_id":"ce4bh012rcd13ifvqd10","pricing_plan_id":"cebpf4jnsgd1na2vs0mg"},{"bike_id":"1943cd9d-bda0-410e-96be-c8966617dd42","system_id":"levelo_inurba_marseille","lat":43.31064,"lon":5.38357,"is_reserved":false,"is_disabled":false,"rental_uris":{"android":"levelo://app?vid=1943cd9d-bda0-410e-96be-c8966617dd42","ios":"levelo://app?vid=1943cd9d-bda0-410e-96be-c8966617dd42"},"vehicle_type_id":"4","last_reported":1737234512,"current_range_meters":8400,"station_id":"ce4bgv92rcd13ifvqcr0","pricing_plan_id":"cebpf4jnsgd1na2vs0mg"},{"bike_id":"df581145-fd95-4a77-a27c-2465bbb559bf","system_id":"levelo_inurba_marseille","lat":43.24657,"lon":5.3815,"is_reserved":false,"is_disabled":false,"rental_uris":{"android":"levelo://app?vid=df581145-fd95-4a77-a27c-2465bbb559bf","ios":"levelo://app?vid=df581145-fd95-4a77-a27c-2465bbb559bf"},"vehicle_type_id":"4","last_reported":1737234512,"current_range_meters":30400,"station_id":"ce4bhih2rcd13ifvqfr0","pricing_plan_id":"cebpf4jnsgd1na2vs0mg"},{"bike_id":"6767abdc-3c6a-42d0-9e7b-2128533c47af","system_id":"levelo_inurba_marseille","lat":43.29014,"lon":5.38128,"is_reserved":false,"is_disabled":false,"rental_uris":{"android":"levelo://app?vid=6767abdc-3c6a-42d0-9e7b-2128533c47af","ios":"levelo://app?vid=6767abdc-3c6a-42d0-9e7b-2128533c47af"},"vehicle_type_id":"4","last_reported":1737234512,"current_range_meters":38800,"station_id":"ce4bh4p2rcd13ifvqe1g","pricing_plan_id":"cebpf4jnsgd1na2vs0mg"},{"bike_id":"9094a0f5-f794-4f17-b997-f4f57620084f","system_id":"levelo_inurba_marseille","lat":43.2981,"lon":5.38093,"is_reserved":false,"is_disabled":false,"rental_uris":{"android":"levelo://app?vid=9094a0f5-f794-4f17-b997-f4f57620084f","ios":"levelo://app?vid=9094a0f5-f794-4f17-b997-f4f57620084f"},"vehicle_type_id":"4","last_reported":1737234512,"current_range_meters":38800,"station_id":"ce4bgip2rcd13ifvqbb0","pricing_plan_id":"cebpf4jnsgd1na2vs0mg"},{"bike_id":"835644e5-c33e-4022-a1f4-329a29c29a16","system_id":"levelo_inurba_marseille","lat":43.29684,"lon":5.3728,"is_reserved":false,"is_disabled":false,"rental_uris":{"android":"levelo://app?vid=835644e5-c33e-4022-a1f4-329a29c29a16","ios":"levelo://app?vid=835644e5-c33e-4022-a1f4-329a29c29a16"},"vehicle_type_id":"4","last_reported":1737234512,"current_range_meters":38000,"station_id":"ce4bgk12rcd13ifvqbj0","pricing_plan_id":"cebpf4jnsgd1na2vs0mg"},{"bike_id":"65947d9a-da43-4b5f-bacb-b9ae140b5b71","system_id":"levelo_inurba_marseille","lat":43.29256,"lon":5.38437,"is_reserved":false,"is_disabled":false,"rental_uris":{"android":"levelo://app?vid=65947d9a-da43-4b5f-bacb-b9ae140b5b71","ios":"levelo://app?vid=65947d9a-da43-4b5f-bacb-b9ae140b5b71"},"vehicle_type_id":"4","last_reported":1737234512,"current_range_meters":30400,"station_id":"ce4bh692rcd13ifvqea0","pricing_plan_id":"cebpf4jnsgd1na2vs0mg"},{"bike_id":"8fb8c0d0-bdd7-480b-9c30-76a39d09797d","system_id":"levelo_inurba_marseille","lat":43.29258,"lon":5.3844,"is_reserved":false,"is_disabled":false,"rental_uris":{"android":"levelo://app?vid=8fb8c0d0-bdd7-480b-9c30-76a39d09797d","ios":"levelo://app?vid=8fb8c0d0-bdd7-480b-9c30-76a39d09797d"},"vehicle_type_id":"4","last_reported":1737234512,"current_range_meters":38800,"station_id":"ce4bh692rcd13ifvqea0","pricing_plan_id":"cebpf4jnsgd1na2vs0mg"},{"bike_id":"b3450e58-71d5-4421-8c94-1c36de79069f","system_id":"levelo_inurba_marseille","lat":43.26219,"lon":5.40447,"is_reserved":false,"is_disabled":false,"rental_uris":{"android":"levelo://app?vid=b3450e58-71d5-4421-8c94-1c36de79069f","ios":"levelo://app?vid=b3450e58-71d5-4421-8c94-1c36de79069f"},"vehicle_type_id":"4","last_reported":1737234512,"current_range_meters":9200,"station_id":"","pricing_plan_id":"cebpf4jnsgd1na2vs0mg"},{"bike_id":"ce97367f-c187-4509-be08-5943f2e277b6","system_id":"levelo_inurba_marseille","lat":43.28356,"lon":5.38102,"is_reserved":false,"is_disabled":false,"rental_uris":{"android":"levelo://app?vid=ce97367f-c187-4509-be08-5943f2e277b6","ios":"levelo://app?vid=ce97367f-c187-4509-be08-5943f2e277b6"},"vehicle_type_id":"4","last_reported":1737234512,"current_range_meters":31200,"station_id":"ce4bh412rcd13ifvqdr0","pricing_plan_id":"cebpf4jnsgd1na2vs0mg"},{"bike_id":"039ef0ad-54bf-4a8d-9721-bb981cbdea62","system_id":"levelo_inurba_marseille","lat":43.30255,"lon":5.40073,"is_reserved":false,"is_disabled":false,"rental_uris":{"android":"levelo://app?vid=039ef0ad-54bf-4a8d-9721-bb981cbdea62","ios":"levelo://app?vid=039ef0ad-54bf-4a8d-9721-bb981cbdea62"},"vehicle_type_id":"4","last_reported":1737234512,"current_range_meters":2000,"station_id":"ce4bgvh2rcd13ifvqcs0","pricing_plan_id":"cebpf4jnsgd1na2vs0mg"},{"bike_id":"c8f7cc55-fbaf-43c6-ab25-9f6c9663110a","system_id":"levelo_inurba_marseille","lat":43.31757,"lon":5.39013,"is_reserved":false,"is_disabled":false,"rental_uris":{"android":"levelo://app?vid=c8f7cc55-fbaf-43c6-ab25-9f6c9663110a","ios":"levelo://app?vid=c8f7cc55-fbaf-43c6-ab25-9f6c9663110a"},"vehicle_type_id":"4","last_reported":1737234512,"current_range_meters":19600,"station_id":"ce4bhqp2rcd13ifvqhng","pricing_plan_id":"cebpf4jnsgd1na2vs0mg"},{"bike_id":"0efac7e8-f321-4346-97de-02c5951c5428","system_id":"levelo_inurba_marseille","lat":43.30311,"lon":5.36885,"is_reserved":false,"is_disabled":false,"rental_uris":{"android":"levelo://app?vid=0efac7e8-f321-4346-97de-02c5951c5428","ios":"levelo://app?vid=0efac7e8-f321-4346-97de-02c5951c5428"},"vehicle_type_id":"4","last_reported":1737234512,"current_range_meters":36400,"station_id":"ce4bgqh2rcd13ifvqc5g","pricing_plan_id":"cebpf4jnsgd1na2vs0mg"},{"bike_id":"f4050ce3-69c2-47a5-9d09-5c964928f0c7","system_id":"levelo_inurba_marseille","lat":43.34141,"lon":5.40905,"is_reserved":false,"is_disabled":false,"rental_uris":{"android":"levelo://app?vid=f4050ce3-69c2-47a5-9d09-5c964928f0c7","ios":"levelo://app?vid=f4050ce3-69c2-47a5-9d09-5c964928f0c7"},"vehicle_type_id":"4","last_reported":1737234512,"current_range_meters":8400,"station_id":"ce4bhqh2rcd13ifvqhlg","pricing_plan_id":"cebpf4jnsgd1na2vs0mg"},{"bike_id":"1610df4d-6165-48a4-bf62-535f1316c2a0","system_id":"levelo_inurba_marseille","lat":43.29554,"lon":5.42288,"is_reserved":false,"is_disabled":false,"rental_uris":{"android":"levelo://app?vid=1610df4d-6165-48a4-bf62-535f1316c2a0","ios":"levelo://app?vid=1610df4d-6165-48a4-bf62-535f1316c2a0"},"vehicle_type_id":"4","last_reported":1737234512,"current_range_meters":38000,"station_id":"ce4bhph2rcd13ifvqhdg","pricing_plan_id":"cebpf4jnsgd1na2vs0mg"},{"bike_id":"249539c6-83be-4040-a185-92bdddb7c341","system_id":"levelo_inurba_marseille","lat":43.29684,"lon":5.37295,"is_reserved":false,"is_disabled":false,"rental_uris":{"android":"levelo://app?vid=249539c6-83be-4040-a185-92bdddb7c341","ios":"levelo://app?vid=249539c6-83be-4040-a185-92bdddb7c341"},"vehicle_type_id":"4","last_reported":1737234512,"current_range_meters":38800,"station_id":"ce4bgk12rcd13ifvqbj0","pricing_plan_id":"cebpf4jnsgd1na2vs0mg"},{"bike_id":"ca8aa51d-4833-4c77-8009-59b7c07323a3","system_id":"levelo_inurba_marseille","lat":43.32369,"lon":5.36755,"is_reserved":false,"is_disabled":false,"rental_uris":{"android":"levelo://app?vid=ca8aa51d-4833-4c77-8009-59b7c07323a3","ios":"levelo://app?vid=ca8aa51d-4833-4c77-8009-59b7c07323a3"},"vehicle_type_id":"4","last_reported":1737234512,"current_range_meters":8800,"station_id":"ce4bhsh2rcd13ifvqi2g","pricing_plan_id":"cebpf4jnsgd1na2vs0mg"},{"bike_id":"8cc60841-1eec-45a2-8c36-d26245280f69","system_id":"levelo_inurba_marseille","lat":43.29572,"lon":5.37534,"is_reserved":false,"is_disabled":false,"rental_uris":{"android":"levelo://app?vid=8cc60841-1eec-45a2-8c36-d26245280f69","ios":"levelo://app?vid=8cc60841-1eec-45a2-8c36-d26245280f69"},"vehicle_type_id":"4","last_reported":1737234512,"current_range_meters":9200,"station_id":"ce4bgh92rcd13ifvqb50","pricing_plan_id":"cebpf4jnsgd1na2vs0mg"},{"bike_id":"23c50c32-96fb-423e-8e5c-22372d2300ba","system_id":"levelo_inurba_marseille","lat":43.31699,"lon":5.40459,"is_reserved":false,"is_disabled":false,"rental_uris":{"android":"levelo://app?vid=23c50c32-96fb-423e-8e5c-22372d2300ba","ios":"levelo://app?vid=23c50c32-96fb-423e-8e5c-22372d2300ba"},"vehicle_type_id":"4","last_reported":1737234512,"current_range_meters":38800,"station_id":"ce4bh012rcd13ifvqd00","pricing_plan_id":"cebpf4jnsgd1na2vs0mg"},{"bike_id":"9dc49063-283d-43eb-bbfe-31fee7e70777","system_id":"levelo_inurba_marseille","lat":43.31236,"lon":5.36849,"is_reserved":false,"is_disabled":false,"rental_uris":{"android":"levelo://app?vid=9dc49063-283d-43eb-bbfe-31fee7e70777","ios":"levelo://app?vid=9dc49063-283d-43eb-bbfe-31fee7e70777"},"vehicle_type_id":"4","last_reported":1737234512,"current_range_meters":10800,"station_id":"ce4bgl92rcd13ifvqbq0","pricing_plan_id":"cebpf4jnsgd1na2vs0mg"},{"bike_id":"4b73b77a-9a3b-4f18-a046-cb900f7887f8","system_id":"levelo_inurba_marseille","lat":43.31716,"lon":5.42397,"is_reserved":false,"is_disabled":false,"rental_uris":{"android":"levelo://app?vid=4b73b77a-9a3b-4f18-a046-cb900f7887f8","ios":"levelo://app?vid=4b73b77a-9a3b-4f18-a046-cb900f7887f8"},"vehicle_type_id":"4","last_reported":1737234512,"current_range_meters":37600,"station_id":"ce4bhp92rcd13ifvqhbg","pricing_plan_id":"cebpf4jnsgd1na2vs0mg"},{"bike_id":"5c610ad5-e655-41ba-ae59-abc81e8e5a31","system_id":"levelo_inurba_marseille","lat":43.29407,"lon":5.38632,"is_reserved":false,"is_disabled":false,"rental_uris":{"android":"levelo://app?vid=5c610ad5-e655-41ba-ae59-abc81e8e5a31","ios":"levelo://app?vid=5c610ad5-e655-41ba-ae59-abc81e8e5a31"},"vehicle_type_id":"4","last_reported":1737234512,"current_range_meters":22400,"station_id":"ce4bh2h2rcd13ifvqdh0","pricing_plan_id":"cebpf4jnsgd1na2vs0mg"},{"bike_id":"21893c0c-ea3c-43b7-9203-59b4c254bb5a","system_id":"levelo_inurba_marseille","lat":43.29412,"lon":5.38631,"is_reserved":false,"is_disabled":false,"rental_uris":{"android":"levelo://app?vid=21893c0c-ea3c-43b7-9203-59b4c254bb5a","ios":"levelo://app?vid=21893c0c-ea3c-43b7-9203-59b4c254bb5a"},"vehicle_type_id":"4","last_reported":1737234512,"current_range_meters":33200,"station_id":"ce4bh2h2rcd13ifvqdh0","pricing_plan_id":"cebpf4jnsgd1na2vs0mg"},{"bike_id":"57d9fa47-e597-4ea4-913f-9b45079bd718","system_id":"levelo_inurba_marseille","lat":43.33025,"lon":5.39031,"is_reserved":false,"is_disabled":false,"rental_uris":{"android":"levelo://app?vid=57d9fa47-e597-4ea4-913f-9b45079bd718","ios":"levelo://app?vid=57d9fa47-e597-4ea4-913f-9b45079bd718"},"vehicle_type_id":"4","last_reported":1737234512,"current_range_meters":10000,"station_id":"ce4bhr92rcd13ifvqhrg","pricing_plan_id":"cebpf4jnsgd1na2vs0mg"},{"bike_id":"50c70262-dbb4-4b61-88f4-99876f32b530","system_id":"levelo_inurba_marseille","lat":43.29427,"lon":5.3863,"is_reserved":false,"is_disabled":false,"rental_uris":{"android":"levelo://app?vid=50c70262-dbb4-4b61-88f4-99876f32b530","ios":"levelo://app?vid=50c70262-dbb4-4b61-88f4-99876f32b530"},"vehicle_type_id":"4","last_reported":1737234512,"current_range_meters":32000,"station_id":"ce4bh2h2rcd13ifvqdh0","pricing_plan_id":"cebpf4jnsgd1na2vs0mg"},{"bike_id":"4ec76aa8-1e80-4051-b2ea-1baaf50a61e8","system_id":"levelo_inurba_marseille","lat":43.24139,"lon":5.38098,"is_reserved":false,"is_disabled":false,"rental_uris":{"android":"levelo://app?vid=4ec76aa8-1e80-4051-b2ea-1baaf50a61e8","ios":"levelo://app?vid=4ec76aa8-1e80-4051-b2ea-1baaf50a61e8"},"vehicle_type_id":"4","last_reported":1737234512,"current_range_meters":20400,"station_id":"","pricing_plan_id":"cebpf4jnsgd1na2vs0mg"},{"bike_id":"bd00f222-ce0c-4f81-a68c-0edabc3e5f6b","system_id":"levelo_inurba_marseille","lat":43.2507,"lon":5.39506,"is_reserved":false,"is_disabled":false,"rental_uris":{"android":"levelo://app?vid=bd00f222-ce0c-4f81-a68c-0edabc3e5f6b","ios":"levelo://app?vid=bd00f222-ce0c-4f81-a68c-0edabc3e5f6b"},"vehicle_type_id":"4","last_reported":1737234512,"current_range_meters":38800,"station_id":"ce4bhm12rcd13ifvqgkg","pricing_plan_id":"cebpf4jnsgd1na2vs0mg"},{"bike_id":"cb51ce38-e716-49c9-a38b-071a552bc794","system_id":"levelo_inurba_marseille","lat":43.31064,"lon":5.38345,"is_reserved":false,"is_disabled":false,"rental_uris":{"android":"levelo://app?vid=cb51ce38-e716-49c9-a38b-071a552bc794","ios":"levelo://app?vid=cb51ce38-e716-49c9-a38b-071a552bc794"},"vehicle_type_id":"4","last_reported":1737234512,"current_range_meters":16800,"station_id":"ce4bgv92rcd13ifvqcr0","pricing_plan_id":"cebpf4jnsgd1na2vs0mg"},{"bike_id":"81588def-b3d1-4412-8fb0-bc5c9e8c72ab","system_id":"levelo_inurba_marseille","lat":43.29255,"lon":5.3843,"is_reserved":false,"is_disabled":false,"rental_uris":{"android":"levelo://app?vid=81588def-b3d1-4412-8fb0-bc5c9e8c72ab","ios":"levelo://app?vid=81588def-b3d1-4412-8fb0-bc5c9e8c72ab"},"vehicle_type_id":"4","last_reported":1737234512,"current_range_meters":34800,"station_id":"ce4bh692rcd13ifvqea0","pricing_plan_id":"cebpf4jnsgd1na2vs0mg"},{"bike_id":"9e515546-a20a-41af-a455-44307a595228","system_id":"levelo_inurba_marseille","lat":43.28479,"lon":5.38564,"is_reserved":false,"is_disabled":false,"rental_uris":{"android":"levelo://app?vid=9e515546-a20a-41af-a455-44307a595228","ios":"levelo://app?vid=9e515546-a20a-41af-a455-44307a595228"},"vehicle_type_id":"4","last_reported":1737234512,"current_range_meters":35600,"station_id":"ce4bh8p2rcd13ifvqeb0","pricing_plan_id":"cebpf4jnsgd1na2vs0mg"},{"bike_id":"4104cbba-088f-4383-b2a0-261d17699731","system_id":"levelo_inurba_marseille","lat":43.23967,"lon":5.36624,"is_reserved":false,"is_disabled":false,"rental_uris":{"android":"levelo://app?vid=4104cbba-088f-4383-b2a0-261d17699731","ios":"levelo://app?vid=4104cbba-088f-4383-b2a0-261d17699731"},"vehicle_type_id":"4","last_reported":1737234512,"current_range_meters":38400,"station_id":"ce4bhi12rcd13ifvqfp0","pricing_plan_id":"cebpf4jnsgd1na2vs0mg"},{"bike_id":"4d204c74-597b-40dc-b27a-d4d81af1e55e","system_id":"levelo_inurba_marseille","lat":43.24174,"lon":5.39707,"is_reserved":false,"is_disabled":false,"rental_uris":{"android":"levelo://app?vid=4d204c74-597b-40dc-b27a-d4d81af1e55e","ios":"levelo://app?vid=4d204c74-597b-40dc-b27a-d4d81af1e55e"},"vehicle_type_id":"4","last_reported":1737234512,"current_range_meters":33200,"station_id":"ce4bhn12rcd13ifvqgpg","pricing_plan_id":"cebpf4jnsgd1na2vs0mg"},{"bike_id":"881f5a56-0072-422c-a05d-eee833d8c733","system_id":"levelo_inurba_marseille","lat":43.3314,"lon":5.37787,"is_reserved":false,"is_disabled":false,"rental_uris":{"android":"levelo://app?vid=881f5a56-0072-422c-a05d-eee833d8c733","ios":"levelo://app?vid=881f5a56-0072-422c-a05d-eee833d8c733"},"vehicle_type_id":"4","last_reported":1737234512,"current_range_meters":38800,"station_id":"","pricing_plan_id":"cebpf4jnsgd1na2vs0mg"},{"bike_id":"28ef1c1e-dd89-43e8-817b-9b489831397b","system_id":"levelo_inurba_marseille","lat":43.271193,"lon":5.396125,"is_reserved":false,"is_disabled":true,"rental_uris":{"android":"levelo://app?vid=28ef1c1e-dd89-43e8-817b-9b489831397b","ios":"levelo://app?vid=28ef1c1e-dd89-43e8-817b-9b489831397b"},"vehicle_type_id":"4","last_reported":1737234512,"current_range_meters":0,"station_id":"","pricing_plan_id":"cebpf4jnsgd1na2vs0mg"},{"bike_id":"63f5da95-45c1-4439-88f3-ff94f7d248dd","system_id":"levelo_inurba_marseille","lat":43.23183,"lon":5.39989,"is_reserved":false,"is_disabled":false,"rental_uris":{"android":"levelo://app?vid=63f5da95-45c1-4439-88f3-ff94f7d248dd","ios":"levelo://app?vid=63f5da95-45c1-4439-88f3-ff94f7d248dd"},"vehicle_type_id":"4","last_reported":1737234512,"current_range_meters":36400,"station_id":"ce4bhn12rcd13ifvqgqg","pricing_plan_id":"cebpf4jnsgd1na2vs0mg"},{"bike_id":"748bb4c8-d760-4703-845e-4ee62efabb1b","system_id":"levelo_inurba_marseille","lat":43.3044,"lon":5.38883,"is_reserved":false,"is_disabled":false,"rental_uris":{"android":"levelo://app?vid=748bb4c8-d760-4703-845e-4ee62efabb1b","ios":"levelo://app?vid=748bb4c8-d760-4703-845e-4ee62efabb1b"},"vehicle_type_id":"4","last_reported":1737234512,"current_range_meters":37600,"station_id":"ce4bgk12rcd13ifvqbi0","pricing_plan_id":"cebpf4jnsgd1na2vs0mg"},{"bike_id":"2ad52ef0-8080-4104-a5d3-4ad6b83e9c6d","system_id":"levelo_inurba_marseille","lat":43.29517,"lon":5.39029,"is_reserved":false,"is_disabled":false,"rental_uris":{"android":"levelo://app?vid=2ad52ef0-8080-4104-a5d3-4ad6b83e9c6d","ios":"levelo://app?vid=2ad52ef0-8080-4104-a5d3-4ad6b83e9c6d"},"vehicle_type_id":"4","last_reported":1737234512,"current_range_meters":25600,"station_id":"ce4bh3p2rcd13ifvqdp0","pricing_plan_id":"cebpf4jnsgd1na2vs0mg"},{"bike_id":"c77de84a-305d-47e5-b81a-44313d3b8aa9","system_id":"levelo_inurba_marseille","lat":43.25874,"lon":5.39911,"is_reserved":false,"is_disabled":false,"rental_uris":{"android":"levelo://app?vid=c77de84a-305d-47e5-b81a-44313d3b8aa9","ios":"levelo://app?vid=c77de84a-305d-47e5-b81a-44313d3b8aa9"},"vehicle_type_id":"4","last_reported":1737234512,"current_range_meters":30400,"station_id":"ce4bhl92rcd13ifvqghg","pricing_plan_id":"cebpf4jnsgd1na2vs0mg"},{"bike_id":"357eaeda-fef2-41f2-9ad0-621ae2cc5c09","system_id":"levelo_inurba_marseille","lat":43.33753,"lon":5.37518,"is_reserved":false,"is_disabled":false,"rental_uris":{"android":"levelo://app?vid=357eaeda-fef2-41f2-9ad0-621ae2cc5c09","ios":"levelo://app?vid=357eaeda-fef2-41f2-9ad0-621ae2cc5c09"},"vehicle_type_id":"4","last_reported":1737234512,"current_range_meters":35600,"station_id":"","pricing_plan_id":"cebpf4jnsgd1na2vs0mg"},{"bike_id":"24747ef3-c3b1-4bc4-b21e-7db78697d06a","system_id":"levelo_inurba_marseille","lat":43.30099,"lon":5.39064,"is_reserved":false,"is_disabled":false,"rental_uris":{"android":"levelo://app?vid=24747ef3-c3b1-4bc4-b21e-7db78697d06a","ios":"levelo://app?vid=24747ef3-c3b1-4bc4-b21e-7db78697d06a"},"vehicle_type_id":"4","last_reported":1737234512,"current_range_meters":37600,"station_id":"ce4bh192rcd13ifvqdb0","pricing_plan_id":"cebpf4jnsgd1na2vs0mg"},{"bike_id":"95feaf42-579e-4004-8862-d07317e6a0f2","system_id":"levelo_inurba_marseille","lat":43.28266,"lon":5.35069,"is_reserved":false,"is_disabled":false,"rental_uris":{"android":"levelo://app?vid=95feaf42-579e-4004-8862-d07317e6a0f2","ios":"levelo://app?vid=95feaf42-579e-4004-8862-d07317e6a0f2"},"vehicle_type_id":"4","last_reported":1737234512,"current_range_meters":9600,"station_id":"ce4bhbp2rcd13ifvqerg","pricing_plan_id":"cebpf4jnsgd1na2vs0mg"},{"bike_id":"a32efa7e-6ff1-4b47-8645-f0f6172ab334","system_id":"levelo_inurba_marseille","lat":43.25582,"lon":5.38238,"is_reserved":false,"is_disabled":false,"rental_uris":{"android":"levelo://app?vid=a32efa7e-6ff1-4b47-8645-f0f6172ab334","ios":"levelo://app?vid=a32efa7e-6ff1-4b47-8645-f0f6172ab334"},"vehicle_type_id":"4","last_reported":1737234512,"current_range_meters":25600,"station_id":"ce4bhih2rcd13ifvqfs0","pricing_plan_id":"cebpf4jnsgd1na2vs0mg"},{"bike_id":"c27d82dc-666a-4bba-afc8-f272fed4a787","system_id":"levelo_inurba_marseille","lat":43.28098,"lon":5.3784,"is_reserved":false,"is_disabled":false,"rental_uris":{"android":"levelo://app?vid=c27d82dc-666a-4bba-afc8-f272fed4a787","ios":"levelo://app?vid=c27d82dc-666a-4bba-afc8-f272fed4a787"},"vehicle_type_id":"4","last_reported":1737234512,"current_range_meters":33200,"station_id":"ce4bha12rcd13ifvqee0","pricing_plan_id":"cebpf4jnsgd1na2vs0mg"},{"bike_id":"ab6a36f3-0478-4542-b2c1-73a09c381be9","system_id":"levelo_inurba_marseille","lat":43.29405,"lon":5.38619,"is_reserved":false,"is_disabled":false,"rental_uris":{"android":"levelo://app?vid=ab6a36f3-0478-4542-b2c1-73a09c381be9","ios":"levelo://app?vid=ab6a36f3-0478-4542-b2c1-73a09c381be9"},"vehicle_type_id":"4","last_reported":1737234512,"current_range_meters":28000,"station_id":"ce4bh2h2rcd13ifvqdh0","pricing_plan_id":"cebpf4jnsgd1na2vs0mg"},{"bike_id":"01a07bd9-36a1-4c19-a88b-7c9e3a6ee490","system_id":"levelo_inurba_marseille","lat":43.25092,"lon":5.39514,"is_reserved":false,"is_disabled":false,"rental_uris":{"android":"levelo://app?vid=01a07bd9-36a1-4c19-a88b-7c9e3a6ee490","ios":"levelo://app?vid=01a07bd9-36a1-4c19-a88b-7c9e3a6ee490"},"vehicle_type_id":"4","last_reported":1737234512,"current_range_meters":36000,"station_id":"ce4bhm12rcd13ifvqgkg","pricing_plan_id":"cebpf4jnsgd1na2vs0mg"},{"bike_id":"b0b5b450-5055-4cf9-9abc-490d41233b4e","system_id":"levelo_inurba_marseille","lat":43.28723,"lon":5.37922,"is_reserved":false,"is_disabled":false,"rental_uris":{"android":"levelo://app?vid=b0b5b450-5055-4cf9-9abc-490d41233b4e","ios":"levelo://app?vid=b0b5b450-5055-4cf9-9abc-490d41233b4e"},"vehicle_type_id":"4","last_reported":1737234512,"current_range_meters":22400,"station_id":"ce4bh9p2rcd13ifvqec0","pricing_plan_id":"cebpf4jnsgd1na2vs0mg"},{"bike_id":"15ae32a2-2c27-4797-b7e3-aa42fe88d8b2","system_id":"levelo_inurba_marseille","lat":43.29578,"lon":5.3749,"is_reserved":false,"is_disabled":false,"rental_uris":{"android":"levelo://app?vid=15ae32a2-2c27-4797-b7e3-aa42fe88d8b2","ios":"levelo://app?vid=15ae32a2-2c27-4797-b7e3-aa42fe88d8b2"},"vehicle_type_id":"4","last_reported":1737234512,"current_range_meters":38800,"station_id":"ce4bgh92rcd13ifvqb50","pricing_plan_id":"cebpf4jnsgd1na2vs0mg"},{"bike_id":"24d3b331-52fa-4564-a98e-732c1dea4a32","system_id":"levelo_inurba_marseille","lat":43.27499,"lon":5.42444,"is_reserved":false,"is_disabled":true,"rental_uris":{"android":"levelo://app?vid=24d3b331-52fa-4564-a98e-732c1dea4a32","ios":"levelo://app?vid=24d3b331-52fa-4564-a98e-732c1dea4a32"},"vehicle_type_id":"4","last_reported":1737234512,"current_range_meters":0,"station_id":"ce4bhn92rcd13ifvqgrg","pricing_plan_id":"cebpf4jnsgd1na2vs0mg"},{"bike_id":"9be957d2-26d1-49a4-9f85-b06ee3432064","system_id":"levelo_inurba_marseille","lat":43.33723,"lon":5.39186,"is_reserved":false,"is_disabled":false,"rental_uris":{"android":"levelo://app?vid=9be957d2-26d1-49a4-9f85-b06ee3432064","ios":"levelo://app?vid=9be957d2-26d1-49a4-9f85-b06ee3432064"},"vehicle_type_id":"4","last_reported":1737234512,"current_range_meters":25600,"station_id":"ce4bhr92rcd13ifvqhsg","pricing_plan_id":"cebpf4jnsgd1na2vs0mg"},{"bike_id":"aa9ad96b-e095-4936-9c2b-a5aa8790106e","system_id":"levelo_inurba_marseille","lat":43.29863,"lon":5.36266,"is_reserved":false,"is_disabled":false,"rental_uris":{"android":"levelo://app?vid=aa9ad96b-e095-4936-9c2b-a5aa8790106e","ios":"levelo://app?vid=aa9ad96b-e095-4936-9c2b-a5aa8790106e"},"vehicle_type_id":"4","last_reported":1737234512,"current_range_meters":38400,"station_id":"ce4bgpp2rcd13ifvqc3g","pricing_plan_id":"cebpf4jnsgd1na2vs0mg"},{"bike_id":"524072f1-ace1-43cc-8007-f91dc732b1f7","system_id":"levelo_inurba_marseille","lat":43.25084,"lon":5.39513,"is_reserved":false,"is_disabled":false,"rental_uris":{"android":"levelo://app?vid=524072f1-ace1-43cc-8007-f91dc732b1f7","ios":"levelo://app?vid=524072f1-ace1-43cc-8007-f91dc732b1f7"},"vehicle_type_id":"4","last_reported":1737234512,"current_range_meters":34800,"station_id":"ce4bhm12rcd13ifvqgkg","pricing_plan_id":"cebpf4jnsgd1na2vs0mg"},{"bike_id":"fb45f85d-8548-49c2-b2a4-38487d3213d7","system_id":"levelo_inurba_marseille","lat":43.29573,"lon":5.3751,"is_reserved":false,"is_disabled":false,"rental_uris":{"android":"levelo://app?vid=fb45f85d-8548-49c2-b2a4-38487d3213d7","ios":"levelo://app?vid=fb45f85d-8548-49c2-b2a4-38487d3213d7"},"vehicle_type_id":"4","last_reported":1737234512,"current_range_meters":16000,"station_id":"ce4bgh92rcd13ifvqb50","pricing_plan_id":"cebpf4jnsgd1na2vs0mg"},{"bike_id":"4176cd66-1893-4442-bd75-0360ec9d6e01","system_id":"levelo_inurba_marseille","lat":43.28935,"lon":5.36397,"is_reserved":false,"is_disabled":false,"rental_uris":{"android":"levelo://app?vid=4176cd66-1893-4442-bd75-0360ec9d6e01","ios":"levelo://app?vid=4176cd66-1893-4442-bd75-0360ec9d6e01"},"vehicle_type_id":"4","last_reported":1737234512,"current_range_meters":35200,"station_id":"ce4bhc92rcd13ifvqetg","pricing_plan_id":"cebpf4jnsgd1na2vs0mg"},{"bike_id":"2c7619cb-5195-4a0b-8272-da32eb4cf4e5","system_id":"levelo_inurba_marseille","lat":43.2928,"lon":5.40133,"is_reserved":false,"is_disabled":false,"rental_uris":{"android":"levelo://app?vid=2c7619cb-5195-4a0b-8272-da32eb4cf4e5","ios":"levelo://app?vid=2c7619cb-5195-4a0b-8272-da32eb4cf4e5"},"vehicle_type_id":"4","last_reported":1737234512,"current_range_meters":38800,"station_id":"ce4bh312rcd13ifvqdk0","pricing_plan_id":"cebpf4jnsgd1na2vs0mg"},{"bike_id":"59829282-52a1-4f2c-9ab6-c535355001fb","system_id":"levelo_inurba_marseille","lat":43.3047,"lon":5.38899,"is_reserved":false,"is_disabled":false,"rental_uris":{"android":"levelo://app?vid=59829282-52a1-4f2c-9ab6-c535355001fb","ios":"levelo://app?vid=59829282-52a1-4f2c-9ab6-c535355001fb"},"vehicle_type_id":"4","last_reported":1737234512,"current_range_meters":36800,"station_id":"ce4bgk12rcd13ifvqbi0","pricing_plan_id":"cebpf4jnsgd1na2vs0mg"},{"bike_id":"52944324-56c0-4eb2-bed2-f2a48346d11b","system_id":"levelo_inurba_marseille","lat":43.28353,"lon":5.38094,"is_reserved":false,"is_disabled":false,"rental_uris":{"android":"levelo://app?vid=52944324-56c0-4eb2-bed2-f2a48346d11b","ios":"levelo://app?vid=52944324-56c0-4eb2-bed2-f2a48346d11b"},"vehicle_type_id":"4","last_reported":1737234512,"current_range_meters":27600,"station_id":"ce4bh412rcd13ifvqdr0","pricing_plan_id":"cebpf4jnsgd1na2vs0mg"},{"bike_id":"380031d1-c422-4855-8a2d-794a35303647","system_id":"levelo_inurba_marseille","lat":43.2944,"lon":5.39751,"is_reserved":false,"is_disabled":false,"rental_uris":{"android":"levelo://app?vid=380031d1-c422-4855-8a2d-794a35303647","ios":"levelo://app?vid=380031d1-c422-4855-8a2d-794a35303647"},"vehicle_type_id":"4","last_reported":1737234512,"current_range_meters":28000,"station_id":"ce4bh3h2rcd13ifvqdo0","pricing_plan_id":"cebpf4jnsgd1na2vs0mg"},{"bike_id":"4291632b-b89c-4c47-8e03-1ac2c74e4815","system_id":"levelo_inurba_marseille","lat":43.24168,"lon":5.39716,"is_reserved":false,"is_disabled":false,"rental_uris":{"android":"levelo://app?vid=4291632b-b89c-4c47-8e03-1ac2c74e4815","ios":"levelo://app?vid=4291632b-b89c-4c47-8e03-1ac2c74e4815"},"vehicle_type_id":"4","last_reported":1737234512,"current_range_meters":11600,"station_id":"ce4bhn12rcd13ifvqgpg","pricing_plan_id":"cebpf4jnsgd1na2vs0mg"},{"bike_id":"804b3b4e-2b7b-432d-bee9-ad793eff9ddf","system_id":"levelo_inurba_marseille","lat":43.25721,"lon":5.4111,"is_reserved":false,"is_disabled":false,"rental_uris":{"android":"levelo://app?vid=804b3b4e-2b7b-432d-bee9-ad793eff9ddf","ios":"levelo://app?vid=804b3b4e-2b7b-432d-bee9-ad793eff9ddf"},"vehicle_type_id":"4","last_reported":1737234512,"current_range_meters":9600,"station_id":"ce4bhkp2rcd13ifvqgd0","pricing_plan_id":"cebpf4jnsgd1na2vs0mg"},{"bike_id":"cf99162e-0fda-4f8f-baa6-b0dba53f0e01","system_id":"levelo_inurba_marseille","lat":43.2898,"lon":5.38532,"is_reserved":false,"is_disabled":false,"rental_uris":{"android":"levelo://app?vid=cf99162e-0fda-4f8f-baa6-b0dba53f0e01","ios":"levelo://app?vid=cf99162e-0fda-4f8f-baa6-b0dba53f0e01"},"vehicle_type_id":"4","last_reported":1737234512,"current_range_meters":38800,"station_id":"ce4bh4p2rcd13ifvqe0g","pricing_plan_id":"cebpf4jnsgd1na2vs0mg"},{"bike_id":"dfd96ebd-2cae-4ab5-8d13-f6e62258957e","system_id":"levelo_inurba_marseille","lat":43.31719,"lon":5.42404,"is_reserved":false,"is_disabled":false,"rental_uris":{"android":"levelo://app?vid=dfd96ebd-2cae-4ab5-8d13-f6e62258957e","ios":"levelo://app?vid=dfd96ebd-2cae-4ab5-8d13-f6e62258957e"},"vehicle_type_id":"4","last_reported":1737234512,"current_range_meters":38800,"station_id":"ce4bhp92rcd13ifvqhbg","pricing_plan_id":"cebpf4jnsgd1na2vs0mg"},{"bike_id":"705fda08-81e6-4eb6-a216-a2b7deca13b7","system_id":"levelo_inurba_marseille","lat":43.29254,"lon":5.38457,"is_reserved":false,"is_disabled":false,"rental_uris":{"android":"levelo://app?vid=705fda08-81e6-4eb6-a216-a2b7deca13b7","ios":"levelo://app?vid=705fda08-81e6-4eb6-a216-a2b7deca13b7"},"vehicle_type_id":"4","last_reported":1737234512,"current_range_meters":38800,"station_id":"ce4bh692rcd13ifvqea0","pricing_plan_id":"cebpf4jnsgd1na2vs0mg"},{"bike_id":"13d3fd97-e21c-4164-8b58-6e6c0cfe1ec1","system_id":"levelo_inurba_marseille","lat":43.28028,"lon":5.36959,"is_reserved":false,"is_disabled":false,"rental_uris":{"android":"levelo://app?vid=13d3fd97-e21c-4164-8b58-6e6c0cfe1ec1","ios":"levelo://app?vid=13d3fd97-e21c-4164-8b58-6e6c0cfe1ec1"},"vehicle_type_id":"4","last_reported":1737234512,"current_range_meters":38800,"station_id":"ce4bha12rcd13ifvqef0","pricing_plan_id":"cebpf4jnsgd1na2vs0mg"},{"bike_id":"fae143cc-e0b7-42e0-ac41-6327643321d0","system_id":"levelo_inurba_marseille","lat":43.25853,"lon":5.39419,"is_reserved":false,"is_disabled":false,"rental_uris":{"android":"levelo://app?vid=fae143cc-e0b7-42e0-ac41-6327643321d0","ios":"levelo://app?vid=fae143cc-e0b7-42e0-ac41-6327643321d0"},"vehicle_type_id":"4","last_reported":1737234512,"current_range_meters":30800,"station_id":"ce4bhip2rcd13ifvqft0","pricing_plan_id":"cebpf4jnsgd1na2vs0mg"},{"bike_id":"bcd96ff4-f53b-4513-aba6-d7a0a8f8f0c1","system_id":"levelo_inurba_marseille","lat":43.25823,"lon":5.39425,"is_reserved":false,"is_disabled":false,"rental_uris":{"android":"levelo://app?vid=bcd96ff4-f53b-4513-aba6-d7a0a8f8f0c1","ios":"levelo://app?vid=bcd96ff4-f53b-4513-aba6-d7a0a8f8f0c1"},"vehicle_type_id":"4","last_reported":1737234512,"current_range_meters":29600,"station_id":"ce4bhip2rcd13ifvqft0","pricing_plan_id":"cebpf4jnsgd1na2vs0mg"},{"bike_id":"6934a120-854e-46c6-8426-e359803eb595","system_id":"levelo_inurba_marseille","lat":43.29045,"lon":5.37161,"is_reserved":false,"is_disabled":false,"rental_uris":{"android":"levelo://app?vid=6934a120-854e-46c6-8426-e359803eb595","ios":"levelo://app?vid=6934a120-854e-46c6-8426-e359803eb595"},"vehicle_type_id":"4","last_reported":1737234512,"current_range_meters":36400,"station_id":"ce4bh5p2rcd13ifvqe4g","pricing_plan_id":"cebpf4jnsgd1na2vs0mg"},{"bike_id":"1e439018-c0d6-4a96-9cf0-6ec46d1fa22b","system_id":"levelo_inurba_marseille","lat":43.33014,"lon":5.39036,"is_reserved":false,"is_disabled":false,"rental_uris":{"android":"levelo://app?vid=1e439018-c0d6-4a96-9cf0-6ec46d1fa22b","ios":"levelo://app?vid=1e439018-c0d6-4a96-9cf0-6ec46d1fa22b"},"vehicle_type_id":"4","last_reported":1737234512,"current_range_meters":38000,"station_id":"ce4bhr92rcd13ifvqhrg","pricing_plan_id":"cebpf4jnsgd1na2vs0mg"},{"bike_id":"f4a4a406-b0a5-42fc-9236-32e93ac6f6b2","system_id":"levelo_inurba_marseille","lat":43.2317,"lon":5.43731,"is_reserved":false,"is_disabled":true,"rental_uris":{"android":"levelo://app?vid=f4a4a406-b0a5-42fc-9236-32e93ac6f6b2","ios":"levelo://app?vid=f4a4a406-b0a5-42fc-9236-32e93ac6f6b2"},"vehicle_type_id":"4","last_reported":1737234512,"current_range_meters":28400,"station_id":"ce4bhmp2rcd13ifvqgog","pricing_plan_id":"cebpf4jnsgd1na2vs0mg"},{"bike_id":"210ffe2d-27bf-471a-a897-ba0eb55d9e2b","system_id":"levelo_inurba_marseille","lat":43.27077,"lon":5.42282,"is_reserved":false,"is_disabled":false,"rental_uris":{"android":"levelo://app?vid=210ffe2d-27bf-471a-a897-ba0eb55d9e2b","ios":"levelo://app?vid=210ffe2d-27bf-471a-a897-ba0eb55d9e2b"},"vehicle_type_id":"4","last_reported":1737234512,"current_range_meters":38400,"station_id":"ce4bhk92rcd13ifvqgb0","pricing_plan_id":"cebpf4jnsgd1na2vs0mg"},{"bike_id":"801ee5c2-94c0-4d04-a046-f787ca2a34cf","system_id":"levelo_inurba_marseille","lat":43.2998,"lon":5.38484,"is_reserved":false,"is_disabled":false,"rental_uris":{"android":"levelo://app?vid=801ee5c2-94c0-4d04-a046-f787ca2a34cf","ios":"levelo://app?vid=801ee5c2-94c0-4d04-a046-f787ca2a34cf"},"vehicle_type_id":"4","last_reported":1737234512,"current_range_meters":24400,"station_id":"ce4bgj92rcd13ifvqbd0","pricing_plan_id":"cebpf4jnsgd1na2vs0mg"},{"bike_id":"cc0dd3d3-b8e8-4fc7-b56a-d6e907bddf18","system_id":"levelo_inurba_marseille","lat":43.29554,"lon":5.42293,"is_reserved":false,"is_disabled":true,"rental_uris":{"android":"levelo://app?vid=cc0dd3d3-b8e8-4fc7-b56a-d6e907bddf18","ios":"levelo://app?vid=cc0dd3d3-b8e8-4fc7-b56a-d6e907bddf18"},"vehicle_type_id":"4","last_reported":1737234512,"current_range_meters":400,"station_id":"ce4bhph2rcd13ifvqhdg","pricing_plan_id":"cebpf4jnsgd1na2vs0mg"},{"bike_id":"e58842d1-b457-4207-9932-2223f4bcc961","system_id":"levelo_inurba_marseille","lat":43.29258,"lon":5.38429,"is_reserved":false,"is_disabled":false,"rental_uris":{"android":"levelo://app?vid=e58842d1-b457-4207-9932-2223f4bcc961","ios":"levelo://app?vid=e58842d1-b457-4207-9932-2223f4bcc961"},"vehicle_type_id":"4","last_reported":1737234512,"current_range_meters":26800,"station_id":"ce4bh692rcd13ifvqea0","pricing_plan_id":"cebpf4jnsgd1na2vs0mg"},{"bike_id":"60da0e0a-a754-4a43-91ae-9193ec07a50f","system_id":"levelo_inurba_marseille","lat":43.30163,"lon":5.37411,"is_reserved":false,"is_disabled":false,"rental_uris":{"android":"levelo://app?vid=60da0e0a-a754-4a43-91ae-9193ec07a50f","ios":"levelo://app?vid=60da0e0a-a754-4a43-91ae-9193ec07a50f"},"vehicle_type_id":"4","last_reported":1737234512,"current_range_meters":38800,"station_id":"ce4bgs92rcd13ifvqcc0","pricing_plan_id":"cebpf4jnsgd1na2vs0mg"},{"bike_id":"fe894921-bf20-4f14-9495-d42995bd8afe","system_id":"levelo_inurba_marseille","lat":43.30153,"lon":5.38078,"is_reserved":false,"is_disabled":false,"rental_uris":{"android":"levelo://app?vid=fe894921-bf20-4f14-9495-d42995bd8afe","ios":"levelo://app?vid=fe894921-bf20-4f14-9495-d42995bd8afe"},"vehicle_type_id":"4","last_reported":1737234512,"current_range_meters":38400,"station_id":"ce4bgjp2rcd13ifvqbh0","pricing_plan_id":"cebpf4jnsgd1na2vs0mg"},{"bike_id":"73b2f321-6711-405f-bf12-48fafa008932","system_id":"levelo_inurba_marseille","lat":43.29609,"lon":5.37725,"is_reserved":false,"is_disabled":false,"rental_uris":{"android":"levelo://app?vid=73b2f321-6711-405f-bf12-48fafa008932","ios":"levelo://app?vid=73b2f321-6711-405f-bf12-48fafa008932"},"vehicle_type_id":"4","last_reported":1737234512,"current_range_meters":26000,"station_id":"ce4bgi92rcd13ifvqb90","pricing_plan_id":"cebpf4jnsgd1na2vs0mg"},{"bike_id":"b58dcef5-cab9-4732-933d-c18fb8a74b04","system_id":"levelo_inurba_marseille","lat":43.2315,"lon":5.43718,"is_reserved":false,"is_disabled":true,"rental_uris":{"android":"levelo://app?vid=b58dcef5-cab9-4732-933d-c18fb8a74b04","ios":"levelo://app?vid=b58dcef5-cab9-4732-933d-c18fb8a74b04"},"vehicle_type_id":"4","last_reported":1737234512,"current_range_meters":0,"station_id":"ce4bhmp2rcd13ifvqgog","pricing_plan_id":"cebpf4jnsgd1na2vs0mg"},{"bike_id":"d4cf45bc-3db6-492f-bf07-24da2861d14c","system_id":"levelo_inurba_marseille","lat":43.29228,"lon":5.3607,"is_reserved":false,"is_disabled":false,"rental_uris":{"android":"levelo://app?vid=d4cf45bc-3db6-492f-bf07-24da2861d14c","ios":"levelo://app?vid=d4cf45bc-3db6-492f-bf07-24da2861d14c"},"vehicle_type_id":"4","last_reported":1737234512,"current_range_meters":18000,"station_id":"ce4bhbh2rcd13ifvqeqg","pricing_plan_id":"cebpf4jnsgd1na2vs0mg"},{"bike_id":"56bc8aaf-0f94-4e50-98d4-bba0e99201f1","system_id":"levelo_inurba_marseille","lat":43.2572,"lon":5.41113,"is_reserved":false,"is_disabled":false,"rental_uris":{"android":"levelo://app?vid=56bc8aaf-0f94-4e50-98d4-bba0e99201f1","ios":"levelo://app?vid=56bc8aaf-0f94-4e50-98d4-bba0e99201f1"},"vehicle_type_id":"4","last_reported":1737234512,"current_range_meters":24400,"station_id":"ce4bhkp2rcd13ifvqgd0","pricing_plan_id":"cebpf4jnsgd1na2vs0mg"},{"bike_id":"a2db4274-ccf5-421f-87c6-f7cc5d30f362","system_id":"levelo_inurba_marseille","lat":43.31061,"lon":5.38346,"is_reserved":false,"is_disabled":false,"rental_uris":{"android":"levelo://app?vid=a2db4274-ccf5-421f-87c6-f7cc5d30f362","ios":"levelo://app?vid=a2db4274-ccf5-421f-87c6-f7cc5d30f362"},"vehicle_type_id":"4","last_reported":1737234512,"current_range_meters":30800,"station_id":"ce4bgv92rcd13ifvqcr0","pricing_plan_id":"cebpf4jnsgd1na2vs0mg"},{"bike_id":"234d1550-b7dd-465b-9578-32049a642f2b","system_id":"levelo_inurba_marseille","lat":43.29974,"lon":5.41316,"is_reserved":false,"is_disabled":false,"rental_uris":{"android":"levelo://app?vid=234d1550-b7dd-465b-9578-32049a642f2b","ios":"levelo://app?vid=234d1550-b7dd-465b-9578-32049a642f2b"},"vehicle_type_id":"4","last_reported":1737234512,"current_range_meters":37600,"station_id":"ce4bhp12rcd13ifvqh9g","pricing_plan_id":"cebpf4jnsgd1na2vs0mg"},{"bike_id":"adf74050-b3cd-46a0-8d63-eff21c39db05","system_id":"levelo_inurba_marseille","lat":43.29413,"lon":5.38616,"is_reserved":false,"is_disabled":false,"rental_uris":{"android":"levelo://app?vid=adf74050-b3cd-46a0-8d63-eff21c39db05","ios":"levelo://app?vid=adf74050-b3cd-46a0-8d63-eff21c39db05"},"vehicle_type_id":"4","last_reported":1737234512,"current_range_meters":35600,"station_id":"ce4bh2h2rcd13ifvqdh0","pricing_plan_id":"cebpf4jnsgd1na2vs0mg"},{"bike_id":"81311a23-5b42-470e-9db7-c473c886755e","system_id":"levelo_inurba_marseille","lat":43.29523,"lon":5.38521,"is_reserved":false,"is_disabled":false,"rental_uris":{"android":"levelo://app?vid=81311a23-5b42-470e-9db7-c473c886755e","ios":"levelo://app?vid=81311a23-5b42-470e-9db7-c473c886755e"},"vehicle_type_id":"4","last_reported":1737234512,"current_range_meters":38000,"station_id":"ce4bgih2rcd13ifvqba0","pricing_plan_id":"cebpf4jnsgd1na2vs0mg"},{"bike_id":"4253c13e-20e9-4dd5-935b-592c9eb13235","system_id":"levelo_inurba_marseille","lat":43.29258,"lon":5.38443,"is_reserved":false,"is_disabled":false,"rental_uris":{"android":"levelo://app?vid=4253c13e-20e9-4dd5-935b-592c9eb13235","ios":"levelo://app?vid=4253c13e-20e9-4dd5-935b-592c9eb13235"},"vehicle_type_id":"4","last_reported":1737234512,"current_range_meters":17600,"station_id":"ce4bh692rcd13ifvqea0","pricing_plan_id":"cebpf4jnsgd1na2vs0mg"},{"bike_id":"7bf0bafb-3341-4dbd-9142-169786e15f4c","system_id":"levelo_inurba_marseille","lat":43.24806,"lon":5.37457,"is_reserved":false,"is_disabled":false,"rental_uris":{"android":"levelo://app?vid=7bf0bafb-3341-4dbd-9142-169786e15f4c","ios":"levelo://app?vid=7bf0bafb-3341-4dbd-9142-169786e15f4c"},"vehicle_type_id":"4","last_reported":1737234512,"current_range_meters":10000,"station_id":"ce4bhgh2rcd13ifvqfb0","pricing_plan_id":"cebpf4jnsgd1na2vs0mg"},{"bike_id":"92ab380d-3485-4143-a7fc-baf461c7cec7","system_id":"levelo_inurba_marseille","lat":43.29523,"lon":5.39025,"is_reserved":false,"is_disabled":false,"rental_uris":{"android":"levelo://app?vid=92ab380d-3485-4143-a7fc-baf461c7cec7","ios":"levelo://app?vid=92ab380d-3485-4143-a7fc-baf461c7cec7"},"vehicle_type_id":"4","last_reported":1737234512,"current_range_meters":24400,"station_id":"ce4bh3p2rcd13ifvqdp0","pricing_plan_id":"cebpf4jnsgd1na2vs0mg"},{"bike_id":"7dd58236-9017-4bda-9db1-3a5edc7d30e2","system_id":"levelo_inurba_marseille","lat":43.29426,"lon":5.3862,"is_reserved":false,"is_disabled":false,"rental_uris":{"android":"levelo://app?vid=7dd58236-9017-4bda-9db1-3a5edc7d30e2","ios":"levelo://app?vid=7dd58236-9017-4bda-9db1-3a5edc7d30e2"},"vehicle_type_id":"4","last_reported":1737234512,"current_range_meters":2800,"station_id":"ce4bh2h2rcd13ifvqdh0","pricing_plan_id":"cebpf4jnsgd1na2vs0mg"},{"bike_id":"bb3bbf4d-a6a0-40de-9251-f95972a204b7","system_id":"levelo_inurba_marseille","lat":43.29976,"lon":5.38482,"is_reserved":false,"is_disabled":false,"rental_uris":{"android":"levelo://app?vid=bb3bbf4d-a6a0-40de-9251-f95972a204b7","ios":"levelo://app?vid=bb3bbf4d-a6a0-40de-9251-f95972a204b7"},"vehicle_type_id":"4","last_reported":1737234512,"current_range_meters":33600,"station_id":"ce4bgj92rcd13ifvqbd0","pricing_plan_id":"cebpf4jnsgd1na2vs0mg"},{"bike_id":"56b8e9bc-f750-4815-bc98-9098414d16db","system_id":"levelo_inurba_marseille","lat":43.23199,"lon":5.35546,"is_reserved":false,"is_disabled":true,"rental_uris":{"android":"levelo://app?vid=56b8e9bc-f750-4815-bc98-9098414d16db","ios":"levelo://app?vid=56b8e9bc-f750-4815-bc98-9098414d16db"},"vehicle_type_id":"4","last_reported":1737234512,"current_range_meters":0,"station_id":"ce4bhu92rcd13ifvqi70","pricing_plan_id":"cebpf4jnsgd1na2vs0mg"},{"bike_id":"0e91b70c-1e42-4d65-a90a-72cbd40954b0","system_id":"levelo_inurba_marseille","lat":43.32363,"lon":5.36747,"is_reserved":false,"is_disabled":false,"rental_uris":{"android":"levelo://app?vid=0e91b70c-1e42-4d65-a90a-72cbd40954b0","ios":"levelo://app?vid=0e91b70c-1e42-4d65-a90a-72cbd40954b0"},"vehicle_type_id":"4","last_reported":1737234512,"current_range_meters":9600,"station_id":"ce4bhsh2rcd13ifvqi2g","pricing_plan_id":"cebpf4jnsgd1na2vs0mg"},{"bike_id":"fcff8b6e-6484-4e4c-8d98-9ab325ed2e27","system_id":"levelo_inurba_marseille","lat":43.32466,"lon":5.36548,"is_reserved":false,"is_disabled":false,"rental_uris":{"android":"levelo://app?vid=fcff8b6e-6484-4e4c-8d98-9ab325ed2e27","ios":"levelo://app?vid=fcff8b6e-6484-4e4c-8d98-9ab325ed2e27"},"vehicle_type_id":"4","last_reported":1737234512,"current_range_meters":8800,"station_id":"ce4bhs12rcd13ifvqhvg","pricing_plan_id":"cebpf4jnsgd1na2vs0mg"},{"bike_id":"f82a92f3-88f0-4adc-92de-4c6bd3425679","system_id":"levelo_inurba_marseille","lat":43.29421,"lon":5.38619,"is_reserved":false,"is_disabled":false,"rental_uris":{"android":"levelo://app?vid=f82a92f3-88f0-4adc-92de-4c6bd3425679","ios":"levelo://app?vid=f82a92f3-88f0-4adc-92de-4c6bd3425679"},"vehicle_type_id":"4","last_reported":1737234512,"current_range_meters":14400,"station_id":"ce4bh2h2rcd13ifvqdh0","pricing_plan_id":"cebpf4jnsgd1na2vs0mg"},{"bike_id":"109157e6-212e-4848-a8d7-cec99b3c5237","system_id":"levelo_inurba_marseille","lat":43.29057,"lon":5.37153,"is_reserved":false,"is_disabled":false,"rental_uris":{"android":"levelo://app?vid=109157e6-212e-4848-a8d7-cec99b3c5237","ios":"levelo://app?vid=109157e6-212e-4848-a8d7-cec99b3c5237"},"vehicle_type_id":"4","last_reported":1737234512,"current_range_meters":10000,"station_id":"ce4bh5p2rcd13ifvqe4g","pricing_plan_id":"cebpf4jnsgd1na2vs0mg"},{"bike_id":"3fc83956-a2cd-441f-93bc-4508418b1783","system_id":"levelo_inurba_marseille","lat":43.29912,"lon":5.37469,"is_reserved":false,"is_disabled":false,"rental_uris":{"android":"levelo://app?vid=3fc83956-a2cd-441f-93bc-4508418b1783","ios":"levelo://app?vid=3fc83956-a2cd-441f-93bc-4508418b1783"},"vehicle_type_id":"4","last_reported":1737234512,"current_range_meters":14400,"station_id":"ce4bgjh2rcd13ifvqbg0","pricing_plan_id":"cebpf4jnsgd1na2vs0mg"},{"bike_id":"0966a8a8-2d5b-449d-8d62-52bfeeb2bcde","system_id":"levelo_inurba_marseille","lat":43.29744,"lon":5.37653,"is_reserved":false,"is_disabled":true,"rental_uris":{"android":"levelo://app?vid=0966a8a8-2d5b-449d-8d62-52bfeeb2bcde","ios":"levelo://app?vid=0966a8a8-2d5b-449d-8d62-52bfeeb2bcde"},"vehicle_type_id":"4","last_reported":1737234512,"current_range_meters":38800,"station_id":"ce4bgkh2rcd13ifvqbl0","pricing_plan_id":"cebpf4jnsgd1na2vs0mg"},{"bike_id":"22465212-93af-4e0b-b803-6ee82bba56d5","system_id":"levelo_inurba_marseille","lat":43.33759,"lon":5.3748,"is_reserved":false,"is_disabled":false,"rental_uris":{"android":"levelo://app?vid=22465212-93af-4e0b-b803-6ee82bba56d5","ios":"levelo://app?vid=22465212-93af-4e0b-b803-6ee82bba56d5"},"vehicle_type_id":"4","last_reported":1737234512,"current_range_meters":31200,"station_id":"","pricing_plan_id":"cebpf4jnsgd1na2vs0mg"},{"bike_id":"5ff17846-36a7-43b8-be24-eaedb0e6b6f8","system_id":"levelo_inurba_marseille","lat":43.29534,"lon":5.3854,"is_reserved":false,"is_disabled":false,"rental_uris":{"android":"levelo://app?vid=5ff17846-36a7-43b8-be24-eaedb0e6b6f8","ios":"levelo://app?vid=5ff17846-36a7-43b8-be24-eaedb0e6b6f8"},"vehicle_type_id":"4","last_reported":1737234512,"current_range_meters":24000,"station_id":"ce4bgih2rcd13ifvqba0","pricing_plan_id":"cebpf4jnsgd1na2vs0mg"},{"bike_id":"2ad30185-9f19-4f02-b429-49ca23176dc3","system_id":"levelo_inurba_marseille","lat":43.29168,"lon":5.37169,"is_reserved":false,"is_disabled":false,"rental_uris":{"android":"levelo://app?vid=2ad30185-9f19-4f02-b429-49ca23176dc3","ios":"levelo://app?vid=2ad30185-9f19-4f02-b429-49ca23176dc3"},"vehicle_type_id":"4","last_reported":1737234512,"current_range_meters":18000,"station_id":"ce4bha92rcd13ifvqeh0","pricing_plan_id":"cebpf4jnsgd1na2vs0mg"},{"bike_id":"19fb1931-f075-402c-a076-088e72accb76","system_id":"levelo_inurba_marseille","lat":43.24805,"lon":5.37456,"is_reserved":false,"is_disabled":false,"rental_uris":{"android":"levelo://app?vid=19fb1931-f075-402c-a076-088e72accb76","ios":"levelo://app?vid=19fb1931-f075-402c-a076-088e72accb76"},"vehicle_type_id":"4","last_reported":1737234512,"current_range_meters":14000,"station_id":"ce4bhgh2rcd13ifvqfb0","pricing_plan_id":"cebpf4jnsgd1na2vs0mg"},{"bike_id":"081f780a-421e-4d29-9981-68dbb84da5f6","system_id":"levelo_inurba_marseille","lat":43.317589,"lon":5.390133,"is_reserved":false,"is_disabled":false,"rental_uris":{"android":"levelo://app?vid=081f780a-421e-4d29-9981-68dbb84da5f6","ios":"levelo://app?vid=081f780a-421e-4d29-9981-68dbb84da5f6"},"vehicle_type_id":"4","last_reported":1737234512,"current_range_meters":38400,"station_id":"ce4bhqp2rcd13ifvqhng","pricing_plan_id":"cebpf4jnsgd1na2vs0mg"},{"bike_id":"86b1129b-34c7-4cb1-acb7-46aa8942c62c","system_id":"levelo_inurba_marseille","lat":43.23159,"lon":5.43705,"is_reserved":false,"is_disabled":true,"rental_uris":{"android":"levelo://app?vid=86b1129b-34c7-4cb1-acb7-46aa8942c62c","ios":"levelo://app?vid=86b1129b-34c7-4cb1-acb7-46aa8942c62c"},"vehicle_type_id":"4","last_reported":1737234512,"current_range_meters":0,"station_id":"ce4bhmp2rcd13ifvqgog","pricing_plan_id":"cebpf4jnsgd1na2vs0mg"},{"bike_id":"de68bfee-0df0-41e2-b330-023ccd9128e0","system_id":"levelo_inurba_marseille","lat":43.272797,"lon":5.391886,"is_reserved":false,"is_disabled":false,"rental_uris":{"android":"levelo://app?vid=de68bfee-0df0-41e2-b330-023ccd9128e0","ios":"levelo://app?vid=de68bfee-0df0-41e2-b330-023ccd9128e0"},"vehicle_type_id":"4","last_reported":1737234512,"current_range_meters":9200,"station_id":"ce4bhhp2rcd13ifvqfm0","pricing_plan_id":"cebpf4jnsgd1na2vs0mg"},{"bike_id":"d9c5424c-2ffb-407d-aa3f-ecdabb59fa0b","system_id":"levelo_inurba_marseille","lat":43.29063,"lon":5.37163,"is_reserved":false,"is_disabled":false,"rental_uris":{"android":"levelo://app?vid=d9c5424c-2ffb-407d-aa3f-ecdabb59fa0b","ios":"levelo://app?vid=d9c5424c-2ffb-407d-aa3f-ecdabb59fa0b"},"vehicle_type_id":"4","last_reported":1737234512,"current_range_meters":20400,"station_id":"ce4bh5p2rcd13ifvqe4g","pricing_plan_id":"cebpf4jnsgd1na2vs0mg"},{"bike_id":"42204394-d4a6-4814-b25b-626fdb434ebb","system_id":"levelo_inurba_marseille","lat":43.29421,"lon":5.38632,"is_reserved":false,"is_disabled":false,"rental_uris":{"android":"levelo://app?vid=42204394-d4a6-4814-b25b-626fdb434ebb","ios":"levelo://app?vid=42204394-d4a6-4814-b25b-626fdb434ebb"},"vehicle_type_id":"4","last_reported":1737234512,"current_range_meters":33600,"station_id":"ce4bh2h2rcd13ifvqdh0","pricing_plan_id":"cebpf4jnsgd1na2vs0mg"},{"bike_id":"c6f874ed-7baa-4ffa-b8dc-93b47368c64c","system_id":"levelo_inurba_marseille","lat":43.27372,"lon":5.3623,"is_reserved":false,"is_disabled":false,"rental_uris":{"android":"levelo://app?vid=c6f874ed-7baa-4ffa-b8dc-93b47368c64c","ios":"levelo://app?vid=c6f874ed-7baa-4ffa-b8dc-93b47368c64c"},"vehicle_type_id":"4","last_reported":1737234512,"current_range_meters":35200,"station_id":"ce4bhbh2rcd13ifvqeo0","pricing_plan_id":"cebpf4jnsgd1na2vs0mg"},{"bike_id":"82eafdac-bd81-479d-a7b0-05db8ca76c26","system_id":"levelo_inurba_marseille","lat":43.258258,"lon":5.394329,"is_reserved":false,"is_disabled":true,"rental_uris":{"android":"levelo://app?vid=82eafdac-bd81-479d-a7b0-05db8ca76c26","ios":"levelo://app?vid=82eafdac-bd81-479d-a7b0-05db8ca76c26"},"vehicle_type_id":"4","last_reported":1737234512,"current_range_meters":0,"station_id":"ce4bhip2rcd13ifvqft0","pricing_plan_id":"cebpf4jnsgd1na2vs0mg"},{"bike_id":"69f71ef4-35ff-491f-b999-c5850f4e11bb","system_id":"levelo_inurba_marseille","lat":43.29417,"lon":5.38631,"is_reserved":false,"is_disabled":false,"rental_uris":{"android":"levelo://app?vid=69f71ef4-35ff-491f-b999-c5850f4e11bb","ios":"levelo://app?vid=69f71ef4-35ff-491f-b999-c5850f4e11bb"},"vehicle_type_id":"4","last_reported":1737234512,"current_range_meters":24400,"station_id":"ce4bh2h2rcd13ifvqdh0","pricing_plan_id":"cebpf4jnsgd1na2vs0mg"},{"bike_id":"6db7ac2a-936b-4934-bdad-0738a951388e","system_id":"levelo_inurba_marseille","lat":43.26563,"lon":5.39009,"is_reserved":false,"is_disabled":true,"rental_uris":{"android":"levelo://app?vid=6db7ac2a-936b-4934-bdad-0738a951388e","ios":"levelo://app?vid=6db7ac2a-936b-4934-bdad-0738a951388e"},"vehicle_type_id":"4","last_reported":1737234512,"current_range_meters":1600,"station_id":"ce4bhe12rcd13ifvqf30","pricing_plan_id":"cebpf4jnsgd1na2vs0mg"},{"bike_id":"0d51cdbb-323f-4a82-9d51-32fc344d7fab","system_id":"levelo_inurba_marseille","lat":43.29269,"lon":5.36843,"is_reserved":false,"is_disabled":false,"rental_uris":{"android":"levelo://app?vid=0d51cdbb-323f-4a82-9d51-32fc344d7fab","ios":"levelo://app?vid=0d51cdbb-323f-4a82-9d51-32fc344d7fab"},"vehicle_type_id":"4","last_reported":1737234512,"current_range_meters":6000,"station_id":"ce4bhbp2rcd13ifvqesg","pricing_plan_id":"cebpf4jnsgd1na2vs0mg"},{"bike_id":"e63dbaa0-48fa-47bb-8b50-740c4c2aabb9","system_id":"levelo_inurba_marseille","lat":43.27062,"lon":5.40258,"is_reserved":false,"is_disabled":false,"rental_uris":{"android":"levelo://app?vid=e63dbaa0-48fa-47bb-8b50-740c4c2aabb9","ios":"levelo://app?vid=e63dbaa0-48fa-47bb-8b50-740c4c2aabb9"},"vehicle_type_id":"4","last_reported":1737234512,"current_range_meters":38800,"station_id":"ce4bhk92rcd13ifvqgc0","pricing_plan_id":"cebpf4jnsgd1na2vs0mg"},{"bike_id":"53cb841e-97d5-484a-920d-6604dcbfa48e","system_id":"levelo_inurba_marseille","lat":43.30142,"lon":5.37427,"is_reserved":false,"is_disabled":false,"rental_uris":{"android":"levelo://app?vid=53cb841e-97d5-484a-920d-6604dcbfa48e","ios":"levelo://app?vid=53cb841e-97d5-484a-920d-6604dcbfa48e"},"vehicle_type_id":"4","last_reported":1737234512,"current_range_meters":7200,"station_id":"ce4bgs92rcd13ifvqcc0","pricing_plan_id":"cebpf4jnsgd1na2vs0mg"},{"bike_id":"44e1449d-b78d-4a96-b15d-f72be207072c","system_id":"levelo_inurba_marseille","lat":43.30794,"lon":5.38159,"is_reserved":false,"is_disabled":false,"rental_uris":{"android":"levelo://app?vid=44e1449d-b78d-4a96-b15d-f72be207072c","ios":"levelo://app?vid=44e1449d-b78d-4a96-b15d-f72be207072c"},"vehicle_type_id":"4","last_reported":1737234512,"current_range_meters":23200,"station_id":"ce4bgt12rcd13ifvqce0","pricing_plan_id":"cebpf4jnsgd1na2vs0mg"},{"bike_id":"e57099b8-cfdc-494d-9409-8e8b71418803","system_id":"levelo_inurba_marseille","lat":43.27569,"lon":5.38431,"is_reserved":false,"is_disabled":false,"rental_uris":{"android":"levelo://app?vid=e57099b8-cfdc-494d-9409-8e8b71418803","ios":"levelo://app?vid=e57099b8-cfdc-494d-9409-8e8b71418803"},"vehicle_type_id":"4","last_reported":1737234512,"current_range_meters":22800,"station_id":"ce4bhh92rcd13ifvqfi0","pricing_plan_id":"cebpf4jnsgd1na2vs0mg"},{"bike_id":"22af0820-76c6-4a54-966b-11cfa7c09183","system_id":"levelo_inurba_marseille","lat":43.29274,"lon":5.40115,"is_reserved":false,"is_disabled":false,"rental_uris":{"android":"levelo://app?vid=22af0820-76c6-4a54-966b-11cfa7c09183","ios":"levelo://app?vid=22af0820-76c6-4a54-966b-11cfa7c09183"},"vehicle_type_id":"4","last_reported":1737234512,"current_range_meters":1200,"station_id":"ce4bh312rcd13ifvqdk0","pricing_plan_id":"cebpf4jnsgd1na2vs0mg"},{"bike_id":"f2390374-e060-4fe1-bcfa-cb2711193e58","system_id":"levelo_inurba_marseille","lat":43.25089,"lon":5.39517,"is_reserved":false,"is_disabled":false,"rental_uris":{"android":"levelo://app?vid=f2390374-e060-4fe1-bcfa-cb2711193e58","ios":"levelo://app?vid=f2390374-e060-4fe1-bcfa-cb2711193e58"},"vehicle_type_id":"4","last_reported":1737234512,"current_range_meters":9200,"station_id":"ce4bhm12rcd13ifvqgkg","pricing_plan_id":"cebpf4jnsgd1na2vs0mg"},{"bike_id":"d922a541-8d59-49fe-8950-daca6d5f04c0","system_id":"levelo_inurba_marseille","lat":43.29252,"lon":5.40913,"is_reserved":false,"is_disabled":false,"rental_uris":{"android":"levelo://app?vid=d922a541-8d59-49fe-8950-daca6d5f04c0","ios":"levelo://app?vid=d922a541-8d59-49fe-8950-daca6d5f04c0"},"vehicle_type_id":"4","last_reported":1737234512,"current_range_meters":35200,"station_id":"ce4bh192rcd13ifvqdc0","pricing_plan_id":"cebpf4jnsgd1na2vs0mg"},{"bike_id":"500603b8-9c9f-45d0-9559-dd810ee253ec","system_id":"levelo_inurba_marseille","lat":43.2925,"lon":5.38445,"is_reserved":false,"is_disabled":false,"rental_uris":{"android":"levelo://app?vid=500603b8-9c9f-45d0-9559-dd810ee253ec","ios":"levelo://app?vid=500603b8-9c9f-45d0-9559-dd810ee253ec"},"vehicle_type_id":"4","last_reported":1737234512,"current_range_meters":27600,"station_id":"ce4bh692rcd13ifvqea0","pricing_plan_id":"cebpf4jnsgd1na2vs0mg"},{"bike_id":"d6161db6-0288-4eaf-b39b-605e25ca46ff","system_id":"levelo_inurba_marseille","lat":43.274259,"lon":5.394023,"is_reserved":false,"is_disabled":false,"rental_uris":{"android":"levelo://app?vid=d6161db6-0288-4eaf-b39b-605e25ca46ff","ios":"levelo://app?vid=d6161db6-0288-4eaf-b39b-605e25ca46ff"},"vehicle_type_id":"4","last_reported":1737234512,"current_range_meters":38800,"station_id":"ce4bhdp2rcd13ifvqf20","pricing_plan_id":"cebpf4jnsgd1na2vs0mg"},{"bike_id":"d4ef21e3-2fff-4209-a87c-6f5d806d4929","system_id":"levelo_inurba_marseille","lat":43.28673,"lon":5.38675,"is_reserved":false,"is_disabled":false,"rental_uris":{"android":"levelo://app?vid=d4ef21e3-2fff-4209-a87c-6f5d806d4929","ios":"levelo://app?vid=d4ef21e3-2fff-4209-a87c-6f5d806d4929"},"vehicle_type_id":"4","last_reported":1737234512,"current_range_meters":27600,"station_id":"ce4bh492rcd13ifvqdug","pricing_plan_id":"cebpf4jnsgd1na2vs0mg"},{"bike_id":"286a3f5f-47c7-4d49-b3d9-bdbca78ddca8","system_id":"levelo_inurba_marseille","lat":43.29512,"lon":5.39037,"is_reserved":false,"is_disabled":false,"rental_uris":{"android":"levelo://app?vid=286a3f5f-47c7-4d49-b3d9-bdbca78ddca8","ios":"levelo://app?vid=286a3f5f-47c7-4d49-b3d9-bdbca78ddca8"},"vehicle_type_id":"4","last_reported":1737234512,"current_range_meters":32400,"station_id":"ce4bh3p2rcd13ifvqdp0","pricing_plan_id":"cebpf4jnsgd1na2vs0mg"},{"bike_id":"00cf6d51-6ab7-405a-a4b1-2b169572fb0c","system_id":"levelo_inurba_marseille","lat":43.30644,"lon":5.40083,"is_reserved":false,"is_disabled":false,"rental_uris":{"android":"levelo://app?vid=00cf6d51-6ab7-405a-a4b1-2b169572fb0c","ios":"levelo://app?vid=00cf6d51-6ab7-405a-a4b1-2b169572fb0c"},"vehicle_type_id":"4","last_reported":1737234512,"current_range_meters":38400,"station_id":"ce4bh112rcd13ifvqda0","pricing_plan_id":"cebpf4jnsgd1na2vs0mg"},{"bike_id":"2a6c8aef-7633-4410-aa65-ead7161fa29b","system_id":"levelo_inurba_marseille","lat":43.31243,"lon":5.36872,"is_reserved":false,"is_disabled":false,"rental_uris":{"android":"levelo://app?vid=2a6c8aef-7633-4410-aa65-ead7161fa29b","ios":"levelo://app?vid=2a6c8aef-7633-4410-aa65-ead7161fa29b"},"vehicle_type_id":"4","last_reported":1737234512,"current_range_meters":36800,"station_id":"ce4bgl92rcd13ifvqbq0","pricing_plan_id":"cebpf4jnsgd1na2vs0mg"},{"bike_id":"1e43f0f8-4119-4f43-9f7c-8fe98515c149","system_id":"levelo_inurba_marseille","lat":43.308851,"lon":5.371904,"is_reserved":false,"is_disabled":false,"rental_uris":{"android":"levelo://app?vid=1e43f0f8-4119-4f43-9f7c-8fe98515c149","ios":"levelo://app?vid=1e43f0f8-4119-4f43-9f7c-8fe98515c149"},"vehicle_type_id":"4","last_reported":1737234512,"current_range_meters":38000,"station_id":"ce4bguh2rcd13ifvqckg","pricing_plan_id":"cebpf4jnsgd1na2vs0mg"},{"bike_id":"1d3dc000-19d5-4e10-a120-c47c29384960","system_id":"levelo_inurba_marseille","lat":43.29971,"lon":5.38496,"is_reserved":false,"is_disabled":false,"rental_uris":{"android":"levelo://app?vid=1d3dc000-19d5-4e10-a120-c47c29384960","ios":"levelo://app?vid=1d3dc000-19d5-4e10-a120-c47c29384960"},"vehicle_type_id":"4","last_reported":1737234512,"current_range_meters":28400,"station_id":"ce4bgj92rcd13ifvqbd0","pricing_plan_id":"cebpf4jnsgd1na2vs0mg"},{"bike_id":"a95248e8-7ba2-479e-9b5c-9fb4d8e98c2b","system_id":"levelo_inurba_marseille","lat":43.28087,"lon":5.42192,"is_reserved":false,"is_disabled":true,"rental_uris":{"android":"levelo://app?vid=a95248e8-7ba2-479e-9b5c-9fb4d8e98c2b","ios":"levelo://app?vid=a95248e8-7ba2-479e-9b5c-9fb4d8e98c2b"},"vehicle_type_id":"4","last_reported":1737234512,"current_range_meters":0,"station_id":"","pricing_plan_id":"cebpf4jnsgd1na2vs0mg"},{"bike_id":"246f2aa1-d855-40ee-b8e2-0e541013d632","system_id":"levelo_inurba_marseille","lat":43.2784,"lon":5.40743,"is_reserved":false,"is_disabled":true,"rental_uris":{"android":"levelo://app?vid=246f2aa1-d855-40ee-b8e2-0e541013d632","ios":"levelo://app?vid=246f2aa1-d855-40ee-b8e2-0e541013d632"},"vehicle_type_id":"4","last_reported":1737234512,"current_range_meters":0,"station_id":"ce4bhnh2rcd13ifvqgtg","pricing_plan_id":"cebpf4jnsgd1na2vs0mg"},{"bike_id":"87cefc3a-e36a-4030-9c3f-9fc87455f3e3","system_id":"levelo_inurba_marseille","lat":43.27376,"lon":5.36228,"is_reserved":false,"is_disabled":false,"rental_uris":{"android":"levelo://app?vid=87cefc3a-e36a-4030-9c3f-9fc87455f3e3","ios":"levelo://app?vid=87cefc3a-e36a-4030-9c3f-9fc87455f3e3"},"vehicle_type_id":"4","last_reported":1737234512,"current_range_meters":38800,"station_id":"ce4bhbh2rcd13ifvqeo0","pricing_plan_id":"cebpf4jnsgd1na2vs0mg"},{"bike_id":"1cd83d06-5980-4320-b952-5d72bcbe2a3f","system_id":"levelo_inurba_marseille","lat":43.31698,"lon":5.37725,"is_reserved":false,"is_disabled":false,"rental_uris":{"android":"levelo://app?vid=1cd83d06-5980-4320-b952-5d72bcbe2a3f","ios":"levelo://app?vid=1cd83d06-5980-4320-b952-5d72bcbe2a3f"},"vehicle_type_id":"4","last_reported":1737234512,"current_range_meters":19200,"station_id":"ce4bgth2rcd13ifvqch0","pricing_plan_id":"cebpf4jnsgd1na2vs0mg"},{"bike_id":"c5fd4115-ef9b-417b-9a07-50ba619cdb53","system_id":"levelo_inurba_marseille","lat":43.30212,"lon":5.39466,"is_reserved":false,"is_disabled":false,"rental_uris":{"android":"levelo://app?vid=c5fd4115-ef9b-417b-9a07-50ba619cdb53","ios":"levelo://app?vid=c5fd4115-ef9b-417b-9a07-50ba619cdb53"},"vehicle_type_id":"4","last_reported":1737234512,"current_range_meters":36000,"station_id":"ce4bh0p2rcd13ifvqd70","pricing_plan_id":"cebpf4jnsgd1na2vs0mg"},{"bike_id":"31299844-262c-4682-99b0-615cb1ab11a2","system_id":"levelo_inurba_marseille","lat":43.27491,"lon":5.42447,"is_reserved":false,"is_disabled":false,"rental_uris":{"android":"levelo://app?vid=31299844-262c-4682-99b0-615cb1ab11a2","ios":"levelo://app?vid=31299844-262c-4682-99b0-615cb1ab11a2"},"vehicle_type_id":"4","last_reported":1737234512,"current_range_meters":38800,"station_id":"ce4bhn92rcd13ifvqgrg","pricing_plan_id":"cebpf4jnsgd1na2vs0mg"},{"bike_id":"4abb63f6-cf8d-4c9e-a79f-9848d6633504","system_id":"levelo_inurba_marseille","lat":43.26555,"lon":5.37303,"is_reserved":false,"is_disabled":false,"rental_uris":{"android":"levelo://app?vid=4abb63f6-cf8d-4c9e-a79f-9848d6633504","ios":"levelo://app?vid=4abb63f6-cf8d-4c9e-a79f-9848d6633504"},"vehicle_type_id":"4","last_reported":1737234512,"current_range_meters":27200,"station_id":"ce4bhg12rcd13ifvqf70","pricing_plan_id":"cebpf4jnsgd1na2vs0mg"},{"bike_id":"125233ef-9488-442d-826b-6e0d018c02e2","system_id":"levelo_inurba_marseille","lat":43.29568,"lon":5.37514,"is_reserved":false,"is_disabled":false,"rental_uris":{"android":"levelo://app?vid=125233ef-9488-442d-826b-6e0d018c02e2","ios":"levelo://app?vid=125233ef-9488-442d-826b-6e0d018c02e2"},"vehicle_type_id":"4","last_reported":1737234512,"current_range_meters":33600,"station_id":"ce4bgh92rcd13ifvqb50","pricing_plan_id":"cebpf4jnsgd1na2vs0mg"},{"bike_id":"2189f33e-4cfd-4f76-9d91-913095d551c4","system_id":"levelo_inurba_marseille","lat":43.30357,"lon":5.39093,"is_reserved":false,"is_disabled":true,"rental_uris":{"android":"levelo://app?vid=2189f33e-4cfd-4f76-9d91-913095d551c4","ios":"levelo://app?vid=2189f33e-4cfd-4f76-9d91-913095d551c4"},"vehicle_type_id":"4","last_reported":1737234512,"current_range_meters":0,"station_id":"","pricing_plan_id":"cebpf4jnsgd1na2vs0mg"},{"bike_id":"32cafa81-b66f-4e05-ad24-5f68ea8a96a3","system_id":"levelo_inurba_marseille","lat":43.26218,"lon":5.37437,"is_reserved":false,"is_disabled":true,"rental_uris":{"android":"levelo://app?vid=32cafa81-b66f-4e05-ad24-5f68ea8a96a3","ios":"levelo://app?vid=32cafa81-b66f-4e05-ad24-5f68ea8a96a3"},"vehicle_type_id":"4","last_reported":1737234512,"current_range_meters":0,"station_id":"ce4bhgp2rcd13ifvqfc0","pricing_plan_id":"cebpf4jnsgd1na2vs0mg"},{"bike_id":"541b7769-8083-411e-ad4d-d20a4dfa7b91","system_id":"levelo_inurba_marseille","lat":43.3127,"lon":5.4016,"is_reserved":false,"is_disabled":false,"rental_uris":{"android":"levelo://app?vid=541b7769-8083-411e-ad4d-d20a4dfa7b91","ios":"levelo://app?vid=541b7769-8083-411e-ad4d-d20a4dfa7b91"},"vehicle_type_id":"4","last_reported":1737234512,"current_range_meters":38800,"station_id":"ce4bh092rcd13ifvqd30","pricing_plan_id":"cebpf4jnsgd1na2vs0mg"},{"bike_id":"298d2613-8659-4565-ade6-d6e216e8e84d","system_id":"levelo_inurba_marseille","lat":43.25821,"lon":5.39436,"is_reserved":false,"is_disabled":false,"rental_uris":{"android":"levelo://app?vid=298d2613-8659-4565-ade6-d6e216e8e84d","ios":"levelo://app?vid=298d2613-8659-4565-ade6-d6e216e8e84d"},"vehicle_type_id":"4","last_reported":1737234512,"current_range_meters":28400,"station_id":"ce4bhip2rcd13ifvqft0","pricing_plan_id":"cebpf4jnsgd1na2vs0mg"},{"bike_id":"8596f4eb-ff6f-4fd0-909e-36d11882cfb0","system_id":"levelo_inurba_marseille","lat":43.28482,"lon":5.38431,"is_reserved":false,"is_disabled":false,"rental_uris":{"android":"levelo://app?vid=8596f4eb-ff6f-4fd0-909e-36d11882cfb0","ios":"levelo://app?vid=8596f4eb-ff6f-4fd0-909e-36d11882cfb0"},"vehicle_type_id":"4","last_reported":1737234512,"current_range_meters":32000,"station_id":"ce4bh512rcd13ifvqe3g","pricing_plan_id":"cebpf4jnsgd1na2vs0mg"},{"bike_id":"0d5bf58b-8962-4322-87c4-754920ec04ac","system_id":"levelo_inurba_marseille","lat":43.31187,"lon":5.38708,"is_reserved":false,"is_disabled":true,"rental_uris":{"android":"levelo://app?vid=0d5bf58b-8962-4322-87c4-754920ec04ac","ios":"levelo://app?vid=0d5bf58b-8962-4322-87c4-754920ec04ac"},"vehicle_type_id":"4","last_reported":1737234512,"current_range_meters":35600,"station_id":"ce4bgv12rcd13ifvqcp0","pricing_plan_id":"cebpf4jnsgd1na2vs0mg"},{"bike_id":"c92cbb9f-5a8c-4f30-b00a-221ba31b944d","system_id":"levelo_inurba_marseille","lat":43.28446,"lon":5.34987,"is_reserved":false,"is_disabled":true,"rental_uris":{"android":"levelo://app?vid=c92cbb9f-5a8c-4f30-b00a-221ba31b944d","ios":"levelo://app?vid=c92cbb9f-5a8c-4f30-b00a-221ba31b944d"},"vehicle_type_id":"4","last_reported":1737234512,"current_range_meters":34800,"station_id":"ce4bhbh2rcd13ifvqepg","pricing_plan_id":"cebpf4jnsgd1na2vs0mg"},{"bike_id":"b07a2c61-6d2d-4f19-a81d-a0af761342e3","system_id":"levelo_inurba_marseille","lat":43.29555,"lon":5.42294,"is_reserved":false,"is_disabled":false,"rental_uris":{"android":"levelo://app?vid=b07a2c61-6d2d-4f19-a81d-a0af761342e3","ios":"levelo://app?vid=b07a2c61-6d2d-4f19-a81d-a0af761342e3"},"vehicle_type_id":"4","last_reported":1737234512,"current_range_meters":9200,"station_id":"ce4bhph2rcd13ifvqhdg","pricing_plan_id":"cebpf4jnsgd1na2vs0mg"},{"bike_id":"2aa7af5c-8cdd-4fa3-b9ba-896e4268a6da","system_id":"levelo_inurba_marseille","lat":43.29535,"lon":5.38539,"is_reserved":false,"is_disabled":false,"rental_uris":{"android":"levelo://app?vid=2aa7af5c-8cdd-4fa3-b9ba-896e4268a6da","ios":"levelo://app?vid=2aa7af5c-8cdd-4fa3-b9ba-896e4268a6da"},"vehicle_type_id":"4","last_reported":1737234512,"current_range_meters":20400,"station_id":"ce4bgih2rcd13ifvqba0","pricing_plan_id":"cebpf4jnsgd1na2vs0mg"},{"bike_id":"fe90f7a6-3920-456a-9451-50d213b7000f","system_id":"levelo_inurba_marseille","lat":43.28473,"lon":5.3843,"is_reserved":false,"is_disabled":true,"rental_uris":{"android":"levelo://app?vid=fe90f7a6-3920-456a-9451-50d213b7000f","ios":"levelo://app?vid=fe90f7a6-3920-456a-9451-50d213b7000f"},"vehicle_type_id":"4","last_reported":1737234512,"current_range_meters":35600,"station_id":"ce4bh512rcd13ifvqe3g","pricing_plan_id":"cebpf4jnsgd1na2vs0mg"},{"bike_id":"398d6ae4-495f-419b-b065-63a6722f50ee","system_id":"levelo_inurba_marseille","lat":43.29411,"lon":5.38654,"is_reserved":false,"is_disabled":false,"rental_uris":{"android":"levelo://app?vid=398d6ae4-495f-419b-b065-63a6722f50ee","ios":"levelo://app?vid=398d6ae4-495f-419b-b065-63a6722f50ee"},"vehicle_type_id":"4","last_reported":1737234512,"current_range_meters":37600,"station_id":"ce4bh2h2rcd13ifvqdh0","pricing_plan_id":"cebpf4jnsgd1na2vs0mg"},{"bike_id":"4eadf36c-a133-47d0-834f-7163aa503c9b","system_id":"levelo_inurba_marseille","lat":43.28476,"lon":5.38473,"is_reserved":false,"is_disabled":false,"rental_uris":{"android":"levelo://app?vid=4eadf36c-a133-47d0-834f-7163aa503c9b","ios":"levelo://app?vid=4eadf36c-a133-47d0-834f-7163aa503c9b"},"vehicle_type_id":"4","last_reported":1737234512,"current_range_meters":38800,"station_id":"ce4bh512rcd13ifvqe3g","pricing_plan_id":"cebpf4jnsgd1na2vs0mg"},{"bike_id":"a1993e4b-dda2-4a49-8512-d9258ad20858","system_id":"levelo_inurba_marseille","lat":43.29249,"lon":5.38437,"is_reserved":false,"is_disabled":false,"rental_uris":{"android":"levelo://app?vid=a1993e4b-dda2-4a49-8512-d9258ad20858","ios":"levelo://app?vid=a1993e4b-dda2-4a49-8512-d9258ad20858"},"vehicle_type_id":"4","last_reported":1737234512,"current_range_meters":30000,"station_id":"ce4bh692rcd13ifvqea0","pricing_plan_id":"cebpf4jnsgd1na2vs0mg"},{"bike_id":"aeeb7245-8a7c-4b79-b9ac-efca69f7818a","system_id":"levelo_inurba_marseille","lat":43.32111,"lon":5.36768,"is_reserved":false,"is_disabled":false,"rental_uris":{"android":"levelo://app?vid=aeeb7245-8a7c-4b79-b9ac-efca69f7818a","ios":"levelo://app?vid=aeeb7245-8a7c-4b79-b9ac-efca69f7818a"},"vehicle_type_id":"4","last_reported":1737234512,"current_range_meters":22000,"station_id":"ce4bhrh2rcd13ifvqhug","pricing_plan_id":"cebpf4jnsgd1na2vs0mg"},{"bike_id":"27d56d54-db7b-4f28-a503-64024d5c04a3","system_id":"levelo_inurba_marseille","lat":43.30606,"lon":5.37232,"is_reserved":false,"is_disabled":false,"rental_uris":{"android":"levelo://app?vid=27d56d54-db7b-4f28-a503-64024d5c04a3","ios":"levelo://app?vid=27d56d54-db7b-4f28-a503-64024d5c04a3"},"vehicle_type_id":"4","last_reported":1737234512,"current_range_meters":38400,"station_id":"ce4bgqh2rcd13ifvqc4g","pricing_plan_id":"cebpf4jnsgd1na2vs0mg"},{"bike_id":"72228094-49b3-460e-b831-c519bdace46a","system_id":"levelo_inurba_marseille","lat":43.29168,"lon":5.37153,"is_reserved":false,"is_disabled":false,"rental_uris":{"android":"levelo://app?vid=72228094-49b3-460e-b831-c519bdace46a","ios":"levelo://app?vid=72228094-49b3-460e-b831-c519bdace46a"},"vehicle_type_id":"4","last_reported":1737234512,"current_range_meters":38800,"station_id":"ce4bha92rcd13ifvqeh0","pricing_plan_id":"cebpf4jnsgd1na2vs0mg"},{"bike_id":"c061ede7-b3fd-444f-a23f-99070886db7b","system_id":"levelo_inurba_marseille","lat":43.29421,"lon":5.38627,"is_reserved":false,"is_disabled":false,"rental_uris":{"android":"levelo://app?vid=c061ede7-b3fd-444f-a23f-99070886db7b","ios":"levelo://app?vid=c061ede7-b3fd-444f-a23f-99070886db7b"},"vehicle_type_id":"4","last_reported":1737234512,"current_range_meters":24400,"station_id":"ce4bh2h2rcd13ifvqdh0","pricing_plan_id":"cebpf4jnsgd1na2vs0mg"},{"bike_id":"a9a0e60f-8e94-490a-988c-5a9cfc45d626","system_id":"levelo_inurba_marseille","lat":43.24172,"lon":5.36386,"is_reserved":false,"is_disabled":false,"rental_uris":{"android":"levelo://app?vid=a9a0e60f-8e94-490a-988c-5a9cfc45d626","ios":"levelo://app?vid=a9a0e60f-8e94-490a-988c-5a9cfc45d626"},"vehicle_type_id":"4","last_reported":1737234512,"current_range_meters":9600,"station_id":"cpo36qri1sfpv3e86is0","pricing_plan_id":"cebpf4jnsgd1na2vs0mg"},{"bike_id":"cb6ebb97-4c0f-402f-8b52-501a56fedcec","system_id":"levelo_inurba_marseille","lat":43.29536,"lon":5.38534,"is_reserved":false,"is_disabled":false,"rental_uris":{"android":"levelo://app?vid=cb6ebb97-4c0f-402f-8b52-501a56fedcec","ios":"levelo://app?vid=cb6ebb97-4c0f-402f-8b52-501a56fedcec"},"vehicle_type_id":"4","last_reported":1737234512,"current_range_meters":11600,"station_id":"ce4bgih2rcd13ifvqba0","pricing_plan_id":"cebpf4jnsgd1na2vs0mg"},{"bike_id":"e897cb09-9f73-4379-a826-e76b8cb794ba","system_id":"levelo_inurba_marseille","lat":43.29789,"lon":5.39334,"is_reserved":false,"is_disabled":false,"rental_uris":{"android":"levelo://app?vid=e897cb09-9f73-4379-a826-e76b8cb794ba","ios":"levelo://app?vid=e897cb09-9f73-4379-a826-e76b8cb794ba"},"vehicle_type_id":"4","last_reported":1737234512,"current_range_meters":19200,"station_id":"chh1huq6cuj3fo74tm60","pricing_plan_id":"cebpf4jnsgd1na2vs0mg"},{"bike_id":"5136cca2-dc79-42d5-a096-5120a2626c68","system_id":"levelo_inurba_marseille","lat":43.30933,"lon":5.40141,"is_reserved":false,"is_disabled":false,"rental_uris":{"android":"levelo://app?vid=5136cca2-dc79-42d5-a096-5120a2626c68","ios":"levelo://app?vid=5136cca2-dc79-42d5-a096-5120a2626c68"},"vehicle_type_id":"4","last_reported":1737234512,"current_range_meters":38800,"station_id":"ce4bgvp2rcd13ifvqct0","pricing_plan_id":"cebpf4jnsgd1na2vs0mg"},{"bike_id":"76dbf6ef-b4a8-4cef-8918-462b67116819","system_id":"levelo_inurba_marseille","lat":43.32291,"lon":5.38264,"is_reserved":false,"is_disabled":false,"rental_uris":{"android":"levelo://app?vid=76dbf6ef-b4a8-4cef-8918-462b67116819","ios":"levelo://app?vid=76dbf6ef-b4a8-4cef-8918-462b67116819"},"vehicle_type_id":"4","last_reported":1737234512,"current_range_meters":38800,"station_id":"ce4bhr12rcd13ifvqhqg","pricing_plan_id":"cebpf4jnsgd1na2vs0mg"},{"bike_id":"57198719-926f-40a5-bdfa-a0e2303ea3cd","system_id":"levelo_inurba_marseille","lat":43.25869,"lon":5.39897,"is_reserved":false,"is_disabled":false,"rental_uris":{"android":"levelo://app?vid=57198719-926f-40a5-bdfa-a0e2303ea3cd","ios":"levelo://app?vid=57198719-926f-40a5-bdfa-a0e2303ea3cd"},"vehicle_type_id":"4","last_reported":1737234512,"current_range_meters":38800,"station_id":"ce4bhl92rcd13ifvqghg","pricing_plan_id":"cebpf4jnsgd1na2vs0mg"},{"bike_id":"44dc9988-8dc0-4184-aa28-307c0682adeb","system_id":"levelo_inurba_marseille","lat":43.29422,"lon":5.38631,"is_reserved":false,"is_disabled":false,"rental_uris":{"android":"levelo://app?vid=44dc9988-8dc0-4184-aa28-307c0682adeb","ios":"levelo://app?vid=44dc9988-8dc0-4184-aa28-307c0682adeb"},"vehicle_type_id":"4","last_reported":1737234512,"current_range_meters":31200,"station_id":"ce4bh2h2rcd13ifvqdh0","pricing_plan_id":"cebpf4jnsgd1na2vs0mg"},{"bike_id":"36ae2344-adb8-4777-92b4-e7987ba29717","system_id":"levelo_inurba_marseille","lat":43.29971,"lon":5.38491,"is_reserved":false,"is_disabled":false,"rental_uris":{"android":"levelo://app?vid=36ae2344-adb8-4777-92b4-e7987ba29717","ios":"levelo://app?vid=36ae2344-adb8-4777-92b4-e7987ba29717"},"vehicle_type_id":"4","last_reported":1737234512,"current_range_meters":33600,"station_id":"ce4bgj92rcd13ifvqbd0","pricing_plan_id":"cebpf4jnsgd1na2vs0mg"},{"bike_id":"5539b369-041f-4e38-b0f8-84b8e3d28513","system_id":"levelo_inurba_marseille","lat":43.29247,"lon":5.38442,"is_reserved":false,"is_disabled":false,"rental_uris":{"android":"levelo://app?vid=5539b369-041f-4e38-b0f8-84b8e3d28513","ios":"levelo://app?vid=5539b369-041f-4e38-b0f8-84b8e3d28513"},"vehicle_type_id":"4","last_reported":1737234512,"current_range_meters":17200,"station_id":"ce4bh692rcd13ifvqea0","pricing_plan_id":"cebpf4jnsgd1na2vs0mg"},{"bike_id":"a6614ad9-36c5-4782-88c4-6856e10e703c","system_id":"levelo_inurba_marseille","lat":43.31471,"lon":5.37279,"is_reserved":false,"is_disabled":false,"rental_uris":{"android":"levelo://app?vid=a6614ad9-36c5-4782-88c4-6856e10e703c","ios":"levelo://app?vid=a6614ad9-36c5-4782-88c4-6856e10e703c"},"vehicle_type_id":"4","last_reported":1737234512,"current_range_meters":3200,"station_id":"ce4bgt12rcd13ifvqcd0","pricing_plan_id":"cebpf4jnsgd1na2vs0mg"},{"bike_id":"50267a36-8428-4ee1-ac27-ac6a771a71af","system_id":"levelo_inurba_marseille","lat":43.33707,"lon":5.35588,"is_reserved":false,"is_disabled":false,"rental_uris":{"android":"levelo://app?vid=50267a36-8428-4ee1-ac27-ac6a771a71af","ios":"levelo://app?vid=50267a36-8428-4ee1-ac27-ac6a771a71af"},"vehicle_type_id":"4","last_reported":1737234512,"current_range_meters":8400,"station_id":"","pricing_plan_id":"cebpf4jnsgd1na2vs0mg"},{"bike_id":"f5863b18-13a1-4c6e-92de-5668ea912ad3","system_id":"levelo_inurba_marseille","lat":43.26223,"lon":5.40432,"is_reserved":false,"is_disabled":true,"rental_uris":{"android":"levelo://app?vid=f5863b18-13a1-4c6e-92de-5668ea912ad3","ios":"levelo://app?vid=f5863b18-13a1-4c6e-92de-5668ea912ad3"},"vehicle_type_id":"4","last_reported":1737234512,"current_range_meters":0,"station_id":"","pricing_plan_id":"cebpf4jnsgd1na2vs0mg"},{"bike_id":"17a615f6-6ac4-42da-9570-43c6086022ec","system_id":"levelo_inurba_marseille","lat":43.28971,"lon":5.378286,"is_reserved":false,"is_disabled":false,"rental_uris":{"android":"levelo://app?vid=17a615f6-6ac4-42da-9570-43c6086022ec","ios":"levelo://app?vid=17a615f6-6ac4-42da-9570-43c6086022ec"},"vehicle_type_id":"4","last_reported":1737234512,"current_range_meters":36800,"station_id":"ce4bh9p2rcd13ifvqed0","pricing_plan_id":"cebpf4jnsgd1na2vs0mg"},{"bike_id":"47b935dd-f1c3-4468-9bb1-4f34f7095ca1","system_id":"levelo_inurba_marseille","lat":43.27369,"lon":5.36234,"is_reserved":false,"is_disabled":false,"rental_uris":{"android":"levelo://app?vid=47b935dd-f1c3-4468-9bb1-4f34f7095ca1","ios":"levelo://app?vid=47b935dd-f1c3-4468-9bb1-4f34f7095ca1"},"vehicle_type_id":"4","last_reported":1737234512,"current_range_meters":38800,"station_id":"ce4bhbh2rcd13ifvqeo0","pricing_plan_id":"cebpf4jnsgd1na2vs0mg"},{"bike_id":"94c4017c-4366-4a49-8e8d-b2a1a52d202c","system_id":"levelo_inurba_marseille","lat":43.2941,"lon":5.38631,"is_reserved":false,"is_disabled":false,"rental_uris":{"android":"levelo://app?vid=94c4017c-4366-4a49-8e8d-b2a1a52d202c","ios":"levelo://app?vid=94c4017c-4366-4a49-8e8d-b2a1a52d202c"},"vehicle_type_id":"4","last_reported":1737234512,"current_range_meters":29600,"station_id":"ce4bh2h2rcd13ifvqdh0","pricing_plan_id":"cebpf4jnsgd1na2vs0mg"},{"bike_id":"ff799074-43a9-452a-9fe7-07dd0bd1c3b5","system_id":"levelo_inurba_marseille","lat":43.26223,"lon":5.37441,"is_reserved":false,"is_disabled":false,"rental_uris":{"android":"levelo://app?vid=ff799074-43a9-452a-9fe7-07dd0bd1c3b5","ios":"levelo://app?vid=ff799074-43a9-452a-9fe7-07dd0bd1c3b5"},"vehicle_type_id":"4","last_reported":1737234512,"current_range_meters":38800,"station_id":"ce4bhgp2rcd13ifvqfc0","pricing_plan_id":"cebpf4jnsgd1na2vs0mg"},{"bike_id":"46686b70-f375-4947-b209-2f4548c2edcf","system_id":"levelo_inurba_marseille","lat":43.28885,"lon":5.39442,"is_reserved":false,"is_disabled":true,"rental_uris":{"android":"levelo://app?vid=46686b70-f375-4947-b209-2f4548c2edcf","ios":"levelo://app?vid=46686b70-f375-4947-b209-2f4548c2edcf"},"vehicle_type_id":"4","last_reported":1737234512,"current_range_meters":0,"station_id":"","pricing_plan_id":"cebpf4jnsgd1na2vs0mg"},{"bike_id":"55b139d3-9761-49ac-8c31-8e6f999c9458","system_id":"levelo_inurba_marseille","lat":43.27218,"lon":5.39179,"is_reserved":false,"is_disabled":false,"rental_uris":{"android":"levelo://app?vid=55b139d3-9761-49ac-8c31-8e6f999c9458","ios":"levelo://app?vid=55b139d3-9761-49ac-8c31-8e6f999c9458"},"vehicle_type_id":"4","last_reported":1737234512,"current_range_meters":12000,"station_id":"ce4bhhp2rcd13ifvqfm0","pricing_plan_id":"cebpf4jnsgd1na2vs0mg"},{"bike_id":"cd6fd558-4a5e-40c6-ae41-cf151d3243aa","system_id":"levelo_inurba_marseille","lat":43.29783,"lon":5.3808,"is_reserved":false,"is_disabled":false,"rental_uris":{"android":"levelo://app?vid=cd6fd558-4a5e-40c6-ae41-cf151d3243aa","ios":"levelo://app?vid=cd6fd558-4a5e-40c6-ae41-cf151d3243aa"},"vehicle_type_id":"4","last_reported":1737234512,"current_range_meters":32000,"station_id":"ce4bgip2rcd13ifvqbb0","pricing_plan_id":"cebpf4jnsgd1na2vs0mg"},{"bike_id":"7959068d-09e3-44db-a5a5-5606e68cba60","system_id":"levelo_inurba_marseille","lat":43.31323,"lon":5.39692,"is_reserved":false,"is_disabled":false,"rental_uris":{"android":"levelo://app?vid=7959068d-09e3-44db-a5a5-5606e68cba60","ios":"levelo://app?vid=7959068d-09e3-44db-a5a5-5606e68cba60"},"vehicle_type_id":"4","last_reported":1737234512,"current_range_meters":28000,"station_id":"ce4bgvp2rcd13ifvqcu0","pricing_plan_id":"cebpf4jnsgd1na2vs0mg"},{"bike_id":"eb2d6e91-5eb8-44fd-85f8-d5377315d6e0","system_id":"levelo_inurba_marseille","lat":43.28356,"lon":5.38633,"is_reserved":false,"is_disabled":false,"rental_uris":{"android":"levelo://app?vid=eb2d6e91-5eb8-44fd-85f8-d5377315d6e0","ios":"levelo://app?vid=eb2d6e91-5eb8-44fd-85f8-d5377315d6e0"},"vehicle_type_id":"4","last_reported":1737234512,"current_range_meters":24400,"station_id":"ce4bh492rcd13ifvqdvg","pricing_plan_id":"cebpf4jnsgd1na2vs0mg"},{"bike_id":"883b7c07-8fdd-4195-9f5b-e8165f694368","system_id":"levelo_inurba_marseille","lat":43.25863,"lon":5.39906,"is_reserved":false,"is_disabled":false,"rental_uris":{"android":"levelo://app?vid=883b7c07-8fdd-4195-9f5b-e8165f694368","ios":"levelo://app?vid=883b7c07-8fdd-4195-9f5b-e8165f694368"},"vehicle_type_id":"4","last_reported":1737234512,"current_range_meters":24400,"station_id":"ce4bhl92rcd13ifvqghg","pricing_plan_id":"cebpf4jnsgd1na2vs0mg"},{"bike_id":"b7097a42-efed-4ad7-b54b-9b806bc8ae9d","system_id":"levelo_inurba_marseille","lat":43.30931,"lon":5.36867,"is_reserved":false,"is_disabled":false,"rental_uris":{"android":"levelo://app?vid=b7097a42-efed-4ad7-b54b-9b806bc8ae9d","ios":"levelo://app?vid=b7097a42-efed-4ad7-b54b-9b806bc8ae9d"},"vehicle_type_id":"4","last_reported":1737234512,"current_range_meters":37600,"station_id":"ce4bgn92rcd13ifvqbvg","pricing_plan_id":"cebpf4jnsgd1na2vs0mg"},{"bike_id":"6b67f837-ffa7-4183-8d0b-4c34dfa7e212","system_id":"levelo_inurba_marseille","lat":43.25854,"lon":5.39907,"is_reserved":false,"is_disabled":false,"rental_uris":{"android":"levelo://app?vid=6b67f837-ffa7-4183-8d0b-4c34dfa7e212","ios":"levelo://app?vid=6b67f837-ffa7-4183-8d0b-4c34dfa7e212"},"vehicle_type_id":"4","last_reported":1737234512,"current_range_meters":38800,"station_id":"ce4bhl92rcd13ifvqghg","pricing_plan_id":"cebpf4jnsgd1na2vs0mg"},{"bike_id":"5017336f-0fcc-4983-97cb-9f7de0ce7bf7","system_id":"levelo_inurba_marseille","lat":43.29541,"lon":5.38543,"is_reserved":false,"is_disabled":false,"rental_uris":{"android":"levelo://app?vid=5017336f-0fcc-4983-97cb-9f7de0ce7bf7","ios":"levelo://app?vid=5017336f-0fcc-4983-97cb-9f7de0ce7bf7"},"vehicle_type_id":"4","last_reported":1737234512,"current_range_meters":33200,"station_id":"ce4bgih2rcd13ifvqba0","pricing_plan_id":"cebpf4jnsgd1na2vs0mg"},{"bike_id":"8b379556-cd3c-4895-8fd6-65a44c58e0f2","system_id":"levelo_inurba_marseille","lat":43.30212,"lon":5.39462,"is_reserved":false,"is_disabled":true,"rental_uris":{"android":"levelo://app?vid=8b379556-cd3c-4895-8fd6-65a44c58e0f2","ios":"levelo://app?vid=8b379556-cd3c-4895-8fd6-65a44c58e0f2"},"vehicle_type_id":"4","last_reported":1737234512,"current_range_meters":4400,"station_id":"ce4bh0p2rcd13ifvqd70","pricing_plan_id":"cebpf4jnsgd1na2vs0mg"},{"bike_id":"5deef3b2-d489-42e2-b180-fce0dc75d0c7","system_id":"levelo_inurba_marseille","lat":43.29035,"lon":5.37577,"is_reserved":false,"is_disabled":false,"rental_uris":{"android":"levelo://app?vid=5deef3b2-d489-42e2-b180-fce0dc75d0c7","ios":"levelo://app?vid=5deef3b2-d489-42e2-b180-fce0dc75d0c7"},"vehicle_type_id":"4","last_reported":1737234512,"current_range_meters":39200,"station_id":"ce4bh692rcd13ifvqe90","pricing_plan_id":"cebpf4jnsgd1na2vs0mg"},{"bike_id":"6870a9e0-7988-452a-a0a6-84e136278682","system_id":"levelo_inurba_marseille","lat":43.2655,"lon":5.37289,"is_reserved":false,"is_disabled":false,"rental_uris":{"android":"levelo://app?vid=6870a9e0-7988-452a-a0a6-84e136278682","ios":"levelo://app?vid=6870a9e0-7988-452a-a0a6-84e136278682"},"vehicle_type_id":"4","last_reported":1737234512,"current_range_meters":36400,"station_id":"ce4bhg12rcd13ifvqf70","pricing_plan_id":"cebpf4jnsgd1na2vs0mg"},{"bike_id":"03ae46b2-9a3a-42b7-b4fa-c50b53d050cc","system_id":"levelo_inurba_marseille","lat":43.31489,"lon":5.373067,"is_reserved":false,"is_disabled":false,"rental_uris":{"android":"levelo://app?vid=03ae46b2-9a3a-42b7-b4fa-c50b53d050cc","ios":"levelo://app?vid=03ae46b2-9a3a-42b7-b4fa-c50b53d050cc"},"vehicle_type_id":"4","last_reported":1737234512,"current_range_meters":38800,"station_id":"ce4bgt12rcd13ifvqcd0","pricing_plan_id":"cebpf4jnsgd1na2vs0mg"},{"bike_id":"7e7e1ecc-6b1b-4d65-a58a-87b33d4a82d0","system_id":"levelo_inurba_marseille","lat":43.26558,"lon":5.37291,"is_reserved":false,"is_disabled":false,"rental_uris":{"android":"levelo://app?vid=7e7e1ecc-6b1b-4d65-a58a-87b33d4a82d0","ios":"levelo://app?vid=7e7e1ecc-6b1b-4d65-a58a-87b33d4a82d0"},"vehicle_type_id":"4","last_reported":1737234512,"current_range_meters":3200,"station_id":"ce4bhg12rcd13ifvqf70","pricing_plan_id":"cebpf4jnsgd1na2vs0mg"},{"bike_id":"8d6893ce-9784-4f54-b1d2-57d54414c78c","system_id":"levelo_inurba_marseille","lat":43.28036,"lon":5.36969,"is_reserved":false,"is_disabled":false,"rental_uris":{"android":"levelo://app?vid=8d6893ce-9784-4f54-b1d2-57d54414c78c","ios":"levelo://app?vid=8d6893ce-9784-4f54-b1d2-57d54414c78c"},"vehicle_type_id":"4","last_reported":1737234512,"current_range_meters":38800,"station_id":"ce4bha12rcd13ifvqef0","pricing_plan_id":"cebpf4jnsgd1na2vs0mg"},{"bike_id":"589fed38-1a1f-458a-9840-ce8c4633485c","system_id":"levelo_inurba_marseille","lat":43.28926,"lon":5.38388,"is_reserved":false,"is_disabled":false,"rental_uris":{"android":"levelo://app?vid=589fed38-1a1f-458a-9840-ce8c4633485c","ios":"levelo://app?vid=589fed38-1a1f-458a-9840-ce8c4633485c"},"vehicle_type_id":"4","last_reported":1737234512,"current_range_meters":34000,"station_id":"ce4bh612rcd13ifvqe6g","pricing_plan_id":"cebpf4jnsgd1na2vs0mg"},{"bike_id":"a8701af7-deca-400c-9cb2-c845062564a7","system_id":"levelo_inurba_marseille","lat":43.314377,"lon":5.387715,"is_reserved":false,"is_disabled":false,"rental_uris":{"android":"levelo://app?vid=a8701af7-deca-400c-9cb2-c845062564a7","ios":"levelo://app?vid=a8701af7-deca-400c-9cb2-c845062564a7"},"vehicle_type_id":"4","last_reported":1737234512,"current_range_meters":15200,"station_id":"","pricing_plan_id":"cebpf4jnsgd1na2vs0mg"},{"bike_id":"0ef90f69-fd70-4d80-8f44-3d8f75ae56d2","system_id":"levelo_inurba_marseille","lat":43.28359,"lon":5.38103,"is_reserved":false,"is_disabled":false,"rental_uris":{"android":"levelo://app?vid=0ef90f69-fd70-4d80-8f44-3d8f75ae56d2","ios":"levelo://app?vid=0ef90f69-fd70-4d80-8f44-3d8f75ae56d2"},