{"last_updated":1729772254,"ttl":60,"version":"2.2","data":{"bikes":[{"bike_id":"e01413f4-fd36-41bd-84a4-d8678d3abd18","system_id":"levelo_inurba_marseille","lat":43.29379,"lon":5.37854,"is_reserved":false,"is_disabled":false,"rental_uris":{"android":"levelo://app?vid=e01413f4-fd36-41bd-84a4-d8678d3abd18","ios":"levelo://app?vid=e01413f4-fd36-41bd-84a4-d8678d3abd18"},"vehicle_type_id":"4","last_reported":1729772254,"current_range_meters":16400,"station_id":"ce4bgjh2rcd13ifvqbf0","pricing_plan_id":"cebpf4jnsgd1na2vs0mg"},{"bike_id":"a9f5042a-d747-4529-962d-d9736bc036f9","system_id":"levelo_inurba_marseille","lat":43.26794,"lon":5.39412,"is_reserved":false,"is_disabled":false,"rental_uris":{"android":"levelo://app?vid=a9f5042a-d747-4529-962d-d9736bc036f9","ios":"levelo://app?vid=a9f5042a-d747-4529-962d-d9736bc036f9"},"vehicle_type_id":"4","last_reported":1729772254,"current_range_meters":16800,"station_id":"ce4bhh12rcd13ifvqfg0","pricing_plan_id":"cebpf4jnsgd1na2vs0mg"},{"bike_id":"75c576b8-d70a-4b92-9dc8-d7bc8e6c3fd9","system_id":"levelo_inurba_marseille","lat":43.30319,"lon":5.36901,"is_reserved":false,"is_disabled":false,"rental_uris":{"android":"levelo://app?vid=75c576b8-d70a-4b92-9dc8-d7bc8e6c3fd9","ios":"levelo://app?vid=75c576b8-d70a-4b92-9dc8-d7bc8e6c3fd9"},"vehicle_type_id":"4","last_reported":1729772254,"current_range_meters":28400,"station_id":"ce4bgqh2rcd13ifvqc5g","pricing_plan_id":"cebpf4jnsgd1na2vs0mg"},{"bike_id":"94a1e160-d7c2-427f-9449-77e6f7cc2649","system_id":"levelo_inurba_marseille","lat":43.288727,"lon":5.359899,"is_reserved":false,"is_disabled":false,"rental_uris":{"android":"levelo://app?vid=94a1e160-d7c2-427f-9449-77e6f7cc2649","ios":"levelo://app?vid=94a1e160-d7c2-427f-9449-77e6f7cc2649"},"vehicle_type_id":"4","last_reported":1729772254,"current_range_meters":11200,"station_id":"ce4bh2p2rcd13ifvqdi0","pricing_plan_id":"cebpf4jnsgd1na2vs0mg"},{"bike_id":"4e718520-217c-4986-8e4a-4dbcae9b7210","system_id":"levelo_inurba_marseille","lat":43.27987,"lon":5.41655,"is_reserved":false,"is_disabled":false,"rental_uris":{"android":"levelo://app?vid=4e718520-217c-4986-8e4a-4dbcae9b7210","ios":"levelo://app?vid=4e718520-217c-4986-8e4a-4dbcae9b7210"},"vehicle_type_id":"4","last_reported":1729772254,"current_range_meters":8800,"station_id":"ce4bho12rcd13ifvqh1g","pricing_plan_id":"cebpf4jnsgd1na2vs0mg"},{"bike_id":"102e7daf-093b-427e-ac72-c895d8b87939","system_id":"levelo_inurba_marseille","lat":43.26792,"lon":5.39405,"is_reserved":false,"is_disabled":false,"rental_uris":{"android":"levelo://app?vid=102e7daf-093b-427e-ac72-c895d8b87939","ios":"levelo://app?vid=102e7daf-093b-427e-ac72-c895d8b87939"},"vehicle_type_id":"4","last_reported":1729772254,"current_range_meters":36000,"station_id":"ce4bhh12rcd13ifvqfg0","pricing_plan_id":"cebpf4jnsgd1na2vs0mg"},{"bike_id":"cf00bfcd-9f87-4011-81c6-4541ee31d8cd","system_id":"levelo_inurba_marseille","lat":43.31345,"lon":5.36719,"is_reserved":false,"is_disabled":false,"rental_uris":{"android":"levelo://app?vid=cf00bfcd-9f87-4011-81c6-4541ee31d8cd","ios":"levelo://app?vid=cf00bfcd-9f87-4011-81c6-4541ee31d8cd"},"vehicle_type_id":"4","last_reported":1729772254,"current_range_meters":39200,"station_id":"ce4bgr92rcd13ifvqc6g","pricing_plan_id":"cebpf4jnsgd1na2vs0mg"},{"bike_id":"62c3f4e5-aa3a-4c9e-ae92-e05356b4ba94","system_id":"levelo_inurba_marseille","lat":43.28434,"lon":5.39189,"is_reserved":false,"is_disabled":false,"rental_uris":{"android":"levelo://app?vid=62c3f4e5-aa3a-4c9e-ae92-e05356b4ba94","ios":"levelo://app?vid=62c3f4e5-aa3a-4c9e-ae92-e05356b4ba94"},"vehicle_type_id":"4","last_reported":1729772254,"current_range_meters":28400,"station_id":"ce4bhoh2rcd13ifvqh5g","pricing_plan_id":"cebpf4jnsgd1na2vs0mg"},{"bike_id":"21c7101c-ca4b-4c55-b4b1-4130a4e6a9f4","system_id":"levelo_inurba_marseille","lat":43.30541,"lon":5.367,"is_reserved":false,"is_disabled":false,"rental_uris":{"android":"levelo://app?vid=21c7101c-ca4b-4c55-b4b1-4130a4e6a9f4","ios":"levelo://app?vid=21c7101c-ca4b-4c55-b4b1-4130a4e6a9f4"},"vehicle_type_id":"4","last_reported":1729772254,"current_range_meters":38800,"station_id":"ce4bgrp2rcd13ifvqc9g","pricing_plan_id":"cebpf4jnsgd1na2vs0mg"},{"bike_id":"ddbd5eb0-95f2-44af-bd08-257c17ed041c","system_id":"levelo_inurba_marseille","lat":43.29891,"lon":5.38891,"is_reserved":false,"is_disabled":false,"rental_uris":{"android":"levelo://app?vid=ddbd5eb0-95f2-44af-bd08-257c17ed041c","ios":"levelo://app?vid=ddbd5eb0-95f2-44af-bd08-257c17ed041c"},"vehicle_type_id":"4","last_reported":1729772254,"current_range_meters":35600,"station_id":"ce4bh392rcd13ifvqdl0","pricing_plan_id":"cebpf4jnsgd1na2vs0mg"},{"bike_id":"5d0a5019-a6f4-4628-b405-c6ddf4b5f67b","system_id":"levelo_inurba_marseille","lat":43.28434,"lon":5.39184,"is_reserved":false,"is_disabled":false,"rental_uris":{"android":"levelo://app?vid=5d0a5019-a6f4-4628-b405-c6ddf4b5f67b","ios":"levelo://app?vid=5d0a5019-a6f4-4628-b405-c6ddf4b5f67b"},"vehicle_type_id":"4","last_reported":1729772254,"current_range_meters":29600,"station_id":"ce4bhoh2rcd13ifvqh5g","pricing_plan_id":"cebpf4jnsgd1na2vs0mg"},{"bike_id":"2941dde7-ad35-45d8-8e8c-eaa8124add38","system_id":"levelo_inurba_marseille","lat":43.30899,"lon":5.368524,"is_reserved":false,"is_disabled":false,"rental_uris":{"android":"levelo://app?vid=2941dde7-ad35-45d8-8e8c-eaa8124add38","ios":"levelo://app?vid=2941dde7-ad35-45d8-8e8c-eaa8124add38"},"vehicle_type_id":"4","last_reported":1729772254,"current_range_meters":13600,"station_id":"ce4bgn92rcd13ifvqbvg","pricing_plan_id":"cebpf4jnsgd1na2vs0mg"},{"bike_id":"9379528d-dc27-4009-8b9a-b522c1a3eceb","system_id":"levelo_inurba_marseille","lat":43.33725,"lon":5.39183,"is_reserved":false,"is_disabled":false,"rental_uris":{"android":"levelo://app?vid=9379528d-dc27-4009-8b9a-b522c1a3eceb","ios":"levelo://app?vid=9379528d-dc27-4009-8b9a-b522c1a3eceb"},"vehicle_type_id":"4","last_reported":1729772254,"current_range_meters":12000,"station_id":"ce4bhr92rcd13ifvqhsg","pricing_plan_id":"cebpf4jnsgd1na2vs0mg"},{"bike_id":"4b6384ef-b51a-4a37-ac12-00f1aef4ba5d","system_id":"levelo_inurba_marseille","lat":43.28666,"lon":5.3635,"is_reserved":false,"is_disabled":false,"rental_uris":{"android":"levelo://app?vid=4b6384ef-b51a-4a37-ac12-00f1aef4ba5d","ios":"levelo://app?vid=4b6384ef-b51a-4a37-ac12-00f1aef4ba5d"},"vehicle_type_id":"4","last_reported":1729772254,"current_range_meters":39200,"station_id":"ce4bhah2rcd13ifvqej0","pricing_plan_id":"cebpf4jnsgd1na2vs0mg"},{"bike_id":"0a1b479d-52cc-43be-b555-b0ec65cfda36","system_id":"levelo_inurba_marseille","lat":43.24069,"lon":5.3776,"is_reserved":false,"is_disabled":false,"rental_uris":{"android":"levelo://app?vid=0a1b479d-52cc-43be-b555-b0ec65cfda36","ios":"levelo://app?vid=0a1b479d-52cc-43be-b555-b0ec65cfda36"},"vehicle_type_id":"4","last_reported":1729772254,"current_range_meters":37600,"station_id":"ce4bhnp2rcd13ifvqgvg","pricing_plan_id":"cebpf4jnsgd1na2vs0mg"},{"bike_id":"b3626bed-fe62-4943-b382-d1e5fcbbe3a4","system_id":"levelo_inurba_marseille","lat":43.29037,"lon":5.39963,"is_reserved":false,"is_disabled":false,"rental_uris":{"android":"levelo://app?vid=b3626bed-fe62-4943-b382-d1e5fcbbe3a4","ios":"levelo://app?vid=b3626bed-fe62-4943-b382-d1e5fcbbe3a4"},"vehicle_type_id":"4","last_reported":1729772254,"current_range_meters":28400,"station_id":"ce4bh392rcd13ifvqdm0","pricing_plan_id":"cebpf4jnsgd1na2vs0mg"},{"bike_id":"93b004d5-e088-4995-a4b0-f34bd0d548c5","system_id":"levelo_inurba_marseille","lat":43.33724,"lon":5.39182,"is_reserved":false,"is_disabled":false,"rental_uris":{"android":"levelo://app?vid=93b004d5-e088-4995-a4b0-f34bd0d548c5","ios":"levelo://app?vid=93b004d5-e088-4995-a4b0-f34bd0d548c5"},"vehicle_type_id":"4","last_reported":1729772254,"current_range_meters":27200,"station_id":"ce4bhr92rcd13ifvqhsg","pricing_plan_id":"cebpf4jnsgd1na2vs0mg"},{"bike_id":"e08416d0-08cd-4761-810a-457ef01de848","system_id":"levelo_inurba_marseille","lat":43.29221,"lon":5.36052,"is_reserved":false,"is_disabled":false,"rental_uris":{"android":"levelo://app?vid=e08416d0-08cd-4761-810a-457ef01de848","ios":"levelo://app?vid=e08416d0-08cd-4761-810a-457ef01de848"},"vehicle_type_id":"4","last_reported":1729772254,"current_range_meters":28000,"station_id":"ce4bhbh2rcd13ifvqeqg","pricing_plan_id":"cebpf4jnsgd1na2vs0mg"},{"bike_id":"4a90bef8-ee85-4463-890d-d3c14e9bf15a","system_id":"levelo_inurba_marseille","lat":43.29043,"lon":5.35749,"is_reserved":false,"is_disabled":false,"rental_uris":{"android":"levelo://app?vid=4a90bef8-ee85-4463-890d-d3c14e9bf15a","ios":"levelo://app?vid=4a90bef8-ee85-4463-890d-d3c14e9bf15a"},"vehicle_type_id":"4","last_reported":1729772254,"current_range_meters":24800,"station_id":"","pricing_plan_id":"cebpf4jnsgd1na2vs0mg"},{"bike_id":"7a632fec-0e5c-4d95-9f73-b6a9f3a4cd45","system_id":"levelo_inurba_marseille","lat":43.3199,"lon":5.38159,"is_reserved":false,"is_disabled":false,"rental_uris":{"android":"levelo://app?vid=7a632fec-0e5c-4d95-9f73-b6a9f3a4cd45","ios":"levelo://app?vid=7a632fec-0e5c-4d95-9f73-b6a9f3a4cd45"},"vehicle_type_id":"4","last_reported":1729772254,"current_range_meters":24400,"station_id":"ce4bhr12rcd13ifvqhpg","pricing_plan_id":"cebpf4jnsgd1na2vs0mg"},{"bike_id":"f0237896-5221-424b-9f95-e52d99a2c3e1","system_id":"levelo_inurba_marseille","lat":43.29686,"lon":5.37292,"is_reserved":false,"is_disabled":false,"rental_uris":{"android":"levelo://app?vid=f0237896-5221-424b-9f95-e52d99a2c3e1","ios":"levelo://app?vid=f0237896-5221-424b-9f95-e52d99a2c3e1"},"vehicle_type_id":"4","last_reported":1729772254,"current_range_meters":27600,"station_id":"ce4bgk12rcd13ifvqbj0","pricing_plan_id":"cebpf4jnsgd1na2vs0mg"},{"bike_id":"c4ecd3ae-30b9-4854-b5c2-b3f0e18bd148","system_id":"levelo_inurba_marseille","lat":43.29569,"lon":5.37512,"is_reserved":false,"is_disabled":false,"rental_uris":{"android":"levelo://app?vid=c4ecd3ae-30b9-4854-b5c2-b3f0e18bd148","ios":"levelo://app?vid=c4ecd3ae-30b9-4854-b5c2-b3f0e18bd148"},"vehicle_type_id":"4","last_reported":1729772254,"current_range_meters":12000,"station_id":"ce4bgh92rcd13ifvqb50","pricing_plan_id":"cebpf4jnsgd1na2vs0mg"},{"bike_id":"4f0dee51-0cfa-49ff-afe3-775930276d23","system_id":"levelo_inurba_marseille","lat":43.28664,"lon":5.3635,"is_reserved":false,"is_disabled":false,"rental_uris":{"android":"levelo://app?vid=4f0dee51-0cfa-49ff-afe3-775930276d23","ios":"levelo://app?vid=4f0dee51-0cfa-49ff-afe3-775930276d23"},"vehicle_type_id":"4","last_reported":1729772254,"current_range_meters":32000,"station_id":"ce4bhah2rcd13ifvqej0","pricing_plan_id":"cebpf4jnsgd1na2vs0mg"},{"bike_id":"6b3deafb-65dc-442b-9523-114230d800d5","system_id":"levelo_inurba_marseille","lat":43.30137,"lon":5.38779,"is_reserved":false,"is_disabled":false,"rental_uris":{"android":"levelo://app?vid=6b3deafb-65dc-442b-9523-114230d800d5","ios":"levelo://app?vid=6b3deafb-65dc-442b-9523-114230d800d5"},"vehicle_type_id":"4","last_reported":1729772254,"current_range_meters":30400,"station_id":"ce4bghh2rcd13ifvqb60","pricing_plan_id":"cebpf4jnsgd1na2vs0mg"},{"bike_id":"c287f142-73d7-4b8b-a207-9b5684f78ae1","system_id":"levelo_inurba_marseille","lat":43.27173,"lon":5.40985,"is_reserved":false,"is_disabled":false,"rental_uris":{"android":"levelo://app?vid=c287f142-73d7-4b8b-a207-9b5684f78ae1","ios":"levelo://app?vid=c287f142-73d7-4b8b-a207-9b5684f78ae1"},"vehicle_type_id":"4","last_reported":1729772254,"current_range_meters":34800,"station_id":"ce4bhl12rcd13ifvqgf0","pricing_plan_id":"cebpf4jnsgd1na2vs0mg"},{"bike_id":"3e6dacef-7721-4fd6-908f-05fbf9bc0354","system_id":"levelo_inurba_marseille","lat":43.23197,"lon":5.35559,"is_reserved":false,"is_disabled":false,"rental_uris":{"android":"levelo://app?vid=3e6dacef-7721-4fd6-908f-05fbf9bc0354","ios":"levelo://app?vid=3e6dacef-7721-4fd6-908f-05fbf9bc0354"},"vehicle_type_id":"4","last_reported":1729772254,"current_range_meters":39200,"station_id":"ce4bhu92rcd13ifvqi70","pricing_plan_id":"cebpf4jnsgd1na2vs0mg"},{"bike_id":"01613b90-3a3c-4976-baee-9f005d41711c","system_id":"levelo_inurba_marseille","lat":43.31762,"lon":5.39002,"is_reserved":false,"is_disabled":false,"rental_uris":{"android":"levelo://app?vid=01613b90-3a3c-4976-baee-9f005d41711c","ios":"levelo://app?vid=01613b90-3a3c-4976-baee-9f005d41711c"},"vehicle_type_id":"4","last_reported":1729772254,"current_range_meters":4800,"station_id":"ce4bhqp2rcd13ifvqhng","pricing_plan_id":"cebpf4jnsgd1na2vs0mg"},{"bike_id":"ad01a908-f039-43af-8942-9674351c0154","system_id":"levelo_inurba_marseille","lat":43.27994,"lon":5.4001,"is_reserved":false,"is_disabled":false,"rental_uris":{"android":"levelo://app?vid=ad01a908-f039-43af-8942-9674351c0154","ios":"levelo://app?vid=ad01a908-f039-43af-8942-9674351c0154"},"vehicle_type_id":"4","last_reported":1729772254,"current_range_meters":36800,"station_id":"ce4bho92rcd13ifvqh4g","pricing_plan_id":"cebpf4jnsgd1na2vs0mg"},{"bike_id":"7c17a604-c76f-4623-9921-8c3ede2b7c95","system_id":"levelo_inurba_marseille","lat":43.29894,"lon":5.4367,"is_reserved":false,"is_disabled":false,"rental_uris":{"android":"levelo://app?vid=7c17a604-c76f-4623-9921-8c3ede2b7c95","ios":"levelo://app?vid=7c17a604-c76f-4623-9921-8c3ede2b7c95"},"vehicle_type_id":"4","last_reported":1729772254,"current_range_meters":4000,"station_id":"ce4bhpp2rcd13ifvqhfg","pricing_plan_id":"cebpf4jnsgd1na2vs0mg"},{"bike_id":"c49008ee-e5c4-4d8b-92ba-1850f9301df2","system_id":"levelo_inurba_marseille","lat":43.2959,"lon":5.36734,"is_reserved":false,"is_disabled":false,"rental_uris":{"android":"levelo://app?vid=c49008ee-e5c4-4d8b-92ba-1850f9301df2","ios":"levelo://app?vid=c49008ee-e5c4-4d8b-92ba-1850f9301df2"},"vehicle_type_id":"4","last_reported":1729772254,"current_range_meters":25600,"station_id":"ce4bgph2rcd13ifvqc2g","pricing_plan_id":"cebpf4jnsgd1na2vs0mg"},{"bike_id":"ffd8c76c-4cda-4073-9b92-5a589f52cf27","system_id":"levelo_inurba_marseille","lat":43.29045,"lon":5.35899,"is_reserved":false,"is_disabled":false,"rental_uris":{"android":"levelo://app?vid=ffd8c76c-4cda-4073-9b92-5a589f52cf27","ios":"levelo://app?vid=ffd8c76c-4cda-4073-9b92-5a589f52cf27"},"vehicle_type_id":"4","last_reported":1729772254,"current_range_meters":27600,"station_id":"ce4bha92rcd13ifvqeg0","pricing_plan_id":"cebpf4jnsgd1na2vs0mg"},{"bike_id":"97ce6431-cdfe-4c86-8575-534875aed7f5","system_id":"levelo_inurba_marseille","lat":43.3053,"lon":5.36659,"is_reserved":false,"is_disabled":false,"rental_uris":{"android":"levelo://app?vid=97ce6431-cdfe-4c86-8575-534875aed7f5","ios":"levelo://app?vid=97ce6431-cdfe-4c86-8575-534875aed7f5"},"vehicle_type_id":"4","last_reported":1729772254,"current_range_meters":7200,"station_id":"","pricing_plan_id":"cebpf4jnsgd1na2vs0mg"},{"bike_id":"bc4efb73-4734-4293-a1eb-82c722d0ec12","system_id":"levelo_inurba_marseille","lat":43.25503,"lon":5.37649,"is_reserved":false,"is_disabled":false,"rental_uris":{"android":"levelo://app?vid=bc4efb73-4734-4293-a1eb-82c722d0ec12","ios":"levelo://app?vid=bc4efb73-4734-4293-a1eb-82c722d0ec12"},"vehicle_type_id":"4","last_reported":1729772254,"current_range_meters":39200,"station_id":"ce4bhh12rcd13ifvqff0","pricing_plan_id":"cebpf4jnsgd1na2vs0mg"},{"bike_id":"394fca57-6b2f-41e7-9f33-f9746445cac8","system_id":"levelo_inurba_marseille","lat":43.30699,"lon":5.38076,"is_reserved":false,"is_disabled":false,"rental_uris":{"android":"levelo://app?vid=394fca57-6b2f-41e7-9f33-f9746445cac8","ios":"levelo://app?vid=394fca57-6b2f-41e7-9f33-f9746445cac8"},"vehicle_type_id":"4","last_reported":1729772254,"current_range_meters":37600,"station_id":"","pricing_plan_id":"cebpf4jnsgd1na2vs0mg"},{"bike_id":"ba6c8c92-6f94-4918-aa32-6a5071f052ef","system_id":"levelo_inurba_marseille","lat":43.28676,"lon":5.36338,"is_reserved":false,"is_disabled":false,"rental_uris":{"android":"levelo://app?vid=ba6c8c92-6f94-4918-aa32-6a5071f052ef","ios":"levelo://app?vid=ba6c8c92-6f94-4918-aa32-6a5071f052ef"},"vehicle_type_id":"4","last_reported":1729772254,"current_range_meters":38000,"station_id":"ce4bhah2rcd13ifvqej0","pricing_plan_id":"cebpf4jnsgd1na2vs0mg"},{"bike_id":"b20aa8c9-4f11-4644-9c66-8cce43a79c83","system_id":"levelo_inurba_marseille","lat":43.25934,"lon":5.40896,"is_reserved":false,"is_disabled":false,"rental_uris":{"android":"levelo://app?vid=b20aa8c9-4f11-4644-9c66-8cce43a79c83","ios":"levelo://app?vid=b20aa8c9-4f11-4644-9c66-8cce43a79c83"},"vehicle_type_id":"4","last_reported":1729772254,"current_range_meters":34800,"station_id":"ce4bhm92rcd13ifvqglg","pricing_plan_id":"cebpf4jnsgd1na2vs0mg"},{"bike_id":"b69d0c64-0724-4563-ab4e-cdb5166b1cd5","system_id":"levelo_inurba_marseille","lat":43.33121,"lon":5.38213,"is_reserved":false,"is_disabled":false,"rental_uris":{"android":"levelo://app?vid=b69d0c64-0724-4563-ab4e-cdb5166b1cd5","ios":"levelo://app?vid=b69d0c64-0724-4563-ab4e-cdb5166b1cd5"},"vehicle_type_id":"4","last_reported":1729772254,"current_range_meters":20400,"station_id":"","pricing_plan_id":"cebpf4jnsgd1na2vs0mg"},{"bike_id":"a9e64f5e-7c48-4c02-b30a-0c3d40bbe76a","system_id":"levelo_inurba_marseille","lat":43.270569,"lon":5.402616,"is_reserved":false,"is_disabled":false,"rental_uris":{"android":"levelo://app?vid=a9e64f5e-7c48-4c02-b30a-0c3d40bbe76a","ios":"levelo://app?vid=a9e64f5e-7c48-4c02-b30a-0c3d40bbe76a"},"vehicle_type_id":"4","last_reported":1729772254,"current_range_meters":24400,"station_id":"ce4bhk92rcd13ifvqgc0","pricing_plan_id":"cebpf4jnsgd1na2vs0mg"},{"bike_id":"e5aeedbc-587a-4d64-b627-0ff85ff30d31","system_id":"levelo_inurba_marseille","lat":43.29974,"lon":5.38496,"is_reserved":false,"is_disabled":false,"rental_uris":{"android":"levelo://app?vid=e5aeedbc-587a-4d64-b627-0ff85ff30d31","ios":"levelo://app?vid=e5aeedbc-587a-4d64-b627-0ff85ff30d31"},"vehicle_type_id":"4","last_reported":1729772254,"current_range_meters":38800,"station_id":"ce4bgj92rcd13ifvqbd0","pricing_plan_id":"cebpf4jnsgd1na2vs0mg"},{"bike_id":"fd10fbf8-8564-4ff7-89ac-557457970c71","system_id":"levelo_inurba_marseille","lat":43.29741,"lon":5.38047,"is_reserved":false,"is_disabled":false,"rental_uris":{"android":"levelo://app?vid=fd10fbf8-8564-4ff7-89ac-557457970c71","ios":"levelo://app?vid=fd10fbf8-8564-4ff7-89ac-557457970c71"},"vehicle_type_id":"4","last_reported":1729772254,"current_range_meters":18800,"station_id":"","pricing_plan_id":"cebpf4jnsgd1na2vs0mg"},{"bike_id":"f59dd63f-6b00-4bd5-8007-264c64236fde","system_id":"levelo_inurba_marseille","lat":43.2558,"lon":5.38224,"is_reserved":false,"is_disabled":false,"rental_uris":{"android":"levelo://app?vid=f59dd63f-6b00-4bd5-8007-264c64236fde","ios":"levelo://app?vid=f59dd63f-6b00-4bd5-8007-264c64236fde"},"vehicle_type_id":"4","last_reported":1729772254,"current_range_meters":27200,"station_id":"ce4bhih2rcd13ifvqfs0","pricing_plan_id":"cebpf4jnsgd1na2vs0mg"},{"bike_id":"866da92f-eb6c-4428-8396-b0ce1ce7d1d1","system_id":"levelo_inurba_marseille","lat":43.26561,"lon":5.37292,"is_reserved":false,"is_disabled":false,"rental_uris":{"android":"levelo://app?vid=866da92f-eb6c-4428-8396-b0ce1ce7d1d1","ios":"levelo://app?vid=866da92f-eb6c-4428-8396-b0ce1ce7d1d1"},"vehicle_type_id":"4","last_reported":1729772254,"current_range_meters":36000,"station_id":"ce4bhg12rcd13ifvqf70","pricing_plan_id":"cebpf4jnsgd1na2vs0mg"},{"bike_id":"abdde8c4-9ec6-4980-9e28-2429b6a237ce","system_id":"levelo_inurba_marseille","lat":43.306,"lon":5.37223,"is_reserved":false,"is_disabled":false,"rental_uris":{"android":"levelo://app?vid=abdde8c4-9ec6-4980-9e28-2429b6a237ce","ios":"levelo://app?vid=abdde8c4-9ec6-4980-9e28-2429b6a237ce"},"vehicle_type_id":"4","last_reported":1729772254,"current_range_meters":24800,"station_id":"ce4bgqh2rcd13ifvqc4g","pricing_plan_id":"cebpf4jnsgd1na2vs0mg"},{"bike_id":"6e83bcea-1e3d-410a-bfa8-8575203cd6d5","system_id":"levelo_inurba_marseille","lat":43.28416,"lon":5.34988,"is_reserved":false,"is_disabled":false,"rental_uris":{"android":"levelo://app?vid=6e83bcea-1e3d-410a-bfa8-8575203cd6d5","ios":"levelo://app?vid=6e83bcea-1e3d-410a-bfa8-8575203cd6d5"},"vehicle_type_id":"4","last_reported":1729772254,"current_range_meters":25600,"station_id":"ce4bhbh2rcd13ifvqepg","pricing_plan_id":"cebpf4jnsgd1na2vs0mg"},{"bike_id":"04f8a21c-c588-4eb1-9814-d2bf3d4941a8","system_id":"levelo_inurba_marseille","lat":43.29942,"lon":5.3655,"is_reserved":false,"is_disabled":false,"rental_uris":{"android":"levelo://app?vid=04f8a21c-c588-4eb1-9814-d2bf3d4941a8","ios":"levelo://app?vid=04f8a21c-c588-4eb1-9814-d2bf3d4941a8"},"vehicle_type_id":"4","last_reported":1729772254,"current_range_meters":34800,"station_id":"ce4bgm92rcd13ifvqbr0","pricing_plan_id":"cebpf4jnsgd1na2vs0mg"},{"bike_id":"d559dc1b-ba63-4390-a50c-92e4adeb1a9d","system_id":"levelo_inurba_marseille","lat":43.25933,"lon":5.40897,"is_reserved":false,"is_disabled":false,"rental_uris":{"android":"levelo://app?vid=d559dc1b-ba63-4390-a50c-92e4adeb1a9d","ios":"levelo://app?vid=d559dc1b-ba63-4390-a50c-92e4adeb1a9d"},"vehicle_type_id":"4","last_reported":1729772254,"current_range_meters":8000,"station_id":"ce4bhm92rcd13ifvqglg","pricing_plan_id":"cebpf4jnsgd1na2vs0mg"},{"bike_id":"3287af3b-0f8e-4e26-a81b-117a18814907","system_id":"levelo_inurba_marseille","lat":43.29281,"lon":5.36842,"is_reserved":false,"is_disabled":false,"rental_uris":{"android":"levelo://app?vid=3287af3b-0f8e-4e26-a81b-117a18814907","ios":"levelo://app?vid=3287af3b-0f8e-4e26-a81b-117a18814907"},"vehicle_type_id":"4","last_reported":1729772254,"current_range_meters":17200,"station_id":"ce4bhbp2rcd13ifvqesg","pricing_plan_id":"cebpf4jnsgd1na2vs0mg"},{"bike_id":"a9a03dbb-85a7-4dfb-a2bb-93b6aba98074","system_id":"levelo_inurba_marseille","lat":43.295776,"lon":5.375198,"is_reserved":false,"is_disabled":false,"rental_uris":{"android":"levelo://app?vid=a9a03dbb-85a7-4dfb-a2bb-93b6aba98074","ios":"levelo://app?vid=a9a03dbb-85a7-4dfb-a2bb-93b6aba98074"},"vehicle_type_id":"4","last_reported":1729772254,"current_range_meters":31200,"station_id":"ce4bgh92rcd13ifvqb50","pricing_plan_id":"cebpf4jnsgd1na2vs0mg"},{"bike_id":"74c4bf3a-3ba5-4344-9e0b-cee320ffef0e","system_id":"levelo_inurba_marseille","lat":43.28479,"lon":5.38542,"is_reserved":false,"is_disabled":false,"rental_uris":{"android":"levelo://app?vid=74c4bf3a-3ba5-4344-9e0b-cee320ffef0e","ios":"levelo://app?vid=74c4bf3a-3ba5-4344-9e0b-cee320ffef0e"},"vehicle_type_id":"4","last_reported":1729772254,"current_range_meters":34000,"station_id":"ce4bh8p2rcd13ifvqeb0","pricing_plan_id":"cebpf4jnsgd1na2vs0mg"},{"bike_id":"897c021c-26d9-4ce7-b322-63492c54141e","system_id":"levelo_inurba_marseille","lat":43.29899,"lon":5.4367,"is_reserved":false,"is_disabled":false,"rental_uris":{"android":"levelo://app?vid=897c021c-26d9-4ce7-b322-63492c54141e","ios":"levelo://app?vid=897c021c-26d9-4ce7-b322-63492c54141e"},"vehicle_type_id":"4","last_reported":1729772254,"current_range_meters":5600,"station_id":"ce4bhpp2rcd13ifvqhfg","pricing_plan_id":"cebpf4jnsgd1na2vs0mg"},{"bike_id":"c5baeef2-7e03-4e6d-be2d-206456692c98","system_id":"levelo_inurba_marseille","lat":43.32581,"lon":5.41517,"is_reserved":false,"is_disabled":false,"rental_uris":{"android":"levelo://app?vid=c5baeef2-7e03-4e6d-be2d-206456692c98","ios":"levelo://app?vid=c5baeef2-7e03-4e6d-be2d-206456692c98"},"vehicle_type_id":"4","last_reported":1729772254,"current_range_meters":39200,"station_id":"ce4bhq12rcd13ifvqhhg","pricing_plan_id":"cebpf4jnsgd1na2vs0mg"},{"bike_id":"03969644-c530-4c74-8f7f-cc95f17bf961","system_id":"levelo_inurba_marseille","lat":43.30953,"lon":5.39038,"is_reserved":false,"is_disabled":false,"rental_uris":{"android":"levelo://app?vid=03969644-c530-4c74-8f7f-cc95f17bf961","ios":"levelo://app?vid=03969644-c530-4c74-8f7f-cc95f17bf961"},"vehicle_type_id":"4","last_reported":1729772254,"current_range_meters":38800,"station_id":"ce4bgup2rcd13ifvqco0","pricing_plan_id":"cebpf4jnsgd1na2vs0mg"},{"bike_id":"ab6885ea-9951-493c-8466-8c45f4f85ecc","system_id":"levelo_inurba_marseille","lat":43.29571,"lon":5.37525,"is_reserved":false,"is_disabled":false,"rental_uris":{"android":"levelo://app?vid=ab6885ea-9951-493c-8466-8c45f4f85ecc","ios":"levelo://app?vid=ab6885ea-9951-493c-8466-8c45f4f85ecc"},"vehicle_type_id":"4","last_reported":1729772254,"current_range_meters":24800,"station_id":"ce4bgh92rcd13ifvqb50","pricing_plan_id":"cebpf4jnsgd1na2vs0mg"},{"bike_id":"bc45a63d-b524-4916-983c-c451ac1c70a9","system_id":"levelo_inurba_marseille","lat":43.28258,"lon":5.35061,"is_reserved":false,"is_disabled":false,"rental_uris":{"android":"levelo://app?vid=bc45a63d-b524-4916-983c-c451ac1c70a9","ios":"levelo://app?vid=bc45a63d-b524-4916-983c-c451ac1c70a9"},"vehicle_type_id":"4","last_reported":1729772254,"current_range_meters":24400,"station_id":"ce4bhbp2rcd13ifvqerg","pricing_plan_id":"cebpf4jnsgd1na2vs0mg"},{"bike_id":"df6fba92-616f-41b7-84c7-697c91053276","system_id":"levelo_inurba_marseille","lat":43.2294,"lon":5.35375,"is_reserved":false,"is_disabled":false,"rental_uris":{"android":"levelo://app?vid=df6fba92-616f-41b7-84c7-697c91053276","ios":"levelo://app?vid=df6fba92-616f-41b7-84c7-697c91053276"},"vehicle_type_id":"4","last_reported":1729772254,"current_range_meters":25200,"station_id":"cpo3532slgdg3j2ikp40","pricing_plan_id":"cebpf4jnsgd1na2vs0mg"},{"bike_id":"8c71dfa7-3435-4c76-a9ed-1de183118e5d","system_id":"levelo_inurba_marseille","lat":43.31232,"lon":5.36857,"is_reserved":false,"is_disabled":false,"rental_uris":{"android":"levelo://app?vid=8c71dfa7-3435-4c76-a9ed-1de183118e5d","ios":"levelo://app?vid=8c71dfa7-3435-4c76-a9ed-1de183118e5d"},"vehicle_type_id":"4","last_reported":1729772254,"current_range_meters":24400,"station_id":"ce4bgl92rcd13ifvqbq0","pricing_plan_id":"cebpf4jnsgd1na2vs0mg"},{"bike_id":"d4c96e24-4bae-4c1a-bd3a-5bdabc26251e","system_id":"levelo_inurba_marseille","lat":43.25495,"lon":5.37651,"is_reserved":false,"is_disabled":false,"rental_uris":{"android":"levelo://app?vid=d4c96e24-4bae-4c1a-bd3a-5bdabc26251e","ios":"levelo://app?vid=d4c96e24-4bae-4c1a-bd3a-5bdabc26251e"},"vehicle_type_id":"4","last_reported":1729772254,"current_range_meters":35200,"station_id":"ce4bhh12rcd13ifvqff0","pricing_plan_id":"cebpf4jnsgd1na2vs0mg"},{"bike_id":"8f40f5a1-dff7-42c7-90d7-c956ea526b89","system_id":"levelo_inurba_marseille","lat":43.30143,"lon":5.374151,"is_reserved":false,"is_disabled":false,"rental_uris":{"android":"levelo://app?vid=8f40f5a1-dff7-42c7-90d7-c956ea526b89","ios":"levelo://app?vid=8f40f5a1-dff7-42c7-90d7-c956ea526b89"},"vehicle_type_id":"4","last_reported":1729772254,"current_range_meters":35200,"station_id":"ce4bgs92rcd13ifvqcc0","pricing_plan_id":"cebpf4jnsgd1na2vs0mg"},{"bike_id":"f25dee26-fc36-4bbe-8cf7-4d807f4bf22a","system_id":"levelo_inurba_marseille","lat":43.28616,"lon":5.35108,"is_reserved":false,"is_disabled":false,"rental_uris":{"android":"levelo://app?vid=f25dee26-fc36-4bbe-8cf7-4d807f4bf22a","ios":"levelo://app?vid=f25dee26-fc36-4bbe-8cf7-4d807f4bf22a"},"vehicle_type_id":"4","last_reported":1729772254,"current_range_meters":35200,"station_id":"ce4bhch2rcd13ifvqeug","pricing_plan_id":"cebpf4jnsgd1na2vs0mg"},{"bike_id":"ee2895c0-9a5e-409e-ba79-132a5a797c5e","system_id":"levelo_inurba_marseille","lat":43.30536,"lon":5.36526,"is_reserved":false,"is_disabled":false,"rental_uris":{"android":"levelo://app?vid=ee2895c0-9a5e-409e-ba79-132a5a797c5e","ios":"levelo://app?vid=ee2895c0-9a5e-409e-ba79-132a5a797c5e"},"vehicle_type_id":"4","last_reported":1729772254,"current_range_meters":17600,"station_id":"ce4bgs12rcd13ifvqcag","pricing_plan_id":"cebpf4jnsgd1na2vs0mg"},{"bike_id":"677a26f0-a8b9-43c0-a2aa-8b4d07896f2e","system_id":"levelo_inurba_marseille","lat":43.25086,"lon":5.39519,"is_reserved":false,"is_disabled":false,"rental_uris":{"android":"levelo://app?vid=677a26f0-a8b9-43c0-a2aa-8b4d07896f2e","ios":"levelo://app?vid=677a26f0-a8b9-43c0-a2aa-8b4d07896f2e"},"vehicle_type_id":"4","last_reported":1729772254,"current_range_meters":22000,"station_id":"ce4bhm12rcd13ifvqgkg","pricing_plan_id":"cebpf4jnsgd1na2vs0mg"},{"bike_id":"4dd517db-98c2-4f74-b439-cbf3c49a9a6a","system_id":"levelo_inurba_marseille","lat":43.25498,"lon":5.37648,"is_reserved":false,"is_disabled":false,"rental_uris":{"android":"levelo://app?vid=4dd517db-98c2-4f74-b439-cbf3c49a9a6a","ios":"levelo://app?vid=4dd517db-98c2-4f74-b439-cbf3c49a9a6a"},"vehicle_type_id":"4","last_reported":1729772254,"current_range_meters":36800,"station_id":"ce4bhh12rcd13ifvqff0","pricing_plan_id":"cebpf4jnsgd1na2vs0mg"},{"bike_id":"32745b13-c55b-4aa9-82ac-9fbdcc1e90be","system_id":"levelo_inurba_marseille","lat":43.2549,"lon":5.37645,"is_reserved":false,"is_disabled":false,"rental_uris":{"android":"levelo://app?vid=32745b13-c55b-4aa9-82ac-9fbdcc1e90be","ios":"levelo://app?vid=32745b13-c55b-4aa9-82ac-9fbdcc1e90be"},"vehicle_type_id":"4","last_reported":1729772254,"current_range_meters":24400,"station_id":"","pricing_plan_id":"cebpf4jnsgd1na2vs0mg"},{"bike_id":"b094d4a5-f8e8-4ea5-91a8-7ddf088acd32","system_id":"levelo_inurba_marseille","lat":43.30536,"lon":5.36534,"is_reserved":false,"is_disabled":false,"rental_uris":{"android":"levelo://app?vid=b094d4a5-f8e8-4ea5-91a8-7ddf088acd32","ios":"levelo://app?vid=b094d4a5-f8e8-4ea5-91a8-7ddf088acd32"},"vehicle_type_id":"4","last_reported":1729772254,"current_range_meters":36800,"station_id":"ce4bgs12rcd13ifvqcag","pricing_plan_id":"cebpf4jnsgd1na2vs0mg"},{"bike_id":"a95624cf-2cfe-4360-83bb-93d7c7ccfb31","system_id":"levelo_inurba_marseille","lat":43.293,"lon":5.37169,"is_reserved":false,"is_disabled":false,"rental_uris":{"android":"levelo://app?vid=a95624cf-2cfe-4360-83bb-93d7c7ccfb31","ios":"levelo://app?vid=a95624cf-2cfe-4360-83bb-93d7c7ccfb31"},"vehicle_type_id":"4","last_reported":1729772254,"current_range_meters":38400,"station_id":"ce4bgh92rcd13ifvqb40","pricing_plan_id":"cebpf4jnsgd1na2vs0mg"},{"bike_id":"78568ba3-e558-46e4-aa36-5671f868e825","system_id":"levelo_inurba_marseille","lat":43.32034,"lon":5.41566,"is_reserved":false,"is_disabled":false,"rental_uris":{"android":"levelo://app?vid=78568ba3-e558-46e4-aa36-5671f868e825","ios":"levelo://app?vid=78568ba3-e558-46e4-aa36-5671f868e825"},"vehicle_type_id":"4","last_reported":1729772254,"current_range_meters":17600,"station_id":"ce4bhq92rcd13ifvqhkg","pricing_plan_id":"cebpf4jnsgd1na2vs0mg"},{"bike_id":"070bc03a-38fa-4628-b5b5-25f8226fc1ff","system_id":"levelo_inurba_marseille","lat":43.31271,"lon":5.40164,"is_reserved":false,"is_disabled":false,"rental_uris":{"android":"levelo://app?vid=070bc03a-38fa-4628-b5b5-25f8226fc1ff","ios":"levelo://app?vid=070bc03a-38fa-4628-b5b5-25f8226fc1ff"},"vehicle_type_id":"4","last_reported":1729772254,"current_range_meters":14800,"station_id":"ce4bh092rcd13ifvqd30","pricing_plan_id":"cebpf4jnsgd1na2vs0mg"},{"bike_id":"db69ea4c-1c7d-43a0-b7f1-e0da5b76f2ea","system_id":"levelo_inurba_marseille","lat":43.28437,"lon":5.45948,"is_reserved":false,"is_disabled":false,"rental_uris":{"android":"levelo://app?vid=db69ea4c-1c7d-43a0-b7f1-e0da5b76f2ea","ios":"levelo://app?vid=db69ea4c-1c7d-43a0-b7f1-e0da5b76f2ea"},"vehicle_type_id":"4","last_reported":1729772254,"current_range_meters":9200,"station_id":"","pricing_plan_id":"cebpf4jnsgd1na2vs0mg"},{"bike_id":"7fe1488d-af2f-40a8-b538-adab4aa02879","system_id":"levelo_inurba_marseille","lat":43.29691,"lon":5.37292,"is_reserved":false,"is_disabled":false,"rental_uris":{"android":"levelo://app?vid=7fe1488d-af2f-40a8-b538-adab4aa02879","ios":"levelo://app?vid=7fe1488d-af2f-40a8-b538-adab4aa02879"},"vehicle_type_id":"4","last_reported":1729772254,"current_range_meters":8400,"station_id":"ce4bgk12rcd13ifvqbj0","pricing_plan_id":"cebpf4jnsgd1na2vs0mg"},{"bike_id":"5d88a9b6-ebb6-498a-ba1b-fccdf74c849b","system_id":"levelo_inurba_marseille","lat":43.255,"lon":5.3765,"is_reserved":false,"is_disabled":false,"rental_uris":{"android":"levelo://app?vid=5d88a9b6-ebb6-498a-ba1b-fccdf74c849b","ios":"levelo://app?vid=5d88a9b6-ebb6-498a-ba1b-fccdf74c849b"},"vehicle_type_id":"4","last_reported":1729772254,"current_range_meters":39200,"station_id":"ce4bhh12rcd13ifvqff0","pricing_plan_id":"cebpf4jnsgd1na2vs0mg"},{"bike_id":"c4471e03-dfd0-4ee7-9c80-135e7dcc27d4","system_id":"levelo_inurba_marseille","lat":43.28353,"lon":5.3809,"is_reserved":false,"is_disabled":false,"rental_uris":{"android":"levelo://app?vid=c4471e03-dfd0-4ee7-9c80-135e7dcc27d4","ios":"levelo://app?vid=c4471e03-dfd0-4ee7-9c80-135e7dcc27d4"},"vehicle_type_id":"4","last_reported":1729772254,"current_range_meters":24400,"station_id":"ce4bh412rcd13ifvqdr0","pricing_plan_id":"cebpf4jnsgd1na2vs0mg"},{"bike_id":"cb3dd918-6355-4d2d-a9bc-aeaf59e0a27b","system_id":"levelo_inurba_marseille","lat":43.25497,"lon":5.37647,"is_reserved":false,"is_disabled":false,"rental_uris":{"android":"levelo://app?vid=cb3dd918-6355-4d2d-a9bc-aeaf59e0a27b","ios":"levelo://app?vid=cb3dd918-6355-4d2d-a9bc-aeaf59e0a27b"},"vehicle_type_id":"4","last_reported":1729772254,"current_range_meters":38800,"station_id":"ce4bhh12rcd13ifvqff0","pricing_plan_id":"cebpf4jnsgd1na2vs0mg"},{"bike_id":"c82f854a-bb7c-466d-967d-2a9753adce0d","system_id":"levelo_inurba_marseille","lat":43.291748,"lon":5.37326,"is_reserved":false,"is_disabled":false,"rental_uris":{"android":"levelo://app?vid=c82f854a-bb7c-466d-967d-2a9753adce0d","ios":"levelo://app?vid=c82f854a-bb7c-466d-967d-2a9753adce0d"},"vehicle_type_id":"4","last_reported":1729772254,"current_range_meters":22800,"station_id":"ce4bgg92rcd13ifvqb30","pricing_plan_id":"cebpf4jnsgd1na2vs0mg"},{"bike_id":"75d96cab-9735-4c6d-adc4-b157cfc89d5a","system_id":"levelo_inurba_marseille","lat":43.298,"lon":5.38094,"is_reserved":false,"is_disabled":false,"rental_uris":{"android":"levelo://app?vid=75d96cab-9735-4c6d-adc4-b157cfc89d5a","ios":"levelo://app?vid=75d96cab-9735-4c6d-adc4-b157cfc89d5a"},"vehicle_type_id":"4","last_reported":1729772254,"current_range_meters":24400,"station_id":"ce4bgip2rcd13ifvqbb0","pricing_plan_id":"cebpf4jnsgd1na2vs0mg"},{"bike_id":"26e91605-455f-4c16-b2a3-9aae7c4ea3de","system_id":"levelo_inurba_marseille","lat":43.29708,"lon":5.36601,"is_reserved":false,"is_disabled":false,"rental_uris":{"android":"levelo://app?vid=26e91605-455f-4c16-b2a3-9aae7c4ea3de","ios":"levelo://app?vid=26e91605-455f-4c16-b2a3-9aae7c4ea3de"},"vehicle_type_id":"4","last_reported":1729772254,"current_range_meters":38800,"station_id":"ce4bgn12rcd13ifvqbt0","pricing_plan_id":"cebpf4jnsgd1na2vs0mg"},{"bike_id":"b3e4f306-2e26-4f6c-8b39-24cc764ed051","system_id":"levelo_inurba_marseille","lat":43.28477,"lon":5.38406,"is_reserved":false,"is_disabled":false,"rental_uris":{"android":"levelo://app?vid=b3e4f306-2e26-4f6c-8b39-24cc764ed051","ios":"levelo://app?vid=b3e4f306-2e26-4f6c-8b39-24cc764ed051"},"vehicle_type_id":"4","last_reported":1729772254,"current_range_meters":39200,"station_id":"ce4bh512rcd13ifvqe3g","pricing_plan_id":"cebpf4jnsgd1na2vs0mg"},{"bike_id":"e29daa00-c9a5-4236-a53a-23c3d236a4ff","system_id":"levelo_inurba_marseille","lat":43.29707,"lon":5.36596,"is_reserved":false,"is_disabled":false,"rental_uris":{"android":"levelo://app?vid=e29daa00-c9a5-4236-a53a-23c3d236a4ff","ios":"levelo://app?vid=e29daa00-c9a5-4236-a53a-23c3d236a4ff"},"vehicle_type_id":"4","last_reported":1729772254,"current_range_meters":19200,"station_id":"ce4bgn12rcd13ifvqbt0","pricing_plan_id":"cebpf4jnsgd1na2vs0mg"},{"bike_id":"95f70a23-3f9b-4773-a61e-dff0d3b06c5e","system_id":"levelo_inurba_marseille","lat":43.30148,"lon":5.37419,"is_reserved":false,"is_disabled":false,"rental_uris":{"android":"levelo://app?vid=95f70a23-3f9b-4773-a61e-dff0d3b06c5e","ios":"levelo://app?vid=95f70a23-3f9b-4773-a61e-dff0d3b06c5e"},"vehicle_type_id":"4","last_reported":1729772254,"current_range_meters":37600,"station_id":"ce4bgs92rcd13ifvqcc0","pricing_plan_id":"cebpf4jnsgd1na2vs0mg"},{"bike_id":"15461a9d-07bb-47aa-9e20-59ba25871227","system_id":"levelo_inurba_marseille","lat":43.2781,"lon":5.40708,"is_reserved":false,"is_disabled":false,"rental_uris":{"android":"levelo://app?vid=15461a9d-07bb-47aa-9e20-59ba25871227","ios":"levelo://app?vid=15461a9d-07bb-47aa-9e20-59ba25871227"},"vehicle_type_id":"4","last_reported":1729772254,"current_range_meters":36400,"station_id":"ce4bhnh2rcd13ifvqgtg","pricing_plan_id":"cebpf4jnsgd1na2vs0mg"},{"bike_id":"ee56864d-0289-4ab0-b1d9-4e118a6c50f5","system_id":"levelo_inurba_marseille","lat":43.34149,"lon":5.40895,"is_reserved":false,"is_disabled":false,"rental_uris":{"android":"levelo://app?vid=ee56864d-0289-4ab0-b1d9-4e118a6c50f5","ios":"levelo://app?vid=ee56864d-0289-4ab0-b1d9-4e118a6c50f5"},"vehicle_type_id":"4","last_reported":1729772254,"current_range_meters":39200,"station_id":"ce4bhqh2rcd13ifvqhlg","pricing_plan_id":"cebpf4jnsgd1na2vs0mg"},{"bike_id":"c0884169-9230-4cdd-929b-3500bd3a1459","system_id":"levelo_inurba_marseille","lat":43.29027,"lon":5.37552,"is_reserved":false,"is_disabled":false,"rental_uris":{"android":"levelo://app?vid=c0884169-9230-4cdd-929b-3500bd3a1459","ios":"levelo://app?vid=c0884169-9230-4cdd-929b-3500bd3a1459"},"vehicle_type_id":"4","last_reported":1729772254,"current_range_meters":38800,"station_id":"ce4bh692rcd13ifvqe90","pricing_plan_id":"cebpf4jnsgd1na2vs0mg"},{"bike_id":"3da9b360-54de-4f25-8af7-9b3f8004742e","system_id":"levelo_inurba_marseille","lat":43.30145,"lon":5.38081,"is_reserved":false,"is_disabled":false,"rental_uris":{"android":"levelo://app?vid=3da9b360-54de-4f25-8af7-9b3f8004742e","ios":"levelo://app?vid=3da9b360-54de-4f25-8af7-9b3f8004742e"},"vehicle_type_id":"4","last_reported":1729772254,"current_range_meters":36000,"station_id":"ce4bgjp2rcd13ifvqbh0","pricing_plan_id":"cebpf4jnsgd1na2vs0mg"},{"bike_id":"d9447c08-1a7c-4b4b-b968-d6c7901f21e4","system_id":"levelo_inurba_marseille","lat":43.29575,"lon":5.37497,"is_reserved":false,"is_disabled":false,"rental_uris":{"android":"levelo://app?vid=d9447c08-1a7c-4b4b-b968-d6c7901f21e4","ios":"levelo://app?vid=d9447c08-1a7c-4b4b-b968-d6c7901f21e4"},"vehicle_type_id":"4","last_reported":1729772254,"current_range_meters":29600,"station_id":"ce4bgh92rcd13ifvqb50","pricing_plan_id":"cebpf4jnsgd1na2vs0mg"},{"bike_id":"7fcbf994-2e47-4b65-86cc-9b02be9d0560","system_id":"levelo_inurba_marseille","lat":43.29938,"lon":5.36535,"is_reserved":false,"is_disabled":false,"rental_uris":{"android":"levelo://app?vid=7fcbf994-2e47-4b65-86cc-9b02be9d0560","ios":"levelo://app?vid=7fcbf994-2e47-4b65-86cc-9b02be9d0560"},"vehicle_type_id":"4","last_reported":1729772254,"current_range_meters":24000,"station_id":"ce4bgm92rcd13ifvqbr0","pricing_plan_id":"cebpf4jnsgd1na2vs0mg"},{"bike_id":"f76d7485-5b5d-436f-affc-371a23f7c2c2","system_id":"levelo_inurba_marseille","lat":43.28479,"lon":5.384144,"is_reserved":false,"is_disabled":false,"rental_uris":{"android":"levelo://app?vid=f76d7485-5b5d-436f-affc-371a23f7c2c2","ios":"levelo://app?vid=f76d7485-5b5d-436f-affc-371a23f7c2c2"},"vehicle_type_id":"4","last_reported":1729772254,"current_range_meters":18000,"station_id":"ce4bh512rcd13ifvqe3g","pricing_plan_id":"cebpf4jnsgd1na2vs0mg"},{"bike_id":"3caf2415-f812-4cf4-975b-c11dfcc8a53b","system_id":"levelo_inurba_marseille","lat":43.303162,"lon":5.379375,"is_reserved":false,"is_disabled":false,"rental_uris":{"android":"levelo://app?vid=3caf2415-f812-4cf4-975b-c11dfcc8a53b","ios":"levelo://app?vid=3caf2415-f812-4cf4-975b-c11dfcc8a53b"},"vehicle_type_id":"4","last_reported":1729772254,"current_range_meters":20000,"station_id":"ce4bgup2rcd13ifvqcn0","pricing_plan_id":"cebpf4jnsgd1na2vs0mg"},{"bike_id":"1ebe0b5e-7296-4bfd-b049-6d227cbec120","system_id":"levelo_inurba_marseille","lat":43.26493,"lon":5.39547,"is_reserved":false,"is_disabled":false,"rental_uris":{"android":"levelo://app?vid=1ebe0b5e-7296-4bfd-b049-6d227cbec120","ios":"levelo://app?vid=1ebe0b5e-7296-4bfd-b049-6d227cbec120"},"vehicle_type_id":"4","last_reported":1729772254,"current_range_meters":12000,"station_id":"ce4bhi12rcd13ifvqfq0","pricing_plan_id":"cebpf4jnsgd1na2vs0mg"},{"bike_id":"9b93a132-5ed8-4236-bcd5-0c80332e11d9","system_id":"levelo_inurba_marseille","lat":43.29703,"lon":5.37954,"is_reserved":false,"is_disabled":false,"rental_uris":{"android":"levelo://app?vid=9b93a132-5ed8-4236-bcd5-0c80332e11d9","ios":"levelo://app?vid=9b93a132-5ed8-4236-bcd5-0c80332e11d9"},"vehicle_type_id":"4","last_reported":1729772254,"current_range_meters":30800,"station_id":"ce4bhap2rcd13ifvqek0","pricing_plan_id":"cebpf4jnsgd1na2vs0mg"},{"bike_id":"3a904881-c49f-42f3-ab29-bca1bed304a9","system_id":"levelo_inurba_marseille","lat":43.25938,"lon":5.40899,"is_reserved":false,"is_disabled":false,"rental_uris":{"android":"levelo://app?vid=3a904881-c49f-42f3-ab29-bca1bed304a9","ios":"levelo://app?vid=3a904881-c49f-42f3-ab29-bca1bed304a9"},"vehicle_type_id":"4","last_reported":1729772254,"current_range_meters":27200,"station_id":"ce4bhm92rcd13ifvqglg","pricing_plan_id":"cebpf4jnsgd1na2vs0mg"},{"bike_id":"a2f4de03-feca-4178-91d0-e8a50d47b7ab","system_id":"levelo_inurba_marseille","lat":43.274078,"lon":5.362259,"is_reserved":false,"is_disabled":false,"rental_uris":{"android":"levelo://app?vid=a2f4de03-feca-4178-91d0-e8a50d47b7ab","ios":"levelo://app?vid=a2f4de03-feca-4178-91d0-e8a50d47b7ab"},"vehicle_type_id":"4","last_reported":1729772254,"current_range_meters":16000,"station_id":"ce4bgkp2rcd13ifvqbmg","pricing_plan_id":"cebpf4jnsgd1na2vs0mg"},{"bike_id":"5f120777-a767-4e0d-af7e-e4fc1aeb29f7","system_id":"levelo_inurba_marseille","lat":43.2396,"lon":5.3663,"is_reserved":false,"is_disabled":false,"rental_uris":{"android":"levelo://app?vid=5f120777-a767-4e0d-af7e-e4fc1aeb29f7","ios":"levelo://app?vid=5f120777-a767-4e0d-af7e-e4fc1aeb29f7"},"vehicle_type_id":"4","last_reported":1729772254,"current_range_meters":15200,"station_id":"ce4bhi12rcd13ifvqfp0","pricing_plan_id":"cebpf4jnsgd1na2vs0mg"},{"bike_id":"e3f9c825-bd86-43a7-b78b-c3262f86a9bd","system_id":"levelo_inurba_marseille","lat":43.29613,"lon":5.37726,"is_reserved":false,"is_disabled":false,"rental_uris":{"android":"levelo://app?vid=e3f9c825-bd86-43a7-b78b-c3262f86a9bd","ios":"levelo://app?vid=e3f9c825-bd86-43a7-b78b-c3262f86a9bd"},"vehicle_type_id":"4","last_reported":1729772254,"current_range_meters":20400,"station_id":"ce4bgi92rcd13ifvqb90","pricing_plan_id":"cebpf4jnsgd1na2vs0mg"},{"bike_id":"863619cf-fdea-45dd-9c35-56c0fecc7013","system_id":"levelo_inurba_marseille","lat":43.31074,"lon":5.38348,"is_reserved":false,"is_disabled":false,"rental_uris":{"android":"levelo://app?vid=863619cf-fdea-45dd-9c35-56c0fecc7013","ios":"levelo://app?vid=863619cf-fdea-45dd-9c35-56c0fecc7013"},"vehicle_type_id":"4","last_reported":1729772254,"current_range_meters":24800,"station_id":"ce4bgv92rcd13ifvqcr0","pricing_plan_id":"cebpf4jnsgd1na2vs0mg"},{"bike_id":"b1749c6c-427c-4666-85e0-e170bce6bfc9","system_id":"levelo_inurba_marseille","lat":43.30881,"lon":5.3965,"is_reserved":false,"is_disabled":false,"rental_uris":{"android":"levelo://app?vid=b1749c6c-427c-4666-85e0-e170bce6bfc9","ios":"levelo://app?vid=b1749c6c-427c-4666-85e0-e170bce6bfc9"},"vehicle_type_id":"4","last_reported":1729772254,"current_range_meters":11200,"station_id":"ce4bh012rcd13ifvqcv0","pricing_plan_id":"cebpf4jnsgd1na2vs0mg"},{"bike_id":"91bfa645-9cfa-4568-8072-595cbd3b9c72","system_id":"levelo_inurba_marseille","lat":43.28912,"lon":5.36105,"is_reserved":false,"is_disabled":false,"rental_uris":{"android":"levelo://app?vid=91bfa645-9cfa-4568-8072-595cbd3b9c72","ios":"levelo://app?vid=91bfa645-9cfa-4568-8072-595cbd3b9c72"},"vehicle_type_id":"4","last_reported":1729772254,"current_range_meters":24000,"station_id":"","pricing_plan_id":"cebpf4jnsgd1na2vs0mg"},{"bike_id":"7ac878d5-7464-47b0-8096-73b091a39903","system_id":"levelo_inurba_marseille","lat":43.305265,"lon":5.365258,"is_reserved":false,"is_disabled":false,"rental_uris":{"android":"levelo://app?vid=7ac878d5-7464-47b0-8096-73b091a39903","ios":"levelo://app?vid=7ac878d5-7464-47b0-8096-73b091a39903"},"vehicle_type_id":"4","last_reported":1729772254,"current_range_meters":24000,"station_id":"ce4bgs12rcd13ifvqcag","pricing_plan_id":"cebpf4jnsgd1na2vs0mg"},{"bike_id":"678de949-9c97-4c29-87e5-9f0dabf6b6c1","system_id":"levelo_inurba_marseille","lat":43.25498,"lon":5.3765,"is_reserved":false,"is_disabled":false,"rental_uris":{"android":"levelo://app?vid=678de949-9c97-4c29-87e5-9f0dabf6b6c1","ios":"levelo://app?vid=678de949-9c97-4c29-87e5-9f0dabf6b6c1"},"vehicle_type_id":"4","last_reported":1729772254,"current_range_meters":39200,"station_id":"ce4bhh12rcd13ifvqff0","pricing_plan_id":"cebpf4jnsgd1na2vs0mg"},{"bike_id":"4a969d9a-a2f7-4482-9d72-f6a3a46a8b8b","system_id":"levelo_inurba_marseille","lat":43.30142,"lon":5.37415,"is_reserved":false,"is_disabled":false,"rental_uris":{"android":"levelo://app?vid=4a969d9a-a2f7-4482-9d72-f6a3a46a8b8b","ios":"levelo://app?vid=4a969d9a-a2f7-4482-9d72-f6a3a46a8b8b"},"vehicle_type_id":"4","last_reported":1729772254,"current_range_meters":28800,"station_id":"ce4bgs92rcd13ifvqcc0","pricing_plan_id":"cebpf4jnsgd1na2vs0mg"},{"bike_id":"b48ab188-f6d5-47d9-b0dc-727d13abee05","system_id":"levelo_inurba_marseille","lat":43.24176,"lon":5.397274,"is_reserved":false,"is_disabled":false,"rental_uris":{"android":"levelo://app?vid=b48ab188-f6d5-47d9-b0dc-727d13abee05","ios":"levelo://app?vid=b48ab188-f6d5-47d9-b0dc-727d13abee05"},"vehicle_type_id":"4","last_reported":1729772254,"current_range_meters":38800,"station_id":"ce4bhn12rcd13ifvqgpg","pricing_plan_id":"cebpf4jnsgd1na2vs0mg"},{"bike_id":"f0c6b261-6437-47f6-8dc6-ea3a3156d0c2","system_id":"levelo_inurba_marseille","lat":43.24077,"lon":5.37758,"is_reserved":false,"is_disabled":false,"rental_uris":{"android":"levelo://app?vid=f0c6b261-6437-47f6-8dc6-ea3a3156d0c2","ios":"levelo://app?vid=f0c6b261-6437-47f6-8dc6-ea3a3156d0c2"},"vehicle_type_id":"4","last_reported":1729772254,"current_range_meters":33200,"station_id":"ce4bhnp2rcd13ifvqgvg","pricing_plan_id":"cebpf4jnsgd1na2vs0mg"},{"bike_id":"af618369-8a5b-40f1-912b-f3e0abb57b50","system_id":"levelo_inurba_marseille","lat":43.267846,"lon":5.394173,"is_reserved":false,"is_disabled":false,"rental_uris":{"android":"levelo://app?vid=af618369-8a5b-40f1-912b-f3e0abb57b50","ios":"levelo://app?vid=af618369-8a5b-40f1-912b-f3e0abb57b50"},"vehicle_type_id":"4","last_reported":1729772254,"current_range_meters":18000,"station_id":"ce4bhh12rcd13ifvqfg0","pricing_plan_id":"cebpf4jnsgd1na2vs0mg"},{"bike_id":"0300ae8c-d89e-4fc9-94c4-e4571dd93d5f","system_id":"levelo_inurba_marseille","lat":43.25933,"lon":5.40896,"is_reserved":false,"is_disabled":false,"rental_uris":{"android":"levelo://app?vid=0300ae8c-d89e-4fc9-94c4-e4571dd93d5f","ios":"levelo://app?vid=0300ae8c-d89e-4fc9-94c4-e4571dd93d5f"},"vehicle_type_id":"4","last_reported":1729772254,"current_range_meters":31200,"station_id":"ce4bhm92rcd13ifvqglg","pricing_plan_id":"cebpf4jnsgd1na2vs0mg"},{"bike_id":"c9ddcc58-d1ff-4f4b-8a00-261bdb2bdb0a","system_id":"levelo_inurba_marseille","lat":43.30381,"lon":5.40777,"is_reserved":false,"is_disabled":false,"rental_uris":{"android":"levelo://app?vid=c9ddcc58-d1ff-4f4b-8a00-261bdb2bdb0a","ios":"levelo://app?vid=c9ddcc58-d1ff-4f4b-8a00-261bdb2bdb0a"},"vehicle_type_id":"4","last_reported":1729772254,"current_range_meters":8400,"station_id":"","pricing_plan_id":"cebpf4jnsgd1na2vs0mg"},{"bike_id":"4b95714c-d874-4285-bfcb-a2cdb5418621","system_id":"levelo_inurba_marseille","lat":43.28934,"lon":5.36632,"is_reserved":false,"is_disabled":false,"rental_uris":{"android":"levelo://app?vid=4b95714c-d874-4285-bfcb-a2cdb5418621","ios":"levelo://app?vid=4b95714c-d874-4285-bfcb-a2cdb5418621"},"vehicle_type_id":"4","last_reported":1729772254,"current_range_meters":22800,"station_id":"ce4bhap2rcd13ifvqek0","pricing_plan_id":"cebpf4jnsgd1na2vs0mg"},{"bike_id":"8b368eb4-d88f-4e27-9a59-f48c296d2a4c","system_id":"levelo_inurba_marseille","lat":43.27994,"lon":5.41651,"is_reserved":false,"is_disabled":false,"rental_uris":{"android":"levelo://app?vid=8b368eb4-d88f-4e27-9a59-f48c296d2a4c","ios":"levelo://app?vid=8b368eb4-d88f-4e27-9a59-f48c296d2a4c"},"vehicle_type_id":"4","last_reported":1729772254,"current_range_meters":22400,"station_id":"ce4bho12rcd13ifvqh1g","pricing_plan_id":"cebpf4jnsgd1na2vs0mg"},{"bike_id":"cdea4aca-3bdc-43f7-b0f5-c5a3f7e0a307","system_id":"levelo_inurba_marseille","lat":43.29582,"lon":5.36732,"is_reserved":false,"is_disabled":false,"rental_uris":{"android":"levelo://app?vid=cdea4aca-3bdc-43f7-b0f5-c5a3f7e0a307","ios":"levelo://app?vid=cdea4aca-3bdc-43f7-b0f5-c5a3f7e0a307"},"vehicle_type_id":"4","last_reported":1729772254,"current_range_meters":38400,"station_id":"ce4bgph2rcd13ifvqc2g","pricing_plan_id":"cebpf4jnsgd1na2vs0mg"},{"bike_id":"c8a53c12-5982-4223-adde-6efe7348e3c3","system_id":"levelo_inurba_marseille","lat":43.28425,"lon":5.3498,"is_reserved":false,"is_disabled":false,"rental_uris":{"android":"levelo://app?vid=c8a53c12-5982-4223-adde-6efe7348e3c3","ios":"levelo://app?vid=c8a53c12-5982-4223-adde-6efe7348e3c3"},"vehicle_type_id":"4","last_reported":1729772254,"current_range_meters":36800,"station_id":"ce4bhbh2rcd13ifvqepg","pricing_plan_id":"cebpf4jnsgd1na2vs0mg"},{"bike_id":"9c980766-3696-42be-8e1a-d22fb6edb5c5","system_id":"levelo_inurba_marseille","lat":43.30681,"lon":5.38196,"is_reserved":false,"is_disabled":false,"rental_uris":{"android":"levelo://app?vid=9c980766-3696-42be-8e1a-d22fb6edb5c5","ios":"levelo://app?vid=9c980766-3696-42be-8e1a-d22fb6edb5c5"},"vehicle_type_id":"4","last_reported":1729772254,"current_range_meters":28400,"station_id":"","pricing_plan_id":"cebpf4jnsgd1na2vs0mg"},{"bike_id":"3b65ae1b-7a9f-48f9-a271-9dce26f02699","system_id":"levelo_inurba_marseille","lat":43.28412,"lon":5.34975,"is_reserved":false,"is_disabled":false,"rental_uris":{"android":"levelo://app?vid=3b65ae1b-7a9f-48f9-a271-9dce26f02699","ios":"levelo://app?vid=3b65ae1b-7a9f-48f9-a271-9dce26f02699"},"vehicle_type_id":"4","last_reported":1729772254,"current_range_meters":33200,"station_id":"ce4bhbh2rcd13ifvqepg","pricing_plan_id":"cebpf4jnsgd1na2vs0mg"},{"bike_id":"d8655792-5834-4f3c-af3f-18edc8c1f2a6","system_id":"levelo_inurba_marseille","lat":43.28262,"lon":5.35063,"is_reserved":false,"is_disabled":false,"rental_uris":{"android":"levelo://app?vid=d8655792-5834-4f3c-af3f-18edc8c1f2a6","ios":"levelo://app?vid=d8655792-5834-4f3c-af3f-18edc8c1f2a6"},"vehicle_type_id":"4","last_reported":1729772254,"current_range_meters":20800,"station_id":"ce4bhbp2rcd13ifvqerg","pricing_plan_id":"cebpf4jnsgd1na2vs0mg"},{"bike_id":"51c6e983-a96c-4409-a661-9ecf9009a961","system_id":"levelo_inurba_marseille","lat":43.31759,"lon":5.39012,"is_reserved":false,"is_disabled":false,"rental_uris":{"android":"levelo://app?vid=51c6e983-a96c-4409-a661-9ecf9009a961","ios":"levelo://app?vid=51c6e983-a96c-4409-a661-9ecf9009a961"},"vehicle_type_id":"4","last_reported":1729772254,"current_range_meters":27600,"station_id":"ce4bhqp2rcd13ifvqhng","pricing_plan_id":"cebpf4jnsgd1na2vs0mg"},{"bike_id":"0cdbb134-96fa-4d9b-af27-8018256ef8c7","system_id":"levelo_inurba_marseille","lat":43.23182,"lon":5.39978,"is_reserved":false,"is_disabled":false,"rental_uris":{"android":"levelo://app?vid=0cdbb134-96fa-4d9b-af27-8018256ef8c7","ios":"levelo://app?vid=0cdbb134-96fa-4d9b-af27-8018256ef8c7"},"vehicle_type_id":"4","last_reported":1729772254,"current_range_meters":22800,"station_id":"ce4bhn12rcd13ifvqgqg","pricing_plan_id":"cebpf4jnsgd1na2vs0mg"},{"bike_id":"624fe77a-eea3-45c5-8705-7034c073ec0f","system_id":"levelo_inurba_marseille","lat":43.3053,"lon":5.36527,"is_reserved":false,"is_disabled":false,"rental_uris":{"android":"levelo://app?vid=624fe77a-eea3-45c5-8705-7034c073ec0f","ios":"levelo://app?vid=624fe77a-eea3-45c5-8705-7034c073ec0f"},"vehicle_type_id":"4","last_reported":1729772254,"current_range_meters":16000,"station_id":"ce4bgs12rcd13ifvqcag","pricing_plan_id":"cebpf4jnsgd1na2vs0mg"},{"bike_id":"5c94f4f0-f0cd-4179-8b32-cf5ce3cee721","system_id":"levelo_inurba_marseille","lat":43.27375,"lon":5.36251,"is_reserved":false,"is_disabled":false,"rental_uris":{"android":"levelo://app?vid=5c94f4f0-f0cd-4179-8b32-cf5ce3cee721","ios":"levelo://app?vid=5c94f4f0-f0cd-4179-8b32-cf5ce3cee721"},"vehicle_type_id":"4","last_reported":1729772254,"current_range_meters":4800,"station_id":"ce4bhbh2rcd13ifvqeo0","pricing_plan_id":"cebpf4jnsgd1na2vs0mg"},{"bike_id":"2f280097-2620-4f0d-804a-f515f4f18c55","system_id":"levelo_inurba_marseille","lat":43.28845,"lon":5.35874,"is_reserved":false,"is_disabled":false,"rental_uris":{"android":"levelo://app?vid=2f280097-2620-4f0d-804a-f515f4f18c55","ios":"levelo://app?vid=2f280097-2620-4f0d-804a-f515f4f18c55"},"vehicle_type_id":"4","last_reported":1729772254,"current_range_meters":17600,"station_id":"ce4bhb12rcd13ifvqem0","pricing_plan_id":"cebpf4jnsgd1na2vs0mg"},{"bike_id":"d6f7f002-66ec-429a-b3ce-515384eb9e63","system_id":"levelo_inurba_marseille","lat":43.31123,"lon":5.37771,"is_reserved":false,"is_disabled":false,"rental_uris":{"android":"levelo://app?vid=d6f7f002-66ec-429a-b3ce-515384eb9e63","ios":"levelo://app?vid=d6f7f002-66ec-429a-b3ce-515384eb9e63"},"vehicle_type_id":"4","last_reported":1729772254,"current_range_meters":29600,"station_id":"ce4bgt92rcd13ifvqcg0","pricing_plan_id":"cebpf4jnsgd1na2vs0mg"},{"bike_id":"8792ca9d-72a1-48ce-8697-8e94c6bb9a2b","system_id":"levelo_inurba_marseille","lat":43.292784,"lon":5.368329,"is_reserved":false,"is_disabled":false,"rental_uris":{"android":"levelo://app?vid=8792ca9d-72a1-48ce-8697-8e94c6bb9a2b","ios":"levelo://app?vid=8792ca9d-72a1-48ce-8697-8e94c6bb9a2b"},"vehicle_type_id":"4","last_reported":1729772254,"current_range_meters":31200,"station_id":"ce4bhbp2rcd13ifvqesg","pricing_plan_id":"cebpf4jnsgd1na2vs0mg"},{"bike_id":"2036252e-d8cd-4387-9991-72545996ef6c","system_id":"levelo_inurba_marseille","lat":43.29971,"lon":5.38493,"is_reserved":false,"is_disabled":false,"rental_uris":{"android":"levelo://app?vid=2036252e-d8cd-4387-9991-72545996ef6c","ios":"levelo://app?vid=2036252e-d8cd-4387-9991-72545996ef6c"},"vehicle_type_id":"4","last_reported":1729772254,"current_range_meters":38400,"station_id":"ce4bgj92rcd13ifvqbd0","pricing_plan_id":"cebpf4jnsgd1na2vs0mg"},{"bike_id":"90c3a3ae-e1f9-49f9-8230-c82dc265a457","system_id":"levelo_inurba_marseille","lat":43.31992,"lon":5.38148,"is_reserved":false,"is_disabled":false,"rental_uris":{"android":"levelo://app?vid=90c3a3ae-e1f9-49f9-8230-c82dc265a457","ios":"levelo://app?vid=90c3a3ae-e1f9-49f9-8230-c82dc265a457"},"vehicle_type_id":"4","last_reported":1729772254,"current_range_meters":7200,"station_id":"ce4bhr12rcd13ifvqhpg","pricing_plan_id":"cebpf4jnsgd1na2vs0mg"},{"bike_id":"b61613ac-0748-4108-8037-3d7940c77f58","system_id":"levelo_inurba_marseille","lat":43.26797,"lon":5.40256,"is_reserved":false,"is_disabled":false,"rental_uris":{"android":"levelo://app?vid=b61613ac-0748-4108-8037-3d7940c77f58","ios":"levelo://app?vid=b61613ac-0748-4108-8037-3d7940c77f58"},"vehicle_type_id":"4","last_reported":1729772254,"current_range_meters":39200,"station_id":"ce501612rcd8frsf0b60","pricing_plan_id":"cebpf4jnsgd1na2vs0mg"},{"bike_id":"3329b6da-e063-482c-9774-f6250ffbb190","system_id":"levelo_inurba_marseille","lat":43.2668,"lon":5.38266,"is_reserved":false,"is_disabled":false,"rental_uris":{"android":"levelo://app?vid=3329b6da-e063-482c-9774-f6250ffbb190","ios":"levelo://app?vid=3329b6da-e063-482c-9774-f6250ffbb190"},"vehicle_type_id":"4","last_reported":1729772254,"current_range_meters":26000,"station_id":"ce4bhg92rcd13ifvqf90","pricing_plan_id":"cebpf4jnsgd1na2vs0mg"},{"bike_id":"d1b42cfa-1c25-4cb0-97a5-e058593983bc","system_id":"levelo_inurba_marseille","lat":43.29621,"lon":5.37715,"is_reserved":false,"is_disabled":false,"rental_uris":{"android":"levelo://app?vid=d1b42cfa-1c25-4cb0-97a5-e058593983bc","ios":"levelo://app?vid=d1b42cfa-1c25-4cb0-97a5-e058593983bc"},"vehicle_type_id":"4","last_reported":1729772254,"current_range_meters":8400,"station_id":"ce4bgi92rcd13ifvqb90","pricing_plan_id":"cebpf4jnsgd1na2vs0mg"},{"bike_id":"d3ec8a45-0000-4da3-a955-76731e4dce90","system_id":"levelo_inurba_marseille","lat":43.24081,"lon":5.37749,"is_reserved":false,"is_disabled":false,"rental_uris":{"android":"levelo://app?vid=d3ec8a45-0000-4da3-a955-76731e4dce90","ios":"levelo://app?vid=d3ec8a45-0000-4da3-a955-76731e4dce90"},"vehicle_type_id":"4","last_reported":1729772254,"current_range_meters":16800,"station_id":"ce4bhnp2rcd13ifvqgvg","pricing_plan_id":"cebpf4jnsgd1na2vs0mg"},{"bike_id":"be0df0b5-dee2-405b-aa1b-3b26c8b63503","system_id":"levelo_inurba_marseille","lat":43.33613,"lon":5.41021,"is_reserved":false,"is_disabled":false,"rental_uris":{"android":"levelo://app?vid=be0df0b5-dee2-405b-aa1b-3b26c8b63503","ios":"levelo://app?vid=be0df0b5-dee2-405b-aa1b-3b26c8b63503"},"vehicle_type_id":"4","last_reported":1729772254,"current_range_meters":6800,"station_id":"ce4bhqh2rcd13ifvqhmg","pricing_plan_id":"cebpf4jnsgd1na2vs0mg"},{"bike_id":"e9bdaff6-12a7-4812-90dc-5cca723480d4","system_id":"levelo_inurba_marseille","lat":43.30536,"lon":5.3653,"is_reserved":false,"is_disabled":false,"rental_uris":{"android":"levelo://app?vid=e9bdaff6-12a7-4812-90dc-5cca723480d4","ios":"levelo://app?vid=e9bdaff6-12a7-4812-90dc-5cca723480d4"},"vehicle_type_id":"4","last_reported":1729772254,"current_range_meters":36800,"station_id":"ce4bgs12rcd13ifvqcag","pricing_plan_id":"cebpf4jnsgd1na2vs0mg"},{"bike_id":"0d3c81fa-6a31-4452-b5b1-b7fbe245fca5","system_id":"levelo_inurba_marseille","lat":43.29075,"lon":5.3716,"is_reserved":false,"is_disabled":false,"rental_uris":{"android":"levelo://app?vid=0d3c81fa-6a31-4452-b5b1-b7fbe245fca5","ios":"levelo://app?vid=0d3c81fa-6a31-4452-b5b1-b7fbe245fca5"},"vehicle_type_id":"4","last_reported":1729772254,"current_range_meters":39200,"station_id":"ce4bh5p2rcd13ifvqe4g","pricing_plan_id":"cebpf4jnsgd1na2vs0mg"},{"bike_id":"ae6117f6-24f8-4939-8561-592474de13e6","system_id":"levelo_inurba_marseille","lat":43.30553,"lon":5.41742,"is_reserved":false,"is_disabled":false,"rental_uris":{"android":"levelo://app?vid=ae6117f6-24f8-4939-8561-592474de13e6","ios":"levelo://app?vid=ae6117f6-24f8-4939-8561-592474de13e6"},"vehicle_type_id":"4","last_reported":1729772254,"current_range_meters":17600,"station_id":"ce4bhr12rcd13ifvqhpg","pricing_plan_id":"cebpf4jnsgd1na2vs0mg"},{"bike_id":"78e4fc80-b475-4afe-b3b4-888e6c107e1e","system_id":"levelo_inurba_marseille","lat":43.29529,"lon":5.38555,"is_reserved":false,"is_disabled":false,"rental_uris":{"android":"levelo://app?vid=78e4fc80-b475-4afe-b3b4-888e6c107e1e","ios":"levelo://app?vid=78e4fc80-b475-4afe-b3b4-888e6c107e1e"},"vehicle_type_id":"4","last_reported":1729772254,"current_range_meters":26000,"station_id":"ce4bgih2rcd13ifvqba0","pricing_plan_id":"cebpf4jnsgd1na2vs0mg"},{"bike_id":"d242ccac-ad30-4986-a1a1-c8b622061a35","system_id":"levelo_inurba_marseille","lat":43.28573,"lon":5.39494,"is_reserved":false,"is_disabled":false,"rental_uris":{"android":"levelo://app?vid=d242ccac-ad30-4986-a1a1-c8b622061a35","ios":"levelo://app?vid=d242ccac-ad30-4986-a1a1-c8b622061a35"},"vehicle_type_id":"4","last_reported":1729772254,"current_range_meters":2000,"station_id":"ce4bh292rcd13ifvqdg0","pricing_plan_id":"cebpf4jnsgd1na2vs0mg"},{"bike_id":"5e10a52b-80cf-4548-beb1-031402e74e7a","system_id":"levelo_inurba_marseille","lat":43.29626,"lon":5.3715,"is_reserved":false,"is_disabled":false,"rental_uris":{"android":"levelo://app?vid=5e10a52b-80cf-4548-beb1-031402e74e7a","ios":"levelo://app?vid=5e10a52b-80cf-4548-beb1-031402e74e7a"},"vehicle_type_id":"4","last_reported":1729772254,"current_range_meters":39200,"station_id":"ce4bgnh2rcd13ifvqc0g","pricing_plan_id":"cebpf4jnsgd1na2vs0mg"},{"bike_id":"00a8bd9d-eef3-42e3-9e17-61a6e620d1f8","system_id":"levelo_inurba_marseille","lat":43.33029,"lon":5.39036,"is_reserved":false,"is_disabled":false,"rental_uris":{"android":"levelo://app?vid=00a8bd9d-eef3-42e3-9e17-61a6e620d1f8","ios":"levelo://app?vid=00a8bd9d-eef3-42e3-9e17-61a6e620d1f8"},"vehicle_type_id":"4","last_reported":1729772254,"current_range_meters":39200,"station_id":"ce4bhr92rcd13ifvqhrg","pricing_plan_id":"cebpf4jnsgd1na2vs0mg"},{"bike_id":"2bb9eb69-a679-4405-9dbf-9139d9a02a39","system_id":"levelo_inurba_marseille","lat":43.28128,"lon":5.37812,"is_reserved":false,"is_disabled":false,"rental_uris":{"android":"levelo://app?vid=2bb9eb69-a679-4405-9dbf-9139d9a02a39","ios":"levelo://app?vid=2bb9eb69-a679-4405-9dbf-9139d9a02a39"},"vehicle_type_id":"4","last_reported":1729772254,"current_range_meters":8400,"station_id":"ce4bh3p2rcd13ifvqdq0","pricing_plan_id":"cebpf4jnsgd1na2vs0mg"},{"bike_id":"521f5215-d512-415d-b666-ad18bd925ee1","system_id":"levelo_inurba_marseille","lat":43.28356,"lon":5.38634,"is_reserved":false,"is_disabled":false,"rental_uris":{"android":"levelo://app?vid=521f5215-d512-415d-b666-ad18bd925ee1","ios":"levelo://app?vid=521f5215-d512-415d-b666-ad18bd925ee1"},"vehicle_type_id":"4","last_reported":1729772254,"current_range_meters":27600,"station_id":"ce4bh492rcd13ifvqdvg","pricing_plan_id":"cebpf4jnsgd1na2vs0mg"},{"bike_id":"0d1f385b-9014-4300-ba1f-cd4f367031bf","system_id":"levelo_inurba_marseille","lat":43.29611,"lon":5.37723,"is_reserved":false,"is_disabled":false,"rental_uris":{"android":"levelo://app?vid=0d1f385b-9014-4300-ba1f-cd4f367031bf","ios":"levelo://app?vid=0d1f385b-9014-4300-ba1f-cd4f367031bf"},"vehicle_type_id":"4","last_reported":1729772254,"current_range_meters":17600,"station_id":"ce4bgi92rcd13ifvqb90","pricing_plan_id":"cebpf4jnsgd1na2vs0mg"},{"bike_id":"40d7d049-8518-4ec4-b0e7-a82d69869ad0","system_id":"levelo_inurba_marseille","lat":43.30278,"lon":5.37692,"is_reserved":false,"is_disabled":false,"rental_uris":{"android":"levelo://app?vid=40d7d049-8518-4ec4-b0e7-a82d69869ad0","ios":"levelo://app?vid=40d7d049-8518-4ec4-b0e7-a82d69869ad0"},"vehicle_type_id":"4","last_reported":1729772254,"current_range_meters":38800,"station_id":"ce4bguh2rcd13ifvqcj0","pricing_plan_id":"cebpf4jnsgd1na2vs0mg"},{"bike_id":"a9ed1c5b-140f-4070-b8ef-54467d33104e","system_id":"levelo_inurba_marseille","lat":43.29783,"lon":5.37098,"is_reserved":false,"is_disabled":false,"rental_uris":{"android":"levelo://app?vid=a9ed1c5b-140f-4070-b8ef-54467d33104e","ios":"levelo://app?vid=a9ed1c5b-140f-4070-b8ef-54467d33104e"},"vehicle_type_id":"4","last_reported":1729772254,"current_range_meters":30000,"station_id":"ce4bgop2rcd13ifvqc1g","pricing_plan_id":"cebpf4jnsgd1na2vs0mg"},{"bike_id":"ec179860-7458-4fbe-ae21-54e331753868","system_id":"levelo_inurba_marseille","lat":43.28967,"lon":5.37845,"is_reserved":false,"is_disabled":false,"rental_uris":{"android":"levelo://app?vid=ec179860-7458-4fbe-ae21-54e331753868","ios":"levelo://app?vid=ec179860-7458-4fbe-ae21-54e331753868"},"vehicle_type_id":"4","last_reported":1729772254,"current_range_meters":38800,"station_id":"ce4bh9p2rcd13ifvqed0","pricing_plan_id":"cebpf4jnsgd1na2vs0mg"},{"bike_id":"c66bf43e-6fd0-4eeb-905a-69a2951c7854","system_id":"levelo_inurba_marseille","lat":43.29095,"lon":5.38131,"is_reserved":false,"is_disabled":false,"rental_uris":{"android":"levelo://app?vid=c66bf43e-6fd0-4eeb-905a-69a2951c7854","ios":"levelo://app?vid=c66bf43e-6fd0-4eeb-905a-69a2951c7854"},"vehicle_type_id":"4","last_reported":1729772254,"current_range_meters":2000,"station_id":"ce4bh512rcd13ifvqe2g","pricing_plan_id":"cebpf4jnsgd1na2vs0mg"},{"bike_id":"f3bc4577-f987-4844-92b7-6cca971ffa02","system_id":"levelo_inurba_marseille","lat":43.30553,"lon":5.3655,"is_reserved":false,"is_disabled":false,"rental_uris":{"android":"levelo://app?vid=f3bc4577-f987-4844-92b7-6cca971ffa02","ios":"levelo://app?vid=f3bc4577-f987-4844-92b7-6cca971ffa02"},"vehicle_type_id":"4","last_reported":1729772254,"current_range_meters":38400,"station_id":"ce4bgs12rcd13ifvqcag","pricing_plan_id":"cebpf4jnsgd1na2vs0mg"},{"bike_id":"d38b1733-d27a-4957-bba1-153f845f1d37","system_id":"levelo_inurba_marseille","lat":43.289185,"lon":5.3621,"is_reserved":false,"is_disabled":false,"rental_uris":{"android":"levelo://app?vid=d38b1733-d27a-4957-bba1-153f845f1d37","ios":"levelo://app?vid=d38b1733-d27a-4957-bba1-153f845f1d37"},"vehicle_type_id":"4","last_reported":1729772254,"current_range_meters":28400,"station_id":"ce4bhoh2rcd13ifvqh5g","pricing_plan_id":"cebpf4jnsgd1na2vs0mg"},{"bike_id":"228c2a65-a88a-474e-baae-39029ce20359","system_id":"levelo_inurba_marseille","lat":43.24076,"lon":5.37743,"is_reserved":false,"is_disabled":false,"rental_uris":{"android":"levelo://app?vid=228c2a65-a88a-474e-baae-39029ce20359","ios":"levelo://app?vid=228c2a65-a88a-474e-baae-39029ce20359"},"vehicle_type_id":"4","last_reported":1729772254,"current_range_meters":20000,"station_id":"ce4bhnp2rcd13ifvqgvg","pricing_plan_id":"cebpf4jnsgd1na2vs0mg"},{"bike_id":"652175de-8f48-47d4-be89-48401a049a12","system_id":"levelo_inurba_marseille","lat":43.2929,"lon":5.37447,"is_reserved":false,"is_disabled":false,"rental_uris":{"android":"levelo://app?vid=652175de-8f48-47d4-be89-48401a049a12","ios":"levelo://app?vid=652175de-8f48-47d4-be89-48401a049a12"},"vehicle_type_id":"4","last_reported":1729772254,"current_range_meters":7200,"station_id":"ce4bgi12rcd13ifvqb70","pricing_plan_id":"cebpf4jnsgd1na2vs0mg"},{"bike_id":"b2b9f3d6-a061-4ef3-bcc4-d6af18337c10","system_id":"levelo_inurba_marseille","lat":43.30143,"lon":5.37417,"is_reserved":false,"is_disabled":false,"rental_uris":{"android":"levelo://app?vid=b2b9f3d6-a061-4ef3-bcc4-d6af18337c10","ios":"levelo://app?vid=b2b9f3d6-a061-4ef3-bcc4-d6af18337c10"},"vehicle_type_id":"4","last_reported":1729772254,"current_range_meters":24800,"station_id":"ce4bgs92rcd13ifvqcc0","pricing_plan_id":"cebpf4jnsgd1na2vs0mg"},{"bike_id":"6e5b04dd-7605-4664-93fa-296435ba11b2","system_id":"levelo_inurba_marseille","lat":43.31225,"lon":5.36964,"is_reserved":false,"is_disabled":false,"rental_uris":{"android":"levelo://app?vid=6e5b04dd-7605-4664-93fa-296435ba11b2","ios":"levelo://app?vid=6e5b04dd-7605-4664-93fa-296435ba11b2"},"vehicle_type_id":"4","last_reported":1729772254,"current_range_meters":33200,"station_id":"","pricing_plan_id":"cebpf4jnsgd1na2vs0mg"},{"bike_id":"c3e70af7-3f2f-4929-ac75-99c2d70a3d79","system_id":"levelo_inurba_marseille","lat":43.30136,"lon":5.37414,"is_reserved":false,"is_disabled":false,"rental_uris":{"android":"levelo://app?vid=c3e70af7-3f2f-4929-ac75-99c2d70a3d79","ios":"levelo://app?vid=c3e70af7-3f2f-4929-ac75-99c2d70a3d79"},"vehicle_type_id":"4","last_reported":1729772254,"current_range_meters":16400,"station_id":"ce4bgs92rcd13ifvqcc0","pricing_plan_id":"cebpf4jnsgd1na2vs0mg"},{"bike_id":"4b6769f0-9d52-4427-92eb-85214df0463d","system_id":"levelo_inurba_marseille","lat":43.23192,"lon":5.35552,"is_reserved":false,"is_disabled":false,"rental_uris":{"android":"levelo://app?vid=4b6769f0-9d52-4427-92eb-85214df0463d","ios":"levelo://app?vid=4b6769f0-9d52-4427-92eb-85214df0463d"},"vehicle_type_id":"4","last_reported":1729772254,"current_range_meters":25600,"station_id":"ce4bhu92rcd13ifvqi70","pricing_plan_id":"cebpf4jnsgd1na2vs0mg"},{"bike_id":"4ec25af9-2c50-4187-b3b7-1dc66bf6c68a","system_id":"levelo_inurba_marseille","lat":43.28285,"lon":5.40833,"is_reserved":false,"is_disabled":false,"rental_uris":{"android":"levelo://app?vid=4ec25af9-2c50-4187-b3b7-1dc66bf6c68a","ios":"levelo://app?vid=4ec25af9-2c50-4187-b3b7-1dc66bf6c68a"},"vehicle_type_id":"4","last_reported":1729772254,"current_range_meters":8000,"station_id":"","pricing_plan_id":"cebpf4jnsgd1na2vs0mg"},{"bike_id":"1161a43b-b3ab-498e-ad25-bfd702b07c0b","system_id":"levelo_inurba_marseille","lat":43.28433,"lon":5.39196,"is_reserved":false,"is_disabled":false,"rental_uris":{"android":"levelo://app?vid=1161a43b-b3ab-498e-ad25-bfd702b07c0b","ios":"levelo://app?vid=1161a43b-b3ab-498e-ad25-bfd702b07c0b"},"vehicle_type_id":"4","last_reported":1729772254,"current_range_meters":32800,"station_id":"ce4bhoh2rcd13ifvqh5g","pricing_plan_id":"cebpf4jnsgd1na2vs0mg"},{"bike_id":"e360ce09-236a-4b01-8d2b-2451a5894b4b","system_id":"levelo_inurba_marseille","lat":43.33022,"lon":5.39047,"is_reserved":false,"is_disabled":false,"rental_uris":{"android":"levelo://app?vid=e360ce09-236a-4b01-8d2b-2451a5894b4b","ios":"levelo://app?vid=e360ce09-236a-4b01-8d2b-2451a5894b4b"},"vehicle_type_id":"4","last_reported":1729772254,"current_range_meters":39200,"station_id":"ce4bhr92rcd13ifvqhrg","pricing_plan_id":"cebpf4jnsgd1na2vs0mg"},{"bike_id":"efc95c57-410f-4651-b108-843bd560d2a8","system_id":"levelo_inurba_marseille","lat":43.28675,"lon":5.36336,"is_reserved":false,"is_disabled":false,"rental_uris":{"android":"levelo://app?vid=efc95c57-410f-4651-b108-843bd560d2a8","ios":"levelo://app?vid=efc95c57-410f-4651-b108-843bd560d2a8"},"vehicle_type_id":"4","last_reported":1729772254,"current_range_meters":24000,"station_id":"ce4bhah2rcd13ifvqej0","pricing_plan_id":"cebpf4jnsgd1na2vs0mg"},{"bike_id":"3cc67649-4dba-4045-a968-cbfed94079b5","system_id":"levelo_inurba_marseille","lat":43.29972,"lon":5.38492,"is_reserved":false,"is_disabled":false,"rental_uris":{"android":"levelo://app?vid=3cc67649-4dba-4045-a968-cbfed94079b5","ios":"levelo://app?vid=3cc67649-4dba-4045-a968-cbfed94079b5"},"vehicle_type_id":"4","last_reported":1729772254,"current_range_meters":38400,"station_id":"ce4bgj92rcd13ifvqbd0","pricing_plan_id":"cebpf4jnsgd1na2vs0mg"},{"bike_id":"82cc5c8f-f967-4a68-b3d3-bd466c5456c3","system_id":"levelo_inurba_marseille","lat":43.30317,"lon":5.36893,"is_reserved":false,"is_disabled":false,"rental_uris":{"android":"levelo://app?vid=82cc5c8f-f967-4a68-b3d3-bd466c5456c3","ios":"levelo://app?vid=82cc5c8f-f967-4a68-b3d3-bd466c5456c3"},"vehicle_type_id":"4","last_reported":1729772254,"current_range_meters":18000,"station_id":"ce4bgqh2rcd13ifvqc5g","pricing_plan_id":"cebpf4jnsgd1na2vs0mg"},{"bike_id":"eb098abf-7816-4ec9-ba59-3967db2af13f","system_id":"levelo_inurba_marseille","lat":43.27176,"lon":5.40992,"is_reserved":false,"is_disabled":false,"rental_uris":{"android":"levelo://app?vid=eb098abf-7816-4ec9-ba59-3967db2af13f","ios":"levelo://app?vid=eb098abf-7816-4ec9-ba59-3967db2af13f"},"vehicle_type_id":"4","last_reported":1729772254,"current_range_meters":27200,"station_id":"ce4bhl12rcd13ifvqgf0","pricing_plan_id":"cebpf4jnsgd1na2vs0mg"},{"bike_id":"103ed008-6f4b-4142-8ae0-e6b210d9a427","system_id":"levelo_inurba_marseille","lat":43.22928,"lon":5.35374,"is_reserved":false,"is_disabled":false,"rental_uris":{"android":"levelo://app?vid=103ed008-6f4b-4142-8ae0-e6b210d9a427","ios":"levelo://app?vid=103ed008-6f4b-4142-8ae0-e6b210d9a427"},"vehicle_type_id":"4","last_reported":1729772254,"current_range_meters":10800,"station_id":"cpo3532slgdg3j2ikp40","pricing_plan_id":"cebpf4jnsgd1na2vs0mg"},{"bike_id":"e93d0849-6889-4c3b-b756-5d2c77aee686","system_id":"levelo_inurba_marseille","lat":43.27997,"lon":5.41661,"is_reserved":false,"is_disabled":false,"rental_uris":{"android":"levelo://app?vid=e93d0849-6889-4c3b-b756-5d2c77aee686","ios":"levelo://app?vid=e93d0849-6889-4c3b-b756-5d2c77aee686"},"vehicle_type_id":"4","last_reported":1729772254,"current_range_meters":38000,"station_id":"ce4bho12rcd13ifvqh1g","pricing_plan_id":"cebpf4jnsgd1na2vs0mg"},{"bike_id":"f75512b2-f5ba-4033-a1a6-27a677d80a8f","system_id":"levelo_inurba_marseille","lat":43.29715,"lon":5.36608,"is_reserved":false,"is_disabled":false,"rental_uris":{"android":"levelo://app?vid=f75512b2-f5ba-4033-a1a6-27a677d80a8f","ios":"levelo://app?vid=f75512b2-f5ba-4033-a1a6-27a677d80a8f"},"vehicle_type_id":"4","last_reported":1729772254,"current_range_meters":30800,"station_id":"ce4bgn12rcd13ifvqbt0","pricing_plan_id":"cebpf4jnsgd1na2vs0mg"},{"bike_id":"c7aedf45-c667-433c-8bfd-d6b67328de7f","system_id":"levelo_inurba_marseille","lat":43.30148,"lon":5.3806,"is_reserved":false,"is_disabled":false,"rental_uris":{"android":"levelo://app?vid=c7aedf45-c667-433c-8bfd-d6b67328de7f","ios":"levelo://app?vid=c7aedf45-c667-433c-8bfd-d6b67328de7f"},"vehicle_type_id":"4","last_reported":1729772254,"current_range_meters":23200,"station_id":"ce4bgjp2rcd13ifvqbh0","pricing_plan_id":"cebpf4jnsgd1na2vs0mg"},{"bike_id":"8b03d398-8900-4cbd-8f0d-e268b1b9f483","system_id":"levelo_inurba_marseille","lat":43.25726,"lon":5.41107,"is_reserved":false,"is_disabled":false,"rental_uris":{"android":"levelo://app?vid=8b03d398-8900-4cbd-8f0d-e268b1b9f483","ios":"levelo://app?vid=8b03d398-8900-4cbd-8f0d-e268b1b9f483"},"vehicle_type_id":"4","last_reported":1729772254,"current_range_meters":36400,"station_id":"ce4bhkp2rcd13ifvqgd0","pricing_plan_id":"cebpf4jnsgd1na2vs0mg"},{"bike_id":"36e95897-74fd-4546-9012-752ec1124543","system_id":"levelo_inurba_marseille","lat":43.28723,"lon":5.36082,"is_reserved":false,"is_disabled":false,"rental_uris":{"android":"levelo://app?vid=36e95897-74fd-4546-9012-752ec1124543","ios":"levelo://app?vid=36e95897-74fd-4546-9012-752ec1124543"},"vehicle_type_id":"4","last_reported":1729772254,"current_range_meters":2000,"station_id":"cki0cbj6b192h4jlfktg","pricing_plan_id":"cebpf4jnsgd1na2vs0mg"},{"bike_id":"5468697d-7158-411b-95f9-d6741a6e2079","system_id":"levelo_inurba_marseille","lat":43.26678,"lon":5.38265,"is_reserved":false,"is_disabled":false,"rental_uris":{"android":"levelo://app?vid=5468697d-7158-411b-95f9-d6741a6e2079","ios":"levelo://app?vid=5468697d-7158-411b-95f9-d6741a6e2079"},"vehicle_type_id":"4","last_reported":1729772254,"current_range_meters":25200,"station_id":"ce4bhg92rcd13ifvqf90","pricing_plan_id":"cebpf4jnsgd1na2vs0mg"},{"bike_id":"dc9a765b-b0a7-4ba4-b3d9-747e3f62e985","system_id":"levelo_inurba_marseille","lat":43.30267,"lon":5.3968,"is_reserved":false,"is_disabled":false,"rental_uris":{"android":"levelo://app?vid=dc9a765b-b0a7-4ba4-b3d9-747e3f62e985","ios":"levelo://app?vid=dc9a765b-b0a7-4ba4-b3d9-747e3f62e985"},"vehicle_type_id":"4","last_reported":1729772254,"current_range_meters":10000,"station_id":"","pricing_plan_id":"cebpf4jnsgd1na2vs0mg"},{"bike_id":"0bc90dc2-cf8c-457e-a6aa-9b91de95f992","system_id":"levelo_inurba_marseille","lat":43.22788,"lon":5.4156,"is_reserved":false,"is_disabled":false,"rental_uris":{"android":"levelo://app?vid=0bc90dc2-cf8c-457e-a6aa-9b91de95f992","ios":"levelo://app?vid=0bc90dc2-cf8c-457e-a6aa-9b91de95f992"},"vehicle_type_id":"4","last_reported":1729772254,"current_range_meters":32800,"station_id":"","pricing_plan_id":"cebpf4jnsgd1na2vs0mg"},{"bike_id":"639477c2-ed9b-43eb-a16d-d17e3685b9de","system_id":"levelo_inurba_marseille","lat":43.29969,"lon":5.38496,"is_reserved":false,"is_disabled":false,"rental_uris":{"android":"levelo://app?vid=639477c2-ed9b-43eb-a16d-d17e3685b9de","ios":"levelo://app?vid=639477c2-ed9b-43eb-a16d-d17e3685b9de"},"vehicle_type_id":"4","last_reported":1729772254,"current_range_meters":28000,"station_id":"ce4bgj92rcd13ifvqbd0","pricing_plan_id":"cebpf4jnsgd1na2vs0mg"},{"bike_id":"b8cc150e-1aa5-4efa-bc28-f9ea344650ef","system_id":"levelo_inurba_marseille","lat":43.28857,"lon":5.35845,"is_reserved":false,"is_disabled":false,"rental_uris":{"android":"levelo://app?vid=b8cc150e-1aa5-4efa-bc28-f9ea344650ef","ios":"levelo://app?vid=b8cc150e-1aa5-4efa-bc28-f9ea344650ef"},"vehicle_type_id":"4","last_reported":1729772254,"current_range_meters":8400,"station_id":"ce4bhb12rcd13ifvqem0","pricing_plan_id":"cebpf4jnsgd1na2vs0mg"},{"bike_id":"9f1151ca-739e-4703-87a9-8ac3799e8681","system_id":"levelo_inurba_marseille","lat":43.2904,"lon":5.3997,"is_reserved":false,"is_disabled":false,"rental_uris":{"android":"levelo://app?vid=9f1151ca-739e-4703-87a9-8ac3799e8681","ios":"levelo://app?vid=9f1151ca-739e-4703-87a9-8ac3799e8681"},"vehicle_type_id":"4","last_reported":1729772254,"current_range_meters":32000,"station_id":"ce4bh392rcd13ifvqdm0","pricing_plan_id":"cebpf4jnsgd1na2vs0mg"},{"bike_id":"bb2a666e-d4fd-434c-9930-bd52d9e92c1d","system_id":"levelo_inurba_marseille","lat":43.25935,"lon":5.40894,"is_reserved":false,"is_disabled":false,"rental_uris":{"android":"levelo://app?vid=bb2a666e-d4fd-434c-9930-bd52d9e92c1d","ios":"levelo://app?vid=bb2a666e-d4fd-434c-9930-bd52d9e92c1d"},"vehicle_type_id":"4","last_reported":1729772254,"current_range_meters":36800,"station_id":"ce4bhm92rcd13ifvqglg","pricing_plan_id":"cebpf4jnsgd1na2vs0mg"},{"bike_id":"6c25b8c8-6fca-4958-8da6-f8a4c7e4ec36","system_id":"levelo_inurba_marseille","lat":43.30411,"lon":5.38876,"is_reserved":false,"is_disabled":false,"rental_uris":{"android":"levelo://app?vid=6c25b8c8-6fca-4958-8da6-f8a4c7e4ec36","ios":"levelo://app?vid=6c25b8c8-6fca-4958-8da6-f8a4c7e4ec36"},"vehicle_type_id":"4","last_reported":1729772254,"current_range_meters":38400,"station_id":"ce4bgh92rcd13ifvqb50","pricing_plan_id":"cebpf4jnsgd1na2vs0mg"},{"bike_id":"9050aa27-210e-4a00-99a6-53ce385deffc","system_id":"levelo_inurba_marseille","lat":43.29624,"lon":5.37151,"is_reserved":false,"is_disabled":false,"rental_uris":{"android":"levelo://app?vid=9050aa27-210e-4a00-99a6-53ce385deffc","ios":"levelo://app?vid=9050aa27-210e-4a00-99a6-53ce385deffc"},"vehicle_type_id":"4","last_reported":1729772254,"current_range_meters":39200,"station_id":"ce4bgnh2rcd13ifvqc0g","pricing_plan_id":"cebpf4jnsgd1na2vs0mg"},{"bike_id":"a0bfcec4-1019-4422-bc30-2e46cb48cb4e","system_id":"levelo_inurba_marseille","lat":43.33753,"lon":5.37433,"is_reserved":false,"is_disabled":false,"rental_uris":{"android":"levelo://app?vid=a0bfcec4-1019-4422-bc30-2e46cb48cb4e","ios":"levelo://app?vid=a0bfcec4-1019-4422-bc30-2e46cb48cb4e"},"vehicle_type_id":"4","last_reported":1729772254,"current_range_meters":22800,"station_id":"","pricing_plan_id":"cebpf4jnsgd1na2vs0mg"},{"bike_id":"53debaba-1f0e-4b9e-ab93-3f9dae3bcbce","system_id":"levelo_inurba_marseille","lat":43.30551,"lon":5.36555,"is_reserved":false,"is_disabled":false,"rental_uris":{"android":"levelo://app?vid=53debaba-1f0e-4b9e-ab93-3f9dae3bcbce","ios":"levelo://app?vid=53debaba-1f0e-4b9e-ab93-3f9dae3bcbce"},"vehicle_type_id":"4","last_reported":1729772254,"current_range_meters":24000,"station_id":"ce4bgs12rcd13ifvqcag","pricing_plan_id":"cebpf4jnsgd1na2vs0mg"},{"bike_id":"db46f688-0247-4d2b-a450-0e2f0d52a35f","system_id":"levelo_inurba_marseille","lat":43.25502,"lon":5.37648,"is_reserved":false,"is_disabled":false,"rental_uris":{"android":"levelo://app?vid=db46f688-0247-4d2b-a450-0e2f0d52a35f","ios":"levelo://app?vid=db46f688-0247-4d2b-a450-0e2f0d52a35f"},"vehicle_type_id":"4","last_reported":1729772254,"current_range_meters":22000,"station_id":"ce4bhh12rcd13ifvqff0","pricing_plan_id":"cebpf4jnsgd1na2vs0mg"},{"bike_id":"5c15cc76-69ab-4011-bfe3-5fab22114fa8","system_id":"levelo_inurba_marseille","lat":43.29974,"lon":5.37163,"is_reserved":false,"is_disabled":false,"rental_uris":{"android":"levelo://app?vid=5c15cc76-69ab-4011-bfe3-5fab22114fa8","ios":"levelo://app?vid=5c15cc76-69ab-4011-bfe3-5fab22114fa8"},"vehicle_type_id":"4","last_reported":1729772254,"current_range_meters":18000,"station_id":"ce4bgr92rcd13ifvqc7g","pricing_plan_id":"cebpf4jnsgd1na2vs0mg"},{"bike_id":"dbbc7abe-4b79-406b-9e53-11567c941468","system_id":"levelo_inurba_marseille","lat":43.29421,"lon":5.38612,"is_reserved":false,"is_disabled":false,"rental_uris":{"android":"levelo://app?vid=dbbc7abe-4b79-406b-9e53-11567c941468","ios":"levelo://app?vid=dbbc7abe-4b79-406b-9e53-11567c941468"},"vehicle_type_id":"4","last_reported":1729772254,"current_range_meters":37600,"station_id":"ce4bh2h2rcd13ifvqdh0","pricing_plan_id":"cebpf4jnsgd1na2vs0mg"},{"bike_id":"6d11bfb8-a317-4c0c-9350-f92e97f23547","system_id":"levelo_inurba_marseille","lat":43.32368,"lon":5.3888,"is_reserved":false,"is_disabled":false,"rental_uris":{"android":"levelo://app?vid=6d11bfb8-a317-4c0c-9350-f92e97f23547","ios":"levelo://app?vid=6d11bfb8-a317-4c0c-9350-f92e97f23547"},"vehicle_type_id":"4","last_reported":1729772254,"current_range_meters":30000,"station_id":"ce4bhqp2rcd13ifvqhog","pricing_plan_id":"cebpf4jnsgd1na2vs0mg"},{"bike_id":"9cc86360-5eab-45ae-a458-952e8a91e43e","system_id":"levelo_inurba_marseille","lat":43.22933,"lon":5.35379,"is_reserved":false,"is_disabled":false,"rental_uris":{"android":"levelo://app?vid=9cc86360-5eab-45ae-a458-952e8a91e43e","ios":"levelo://app?vid=9cc86360-5eab-45ae-a458-952e8a91e43e"},"vehicle_type_id":"4","last_reported":1729772254,"current_range_meters":16800,"station_id":"cpo3532slgdg3j2ikp40","pricing_plan_id":"cebpf4jnsgd1na2vs0mg"},{"bike_id":"f7a0de5f-0ab0-462c-9f8c-f233935f432b","system_id":"levelo_inurba_marseille","lat":43.23189,"lon":5.35556,"is_reserved":false,"is_disabled":false,"rental_uris":{"android":"levelo://app?vid=f7a0de5f-0ab0-462c-9f8c-f233935f432b","ios":"levelo://app?vid=f7a0de5f-0ab0-462c-9f8c-f233935f432b"},"vehicle_type_id":"4","last_reported":1729772254,"current_range_meters":34800,"station_id":"ce4bhu92rcd13ifvqi70","pricing_plan_id":"cebpf4jnsgd1na2vs0mg"},{"bike_id":"7b01ac9b-e92e-491d-ac31-4b5a9b8216e6","system_id":"levelo_inurba_marseille","lat":43.28371,"lon":5.38625,"is_reserved":false,"is_disabled":false,"rental_uris":{"android":"levelo://app?vid=7b01ac9b-e92e-491d-ac31-4b5a9b8216e6","ios":"levelo://app?vid=7b01ac9b-e92e-491d-ac31-4b5a9b8216e6"},"vehicle_type_id":"4","last_reported":1729772254,"current_range_meters":38800,"station_id":"ce4bh492rcd13ifvqdvg","pricing_plan_id":"cebpf4jnsgd1na2vs0mg"},{"bike_id":"5e6ac9f1-ad63-45d4-989d-6452a3cad704","system_id":"levelo_inurba_marseille","lat":43.26686,"lon":5.38272,"is_reserved":false,"is_disabled":false,"rental_uris":{"android":"levelo://app?vid=5e6ac9f1-ad63-45d4-989d-6452a3cad704","ios":"levelo://app?vid=5e6ac9f1-ad63-45d4-989d-6452a3cad704"},"vehicle_type_id":"4","last_reported":1729772254,"current_range_meters":14000,"station_id":"ce4bhg92rcd13ifvqf90","pricing_plan_id":"cebpf4jnsgd1na2vs0mg"},{"bike_id":"cd2f66d2-7685-4f10-9cb7-36fac7a68daf","system_id":"levelo_inurba_marseille","lat":43.28846,"lon":5.35867,"is_reserved":false,"is_disabled":false,"rental_uris":{"android":"levelo://app?vid=cd2f66d2-7685-4f10-9cb7-36fac7a68daf","ios":"levelo://app?vid=cd2f66d2-7685-4f10-9cb7-36fac7a68daf"},"vehicle_type_id":"4","last_reported":1729772254,"current_range_meters":26000,"station_id":"ce4bhb12rcd13ifvqem0","pricing_plan_id":"cebpf4jnsgd1na2vs0mg"},{"bike_id":"5d31b3c2-4a5f-4845-935d-d77e0f811a28","system_id":"levelo_inurba_marseille","lat":43.30553,"lon":5.36533,"is_reserved":false,"is_disabled":false,"rental_uris":{"android":"levelo://app?vid=5d31b3c2-4a5f-4845-935d-d77e0f811a28","ios":"levelo://app?vid=5d31b3c2-4a5f-4845-935d-d77e0f811a28"},"vehicle_type_id":"4","last_reported":1729772254,"current_range_meters":17200,"station_id":"ce4bgs12rcd13ifvqcag","pricing_plan_id":"cebpf4jnsgd1na2vs0mg"},{"bike_id":"8fac8e95-013d-430d-9866-e8aeaa890a14","system_id":"levelo_inurba_marseille","lat":43.32658,"lon":5.40988,"is_reserved":false,"is_disabled":false,"rental_uris":{"android":"levelo://app?vid=8fac8e95-013d-430d-9866-e8aeaa890a14","ios":"levelo://app?vid=8fac8e95-013d-430d-9866-e8aeaa890a14"},"vehicle_type_id":"4","last_reported":1729772254,"current_range_meters":38800,"station_id":"ce4bhpp2rcd13ifvqhgg","pricing_plan_id":"cebpf4jnsgd1na2vs0mg"},{"bike_id":"b73b46fd-aeff-4ef2-b621-0b959d82ee32","system_id":"levelo_inurba_marseille","lat":43.33588,"lon":5.41023,"is_reserved":false,"is_disabled":false,"rental_uris":{"android":"levelo://app?vid=b73b46fd-aeff-4ef2-b621-0b959d82ee32","ios":"levelo://app?vid=b73b46fd-aeff-4ef2-b621-0b959d82ee32"},"vehicle_type_id":"4","last_reported":1729772254,"current_range_meters":38400,"station_id":"ce4bgt12rcd13ifvqce0","pricing_plan_id":"cebpf4jnsgd1na2vs0mg"},{"bike_id":"cfcebfa7-3f59-4d32-a8f1-45e59f6e2f26","system_id":"levelo_inurba_marseille","lat":43.22932,"lon":5.35378,"is_reserved":false,"is_disabled":false,"rental_uris":{"android":"levelo://app?vid=cfcebfa7-3f59-4d32-a8f1-45e59f6e2f26","ios":"levelo://app?vid=cfcebfa7-3f59-4d32-a8f1-45e59f6e2f26"},"vehicle_type_id":"4","last_reported":1729772254,"current_range_meters":31200,"station_id":"cpo3532slgdg3j2ikp40","pricing_plan_id":"cebpf4jnsgd1na2vs0mg"},{"bike_id":"b8ec400a-2808-43cc-95a6-dea8cd5a18ba","system_id":"levelo_inurba_marseille","lat":43.32117,"lon":5.36773,"is_reserved":false,"is_disabled":false,"rental_uris":{"android":"levelo://app?vid=b8ec400a-2808-43cc-95a6-dea8cd5a18ba","ios":"levelo://app?vid=b8ec400a-2808-43cc-95a6-dea8cd5a18ba"},"vehicle_type_id":"4","last_reported":1729772254,"current_range_meters":18800,"station_id":"ce4bhrh2rcd13ifvqhug","pricing_plan_id":"cebpf4jnsgd1na2vs0mg"},{"bike_id":"61d852c6-c061-4e5d-9a05-227519db53d6","system_id":"levelo_inurba_marseille","lat":43.29961,"lon":5.385,"is_reserved":false,"is_disabled":false,"rental_uris":{"android":"levelo://app?vid=61d852c6-c061-4e5d-9a05-227519db53d6","ios":"levelo://app?vid=61d852c6-c061-4e5d-9a05-227519db53d6"},"vehicle_type_id":"4","last_reported":1729772254,"current_range_meters":31200,"station_id":"ce4bgj92rcd13ifvqbd0","pricing_plan_id":"cebpf4jnsgd1na2vs0mg"},{"bike_id":"3e381e9b-65a4-436a-a571-b4ba1ee13663","system_id":"levelo_inurba_marseille","lat":43.32485,"lon":5.36556,"is_reserved":false,"is_disabled":false,"rental_uris":{"android":"levelo://app?vid=3e381e9b-65a4-436a-a571-b4ba1ee13663","ios":"levelo://app?vid=3e381e9b-65a4-436a-a571-b4ba1ee13663"},"vehicle_type_id":"4","last_reported":1729772254,"current_range_meters":16800,"station_id":"ce4bhs12rcd13ifvqhvg","pricing_plan_id":"cebpf4jnsgd1na2vs0mg"},{"bike_id":"41ee270f-32d0-4a60-81bf-25b465e34504","system_id":"levelo_inurba_marseille","lat":43.27074,"lon":5.42277,"is_reserved":false,"is_disabled":false,"rental_uris":{"android":"levelo://app?vid=41ee270f-32d0-4a60-81bf-25b465e34504","ios":"levelo://app?vid=41ee270f-32d0-4a60-81bf-25b465e34504"},"vehicle_type_id":"4","last_reported":1729772254,"current_range_meters":38800,"station_id":"ce4bhk92rcd13ifvqgb0","pricing_plan_id":"cebpf4jnsgd1na2vs0mg"},{"bike_id":"3a526fc6-5f14-429c-8829-287dc38ef285","system_id":"levelo_inurba_marseille","lat":43.22931,"lon":5.35374,"is_reserved":false,"is_disabled":false,"rental_uris":{"android":"levelo://app?vid=3a526fc6-5f14-429c-8829-287dc38ef285","ios":"levelo://app?vid=3a526fc6-5f14-429c-8829-287dc38ef285"},"vehicle_type_id":"4","last_reported":1729772254,"current_range_meters":31200,"station_id":"cpo3532slgdg3j2ikp40","pricing_plan_id":"cebpf4jnsgd1na2vs0mg"},{"bike_id":"ecc67c27-9cad-4d57-be81-1c2a78fab700","system_id":"levelo_inurba_marseille","lat":43.29773,"lon":5.37106,"is_reserved":false,"is_disabled":false,"rental_uris":{"android":"levelo://app?vid=ecc67c27-9cad-4d57-be81-1c2a78fab700","ios":"levelo://app?vid=ecc67c27-9cad-4d57-be81-1c2a78fab700"},"vehicle_type_id":"4","last_reported":1729772254,"current_range_meters":4400,"station_id":"ce4bgop2rcd13ifvqc1g","pricing_plan_id":"cebpf4jnsgd1na2vs0mg"},{"bike_id":"5c5fedb6-5a4f-4881-ad56-c5bac3af94b4","system_id":"levelo_inurba_marseille","lat":43.26946,"lon":5.40245,"is_reserved":false,"is_disabled":false,"rental_uris":{"android":"levelo://app?vid=5c5fedb6-5a4f-4881-ad56-c5bac3af94b4","ios":"levelo://app?vid=5c5fedb6-5a4f-4881-ad56-c5bac3af94b4"},"vehicle_type_id":"4","last_reported":1729772254,"current_range_meters":10000,"station_id":"cjm6bp8fraef2m0cb0m0","pricing_plan_id":"cebpf4jnsgd1na2vs0mg"},{"bike_id":"365a5e76-e012-4983-b8a9-1a07480bde83","system_id":"levelo_inurba_marseille","lat":43.23192,"lon":5.35547,"is_reserved":false,"is_disabled":false,"rental_uris":{"android":"levelo://app?vid=365a5e76-e012-4983-b8a9-1a07480bde83","ios":"levelo://app?vid=365a5e76-e012-4983-b8a9-1a07480bde83"},"vehicle_type_id":"4","last_reported":1729772254,"current_range_meters":39200,"station_id":"ce4bhu92rcd13ifvqi70","pricing_plan_id":"cebpf4jnsgd1na2vs0mg"},{"bike_id":"b801bec8-120f-474a-b2d0-b64ee5ea1bc1","system_id":"levelo_inurba_marseille","lat":43.3134,"lon":5.367125,"is_reserved":false,"is_disabled":false,"rental_uris":{"android":"levelo://app?vid=b801bec8-120f-474a-b2d0-b64ee5ea1bc1","ios":"levelo://app?vid=b801bec8-120f-474a-b2d0-b64ee5ea1bc1"},"vehicle_type_id":"4","last_reported":1729772254,"current_range_meters":38800,"station_id":"ce4bgr92rcd13ifvqc6g","pricing_plan_id":"cebpf4jnsgd1na2vs0mg"},{"bike_id":"c0a2c481-fabb-4e11-a000-2c2c1e1749fa","system_id":"levelo_inurba_marseille","lat":43.22929,"lon":5.35375,"is_reserved":false,"is_disabled":false,"rental_uris":{"android":"levelo://app?vid=c0a2c481-fabb-4e11-a000-2c2c1e1749fa","ios":"levelo://app?vid=c0a2c481-fabb-4e11-a000-2c2c1e1749fa"},"vehicle_type_id":"4","last_reported":1729772254,"current_range_meters":18000,"station_id":"cpo3532slgdg3j2ikp40","pricing_plan_id":"cebpf4jnsgd1na2vs0mg"},{"bike_id":"9f58f286-4e29-4029-a6af-d8c7678b0577","system_id":"levelo_inurba_marseille","lat":43.30949,"lon":5.39028,"is_reserved":false,"is_disabled":false,"rental_uris":{"android":"levelo://app?vid=9f58f286-4e29-4029-a6af-d8c7678b0577","ios":"levelo://app?vid=9f58f286-4e29-4029-a6af-d8c7678b0577"},"vehicle_type_id":"4","last_reported":1729772254,"current_range_meters":24000,"station_id":"ce4bgup2rcd13ifvqco0","pricing_plan_id":"cebpf4jnsgd1na2vs0mg"},{"bike_id":"d83f8c4d-e4bf-462e-986b-f815e798b27a","system_id":"levelo_inurba_marseille","lat":43.30551,"lon":5.36542,"is_reserved":false,"is_disabled":false,"rental_uris":{"android":"levelo://app?vid=d83f8c4d-e4bf-462e-986b-f815e798b27a","ios":"levelo://app?vid=d83f8c4d-e4bf-462e-986b-f815e798b27a"},"vehicle_type_id":"4","last_reported":1729772254,"current_range_meters":30400,"station_id":"ce4bgs12rcd13ifvqcag","pricing_plan_id":"cebpf4jnsgd1na2vs0mg"},{"bike_id":"3dc2eb7e-15a4-47fb-81be-d850bbd51ccf","system_id":"levelo_inurba_marseille","lat":43.33753,"lon":5.37444,"is_reserved":false,"is_disabled":false,"rental_uris":{"android":"levelo://app?vid=3dc2eb7e-15a4-47fb-81be-d850bbd51ccf","ios":"levelo://app?vid=3dc2eb7e-15a4-47fb-81be-d850bbd51ccf"},"vehicle_type_id":"4","last_reported":1729772254,"current_range_meters":35600,"station_id":"","pricing_plan_id":"cebpf4jnsgd1na2vs0mg"},{"bike_id":"befe8122-f7e7-4001-a53b-df0d6fa257bb","system_id":"levelo_inurba_marseille","lat":43.28931,"lon":5.36638,"is_reserved":false,"is_disabled":false,"rental_uris":{"android":"levelo://app?vid=befe8122-f7e7-4001-a53b-df0d6fa257bb","ios":"levelo://app?vid=befe8122-f7e7-4001-a53b-df0d6fa257bb"},"vehicle_type_id":"4","last_reported":1729772254,"current_range_meters":38800,"station_id":"ce4bhap2rcd13ifvqek0","pricing_plan_id":"cebpf4jnsgd1na2vs0mg"},{"bike_id":"8f20c90d-ac36-40d0-bb2f-f170a888d7d0","system_id":"levelo_inurba_marseille","lat":43.29895,"lon":5.43662,"is_reserved":false,"is_disabled":false,"rental_uris":{"android":"levelo://app?vid=8f20c90d-ac36-40d0-bb2f-f170a888d7d0","ios":"levelo://app?vid=8f20c90d-ac36-40d0-bb2f-f170a888d7d0"},"vehicle_type_id":"4","last_reported":1729772254,"current_range_meters":34000,"station_id":"ce4bhpp2rcd13ifvqhfg","pricing_plan_id":"cebpf4jnsgd1na2vs0mg"},{"bike_id":"03e8e373-dc03-4cdb-8279-5a04c155655f","system_id":"levelo_inurba_marseille","lat":43.2417,"lon":5.36393,"is_reserved":false,"is_disabled":false,"rental_uris":{"android":"levelo://app?vid=03e8e373-dc03-4cdb-8279-5a04c155655f","ios":"levelo://app?vid=03e8e373-dc03-4cdb-8279-5a04c155655f"},"vehicle_type_id":"4","last_reported":1729772254,"current_range_meters":28400,"station_id":"cpo36qri1sfpv3e86is0","pricing_plan_id":"cebpf4jnsgd1na2vs0mg"},{"bike_id":"6ae03549-5478-4731-b9e3-9ceeba8b2934","system_id":"levelo_inurba_marseille","lat":43.32365,"lon":5.38878,"is_reserved":false,"is_disabled":false,"rental_uris":{"android":"levelo://app?vid=6ae03549-5478-4731-b9e3-9ceeba8b2934","ios":"levelo://app?vid=6ae03549-5478-4731-b9e3-9ceeba8b2934"},"vehicle_type_id":"4","last_reported":1729772254,"current_range_meters":18000,"station_id":"ce4bhqp2rcd13ifvqhog","pricing_plan_id":"cebpf4jnsgd1na2vs0mg"},{"bike_id":"49e1ce75-cbc0-40d8-b38b-24a6cbca7aba","system_id":"levelo_inurba_marseille","lat":43.29936,"lon":5.36537,"is_reserved":false,"is_disabled":false,"rental_uris":{"android":"levelo://app?vid=49e1ce75-cbc0-40d8-b38b-24a6cbca7aba","ios":"levelo://app?vid=49e1ce75-cbc0-40d8-b38b-24a6cbca7aba"},"vehicle_type_id":"4","last_reported":1729772254,"current_range_meters":25600,"station_id":"ce4bgm92rcd13ifvqbr0","pricing_plan_id":"cebpf4jnsgd1na2vs0mg"},{"bike_id":"09cbc056-7ac4-4b3b-8b0f-811e84ea4022","system_id":"levelo_inurba_marseille","lat":43.30533,"lon":5.36531,"is_reserved":false,"is_disabled":false,"rental_uris":{"android":"levelo://app?vid=09cbc056-7ac4-4b3b-8b0f-811e84ea4022","ios":"levelo://app?vid=09cbc056-7ac4-4b3b-8b0f-811e84ea4022"},"vehicle_type_id":"4","last_reported":1729772254,"current_range_meters":39200,"station_id":"ce4bgs12rcd13ifvqcag","pricing_plan_id":"cebpf4jnsgd1na2vs0mg"},{"bike_id":"1d180020-2774-494a-9712-55fe63b19d77","system_id":"levelo_inurba_marseille","lat":43.25937,"lon":5.40897,"is_reserved":false,"is_disabled":false,"rental_uris":{"android":"levelo://app?vid=1d180020-2774-494a-9712-55fe63b19d77","ios":"levelo://app?vid=1d180020-2774-494a-9712-55fe63b19d77"},"vehicle_type_id":"4","last_reported":1729772254,"current_range_meters":12400,"station_id":"ce4bhm92rcd13ifvqglg","pricing_plan_id":"cebpf4jnsgd1na2vs0mg"},{"bike_id":"f7049507-45c2-41d7-9262-0fb171be7c82","system_id":"levelo_inurba_marseille","lat":43.32486,"lon":5.36566,"is_reserved":false,"is_disabled":false,"rental_uris":{"android":"levelo://app?vid=f7049507-45c2-41d7-9262-0fb171be7c82","ios":"levelo://app?vid=f7049507-45c2-41d7-9262-0fb171be7c82"},"vehicle_type_id":"4","last_reported":1729772254,"current_range_meters":6800,"station_id":"ce4bhs12rcd13ifvqhvg","pricing_plan_id":"cebpf4jnsgd1na2vs0mg"},{"bike_id":"bef1f06b-12df-46cc-ab59-a6fed6408ed9","system_id":"levelo_inurba_marseille","lat":43.3255,"lon":5.41446,"is_reserved":false,"is_disabled":false,"rental_uris":{"android":"levelo://app?vid=bef1f06b-12df-46cc-ab59-a6fed6408ed9","ios":"levelo://app?vid=bef1f06b-12df-46cc-ab59-a6fed6408ed9"},"vehicle_type_id":"4","last_reported":1729772254,"current_range_meters":39200,"station_id":"ce4bhq12rcd13ifvqhhg","pricing_plan_id":"cebpf4jnsgd1na2vs0mg"},{"bike_id":"f380d3a4-3abc-4845-b60c-c424cba3f1ba","system_id":"levelo_inurba_marseille","lat":43.29984,"lon":5.37172,"is_reserved":false,"is_disabled":false,"rental_uris":{"android":"levelo://app?vid=f380d3a4-3abc-4845-b60c-c424cba3f1ba","ios":"levelo://app?vid=f380d3a4-3abc-4845-b60c-c424cba3f1ba"},"vehicle_type_id":"4","last_reported":1729772254,"current_range_meters":38400,"station_id":"ce4bgr92rcd13ifvqc7g","pricing_plan_id":"cebpf4jnsgd1na2vs0mg"},{"bike_id":"bbdd38db-c98a-4a04-bd8b-86a468a39e5e","system_id":"levelo_inurba_marseille","lat":43.30197,"lon":5.3662,"is_reserved":false,"is_disabled":false,"rental_uris":{"android":"levelo://app?vid=bbdd38db-c98a-4a04-bd8b-86a468a39e5e","ios":"levelo://app?vid=bbdd38db-c98a-4a04-bd8b-86a468a39e5e"},"vehicle_type_id":"4","last_reported":1729772254,"current_range_meters":39200,"station_id":"ce4bgrh2rcd13ifvqc8g","pricing_plan_id":"cebpf4jnsgd1na2vs0mg"},{"bike_id":"b44d9224-ae10-4b5f-8bf3-58dc3cf3baee","system_id":"levelo_inurba_marseille","lat":43.27678,"lon":5.3886,"is_reserved":false,"is_disabled":false,"rental_uris":{"android":"levelo://app?vid=b44d9224-ae10-4b5f-8bf3-58dc3cf3baee","ios":"levelo://app?vid=b44d9224-ae10-4b5f-8bf3-58dc3cf3baee"},"vehicle_type_id":"4","last_reported":1729772254,"current_range_meters":17600,"station_id":"ce4bhi12rcd13ifvqfo0","pricing_plan_id":"cebpf4jnsgd1na2vs0mg"},{"bike_id":"2c4a684a-b69b-4a59-9f8f-3e61716fa58f","system_id":"levelo_inurba_marseille","lat":43.30534,"lon":5.36531,"is_reserved":false,"is_disabled":false,"rental_uris":{"android":"levelo://app?vid=2c4a684a-b69b-4a59-9f8f-3e61716fa58f","ios":"levelo://app?vid=2c4a684a-b69b-4a59-9f8f-3e61716fa58f"},"vehicle_type_id":"4","last_reported":1729772254,"current_range_meters":39200,"station_id":"ce4bgs12rcd13ifvqcag","pricing_plan_id":"cebpf4jnsgd1na2vs0mg"},{"bike_id":"94793ec5-0c57-43f9-95e3-1718656b8f3f","system_id":"levelo_inurba_marseille","lat":43.29587,"lon":5.3674,"is_reserved":false,"is_disabled":false,"rental_uris":{"android":"levelo://app?vid=94793ec5-0c57-43f9-95e3-1718656b8f3f","ios":"levelo://app?vid=94793ec5-0c57-43f9-95e3-1718656b8f3f"},"vehicle_type_id":"4","last_reported":1729772254,"current_range_meters":30000,"station_id":"ce4bgph2rcd13ifvqc2g","pricing_plan_id":"cebpf4jnsgd1na2vs0mg"},{"bike_id":"4581566f-61f5-4cb7-9538-9a3db6b26a64","system_id":"levelo_inurba_marseille","lat":43.30213,"lon":5.39469,"is_reserved":false,"is_disabled":false,"rental_uris":{"android":"levelo://app?vid=4581566f-61f5-4cb7-9538-9a3db6b26a64","ios":"levelo://app?vid=4581566f-61f5-4cb7-9538-9a3db6b26a64"},"vehicle_type_id":"4","last_reported":1729772254,"current_range_meters":18800,"station_id":"ce4bh0p2rcd13ifvqd70","pricing_plan_id":"cebpf4jnsgd1na2vs0mg"},{"bike_id":"d911ca52-a80d-4e89-9e3f-0149b14c23de","system_id":"levelo_inurba_marseille","lat":43.28574,"lon":5.39493,"is_reserved":false,"is_disabled":false,"rental_uris":{"android":"levelo://app?vid=d911ca52-a80d-4e89-9e3f-0149b14c23de","ios":"levelo://app?vid=d911ca52-a80d-4e89-9e3f-0149b14c23de"},"vehicle_type_id":"4","last_reported":1729772254,"current_range_meters":26000,"station_id":"ce4bh292rcd13ifvqdg0","pricing_plan_id":"cebpf4jnsgd1na2vs0mg"},{"bike_id":"64b170f8-2500-48ef-96a3-25f7c0707542","system_id":"levelo_inurba_marseille","lat":43.337444,"lon":5.374475,"is_reserved":false,"is_disabled":false,"rental_uris":{"android":"levelo://app?vid=64b170f8-2500-48ef-96a3-25f7c0707542","ios":"levelo://app?vid=64b170f8-2500-48ef-96a3-25f7c0707542"},"vehicle_type_id":"4","last_reported":1729772254,"current_range_meters":6800,"station_id":"","pricing_plan_id":"cebpf4jnsgd1na2vs0mg"},{"bike_id":"b5942db5-182e-4c8a-8ab0-3c73a7f086f7","system_id":"levelo_inurba_marseille","lat":43.3094,"lon":5.4014,"is_reserved":false,"is_disabled":false,"rental_uris":{"android":"levelo://app?vid=b5942db5-182e-4c8a-8ab0-3c73a7f086f7","ios":"levelo://app?vid=b5942db5-182e-4c8a-8ab0-3c73a7f086f7"},"vehicle_type_id":"4","last_reported":1729772254,"current_range_meters":27200,"station_id":"ce4bgvp2rcd13ifvqct0","pricing_plan_id":"cebpf4jnsgd1na2vs0mg"},{"bike_id":"4f409860-e0f7-4877-99ee-a24fed7f0e97","system_id":"levelo_inurba_marseille","lat":43.2781,"lon":5.40718,"is_reserved":false,"is_disabled":false,"rental_uris":{"android":"levelo://app?vid=4f409860-e0f7-4877-99ee-a24fed7f0e97","ios":"levelo://app?vid=4f409860-e0f7-4877-99ee-a24fed7f0e97"},"vehicle_type_id":"4","last_reported":1729772254,"current_range_meters":36800,"station_id":"ce4bhnh2rcd13ifvqgtg","pricing_plan_id":"cebpf4jnsgd1na2vs0mg"},{"bike_id":"449e4be4-37d2-4a7a-9ae2-4d10bd9482c0","system_id":"levelo_inurba_marseille","lat":43.29897,"lon":5.43669,"is_reserved":false,"is_disabled":false,"rental_uris":{"android":"levelo://app?vid=449e4be4-37d2-4a7a-9ae2-4d10bd9482c0","ios":"levelo://app?vid=449e4be4-37d2-4a7a-9ae2-4d10bd9482c0"},"vehicle_type_id":"4","last_reported":1729772254,"current_range_meters":38000,"station_id":"ce4bhpp2rcd13ifvqhfg","pricing_plan_id":"cebpf4jnsgd1na2vs0mg"},{"bike_id":"20de94ea-21fd-43e9-8b0d-789a6c52c27a","system_id":"levelo_inurba_marseille","lat":43.32546,"lon":5.41445,"is_reserved":false,"is_disabled":false,"rental_uris":{"android":"levelo://app?vid=20de94ea-21fd-43e9-8b0d-789a6c52c27a","ios":"levelo://app?vid=20de94ea-21fd-43e9-8b0d-789a6c52c27a"},"vehicle_type_id":"4","last_reported":1729772254,"current_range_meters":8400,"station_id":"ce4bhq12rcd13ifvqhhg","pricing_plan_id":"cebpf4jnsgd1na2vs0mg"},{"bike_id":"30f6c21c-93d5-4f51-9ca1-5f9d8e71cd1c","system_id":"levelo_inurba_marseille","lat":43.29223,"lon":5.36062,"is_reserved":false,"is_disabled":false,"rental_uris":{"android":"levelo://app?vid=30f6c21c-93d5-4f51-9ca1-5f9d8e71cd1c","ios":"levelo://app?vid=30f6c21c-93d5-4f51-9ca1-5f9d8e71cd1c"},"vehicle_type_id":"4","last_reported":1729772254,"current_range_meters":33600,"station_id":"ce4bhbh2rcd13ifvqeqg","pricing_plan_id":"cebpf4jnsgd1na2vs0mg"},{"bike_id":"c7901788-1b35-4720-84b7-39dc9adeaa36","system_id":"levelo_inurba_marseille","lat":43.29543,"lon":5.37509,"is_reserved":false,"is_disabled":false,"rental_uris":{"android":"levelo://app?vid=c7901788-1b35-4720-84b7-39dc9adeaa36","ios":"levelo://app?vid=c7901788-1b35-4720-84b7-39dc9adeaa36"},"vehicle_type_id":"4","last_reported":1729772254,"current_range_meters":22400,"station_id":"ce4bgkp2rcd13ifvqbmg","pricing_plan_id":"cebpf4jnsgd1na2vs0mg"},