{"last_updated":1753722861,"ttl":60,"version":"2.2","data":{"bikes":[{"bike_id":"c31c8057-415f-4ba1-9689-16f9e882d3a3","system_id":"levelo_inurba_marseille","lat":43.25859,"lon":5.39907,"is_reserved":false,"is_disabled":false,"rental_uris":{"android":"levelo://app?vid=c31c8057-415f-4ba1-9689-16f9e882d3a3","ios":"levelo://app?vid=c31c8057-415f-4ba1-9689-16f9e882d3a3"},"vehicle_type_id":"4","last_reported":1753722861,"current_range_meters":2800,"station_id":"ce4bhl92rcd13ifvqghg","pricing_plan_id":"cebpf4jnsgd1na2vs0mg"},{"bike_id":"de99b14c-9afd-4bdd-bc56-50354c110c3d","system_id":"levelo_inurba_marseille","lat":43.25467,"lon":5.37687,"is_reserved":false,"is_disabled":true,"rental_uris":{"android":"levelo://app?vid=de99b14c-9afd-4bdd-bc56-50354c110c3d","ios":"levelo://app?vid=de99b14c-9afd-4bdd-bc56-50354c110c3d"},"vehicle_type_id":"4","last_reported":1753722861,"current_range_meters":2800,"station_id":"","pricing_plan_id":"cebpf4jnsgd1na2vs0mg"},{"bike_id":"53cddf2a-76ac-4fd8-b62c-a7db3a6c4162","system_id":"levelo_inurba_marseille","lat":43.291962,"lon":5.393237,"is_reserved":false,"is_disabled":false,"rental_uris":{"android":"levelo://app?vid=53cddf2a-76ac-4fd8-b62c-a7db3a6c4162","ios":"levelo://app?vid=53cddf2a-76ac-4fd8-b62c-a7db3a6c4162"},"vehicle_type_id":"4","last_reported":1753722861,"current_range_meters":2000,"station_id":"ce4bh192rcd13ifvqdd0","pricing_plan_id":"cebpf4jnsgd1na2vs0mg"},{"bike_id":"b5eb1605-b3b7-48d8-a144-23716f0e3004","system_id":"levelo_inurba_marseille","lat":43.282673,"lon":5.35056,"is_reserved":false,"is_disabled":false,"rental_uris":{"android":"levelo://app?vid=b5eb1605-b3b7-48d8-a144-23716f0e3004","ios":"levelo://app?vid=b5eb1605-b3b7-48d8-a144-23716f0e3004"},"vehicle_type_id":"4","last_reported":1753722861,"current_range_meters":3200,"station_id":"ce4bhbp2rcd13ifvqerg","pricing_plan_id":"cebpf4jnsgd1na2vs0mg"},{"bike_id":"f5719214-4307-4f03-83a1-9b941607bbf6","system_id":"levelo_inurba_marseille","lat":43.2953,"lon":5.38542,"is_reserved":false,"is_disabled":false,"rental_uris":{"android":"levelo://app?vid=f5719214-4307-4f03-83a1-9b941607bbf6","ios":"levelo://app?vid=f5719214-4307-4f03-83a1-9b941607bbf6"},"vehicle_type_id":"4","last_reported":1753722861,"current_range_meters":3200,"station_id":"ce4bgih2rcd13ifvqba0","pricing_plan_id":"cebpf4jnsgd1na2vs0mg"},{"bike_id":"e93f709a-cc2c-4697-a264-0f1bfd5a9f9e","system_id":"levelo_inurba_marseille","lat":43.23146,"lon":5.43717,"is_reserved":false,"is_disabled":false,"rental_uris":{"android":"levelo://app?vid=e93f709a-cc2c-4697-a264-0f1bfd5a9f9e","ios":"levelo://app?vid=e93f709a-cc2c-4697-a264-0f1bfd5a9f9e"},"vehicle_type_id":"4","last_reported":1753722861,"current_range_meters":3600,"station_id":"ce4bhmp2rcd13ifvqgog","pricing_plan_id":"cebpf4jnsgd1na2vs0mg"},{"bike_id":"55705c02-612f-4b83-a256-e513dd3267ae","system_id":"levelo_inurba_marseille","lat":43.27569,"lon":5.3841,"is_reserved":false,"is_disabled":false,"rental_uris":{"android":"levelo://app?vid=55705c02-612f-4b83-a256-e513dd3267ae","ios":"levelo://app?vid=55705c02-612f-4b83-a256-e513dd3267ae"},"vehicle_type_id":"4","last_reported":1753722861,"current_range_meters":3600,"station_id":"ce4bhh92rcd13ifvqfi0","pricing_plan_id":"cebpf4jnsgd1na2vs0mg"},{"bike_id":"34f915ee-dcef-4b5a-b996-a0423fedf887","system_id":"levelo_inurba_marseille","lat":43.31274,"lon":5.4017,"is_reserved":false,"is_disabled":false,"rental_uris":{"android":"levelo://app?vid=34f915ee-dcef-4b5a-b996-a0423fedf887","ios":"levelo://app?vid=34f915ee-dcef-4b5a-b996-a0423fedf887"},"vehicle_type_id":"4","last_reported":1753722861,"current_range_meters":4000,"station_id":"ce4bh092rcd13ifvqd30","pricing_plan_id":"cebpf4jnsgd1na2vs0mg"},{"bike_id":"9dd7a321-e07a-476a-bb51-48b2d93a4438","system_id":"levelo_inurba_marseille","lat":43.29035,"lon":5.39951,"is_reserved":false,"is_disabled":false,"rental_uris":{"android":"levelo://app?vid=9dd7a321-e07a-476a-bb51-48b2d93a4438","ios":"levelo://app?vid=9dd7a321-e07a-476a-bb51-48b2d93a4438"},"vehicle_type_id":"4","last_reported":1753722861,"current_range_meters":4000,"station_id":"ce4bh392rcd13ifvqdm0","pricing_plan_id":"cebpf4jnsgd1na2vs0mg"},{"bike_id":"042a8476-d3c4-476b-9557-f32c03e9d625","system_id":"levelo_inurba_marseille","lat":43.3395,"lon":5.35697,"is_reserved":false,"is_disabled":false,"rental_uris":{"android":"levelo://app?vid=042a8476-d3c4-476b-9557-f32c03e9d625","ios":"levelo://app?vid=042a8476-d3c4-476b-9557-f32c03e9d625"},"vehicle_type_id":"4","last_reported":1753722861,"current_range_meters":4000,"station_id":"","pricing_plan_id":"cebpf4jnsgd1na2vs0mg"},{"bike_id":"4c7d533e-781c-4ffb-ba71-2b0accbb58ee","system_id":"levelo_inurba_marseille","lat":43.29524,"lon":5.3853,"is_reserved":false,"is_disabled":false,"rental_uris":{"android":"levelo://app?vid=4c7d533e-781c-4ffb-ba71-2b0accbb58ee","ios":"levelo://app?vid=4c7d533e-781c-4ffb-ba71-2b0accbb58ee"},"vehicle_type_id":"4","last_reported":1753722861,"current_range_meters":4400,"station_id":"ce4bgih2rcd13ifvqba0","pricing_plan_id":"cebpf4jnsgd1na2vs0mg"},{"bike_id":"11c69a97-b7e0-42d3-944b-4bcccd2f1b1f","system_id":"levelo_inurba_marseille","lat":43.286115,"lon":5.370634,"is_reserved":false,"is_disabled":false,"rental_uris":{"android":"levelo://app?vid=11c69a97-b7e0-42d3-944b-4bcccd2f1b1f","ios":"levelo://app?vid=11c69a97-b7e0-42d3-944b-4bcccd2f1b1f"},"vehicle_type_id":"4","last_reported":1753722861,"current_range_meters":4400,"station_id":"ce4bht12rcd13ifvqi60","pricing_plan_id":"cebpf4jnsgd1na2vs0mg"},{"bike_id":"7e65c5ea-0429-45f5-a396-bd32e67f0744","system_id":"levelo_inurba_marseille","lat":43.334723,"lon":5.400457,"is_reserved":false,"is_disabled":false,"rental_uris":{"android":"levelo://app?vid=7e65c5ea-0429-45f5-a396-bd32e67f0744","ios":"levelo://app?vid=7e65c5ea-0429-45f5-a396-bd32e67f0744"},"vehicle_type_id":"4","last_reported":1753722861,"current_range_meters":4800,"station_id":"","pricing_plan_id":"cebpf4jnsgd1na2vs0mg"},{"bike_id":"5a9cab91-daaa-4138-b045-bb5050797c52","system_id":"levelo_inurba_marseille","lat":43.26057,"lon":5.394012,"is_reserved":false,"is_disabled":false,"rental_uris":{"android":"levelo://app?vid=5a9cab91-daaa-4138-b045-bb5050797c52","ios":"levelo://app?vid=5a9cab91-daaa-4138-b045-bb5050797c52"},"vehicle_type_id":"4","last_reported":1753722861,"current_range_meters":5600,"station_id":"ce4bhh92rcd13ifvqfj0","pricing_plan_id":"cebpf4jnsgd1na2vs0mg"},{"bike_id":"c72a7dec-d42c-4fa9-b3e4-97676b46f8d7","system_id":"levelo_inurba_marseille","lat":43.30251,"lon":5.40077,"is_reserved":false,"is_disabled":false,"rental_uris":{"android":"levelo://app?vid=c72a7dec-d42c-4fa9-b3e4-97676b46f8d7","ios":"levelo://app?vid=c72a7dec-d42c-4fa9-b3e4-97676b46f8d7"},"vehicle_type_id":"4","last_reported":1753722861,"current_range_meters":5600,"station_id":"ce4bgvh2rcd13ifvqcs0","pricing_plan_id":"cebpf4jnsgd1na2vs0mg"},{"bike_id":"9735bf1e-e3a4-4640-8dfa-4275bbd789e0","system_id":"levelo_inurba_marseille","lat":43.28409,"lon":5.37509,"is_reserved":false,"is_disabled":false,"rental_uris":{"android":"levelo://app?vid=9735bf1e-e3a4-4640-8dfa-4275bbd789e0","ios":"levelo://app?vid=9735bf1e-e3a4-4640-8dfa-4275bbd789e0"},"vehicle_type_id":"4","last_reported":1753722861,"current_range_meters":5600,"station_id":"ce4bh412rcd13ifvqds0","pricing_plan_id":"cebpf4jnsgd1na2vs0mg"},{"bike_id":"33241490-a122-4c80-99e2-1199c756ebd6","system_id":"levelo_inurba_marseille","lat":43.272098,"lon":5.391829,"is_reserved":false,"is_disabled":false,"rental_uris":{"android":"levelo://app?vid=33241490-a122-4c80-99e2-1199c756ebd6","ios":"levelo://app?vid=33241490-a122-4c80-99e2-1199c756ebd6"},"vehicle_type_id":"4","last_reported":1753722861,"current_range_meters":2800,"station_id":"ce4bhhp2rcd13ifvqfm0","pricing_plan_id":"cebpf4jnsgd1na2vs0mg"},{"bike_id":"fbffbccf-fd89-4259-9ddc-cdade94d7af4","system_id":"levelo_inurba_marseille","lat":43.30436,"lon":5.38892,"is_reserved":false,"is_disabled":false,"rental_uris":{"android":"levelo://app?vid=fbffbccf-fd89-4259-9ddc-cdade94d7af4","ios":"levelo://app?vid=fbffbccf-fd89-4259-9ddc-cdade94d7af4"},"vehicle_type_id":"4","last_reported":1753722861,"current_range_meters":6000,"station_id":"ce4bgk12rcd13ifvqbi0","pricing_plan_id":"cebpf4jnsgd1na2vs0mg"},{"bike_id":"59e824ae-d814-4c81-a7b8-fe0e1d505499","system_id":"levelo_inurba_marseille","lat":43.274905,"lon":5.42456,"is_reserved":false,"is_disabled":false,"rental_uris":{"android":"levelo://app?vid=59e824ae-d814-4c81-a7b8-fe0e1d505499","ios":"levelo://app?vid=59e824ae-d814-4c81-a7b8-fe0e1d505499"},"vehicle_type_id":"4","last_reported":1753722861,"current_range_meters":6000,"station_id":"ce4bhn92rcd13ifvqgrg","pricing_plan_id":"cebpf4jnsgd1na2vs0mg"},{"bike_id":"078f11b0-bb56-4df0-87db-0c5d635cc500","system_id":"levelo_inurba_marseille","lat":43.2251,"lon":5.34765,"is_reserved":false,"is_disabled":false,"rental_uris":{"android":"levelo://app?vid=078f11b0-bb56-4df0-87db-0c5d635cc500","ios":"levelo://app?vid=078f11b0-bb56-4df0-87db-0c5d635cc500"},"vehicle_type_id":"4","last_reported":1753722861,"current_range_meters":6400,"station_id":"st_cvj5dfep6f1abm77gieg","pricing_plan_id":"cebpf4jnsgd1na2vs0mg"},{"bike_id":"6b721dde-59cf-4836-b104-ba07fdf0eebb","system_id":"levelo_inurba_marseille","lat":43.28466,"lon":5.35882,"is_reserved":false,"is_disabled":false,"rental_uris":{"android":"levelo://app?vid=6b721dde-59cf-4836-b104-ba07fdf0eebb","ios":"levelo://app?vid=6b721dde-59cf-4836-b104-ba07fdf0eebb"},"vehicle_type_id":"4","last_reported":1753722861,"current_range_meters":6800,"station_id":"ce4bhah2rcd13ifvqei0","pricing_plan_id":"cebpf4jnsgd1na2vs0mg"},{"bike_id":"57d2148b-4900-48dc-9253-f8ca7d2e9d8a","system_id":"levelo_inurba_marseille","lat":43.303122,"lon":5.405017,"is_reserved":false,"is_disabled":false,"rental_uris":{"android":"levelo://app?vid=57d2148b-4900-48dc-9253-f8ca7d2e9d8a","ios":"levelo://app?vid=57d2148b-4900-48dc-9253-f8ca7d2e9d8a"},"vehicle_type_id":"4","last_reported":1753722861,"current_range_meters":6800,"station_id":"","pricing_plan_id":"cebpf4jnsgd1na2vs0mg"},{"bike_id":"156e744b-94c9-4be0-9dfd-d007398890ce","system_id":"levelo_inurba_marseille","lat":43.323542,"lon":5.367438,"is_reserved":false,"is_disabled":false,"rental_uris":{"android":"levelo://app?vid=156e744b-94c9-4be0-9dfd-d007398890ce","ios":"levelo://app?vid=156e744b-94c9-4be0-9dfd-d007398890ce"},"vehicle_type_id":"4","last_reported":1753722861,"current_range_meters":6800,"station_id":"ce4bhsh2rcd13ifvqi2g","pricing_plan_id":"cebpf4jnsgd1na2vs0mg"},{"bike_id":"a46016eb-b347-4620-b7b7-5cc643bd5e5a","system_id":"levelo_inurba_marseille","lat":43.28829,"lon":5.35896,"is_reserved":false,"is_disabled":false,"rental_uris":{"android":"levelo://app?vid=a46016eb-b347-4620-b7b7-5cc643bd5e5a","ios":"levelo://app?vid=a46016eb-b347-4620-b7b7-5cc643bd5e5a"},"vehicle_type_id":"4","last_reported":1753722861,"current_range_meters":8400,"station_id":"ce4bhb12rcd13ifvqem0","pricing_plan_id":"cebpf4jnsgd1na2vs0mg"},{"bike_id":"198a8a48-9082-408a-ac7c-20dca32fbf4e","system_id":"levelo_inurba_marseille","lat":43.32092,"lon":5.40932,"is_reserved":false,"is_disabled":false,"rental_uris":{"android":"levelo://app?vid=198a8a48-9082-408a-ac7c-20dca32fbf4e","ios":"levelo://app?vid=198a8a48-9082-408a-ac7c-20dca32fbf4e"},"vehicle_type_id":"4","last_reported":1753722861,"current_range_meters":6800,"station_id":"","pricing_plan_id":"cebpf4jnsgd1na2vs0mg"},{"bike_id":"56bf0055-e112-4078-b5aa-ffa4580277bd","system_id":"levelo_inurba_marseille","lat":43.31661,"lon":5.37795,"is_reserved":false,"is_disabled":false,"rental_uris":{"android":"levelo://app?vid=56bf0055-e112-4078-b5aa-ffa4580277bd","ios":"levelo://app?vid=56bf0055-e112-4078-b5aa-ffa4580277bd"},"vehicle_type_id":"4","last_reported":1753722861,"current_range_meters":7200,"station_id":"","pricing_plan_id":"cebpf4jnsgd1na2vs0mg"},{"bike_id":"69a78852-7b28-49b8-a949-17a50a919890","system_id":"levelo_inurba_marseille","lat":43.27073,"lon":5.42282,"is_reserved":false,"is_disabled":false,"rental_uris":{"android":"levelo://app?vid=69a78852-7b28-49b8-a949-17a50a919890","ios":"levelo://app?vid=69a78852-7b28-49b8-a949-17a50a919890"},"vehicle_type_id":"4","last_reported":1753722861,"current_range_meters":7200,"station_id":"ce4bhk92rcd13ifvqgb0","pricing_plan_id":"cebpf4jnsgd1na2vs0mg"},{"bike_id":"64fd8720-2ae1-44eb-a3aa-4e50e5e2f5f0","system_id":"levelo_inurba_marseille","lat":43.308819,"lon":5.396582,"is_reserved":false,"is_disabled":false,"rental_uris":{"android":"levelo://app?vid=64fd8720-2ae1-44eb-a3aa-4e50e5e2f5f0","ios":"levelo://app?vid=64fd8720-2ae1-44eb-a3aa-4e50e5e2f5f0"},"vehicle_type_id":"4","last_reported":1753722861,"current_range_meters":7200,"station_id":"ce4bh012rcd13ifvqcv0","pricing_plan_id":"cebpf4jnsgd1na2vs0mg"},{"bike_id":"acfe649d-b938-40a9-8bcb-1760ff36c897","system_id":"levelo_inurba_marseille","lat":43.2886,"lon":5.35842,"is_reserved":false,"is_disabled":false,"rental_uris":{"android":"levelo://app?vid=acfe649d-b938-40a9-8bcb-1760ff36c897","ios":"levelo://app?vid=acfe649d-b938-40a9-8bcb-1760ff36c897"},"vehicle_type_id":"4","last_reported":1753722861,"current_range_meters":7200,"station_id":"ce4bhb12rcd13ifvqem0","pricing_plan_id":"cebpf4jnsgd1na2vs0mg"},{"bike_id":"caddbbe4-b4c2-49a0-9a91-6d8004ac6501","system_id":"levelo_inurba_marseille","lat":43.27909,"lon":5.39592,"is_reserved":false,"is_disabled":false,"rental_uris":{"android":"levelo://app?vid=caddbbe4-b4c2-49a0-9a91-6d8004ac6501","ios":"levelo://app?vid=caddbbe4-b4c2-49a0-9a91-6d8004ac6501"},"vehicle_type_id":"4","last_reported":1753722861,"current_range_meters":8000,"station_id":"ce4bhf92rcd13ifvqf40","pricing_plan_id":"cebpf4jnsgd1na2vs0mg"},{"bike_id":"cb54771b-a421-4c9c-8f57-0437e0ff6c21","system_id":"levelo_inurba_marseille","lat":43.27901,"lon":5.38008,"is_reserved":false,"is_disabled":false,"rental_uris":{"android":"levelo://app?vid=cb54771b-a421-4c9c-8f57-0437e0ff6c21","ios":"levelo://app?vid=cb54771b-a421-4c9c-8f57-0437e0ff6c21"},"vehicle_type_id":"4","last_reported":1753722861,"current_range_meters":8000,"station_id":"ce4bhf92rcd13ifvqf50","pricing_plan_id":"cebpf4jnsgd1na2vs0mg"},{"bike_id":"59e4003f-739b-46e8-9f16-561546476c1c","system_id":"levelo_inurba_marseille","lat":43.290028,"lon":5.356191,"is_reserved":false,"is_disabled":false,"rental_uris":{"android":"levelo://app?vid=59e4003f-739b-46e8-9f16-561546476c1c","ios":"levelo://app?vid=59e4003f-739b-46e8-9f16-561546476c1c"},"vehicle_type_id":"4","last_reported":1753722861,"current_range_meters":8000,"station_id":"ce4bhb92rcd13ifvqen0","pricing_plan_id":"cebpf4jnsgd1na2vs0mg"},{"bike_id":"046a8ab1-7a2b-4761-ab49-51221e5ed134","system_id":"levelo_inurba_marseille","lat":43.30143,"lon":5.3985,"is_reserved":false,"is_disabled":false,"rental_uris":{"android":"levelo://app?vid=046a8ab1-7a2b-4761-ab49-51221e5ed134","ios":"levelo://app?vid=046a8ab1-7a2b-4761-ab49-51221e5ed134"},"vehicle_type_id":"4","last_reported":1753722861,"current_range_meters":8000,"station_id":"ce4bh0h2rcd13ifvqd40","pricing_plan_id":"cebpf4jnsgd1na2vs0mg"},{"bike_id":"463e03fe-b9b0-4212-a764-9bd6d78e3c2e","system_id":"levelo_inurba_marseille","lat":43.31014,"lon":5.38137,"is_reserved":false,"is_disabled":false,"rental_uris":{"android":"levelo://app?vid=463e03fe-b9b0-4212-a764-9bd6d78e3c2e","ios":"levelo://app?vid=463e03fe-b9b0-4212-a764-9bd6d78e3c2e"},"vehicle_type_id":"4","last_reported":1753722861,"current_range_meters":8400,"station_id":"","pricing_plan_id":"cebpf4jnsgd1na2vs0mg"},{"bike_id":"ecccb7f5-77ab-4257-a671-3133b4567461","system_id":"levelo_inurba_marseille","lat":43.26211,"lon":5.37439,"is_reserved":false,"is_disabled":false,"rental_uris":{"android":"levelo://app?vid=ecccb7f5-77ab-4257-a671-3133b4567461","ios":"levelo://app?vid=ecccb7f5-77ab-4257-a671-3133b4567461"},"vehicle_type_id":"4","last_reported":1753722861,"current_range_meters":8400,"station_id":"ce4bhgp2rcd13ifvqfc0","pricing_plan_id":"cebpf4jnsgd1na2vs0mg"},{"bike_id":"f11d5c36-c7b9-4fc1-92df-c7e100615396","system_id":"levelo_inurba_marseille","lat":43.29547,"lon":5.42273,"is_reserved":false,"is_disabled":false,"rental_uris":{"android":"levelo://app?vid=f11d5c36-c7b9-4fc1-92df-c7e100615396","ios":"levelo://app?vid=f11d5c36-c7b9-4fc1-92df-c7e100615396"},"vehicle_type_id":"4","last_reported":1753722861,"current_range_meters":8400,"station_id":"ce4bhph2rcd13ifvqhdg","pricing_plan_id":"cebpf4jnsgd1na2vs0mg"},{"bike_id":"da0dea9a-07a2-4249-aa7c-2489e28d40de","system_id":"levelo_inurba_marseille","lat":43.29665,"lon":5.36246,"is_reserved":false,"is_disabled":false,"rental_uris":{"android":"levelo://app?vid=da0dea9a-07a2-4249-aa7c-2489e28d40de","ios":"levelo://app?vid=da0dea9a-07a2-4249-aa7c-2489e28d40de"},"vehicle_type_id":"4","last_reported":1753722861,"current_range_meters":8800,"station_id":"","pricing_plan_id":"cebpf4jnsgd1na2vs0mg"},{"bike_id":"5a3d5c19-c10f-4e83-aed3-bc03bdf5166b","system_id":"levelo_inurba_marseille","lat":43.29229,"lon":5.36071,"is_reserved":false,"is_disabled":false,"rental_uris":{"android":"levelo://app?vid=5a3d5c19-c10f-4e83-aed3-bc03bdf5166b","ios":"levelo://app?vid=5a3d5c19-c10f-4e83-aed3-bc03bdf5166b"},"vehicle_type_id":"4","last_reported":1753722861,"current_range_meters":8800,"station_id":"ce4bhbh2rcd13ifvqeqg","pricing_plan_id":"cebpf4jnsgd1na2vs0mg"},{"bike_id":"6af200db-cded-4534-a7d3-5ca8f5f66ede","system_id":"levelo_inurba_marseille","lat":43.30143,"lon":5.37411,"is_reserved":false,"is_disabled":false,"rental_uris":{"android":"levelo://app?vid=6af200db-cded-4534-a7d3-5ca8f5f66ede","ios":"levelo://app?vid=6af200db-cded-4534-a7d3-5ca8f5f66ede"},"vehicle_type_id":"4","last_reported":1753722861,"current_range_meters":8800,"station_id":"ce4bgs92rcd13ifvqcc0","pricing_plan_id":"cebpf4jnsgd1na2vs0mg"},{"bike_id":"5673d584-a21c-4b01-9696-00bf0337ea1a","system_id":"levelo_inurba_marseille","lat":43.28937,"lon":5.36638,"is_reserved":false,"is_disabled":false,"rental_uris":{"android":"levelo://app?vid=5673d584-a21c-4b01-9696-00bf0337ea1a","ios":"levelo://app?vid=5673d584-a21c-4b01-9696-00bf0337ea1a"},"vehicle_type_id":"4","last_reported":1753722861,"current_range_meters":8800,"station_id":"ce4bhap2rcd13ifvqek0","pricing_plan_id":"cebpf4jnsgd1na2vs0mg"},{"bike_id":"d1ee7493-1c8a-469d-8c3c-eed7b0a6afe5","system_id":"levelo_inurba_marseille","lat":43.299683,"lon":5.386239,"is_reserved":false,"is_disabled":false,"rental_uris":{"android":"levelo://app?vid=d1ee7493-1c8a-469d-8c3c-eed7b0a6afe5","ios":"levelo://app?vid=d1ee7493-1c8a-469d-8c3c-eed7b0a6afe5"},"vehicle_type_id":"4","last_reported":1753722861,"current_range_meters":9200,"station_id":"","pricing_plan_id":"cebpf4jnsgd1na2vs0mg"},{"bike_id":"1e8e8c12-9495-4559-8fe5-9aaedc205ee6","system_id":"levelo_inurba_marseille","lat":43.290062,"lon":5.356178,"is_reserved":false,"is_disabled":false,"rental_uris":{"android":"levelo://app?vid=1e8e8c12-9495-4559-8fe5-9aaedc205ee6","ios":"levelo://app?vid=1e8e8c12-9495-4559-8fe5-9aaedc205ee6"},"vehicle_type_id":"4","last_reported":1753722861,"current_range_meters":9200,"station_id":"ce4bhb92rcd13ifvqen0","pricing_plan_id":"cebpf4jnsgd1na2vs0mg"},{"bike_id":"61567ee8-7afa-457d-b399-db4f8e5e407e","system_id":"levelo_inurba_marseille","lat":43.27837,"lon":5.39208,"is_reserved":false,"is_disabled":false,"rental_uris":{"android":"levelo://app?vid=61567ee8-7afa-457d-b399-db4f8e5e407e","ios":"levelo://app?vid=61567ee8-7afa-457d-b399-db4f8e5e407e"},"vehicle_type_id":"4","last_reported":1753722861,"current_range_meters":9200,"station_id":"ce4bhjp2rcd13ifvqga0","pricing_plan_id":"cebpf4jnsgd1na2vs0mg"},{"bike_id":"4d3451bb-811d-4406-9ba2-9be4a0254424","system_id":"levelo_inurba_marseille","lat":43.28399,"lon":5.35002,"is_reserved":false,"is_disabled":false,"rental_uris":{"android":"levelo://app?vid=4d3451bb-811d-4406-9ba2-9be4a0254424","ios":"levelo://app?vid=4d3451bb-811d-4406-9ba2-9be4a0254424"},"vehicle_type_id":"4","last_reported":1753722861,"current_range_meters":9200,"station_id":"ce4bhbh2rcd13ifvqepg","pricing_plan_id":"cebpf4jnsgd1na2vs0mg"},{"bike_id":"298585b0-2a19-4fed-86b1-4d90d797bbca","system_id":"levelo_inurba_marseille","lat":43.29726,"lon":5.3661,"is_reserved":false,"is_disabled":false,"rental_uris":{"android":"levelo://app?vid=298585b0-2a19-4fed-86b1-4d90d797bbca","ios":"levelo://app?vid=298585b0-2a19-4fed-86b1-4d90d797bbca"},"vehicle_type_id":"4","last_reported":1753722861,"current_range_meters":9200,"station_id":"ce4bgn12rcd13ifvqbt0","pricing_plan_id":"cebpf4jnsgd1na2vs0mg"},{"bike_id":"a39e5443-7ba8-4095-ab4d-e6779c93da42","system_id":"levelo_inurba_marseille","lat":43.29784,"lon":5.3934,"is_reserved":false,"is_disabled":false,"rental_uris":{"android":"levelo://app?vid=a39e5443-7ba8-4095-ab4d-e6779c93da42","ios":"levelo://app?vid=a39e5443-7ba8-4095-ab4d-e6779c93da42"},"vehicle_type_id":"4","last_reported":1753722861,"current_range_meters":9600,"station_id":"chh1huq6cuj3fo74tm60","pricing_plan_id":"cebpf4jnsgd1na2vs0mg"},{"bike_id":"bf295fbf-1f72-4e1a-a8f1-f319bb5fd736","system_id":"levelo_inurba_marseille","lat":43.29314,"lon":5.37035,"is_reserved":false,"is_disabled":false,"rental_uris":{"android":"levelo://app?vid=bf295fbf-1f72-4e1a-a8f1-f319bb5fd736","ios":"levelo://app?vid=bf295fbf-1f72-4e1a-a8f1-f319bb5fd736"},"vehicle_type_id":"4","last_reported":1753722861,"current_range_meters":9600,"station_id":"","pricing_plan_id":"cebpf4jnsgd1na2vs0mg"},{"bike_id":"fb45cff3-08fa-4cc9-bf53-0d8295f6b8d1","system_id":"levelo_inurba_marseille","lat":43.27911,"lon":5.42824,"is_reserved":false,"is_disabled":false,"rental_uris":{"android":"levelo://app?vid=fb45cff3-08fa-4cc9-bf53-0d8295f6b8d1","ios":"levelo://app?vid=fb45cff3-08fa-4cc9-bf53-0d8295f6b8d1"},"vehicle_type_id":"4","last_reported":1753722861,"current_range_meters":9600,"station_id":"","pricing_plan_id":"cebpf4jnsgd1na2vs0mg"},{"bike_id":"9d2d1259-2acb-435e-bdb7-92250d376ad1","system_id":"levelo_inurba_marseille","lat":43.23153,"lon":5.43709,"is_reserved":false,"is_disabled":false,"rental_uris":{"android":"levelo://app?vid=9d2d1259-2acb-435e-bdb7-92250d376ad1","ios":"levelo://app?vid=9d2d1259-2acb-435e-bdb7-92250d376ad1"},"vehicle_type_id":"4","last_reported":1753722861,"current_range_meters":9600,"station_id":"ce4bhmp2rcd13ifvqgog","pricing_plan_id":"cebpf4jnsgd1na2vs0mg"},{"bike_id":"2e49e5c9-3b31-4c1b-a59c-b83a5bbc7546","system_id":"levelo_inurba_marseille","lat":43.28402,"lon":5.37492,"is_reserved":false,"is_disabled":false,"rental_uris":{"android":"levelo://app?vid=2e49e5c9-3b31-4c1b-a59c-b83a5bbc7546","ios":"levelo://app?vid=2e49e5c9-3b31-4c1b-a59c-b83a5bbc7546"},"vehicle_type_id":"4","last_reported":1753722861,"current_range_meters":9600,"station_id":"ce4bh412rcd13ifvqds0","pricing_plan_id":"cebpf4jnsgd1na2vs0mg"},{"bike_id":"4f020d92-8765-4eac-adb3-6d0daf9ec32d","system_id":"levelo_inurba_marseille","lat":43.28417,"lon":5.34979,"is_reserved":false,"is_disabled":false,"rental_uris":{"android":"levelo://app?vid=4f020d92-8765-4eac-adb3-6d0daf9ec32d","ios":"levelo://app?vid=4f020d92-8765-4eac-adb3-6d0daf9ec32d"},"vehicle_type_id":"4","last_reported":1753722861,"current_range_meters":10000,"station_id":"ce4bhbh2rcd13ifvqepg","pricing_plan_id":"cebpf4jnsgd1na2vs0mg"},{"bike_id":"211b8ce2-a3fe-4eef-8f4f-b5d6d16137ba","system_id":"levelo_inurba_marseille","lat":43.28614,"lon":5.35075,"is_reserved":false,"is_disabled":false,"rental_uris":{"android":"levelo://app?vid=211b8ce2-a3fe-4eef-8f4f-b5d6d16137ba","ios":"levelo://app?vid=211b8ce2-a3fe-4eef-8f4f-b5d6d16137ba"},"vehicle_type_id":"4","last_reported":1753722861,"current_range_meters":10000,"station_id":"ce4bhch2rcd13ifvqeug","pricing_plan_id":"cebpf4jnsgd1na2vs0mg"},{"bike_id":"dcc961a9-4f2f-42ff-84e6-4bffc755025f","system_id":"levelo_inurba_marseille","lat":43.29254,"lon":5.38458,"is_reserved":false,"is_disabled":false,"rental_uris":{"android":"levelo://app?vid=dcc961a9-4f2f-42ff-84e6-4bffc755025f","ios":"levelo://app?vid=dcc961a9-4f2f-42ff-84e6-4bffc755025f"},"vehicle_type_id":"4","last_reported":1753722861,"current_range_meters":10000,"station_id":"ce4bh692rcd13ifvqea0","pricing_plan_id":"cebpf4jnsgd1na2vs0mg"},{"bike_id":"9bb351d4-16df-46a3-a181-1dfd41fc8089","system_id":"levelo_inurba_marseille","lat":43.31382,"lon":5.38495,"is_reserved":false,"is_disabled":false,"rental_uris":{"android":"levelo://app?vid=9bb351d4-16df-46a3-a181-1dfd41fc8089","ios":"levelo://app?vid=9bb351d4-16df-46a3-a181-1dfd41fc8089"},"vehicle_type_id":"4","last_reported":1753722861,"current_range_meters":10000,"station_id":"ce4bgt92rcd13ifvqcf0","pricing_plan_id":"cebpf4jnsgd1na2vs0mg"},{"bike_id":"eac438a9-250c-4f80-b97e-66e585adbfcf","system_id":"levelo_inurba_marseille","lat":43.2251,"lon":5.34775,"is_reserved":false,"is_disabled":false,"rental_uris":{"android":"levelo://app?vid=eac438a9-250c-4f80-b97e-66e585adbfcf","ios":"levelo://app?vid=eac438a9-250c-4f80-b97e-66e585adbfcf"},"vehicle_type_id":"4","last_reported":1753722861,"current_range_meters":10000,"station_id":"st_cvj5dfep6f1abm77gieg","pricing_plan_id":"cebpf4jnsgd1na2vs0mg"},{"bike_id":"5690c4bd-3865-47bd-9584-cff13ed96208","system_id":"levelo_inurba_marseille","lat":43.29309,"lon":5.37172,"is_reserved":false,"is_disabled":false,"rental_uris":{"android":"levelo://app?vid=5690c4bd-3865-47bd-9584-cff13ed96208","ios":"levelo://app?vid=5690c4bd-3865-47bd-9584-cff13ed96208"},"vehicle_type_id":"4","last_reported":1753722861,"current_range_meters":9200,"station_id":"ce4bgh92rcd13ifvqb40","pricing_plan_id":"cebpf4jnsgd1na2vs0mg"},{"bike_id":"3152576e-d602-4c3f-980e-717f41aed773","system_id":"levelo_inurba_marseille","lat":43.33737,"lon":5.37465,"is_reserved":false,"is_disabled":false,"rental_uris":{"android":"levelo://app?vid=3152576e-d602-4c3f-980e-717f41aed773","ios":"levelo://app?vid=3152576e-d602-4c3f-980e-717f41aed773"},"vehicle_type_id":"4","last_reported":1753722861,"current_range_meters":10000,"station_id":"","pricing_plan_id":"cebpf4jnsgd1na2vs0mg"},{"bike_id":"9bdc0621-d56c-4944-8cef-6d38e2ac43d4","system_id":"levelo_inurba_marseille","lat":43.262127,"lon":5.374402,"is_reserved":false,"is_disabled":false,"rental_uris":{"android":"levelo://app?vid=9bdc0621-d56c-4944-8cef-6d38e2ac43d4","ios":"levelo://app?vid=9bdc0621-d56c-4944-8cef-6d38e2ac43d4"},"vehicle_type_id":"4","last_reported":1753722861,"current_range_meters":10800,"station_id":"ce4bhgp2rcd13ifvqfc0","pricing_plan_id":"cebpf4jnsgd1na2vs0mg"},{"bike_id":"86ef69ee-1d12-48f8-807e-a1365b28d113","system_id":"levelo_inurba_marseille","lat":43.29971,"lon":5.37171,"is_reserved":false,"is_disabled":false,"rental_uris":{"android":"levelo://app?vid=86ef69ee-1d12-48f8-807e-a1365b28d113","ios":"levelo://app?vid=86ef69ee-1d12-48f8-807e-a1365b28d113"},"vehicle_type_id":"4","last_reported":1753722861,"current_range_meters":10800,"station_id":"ce4bgr92rcd13ifvqc7g","pricing_plan_id":"cebpf4jnsgd1na2vs0mg"},{"bike_id":"87d25c57-0e51-4d6d-b20a-9e79389a208e","system_id":"levelo_inurba_marseille","lat":43.31078,"lon":5.38351,"is_reserved":false,"is_disabled":false,"rental_uris":{"android":"levelo://app?vid=87d25c57-0e51-4d6d-b20a-9e79389a208e","ios":"levelo://app?vid=87d25c57-0e51-4d6d-b20a-9e79389a208e"},"vehicle_type_id":"4","last_reported":1753722861,"current_range_meters":10800,"station_id":"ce4bgv92rcd13ifvqcr0","pricing_plan_id":"cebpf4jnsgd1na2vs0mg"},{"bike_id":"48f3c6bf-95a4-4af5-81f7-8d2d463adb8b","system_id":"levelo_inurba_marseille","lat":43.26196,"lon":5.37446,"is_reserved":false,"is_disabled":false,"rental_uris":{"android":"levelo://app?vid=48f3c6bf-95a4-4af5-81f7-8d2d463adb8b","ios":"levelo://app?vid=48f3c6bf-95a4-4af5-81f7-8d2d463adb8b"},"vehicle_type_id":"4","last_reported":1753722861,"current_range_meters":10800,"station_id":"ce4bhgp2rcd13ifvqfc0","pricing_plan_id":"cebpf4jnsgd1na2vs0mg"},{"bike_id":"c490285a-ad86-41e9-a650-bc7838a33af4","system_id":"levelo_inurba_marseille","lat":43.23072,"lon":5.35505,"is_reserved":false,"is_disabled":false,"rental_uris":{"android":"levelo://app?vid=c490285a-ad86-41e9-a650-bc7838a33af4","ios":"levelo://app?vid=c490285a-ad86-41e9-a650-bc7838a33af4"},"vehicle_type_id":"4","last_reported":1753722861,"current_range_meters":10800,"station_id":"cpo3342slgdg3j2ifvpg","pricing_plan_id":"cebpf4jnsgd1na2vs0mg"},{"bike_id":"5f3b4fd1-eae6-41fc-8eb7-bc8b29b63214","system_id":"levelo_inurba_marseille","lat":43.323652,"lon":5.367423,"is_reserved":false,"is_disabled":false,"rental_uris":{"android":"levelo://app?vid=5f3b4fd1-eae6-41fc-8eb7-bc8b29b63214","ios":"levelo://app?vid=5f3b4fd1-eae6-41fc-8eb7-bc8b29b63214"},"vehicle_type_id":"4","last_reported":1753722861,"current_range_meters":10800,"station_id":"ce4bhsh2rcd13ifvqi2g","pricing_plan_id":"cebpf4jnsgd1na2vs0mg"},{"bike_id":"5137e5c8-fae9-4531-85b9-df7423feb303","system_id":"levelo_inurba_marseille","lat":43.33139,"lon":5.38934,"is_reserved":false,"is_disabled":false,"rental_uris":{"android":"levelo://app?vid=5137e5c8-fae9-4531-85b9-df7423feb303","ios":"levelo://app?vid=5137e5c8-fae9-4531-85b9-df7423feb303"},"vehicle_type_id":"4","last_reported":1753722861,"current_range_meters":10800,"station_id":"","pricing_plan_id":"cebpf4jnsgd1na2vs0mg"},{"bike_id":"feb40379-0815-4a68-aadb-305942f11d04","system_id":"levelo_inurba_marseille","lat":43.24961,"lon":5.389807,"is_reserved":false,"is_disabled":false,"rental_uris":{"android":"levelo://app?vid=feb40379-0815-4a68-aadb-305942f11d04","ios":"levelo://app?vid=feb40379-0815-4a68-aadb-305942f11d04"},"vehicle_type_id":"4","last_reported":1753722861,"current_range_meters":10800,"station_id":"","pricing_plan_id":"cebpf4jnsgd1na2vs0mg"},{"bike_id":"78dbf867-6ddb-4929-891c-1125e19134a7","system_id":"levelo_inurba_marseille","lat":43.29518,"lon":5.37503,"is_reserved":false,"is_disabled":false,"rental_uris":{"android":"levelo://app?vid=78dbf867-6ddb-4929-891c-1125e19134a7","ios":"levelo://app?vid=78dbf867-6ddb-4929-891c-1125e19134a7"},"vehicle_type_id":"4","last_reported":1753722861,"current_range_meters":11200,"station_id":"ce4bgkp2rcd13ifvqbmg","pricing_plan_id":"cebpf4jnsgd1na2vs0mg"},{"bike_id":"3c050a07-4440-4aa4-ad6a-b2c6f4cef95c","system_id":"levelo_inurba_marseille","lat":43.29963,"lon":5.3848,"is_reserved":false,"is_disabled":false,"rental_uris":{"android":"levelo://app?vid=3c050a07-4440-4aa4-ad6a-b2c6f4cef95c","ios":"levelo://app?vid=3c050a07-4440-4aa4-ad6a-b2c6f4cef95c"},"vehicle_type_id":"4","last_reported":1753722861,"current_range_meters":11200,"station_id":"ce4bgj92rcd13ifvqbd0","pricing_plan_id":"cebpf4jnsgd1na2vs0mg"},{"bike_id":"87a4d710-c859-4883-a056-db27db09862e","system_id":"levelo_inurba_marseille","lat":43.277585,"lon":5.355971,"is_reserved":false,"is_disabled":false,"rental_uris":{"android":"levelo://app?vid=87a4d710-c859-4883-a056-db27db09862e","ios":"levelo://app?vid=87a4d710-c859-4883-a056-db27db09862e"},"vehicle_type_id":"4","last_reported":1753722861,"current_range_meters":11200,"station_id":"","pricing_plan_id":"cebpf4jnsgd1na2vs0mg"},{"bike_id":"bc2d764b-f2ce-4f90-b145-385dfd9e190d","system_id":"levelo_inurba_marseille","lat":43.29583,"lon":5.36748,"is_reserved":false,"is_disabled":false,"rental_uris":{"android":"levelo://app?vid=bc2d764b-f2ce-4f90-b145-385dfd9e190d","ios":"levelo://app?vid=bc2d764b-f2ce-4f90-b145-385dfd9e190d"},"vehicle_type_id":"4","last_reported":1753722861,"current_range_meters":11200,"station_id":"ce4bgph2rcd13ifvqc2g","pricing_plan_id":"cebpf4jnsgd1na2vs0mg"},{"bike_id":"285934cc-7696-42dc-a98f-4ab1ec328a4b","system_id":"levelo_inurba_marseille","lat":43.28077,"lon":5.39656,"is_reserved":false,"is_disabled":false,"rental_uris":{"android":"levelo://app?vid=285934cc-7696-42dc-a98f-4ab1ec328a4b","ios":"levelo://app?vid=285934cc-7696-42dc-a98f-4ab1ec328a4b"},"vehicle_type_id":"4","last_reported":1753722861,"current_range_meters":11600,"station_id":"ce4bho12rcd13ifvqh2g","pricing_plan_id":"cebpf4jnsgd1na2vs0mg"},{"bike_id":"e4e06ef8-f146-4c4a-81f1-91159188d094","system_id":"levelo_inurba_marseille","lat":43.25826,"lon":5.3942,"is_reserved":false,"is_disabled":false,"rental_uris":{"android":"levelo://app?vid=e4e06ef8-f146-4c4a-81f1-91159188d094","ios":"levelo://app?vid=e4e06ef8-f146-4c4a-81f1-91159188d094"},"vehicle_type_id":"4","last_reported":1753722861,"current_range_meters":11600,"station_id":"ce4bhip2rcd13ifvqft0","pricing_plan_id":"cebpf4jnsgd1na2vs0mg"},{"bike_id":"b3eec248-fd7e-4416-81e0-087a337c1414","system_id":"levelo_inurba_marseille","lat":43.29526,"lon":5.37507,"is_reserved":false,"is_disabled":false,"rental_uris":{"android":"levelo://app?vid=b3eec248-fd7e-4416-81e0-087a337c1414","ios":"levelo://app?vid=b3eec248-fd7e-4416-81e0-087a337c1414"},"vehicle_type_id":"4","last_reported":1753722861,"current_range_meters":11600,"station_id":"ce4bgkp2rcd13ifvqbmg","pricing_plan_id":"cebpf4jnsgd1na2vs0mg"},{"bike_id":"b0562e78-62b2-42dc-bb1e-2da442cdc296","system_id":"levelo_inurba_marseille","lat":43.28618,"lon":5.35089,"is_reserved":false,"is_disabled":false,"rental_uris":{"android":"levelo://app?vid=b0562e78-62b2-42dc-bb1e-2da442cdc296","ios":"levelo://app?vid=b0562e78-62b2-42dc-bb1e-2da442cdc296"},"vehicle_type_id":"4","last_reported":1753722861,"current_range_meters":11600,"station_id":"ce4bhch2rcd13ifvqeug","pricing_plan_id":"cebpf4jnsgd1na2vs0mg"},{"bike_id":"22709049-0d39-445f-b228-d9eaa5759f44","system_id":"levelo_inurba_marseille","lat":43.28402,"lon":5.3498,"is_reserved":false,"is_disabled":false,"rental_uris":{"android":"levelo://app?vid=22709049-0d39-445f-b228-d9eaa5759f44","ios":"levelo://app?vid=22709049-0d39-445f-b228-d9eaa5759f44"},"vehicle_type_id":"4","last_reported":1753722861,"current_range_meters":11600,"station_id":"ce4bhbh2rcd13ifvqepg","pricing_plan_id":"cebpf4jnsgd1na2vs0mg"},{"bike_id":"80fc546e-9d29-4774-99e8-19237da691b3","system_id":"levelo_inurba_marseille","lat":43.256091,"lon":5.382367,"is_reserved":false,"is_disabled":false,"rental_uris":{"android":"levelo://app?vid=80fc546e-9d29-4774-99e8-19237da691b3","ios":"levelo://app?vid=80fc546e-9d29-4774-99e8-19237da691b3"},"vehicle_type_id":"4","last_reported":1753722861,"current_range_meters":11600,"station_id":"ce4bhih2rcd13ifvqfs0","pricing_plan_id":"cebpf4jnsgd1na2vs0mg"},{"bike_id":"53add901-177a-4f3c-956a-ddc2a36bfcde","system_id":"levelo_inurba_marseille","lat":43.27835,"lon":5.3921,"is_reserved":false,"is_disabled":false,"rental_uris":{"android":"levelo://app?vid=53add901-177a-4f3c-956a-ddc2a36bfcde","ios":"levelo://app?vid=53add901-177a-4f3c-956a-ddc2a36bfcde"},"vehicle_type_id":"4","last_reported":1753722861,"current_range_meters":11600,"station_id":"ce4bhjp2rcd13ifvqga0","pricing_plan_id":"cebpf4jnsgd1na2vs0mg"},{"bike_id":"35c9a614-a241-42a2-8e5a-bfc8fb018ba4","system_id":"levelo_inurba_marseille","lat":43.225029,"lon":5.347866,"is_reserved":false,"is_disabled":false,"rental_uris":{"android":"levelo://app?vid=35c9a614-a241-42a2-8e5a-bfc8fb018ba4","ios":"levelo://app?vid=35c9a614-a241-42a2-8e5a-bfc8fb018ba4"},"vehicle_type_id":"4","last_reported":1753722861,"current_range_meters":11600,"station_id":"","pricing_plan_id":"cebpf4jnsgd1na2vs0mg"},{"bike_id":"2cf31370-d3b0-4cb4-bcf0-8f69a04b3bc3","system_id":"levelo_inurba_marseille","lat":43.28616,"lon":5.35095,"is_reserved":false,"is_disabled":false,"rental_uris":{"android":"levelo://app?vid=2cf31370-d3b0-4cb4-bcf0-8f69a04b3bc3","ios":"levelo://app?vid=2cf31370-d3b0-4cb4-bcf0-8f69a04b3bc3"},"vehicle_type_id":"4","last_reported":1753722861,"current_range_meters":11600,"station_id":"ce4bhch2rcd13ifvqeug","pricing_plan_id":"cebpf4jnsgd1na2vs0mg"},{"bike_id":"9a53c405-7cae-4213-857e-35d22ee808a3","system_id":"levelo_inurba_marseille","lat":43.28413,"lon":5.3499,"is_reserved":false,"is_disabled":false,"rental_uris":{"android":"levelo://app?vid=9a53c405-7cae-4213-857e-35d22ee808a3","ios":"levelo://app?vid=9a53c405-7cae-4213-857e-35d22ee808a3"},"vehicle_type_id":"4","last_reported":1753722861,"current_range_meters":12000,"station_id":"ce4bhbh2rcd13ifvqepg","pricing_plan_id":"cebpf4jnsgd1na2vs0mg"},{"bike_id":"8e37ef79-bd01-46c2-9d9e-3d3f7741a07a","system_id":"levelo_inurba_marseille","lat":43.297302,"lon":5.374166,"is_reserved":false,"is_disabled":false,"rental_uris":{"android":"levelo://app?vid=8e37ef79-bd01-46c2-9d9e-3d3f7741a07a","ios":"levelo://app?vid=8e37ef79-bd01-46c2-9d9e-3d3f7741a07a"},"vehicle_type_id":"4","last_reported":1753722861,"current_range_meters":12000,"station_id":"","pricing_plan_id":"cebpf4jnsgd1na2vs0mg"},{"bike_id":"7bbabe21-41fb-474d-b751-cfd2cc7ea973","system_id":"levelo_inurba_marseille","lat":43.26051,"lon":5.39361,"is_reserved":false,"is_disabled":false,"rental_uris":{"android":"levelo://app?vid=7bbabe21-41fb-474d-b751-cfd2cc7ea973","ios":"levelo://app?vid=7bbabe21-41fb-474d-b751-cfd2cc7ea973"},"vehicle_type_id":"4","last_reported":1753722861,"current_range_meters":12000,"station_id":"ce4bhh92rcd13ifvqfj0","pricing_plan_id":"cebpf4jnsgd1na2vs0mg"},{"bike_id":"3efe99ad-0b45-4c18-92ca-96f6cb43a670","system_id":"levelo_inurba_marseille","lat":43.323669,"lon":5.367583,"is_reserved":false,"is_disabled":true,"rental_uris":{"android":"levelo://app?vid=3efe99ad-0b45-4c18-92ca-96f6cb43a670","ios":"levelo://app?vid=3efe99ad-0b45-4c18-92ca-96f6cb43a670"},"vehicle_type_id":"4","last_reported":1753722861,"current_range_meters":12000,"station_id":"ce4bhsh2rcd13ifvqi2g","pricing_plan_id":"cebpf4jnsgd1na2vs0mg"},{"bike_id":"180bdffc-3826-48ae-b1a9-6c1afe2aed29","system_id":"levelo_inurba_marseille","lat":43.28624,"lon":5.35107,"is_reserved":false,"is_disabled":false,"rental_uris":{"android":"levelo://app?vid=180bdffc-3826-48ae-b1a9-6c1afe2aed29","ios":"levelo://app?vid=180bdffc-3826-48ae-b1a9-6c1afe2aed29"},"vehicle_type_id":"4","last_reported":1753722861,"current_range_meters":12000,"station_id":"ce4bhch2rcd13ifvqeug","pricing_plan_id":"cebpf4jnsgd1na2vs0mg"},{"bike_id":"34ad10d0-9f03-4910-bd12-e142eb1dc62f","system_id":"levelo_inurba_marseille","lat":43.31706,"lon":5.43715,"is_reserved":false,"is_disabled":false,"rental_uris":{"android":"levelo://app?vid=34ad10d0-9f03-4910-bd12-e142eb1dc62f","ios":"levelo://app?vid=34ad10d0-9f03-4910-bd12-e142eb1dc62f"},"vehicle_type_id":"4","last_reported":1753722861,"current_range_meters":12000,"station_id":"ce4bhp92rcd13ifvqhcg","pricing_plan_id":"cebpf4jnsgd1na2vs0mg"},{"bike_id":"c85546d4-3ea8-44da-9c2d-e6b7bf575831","system_id":"levelo_inurba_marseille","lat":43.28416,"lon":5.34977,"is_reserved":false,"is_disabled":false,"rental_uris":{"android":"levelo://app?vid=c85546d4-3ea8-44da-9c2d-e6b7bf575831","ios":"levelo://app?vid=c85546d4-3ea8-44da-9c2d-e6b7bf575831"},"vehicle_type_id":"4","last_reported":1753722861,"current_range_meters":12000,"station_id":"ce4bhbh2rcd13ifvqepg","pricing_plan_id":"cebpf4jnsgd1na2vs0mg"},{"bike_id":"1afa64a6-783c-401a-a55f-5dd7ccc188d9","system_id":"levelo_inurba_marseille","lat":43.30347,"lon":5.41882,"is_reserved":false,"is_disabled":false,"rental_uris":{"android":"levelo://app?vid=1afa64a6-783c-401a-a55f-5dd7ccc188d9","ios":"levelo://app?vid=1afa64a6-783c-401a-a55f-5dd7ccc188d9"},"vehicle_type_id":"4","last_reported":1753722861,"current_range_meters":12000,"station_id":"ce4bhop2rcd13ifvqh7g","pricing_plan_id":"cebpf4jnsgd1na2vs0mg"},{"bike_id":"9326b39b-2296-427d-bcf7-4086e3b12c47","system_id":"levelo_inurba_marseille","lat":43.2893,"lon":5.38379,"is_reserved":false,"is_disabled":false,"rental_uris":{"android":"levelo://app?vid=9326b39b-2296-427d-bcf7-4086e3b12c47","ios":"levelo://app?vid=9326b39b-2296-427d-bcf7-4086e3b12c47"},"vehicle_type_id":"4","last_reported":1753722861,"current_range_meters":12000,"station_id":"ce4bh612rcd13ifvqe6g","pricing_plan_id":"cebpf4jnsgd1na2vs0mg"},{"bike_id":"ba19fae0-44ee-437f-913a-8c915df8c368","system_id":"levelo_inurba_marseille","lat":43.28454,"lon":5.34941,"is_reserved":false,"is_disabled":false,"rental_uris":{"android":"levelo://app?vid=ba19fae0-44ee-437f-913a-8c915df8c368","ios":"levelo://app?vid=ba19fae0-44ee-437f-913a-8c915df8c368"},"vehicle_type_id":"4","last_reported":1753722861,"current_range_meters":12000,"station_id":"ce4bhbh2rcd13ifvqepg","pricing_plan_id":"cebpf4jnsgd1na2vs0mg"},{"bike_id":"0710cc23-964c-41f9-b259-8bd1211f7d6e","system_id":"levelo_inurba_marseille","lat":43.2863,"lon":5.35066,"is_reserved":false,"is_disabled":false,"rental_uris":{"android":"levelo://app?vid=0710cc23-964c-41f9-b259-8bd1211f7d6e","ios":"levelo://app?vid=0710cc23-964c-41f9-b259-8bd1211f7d6e"},"vehicle_type_id":"4","last_reported":1753722861,"current_range_meters":12400,"station_id":"ce4bhch2rcd13ifvqeug","pricing_plan_id":"cebpf4jnsgd1na2vs0mg"},{"bike_id":"8268e587-54e6-4c1b-a3e7-cafe71e710e1","system_id":"levelo_inurba_marseille","lat":43.29002,"lon":5.35604,"is_reserved":false,"is_disabled":false,"rental_uris":{"android":"levelo://app?vid=8268e587-54e6-4c1b-a3e7-cafe71e710e1","ios":"levelo://app?vid=8268e587-54e6-4c1b-a3e7-cafe71e710e1"},"vehicle_type_id":"4","last_reported":1753722861,"current_range_meters":12400,"station_id":"ce4bhb92rcd13ifvqen0","pricing_plan_id":"cebpf4jnsgd1na2vs0mg"},{"bike_id":"3d7bd2df-1620-4d2f-8a21-1ea51448f90e","system_id":"levelo_inurba_marseille","lat":43.28614,"lon":5.35111,"is_reserved":false,"is_disabled":false,"rental_uris":{"android":"levelo://app?vid=3d7bd2df-1620-4d2f-8a21-1ea51448f90e","ios":"levelo://app?vid=3d7bd2df-1620-4d2f-8a21-1ea51448f90e"},"vehicle_type_id":"4","last_reported":1753722861,"current_range_meters":12400,"station_id":"ce4bhch2rcd13ifvqeug","pricing_plan_id":"cebpf4jnsgd1na2vs0mg"},{"bike_id":"467035e7-1dac-427b-869f-c900d457faf0","system_id":"levelo_inurba_marseille","lat":43.292786,"lon":5.384325,"is_reserved":false,"is_disabled":false,"rental_uris":{"android":"levelo://app?vid=467035e7-1dac-427b-869f-c900d457faf0","ios":"levelo://app?vid=467035e7-1dac-427b-869f-c900d457faf0"},"vehicle_type_id":"4","last_reported":1753722861,"current_range_meters":12400,"station_id":"ce4bh692rcd13ifvqea0","pricing_plan_id":"cebpf4jnsgd1na2vs0mg"},{"bike_id":"95dd70e4-879c-49e7-b318-a6c71b22a43e","system_id":"levelo_inurba_marseille","lat":43.2703,"lon":5.39295,"is_reserved":false,"is_disabled":false,"rental_uris":{"android":"levelo://app?vid=95dd70e4-879c-49e7-b318-a6c71b22a43e","ios":"levelo://app?vid=95dd70e4-879c-49e7-b318-a6c71b22a43e"},"vehicle_type_id":"4","last_reported":1753722861,"current_range_meters":12400,"station_id":"","pricing_plan_id":"cebpf4jnsgd1na2vs0mg"},{"bike_id":"65e3db07-f188-422b-b687-3d06cfe2bcf8","system_id":"levelo_inurba_marseille","lat":43.28061,"lon":5.34964,"is_reserved":false,"is_disabled":false,"rental_uris":{"android":"levelo://app?vid=65e3db07-f188-422b-b687-3d06cfe2bcf8","ios":"levelo://app?vid=65e3db07-f188-422b-b687-3d06cfe2bcf8"},"vehicle_type_id":"4","last_reported":1753722861,"current_range_meters":12400,"station_id":"","pricing_plan_id":"cebpf4jnsgd1na2vs0mg"},{"bike_id":"84036e62-78c0-42e9-a5c2-ad3d3703bc8c","system_id":"levelo_inurba_marseille","lat":43.27961,"lon":5.41043,"is_reserved":false,"is_disabled":true,"rental_uris":{"android":"levelo://app?vid=84036e62-78c0-42e9-a5c2-ad3d3703bc8c","ios":"levelo://app?vid=84036e62-78c0-42e9-a5c2-ad3d3703bc8c"},"vehicle_type_id":"4","last_reported":1753722861,"current_range_meters":12400,"station_id":"ce4bhnp2rcd13ifvqh0g","pricing_plan_id":"cebpf4jnsgd1na2vs0mg"},{"bike_id":"da8a121b-dd93-4a31-8254-38a795a66238","system_id":"levelo_inurba_marseille","lat":43.240828,"lon":5.377624,"is_reserved":false,"is_disabled":false,"rental_uris":{"android":"levelo://app?vid=da8a121b-dd93-4a31-8254-38a795a66238","ios":"levelo://app?vid=da8a121b-dd93-4a31-8254-38a795a66238"},"vehicle_type_id":"4","last_reported":1753722861,"current_range_meters":12400,"station_id":"ce4bhnp2rcd13ifvqgvg","pricing_plan_id":"cebpf4jnsgd1na2vs0mg"},{"bike_id":"149fbe11-3bce-47a0-b584-c7c7bd6bb12f","system_id":"levelo_inurba_marseille","lat":43.21639,"lon":5.34447,"is_reserved":false,"is_disabled":false,"rental_uris":{"android":"levelo://app?vid=149fbe11-3bce-47a0-b584-c7c7bd6bb12f","ios":"levelo://app?vid=149fbe11-3bce-47a0-b584-c7c7bd6bb12f"},"vehicle_type_id":"4","last_reported":1753722861,"current_range_meters":12400,"station_id":"","pricing_plan_id":"cebpf4jnsgd1na2vs0mg"},{"bike_id":"209c73e6-1f69-4d13-9fed-77cb46eecd05","system_id":"levelo_inurba_marseille","lat":43.34681,"lon":5.38065,"is_reserved":false,"is_disabled":false,"rental_uris":{"android":"levelo://app?vid=209c73e6-1f69-4d13-9fed-77cb46eecd05","ios":"levelo://app?vid=209c73e6-1f69-4d13-9fed-77cb46eecd05"},"vehicle_type_id":"4","last_reported":1753722861,"current_range_meters":12400,"station_id":"","pricing_plan_id":"cebpf4jnsgd1na2vs0mg"},{"bike_id":"b32e4a97-98a7-4d64-aa73-661bc7713789","system_id":"levelo_inurba_marseille","lat":43.27205,"lon":5.39186,"is_reserved":false,"is_disabled":false,"rental_uris":{"android":"levelo://app?vid=b32e4a97-98a7-4d64-aa73-661bc7713789","ios":"levelo://app?vid=b32e4a97-98a7-4d64-aa73-661bc7713789"},"vehicle_type_id":"4","last_reported":1753722861,"current_range_meters":12400,"station_id":"ce4bhhp2rcd13ifvqfm0","pricing_plan_id":"cebpf4jnsgd1na2vs0mg"},{"bike_id":"7f93c725-9db7-4ef6-98c4-7489e9db680f","system_id":"levelo_inurba_marseille","lat":43.28158,"lon":5.42644,"is_reserved":false,"is_disabled":false,"rental_uris":{"android":"levelo://app?vid=7f93c725-9db7-4ef6-98c4-7489e9db680f","ios":"levelo://app?vid=7f93c725-9db7-4ef6-98c4-7489e9db680f"},"vehicle_type_id":"4","last_reported":1753722861,"current_range_meters":12400,"station_id":"ce4bhnh2rcd13ifvqgug","pricing_plan_id":"cebpf4jnsgd1na2vs0mg"},{"bike_id":"465af1c6-94fa-401b-ad2c-153493985e44","system_id":"levelo_inurba_marseille","lat":43.31655,"lon":5.3776,"is_reserved":false,"is_disabled":false,"rental_uris":{"android":"levelo://app?vid=465af1c6-94fa-401b-ad2c-153493985e44","ios":"levelo://app?vid=465af1c6-94fa-401b-ad2c-153493985e44"},"vehicle_type_id":"4","last_reported":1753722861,"current_range_meters":12400,"station_id":"","pricing_plan_id":"cebpf4jnsgd1na2vs0mg"},{"bike_id":"d5d3f250-6969-45ec-83ba-0628405c993c","system_id":"levelo_inurba_marseille","lat":43.29268,"lon":5.38448,"is_reserved":false,"is_disabled":false,"rental_uris":{"android":"levelo://app?vid=d5d3f250-6969-45ec-83ba-0628405c993c","ios":"levelo://app?vid=d5d3f250-6969-45ec-83ba-0628405c993c"},"vehicle_type_id":"4","last_reported":1753722861,"current_range_meters":12800,"station_id":"ce4bh692rcd13ifvqea0","pricing_plan_id":"cebpf4jnsgd1na2vs0mg"},{"bike_id":"8156ba1c-79d1-400d-96a0-33669bb7caeb","system_id":"levelo_inurba_marseille","lat":43.325919,"lon":5.411442,"is_reserved":false,"is_disabled":false,"rental_uris":{"android":"levelo://app?vid=8156ba1c-79d1-400d-96a0-33669bb7caeb","ios":"levelo://app?vid=8156ba1c-79d1-400d-96a0-33669bb7caeb"},"vehicle_type_id":"4","last_reported":1753722861,"current_range_meters":12800,"station_id":"","pricing_plan_id":"cebpf4jnsgd1na2vs0mg"},{"bike_id":"0d079687-545f-4bf6-8076-1fab5fa9e33c","system_id":"levelo_inurba_marseille","lat":43.26213,"lon":5.3743,"is_reserved":false,"is_disabled":false,"rental_uris":{"android":"levelo://app?vid=0d079687-545f-4bf6-8076-1fab5fa9e33c","ios":"levelo://app?vid=0d079687-545f-4bf6-8076-1fab5fa9e33c"},"vehicle_type_id":"4","last_reported":1753722861,"current_range_meters":13600,"station_id":"ce4bhgp2rcd13ifvqfc0","pricing_plan_id":"cebpf4jnsgd1na2vs0mg"},{"bike_id":"5d0fd1ed-65ac-43fe-b306-8a95e6dfbc61","system_id":"levelo_inurba_marseille","lat":43.29169,"lon":5.37157,"is_reserved":false,"is_disabled":false,"rental_uris":{"android":"levelo://app?vid=5d0fd1ed-65ac-43fe-b306-8a95e6dfbc61","ios":"levelo://app?vid=5d0fd1ed-65ac-43fe-b306-8a95e6dfbc61"},"vehicle_type_id":"4","last_reported":1753722861,"current_range_meters":12800,"station_id":"ce4bha92rcd13ifvqeh0","pricing_plan_id":"cebpf4jnsgd1na2vs0mg"},{"bike_id":"42f24541-8918-4024-9033-759f275a7153","system_id":"levelo_inurba_marseille","lat":43.270447,"lon":5.402761,"is_reserved":false,"is_disabled":false,"rental_uris":{"android":"levelo://app?vid=42f24541-8918-4024-9033-759f275a7153","ios":"levelo://app?vid=42f24541-8918-4024-9033-759f275a7153"},"vehicle_type_id":"4","last_reported":1753722861,"current_range_meters":13600,"station_id":"ce4bhk92rcd13ifvqgc0","pricing_plan_id":"cebpf4jnsgd1na2vs0mg"},{"bike_id":"0849e39f-64f7-43b3-bee6-f94eb2ca799e","system_id":"levelo_inurba_marseille","lat":43.26687,"lon":5.3826,"is_reserved":false,"is_disabled":false,"rental_uris":{"android":"levelo://app?vid=0849e39f-64f7-43b3-bee6-f94eb2ca799e","ios":"levelo://app?vid=0849e39f-64f7-43b3-bee6-f94eb2ca799e"},"vehicle_type_id":"4","last_reported":1753722861,"current_range_meters":13600,"station_id":"ce4bhg92rcd13ifvqf90","pricing_plan_id":"cebpf4jnsgd1na2vs0mg"},{"bike_id":"0163e725-e87b-433e-bf22-32350e4363bd","system_id":"levelo_inurba_marseille","lat":43.28568,"lon":5.39498,"is_reserved":false,"is_disabled":false,"rental_uris":{"android":"levelo://app?vid=0163e725-e87b-433e-bf22-32350e4363bd","ios":"levelo://app?vid=0163e725-e87b-433e-bf22-32350e4363bd"},"vehicle_type_id":"4","last_reported":1753722861,"current_range_meters":16000,"station_id":"ce4bh292rcd13ifvqdg0","pricing_plan_id":"cebpf4jnsgd1na2vs0mg"},{"bike_id":"947cf9dd-0905-42a3-aafb-8e1c05b7ea7a","system_id":"levelo_inurba_marseille","lat":43.30817,"lon":5.38216,"is_reserved":false,"is_disabled":false,"rental_uris":{"android":"levelo://app?vid=947cf9dd-0905-42a3-aafb-8e1c05b7ea7a","ios":"levelo://app?vid=947cf9dd-0905-42a3-aafb-8e1c05b7ea7a"},"vehicle_type_id":"4","last_reported":1753722861,"current_range_meters":13600,"station_id":"","pricing_plan_id":"cebpf4jnsgd1na2vs0mg"},{"bike_id":"28736e27-6840-4c31-9fa5-568c669a7e02","system_id":"levelo_inurba_marseille","lat":43.26213,"lon":5.37443,"is_reserved":false,"is_disabled":false,"rental_uris":{"android":"levelo://app?vid=28736e27-6840-4c31-9fa5-568c669a7e02","ios":"levelo://app?vid=28736e27-6840-4c31-9fa5-568c669a7e02"},"vehicle_type_id":"4","last_reported":1753722861,"current_range_meters":13600,"station_id":"ce4bhgp2rcd13ifvqfc0","pricing_plan_id":"cebpf4jnsgd1na2vs0mg"},{"bike_id":"65bb749b-e8d8-47a7-b090-32851f9b7edd","system_id":"levelo_inurba_marseille","lat":43.28274,"lon":5.35062,"is_reserved":false,"is_disabled":true,"rental_uris":{"android":"levelo://app?vid=65bb749b-e8d8-47a7-b090-32851f9b7edd","ios":"levelo://app?vid=65bb749b-e8d8-47a7-b090-32851f9b7edd"},"vehicle_type_id":"4","last_reported":1753722861,"current_range_meters":13600,"station_id":"ce4bhbp2rcd13ifvqerg","pricing_plan_id":"cebpf4jnsgd1na2vs0mg"},{"bike_id":"7919220b-5510-4290-b1dc-24cbd0ac023c","system_id":"levelo_inurba_marseille","lat":43.27381,"lon":5.36262,"is_reserved":false,"is_disabled":false,"rental_uris":{"android":"levelo://app?vid=7919220b-5510-4290-b1dc-24cbd0ac023c","ios":"levelo://app?vid=7919220b-5510-4290-b1dc-24cbd0ac023c"},"vehicle_type_id":"4","last_reported":1753722861,"current_range_meters":13600,"station_id":"ce4bhbh2rcd13ifvqeo0","pricing_plan_id":"cebpf4jnsgd1na2vs0mg"},{"bike_id":"bed4177f-73e6-4e33-b266-a1eb095f3a64","system_id":"levelo_inurba_marseille","lat":43.29264,"lon":5.40903,"is_reserved":false,"is_disabled":false,"rental_uris":{"android":"levelo://app?vid=bed4177f-73e6-4e33-b266-a1eb095f3a64","ios":"levelo://app?vid=bed4177f-73e6-4e33-b266-a1eb095f3a64"},"vehicle_type_id":"4","last_reported":1753722861,"current_range_meters":14000,"station_id":"ce4bh192rcd13ifvqdc0","pricing_plan_id":"cebpf4jnsgd1na2vs0mg"},{"bike_id":"4a323fe4-d81d-4395-be8e-91b296fd7b22","system_id":"levelo_inurba_marseille","lat":43.2928,"lon":5.36845,"is_reserved":false,"is_disabled":false,"rental_uris":{"android":"levelo://app?vid=4a323fe4-d81d-4395-be8e-91b296fd7b22","ios":"levelo://app?vid=4a323fe4-d81d-4395-be8e-91b296fd7b22"},"vehicle_type_id":"4","last_reported":1753722861,"current_range_meters":14000,"station_id":"ce4bhbp2rcd13ifvqesg","pricing_plan_id":"cebpf4jnsgd1na2vs0mg"},{"bike_id":"655c52db-a601-48df-b0bc-96a62f6ac9a0","system_id":"levelo_inurba_marseille","lat":43.30377,"lon":5.42476,"is_reserved":false,"is_disabled":false,"rental_uris":{"android":"levelo://app?vid=655c52db-a601-48df-b0bc-96a62f6ac9a0","ios":"levelo://app?vid=655c52db-a601-48df-b0bc-96a62f6ac9a0"},"vehicle_type_id":"4","last_reported":1753722861,"current_range_meters":14000,"station_id":"ce4bhoh2rcd13ifvqh6g","pricing_plan_id":"cebpf4jnsgd1na2vs0mg"},{"bike_id":"3dd2b2f9-64bc-4f1c-ad06-386f2ab19894","system_id":"levelo_inurba_marseille","lat":43.29758,"lon":5.36435,"is_reserved":false,"is_disabled":false,"rental_uris":{"android":"levelo://app?vid=3dd2b2f9-64bc-4f1c-ad06-386f2ab19894","ios":"levelo://app?vid=3dd2b2f9-64bc-4f1c-ad06-386f2ab19894"},"vehicle_type_id":"4","last_reported":1753722861,"current_range_meters":14000,"station_id":"","pricing_plan_id":"cebpf4jnsgd1na2vs0mg"},{"bike_id":"5cfa9a70-5180-4f41-9f58-6d4b84558c0b","system_id":"levelo_inurba_marseille","lat":43.27072,"lon":5.42279,"is_reserved":false,"is_disabled":false,"rental_uris":{"android":"levelo://app?vid=5cfa9a70-5180-4f41-9f58-6d4b84558c0b","ios":"levelo://app?vid=5cfa9a70-5180-4f41-9f58-6d4b84558c0b"},"vehicle_type_id":"4","last_reported":1753722861,"current_range_meters":14000,"station_id":"ce4bhk92rcd13ifvqgb0","pricing_plan_id":"cebpf4jnsgd1na2vs0mg"},{"bike_id":"c5d6c16c-667e-4c61-9e09-b5efae6e86bc","system_id":"levelo_inurba_marseille","lat":43.29902,"lon":5.43655,"is_reserved":false,"is_disabled":false,"rental_uris":{"android":"levelo://app?vid=c5d6c16c-667e-4c61-9e09-b5efae6e86bc","ios":"levelo://app?vid=c5d6c16c-667e-4c61-9e09-b5efae6e86bc"},"vehicle_type_id":"4","last_reported":1753722861,"current_range_meters":14000,"station_id":"ce4bhpp2rcd13ifvqhfg","pricing_plan_id":"cebpf4jnsgd1na2vs0mg"},{"bike_id":"3c20c1fa-c0bc-4bd7-bc1c-1b85a334e424","system_id":"levelo_inurba_marseille","lat":43.337444,"lon":5.374475,"is_reserved":false,"is_disabled":false,"rental_uris":{"android":"levelo://app?vid=3c20c1fa-c0bc-4bd7-bc1c-1b85a334e424","ios":"levelo://app?vid=3c20c1fa-c0bc-4bd7-bc1c-1b85a334e424"},"vehicle_type_id":"4","last_reported":1753722861,"current_range_meters":14400,"station_id":"ce4bgkp2rcd13ifvqbmg","pricing_plan_id":"cebpf4jnsgd1na2vs0mg"},{"bike_id":"838985dc-6a56-4eb0-9ea8-88f116604154","system_id":"levelo_inurba_marseille","lat":43.29784,"lon":5.39352,"is_reserved":false,"is_disabled":false,"rental_uris":{"android":"levelo://app?vid=838985dc-6a56-4eb0-9ea8-88f116604154","ios":"levelo://app?vid=838985dc-6a56-4eb0-9ea8-88f116604154"},"vehicle_type_id":"4","last_reported":1753722861,"current_range_meters":14400,"station_id":"chh1huq6cuj3fo74tm60","pricing_plan_id":"cebpf4jnsgd1na2vs0mg"},{"bike_id":"21a87529-f2ad-45ab-b163-0622f72f8a7f","system_id":"levelo_inurba_marseille","lat":43.302824,"lon":5.377146,"is_reserved":false,"is_disabled":false,"rental_uris":{"android":"levelo://app?vid=21a87529-f2ad-45ab-b163-0622f72f8a7f","ios":"levelo://app?vid=21a87529-f2ad-45ab-b163-0622f72f8a7f"},"vehicle_type_id":"4","last_reported":1753722861,"current_range_meters":14400,"station_id":"ce4bguh2rcd13ifvqcj0","pricing_plan_id":"cebpf4jnsgd1na2vs0mg"},{"bike_id":"aafba76e-3da3-4ebb-9332-0bac111897c0","system_id":"levelo_inurba_marseille","lat":43.22911,"lon":5.35414,"is_reserved":false,"is_disabled":false,"rental_uris":{"android":"levelo://app?vid=aafba76e-3da3-4ebb-9332-0bac111897c0","ios":"levelo://app?vid=aafba76e-3da3-4ebb-9332-0bac111897c0"},"vehicle_type_id":"4","last_reported":1753722861,"current_range_meters":14400,"station_id":"cpo3532slgdg3j2ikp40","pricing_plan_id":"cebpf4jnsgd1na2vs0mg"},{"bike_id":"3f496ed7-9a33-4d4a-8a33-a653e8bae2fd","system_id":"levelo_inurba_marseille","lat":43.3233,"lon":5.40618,"is_reserved":false,"is_disabled":false,"rental_uris":{"android":"levelo://app?vid=3f496ed7-9a33-4d4a-8a33-a653e8bae2fd","ios":"levelo://app?vid=3f496ed7-9a33-4d4a-8a33-a653e8bae2fd"},"vehicle_type_id":"4","last_reported":1753722861,"current_range_meters":14400,"station_id":"ce4bhq92rcd13ifvqhjg","pricing_plan_id":"cebpf4jnsgd1na2vs0mg"},{"bike_id":"ffd75bf6-1317-4e0a-8464-9cd529be310d","system_id":"levelo_inurba_marseille","lat":43.29796,"lon":5.38086,"is_reserved":false,"is_disabled":false,"rental_uris":{"android":"levelo://app?vid=ffd75bf6-1317-4e0a-8464-9cd529be310d","ios":"levelo://app?vid=ffd75bf6-1317-4e0a-8464-9cd529be310d"},"vehicle_type_id":"4","last_reported":1753722861,"current_range_meters":14800,"station_id":"ce4bgip2rcd13ifvqbb0","pricing_plan_id":"cebpf4jnsgd1na2vs0mg"},{"bike_id":"c13ce413-660f-4ff8-9547-d17d0704485e","system_id":"levelo_inurba_marseille","lat":43.21202,"lon":5.35039,"is_reserved":false,"is_disabled":false,"rental_uris":{"android":"levelo://app?vid=c13ce413-660f-4ff8-9547-d17d0704485e","ios":"levelo://app?vid=c13ce413-660f-4ff8-9547-d17d0704485e"},"vehicle_type_id":"4","last_reported":1753722861,"current_range_meters":14800,"station_id":"","pricing_plan_id":"cebpf4jnsgd1na2vs0mg"},{"bike_id":"a9825f87-f223-4367-b468-ecf662eae7ce","system_id":"levelo_inurba_marseille","lat":43.29197,"lon":5.35785,"is_reserved":false,"is_disabled":false,"rental_uris":{"android":"levelo://app?vid=a9825f87-f223-4367-b468-ecf662eae7ce","ios":"levelo://app?vid=a9825f87-f223-4367-b468-ecf662eae7ce"},"vehicle_type_id":"4","last_reported":1753722861,"current_range_meters":14800,"station_id":"ce4bhb12rcd13ifvqel0","pricing_plan_id":"cebpf4jnsgd1na2vs0mg"},{"bike_id":"7c66eea4-643d-4a5f-9908-675aeb7a5384","system_id":"levelo_inurba_marseille","lat":43.27504,"lon":5.4245,"is_reserved":false,"is_disabled":false,"rental_uris":{"android":"levelo://app?vid=7c66eea4-643d-4a5f-9908-675aeb7a5384","ios":"levelo://app?vid=7c66eea4-643d-4a5f-9908-675aeb7a5384"},"vehicle_type_id":"4","last_reported":1753722861,"current_range_meters":14800,"station_id":"ce4bhn92rcd13ifvqgrg","pricing_plan_id":"cebpf4jnsgd1na2vs0mg"},{"bike_id":"d4b0442d-37e3-4887-8827-87b59f4e9086","system_id":"levelo_inurba_marseille","lat":43.2977,"lon":5.38108,"is_reserved":false,"is_disabled":false,"rental_uris":{"android":"levelo://app?vid=d4b0442d-37e3-4887-8827-87b59f4e9086","ios":"levelo://app?vid=d4b0442d-37e3-4887-8827-87b59f4e9086"},"vehicle_type_id":"4","last_reported":1753722861,"current_range_meters":14800,"station_id":"","pricing_plan_id":"cebpf4jnsgd1na2vs0mg"},{"bike_id":"a0757552-cef1-4156-a44e-da8e0ad06a62","system_id":"levelo_inurba_marseille","lat":43.22931,"lon":5.35375,"is_reserved":false,"is_disabled":false,"rental_uris":{"android":"levelo://app?vid=a0757552-cef1-4156-a44e-da8e0ad06a62","ios":"levelo://app?vid=a0757552-cef1-4156-a44e-da8e0ad06a62"},"vehicle_type_id":"4","last_reported":1753722861,"current_range_meters":14800,"station_id":"","pricing_plan_id":"cebpf4jnsgd1na2vs0mg"},{"bike_id":"a3eb0c67-bf8e-421b-be4d-cc6637a703a4","system_id":"levelo_inurba_marseille","lat":43.28261,"lon":5.35058,"is_reserved":false,"is_disabled":false,"rental_uris":{"android":"levelo://app?vid=a3eb0c67-bf8e-421b-be4d-cc6637a703a4","ios":"levelo://app?vid=a3eb0c67-bf8e-421b-be4d-cc6637a703a4"},"vehicle_type_id":"4","last_reported":1753722861,"current_range_meters":16400,"station_id":"ce4bhbp2rcd13ifvqerg","pricing_plan_id":"cebpf4jnsgd1na2vs0mg"},{"bike_id":"9cbe306a-82c5-452b-9389-03a73f115693","system_id":"levelo_inurba_marseille","lat":43.29269,"lon":5.36844,"is_reserved":false,"is_disabled":false,"rental_uris":{"android":"levelo://app?vid=9cbe306a-82c5-452b-9389-03a73f115693","ios":"levelo://app?vid=9cbe306a-82c5-452b-9389-03a73f115693"},"vehicle_type_id":"4","last_reported":1753722861,"current_range_meters":14800,"station_id":"ce4bhbp2rcd13ifvqesg","pricing_plan_id":"cebpf4jnsgd1na2vs0mg"},{"bike_id":"92fb6ac0-23dc-47f9-9358-bdcac2abbaaa","system_id":"levelo_inurba_marseille","lat":43.29529,"lon":5.38542,"is_reserved":false,"is_disabled":false,"rental_uris":{"android":"levelo://app?vid=92fb6ac0-23dc-47f9-9358-bdcac2abbaaa","ios":"levelo://app?vid=92fb6ac0-23dc-47f9-9358-bdcac2abbaaa"},"vehicle_type_id":"4","last_reported":1753722861,"current_range_meters":14800,"station_id":"ce4bgih2rcd13ifvqba0","pricing_plan_id":"cebpf4jnsgd1na2vs0mg"},{"bike_id":"e0ce0053-71c4-4b07-8b9e-379e7ce2bf22","system_id":"levelo_inurba_marseille","lat":43.30289,"lon":5.3979,"is_reserved":false,"is_disabled":false,"rental_uris":{"android":"levelo://app?vid=e0ce0053-71c4-4b07-8b9e-379e7ce2bf22","ios":"levelo://app?vid=e0ce0053-71c4-4b07-8b9e-379e7ce2bf22"},"vehicle_type_id":"4","last_reported":1753722861,"current_range_meters":14800,"station_id":"","pricing_plan_id":"cebpf4jnsgd1na2vs0mg"},{"bike_id":"2a3a9f20-00d1-4c95-a093-ba8e28724bc0","system_id":"levelo_inurba_marseille","lat":43.30654,"lon":5.37561,"is_reserved":false,"is_disabled":false,"rental_uris":{"android":"levelo://app?vid=2a3a9f20-00d1-4c95-a093-ba8e28724bc0","ios":"levelo://app?vid=2a3a9f20-00d1-4c95-a093-ba8e28724bc0"},"vehicle_type_id":"4","last_reported":1753722861,"current_range_meters":14800,"station_id":"","pricing_plan_id":"cebpf4jnsgd1na2vs0mg"},{"bike_id":"c1ed0047-371a-402e-a73a-0992f7f3ab1a","system_id":"levelo_inurba_marseille","lat":43.27186,"lon":5.40989,"is_reserved":false,"is_disabled":true,"rental_uris":{"android":"levelo://app?vid=c1ed0047-371a-402e-a73a-0992f7f3ab1a","ios":"levelo://app?vid=c1ed0047-371a-402e-a73a-0992f7f3ab1a"},"vehicle_type_id":"4","last_reported":1753722861,"current_range_meters":15200,"station_id":"ce4bhl12rcd13ifvqgf0","pricing_plan_id":"cebpf4jnsgd1na2vs0mg"},{"bike_id":"85de8f3a-eb08-4071-a84d-042b756d8844","system_id":"levelo_inurba_marseille","lat":43.23963,"lon":5.36631,"is_reserved":false,"is_disabled":false,"rental_uris":{"android":"levelo://app?vid=85de8f3a-eb08-4071-a84d-042b756d8844","ios":"levelo://app?vid=85de8f3a-eb08-4071-a84d-042b756d8844"},"vehicle_type_id":"4","last_reported":1753722861,"current_range_meters":15200,"station_id":"ce4bhi12rcd13ifvqfp0","pricing_plan_id":"cebpf4jnsgd1na2vs0mg"},{"bike_id":"f297ecb0-f504-4ce2-a698-235b8f25b26b","system_id":"levelo_inurba_marseille","lat":43.24184,"lon":5.36379,"is_reserved":false,"is_disabled":false,"rental_uris":{"android":"levelo://app?vid=f297ecb0-f504-4ce2-a698-235b8f25b26b","ios":"levelo://app?vid=f297ecb0-f504-4ce2-a698-235b8f25b26b"},"vehicle_type_id":"4","last_reported":1753722861,"current_range_meters":15200,"station_id":"cpo36qri1sfpv3e86is0","pricing_plan_id":"cebpf4jnsgd1na2vs0mg"},{"bike_id":"498df437-4eec-487f-b5c4-06eb641475ac","system_id":"levelo_inurba_marseille","lat":43.225229,"lon":5.348152,"is_reserved":false,"is_disabled":false,"rental_uris":{"android":"levelo://app?vid=498df437-4eec-487f-b5c4-06eb641475ac","ios":"levelo://app?vid=498df437-4eec-487f-b5c4-06eb641475ac"},"vehicle_type_id":"4","last_reported":1753722861,"current_range_meters":15200,"station_id":"","pricing_plan_id":"cebpf4jnsgd1na2vs0mg"},{"bike_id":"e7617bc0-74fa-40f3-a441-f1afd1e0c74f","system_id":"levelo_inurba_marseille","lat":43.29227,"lon":5.3606,"is_reserved":false,"is_disabled":false,"rental_uris":{"android":"levelo://app?vid=e7617bc0-74fa-40f3-a441-f1afd1e0c74f","ios":"levelo://app?vid=e7617bc0-74fa-40f3-a441-f1afd1e0c74f"},"vehicle_type_id":"4","last_reported":1753722861,"current_range_meters":16000,"station_id":"ce4bhbh2rcd13ifvqeqg","pricing_plan_id":"cebpf4jnsgd1na2vs0mg"},{"bike_id":"9fb0def9-5c33-418e-accc-06ff7103c0b2","system_id":"levelo_inurba_marseille","lat":43.29966,"lon":5.38493,"is_reserved":false,"is_disabled":false,"rental_uris":{"android":"levelo://app?vid=9fb0def9-5c33-418e-accc-06ff7103c0b2","ios":"levelo://app?vid=9fb0def9-5c33-418e-accc-06ff7103c0b2"},"vehicle_type_id":"4","last_reported":1753722861,"current_range_meters":16000,"station_id":"ce4bgj92rcd13ifvqbd0","pricing_plan_id":"cebpf4jnsgd1na2vs0mg"},{"bike_id":"ccec7795-7ab9-47d1-9865-68ee4ff65336","system_id":"levelo_inurba_marseille","lat":43.299145,"lon":5.380864,"is_reserved":false,"is_disabled":false,"rental_uris":{"android":"levelo://app?vid=ccec7795-7ab9-47d1-9865-68ee4ff65336","ios":"levelo://app?vid=ccec7795-7ab9-47d1-9865-68ee4ff65336"},"vehicle_type_id":"4","last_reported":1753722861,"current_range_meters":16000,"station_id":"","pricing_plan_id":"cebpf4jnsgd1na2vs0mg"},{"bike_id":"50214110-0893-497b-8a40-8b9bcb344c06","system_id":"levelo_inurba_marseille","lat":43.284085,"lon":5.349752,"is_reserved":false,"is_disabled":false,"rental_uris":{"android":"levelo://app?vid=50214110-0893-497b-8a40-8b9bcb344c06","ios":"levelo://app?vid=50214110-0893-497b-8a40-8b9bcb344c06"},"vehicle_type_id":"4","last_reported":1753722861,"current_range_meters":16000,"station_id":"ce4bhbh2rcd13ifvqepg","pricing_plan_id":"cebpf4jnsgd1na2vs0mg"},{"bike_id":"5b3d4ee4-506a-460b-9c0a-db2e82e24bb2","system_id":"levelo_inurba_marseille","lat":43.28408,"lon":5.34979,"is_reserved":false,"is_disabled":false,"rental_uris":{"android":"levelo://app?vid=5b3d4ee4-506a-460b-9c0a-db2e82e24bb2","ios":"levelo://app?vid=5b3d4ee4-506a-460b-9c0a-db2e82e24bb2"},"vehicle_type_id":"4","last_reported":1753722861,"current_range_meters":16000,"station_id":"ce4bhbh2rcd13ifvqepg","pricing_plan_id":"cebpf4jnsgd1na2vs0mg"},{"bike_id":"693a70ab-176a-45d8-b8b4-8f2d86af35af","system_id":"levelo_inurba_marseille","lat":43.29869,"lon":5.3974,"is_reserved":false,"is_disabled":false,"rental_uris":{"android":"levelo://app?vid=693a70ab-176a-45d8-b8b4-8f2d86af35af","ios":"levelo://app?vid=693a70ab-176a-45d8-b8b4-8f2d86af35af"},"vehicle_type_id":"4","last_reported":1753722861,"current_range_meters":16000,"station_id":"ce4bh0h2rcd13ifvqd50","pricing_plan_id":"cebpf4jnsgd1na2vs0mg"},{"bike_id":"d83c4d0a-f4a7-4c3c-b198-f78a8d9102c3","system_id":"levelo_inurba_marseille","lat":43.24823,"lon":5.37453,"is_reserved":false,"is_disabled":false,"rental_uris":{"android":"levelo://app?vid=d83c4d0a-f4a7-4c3c-b198-f78a8d9102c3","ios":"levelo://app?vid=d83c4d0a-f4a7-4c3c-b198-f78a8d9102c3"},"vehicle_type_id":"4","last_reported":1753722861,"current_range_meters":16000,"station_id":"ce4bhgh2rcd13ifvqfb0","pricing_plan_id":"cebpf4jnsgd1na2vs0mg"},{"bike_id":"3c6d990b-d853-4774-9e68-ab11c54c28bf","system_id":"levelo_inurba_marseille","lat":43.28405,"lon":5.34982,"is_reserved":false,"is_disabled":false,"rental_uris":{"android":"levelo://app?vid=3c6d990b-d853-4774-9e68-ab11c54c28bf","ios":"levelo://app?vid=3c6d990b-d853-4774-9e68-ab11c54c28bf"},"vehicle_type_id":"4","last_reported":1753722861,"current_range_meters":16000,"station_id":"ce4bhbh2rcd13ifvqepg","pricing_plan_id":"cebpf4jnsgd1na2vs0mg"},{"bike_id":"32826f34-8228-4d4b-815c-cc490d99eb72","system_id":"levelo_inurba_marseille","lat":43.22515,"lon":5.34758,"is_reserved":false,"is_disabled":false,"rental_uris":{"android":"levelo://app?vid=32826f34-8228-4d4b-815c-cc490d99eb72","ios":"levelo://app?vid=32826f34-8228-4d4b-815c-cc490d99eb72"},"vehicle_type_id":"4","last_reported":1753722861,"current_range_meters":16000,"station_id":"st_cvj5dfep6f1abm77gieg","pricing_plan_id":"cebpf4jnsgd1na2vs0mg"},{"bike_id":"4341dd1d-0218-4eeb-9c7a-28ba97b9b88b","system_id":"levelo_inurba_marseille","lat":43.27375,"lon":5.36259,"is_reserved":false,"is_disabled":false,"rental_uris":{"android":"levelo://app?vid=4341dd1d-0218-4eeb-9c7a-28ba97b9b88b","ios":"levelo://app?vid=4341dd1d-0218-4eeb-9c7a-28ba97b9b88b"},"vehicle_type_id":"4","last_reported":1753722861,"current_range_meters":16000,"station_id":"ce4bhbh2rcd13ifvqeo0","pricing_plan_id":"cebpf4jnsgd1na2vs0mg"},{"bike_id":"07464603-29bb-4cdb-bce4-3bcd6be0fdab","system_id":"levelo_inurba_marseille","lat":43.26192,"lon":5.37445,"is_reserved":false,"is_disabled":false,"rental_uris":{"android":"levelo://app?vid=07464603-29bb-4cdb-bce4-3bcd6be0fdab","ios":"levelo://app?vid=07464603-29bb-4cdb-bce4-3bcd6be0fdab"},"vehicle_type_id":"4","last_reported":1753722861,"current_range_meters":16000,"station_id":"ce4bhgp2rcd13ifvqfc0","pricing_plan_id":"cebpf4jnsgd1na2vs0mg"},{"bike_id":"326e3f80-9d9e-4a28-82b8-7b240fccb8f5","system_id":"levelo_inurba_marseille","lat":43.288571,"lon":5.358642,"is_reserved":false,"is_disabled":false,"rental_uris":{"android":"levelo://app?vid=326e3f80-9d9e-4a28-82b8-7b240fccb8f5","ios":"levelo://app?vid=326e3f80-9d9e-4a28-82b8-7b240fccb8f5"},"vehicle_type_id":"4","last_reported":1753722861,"current_range_meters":16000,"station_id":"ce4bhb12rcd13ifvqem0","pricing_plan_id":"cebpf4jnsgd1na2vs0mg"},{"bike_id":"f6f0ccf7-231d-4312-b2ae-f70f6e745c52","system_id":"levelo_inurba_marseille","lat":43.30138,"lon":5.39855,"is_reserved":false,"is_disabled":false,"rental_uris":{"android":"levelo://app?vid=f6f0ccf7-231d-4312-b2ae-f70f6e745c52","ios":"levelo://app?vid=f6f0ccf7-231d-4312-b2ae-f70f6e745c52"},"vehicle_type_id":"4","last_reported":1753722861,"current_range_meters":10000,"station_id":"ce4bh0h2rcd13ifvqd40","pricing_plan_id":"cebpf4jnsgd1na2vs0mg"},{"bike_id":"b97ffecd-6455-4c53-ac00-08f3870ed1f7","system_id":"levelo_inurba_marseille","lat":43.30016,"lon":5.3764,"is_reserved":false,"is_disabled":false,"rental_uris":{"android":"levelo://app?vid=b97ffecd-6455-4c53-ac00-08f3870ed1f7","ios":"levelo://app?vid=b97ffecd-6455-4c53-ac00-08f3870ed1f7"},"vehicle_type_id":"4","last_reported":1753722861,"current_range_meters":16000,"station_id":"","pricing_plan_id":"cebpf4jnsgd1na2vs0mg"},{"bike_id":"b9e880f9-e66a-46b5-877c-27c21eb9b17f","system_id":"levelo_inurba_marseille","lat":43.24992,"lon":5.38931,"is_reserved":false,"is_disabled":false,"rental_uris":{"android":"levelo://app?vid=b9e880f9-e66a-46b5-877c-27c21eb9b17f","ios":"levelo://app?vid=b9e880f9-e66a-46b5-877c-27c21eb9b17f"},"vehicle_type_id":"4","last_reported":1753722861,"current_range_meters":16000,"station_id":"ce4bhgp2rcd13ifvqfd0","pricing_plan_id":"cebpf4jnsgd1na2vs0mg"},{"bike_id":"52fa2f88-6678-4b0d-bdeb-77d5e9331688","system_id":"levelo_inurba_marseille","lat":43.211979,"lon":5.350627,"is_reserved":false,"is_disabled":false,"rental_uris":{"android":"levelo://app?vid=52fa2f88-6678-4b0d-bdeb-77d5e9331688","ios":"levelo://app?vid=52fa2f88-6678-4b0d-bdeb-77d5e9331688"},"vehicle_type_id":"4","last_reported":1753722861,"current_range_meters":16000,"station_id":"st_cvj6sg6p6f1abm77japg","pricing_plan_id":"cebpf4jnsgd1na2vs0mg"},{"bike_id":"0938e41e-f961-425a-8c0f-36baf4215fb9","system_id":"levelo_inurba_marseille","lat":43.270705,"lon":5.422712,"is_reserved":false,"is_disabled":false,"rental_uris":{"android":"levelo://app?vid=0938e41e-f961-425a-8c0f-36baf4215fb9","ios":"levelo://app?vid=0938e41e-f961-425a-8c0f-36baf4215fb9"},"vehicle_type_id":"4","last_reported":1753722861,"current_range_meters":16000,"station_id":"ce4bhk92rcd13ifvqgb0","pricing_plan_id":"cebpf4jnsgd1na2vs0mg"},{"bike_id":"9686f525-d92b-446a-961a-9d6e6eac0c83","system_id":"levelo_inurba_marseille","lat":43.28263,"lon":5.35052,"is_reserved":false,"is_disabled":false,"rental_uris":{"android":"levelo://app?vid=9686f525-d92b-446a-961a-9d6e6eac0c83","ios":"levelo://app?vid=9686f525-d92b-446a-961a-9d6e6eac0c83"},"vehicle_type_id":"4","last_reported":1753722861,"current_range_meters":16400,"station_id":"ce4bhbp2rcd13ifvqerg","pricing_plan_id":"cebpf4jnsgd1na2vs0mg"},{"bike_id":"55dac1d2-1abd-469b-b7dd-fee973a46eac","system_id":"levelo_inurba_marseille","lat":43.28263,"lon":5.35061,"is_reserved":false,"is_disabled":false,"rental_uris":{"android":"levelo://app?vid=55dac1d2-1abd-469b-b7dd-fee973a46eac","ios":"levelo://app?vid=55dac1d2-1abd-469b-b7dd-fee973a46eac"},"vehicle_type_id":"4","last_reported":1753722861,"current_range_meters":16400,"station_id":"ce4bhbp2rcd13ifvqerg","pricing_plan_id":"cebpf4jnsgd1na2vs0mg"},{"bike_id":"1d599ca9-96fe-4939-8af9-7954ed58ad38","system_id":"levelo_inurba_marseille","lat":43.23537,"lon":5.36005,"is_reserved":false,"is_disabled":false,"rental_uris":{"android":"levelo://app?vid=1d599ca9-96fe-4939-8af9-7954ed58ad38","ios":"levelo://app?vid=1d599ca9-96fe-4939-8af9-7954ed58ad38"},"vehicle_type_id":"4","last_reported":1753722861,"current_range_meters":16400,"station_id":"","pricing_plan_id":"cebpf4jnsgd1na2vs0mg"},{"bike_id":"2d07a6b9-f352-4955-ab03-e2ed57fec1e7","system_id":"levelo_inurba_marseille","lat":43.28406,"lon":5.37507,"is_reserved":false,"is_disabled":false,"rental_uris":{"android":"levelo://app?vid=2d07a6b9-f352-4955-ab03-e2ed57fec1e7","ios":"levelo://app?vid=2d07a6b9-f352-4955-ab03-e2ed57fec1e7"},"vehicle_type_id":"4","last_reported":1753722861,"current_range_meters":16400,"station_id":"ce4bh412rcd13ifvqds0","pricing_plan_id":"cebpf4jnsgd1na2vs0mg"},{"bike_id":"92eedd8f-ff84-4ead-b647-4bf8b49947c8","system_id":"levelo_inurba_marseille","lat":43.30133,"lon":5.39863,"is_reserved":false,"is_disabled":false,"rental_uris":{"android":"levelo://app?vid=92eedd8f-ff84-4ead-b647-4bf8b49947c8","ios":"levelo://app?vid=92eedd8f-ff84-4ead-b647-4bf8b49947c8"},"vehicle_type_id":"4","last_reported":1753722861,"current_range_meters":16400,"station_id":"ce4bh0h2rcd13ifvqd40","pricing_plan_id":"cebpf4jnsgd1na2vs0mg"},{"bike_id":"40523d3c-3186-4c9d-bf57-cc5e90987418","system_id":"levelo_inurba_marseille","lat":43.24683,"lon":5.38098,"is_reserved":false,"is_disabled":false,"rental_uris":{"android":"levelo://app?vid=40523d3c-3186-4c9d-bf57-cc5e90987418","ios":"levelo://app?vid=40523d3c-3186-4c9d-bf57-cc5e90987418"},"vehicle_type_id":"4","last_reported":1753722861,"current_range_meters":16400,"station_id":"","pricing_plan_id":"cebpf4jnsgd1na2vs0mg"},{"bike_id":"b5f833f7-8b1d-4030-a357-2c3f52ee56e3","system_id":"levelo_inurba_marseille","lat":43.28259,"lon":5.35074,"is_reserved":false,"is_disabled":false,"rental_uris":{"android":"levelo://app?vid=b5f833f7-8b1d-4030-a357-2c3f52ee56e3","ios":"levelo://app?vid=b5f833f7-8b1d-4030-a357-2c3f52ee56e3"},"vehicle_type_id":"4","last_reported":1753722861,"current_range_meters":16400,"station_id":"ce4bhbp2rcd13ifvqerg","pricing_plan_id":"cebpf4jnsgd1na2vs0mg"},{"bike_id":"f935bdfe-ce07-40e9-9f05-f13806b2bee8","system_id":"levelo_inurba_marseille","lat":43.22507,"lon":5.34771,"is_reserved":false,"is_disabled":false,"rental_uris":{"android":"levelo://app?vid=f935bdfe-ce07-40e9-9f05-f13806b2bee8","ios":"levelo://app?vid=f935bdfe-ce07-40e9-9f05-f13806b2bee8"},"vehicle_type_id":"4","last_reported":1753722861,"current_range_meters":16400,"station_id":"st_cvj5dfep6f1abm77gieg","pricing_plan_id":"cebpf4jnsgd1na2vs0mg"},{"bike_id":"4f0d56f5-e54c-465b-a15e-32b747ab0912","system_id":"levelo_inurba_marseille","lat":43.31701,"lon":5.40453,"is_reserved":false,"is_disabled":true,"rental_uris":{"android":"levelo://app?vid=4f0d56f5-e54c-465b-a15e-32b747ab0912","ios":"levelo://app?vid=4f0d56f5-e54c-465b-a15e-32b747ab0912"},"vehicle_type_id":"4","last_reported":1753722861,"current_range_meters":16400,"station_id":"ce4bh012rcd13ifvqd00","pricing_plan_id":"cebpf4jnsgd1na2vs0mg"},{"bike_id":"287092c1-c34c-459c-b992-d1d8b48a539d","system_id":"levelo_inurba_marseille","lat":43.27905,"lon":5.38021,"is_reserved":false,"is_disabled":false,"rental_uris":{"android":"levelo://app?vid=287092c1-c34c-459c-b992-d1d8b48a539d","ios":"levelo://app?vid=287092c1-c34c-459c-b992-d1d8b48a539d"},"vehicle_type_id":"4","last_reported":1753722861,"current_range_meters":16400,"station_id":"ce4bhf92rcd13ifvqf50","pricing_plan_id":"cebpf4jnsgd1na2vs0mg"},{"bike_id":"4bfaa48f-84dd-4da8-8f81-81b4a794ffc8","system_id":"levelo_inurba_marseille","lat":43.24399,"lon":5.37102,"is_reserved":false,"is_disabled":false,"rental_uris":{"android":"levelo://app?vid=4bfaa48f-84dd-4da8-8f81-81b4a794ffc8","ios":"levelo://app?vid=4bfaa48f-84dd-4da8-8f81-81b4a794ffc8"},"vehicle_type_id":"4","last_reported":1753722861,"current_range_meters":16400,"station_id":"ce4bhhh2rcd13ifvqfk0","pricing_plan_id":"cebpf4jnsgd1na2vs0mg"},{"bike_id":"01a8e307-f9de-4eb5-a307-55559ca42c36","system_id":"levelo_inurba_marseille","lat":43.22507,"lon":5.34777,"is_reserved":false,"is_disabled":false,"rental_uris":{"android":"levelo://app?vid=01a8e307-f9de-4eb5-a307-55559ca42c36","ios":"levelo://app?vid=01a8e307-f9de-4eb5-a307-55559ca42c36"},"vehicle_type_id":"4","last_reported":1753722861,"current_range_meters":16400,"station_id":"st_cvj5dfep6f1abm77gieg","pricing_plan_id":"cebpf4jnsgd1na2vs0mg"},{"bike_id":"7d0bc366-7472-4dec-a2f3-a1ab117a465c","system_id":"levelo_inurba_marseille","lat":43.32293,"lon":5.38261,"is_reserved":false,"is_disabled":false,"rental_uris":{"android":"levelo://app?vid=7d0bc366-7472-4dec-a2f3-a1ab117a465c","ios":"levelo://app?vid=7d0bc366-7472-4dec-a2f3-a1ab117a465c"},"vehicle_type_id":"4","last_reported":1753722861,"current_range_meters":16400,"station_id":"ce4bhr12rcd13ifvqhqg","pricing_plan_id":"cebpf4jnsgd1na2vs0mg"},{"bike_id":"57a14804-707e-4743-8fdc-ee255b7e6e88","system_id":"levelo_inurba_marseille","lat":43.28618,"lon":5.35099,"is_reserved":false,"is_disabled":false,"rental_uris":{"android":"levelo://app?vid=57a14804-707e-4743-8fdc-ee255b7e6e88","ios":"levelo://app?vid=57a14804-707e-4743-8fdc-ee255b7e6e88"},"vehicle_type_id":"4","last_reported":1753722861,"current_range_meters":16800,"station_id":"ce4bhch2rcd13ifvqeug","pricing_plan_id":"cebpf4jnsgd1na2vs0mg"},{"bike_id":"63d8e8ef-8b89-4ad3-b3d3-78ae58e44a67","system_id":"levelo_inurba_marseille","lat":43.26505,"lon":5.39536,"is_reserved":false,"is_disabled":false,"rental_uris":{"android":"levelo://app?vid=63d8e8ef-8b89-4ad3-b3d3-78ae58e44a67","ios":"levelo://app?vid=63d8e8ef-8b89-4ad3-b3d3-78ae58e44a67"},"vehicle_type_id":"4","last_reported":1753722861,"current_range_meters":16800,"station_id":"ce4bhi12rcd13ifvqfq0","pricing_plan_id":"cebpf4jnsgd1na2vs0mg"},{"bike_id":"905576ef-66ce-426e-9600-566828c3b671","system_id":"levelo_inurba_marseille","lat":43.21757,"lon":5.34601,"is_reserved":false,"is_disabled":true,"rental_uris":{"android":"levelo://app?vid=905576ef-66ce-426e-9600-566828c3b671","ios":"levelo://app?vid=905576ef-66ce-426e-9600-566828c3b671"},"vehicle_type_id":"4","last_reported":1753722861,"current_range_meters":16800,"station_id":"","pricing_plan_id":"cebpf4jnsgd1na2vs0mg"},{"bike_id":"edc93c31-35c3-4bc5-aec7-fdf1428c4e79","system_id":"levelo_inurba_marseille","lat":43.26201,"lon":5.37433,"is_reserved":false,"is_disabled":false,"rental_uris":{"android":"levelo://app?vid=edc93c31-35c3-4bc5-aec7-fdf1428c4e79","ios":"levelo://app?vid=edc93c31-35c3-4bc5-aec7-fdf1428c4e79"},"vehicle_type_id":"4","last_reported":1753722861,"current_range_meters":16800,"station_id":"ce4bhgp2rcd13ifvqfc0","pricing_plan_id":"cebpf4jnsgd1na2vs0mg"},{"bike_id":"fe1e01f8-d4ce-40a3-9bef-dc35d4f0ebf5","system_id":"levelo_inurba_marseille","lat":43.28419,"lon":5.35001,"is_reserved":false,"is_disabled":true,"rental_uris":{"android":"levelo://app?vid=fe1e01f8-d4ce-40a3-9bef-dc35d4f0ebf5","ios":"levelo://app?vid=fe1e01f8-d4ce-40a3-9bef-dc35d4f0ebf5"},"vehicle_type_id":"4","last_reported":1753722861,"current_range_meters":16800,"station_id":"ce4bhbh2rcd13ifvqepg","pricing_plan_id":"cebpf4jnsgd1na2vs0mg"},{"bike_id":"57660ab6-3d1b-4853-80c2-36184411bd2a","system_id":"levelo_inurba_marseille","lat":43.28696,"lon":5.37391,"is_reserved":false,"is_disabled":false,"rental_uris":{"android":"levelo://app?vid=57660ab6-3d1b-4853-80c2-36184411bd2a","ios":"levelo://app?vid=57660ab6-3d1b-4853-80c2-36184411bd2a"},"vehicle_type_id":"4","last_reported":1753722861,"current_range_meters":16400,"station_id":"ce4bh3p2rcd13ifvqdq0","pricing_plan_id":"cebpf4jnsgd1na2vs0mg"},{"bike_id":"10d081c1-273e-4901-9c1f-64e9f8f6e8dc","system_id":"levelo_inurba_marseille","lat":43.29974,"lon":5.38486,"is_reserved":false,"is_disabled":false,"rental_uris":{"android":"levelo://app?vid=10d081c1-273e-4901-9c1f-64e9f8f6e8dc","ios":"levelo://app?vid=10d081c1-273e-4901-9c1f-64e9f8f6e8dc"},"vehicle_type_id":"4","last_reported":1753722861,"current_range_meters":16800,"station_id":"ce4bgj92rcd13ifvqbd0","pricing_plan_id":"cebpf4jnsgd1na2vs0mg"},{"bike_id":"06d24496-c448-4f38-9136-8a8bbeabd961","system_id":"levelo_inurba_marseille","lat":43.21193,"lon":5.35072,"is_reserved":false,"is_disabled":false,"rental_uris":{"android":"levelo://app?vid=06d24496-c448-4f38-9136-8a8bbeabd961","ios":"levelo://app?vid=06d24496-c448-4f38-9136-8a8bbeabd961"},"vehicle_type_id":"4","last_reported":1753722861,"current_range_meters":16800,"station_id":"st_cvj6sg6p6f1abm77japg","pricing_plan_id":"cebpf4jnsgd1na2vs0mg"},{"bike_id":"4733660e-e346-4df0-ba8b-fd680ad5d146","system_id":"levelo_inurba_marseille","lat":43.28155,"lon":5.42635,"is_reserved":false,"is_disabled":false,"rental_uris":{"android":"levelo://app?vid=4733660e-e346-4df0-ba8b-fd680ad5d146","ios":"levelo://app?vid=4733660e-e346-4df0-ba8b-fd680ad5d146"},"vehicle_type_id":"4","last_reported":1753722861,"current_range_meters":17200,"station_id":"ce4bhnh2rcd13ifvqgug","pricing_plan_id":"cebpf4jnsgd1na2vs0mg"},{"bike_id":"50ddb991-132a-407b-b3f1-2adbe5e9db55","system_id":"levelo_inurba_marseille","lat":43.30927,"lon":5.40141,"is_reserved":false,"is_disabled":true,"rental_uris":{"android":"levelo://app?vid=50ddb991-132a-407b-b3f1-2adbe5e9db55","ios":"levelo://app?vid=50ddb991-132a-407b-b3f1-2adbe5e9db55"},"vehicle_type_id":"4","last_reported":1753722861,"current_range_meters":17200,"station_id":"ce4bgvp2rcd13ifvqct0","pricing_plan_id":"cebpf4jnsgd1na2vs0mg"},{"bike_id":"4b5a8d21-eb49-493c-be2f-c5e28bb7ffd9","system_id":"levelo_inurba_marseille","lat":43.23965,"lon":5.36633,"is_reserved":false,"is_disabled":false,"rental_uris":{"android":"levelo://app?vid=4b5a8d21-eb49-493c-be2f-c5e28bb7ffd9","ios":"levelo://app?vid=4b5a8d21-eb49-493c-be2f-c5e28bb7ffd9"},"vehicle_type_id":"4","last_reported":1753722861,"current_range_meters":17200,"station_id":"ce4bhi12rcd13ifvqfp0","pricing_plan_id":"cebpf4jnsgd1na2vs0mg"},{"bike_id":"8f346c07-df4f-459b-ac59-d111eb9f0783","system_id":"levelo_inurba_marseille","lat":43.22505,"lon":5.34764,"is_reserved":false,"is_disabled":false,"rental_uris":{"android":"levelo://app?vid=8f346c07-df4f-459b-ac59-d111eb9f0783","ios":"levelo://app?vid=8f346c07-df4f-459b-ac59-d111eb9f0783"},"vehicle_type_id":"4","last_reported":1753722861,"current_range_meters":17200,"station_id":"st_cvj5dfep6f1abm77gieg","pricing_plan_id":"cebpf4jnsgd1na2vs0mg"},{"bike_id":"cb415283-aab8-478f-94d3-a442972e8283","system_id":"levelo_inurba_marseille","lat":43.30124,"lon":5.39843,"is_reserved":false,"is_disabled":false,"rental_uris":{"android":"levelo://app?vid=cb415283-aab8-478f-94d3-a442972e8283","ios":"levelo://app?vid=cb415283-aab8-478f-94d3-a442972e8283"},"vehicle_type_id":"4","last_reported":1753722861,"current_range_meters":17200,"station_id":"ce4bh0h2rcd13ifvqd40","pricing_plan_id":"cebpf4jnsgd1na2vs0mg"},{"bike_id":"c46968fa-077a-4342-806f-25aa2ff0d812","system_id":"levelo_inurba_marseille","lat":43.265286,"lon":5.395248,"is_reserved":false,"is_disabled":false,"rental_uris":{"android":"levelo://app?vid=c46968fa-077a-4342-806f-25aa2ff0d812","ios":"levelo://app?vid=c46968fa-077a-4342-806f-25aa2ff0d812"},"vehicle_type_id":"4","last_reported":1753722861,"current_range_meters":17200,"station_id":"ce4bhi12rcd13ifvqfq0","pricing_plan_id":"cebpf4jnsgd1na2vs0mg"},{"bike_id":"18d9d1bb-3481-4fe6-8e41-40913fa9f69c","system_id":"levelo_inurba_marseille","lat":43.24804,"lon":5.37472,"is_reserved":false,"is_disabled":false,"rental_uris":{"android":"levelo://app?vid=18d9d1bb-3481-4fe6-8e41-40913fa9f69c","ios":"levelo://app?vid=18d9d1bb-3481-4fe6-8e41-40913fa9f69c"},"vehicle_type_id":"4","last_reported":1753722861,"current_range_meters":17200,"station_id":"ce4bhgh2rcd13ifvqfb0","pricing_plan_id":"cebpf4jnsgd1na2vs0mg"},{"bike_id":"ad07f431-d968-409e-876b-7ee5cb77b84b","system_id":"levelo_inurba_marseille","lat":43.28946,"lon":5.36401,"is_reserved":false,"is_disabled":false,"rental_uris":{"android":"levelo://app?vid=ad07f431-d968-409e-876b-7ee5cb77b84b","ios":"levelo://app?vid=ad07f431-d968-409e-876b-7ee5cb77b84b"},"vehicle_type_id":"4","last_reported":1753722861,"current_range_meters":17200,"station_id":"ce4bhc92rcd13ifvqetg","pricing_plan_id":"cebpf4jnsgd1na2vs0mg"},{"bike_id":"2c16f289-1679-4de9-9c68-5599e5d13216","system_id":"levelo_inurba_marseille","lat":43.24803,"lon":5.37455,"is_reserved":false,"is_disabled":false,"rental_uris":{"android":"levelo://app?vid=2c16f289-1679-4de9-9c68-5599e5d13216","ios":"levelo://app?vid=2c16f289-1679-4de9-9c68-5599e5d13216"},"vehicle_type_id":"4","last_reported":1753722861,"current_range_meters":17200,"station_id":"ce4bhgh2rcd13ifvqfb0","pricing_plan_id":"cebpf4jnsgd1na2vs0mg"},{"bike_id":"35c04ed3-3f32-4bf9-8a1e-9f2898086490","system_id":"levelo_inurba_marseille","lat":43.33805,"lon":5.37393,"is_reserved":false,"is_disabled":false,"rental_uris":{"android":"levelo://app?vid=35c04ed3-3f32-4bf9-8a1e-9f2898086490","ios":"levelo://app?vid=35c04ed3-3f32-4bf9-8a1e-9f2898086490"},"vehicle_type_id":"4","last_reported":1753722861,"current_range_meters":17600,"station_id":"","pricing_plan_id":"cebpf4jnsgd1na2vs0mg"},{"bike_id":"d0630928-ac8b-409a-be0e-8a5d09594e87","system_id":"levelo_inurba_marseille","lat":43.26681,"lon":5.38274,"is_reserved":false,"is_disabled":false,"rental_uris":{"android":"levelo://app?vid=d0630928-ac8b-409a-be0e-8a5d09594e87","ios":"levelo://app?vid=d0630928-ac8b-409a-be0e-8a5d09594e87"},"vehicle_type_id":"4","last_reported":1753722861,"current_range_meters":17600,"station_id":"ce4bhg92rcd13ifvqf90","pricing_plan_id":"cebpf4jnsgd1na2vs0mg"},{"bike_id":"4a789262-50b7-4dff-96a3-d59dd4ab1de0","system_id":"levelo_inurba_marseille","lat":43.28858,"lon":5.3583,"is_reserved":false,"is_disabled":false,"rental_uris":{"android":"levelo://app?vid=4a789262-50b7-4dff-96a3-d59dd4ab1de0","ios":"levelo://app?vid=4a789262-50b7-4dff-96a3-d59dd4ab1de0"},"vehicle_type_id":"4","last_reported":1753722861,"current_range_meters":17600,"station_id":"ce4bhb12rcd13ifvqem0","pricing_plan_id":"cebpf4jnsgd1na2vs0mg"},{"bike_id":"6f7ccb69-bf92-486d-92b3-1d25f0d6e17f","system_id":"levelo_inurba_marseille","lat":43.26223,"lon":5.37471,"is_reserved":false,"is_disabled":false,"rental_uris":{"android":"levelo://app?vid=6f7ccb69-bf92-486d-92b3-1d25f0d6e17f","ios":"levelo://app?vid=6f7ccb69-bf92-486d-92b3-1d25f0d6e17f"},"vehicle_type_id":"4","last_reported":1753722861,"current_range_meters":17600,"station_id":"","pricing_plan_id":"cebpf4jnsgd1na2vs0mg"},{"bike_id":"466ed295-6bec-43c6-8b11-8e96c2beac8d","system_id":"levelo_inurba_marseille","lat":43.225053,"lon":5.347853,"is_reserved":false,"is_disabled":false,"rental_uris":{"android":"levelo://app?vid=466ed295-6bec-43c6-8b11-8e96c2beac8d","ios":"levelo://app?vid=466ed295-6bec-43c6-8b11-8e96c2beac8d"},"vehicle_type_id":"4","last_reported":1753722861,"current_range_meters":17600,"station_id":"st_cvj5dfep6f1abm77gieg","pricing_plan_id":"cebpf4jnsgd1na2vs0mg"},{"bike_id":"5dfabdc2-b806-44aa-94b4-47dba92b8204","system_id":"levelo_inurba_marseille","lat":43.22931,"lon":5.35351,"is_reserved":false,"is_disabled":false,"rental_uris":{"android":"levelo://app?vid=5dfabdc2-b806-44aa-94b4-47dba92b8204","ios":"levelo://app?vid=5dfabdc2-b806-44aa-94b4-47dba92b8204"},"vehicle_type_id":"4","last_reported":1753722861,"current_range_meters":17600,"station_id":"cpo3532slgdg3j2ikp40","pricing_plan_id":"cebpf4jnsgd1na2vs0mg"},{"bike_id":"68efbd5e-6bfe-4268-9858-269373a343e8","system_id":"levelo_inurba_marseille","lat":43.27184,"lon":5.40971,"is_reserved":false,"is_disabled":false,"rental_uris":{"android":"levelo://app?vid=68efbd5e-6bfe-4268-9858-269373a343e8","ios":"levelo://app?vid=68efbd5e-6bfe-4268-9858-269373a343e8"},"vehicle_type_id":"4","last_reported":1753722861,"current_range_meters":17600,"station_id":"ce4bhl12rcd13ifvqgf0","pricing_plan_id":"cebpf4jnsgd1na2vs0mg"},{"bike_id":"75aa074a-8804-4fec-88d9-260a8abf5ca1","system_id":"levelo_inurba_marseille","lat":43.26548,"lon":5.37278,"is_reserved":false,"is_disabled":false,"rental_uris":{"android":"levelo://app?vid=75aa074a-8804-4fec-88d9-260a8abf5ca1","ios":"levelo://app?vid=75aa074a-8804-4fec-88d9-260a8abf5ca1"},"vehicle_type_id":"4","last_reported":1753722861,"current_range_meters":17600,"station_id":"ce4bhg12rcd13ifvqf70","pricing_plan_id":"cebpf4jnsgd1na2vs0mg"},{"bike_id":"d9994a40-4e43-42c7-94c7-297c15452c35","system_id":"levelo_inurba_marseille","lat":43.27401,"lon":5.36219,"is_reserved":false,"is_disabled":false,"rental_uris":{"android":"levelo://app?vid=d9994a40-4e43-42c7-94c7-297c15452c35","ios":"levelo://app?vid=d9994a40-4e43-42c7-94c7-297c15452c35"},"vehicle_type_id":"4","last_reported":1753722861,"current_range_meters":17600,"station_id":"","pricing_plan_id":"cebpf4jnsgd1na2vs0mg"},{"bike_id":"49491b9e-bc95-484f-b8e1-371ec4848922","system_id":"levelo_inurba_marseille","lat":43.229218,"lon":5.353708,"is_reserved":false,"is_disabled":false,"rental_uris":{"android":"levelo://app?vid=49491b9e-bc95-484f-b8e1-371ec4848922","ios":"levelo://app?vid=49491b9e-bc95-484f-b8e1-371ec4848922"},"vehicle_type_id":"4","last_reported":1753722861,"current_range_meters":17600,"station_id":"cpo3532slgdg3j2ikp40","pricing_plan_id":"cebpf4jnsgd1na2vs0mg"},{"bike_id":"24e9da42-a9c7-4033-8e37-06909ad30fb6","system_id":"levelo_inurba_marseille","lat":43.27996,"lon":5.40013,"is_reserved":false,"is_disabled":false,"rental_uris":{"android":"levelo://app?vid=24e9da42-a9c7-4033-8e37-06909ad30fb6","ios":"levelo://app?vid=24e9da42-a9c7-4033-8e37-06909ad30fb6"},"vehicle_type_id":"4","last_reported":1753722861,"current_range_meters":17600,"station_id":"ce4bho92rcd13ifvqh4g","pricing_plan_id":"cebpf4jnsgd1na2vs0mg"},{"bike_id":"8545ba34-5c41-4a1c-80b9-7b94b001a412","system_id":"levelo_inurba_marseille","lat":43.28339,"lon":5.38666,"is_reserved":false,"is_disabled":false,"rental_uris":{"android":"levelo://app?vid=8545ba34-5c41-4a1c-80b9-7b94b001a412","ios":"levelo://app?vid=8545ba34-5c41-4a1c-80b9-7b94b001a412"},"vehicle_type_id":"4","last_reported":1753722861,"current_range_meters":17600,"station_id":"","pricing_plan_id":"cebpf4jnsgd1na2vs0mg"},{"bike_id":"3d9f2061-7fb9-4387-9262-8d2451911c2b","system_id":"levelo_inurba_marseille","lat":43.22927,"lon":5.35372,"is_reserved":false,"is_disabled":false,"rental_uris":{"android":"levelo://app?vid=3d9f2061-7fb9-4387-9262-8d2451911c2b","ios":"levelo://app?vid=3d9f2061-7fb9-4387-9262-8d2451911c2b"},"vehicle_type_id":"4","last_reported":1753722861,"current_range_meters":17600,"station_id":"cpo3532slgdg3j2ikp40","pricing_plan_id":"cebpf4jnsgd1na2vs0mg"},{"bike_id":"4dd49652-8888-4b7c-8d5b-34928a49b912","system_id":"levelo_inurba_marseille","lat":43.30212,"lon":5.3946,"is_reserved":false,"is_disabled":false,"rental_uris":{"android":"levelo://app?vid=4dd49652-8888-4b7c-8d5b-34928a49b912","ios":"levelo://app?vid=4dd49652-8888-4b7c-8d5b-34928a49b912"},"vehicle_type_id":"4","last_reported":1753722861,"current_range_meters":17600,"station_id":"ce4bh0p2rcd13ifvqd70","pricing_plan_id":"cebpf4jnsgd1na2vs0mg"},{"bike_id":"c11f4789-7d37-4722-9529-2b6d43a6d56c","system_id":"levelo_inurba_marseille","lat":43.28161,"lon":5.42638,"is_reserved":false,"is_disabled":true,"rental_uris":{"android":"levelo://app?vid=c11f4789-7d37-4722-9529-2b6d43a6d56c","ios":"levelo://app?vid=c11f4789-7d37-4722-9529-2b6d43a6d56c"},"vehicle_type_id":"4","last_reported":1753722861,"current_range_meters":17600,"station_id":"ce4bhnh2rcd13ifvqgug","pricing_plan_id":"cebpf4jnsgd1na2vs0mg"},{"bike_id":"b6cea658-289d-4f86-957c-347d2e806527","system_id":"levelo_inurba_marseille","lat":43.25827,"lon":5.39434,"is_reserved":false,"is_disabled":false,"rental_uris":{"android":"levelo://app?vid=b6cea658-289d-4f86-957c-347d2e806527","ios":"levelo://app?vid=b6cea658-289d-4f86-957c-347d2e806527"},"vehicle_type_id":"4","last_reported":1753722861,"current_range_meters":17600,"station_id":"ce4bhip2rcd13ifvqft0","pricing_plan_id":"cebpf4jnsgd1na2vs0mg"},{"bike_id":"75c073ec-9535-4d35-886a-7cda86424558","system_id":"levelo_inurba_marseille","lat":43.30102,"lon":5.39095,"is_reserved":false,"is_disabled":false,"rental_uris":{"android":"levelo://app?vid=75c073ec-9535-4d35-886a-7cda86424558","ios":"levelo://app?vid=75c073ec-9535-4d35-886a-7cda86424558"},"vehicle_type_id":"4","last_reported":1753722861,"current_range_meters":17600,"station_id":"ce4bh192rcd13ifvqdb0","pricing_plan_id":"cebpf4jnsgd1na2vs0mg"},{"bike_id":"f26efa5e-65eb-49c1-ac45-4876b46677f5","system_id":"levelo_inurba_marseille","lat":43.2718,"lon":5.40997,"is_reserved":false,"is_disabled":false,"rental_uris":{"android":"levelo://app?vid=f26efa5e-65eb-49c1-ac45-4876b46677f5","ios":"levelo://app?vid=f26efa5e-65eb-49c1-ac45-4876b46677f5"},"vehicle_type_id":"4","last_reported":1753722861,"current_range_meters":17600,"station_id":"ce4bhl12rcd13ifvqgf0","pricing_plan_id":"cebpf4jnsgd1na2vs0mg"},{"bike_id":"57927d23-89e7-4ddd-a64f-277b3ded0af3","system_id":"levelo_inurba_marseille","lat":43.240898,"lon":5.377168,"is_reserved":false,"is_disabled":false,"rental_uris":{"android":"levelo://app?vid=57927d23-89e7-4ddd-a64f-277b3ded0af3","ios":"levelo://app?vid=57927d23-89e7-4ddd-a64f-277b3ded0af3"},"vehicle_type_id":"4","last_reported":1753722861,"current_range_meters":18000,"station_id":"ce4bhnp2rcd13ifvqgvg","pricing_plan_id":"cebpf4jnsgd1na2vs0mg"},{"bike_id":"4ffc9d79-d56a-482d-b7d9-a5892348f435","system_id":"levelo_inurba_marseille","lat":43.2842,"lon":5.34975,"is_reserved":false,"is_disabled":false,"rental_uris":{"android":"levelo://app?vid=4ffc9d79-d56a-482d-b7d9-a5892348f435","ios":"levelo://app?vid=4ffc9d79-d56a-482d-b7d9-a5892348f435"},"vehicle_type_id":"4","last_reported":1753722861,"current_range_meters":18000,"station_id":"ce4bhbh2rcd13ifvqepg","pricing_plan_id":"cebpf4jnsgd1na2vs0mg"},{"bike_id":"0d2b62a3-62e5-4e4e-a2fa-c7d6d6f1b1b0","system_id":"levelo_inurba_marseille","lat":43.29196,"lon":5.35804,"is_reserved":false,"is_disabled":false,"rental_uris":{"android":"levelo://app?vid=0d2b62a3-62e5-4e4e-a2fa-c7d6d6f1b1b0","ios":"levelo://app?vid=0d2b62a3-62e5-4e4e-a2fa-c7d6d6f1b1b0"},"vehicle_type_id":"4","last_reported":1753722861,"current_range_meters":18000,"station_id":"ce4bhb12rcd13ifvqel0","pricing_plan_id":"cebpf4jnsgd1na2vs0mg"},{"bike_id":"84381d51-d8bf-4e0c-b58a-542cf5fe160c","system_id":"levelo_inurba_marseille","lat":43.30243,"lon":5.40094,"is_reserved":false,"is_disabled":false,"rental_uris":{"android":"levelo://app?vid=84381d51-d8bf-4e0c-b58a-542cf5fe160c","ios":"levelo://app?vid=84381d51-d8bf-4e0c-b58a-542cf5fe160c"},"vehicle_type_id":"4","last_reported":1753722861,"current_range_meters":18000,"station_id":"ce4bgvh2rcd13ifvqcs0","pricing_plan_id":"cebpf4jnsgd1na2vs0mg"},{"bike_id":"8d456a32-f5e7-4d9d-ae9d-a2a9a58546f8","system_id":"levelo_inurba_marseille","lat":43.295261,"lon":5.385424,"is_reserved":false,"is_disabled":false,"rental_uris":{"android":"levelo://app?vid=8d456a32-f5e7-4d9d-ae9d-a2a9a58546f8","ios":"levelo://app?vid=8d456a32-f5e7-4d9d-ae9d-a2a9a58546f8"},"vehicle_type_id":"4","last_reported":1753722861,"current_range_meters":18000,"station_id":"ce4bgih2rcd13ifvqba0","pricing_plan_id":"cebpf4jnsgd1na2vs0mg"},{"bike_id":"00fcae5a-d9b5-4c1e-a9d2-4f0c5aa63055","system_id":"levelo_inurba_marseille","lat":43.27993,"lon":5.40015,"is_reserved":false,"is_disabled":false,"rental_uris":{"android":"levelo://app?vid=00fcae5a-d9b5-4c1e-a9d2-4f0c5aa63055","ios":"levelo://app?vid=00fcae5a-d9b5-4c1e-a9d2-4f0c5aa63055"},"vehicle_type_id":"4","last_reported":1753722861,"current_range_meters":18000,"station_id":"ce4bho92rcd13ifvqh4g","pricing_plan_id":"cebpf4jnsgd1na2vs0mg"},{"bike_id":"839cb358-c777-49a7-9b10-9da2596c35a1","system_id":"levelo_inurba_marseille","lat":43.33762,"lon":5.37481,"is_reserved":false,"is_disabled":false,"rental_uris":{"android":"levelo://app?vid=839cb358-c777-49a7-9b10-9da2596c35a1","ios":"levelo://app?vid=839cb358-c777-49a7-9b10-9da2596c35a1"},"vehicle_type_id":"4","last_reported":1753722861,"current_range_meters":18000,"station_id":"","pricing_plan_id":"cebpf4jnsgd1na2vs0mg"},{"bike_id":"62e54455-0cad-476e-836b-6efe5dee6c34","system_id":"levelo_inurba_marseille","lat":43.22505,"lon":5.34779,"is_reserved":false,"is_disabled":false,"rental_uris":{"android":"levelo://app?vid=62e54455-0cad-476e-836b-6efe5dee6c34","ios":"levelo://app?vid=62e54455-0cad-476e-836b-6efe5dee6c34"},"vehicle_type_id":"4","last_reported":1753722861,"current_range_meters":18000,"station_id":"st_cvj5dfep6f1abm77gieg","pricing_plan_id":"cebpf4jnsgd1na2vs0mg"},{"bike_id":"3cbb30a3-2a66-40f2-a750-0094beb58bec","system_id":"levelo_inurba_marseille","lat":43.29628,"lon":5.40591,"is_reserved":false,"is_disabled":false,"rental_uris":{"android":"levelo://app?vid=3cbb30a3-2a66-40f2-a750-0094beb58bec","ios":"levelo://app?vid=3cbb30a3-2a66-40f2-a750-0094beb58bec"},"vehicle_type_id":"4","last_reported":1753722861,"current_range_meters":18000,"station_id":"ce4bh0h2rcd13ifvqd60","pricing_plan_id":"cebpf4jnsgd1na2vs0mg"},{"bike_id":"23e32577-83f2-4947-ab14-7a8bee7133de","system_id":"levelo_inurba_marseille","lat":43.278639,"lon":5.399068,"is_reserved":false,"is_disabled":false,"rental_uris":{"android":"levelo://app?vid=23e32577-83f2-4947-ab14-7a8bee7133de","ios":"levelo://app?vid=23e32577-83f2-4947-ab14-7a8bee7133de"},"vehicle_type_id":"4","last_reported":1753722861,"current_range_meters":18000,"station_id":"ce4bho92rcd13ifvqh4g","pricing_plan_id":"cebpf4jnsgd1na2vs0mg"},{"bike_id":"61497416-f2c3-4e11-a9f5-1d1c897241ca","system_id":"levelo_inurba_marseille","lat":43.229255,"lon":5.353741,"is_reserved":false,"is_disabled":false,"rental_uris":{"android":"levelo://app?vid=61497416-f2c3-4e11-a9f5-1d1c897241ca","ios":"levelo://app?vid=61497416-f2c3-4e11-a9f5-1d1c897241ca"},"vehicle_type_id":"4","last_reported":1753722861,"current_range_meters":18000,"station_id":"st_cvj5dfep6f1abm77gieg","pricing_plan_id":"cebpf4jnsgd1na2vs0mg"},{"bike_id":"90d7df2a-251b-43b9-9339-5d650e173049","system_id":"levelo_inurba_marseille","lat":43.22922,"lon":5.35392,"is_reserved":false,"is_disabled":false,"rental_uris":{"android":"levelo://app?vid=90d7df2a-251b-43b9-9339-5d650e173049","ios":"levelo://app?vid=90d7df2a-251b-43b9-9339-5d650e173049"},"vehicle_type_id":"4","last_reported":1753722861,"current_range_meters":18000,"station_id":"cpo3532slgdg3j2ikp40","pricing_plan_id":"cebpf4jnsgd1na2vs0mg"},{"bike_id":"5d57ebcf-2331-4742-b553-56b444588875","system_id":"levelo_inurba_marseille","lat":43.262068,"lon":5.374419,"is_reserved":false,"is_disabled":false,"rental_uris":{"android":"levelo://app?vid=5d57ebcf-2331-4742-b553-56b444588875","ios":"levelo://app?vid=5d57ebcf-2331-4742-b553-56b444588875"},"vehicle_type_id":"4","last_reported":1753722861,"current_range_meters":18800,"station_id":"ce4bhgp2rcd13ifvqfc0","pricing_plan_id":"cebpf4jnsgd1na2vs0mg"},{"bike_id":"8600117f-2868-4874-a87b-44da40a3eccd","system_id":"levelo_inurba_marseille","lat":43.22929,"lon":5.35383,"is_reserved":false,"is_disabled":false,"rental_uris":{"android":"levelo://app?vid=8600117f-2868-4874-a87b-44da40a3eccd","ios":"levelo://app?vid=8600117f-2868-4874-a87b-44da40a3eccd"},"vehicle_type_id":"4","last_reported":1753722861,"current_range_meters":18800,"station_id":"cpo3532slgdg3j2ikp40","pricing_plan_id":"cebpf4jnsgd1na2vs0mg"},{"bike_id":"2a40c25b-a29d-4a54-945a-4a94ba3b46ee","system_id":"levelo_inurba_marseille","lat":43.29254,"lon":5.38438,"is_reserved":false,"is_disabled":false,"rental_uris":{"android":"levelo://app?vid=2a40c25b-a29d-4a54-945a-4a94ba3b46ee","ios":"levelo://app?vid=2a40c25b-a29d-4a54-945a-4a94ba3b46ee"},"vehicle_type_id":"4","last_reported":1753722861,"current_range_meters":18800,"station_id":"ce4bh692rcd13ifvqea0","pricing_plan_id":"cebpf4jnsgd1na2vs0mg"},{"bike_id":"02eaeab2-c226-49bb-845d-3824353d3c83","system_id":"levelo_inurba_marseille","lat":43.28409,"lon":5.34977,"is_reserved":false,"is_disabled":false,"rental_uris":{"android":"levelo://app?vid=02eaeab2-c226-49bb-845d-3824353d3c83","ios":"levelo://app?vid=02eaeab2-c226-49bb-845d-3824353d3c83"},"vehicle_type_id":"4","last_reported":1753722861,"current_range_meters":18800,"station_id":"ce4bhbh2rcd13ifvqepg","pricing_plan_id":"cebpf4jnsgd1na2vs0mg"},{"bike_id":"0284b153-ed18-4aff-854a-398618bd67fc","system_id":"levelo_inurba_marseille","lat":43.28411,"lon":5.34987,"is_reserved":false,"is_disabled":false,"rental_uris":{"android":"levelo://app?vid=0284b153-ed18-4aff-854a-398618bd67fc","ios":"levelo://app?vid=0284b153-ed18-4aff-854a-398618bd67fc"},"vehicle_type_id":"4","last_reported":1753722861,"current_range_meters":18800,"station_id":"ce4bhbh2rcd13ifvqepg","pricing_plan_id":"cebpf4jnsgd1na2vs0mg"},