{"last_updated":1744326593,"ttl":60,"version":"2.2","data":{"bikes":[{"bike_id":"807456d8-87c0-4fc6-b876-d1e72ab7ed13","system_id":"levelo_inurba_marseille","lat":43.28347,"lon":5.38116,"is_reserved":false,"is_disabled":false,"rental_uris":{"android":"levelo://app?vid=807456d8-87c0-4fc6-b876-d1e72ab7ed13","ios":"levelo://app?vid=807456d8-87c0-4fc6-b876-d1e72ab7ed13"},"vehicle_type_id":"4","last_reported":1744326593,"current_range_meters":2800,"station_id":"ce4bh412rcd13ifvqdr0","pricing_plan_id":"cebpf4jnsgd1na2vs0mg"},{"bike_id":"07774d80-3fbf-49e5-b88b-1c52282dfe1b","system_id":"levelo_inurba_marseille","lat":43.295725,"lon":5.381603,"is_reserved":false,"is_disabled":false,"rental_uris":{"android":"levelo://app?vid=07774d80-3fbf-49e5-b88b-1c52282dfe1b","ios":"levelo://app?vid=07774d80-3fbf-49e5-b88b-1c52282dfe1b"},"vehicle_type_id":"4","last_reported":1744326593,"current_range_meters":2800,"station_id":"","pricing_plan_id":"cebpf4jnsgd1na2vs0mg"},{"bike_id":"7a06fc79-e49d-4778-9cec-9bdf00b92342","system_id":"levelo_inurba_marseille","lat":43.30325,"lon":5.40441,"is_reserved":false,"is_disabled":true,"rental_uris":{"android":"levelo://app?vid=7a06fc79-e49d-4778-9cec-9bdf00b92342","ios":"levelo://app?vid=7a06fc79-e49d-4778-9cec-9bdf00b92342"},"vehicle_type_id":"4","last_reported":1744326593,"current_range_meters":3200,"station_id":"ce4bh012rcd13ifvqd10","pricing_plan_id":"cebpf4jnsgd1na2vs0mg"},{"bike_id":"999b1eac-ce5f-4dad-a389-e440d4b2ed05","system_id":"levelo_inurba_marseille","lat":43.26777,"lon":5.39431,"is_reserved":false,"is_disabled":true,"rental_uris":{"android":"levelo://app?vid=999b1eac-ce5f-4dad-a389-e440d4b2ed05","ios":"levelo://app?vid=999b1eac-ce5f-4dad-a389-e440d4b2ed05"},"vehicle_type_id":"4","last_reported":1744326593,"current_range_meters":3200,"station_id":"ce4bhh12rcd13ifvqfg0","pricing_plan_id":"cebpf4jnsgd1na2vs0mg"},{"bike_id":"0329eacf-d1c8-45ba-a325-60149d0511cc","system_id":"levelo_inurba_marseille","lat":43.289764,"lon":5.397999,"is_reserved":false,"is_disabled":false,"rental_uris":{"android":"levelo://app?vid=0329eacf-d1c8-45ba-a325-60149d0511cc","ios":"levelo://app?vid=0329eacf-d1c8-45ba-a325-60149d0511cc"},"vehicle_type_id":"4","last_reported":1744326593,"current_range_meters":2800,"station_id":"ce4bgi12rcd13ifvqb70","pricing_plan_id":"cebpf4jnsgd1na2vs0mg"},{"bike_id":"1d51e0f7-178c-4ae3-88a2-488d4f01b826","system_id":"levelo_inurba_marseille","lat":43.28155,"lon":5.4238,"is_reserved":false,"is_disabled":false,"rental_uris":{"android":"levelo://app?vid=1d51e0f7-178c-4ae3-88a2-488d4f01b826","ios":"levelo://app?vid=1d51e0f7-178c-4ae3-88a2-488d4f01b826"},"vehicle_type_id":"4","last_reported":1744326593,"current_range_meters":3600,"station_id":"","pricing_plan_id":"cebpf4jnsgd1na2vs0mg"},{"bike_id":"96eb7c1b-15b6-4535-abd6-f05b6b8fed97","system_id":"levelo_inurba_marseille","lat":43.292528,"lon":5.408989,"is_reserved":false,"is_disabled":false,"rental_uris":{"android":"levelo://app?vid=96eb7c1b-15b6-4535-abd6-f05b6b8fed97","ios":"levelo://app?vid=96eb7c1b-15b6-4535-abd6-f05b6b8fed97"},"vehicle_type_id":"4","last_reported":1744326593,"current_range_meters":3600,"station_id":"ce4bh192rcd13ifvqdc0","pricing_plan_id":"cebpf4jnsgd1na2vs0mg"},{"bike_id":"a1675bd0-1410-477c-86a8-cfdebb45a55a","system_id":"levelo_inurba_marseille","lat":43.28347,"lon":5.38104,"is_reserved":false,"is_disabled":true,"rental_uris":{"android":"levelo://app?vid=a1675bd0-1410-477c-86a8-cfdebb45a55a","ios":"levelo://app?vid=a1675bd0-1410-477c-86a8-cfdebb45a55a"},"vehicle_type_id":"4","last_reported":1744326593,"current_range_meters":3600,"station_id":"ce4bh412rcd13ifvqdr0","pricing_plan_id":"cebpf4jnsgd1na2vs0mg"},{"bike_id":"08f9c0c8-8b33-4578-8a03-20f44d582241","system_id":"levelo_inurba_marseille","lat":43.30532,"lon":5.36947,"is_reserved":false,"is_disabled":false,"rental_uris":{"android":"levelo://app?vid=08f9c0c8-8b33-4578-8a03-20f44d582241","ios":"levelo://app?vid=08f9c0c8-8b33-4578-8a03-20f44d582241"},"vehicle_type_id":"4","last_reported":1744326593,"current_range_meters":3600,"station_id":"","pricing_plan_id":"cebpf4jnsgd1na2vs0mg"},{"bike_id":"4e586dd9-df43-4fb1-adc0-764a36ef2b80","system_id":"levelo_inurba_marseille","lat":43.301034,"lon":5.390757,"is_reserved":false,"is_disabled":false,"rental_uris":{"android":"levelo://app?vid=4e586dd9-df43-4fb1-adc0-764a36ef2b80","ios":"levelo://app?vid=4e586dd9-df43-4fb1-adc0-764a36ef2b80"},"vehicle_type_id":"4","last_reported":1744326593,"current_range_meters":3600,"station_id":"ce4bh192rcd13ifvqdb0","pricing_plan_id":"cebpf4jnsgd1na2vs0mg"},{"bike_id":"1426f766-5327-47bb-b087-b3049df34b8c","system_id":"levelo_inurba_marseille","lat":43.292625,"lon":5.384423,"is_reserved":false,"is_disabled":false,"rental_uris":{"android":"levelo://app?vid=1426f766-5327-47bb-b087-b3049df34b8c","ios":"levelo://app?vid=1426f766-5327-47bb-b087-b3049df34b8c"},"vehicle_type_id":"4","last_reported":1744326593,"current_range_meters":3600,"station_id":"ce4bgr92rcd13ifvqc7g","pricing_plan_id":"cebpf4jnsgd1na2vs0mg"},{"bike_id":"74fb6ada-5912-4908-9bc3-7b7c6b0830fc","system_id":"levelo_inurba_marseille","lat":43.247004,"lon":5.411859,"is_reserved":false,"is_disabled":false,"rental_uris":{"android":"levelo://app?vid=74fb6ada-5912-4908-9bc3-7b7c6b0830fc","ios":"levelo://app?vid=74fb6ada-5912-4908-9bc3-7b7c6b0830fc"},"vehicle_type_id":"4","last_reported":1744326593,"current_range_meters":3600,"station_id":"","pricing_plan_id":"cebpf4jnsgd1na2vs0mg"},{"bike_id":"290fb81b-803d-4b7e-91ee-09972e3eadb1","system_id":"levelo_inurba_marseille","lat":43.29696,"lon":5.36594,"is_reserved":false,"is_disabled":false,"rental_uris":{"android":"levelo://app?vid=290fb81b-803d-4b7e-91ee-09972e3eadb1","ios":"levelo://app?vid=290fb81b-803d-4b7e-91ee-09972e3eadb1"},"vehicle_type_id":"4","last_reported":1744326593,"current_range_meters":3600,"station_id":"ce4bgn12rcd13ifvqbt0","pricing_plan_id":"cebpf4jnsgd1na2vs0mg"},{"bike_id":"597aee93-c763-4126-8ea8-497cbf8a2c86","system_id":"levelo_inurba_marseille","lat":43.30425,"lon":5.39754,"is_reserved":false,"is_disabled":false,"rental_uris":{"android":"levelo://app?vid=597aee93-c763-4126-8ea8-497cbf8a2c86","ios":"levelo://app?vid=597aee93-c763-4126-8ea8-497cbf8a2c86"},"vehicle_type_id":"4","last_reported":1744326593,"current_range_meters":4000,"station_id":"ce4bh092rcd13ifvqd20","pricing_plan_id":"cebpf4jnsgd1na2vs0mg"},{"bike_id":"495f89a9-7050-4bbe-a6ff-577f712a934f","system_id":"levelo_inurba_marseille","lat":43.29029,"lon":5.38657,"is_reserved":false,"is_disabled":false,"rental_uris":{"android":"levelo://app?vid=495f89a9-7050-4bbe-a6ff-577f712a934f","ios":"levelo://app?vid=495f89a9-7050-4bbe-a6ff-577f712a934f"},"vehicle_type_id":"4","last_reported":1744326593,"current_range_meters":4400,"station_id":"ce4bh4p2rcd13ifvqe0g","pricing_plan_id":"cebpf4jnsgd1na2vs0mg"},{"bike_id":"cdf7f30c-b91f-42b3-b758-22ad26becd66","system_id":"levelo_inurba_marseille","lat":43.2904,"lon":5.35914,"is_reserved":false,"is_disabled":true,"rental_uris":{"android":"levelo://app?vid=cdf7f30c-b91f-42b3-b758-22ad26becd66","ios":"levelo://app?vid=cdf7f30c-b91f-42b3-b758-22ad26becd66"},"vehicle_type_id":"4","last_reported":1744326593,"current_range_meters":4400,"station_id":"ce4bha92rcd13ifvqeg0","pricing_plan_id":"cebpf4jnsgd1na2vs0mg"},{"bike_id":"0f37f0c7-918b-4c2c-8e77-92f980e359e6","system_id":"levelo_inurba_marseille","lat":43.28617,"lon":5.37052,"is_reserved":false,"is_disabled":false,"rental_uris":{"android":"levelo://app?vid=0f37f0c7-918b-4c2c-8e77-92f980e359e6","ios":"levelo://app?vid=0f37f0c7-918b-4c2c-8e77-92f980e359e6"},"vehicle_type_id":"4","last_reported":1744326593,"current_range_meters":4400,"station_id":"ce4bht12rcd13ifvqi60","pricing_plan_id":"cebpf4jnsgd1na2vs0mg"},{"bike_id":"488970c7-ad85-4166-a4ad-456252c5bcc5","system_id":"levelo_inurba_marseille","lat":43.27285,"lon":5.42939,"is_reserved":false,"is_disabled":false,"rental_uris":{"android":"levelo://app?vid=488970c7-ad85-4166-a4ad-456252c5bcc5","ios":"levelo://app?vid=488970c7-ad85-4166-a4ad-456252c5bcc5"},"vehicle_type_id":"4","last_reported":1744326593,"current_range_meters":4400,"station_id":"","pricing_plan_id":"cebpf4jnsgd1na2vs0mg"},{"bike_id":"2e305a41-d005-4b31-8c53-a76f6b2345c0","system_id":"levelo_inurba_marseille","lat":43.28977,"lon":5.37102,"is_reserved":false,"is_disabled":false,"rental_uris":{"android":"levelo://app?vid=2e305a41-d005-4b31-8c53-a76f6b2345c0","ios":"levelo://app?vid=2e305a41-d005-4b31-8c53-a76f6b2345c0"},"vehicle_type_id":"4","last_reported":1744326593,"current_range_meters":4800,"station_id":"","pricing_plan_id":"cebpf4jnsgd1na2vs0mg"},{"bike_id":"24350ec8-77b3-448b-986d-848774961b0c","system_id":"levelo_inurba_marseille","lat":43.28456,"lon":5.35884,"is_reserved":false,"is_disabled":false,"rental_uris":{"android":"levelo://app?vid=24350ec8-77b3-448b-986d-848774961b0c","ios":"levelo://app?vid=24350ec8-77b3-448b-986d-848774961b0c"},"vehicle_type_id":"4","last_reported":1744326593,"current_range_meters":4800,"station_id":"ce4bhah2rcd13ifvqei0","pricing_plan_id":"cebpf4jnsgd1na2vs0mg"},{"bike_id":"f311426c-422b-4ff3-956b-17c0d0daf6fe","system_id":"levelo_inurba_marseille","lat":43.29705,"lon":5.36616,"is_reserved":false,"is_disabled":false,"rental_uris":{"android":"levelo://app?vid=f311426c-422b-4ff3-956b-17c0d0daf6fe","ios":"levelo://app?vid=f311426c-422b-4ff3-956b-17c0d0daf6fe"},"vehicle_type_id":"4","last_reported":1744326593,"current_range_meters":4800,"station_id":"ce4bgn12rcd13ifvqbt0","pricing_plan_id":"cebpf4jnsgd1na2vs0mg"},{"bike_id":"10a491dd-7f21-42a7-973f-1c3382d0d804","system_id":"levelo_inurba_marseille","lat":43.28449,"lon":5.35897,"is_reserved":false,"is_disabled":false,"rental_uris":{"android":"levelo://app?vid=10a491dd-7f21-42a7-973f-1c3382d0d804","ios":"levelo://app?vid=10a491dd-7f21-42a7-973f-1c3382d0d804"},"vehicle_type_id":"4","last_reported":1744326593,"current_range_meters":4800,"station_id":"ce4bhah2rcd13ifvqei0","pricing_plan_id":"cebpf4jnsgd1na2vs0mg"},{"bike_id":"12942e34-12e8-4faa-9ca5-169bbb27b66b","system_id":"levelo_inurba_marseille","lat":43.28461,"lon":5.3589,"is_reserved":false,"is_disabled":false,"rental_uris":{"android":"levelo://app?vid=12942e34-12e8-4faa-9ca5-169bbb27b66b","ios":"levelo://app?vid=12942e34-12e8-4faa-9ca5-169bbb27b66b"},"vehicle_type_id":"4","last_reported":1744326593,"current_range_meters":4400,"station_id":"ce4bhah2rcd13ifvqei0","pricing_plan_id":"cebpf4jnsgd1na2vs0mg"},{"bike_id":"10642868-aa99-4371-8bc0-1097f27baba9","system_id":"levelo_inurba_marseille","lat":43.27845,"lon":5.39204,"is_reserved":false,"is_disabled":false,"rental_uris":{"android":"levelo://app?vid=10642868-aa99-4371-8bc0-1097f27baba9","ios":"levelo://app?vid=10642868-aa99-4371-8bc0-1097f27baba9"},"vehicle_type_id":"4","last_reported":1744326593,"current_range_meters":4800,"station_id":"ce4bhjp2rcd13ifvqga0","pricing_plan_id":"cebpf4jnsgd1na2vs0mg"},{"bike_id":"a85d8ffa-10be-4644-a7a3-ee5e92fc6b44","system_id":"levelo_inurba_marseille","lat":43.28352,"lon":5.38104,"is_reserved":false,"is_disabled":false,"rental_uris":{"android":"levelo://app?vid=a85d8ffa-10be-4644-a7a3-ee5e92fc6b44","ios":"levelo://app?vid=a85d8ffa-10be-4644-a7a3-ee5e92fc6b44"},"vehicle_type_id":"4","last_reported":1744326593,"current_range_meters":4800,"station_id":"ce4bh412rcd13ifvqdr0","pricing_plan_id":"cebpf4jnsgd1na2vs0mg"},{"bike_id":"c7352aa9-58f5-4570-a406-7bfc8199cb4c","system_id":"levelo_inurba_marseille","lat":43.274948,"lon":5.424467,"is_reserved":false,"is_disabled":false,"rental_uris":{"android":"levelo://app?vid=c7352aa9-58f5-4570-a406-7bfc8199cb4c","ios":"levelo://app?vid=c7352aa9-58f5-4570-a406-7bfc8199cb4c"},"vehicle_type_id":"4","last_reported":1744326593,"current_range_meters":5600,"station_id":"ce4bhn92rcd13ifvqgrg","pricing_plan_id":"cebpf4jnsgd1na2vs0mg"},{"bike_id":"1f55d0ea-3b38-4db5-a21c-afb63736744f","system_id":"levelo_inurba_marseille","lat":43.29636,"lon":5.40584,"is_reserved":false,"is_disabled":false,"rental_uris":{"android":"levelo://app?vid=1f55d0ea-3b38-4db5-a21c-afb63736744f","ios":"levelo://app?vid=1f55d0ea-3b38-4db5-a21c-afb63736744f"},"vehicle_type_id":"4","last_reported":1744326593,"current_range_meters":5600,"station_id":"ce4bh0h2rcd13ifvqd60","pricing_plan_id":"cebpf4jnsgd1na2vs0mg"},{"bike_id":"9b704737-af43-40c2-b70e-9e4ddeb764b6","system_id":"levelo_inurba_marseille","lat":43.23063,"lon":5.355,"is_reserved":false,"is_disabled":false,"rental_uris":{"android":"levelo://app?vid=9b704737-af43-40c2-b70e-9e4ddeb764b6","ios":"levelo://app?vid=9b704737-af43-40c2-b70e-9e4ddeb764b6"},"vehicle_type_id":"4","last_reported":1744326593,"current_range_meters":6000,"station_id":"cpo3342slgdg3j2ifvpg","pricing_plan_id":"cebpf4jnsgd1na2vs0mg"},{"bike_id":"524016f9-4a7b-448c-886d-cb4f28c460a4","system_id":"levelo_inurba_marseille","lat":43.29712,"lon":5.36607,"is_reserved":false,"is_disabled":false,"rental_uris":{"android":"levelo://app?vid=524016f9-4a7b-448c-886d-cb4f28c460a4","ios":"levelo://app?vid=524016f9-4a7b-448c-886d-cb4f28c460a4"},"vehicle_type_id":"4","last_reported":1744326593,"current_range_meters":6000,"station_id":"ce4bgn12rcd13ifvqbt0","pricing_plan_id":"cebpf4jnsgd1na2vs0mg"},{"bike_id":"0e6d38e0-6471-4cd8-83a2-6e851f886e0b","system_id":"levelo_inurba_marseille","lat":43.28873,"lon":5.39311,"is_reserved":false,"is_disabled":false,"rental_uris":{"android":"levelo://app?vid=0e6d38e0-6471-4cd8-83a2-6e851f886e0b","ios":"levelo://app?vid=0e6d38e0-6471-4cd8-83a2-6e851f886e0b"},"vehicle_type_id":"4","last_reported":1744326593,"current_range_meters":6000,"station_id":"ce4bh2p2rcd13ifvqdi0","pricing_plan_id":"cebpf4jnsgd1na2vs0mg"},{"bike_id":"818034d3-704e-4d85-9ab2-72de705bb74a","system_id":"levelo_inurba_marseille","lat":43.25109,"lon":5.40325,"is_reserved":false,"is_disabled":false,"rental_uris":{"android":"levelo://app?vid=818034d3-704e-4d85-9ab2-72de705bb74a","ios":"levelo://app?vid=818034d3-704e-4d85-9ab2-72de705bb74a"},"vehicle_type_id":"4","last_reported":1744326593,"current_range_meters":6000,"station_id":"ce4bhlh2rcd13ifvqgig","pricing_plan_id":"cebpf4jnsgd1na2vs0mg"},{"bike_id":"e05c1e2a-1ed0-4ae5-8a58-08e26deb95b9","system_id":"levelo_inurba_marseille","lat":43.28732,"lon":5.44798,"is_reserved":false,"is_disabled":false,"rental_uris":{"android":"levelo://app?vid=e05c1e2a-1ed0-4ae5-8a58-08e26deb95b9","ios":"levelo://app?vid=e05c1e2a-1ed0-4ae5-8a58-08e26deb95b9"},"vehicle_type_id":"4","last_reported":1744326593,"current_range_meters":6400,"station_id":"","pricing_plan_id":"cebpf4jnsgd1na2vs0mg"},{"bike_id":"8decf391-6722-4e4f-a981-dcf2dc34ed97","system_id":"levelo_inurba_marseille","lat":43.30429,"lon":5.39741,"is_reserved":false,"is_disabled":false,"rental_uris":{"android":"levelo://app?vid=8decf391-6722-4e4f-a981-dcf2dc34ed97","ios":"levelo://app?vid=8decf391-6722-4e4f-a981-dcf2dc34ed97"},"vehicle_type_id":"4","last_reported":1744326593,"current_range_meters":6400,"station_id":"ce4bh092rcd13ifvqd20","pricing_plan_id":"cebpf4jnsgd1na2vs0mg"},{"bike_id":"a1451a1f-835a-4861-997a-faa2bbe05c1b","system_id":"levelo_inurba_marseille","lat":43.28112,"lon":5.37863,"is_reserved":false,"is_disabled":false,"rental_uris":{"android":"levelo://app?vid=a1451a1f-835a-4861-997a-faa2bbe05c1b","ios":"levelo://app?vid=a1451a1f-835a-4861-997a-faa2bbe05c1b"},"vehicle_type_id":"4","last_reported":1744326593,"current_range_meters":6800,"station_id":"ce4bha12rcd13ifvqee0","pricing_plan_id":"cebpf4jnsgd1na2vs0mg"},{"bike_id":"98bde375-1946-4247-9779-ef60c95239a6","system_id":"levelo_inurba_marseille","lat":43.30813,"lon":5.43525,"is_reserved":false,"is_disabled":false,"rental_uris":{"android":"levelo://app?vid=98bde375-1946-4247-9779-ef60c95239a6","ios":"levelo://app?vid=98bde375-1946-4247-9779-ef60c95239a6"},"vehicle_type_id":"4","last_reported":1744326593,"current_range_meters":6800,"station_id":"ce4bhph2rcd13ifvqheg","pricing_plan_id":"cebpf4jnsgd1na2vs0mg"},{"bike_id":"fff87a7f-6766-4f8a-8d22-1d9d21fe9e0d","system_id":"levelo_inurba_marseille","lat":43.28844,"lon":5.393326,"is_reserved":false,"is_disabled":true,"rental_uris":{"android":"levelo://app?vid=fff87a7f-6766-4f8a-8d22-1d9d21fe9e0d","ios":"levelo://app?vid=fff87a7f-6766-4f8a-8d22-1d9d21fe9e0d"},"vehicle_type_id":"4","last_reported":1744326593,"current_range_meters":6800,"station_id":"ce4bh2p2rcd13ifvqdi0","pricing_plan_id":"cebpf4jnsgd1na2vs0mg"},{"bike_id":"83c132b1-a954-4d5a-a32d-9f99af4faa3c","system_id":"levelo_inurba_marseille","lat":43.30932,"lon":5.41523,"is_reserved":false,"is_disabled":false,"rental_uris":{"android":"levelo://app?vid=83c132b1-a954-4d5a-a32d-9f99af4faa3c","ios":"levelo://app?vid=83c132b1-a954-4d5a-a32d-9f99af4faa3c"},"vehicle_type_id":"4","last_reported":1744326593,"current_range_meters":6800,"station_id":"","pricing_plan_id":"cebpf4jnsgd1na2vs0mg"},{"bike_id":"2de0f1c2-453b-4a02-9bde-1cd104c577c5","system_id":"levelo_inurba_marseille","lat":43.28361,"lon":5.38632,"is_reserved":false,"is_disabled":false,"rental_uris":{"android":"levelo://app?vid=2de0f1c2-453b-4a02-9bde-1cd104c577c5","ios":"levelo://app?vid=2de0f1c2-453b-4a02-9bde-1cd104c577c5"},"vehicle_type_id":"4","last_reported":1744326593,"current_range_meters":6800,"station_id":"ce4bh492rcd13ifvqdvg","pricing_plan_id":"cebpf4jnsgd1na2vs0mg"},{"bike_id":"04e74939-45c7-4674-bdb2-a942e20709ed","system_id":"levelo_inurba_marseille","lat":43.27937,"lon":5.41048,"is_reserved":false,"is_disabled":false,"rental_uris":{"android":"levelo://app?vid=04e74939-45c7-4674-bdb2-a942e20709ed","ios":"levelo://app?vid=04e74939-45c7-4674-bdb2-a942e20709ed"},"vehicle_type_id":"4","last_reported":1744326593,"current_range_meters":6800,"station_id":"ce4bhnp2rcd13ifvqh0g","pricing_plan_id":"cebpf4jnsgd1na2vs0mg"},{"bike_id":"8c876ded-2351-4a40-b46f-d37e31decbcd","system_id":"levelo_inurba_marseille","lat":43.231902,"lon":5.399874,"is_reserved":false,"is_disabled":false,"rental_uris":{"android":"levelo://app?vid=8c876ded-2351-4a40-b46f-d37e31decbcd","ios":"levelo://app?vid=8c876ded-2351-4a40-b46f-d37e31decbcd"},"vehicle_type_id":"4","last_reported":1744326593,"current_range_meters":6800,"station_id":"ce4bhn12rcd13ifvqgqg","pricing_plan_id":"cebpf4jnsgd1na2vs0mg"},{"bike_id":"0b27a068-eb9c-434f-b643-a15f24e5d3d7","system_id":"levelo_inurba_marseille","lat":43.28157,"lon":5.42641,"is_reserved":false,"is_disabled":false,"rental_uris":{"android":"levelo://app?vid=0b27a068-eb9c-434f-b643-a15f24e5d3d7","ios":"levelo://app?vid=0b27a068-eb9c-434f-b643-a15f24e5d3d7"},"vehicle_type_id":"4","last_reported":1744326593,"current_range_meters":7200,"station_id":"ce4bhnh2rcd13ifvqgug","pricing_plan_id":"cebpf4jnsgd1na2vs0mg"},{"bike_id":"01e31f15-bc9b-4d18-bebd-edf19bcedef2","system_id":"levelo_inurba_marseille","lat":43.287101,"lon":5.379436,"is_reserved":false,"is_disabled":true,"rental_uris":{"android":"levelo://app?vid=01e31f15-bc9b-4d18-bebd-edf19bcedef2","ios":"levelo://app?vid=01e31f15-bc9b-4d18-bebd-edf19bcedef2"},"vehicle_type_id":"4","last_reported":1744326593,"current_range_meters":7200,"station_id":"ce4bh9p2rcd13ifvqec0","pricing_plan_id":"cebpf4jnsgd1na2vs0mg"},{"bike_id":"5f30a5a4-de9f-499e-b151-b811ebb3b43a","system_id":"levelo_inurba_marseille","lat":43.31076,"lon":5.38349,"is_reserved":false,"is_disabled":true,"rental_uris":{"android":"levelo://app?vid=5f30a5a4-de9f-499e-b151-b811ebb3b43a","ios":"levelo://app?vid=5f30a5a4-de9f-499e-b151-b811ebb3b43a"},"vehicle_type_id":"4","last_reported":1744326593,"current_range_meters":7200,"station_id":"ce4bgv92rcd13ifvqcr0","pricing_plan_id":"cebpf4jnsgd1na2vs0mg"},{"bike_id":"c93b8155-102a-45aa-905a-566f8b1c281d","system_id":"levelo_inurba_marseille","lat":43.29312,"lon":5.40112,"is_reserved":false,"is_disabled":false,"rental_uris":{"android":"levelo://app?vid=c93b8155-102a-45aa-905a-566f8b1c281d","ios":"levelo://app?vid=c93b8155-102a-45aa-905a-566f8b1c281d"},"vehicle_type_id":"4","last_reported":1744326593,"current_range_meters":7200,"station_id":"ce4bh312rcd13ifvqdk0","pricing_plan_id":"cebpf4jnsgd1na2vs0mg"},{"bike_id":"77681eb7-0ca7-4181-8f4d-dc0d81e04ff3","system_id":"levelo_inurba_marseille","lat":43.241639,"lon":5.363944,"is_reserved":false,"is_disabled":false,"rental_uris":{"android":"levelo://app?vid=77681eb7-0ca7-4181-8f4d-dc0d81e04ff3","ios":"levelo://app?vid=77681eb7-0ca7-4181-8f4d-dc0d81e04ff3"},"vehicle_type_id":"4","last_reported":1744326593,"current_range_meters":7200,"station_id":"cpo36qri1sfpv3e86is0","pricing_plan_id":"cebpf4jnsgd1na2vs0mg"},{"bike_id":"c243072f-6bd2-4d94-ba83-04162cf2a05c","system_id":"levelo_inurba_marseille","lat":43.27165,"lon":5.40158,"is_reserved":false,"is_disabled":false,"rental_uris":{"android":"levelo://app?vid=c243072f-6bd2-4d94-ba83-04162cf2a05c","ios":"levelo://app?vid=c243072f-6bd2-4d94-ba83-04162cf2a05c"},"vehicle_type_id":"4","last_reported":1744326593,"current_range_meters":7200,"station_id":"","pricing_plan_id":"cebpf4jnsgd1na2vs0mg"},{"bike_id":"eb2a2906-4519-49e5-b09f-221125aa377a","system_id":"levelo_inurba_marseille","lat":43.30419,"lon":5.41266,"is_reserved":false,"is_disabled":false,"rental_uris":{"android":"levelo://app?vid=eb2a2906-4519-49e5-b09f-221125aa377a","ios":"levelo://app?vid=eb2a2906-4519-49e5-b09f-221125aa377a"},"vehicle_type_id":"4","last_reported":1744326593,"current_range_meters":8000,"station_id":"ce4bhop2rcd13ifvqh8g","pricing_plan_id":"cebpf4jnsgd1na2vs0mg"},{"bike_id":"a214e99d-b99a-4f98-870d-535e7f3ee3e1","system_id":"levelo_inurba_marseille","lat":43.27176,"lon":5.40994,"is_reserved":false,"is_disabled":false,"rental_uris":{"android":"levelo://app?vid=a214e99d-b99a-4f98-870d-535e7f3ee3e1","ios":"levelo://app?vid=a214e99d-b99a-4f98-870d-535e7f3ee3e1"},"vehicle_type_id":"4","last_reported":1744326593,"current_range_meters":8000,"station_id":"ce4bhl12rcd13ifvqgf0","pricing_plan_id":"cebpf4jnsgd1na2vs0mg"},{"bike_id":"61176b24-97cc-449e-bd5a-111e6c711271","system_id":"levelo_inurba_marseille","lat":43.28464,"lon":5.35875,"is_reserved":false,"is_disabled":false,"rental_uris":{"android":"levelo://app?vid=61176b24-97cc-449e-bd5a-111e6c711271","ios":"levelo://app?vid=61176b24-97cc-449e-bd5a-111e6c711271"},"vehicle_type_id":"4","last_reported":1744326593,"current_range_meters":8000,"station_id":"ce4bhah2rcd13ifvqei0","pricing_plan_id":"cebpf4jnsgd1na2vs0mg"},{"bike_id":"10f72831-a14e-4eee-8e16-4a84e6f3ae45","system_id":"levelo_inurba_marseille","lat":43.30809,"lon":5.38153,"is_reserved":false,"is_disabled":false,"rental_uris":{"android":"levelo://app?vid=10f72831-a14e-4eee-8e16-4a84e6f3ae45","ios":"levelo://app?vid=10f72831-a14e-4eee-8e16-4a84e6f3ae45"},"vehicle_type_id":"4","last_reported":1744326593,"current_range_meters":8000,"station_id":"ce4bgt12rcd13ifvqce0","pricing_plan_id":"cebpf4jnsgd1na2vs0mg"},{"bike_id":"922aad61-4970-400d-aca6-905e06b6909a","system_id":"levelo_inurba_marseille","lat":43.28157,"lon":5.42639,"is_reserved":false,"is_disabled":false,"rental_uris":{"android":"levelo://app?vid=922aad61-4970-400d-aca6-905e06b6909a","ios":"levelo://app?vid=922aad61-4970-400d-aca6-905e06b6909a"},"vehicle_type_id":"4","last_reported":1744326593,"current_range_meters":8000,"station_id":"ce4bhnh2rcd13ifvqgug","pricing_plan_id":"cebpf4jnsgd1na2vs0mg"},{"bike_id":"4c1f7691-a169-4713-b675-2a5153227ffe","system_id":"levelo_inurba_marseille","lat":43.27826,"lon":5.40717,"is_reserved":false,"is_disabled":false,"rental_uris":{"android":"levelo://app?vid=4c1f7691-a169-4713-b675-2a5153227ffe","ios":"levelo://app?vid=4c1f7691-a169-4713-b675-2a5153227ffe"},"vehicle_type_id":"4","last_reported":1744326593,"current_range_meters":8000,"station_id":"ce4bhnh2rcd13ifvqgtg","pricing_plan_id":"cebpf4jnsgd1na2vs0mg"},{"bike_id":"07cc6c28-4c90-4a27-a829-295d10e64a1b","system_id":"levelo_inurba_marseille","lat":43.28439,"lon":5.39188,"is_reserved":false,"is_disabled":false,"rental_uris":{"android":"levelo://app?vid=07cc6c28-4c90-4a27-a829-295d10e64a1b","ios":"levelo://app?vid=07cc6c28-4c90-4a27-a829-295d10e64a1b"},"vehicle_type_id":"4","last_reported":1744326593,"current_range_meters":8000,"station_id":"ce4bhoh2rcd13ifvqh5g","pricing_plan_id":"cebpf4jnsgd1na2vs0mg"},{"bike_id":"9e1c8e17-4976-4f6c-b4b6-6294187617d2","system_id":"levelo_inurba_marseille","lat":43.32646,"lon":5.40992,"is_reserved":false,"is_disabled":false,"rental_uris":{"android":"levelo://app?vid=9e1c8e17-4976-4f6c-b4b6-6294187617d2","ios":"levelo://app?vid=9e1c8e17-4976-4f6c-b4b6-6294187617d2"},"vehicle_type_id":"4","last_reported":1744326593,"current_range_meters":8000,"station_id":"ce4bhpp2rcd13ifvqhgg","pricing_plan_id":"cebpf4jnsgd1na2vs0mg"},{"bike_id":"0674074c-d22a-4f12-8a52-74091023d4b5","system_id":"levelo_inurba_marseille","lat":43.29707,"lon":5.36603,"is_reserved":false,"is_disabled":false,"rental_uris":{"android":"levelo://app?vid=0674074c-d22a-4f12-8a52-74091023d4b5","ios":"levelo://app?vid=0674074c-d22a-4f12-8a52-74091023d4b5"},"vehicle_type_id":"4","last_reported":1744326593,"current_range_meters":8000,"station_id":"ce4bgn12rcd13ifvqbt0","pricing_plan_id":"cebpf4jnsgd1na2vs0mg"},{"bike_id":"b1d24ef5-cb49-4f85-ab46-290662931f88","system_id":"levelo_inurba_marseille","lat":43.25493,"lon":5.37653,"is_reserved":false,"is_disabled":false,"rental_uris":{"android":"levelo://app?vid=b1d24ef5-cb49-4f85-ab46-290662931f88","ios":"levelo://app?vid=b1d24ef5-cb49-4f85-ab46-290662931f88"},"vehicle_type_id":"4","last_reported":1744326593,"current_range_meters":7200,"station_id":"ce4bhh12rcd13ifvqff0","pricing_plan_id":"cebpf4jnsgd1na2vs0mg"},{"bike_id":"da33d3e1-078a-490e-bdcf-05f338351ccc","system_id":"levelo_inurba_marseille","lat":43.278282,"lon":5.392179,"is_reserved":false,"is_disabled":false,"rental_uris":{"android":"levelo://app?vid=da33d3e1-078a-490e-bdcf-05f338351ccc","ios":"levelo://app?vid=da33d3e1-078a-490e-bdcf-05f338351ccc"},"vehicle_type_id":"4","last_reported":1744326593,"current_range_meters":8000,"station_id":"ce4bhjp2rcd13ifvqga0","pricing_plan_id":"cebpf4jnsgd1na2vs0mg"},{"bike_id":"ad897ecd-0ea4-4652-81c5-3657a110d541","system_id":"levelo_inurba_marseille","lat":43.28157,"lon":5.42634,"is_reserved":false,"is_disabled":false,"rental_uris":{"android":"levelo://app?vid=ad897ecd-0ea4-4652-81c5-3657a110d541","ios":"levelo://app?vid=ad897ecd-0ea4-4652-81c5-3657a110d541"},"vehicle_type_id":"4","last_reported":1744326593,"current_range_meters":8400,"station_id":"ce4bhnh2rcd13ifvqgug","pricing_plan_id":"cebpf4jnsgd1na2vs0mg"},{"bike_id":"4a3e0919-27c2-445a-a961-2bd3243a227d","system_id":"levelo_inurba_marseille","lat":43.31649,"lon":5.37296,"is_reserved":false,"is_disabled":false,"rental_uris":{"android":"levelo://app?vid=4a3e0919-27c2-445a-a961-2bd3243a227d","ios":"levelo://app?vid=4a3e0919-27c2-445a-a961-2bd3243a227d"},"vehicle_type_id":"4","last_reported":1744326593,"current_range_meters":8400,"station_id":"","pricing_plan_id":"cebpf4jnsgd1na2vs0mg"},{"bike_id":"d37408de-b5d7-4466-8973-ab7c2a7000bc","system_id":"levelo_inurba_marseille","lat":43.29287,"lon":5.36843,"is_reserved":false,"is_disabled":true,"rental_uris":{"android":"levelo://app?vid=d37408de-b5d7-4466-8973-ab7c2a7000bc","ios":"levelo://app?vid=d37408de-b5d7-4466-8973-ab7c2a7000bc"},"vehicle_type_id":"4","last_reported":1744326593,"current_range_meters":8400,"station_id":"ce4bhbp2rcd13ifvqesg","pricing_plan_id":"cebpf4jnsgd1na2vs0mg"},{"bike_id":"1b5e1a6a-30b1-49b2-8140-7fe8bbbd4144","system_id":"levelo_inurba_marseille","lat":43.298796,"lon":5.38913,"is_reserved":false,"is_disabled":false,"rental_uris":{"android":"levelo://app?vid=1b5e1a6a-30b1-49b2-8140-7fe8bbbd4144","ios":"levelo://app?vid=1b5e1a6a-30b1-49b2-8140-7fe8bbbd4144"},"vehicle_type_id":"4","last_reported":1744326593,"current_range_meters":8400,"station_id":"ce4bh392rcd13ifvqdl0","pricing_plan_id":"cebpf4jnsgd1na2vs0mg"},{"bike_id":"3102b6c5-7de9-4edb-84c1-78cca2d45726","system_id":"levelo_inurba_marseille","lat":43.27176,"lon":5.40997,"is_reserved":false,"is_disabled":false,"rental_uris":{"android":"levelo://app?vid=3102b6c5-7de9-4edb-84c1-78cca2d45726","ios":"levelo://app?vid=3102b6c5-7de9-4edb-84c1-78cca2d45726"},"vehicle_type_id":"4","last_reported":1744326593,"current_range_meters":8400,"station_id":"ce4bhl12rcd13ifvqgf0","pricing_plan_id":"cebpf4jnsgd1na2vs0mg"},{"bike_id":"cec94938-5836-4fb1-b107-6be08662aa0a","system_id":"levelo_inurba_marseille","lat":43.274949,"lon":5.424512,"is_reserved":false,"is_disabled":false,"rental_uris":{"android":"levelo://app?vid=cec94938-5836-4fb1-b107-6be08662aa0a","ios":"levelo://app?vid=cec94938-5836-4fb1-b107-6be08662aa0a"},"vehicle_type_id":"4","last_reported":1744326593,"current_range_meters":8400,"station_id":"ce4bhn92rcd13ifvqgrg","pricing_plan_id":"cebpf4jnsgd1na2vs0mg"},{"bike_id":"293ffd2e-5de7-4b40-b2e6-cc4cad17e213","system_id":"levelo_inurba_marseille","lat":43.28417,"lon":5.37501,"is_reserved":false,"is_disabled":false,"rental_uris":{"android":"levelo://app?vid=293ffd2e-5de7-4b40-b2e6-cc4cad17e213","ios":"levelo://app?vid=293ffd2e-5de7-4b40-b2e6-cc4cad17e213"},"vehicle_type_id":"4","last_reported":1744326593,"current_range_meters":8400,"station_id":"ce4bh412rcd13ifvqds0","pricing_plan_id":"cebpf4jnsgd1na2vs0mg"},{"bike_id":"af18cac0-9071-4e7b-9aab-dc2fa405ee09","system_id":"levelo_inurba_marseille","lat":43.305371,"lon":5.367246,"is_reserved":false,"is_disabled":false,"rental_uris":{"android":"levelo://app?vid=af18cac0-9071-4e7b-9aab-dc2fa405ee09","ios":"levelo://app?vid=af18cac0-9071-4e7b-9aab-dc2fa405ee09"},"vehicle_type_id":"4","last_reported":1744326593,"current_range_meters":8400,"station_id":"ce4bgrp2rcd13ifvqc9g","pricing_plan_id":"cebpf4jnsgd1na2vs0mg"},{"bike_id":"9ce80678-2ca4-4baa-a7d2-19d4fc944020","system_id":"levelo_inurba_marseille","lat":43.241653,"lon":5.364013,"is_reserved":false,"is_disabled":false,"rental_uris":{"android":"levelo://app?vid=9ce80678-2ca4-4baa-a7d2-19d4fc944020","ios":"levelo://app?vid=9ce80678-2ca4-4baa-a7d2-19d4fc944020"},"vehicle_type_id":"4","last_reported":1744326593,"current_range_meters":8400,"station_id":"cpo36qri1sfpv3e86is0","pricing_plan_id":"cebpf4jnsgd1na2vs0mg"},{"bike_id":"ba2c16f2-a8de-459f-a35d-6bd74f3cc715","system_id":"levelo_inurba_marseille","lat":43.23055,"lon":5.35497,"is_reserved":false,"is_disabled":false,"rental_uris":{"android":"levelo://app?vid=ba2c16f2-a8de-459f-a35d-6bd74f3cc715","ios":"levelo://app?vid=ba2c16f2-a8de-459f-a35d-6bd74f3cc715"},"vehicle_type_id":"4","last_reported":1744326593,"current_range_meters":8800,"station_id":"cpo3342slgdg3j2ifvpg","pricing_plan_id":"cebpf4jnsgd1na2vs0mg"},{"bike_id":"a08fdf65-f7c3-4eb9-83c1-6d1abed3497e","system_id":"levelo_inurba_marseille","lat":43.286966,"lon":5.39983,"is_reserved":false,"is_disabled":true,"rental_uris":{"android":"levelo://app?vid=a08fdf65-f7c3-4eb9-83c1-6d1abed3497e","ios":"levelo://app?vid=a08fdf65-f7c3-4eb9-83c1-6d1abed3497e"},"vehicle_type_id":"4","last_reported":1744326593,"current_range_meters":8800,"station_id":"ce4bho92rcd13ifvqh3g","pricing_plan_id":"cebpf4jnsgd1na2vs0mg"},{"bike_id":"c1056760-f044-4a82-b5e8-edb5575ceaf3","system_id":"levelo_inurba_marseille","lat":43.30427,"lon":5.39746,"is_reserved":false,"is_disabled":false,"rental_uris":{"android":"levelo://app?vid=c1056760-f044-4a82-b5e8-edb5575ceaf3","ios":"levelo://app?vid=c1056760-f044-4a82-b5e8-edb5575ceaf3"},"vehicle_type_id":"4","last_reported":1744326593,"current_range_meters":8400,"station_id":"ce4bh092rcd13ifvqd20","pricing_plan_id":"cebpf4jnsgd1na2vs0mg"},{"bike_id":"f6f2cfd9-b63e-473f-894b-76bd01d20d8a","system_id":"levelo_inurba_marseille","lat":43.28699,"lon":5.373848,"is_reserved":false,"is_disabled":false,"rental_uris":{"android":"levelo://app?vid=f6f2cfd9-b63e-473f-894b-76bd01d20d8a","ios":"levelo://app?vid=f6f2cfd9-b63e-473f-894b-76bd01d20d8a"},"vehicle_type_id":"4","last_reported":1744326593,"current_range_meters":8800,"station_id":"ce4bh3p2rcd13ifvqdq0","pricing_plan_id":"cebpf4jnsgd1na2vs0mg"},{"bike_id":"1c543187-a26e-4795-b86f-ba6cec340c93","system_id":"levelo_inurba_marseille","lat":43.28715,"lon":5.37958,"is_reserved":false,"is_disabled":false,"rental_uris":{"android":"levelo://app?vid=1c543187-a26e-4795-b86f-ba6cec340c93","ios":"levelo://app?vid=1c543187-a26e-4795-b86f-ba6cec340c93"},"vehicle_type_id":"4","last_reported":1744326593,"current_range_meters":8800,"station_id":"ce4bh9p2rcd13ifvqec0","pricing_plan_id":"cebpf4jnsgd1na2vs0mg"},{"bike_id":"a1fdd794-2cd0-4fb6-96b3-8dafaa593e65","system_id":"levelo_inurba_marseille","lat":43.33772,"lon":5.37468,"is_reserved":false,"is_disabled":true,"rental_uris":{"android":"levelo://app?vid=a1fdd794-2cd0-4fb6-96b3-8dafaa593e65","ios":"levelo://app?vid=a1fdd794-2cd0-4fb6-96b3-8dafaa593e65"},"vehicle_type_id":"4","last_reported":1744326593,"current_range_meters":9200,"station_id":"","pricing_plan_id":"cebpf4jnsgd1na2vs0mg"},{"bike_id":"c7922c9e-df40-4d6f-92a1-640cc6bd2ff7","system_id":"levelo_inurba_marseille","lat":43.241639,"lon":5.363954,"is_reserved":false,"is_disabled":false,"rental_uris":{"android":"levelo://app?vid=c7922c9e-df40-4d6f-92a1-640cc6bd2ff7","ios":"levelo://app?vid=c7922c9e-df40-4d6f-92a1-640cc6bd2ff7"},"vehicle_type_id":"4","last_reported":1744326593,"current_range_meters":9200,"station_id":"cpo36qri1sfpv3e86is0","pricing_plan_id":"cebpf4jnsgd1na2vs0mg"},{"bike_id":"1af8a524-a5f0-4f83-980b-4903f9d7017c","system_id":"levelo_inurba_marseille","lat":43.28615,"lon":5.3705,"is_reserved":false,"is_disabled":false,"rental_uris":{"android":"levelo://app?vid=1af8a524-a5f0-4f83-980b-4903f9d7017c","ios":"levelo://app?vid=1af8a524-a5f0-4f83-980b-4903f9d7017c"},"vehicle_type_id":"4","last_reported":1744326593,"current_range_meters":9200,"station_id":"ce4bht12rcd13ifvqi60","pricing_plan_id":"cebpf4jnsgd1na2vs0mg"},{"bike_id":"cd9166ec-c8f1-4e31-867a-a0378e96636d","system_id":"levelo_inurba_marseille","lat":43.30886,"lon":5.39653,"is_reserved":false,"is_disabled":false,"rental_uris":{"android":"levelo://app?vid=cd9166ec-c8f1-4e31-867a-a0378e96636d","ios":"levelo://app?vid=cd9166ec-c8f1-4e31-867a-a0378e96636d"},"vehicle_type_id":"4","last_reported":1744326593,"current_range_meters":9200,"station_id":"ce4bh012rcd13ifvqcv0","pricing_plan_id":"cebpf4jnsgd1na2vs0mg"},{"bike_id":"3cce7e82-3b3f-4afe-8abe-b91b82f9d784","system_id":"levelo_inurba_marseille","lat":43.28613,"lon":5.37062,"is_reserved":false,"is_disabled":false,"rental_uris":{"android":"levelo://app?vid=3cce7e82-3b3f-4afe-8abe-b91b82f9d784","ios":"levelo://app?vid=3cce7e82-3b3f-4afe-8abe-b91b82f9d784"},"vehicle_type_id":"4","last_reported":1744326593,"current_range_meters":9200,"station_id":"ce4bht12rcd13ifvqi60","pricing_plan_id":"cebpf4jnsgd1na2vs0mg"},{"bike_id":"bff67837-c676-4b88-9fdc-8db7fe587121","system_id":"levelo_inurba_marseille","lat":43.30258,"lon":5.401,"is_reserved":false,"is_disabled":true,"rental_uris":{"android":"levelo://app?vid=bff67837-c676-4b88-9fdc-8db7fe587121","ios":"levelo://app?vid=bff67837-c676-4b88-9fdc-8db7fe587121"},"vehicle_type_id":"4","last_reported":1744326593,"current_range_meters":9200,"station_id":"ce4bgvh2rcd13ifvqcs0","pricing_plan_id":"cebpf4jnsgd1na2vs0mg"},{"bike_id":"72c3168c-baf7-40e8-868c-731da670395c","system_id":"levelo_inurba_marseille","lat":43.30931,"lon":5.40142,"is_reserved":false,"is_disabled":false,"rental_uris":{"android":"levelo://app?vid=72c3168c-baf7-40e8-868c-731da670395c","ios":"levelo://app?vid=72c3168c-baf7-40e8-868c-731da670395c"},"vehicle_type_id":"4","last_reported":1744326593,"current_range_meters":9600,"station_id":"ce4bgvp2rcd13ifvqct0","pricing_plan_id":"cebpf4jnsgd1na2vs0mg"},{"bike_id":"33443bd1-63f0-4476-823e-4549241d83bd","system_id":"levelo_inurba_marseille","lat":43.22942,"lon":5.35359,"is_reserved":false,"is_disabled":false,"rental_uris":{"android":"levelo://app?vid=33443bd1-63f0-4476-823e-4549241d83bd","ios":"levelo://app?vid=33443bd1-63f0-4476-823e-4549241d83bd"},"vehicle_type_id":"4","last_reported":1744326593,"current_range_meters":9600,"station_id":"cpo3532slgdg3j2ikp40","pricing_plan_id":"cebpf4jnsgd1na2vs0mg"},{"bike_id":"30ee2873-7884-45b5-ad52-967ec2cd5388","system_id":"levelo_inurba_marseille","lat":43.27834,"lon":5.40711,"is_reserved":false,"is_disabled":false,"rental_uris":{"android":"levelo://app?vid=30ee2873-7884-45b5-ad52-967ec2cd5388","ios":"levelo://app?vid=30ee2873-7884-45b5-ad52-967ec2cd5388"},"vehicle_type_id":"4","last_reported":1744326593,"current_range_meters":9600,"station_id":"ce4bhnh2rcd13ifvqgtg","pricing_plan_id":"cebpf4jnsgd1na2vs0mg"},{"bike_id":"4e47d0fb-2760-4784-8c81-8e8fb738bf29","system_id":"levelo_inurba_marseille","lat":43.25865,"lon":5.39907,"is_reserved":false,"is_disabled":false,"rental_uris":{"android":"levelo://app?vid=4e47d0fb-2760-4784-8c81-8e8fb738bf29","ios":"levelo://app?vid=4e47d0fb-2760-4784-8c81-8e8fb738bf29"},"vehicle_type_id":"4","last_reported":1744326593,"current_range_meters":9600,"station_id":"ce4bhl92rcd13ifvqghg","pricing_plan_id":"cebpf4jnsgd1na2vs0mg"},{"bike_id":"3baae6a5-5d93-4f4e-8d05-e15c000058d0","system_id":"levelo_inurba_marseille","lat":43.29256,"lon":5.40895,"is_reserved":false,"is_disabled":false,"rental_uris":{"android":"levelo://app?vid=3baae6a5-5d93-4f4e-8d05-e15c000058d0","ios":"levelo://app?vid=3baae6a5-5d93-4f4e-8d05-e15c000058d0"},"vehicle_type_id":"4","last_reported":1744326593,"current_range_meters":9600,"station_id":"ce4bh192rcd13ifvqdc0","pricing_plan_id":"cebpf4jnsgd1na2vs0mg"},{"bike_id":"2000497b-6d4b-416f-b43b-2a4143aad53b","system_id":"levelo_inurba_marseille","lat":43.32313,"lon":5.38672,"is_reserved":false,"is_disabled":false,"rental_uris":{"android":"levelo://app?vid=2000497b-6d4b-416f-b43b-2a4143aad53b","ios":"levelo://app?vid=2000497b-6d4b-416f-b43b-2a4143aad53b"},"vehicle_type_id":"4","last_reported":1744326593,"current_range_meters":9600,"station_id":"","pricing_plan_id":"cebpf4jnsgd1na2vs0mg"},{"bike_id":"cd94694b-42fa-44d6-807a-2d5a6758fe67","system_id":"levelo_inurba_marseille","lat":43.28156,"lon":5.42648,"is_reserved":false,"is_disabled":true,"rental_uris":{"android":"levelo://app?vid=cd94694b-42fa-44d6-807a-2d5a6758fe67","ios":"levelo://app?vid=cd94694b-42fa-44d6-807a-2d5a6758fe67"},"vehicle_type_id":"4","last_reported":1744326593,"current_range_meters":9600,"station_id":"ce4bhnh2rcd13ifvqgug","pricing_plan_id":"cebpf4jnsgd1na2vs0mg"},{"bike_id":"1bdaf11b-d657-4b49-afc7-b8d41d2ea170","system_id":"levelo_inurba_marseille","lat":43.310808,"lon":5.383536,"is_reserved":false,"is_disabled":false,"rental_uris":{"android":"levelo://app?vid=1bdaf11b-d657-4b49-afc7-b8d41d2ea170","ios":"levelo://app?vid=1bdaf11b-d657-4b49-afc7-b8d41d2ea170"},"vehicle_type_id":"4","last_reported":1744326593,"current_range_meters":9600,"station_id":"ce4bgv92rcd13ifvqcr0","pricing_plan_id":"cebpf4jnsgd1na2vs0mg"},{"bike_id":"4a1c9e7b-4f41-4518-918e-9ee94b15f2fa","system_id":"levelo_inurba_marseille","lat":43.24801,"lon":5.37461,"is_reserved":false,"is_disabled":false,"rental_uris":{"android":"levelo://app?vid=4a1c9e7b-4f41-4518-918e-9ee94b15f2fa","ios":"levelo://app?vid=4a1c9e7b-4f41-4518-918e-9ee94b15f2fa"},"vehicle_type_id":"4","last_reported":1744326593,"current_range_meters":10000,"station_id":"ce4bhgh2rcd13ifvqfb0","pricing_plan_id":"cebpf4jnsgd1na2vs0mg"},{"bike_id":"3864ca11-eba3-4ea9-aa8d-c2b29b8c6d15","system_id":"levelo_inurba_marseille","lat":43.271812,"lon":5.409891,"is_reserved":false,"is_disabled":false,"rental_uris":{"android":"levelo://app?vid=3864ca11-eba3-4ea9-aa8d-c2b29b8c6d15","ios":"levelo://app?vid=3864ca11-eba3-4ea9-aa8d-c2b29b8c6d15"},"vehicle_type_id":"4","last_reported":1744326593,"current_range_meters":10000,"station_id":"ce4bhl12rcd13ifvqgf0","pricing_plan_id":"cebpf4jnsgd1na2vs0mg"},{"bike_id":"962bd2be-9a63-48c9-bf55-3625efe027cd","system_id":"levelo_inurba_marseille","lat":43.304296,"lon":5.388914,"is_reserved":false,"is_disabled":false,"rental_uris":{"android":"levelo://app?vid=962bd2be-9a63-48c9-bf55-3625efe027cd","ios":"levelo://app?vid=962bd2be-9a63-48c9-bf55-3625efe027cd"},"vehicle_type_id":"4","last_reported":1744326593,"current_range_meters":10000,"station_id":"ce4bgk12rcd13ifvqbi0","pricing_plan_id":"cebpf4jnsgd1na2vs0mg"},{"bike_id":"eecf807d-4160-4e93-ad13-a3643e28345c","system_id":"levelo_inurba_marseille","lat":43.28607,"lon":5.37063,"is_reserved":false,"is_disabled":false,"rental_uris":{"android":"levelo://app?vid=eecf807d-4160-4e93-ad13-a3643e28345c","ios":"levelo://app?vid=eecf807d-4160-4e93-ad13-a3643e28345c"},"vehicle_type_id":"4","last_reported":1744326593,"current_range_meters":10000,"station_id":"ce4bht12rcd13ifvqi60","pricing_plan_id":"cebpf4jnsgd1na2vs0mg"},{"bike_id":"82522d85-616f-4b70-b6f0-591320032371","system_id":"levelo_inurba_marseille","lat":43.31717,"lon":5.42399,"is_reserved":false,"is_disabled":false,"rental_uris":{"android":"levelo://app?vid=82522d85-616f-4b70-b6f0-591320032371","ios":"levelo://app?vid=82522d85-616f-4b70-b6f0-591320032371"},"vehicle_type_id":"4","last_reported":1744326593,"current_range_meters":10000,"station_id":"ce4bhp92rcd13ifvqhbg","pricing_plan_id":"cebpf4jnsgd1na2vs0mg"},{"bike_id":"d6bbcb9a-1b3c-480b-a4cc-1791ba809291","system_id":"levelo_inurba_marseille","lat":43.28711,"lon":5.39987,"is_reserved":false,"is_disabled":false,"rental_uris":{"android":"levelo://app?vid=d6bbcb9a-1b3c-480b-a4cc-1791ba809291","ios":"levelo://app?vid=d6bbcb9a-1b3c-480b-a4cc-1791ba809291"},"vehicle_type_id":"4","last_reported":1744326593,"current_range_meters":10000,"station_id":"ce4bho92rcd13ifvqh3g","pricing_plan_id":"cebpf4jnsgd1na2vs0mg"},{"bike_id":"c99bfe87-379b-4b0b-818d-d22942908b24","system_id":"levelo_inurba_marseille","lat":43.305933,"lon":5.393533,"is_reserved":false,"is_disabled":false,"rental_uris":{"android":"levelo://app?vid=c99bfe87-379b-4b0b-818d-d22942908b24","ios":"levelo://app?vid=c99bfe87-379b-4b0b-818d-d22942908b24"},"vehicle_type_id":"4","last_reported":1744326593,"current_range_meters":10000,"station_id":"ce4bh0p2rcd13ifvqd80","pricing_plan_id":"cebpf4jnsgd1na2vs0mg"},{"bike_id":"74bb5d65-537b-4c7c-9102-bad931df68ad","system_id":"levelo_inurba_marseille","lat":43.30311,"lon":5.40429,"is_reserved":false,"is_disabled":false,"rental_uris":{"android":"levelo://app?vid=74bb5d65-537b-4c7c-9102-bad931df68ad","ios":"levelo://app?vid=74bb5d65-537b-4c7c-9102-bad931df68ad"},"vehicle_type_id":"4","last_reported":1744326593,"current_range_meters":10000,"station_id":"ce4bh012rcd13ifvqd10","pricing_plan_id":"cebpf4jnsgd1na2vs0mg"},{"bike_id":"6eb61986-8e92-47db-8c9a-ad77976386e7","system_id":"levelo_inurba_marseille","lat":43.305361,"lon":5.384364,"is_reserved":false,"is_disabled":true,"rental_uris":{"android":"levelo://app?vid=6eb61986-8e92-47db-8c9a-ad77976386e7","ios":"levelo://app?vid=6eb61986-8e92-47db-8c9a-ad77976386e7"},"vehicle_type_id":"4","last_reported":1744326593,"current_range_meters":10000,"station_id":"ce4bgg92rcd13ifvqb30","pricing_plan_id":"cebpf4jnsgd1na2vs0mg"},{"bike_id":"65f52e07-c7c1-4b0b-a98a-2cb0cb6e9ef2","system_id":"levelo_inurba_marseille","lat":43.24079,"lon":5.37727,"is_reserved":false,"is_disabled":false,"rental_uris":{"android":"levelo://app?vid=65f52e07-c7c1-4b0b-a98a-2cb0cb6e9ef2","ios":"levelo://app?vid=65f52e07-c7c1-4b0b-a98a-2cb0cb6e9ef2"},"vehicle_type_id":"4","last_reported":1744326593,"current_range_meters":10000,"station_id":"ce4bhnp2rcd13ifvqgvg","pricing_plan_id":"cebpf4jnsgd1na2vs0mg"},{"bike_id":"68e0119a-8645-4479-b5b1-70d812883054","system_id":"levelo_inurba_marseille","lat":43.281065,"lon":5.378394,"is_reserved":false,"is_disabled":false,"rental_uris":{"android":"levelo://app?vid=68e0119a-8645-4479-b5b1-70d812883054","ios":"levelo://app?vid=68e0119a-8645-4479-b5b1-70d812883054"},"vehicle_type_id":"4","last_reported":1744326593,"current_range_meters":10800,"station_id":"ce4bha12rcd13ifvqee0","pricing_plan_id":"cebpf4jnsgd1na2vs0mg"},{"bike_id":"787b2e0b-fe80-41a2-bfbd-78bbbecc45dc","system_id":"levelo_inurba_marseille","lat":43.2784,"lon":5.39213,"is_reserved":false,"is_disabled":false,"rental_uris":{"android":"levelo://app?vid=787b2e0b-fe80-41a2-bfbd-78bbbecc45dc","ios":"levelo://app?vid=787b2e0b-fe80-41a2-bfbd-78bbbecc45dc"},"vehicle_type_id":"4","last_reported":1744326593,"current_range_meters":10800,"station_id":"ce4bhjp2rcd13ifvqga0","pricing_plan_id":"cebpf4jnsgd1na2vs0mg"},{"bike_id":"cdb818a6-fd2a-4195-84c0-ff94cd0f3a81","system_id":"levelo_inurba_marseille","lat":43.28713,"lon":5.39989,"is_reserved":false,"is_disabled":false,"rental_uris":{"android":"levelo://app?vid=cdb818a6-fd2a-4195-84c0-ff94cd0f3a81","ios":"levelo://app?vid=cdb818a6-fd2a-4195-84c0-ff94cd0f3a81"},"vehicle_type_id":"4","last_reported":1744326593,"current_range_meters":10800,"station_id":"ce4bho92rcd13ifvqh3g","pricing_plan_id":"cebpf4jnsgd1na2vs0mg"},{"bike_id":"7ee713cc-689d-4574-832f-dc0a190691a3","system_id":"levelo_inurba_marseille","lat":43.27324,"lon":5.39075,"is_reserved":false,"is_disabled":false,"rental_uris":{"android":"levelo://app?vid=7ee713cc-689d-4574-832f-dc0a190691a3","ios":"levelo://app?vid=7ee713cc-689d-4574-832f-dc0a190691a3"},"vehicle_type_id":"4","last_reported":1744326593,"current_range_meters":10800,"station_id":"ce4bhgp2rcd13ifvqfe0","pricing_plan_id":"cebpf4jnsgd1na2vs0mg"},{"bike_id":"766488c0-e8c9-45da-a7ef-ba95d1783edc","system_id":"levelo_inurba_marseille","lat":43.28434,"lon":5.37508,"is_reserved":false,"is_disabled":false,"rental_uris":{"android":"levelo://app?vid=766488c0-e8c9-45da-a7ef-ba95d1783edc","ios":"levelo://app?vid=766488c0-e8c9-45da-a7ef-ba95d1783edc"},"vehicle_type_id":"4","last_reported":1744326593,"current_range_meters":10800,"station_id":"ce4bh412rcd13ifvqds0","pricing_plan_id":"cebpf4jnsgd1na2vs0mg"},{"bike_id":"5bb125d9-b23d-4fd1-92cb-d46d3b6177ec","system_id":"levelo_inurba_marseille","lat":43.30322,"lon":5.40431,"is_reserved":false,"is_disabled":false,"rental_uris":{"android":"levelo://app?vid=5bb125d9-b23d-4fd1-92cb-d46d3b6177ec","ios":"levelo://app?vid=5bb125d9-b23d-4fd1-92cb-d46d3b6177ec"},"vehicle_type_id":"4","last_reported":1744326593,"current_range_meters":10800,"station_id":"ce4bh012rcd13ifvqd10","pricing_plan_id":"cebpf4jnsgd1na2vs0mg"},{"bike_id":"34d18eb6-71e5-42c8-9b04-9f4e67b6133a","system_id":"levelo_inurba_marseille","lat":43.28512,"lon":5.38575,"is_reserved":false,"is_disabled":false,"rental_uris":{"android":"levelo://app?vid=34d18eb6-71e5-42c8-9b04-9f4e67b6133a","ios":"levelo://app?vid=34d18eb6-71e5-42c8-9b04-9f4e67b6133a"},"vehicle_type_id":"4","last_reported":1744326593,"current_range_meters":10800,"station_id":"ce4bh8p2rcd13ifvqeb0","pricing_plan_id":"cebpf4jnsgd1na2vs0mg"},{"bike_id":"a8ce148c-c646-49c7-bc93-8e16c53d9a41","system_id":"levelo_inurba_marseille","lat":43.231788,"lon":5.399863,"is_reserved":false,"is_disabled":false,"rental_uris":{"android":"levelo://app?vid=a8ce148c-c646-49c7-bc93-8e16c53d9a41","ios":"levelo://app?vid=a8ce148c-c646-49c7-bc93-8e16c53d9a41"},"vehicle_type_id":"4","last_reported":1744326593,"current_range_meters":10800,"station_id":"ce4bhn12rcd13ifvqgqg","pricing_plan_id":"cebpf4jnsgd1na2vs0mg"},{"bike_id":"a50ba3b3-ad34-4398-b71e-4df32bf58c7d","system_id":"levelo_inurba_marseille","lat":43.30817,"lon":5.38143,"is_reserved":false,"is_disabled":false,"rental_uris":{"android":"levelo://app?vid=a50ba3b3-ad34-4398-b71e-4df32bf58c7d","ios":"levelo://app?vid=a50ba3b3-ad34-4398-b71e-4df32bf58c7d"},"vehicle_type_id":"4","last_reported":1744326593,"current_range_meters":10800,"station_id":"ce4bgt12rcd13ifvqce0","pricing_plan_id":"cebpf4jnsgd1na2vs0mg"},{"bike_id":"dc4a626a-ac1a-4198-9afe-9a4cb606fe1f","system_id":"levelo_inurba_marseille","lat":43.28733,"lon":5.36082,"is_reserved":false,"is_disabled":false,"rental_uris":{"android":"levelo://app?vid=dc4a626a-ac1a-4198-9afe-9a4cb606fe1f","ios":"levelo://app?vid=dc4a626a-ac1a-4198-9afe-9a4cb606fe1f"},"vehicle_type_id":"4","last_reported":1744326593,"current_range_meters":10800,"station_id":"cki0cbj6b192h4jlfktg","pricing_plan_id":"cebpf4jnsgd1na2vs0mg"},{"bike_id":"754a5caa-c10f-4795-917d-08e45eb44fa6","system_id":"levelo_inurba_marseille","lat":43.3013,"lon":5.39855,"is_reserved":false,"is_disabled":false,"rental_uris":{"android":"levelo://app?vid=754a5caa-c10f-4795-917d-08e45eb44fa6","ios":"levelo://app?vid=754a5caa-c10f-4795-917d-08e45eb44fa6"},"vehicle_type_id":"4","last_reported":1744326593,"current_range_meters":11200,"station_id":"ce4bh0h2rcd13ifvqd40","pricing_plan_id":"cebpf4jnsgd1na2vs0mg"},{"bike_id":"d6872def-f6e1-4a74-bb25-427c312021d9","system_id":"levelo_inurba_marseille","lat":43.29787,"lon":5.3934,"is_reserved":false,"is_disabled":false,"rental_uris":{"android":"levelo://app?vid=d6872def-f6e1-4a74-bb25-427c312021d9","ios":"levelo://app?vid=d6872def-f6e1-4a74-bb25-427c312021d9"},"vehicle_type_id":"4","last_reported":1744326593,"current_range_meters":11200,"station_id":"chh1huq6cuj3fo74tm60","pricing_plan_id":"cebpf4jnsgd1na2vs0mg"},{"bike_id":"7986f528-e014-4751-bc08-903178eb0939","system_id":"levelo_inurba_marseille","lat":43.29797,"lon":5.39341,"is_reserved":false,"is_disabled":false,"rental_uris":{"android":"levelo://app?vid=7986f528-e014-4751-bc08-903178eb0939","ios":"levelo://app?vid=7986f528-e014-4751-bc08-903178eb0939"},"vehicle_type_id":"4","last_reported":1744326593,"current_range_meters":11200,"station_id":"chh1huq6cuj3fo74tm60","pricing_plan_id":"cebpf4jnsgd1na2vs0mg"},{"bike_id":"ed8f8be7-587c-4f3e-81a1-fbf38adb6afd","system_id":"levelo_inurba_marseille","lat":43.2926,"lon":5.37614,"is_reserved":false,"is_disabled":false,"rental_uris":{"android":"levelo://app?vid=ed8f8be7-587c-4f3e-81a1-fbf38adb6afd","ios":"levelo://app?vid=ed8f8be7-587c-4f3e-81a1-fbf38adb6afd"},"vehicle_type_id":"4","last_reported":1744326593,"current_range_meters":11200,"station_id":"ce4bgi12rcd13ifvqb80","pricing_plan_id":"cebpf4jnsgd1na2vs0mg"},{"bike_id":"8d0d140d-2c5b-4b31-bd25-b0febc4b5d61","system_id":"levelo_inurba_marseille","lat":43.30137,"lon":5.39867,"is_reserved":false,"is_disabled":false,"rental_uris":{"android":"levelo://app?vid=8d0d140d-2c5b-4b31-bd25-b0febc4b5d61","ios":"levelo://app?vid=8d0d140d-2c5b-4b31-bd25-b0febc4b5d61"},"vehicle_type_id":"4","last_reported":1744326593,"current_range_meters":11200,"station_id":"ce4bh0h2rcd13ifvqd40","pricing_plan_id":"cebpf4jnsgd1na2vs0mg"},{"bike_id":"1c04979f-13ef-4c10-915b-eb8d4ce2c696","system_id":"levelo_inurba_marseille","lat":43.30429,"lon":5.38895,"is_reserved":false,"is_disabled":false,"rental_uris":{"android":"levelo://app?vid=1c04979f-13ef-4c10-915b-eb8d4ce2c696","ios":"levelo://app?vid=1c04979f-13ef-4c10-915b-eb8d4ce2c696"},"vehicle_type_id":"4","last_reported":1744326593,"current_range_meters":11600,"station_id":"ce4bgk12rcd13ifvqbi0","pricing_plan_id":"cebpf4jnsgd1na2vs0mg"},{"bike_id":"39cd4eb7-abcd-4fc1-905f-96fffe552c91","system_id":"levelo_inurba_marseille","lat":43.29567,"lon":5.3996,"is_reserved":false,"is_disabled":false,"rental_uris":{"android":"levelo://app?vid=39cd4eb7-abcd-4fc1-905f-96fffe552c91","ios":"levelo://app?vid=39cd4eb7-abcd-4fc1-905f-96fffe552c91"},"vehicle_type_id":"4","last_reported":1744326593,"current_range_meters":11600,"station_id":"ce4bh312rcd13ifvqdj0","pricing_plan_id":"cebpf4jnsgd1na2vs0mg"},{"bike_id":"b74ccc2f-e8ef-41bb-ab70-412b1cdf0515","system_id":"levelo_inurba_marseille","lat":43.309334,"lon":5.401452,"is_reserved":false,"is_disabled":false,"rental_uris":{"android":"levelo://app?vid=b74ccc2f-e8ef-41bb-ab70-412b1cdf0515","ios":"levelo://app?vid=b74ccc2f-e8ef-41bb-ab70-412b1cdf0515"},"vehicle_type_id":"4","last_reported":1744326593,"current_range_meters":11600,"station_id":"ce4bgvp2rcd13ifvqct0","pricing_plan_id":"cebpf4jnsgd1na2vs0mg"},{"bike_id":"c1921cd4-e279-4627-ab74-c965164a1a03","system_id":"levelo_inurba_marseille","lat":43.2861,"lon":5.37061,"is_reserved":false,"is_disabled":false,"rental_uris":{"android":"levelo://app?vid=c1921cd4-e279-4627-ab74-c965164a1a03","ios":"levelo://app?vid=c1921cd4-e279-4627-ab74-c965164a1a03"},"vehicle_type_id":"4","last_reported":1744326593,"current_range_meters":11600,"station_id":"ce4bht12rcd13ifvqi60","pricing_plan_id":"cebpf4jnsgd1na2vs0mg"},{"bike_id":"213873f3-33ff-4c78-b99b-2afa7bae4a61","system_id":"levelo_inurba_marseille","lat":43.2408,"lon":5.37756,"is_reserved":false,"is_disabled":false,"rental_uris":{"android":"levelo://app?vid=213873f3-33ff-4c78-b99b-2afa7bae4a61","ios":"levelo://app?vid=213873f3-33ff-4c78-b99b-2afa7bae4a61"},"vehicle_type_id":"4","last_reported":1744326593,"current_range_meters":11600,"station_id":"ce4bhnp2rcd13ifvqgvg","pricing_plan_id":"cebpf4jnsgd1na2vs0mg"},{"bike_id":"36dd2f5e-4014-41b9-8f6e-aa54636e0b8b","system_id":"levelo_inurba_marseille","lat":43.24172,"lon":5.36403,"is_reserved":false,"is_disabled":false,"rental_uris":{"android":"levelo://app?vid=36dd2f5e-4014-41b9-8f6e-aa54636e0b8b","ios":"levelo://app?vid=36dd2f5e-4014-41b9-8f6e-aa54636e0b8b"},"vehicle_type_id":"4","last_reported":1744326593,"current_range_meters":11600,"station_id":"cpo36qri1sfpv3e86is0","pricing_plan_id":"cebpf4jnsgd1na2vs0mg"},{"bike_id":"c60b8836-cbba-4ee9-8729-bc9b46e42524","system_id":"levelo_inurba_marseille","lat":43.30103,"lon":5.3909,"is_reserved":false,"is_disabled":false,"rental_uris":{"android":"levelo://app?vid=c60b8836-cbba-4ee9-8729-bc9b46e42524","ios":"levelo://app?vid=c60b8836-cbba-4ee9-8729-bc9b46e42524"},"vehicle_type_id":"4","last_reported":1744326593,"current_range_meters":12000,"station_id":"ce4bh192rcd13ifvqdb0","pricing_plan_id":"cebpf4jnsgd1na2vs0mg"},{"bike_id":"de07953f-a368-43dd-aba2-34a7197efe50","system_id":"levelo_inurba_marseille","lat":43.256115,"lon":5.405147,"is_reserved":false,"is_disabled":false,"rental_uris":{"android":"levelo://app?vid=de07953f-a368-43dd-aba2-34a7197efe50","ios":"levelo://app?vid=de07953f-a368-43dd-aba2-34a7197efe50"},"vehicle_type_id":"4","last_reported":1744326593,"current_range_meters":12000,"station_id":"","pricing_plan_id":"cebpf4jnsgd1na2vs0mg"},{"bike_id":"fb616cd3-23a4-48e3-9a4e-7023a427b4b8","system_id":"levelo_inurba_marseille","lat":43.2965,"lon":5.39571,"is_reserved":false,"is_disabled":false,"rental_uris":{"android":"levelo://app?vid=fb616cd3-23a4-48e3-9a4e-7023a427b4b8","ios":"levelo://app?vid=fb616cd3-23a4-48e3-9a4e-7023a427b4b8"},"vehicle_type_id":"4","last_reported":1744326593,"current_range_meters":12000,"station_id":"","pricing_plan_id":"cebpf4jnsgd1na2vs0mg"},{"bike_id":"96fcfe9e-7b02-42ee-8215-0d38a4f8d2f0","system_id":"levelo_inurba_marseille","lat":43.28381,"lon":5.38631,"is_reserved":false,"is_disabled":false,"rental_uris":{"android":"levelo://app?vid=96fcfe9e-7b02-42ee-8215-0d38a4f8d2f0","ios":"levelo://app?vid=96fcfe9e-7b02-42ee-8215-0d38a4f8d2f0"},"vehicle_type_id":"4","last_reported":1744326593,"current_range_meters":12000,"station_id":"ce4bh492rcd13ifvqdvg","pricing_plan_id":"cebpf4jnsgd1na2vs0mg"},{"bike_id":"190bed17-6627-4f7f-9040-d999c64b1fa9","system_id":"levelo_inurba_marseille","lat":43.30416,"lon":5.41271,"is_reserved":false,"is_disabled":false,"rental_uris":{"android":"levelo://app?vid=190bed17-6627-4f7f-9040-d999c64b1fa9","ios":"levelo://app?vid=190bed17-6627-4f7f-9040-d999c64b1fa9"},"vehicle_type_id":"4","last_reported":1744326593,"current_range_meters":12000,"station_id":"ce4bhop2rcd13ifvqh8g","pricing_plan_id":"cebpf4jnsgd1na2vs0mg"},{"bike_id":"eab6cbfa-cb8e-47d7-b0d6-226ab7facec7","system_id":"levelo_inurba_marseille","lat":43.31712,"lon":5.4239,"is_reserved":false,"is_disabled":true,"rental_uris":{"android":"levelo://app?vid=eab6cbfa-cb8e-47d7-b0d6-226ab7facec7","ios":"levelo://app?vid=eab6cbfa-cb8e-47d7-b0d6-226ab7facec7"},"vehicle_type_id":"4","last_reported":1744326593,"current_range_meters":12000,"station_id":"ce4bhp92rcd13ifvqhbg","pricing_plan_id":"cebpf4jnsgd1na2vs0mg"},{"bike_id":"c95b9089-1c33-4eee-b033-e37e6269370c","system_id":"levelo_inurba_marseille","lat":43.30587,"lon":5.39355,"is_reserved":false,"is_disabled":false,"rental_uris":{"android":"levelo://app?vid=c95b9089-1c33-4eee-b033-e37e6269370c","ios":"levelo://app?vid=c95b9089-1c33-4eee-b033-e37e6269370c"},"vehicle_type_id":"4","last_reported":1744326593,"current_range_meters":12400,"station_id":"ce4bh0p2rcd13ifvqd80","pricing_plan_id":"cebpf4jnsgd1na2vs0mg"},{"bike_id":"35760107-f7e7-476e-880c-0f7c3535e881","system_id":"levelo_inurba_marseille","lat":43.3108,"lon":5.38355,"is_reserved":false,"is_disabled":false,"rental_uris":{"android":"levelo://app?vid=35760107-f7e7-476e-880c-0f7c3535e881","ios":"levelo://app?vid=35760107-f7e7-476e-880c-0f7c3535e881"},"vehicle_type_id":"4","last_reported":1744326593,"current_range_meters":12400,"station_id":"ce4bgv92rcd13ifvqcr0","pricing_plan_id":"cebpf4jnsgd1na2vs0mg"},{"bike_id":"ac9c9b50-06ec-4d5d-bd8c-2690e8ae53c2","system_id":"levelo_inurba_marseille","lat":43.283435,"lon":5.38125,"is_reserved":false,"is_disabled":false,"rental_uris":{"android":"levelo://app?vid=ac9c9b50-06ec-4d5d-bd8c-2690e8ae53c2","ios":"levelo://app?vid=ac9c9b50-06ec-4d5d-bd8c-2690e8ae53c2"},"vehicle_type_id":"4","last_reported":1744326593,"current_range_meters":12400,"station_id":"ce4bh412rcd13ifvqdr0","pricing_plan_id":"cebpf4jnsgd1na2vs0mg"},{"bike_id":"a1be7942-93cf-48f2-9853-15a5ec50f101","system_id":"levelo_inurba_marseille","lat":43.231804,"lon":5.399895,"is_reserved":false,"is_disabled":false,"rental_uris":{"android":"levelo://app?vid=a1be7942-93cf-48f2-9853-15a5ec50f101","ios":"levelo://app?vid=a1be7942-93cf-48f2-9853-15a5ec50f101"},"vehicle_type_id":"4","last_reported":1744326593,"current_range_meters":12400,"station_id":"ce4bhn12rcd13ifvqgqg","pricing_plan_id":"cebpf4jnsgd1na2vs0mg"},{"bike_id":"037b1d37-e484-4907-b25c-9225f3c24703","system_id":"levelo_inurba_marseille","lat":43.265622,"lon":5.39028,"is_reserved":false,"is_disabled":false,"rental_uris":{"android":"levelo://app?vid=037b1d37-e484-4907-b25c-9225f3c24703","ios":"levelo://app?vid=037b1d37-e484-4907-b25c-9225f3c24703"},"vehicle_type_id":"4","last_reported":1744326593,"current_range_meters":12400,"station_id":"ce4bhe12rcd13ifvqf30","pricing_plan_id":"cebpf4jnsgd1na2vs0mg"},{"bike_id":"33f764f3-1958-431c-a50f-d5fe60e86d22","system_id":"levelo_inurba_marseille","lat":43.30929,"lon":5.40145,"is_reserved":false,"is_disabled":false,"rental_uris":{"android":"levelo://app?vid=33f764f3-1958-431c-a50f-d5fe60e86d22","ios":"levelo://app?vid=33f764f3-1958-431c-a50f-d5fe60e86d22"},"vehicle_type_id":"4","last_reported":1744326593,"current_range_meters":12400,"station_id":"ce4bgvp2rcd13ifvqct0","pricing_plan_id":"cebpf4jnsgd1na2vs0mg"},{"bike_id":"bd2f5995-27ec-4e39-9257-a3bd08cd44e1","system_id":"levelo_inurba_marseille","lat":43.2841,"lon":5.37506,"is_reserved":false,"is_disabled":false,"rental_uris":{"android":"levelo://app?vid=bd2f5995-27ec-4e39-9257-a3bd08cd44e1","ios":"levelo://app?vid=bd2f5995-27ec-4e39-9257-a3bd08cd44e1"},"vehicle_type_id":"4","last_reported":1744326593,"current_range_meters":12800,"station_id":"ce4bh412rcd13ifvqds0","pricing_plan_id":"cebpf4jnsgd1na2vs0mg"},{"bike_id":"0922821c-4e1d-4817-9469-860e55f8f0d1","system_id":"levelo_inurba_marseille","lat":43.22495,"lon":5.3478,"is_reserved":false,"is_disabled":false,"rental_uris":{"android":"levelo://app?vid=0922821c-4e1d-4817-9469-860e55f8f0d1","ios":"levelo://app?vid=0922821c-4e1d-4817-9469-860e55f8f0d1"},"vehicle_type_id":"4","last_reported":1744326593,"current_range_meters":12800,"station_id":"st_cvj5dfep6f1abm77gieg","pricing_plan_id":"cebpf4jnsgd1na2vs0mg"},{"bike_id":"8c01c616-33d3-4f21-a94b-3bf76ab48ae7","system_id":"levelo_inurba_marseille","lat":43.28963,"lon":5.3666,"is_reserved":false,"is_disabled":true,"rental_uris":{"android":"levelo://app?vid=8c01c616-33d3-4f21-a94b-3bf76ab48ae7","ios":"levelo://app?vid=8c01c616-33d3-4f21-a94b-3bf76ab48ae7"},"vehicle_type_id":"4","last_reported":1744326593,"current_range_meters":13600,"station_id":"","pricing_plan_id":"cebpf4jnsgd1na2vs0mg"},{"bike_id":"d7640766-dae1-412c-92e4-9db9be45b5dd","system_id":"levelo_inurba_marseille","lat":43.32544,"lon":5.41437,"is_reserved":false,"is_disabled":false,"rental_uris":{"android":"levelo://app?vid=d7640766-dae1-412c-92e4-9db9be45b5dd","ios":"levelo://app?vid=d7640766-dae1-412c-92e4-9db9be45b5dd"},"vehicle_type_id":"4","last_reported":1744326593,"current_range_meters":13600,"station_id":"ce4bhq12rcd13ifvqhhg","pricing_plan_id":"cebpf4jnsgd1na2vs0mg"},{"bike_id":"b1185898-cdf2-4f81-a8ea-468123196e65","system_id":"levelo_inurba_marseille","lat":43.29211,"lon":5.35783,"is_reserved":false,"is_disabled":false,"rental_uris":{"android":"levelo://app?vid=b1185898-cdf2-4f81-a8ea-468123196e65","ios":"levelo://app?vid=b1185898-cdf2-4f81-a8ea-468123196e65"},"vehicle_type_id":"4","last_reported":1744326593,"current_range_meters":13600,"station_id":"ce4bhb12rcd13ifvqel0","pricing_plan_id":"cebpf4jnsgd1na2vs0mg"},{"bike_id":"e63e2a20-73b6-423e-992b-a6c643e08abf","system_id":"levelo_inurba_marseille","lat":43.292572,"lon":5.384398,"is_reserved":false,"is_disabled":false,"rental_uris":{"android":"levelo://app?vid=e63e2a20-73b6-423e-992b-a6c643e08abf","ios":"levelo://app?vid=e63e2a20-73b6-423e-992b-a6c643e08abf"},"vehicle_type_id":"4","last_reported":1744326593,"current_range_meters":12800,"station_id":"ce4bh692rcd13ifvqea0","pricing_plan_id":"cebpf4jnsgd1na2vs0mg"},{"bike_id":"1a952879-6c88-4fe1-be76-32006d5594ff","system_id":"levelo_inurba_marseille","lat":43.290348,"lon":5.399641,"is_reserved":false,"is_disabled":false,"rental_uris":{"android":"levelo://app?vid=1a952879-6c88-4fe1-be76-32006d5594ff","ios":"levelo://app?vid=1a952879-6c88-4fe1-be76-32006d5594ff"},"vehicle_type_id":"4","last_reported":1744326593,"current_range_meters":13600,"station_id":"ce4bh392rcd13ifvqdm0","pricing_plan_id":"cebpf4jnsgd1na2vs0mg"},{"bike_id":"2c8bb190-4ed6-4b94-9cbe-43f7ee4483e4","system_id":"levelo_inurba_marseille","lat":43.30878,"lon":5.39642,"is_reserved":false,"is_disabled":false,"rental_uris":{"android":"levelo://app?vid=2c8bb190-4ed6-4b94-9cbe-43f7ee4483e4","ios":"levelo://app?vid=2c8bb190-4ed6-4b94-9cbe-43f7ee4483e4"},"vehicle_type_id":"4","last_reported":1744326593,"current_range_meters":13600,"station_id":"ce4bh012rcd13ifvqcv0","pricing_plan_id":"cebpf4jnsgd1na2vs0mg"},{"bike_id":"5fe03d3f-caa5-4868-ad89-268800daa343","system_id":"levelo_inurba_marseille","lat":43.25726,"lon":5.41107,"is_reserved":false,"is_disabled":false,"rental_uris":{"android":"levelo://app?vid=5fe03d3f-caa5-4868-ad89-268800daa343","ios":"levelo://app?vid=5fe03d3f-caa5-4868-ad89-268800daa343"},"vehicle_type_id":"4","last_reported":1744326593,"current_range_meters":12800,"station_id":"ce4bhkp2rcd13ifvqgd0","pricing_plan_id":"cebpf4jnsgd1na2vs0mg"},{"bike_id":"2f604b1b-d5c1-4825-8a1c-02d30e0bb26a","system_id":"levelo_inurba_marseille","lat":43.31081,"lon":5.38356,"is_reserved":false,"is_disabled":false,"rental_uris":{"android":"levelo://app?vid=2f604b1b-d5c1-4825-8a1c-02d30e0bb26a","ios":"levelo://app?vid=2f604b1b-d5c1-4825-8a1c-02d30e0bb26a"},"vehicle_type_id":"4","last_reported":1744326593,"current_range_meters":14000,"station_id":"ce4bgv92rcd13ifvqcr0","pricing_plan_id":"cebpf4jnsgd1na2vs0mg"},{"bike_id":"fa1debc4-00e5-4a2c-86ea-9e687fc3f9d4","system_id":"levelo_inurba_marseille","lat":43.28942,"lon":5.36393,"is_reserved":false,"is_disabled":false,"rental_uris":{"android":"levelo://app?vid=fa1debc4-00e5-4a2c-86ea-9e687fc3f9d4","ios":"levelo://app?vid=fa1debc4-00e5-4a2c-86ea-9e687fc3f9d4"},"vehicle_type_id":"4","last_reported":1744326593,"current_range_meters":13600,"station_id":"ce4bhc92rcd13ifvqetg","pricing_plan_id":"cebpf4jnsgd1na2vs0mg"},{"bike_id":"9c07b687-0cca-4a28-82f6-66c50d295640","system_id":"levelo_inurba_marseille","lat":43.32342,"lon":5.38328,"is_reserved":false,"is_disabled":false,"rental_uris":{"android":"levelo://app?vid=9c07b687-0cca-4a28-82f6-66c50d295640","ios":"levelo://app?vid=9c07b687-0cca-4a28-82f6-66c50d295640"},"vehicle_type_id":"4","last_reported":1744326593,"current_range_meters":14000,"station_id":"","pricing_plan_id":"cebpf4jnsgd1na2vs0mg"},{"bike_id":"aca070cc-ba66-44c8-adde-e4314d297936","system_id":"levelo_inurba_marseille","lat":43.29606,"lon":5.38638,"is_reserved":false,"is_disabled":false,"rental_uris":{"android":"levelo://app?vid=aca070cc-ba66-44c8-adde-e4314d297936","ios":"levelo://app?vid=aca070cc-ba66-44c8-adde-e4314d297936"},"vehicle_type_id":"4","last_reported":1744326593,"current_range_meters":14000,"station_id":"","pricing_plan_id":"cebpf4jnsgd1na2vs0mg"},{"bike_id":"f08a6698-fe62-451c-b460-c0e31cd5622f","system_id":"levelo_inurba_marseille","lat":43.28262,"lon":5.36106,"is_reserved":false,"is_disabled":false,"rental_uris":{"android":"levelo://app?vid=f08a6698-fe62-451c-b460-c0e31cd5622f","ios":"levelo://app?vid=f08a6698-fe62-451c-b460-c0e31cd5622f"},"vehicle_type_id":"4","last_reported":1744326593,"current_range_meters":14000,"station_id":"","pricing_plan_id":"cebpf4jnsgd1na2vs0mg"},{"bike_id":"784f6f6f-9f28-47b2-878e-a7ec8d21c437","system_id":"levelo_inurba_marseille","lat":43.337709,"lon":5.374698,"is_reserved":false,"is_disabled":false,"rental_uris":{"android":"levelo://app?vid=784f6f6f-9f28-47b2-878e-a7ec8d21c437","ios":"levelo://app?vid=784f6f6f-9f28-47b2-878e-a7ec8d21c437"},"vehicle_type_id":"4","last_reported":1744326593,"current_range_meters":14000,"station_id":"","pricing_plan_id":"cebpf4jnsgd1na2vs0mg"},{"bike_id":"c711bed6-28b8-49fd-8a20-b2a04d369d24","system_id":"levelo_inurba_marseille","lat":43.24802,"lon":5.3745,"is_reserved":false,"is_disabled":false,"rental_uris":{"android":"levelo://app?vid=c711bed6-28b8-49fd-8a20-b2a04d369d24","ios":"levelo://app?vid=c711bed6-28b8-49fd-8a20-b2a04d369d24"},"vehicle_type_id":"4","last_reported":1744326593,"current_range_meters":14400,"station_id":"ce4bhgh2rcd13ifvqfb0","pricing_plan_id":"cebpf4jnsgd1na2vs0mg"},{"bike_id":"508b362c-971e-41d0-9a97-522956b1a8d5","system_id":"levelo_inurba_marseille","lat":43.29744,"lon":5.36588,"is_reserved":false,"is_disabled":false,"rental_uris":{"android":"levelo://app?vid=508b362c-971e-41d0-9a97-522956b1a8d5","ios":"levelo://app?vid=508b362c-971e-41d0-9a97-522956b1a8d5"},"vehicle_type_id":"4","last_reported":1744326593,"current_range_meters":14400,"station_id":"ce4bgn12rcd13ifvqbt0","pricing_plan_id":"cebpf4jnsgd1na2vs0mg"},{"bike_id":"989cfda3-e11f-45b5-a08c-71c9a276e15d","system_id":"levelo_inurba_marseille","lat":43.29787,"lon":5.39365,"is_reserved":false,"is_disabled":false,"rental_uris":{"android":"levelo://app?vid=989cfda3-e11f-45b5-a08c-71c9a276e15d","ios":"levelo://app?vid=989cfda3-e11f-45b5-a08c-71c9a276e15d"},"vehicle_type_id":"4","last_reported":1744326593,"current_range_meters":14400,"station_id":"chh1huq6cuj3fo74tm60","pricing_plan_id":"cebpf4jnsgd1na2vs0mg"},{"bike_id":"c266cdc4-c7b8-499b-9979-d13187952b82","system_id":"levelo_inurba_marseille","lat":43.26936,"lon":5.38908,"is_reserved":false,"is_disabled":false,"rental_uris":{"android":"levelo://app?vid=c266cdc4-c7b8-499b-9979-d13187952b82","ios":"levelo://app?vid=c266cdc4-c7b8-499b-9979-d13187952b82"},"vehicle_type_id":"4","last_reported":1744326593,"current_range_meters":14400,"station_id":"ce4bhhh2rcd13ifvqfl0","pricing_plan_id":"cebpf4jnsgd1na2vs0mg"},{"bike_id":"1116a788-858b-4f94-8caf-ac0148d4668b","system_id":"levelo_inurba_marseille","lat":43.25116,"lon":5.40319,"is_reserved":false,"is_disabled":false,"rental_uris":{"android":"levelo://app?vid=1116a788-858b-4f94-8caf-ac0148d4668b","ios":"levelo://app?vid=1116a788-858b-4f94-8caf-ac0148d4668b"},"vehicle_type_id":"4","last_reported":1744326593,"current_range_meters":14400,"station_id":"ce4bhlh2rcd13ifvqgig","pricing_plan_id":"cebpf4jnsgd1na2vs0mg"},{"bike_id":"9f945758-9c31-4af1-844c-96a43b6dd16d","system_id":"levelo_inurba_marseille","lat":43.30368,"lon":5.4247,"is_reserved":false,"is_disabled":false,"rental_uris":{"android":"levelo://app?vid=9f945758-9c31-4af1-844c-96a43b6dd16d","ios":"levelo://app?vid=9f945758-9c31-4af1-844c-96a43b6dd16d"},"vehicle_type_id":"4","last_reported":1744326593,"current_range_meters":14400,"station_id":"ce4bhoh2rcd13ifvqh6g","pricing_plan_id":"cebpf4jnsgd1na2vs0mg"},{"bike_id":"1daacdcc-35b4-4715-b3be-b0f19d2cc0dc","system_id":"levelo_inurba_marseille","lat":43.30098,"lon":5.39078,"is_reserved":false,"is_disabled":false,"rental_uris":{"android":"levelo://app?vid=1daacdcc-35b4-4715-b3be-b0f19d2cc0dc","ios":"levelo://app?vid=1daacdcc-35b4-4715-b3be-b0f19d2cc0dc"},"vehicle_type_id":"4","last_reported":1744326593,"current_range_meters":14400,"station_id":"ce4bh192rcd13ifvqdb0","pricing_plan_id":"cebpf4jnsgd1na2vs0mg"},{"bike_id":"a892d889-aa61-4cb5-8b7f-2797225bd9c4","system_id":"levelo_inurba_marseille","lat":43.26565,"lon":5.39022,"is_reserved":false,"is_disabled":false,"rental_uris":{"android":"levelo://app?vid=a892d889-aa61-4cb5-8b7f-2797225bd9c4","ios":"levelo://app?vid=a892d889-aa61-4cb5-8b7f-2797225bd9c4"},"vehicle_type_id":"4","last_reported":1744326593,"current_range_meters":14400,"station_id":"ce4bhe12rcd13ifvqf30","pricing_plan_id":"cebpf4jnsgd1na2vs0mg"},{"bike_id":"cf68458d-da7d-4985-bc37-139f1330d487","system_id":"levelo_inurba_marseille","lat":43.2833,"lon":5.38082,"is_reserved":false,"is_disabled":false,"rental_uris":{"android":"levelo://app?vid=cf68458d-da7d-4985-bc37-139f1330d487","ios":"levelo://app?vid=cf68458d-da7d-4985-bc37-139f1330d487"},"vehicle_type_id":"4","last_reported":1744326593,"current_range_meters":14800,"station_id":"ce4bh412rcd13ifvqdr0","pricing_plan_id":"cebpf4jnsgd1na2vs0mg"},{"bike_id":"078a6dc5-3c98-4f01-aecd-ecf8c0f132d9","system_id":"levelo_inurba_marseille","lat":43.30033,"lon":5.38463,"is_reserved":false,"is_disabled":true,"rental_uris":{"android":"levelo://app?vid=078a6dc5-3c98-4f01-aecd-ecf8c0f132d9","ios":"levelo://app?vid=078a6dc5-3c98-4f01-aecd-ecf8c0f132d9"},"vehicle_type_id":"4","last_reported":1744326593,"current_range_meters":14800,"station_id":"ce4bgj92rcd13ifvqbd0","pricing_plan_id":"cebpf4jnsgd1na2vs0mg"},{"bike_id":"da6a57ea-c38f-48a5-89c8-6054329a947b","system_id":"levelo_inurba_marseille","lat":43.2718,"lon":5.40992,"is_reserved":false,"is_disabled":false,"rental_uris":{"android":"levelo://app?vid=da6a57ea-c38f-48a5-89c8-6054329a947b","ios":"levelo://app?vid=da6a57ea-c38f-48a5-89c8-6054329a947b"},"vehicle_type_id":"4","last_reported":1744326593,"current_range_meters":15200,"station_id":"ce4bhl12rcd13ifvqgf0","pricing_plan_id":"cebpf4jnsgd1na2vs0mg"},{"bike_id":"a737f5db-dfb3-4dd8-aeff-67617975e190","system_id":"levelo_inurba_marseille","lat":43.295965,"lon":5.376966,"is_reserved":false,"is_disabled":true,"rental_uris":{"android":"levelo://app?vid=a737f5db-dfb3-4dd8-aeff-67617975e190","ios":"levelo://app?vid=a737f5db-dfb3-4dd8-aeff-67617975e190"},"vehicle_type_id":"4","last_reported":1744326593,"current_range_meters":15200,"station_id":"","pricing_plan_id":"cebpf4jnsgd1na2vs0mg"},{"bike_id":"23718e9a-5ce7-4d28-99a5-8f754f56e13c","system_id":"levelo_inurba_marseille","lat":43.22517,"lon":5.34783,"is_reserved":false,"is_disabled":false,"rental_uris":{"android":"levelo://app?vid=23718e9a-5ce7-4d28-99a5-8f754f56e13c","ios":"levelo://app?vid=23718e9a-5ce7-4d28-99a5-8f754f56e13c"},"vehicle_type_id":"4","last_reported":1744326593,"current_range_meters":15200,"station_id":"","pricing_plan_id":"cebpf4jnsgd1na2vs0mg"},{"bike_id":"88b76a37-b923-434f-94b0-a0e6250c97d1","system_id":"levelo_inurba_marseille","lat":43.30328,"lon":5.40444,"is_reserved":false,"is_disabled":false,"rental_uris":{"android":"levelo://app?vid=88b76a37-b923-434f-94b0-a0e6250c97d1","ios":"levelo://app?vid=88b76a37-b923-434f-94b0-a0e6250c97d1"},"vehicle_type_id":"4","last_reported":1744326593,"current_range_meters":15200,"station_id":"ce4bh012rcd13ifvqd10","pricing_plan_id":"cebpf4jnsgd1na2vs0mg"},{"bike_id":"8818531e-08c4-4822-b527-8b400f2b49f7","system_id":"levelo_inurba_marseille","lat":43.30575,"lon":5.37179,"is_reserved":false,"is_disabled":false,"rental_uris":{"android":"levelo://app?vid=8818531e-08c4-4822-b527-8b400f2b49f7","ios":"levelo://app?vid=8818531e-08c4-4822-b527-8b400f2b49f7"},"vehicle_type_id":"4","last_reported":1744326593,"current_range_meters":15200,"station_id":"ce4bgqh2rcd13ifvqc4g","pricing_plan_id":"cebpf4jnsgd1na2vs0mg"},{"bike_id":"cbea0485-fcaa-4f21-a34a-8a8f94c0d366","system_id":"levelo_inurba_marseille","lat":43.30889,"lon":5.39641,"is_reserved":false,"is_disabled":false,"rental_uris":{"android":"levelo://app?vid=cbea0485-fcaa-4f21-a34a-8a8f94c0d366","ios":"levelo://app?vid=cbea0485-fcaa-4f21-a34a-8a8f94c0d366"},"vehicle_type_id":"4","last_reported":1744326593,"current_range_meters":15200,"station_id":"ce4bh012rcd13ifvqcv0","pricing_plan_id":"cebpf4jnsgd1na2vs0mg"},{"bike_id":"fc3c06bd-10b3-4b3c-8f7f-8293a83125c6","system_id":"levelo_inurba_marseille","lat":43.28933,"lon":5.38411,"is_reserved":false,"is_disabled":false,"rental_uris":{"android":"levelo://app?vid=fc3c06bd-10b3-4b3c-8f7f-8293a83125c6","ios":"levelo://app?vid=fc3c06bd-10b3-4b3c-8f7f-8293a83125c6"},"vehicle_type_id":"4","last_reported":1744326593,"current_range_meters":15200,"station_id":"ce4bh612rcd13ifvqe6g","pricing_plan_id":"cebpf4jnsgd1na2vs0mg"},{"bike_id":"94455896-0f19-4fae-bd72-9879f01fcd6e","system_id":"levelo_inurba_marseille","lat":43.29534,"lon":5.42256,"is_reserved":false,"is_disabled":true,"rental_uris":{"android":"levelo://app?vid=94455896-0f19-4fae-bd72-9879f01fcd6e","ios":"levelo://app?vid=94455896-0f19-4fae-bd72-9879f01fcd6e"},"vehicle_type_id":"4","last_reported":1744326593,"current_range_meters":15200,"station_id":"ce4bhph2rcd13ifvqhdg","pricing_plan_id":"cebpf4jnsgd1na2vs0mg"},{"bike_id":"1a8675f7-96a5-4fc2-8fd4-53f39f26b59b","system_id":"levelo_inurba_marseille","lat":43.32397,"lon":5.38997,"is_reserved":false,"is_disabled":false,"rental_uris":{"android":"levelo://app?vid=1a8675f7-96a5-4fc2-8fd4-53f39f26b59b","ios":"levelo://app?vid=1a8675f7-96a5-4fc2-8fd4-53f39f26b59b"},"vehicle_type_id":"4","last_reported":1744326593,"current_range_meters":15200,"station_id":"ce4bhr12rcd13ifvqhqg","pricing_plan_id":"cebpf4jnsgd1na2vs0mg"},{"bike_id":"e2caf266-2651-477b-85a4-aac441bb46ab","system_id":"levelo_inurba_marseille","lat":43.28104,"lon":5.37838,"is_reserved":false,"is_disabled":false,"rental_uris":{"android":"levelo://app?vid=e2caf266-2651-477b-85a4-aac441bb46ab","ios":"levelo://app?vid=e2caf266-2651-477b-85a4-aac441bb46ab"},"vehicle_type_id":"4","last_reported":1744326593,"current_range_meters":15200,"station_id":"ce4bha12rcd13ifvqee0","pricing_plan_id":"cebpf4jnsgd1na2vs0mg"},{"bike_id":"d34a8cd8-7bde-4acd-808c-716ecd522a13","system_id":"levelo_inurba_marseille","lat":43.30579,"lon":5.37204,"is_reserved":false,"is_disabled":false,"rental_uris":{"android":"levelo://app?vid=d34a8cd8-7bde-4acd-808c-716ecd522a13","ios":"levelo://app?vid=d34a8cd8-7bde-4acd-808c-716ecd522a13"},"vehicle_type_id":"4","last_reported":1744326593,"current_range_meters":16000,"station_id":"ce4bgqh2rcd13ifvqc4g","pricing_plan_id":"cebpf4jnsgd1na2vs0mg"},{"bike_id":"e6f2667a-967d-45e2-b958-44177a82c2c2","system_id":"levelo_inurba_marseille","lat":43.27952,"lon":5.4104,"is_reserved":false,"is_disabled":false,"rental_uris":{"android":"levelo://app?vid=e6f2667a-967d-45e2-b958-44177a82c2c2","ios":"levelo://app?vid=e6f2667a-967d-45e2-b958-44177a82c2c2"},"vehicle_type_id":"4","last_reported":1744326593,"current_range_meters":16000,"station_id":"ce4bhnp2rcd13ifvqh0g","pricing_plan_id":"cebpf4jnsgd1na2vs0mg"},{"bike_id":"35230919-daa6-49d3-a6a8-cf3871852fdd","system_id":"levelo_inurba_marseille","lat":43.25138,"lon":5.40294,"is_reserved":false,"is_disabled":false,"rental_uris":{"android":"levelo://app?vid=35230919-daa6-49d3-a6a8-cf3871852fdd","ios":"levelo://app?vid=35230919-daa6-49d3-a6a8-cf3871852fdd"},"vehicle_type_id":"4","last_reported":1744326593,"current_range_meters":16000,"station_id":"ce4bhlh2rcd13ifvqgig","pricing_plan_id":"cebpf4jnsgd1na2vs0mg"},{"bike_id":"965f43a6-4a0d-40a9-b4ab-5ea8390b4769","system_id":"levelo_inurba_marseille","lat":43.23192,"lon":5.39989,"is_reserved":false,"is_disabled":false,"rental_uris":{"android":"levelo://app?vid=965f43a6-4a0d-40a9-b4ab-5ea8390b4769","ios":"levelo://app?vid=965f43a6-4a0d-40a9-b4ab-5ea8390b4769"},"vehicle_type_id":"4","last_reported":1744326593,"current_range_meters":16000,"station_id":"ce4bhn12rcd13ifvqgqg","pricing_plan_id":"cebpf4jnsgd1na2vs0mg"},{"bike_id":"467924d9-889a-4591-a26d-c954ba0abb33","system_id":"levelo_inurba_marseille","lat":43.32381,"lon":5.38992,"is_reserved":false,"is_disabled":false,"rental_uris":{"android":"levelo://app?vid=467924d9-889a-4591-a26d-c954ba0abb33","ios":"levelo://app?vid=467924d9-889a-4591-a26d-c954ba0abb33"},"vehicle_type_id":"4","last_reported":1744326593,"current_range_meters":16000,"station_id":"","pricing_plan_id":"cebpf4jnsgd1na2vs0mg"},{"bike_id":"463b41fd-37bb-48c0-a6e4-12f737a3d7cf","system_id":"levelo_inurba_marseille","lat":43.26983,"lon":5.40355,"is_reserved":false,"is_disabled":true,"rental_uris":{"android":"levelo://app?vid=463b41fd-37bb-48c0-a6e4-12f737a3d7cf","ios":"levelo://app?vid=463b41fd-37bb-48c0-a6e4-12f737a3d7cf"},"vehicle_type_id":"4","last_reported":1744326593,"current_range_meters":16000,"station_id":"cjm6bp8fraef2m0cb0m0","pricing_plan_id":"cebpf4jnsgd1na2vs0mg"},{"bike_id":"3fe74a06-60fb-4681-a399-ba020900065e","system_id":"levelo_inurba_marseille","lat":43.30262,"lon":5.40078,"is_reserved":false,"is_disabled":false,"rental_uris":{"android":"levelo://app?vid=3fe74a06-60fb-4681-a399-ba020900065e","ios":"levelo://app?vid=3fe74a06-60fb-4681-a399-ba020900065e"},"vehicle_type_id":"4","last_reported":1744326593,"current_range_meters":16000,"station_id":"ce4bgvh2rcd13ifvqcs0","pricing_plan_id":"cebpf4jnsgd1na2vs0mg"},{"bike_id":"923cd337-07e7-4598-88d9-f7475f9f2325","system_id":"levelo_inurba_marseille","lat":43.28105,"lon":5.37838,"is_reserved":false,"is_disabled":false,"rental_uris":{"android":"levelo://app?vid=923cd337-07e7-4598-88d9-f7475f9f2325","ios":"levelo://app?vid=923cd337-07e7-4598-88d9-f7475f9f2325"},"vehicle_type_id":"4","last_reported":1744326593,"current_range_meters":16000,"station_id":"ce4bha12rcd13ifvqee0","pricing_plan_id":"cebpf4jnsgd1na2vs0mg"},{"bike_id":"d1de17d8-8473-459c-ab85-65418194e22a","system_id":"levelo_inurba_marseille","lat":43.26572,"lon":5.390087,"is_reserved":false,"is_disabled":false,"rental_uris":{"android":"levelo://app?vid=d1de17d8-8473-459c-ab85-65418194e22a","ios":"levelo://app?vid=d1de17d8-8473-459c-ab85-65418194e22a"},"vehicle_type_id":"4","last_reported":1744326593,"current_range_meters":16000,"station_id":"ce4bhe12rcd13ifvqf30","pricing_plan_id":"cebpf4jnsgd1na2vs0mg"},{"bike_id":"0e71cfe5-d9f0-41e8-bfdf-03608f9bdb77","system_id":"levelo_inurba_marseille","lat":43.30934,"lon":5.40143,"is_reserved":false,"is_disabled":false,"rental_uris":{"android":"levelo://app?vid=0e71cfe5-d9f0-41e8-bfdf-03608f9bdb77","ios":"levelo://app?vid=0e71cfe5-d9f0-41e8-bfdf-03608f9bdb77"},"vehicle_type_id":"4","last_reported":1744326593,"current_range_meters":16000,"station_id":"ce4bgvp2rcd13ifvqct0","pricing_plan_id":"cebpf4jnsgd1na2vs0mg"},{"bike_id":"182650a6-9433-4951-80ba-44b6e3878dab","system_id":"levelo_inurba_marseille","lat":43.30537,"lon":5.38431,"is_reserved":false,"is_disabled":true,"rental_uris":{"android":"levelo://app?vid=182650a6-9433-4951-80ba-44b6e3878dab","ios":"levelo://app?vid=182650a6-9433-4951-80ba-44b6e3878dab"},"vehicle_type_id":"4","last_reported":1744326593,"current_range_meters":16000,"station_id":"ce4bgg92rcd13ifvqb30","pricing_plan_id":"cebpf4jnsgd1na2vs0mg"},{"bike_id":"b44f7c5a-872e-47cb-9231-cd7a4e8aad72","system_id":"levelo_inurba_marseille","lat":43.29697,"lon":5.36606,"is_reserved":false,"is_disabled":false,"rental_uris":{"android":"levelo://app?vid=b44f7c5a-872e-47cb-9231-cd7a4e8aad72","ios":"levelo://app?vid=b44f7c5a-872e-47cb-9231-cd7a4e8aad72"},"vehicle_type_id":"4","last_reported":1744326593,"current_range_meters":16000,"station_id":"ce4bgn12rcd13ifvqbt0","pricing_plan_id":"cebpf4jnsgd1na2vs0mg"},{"bike_id":"8805ec8a-501d-414a-afa7-02f93ec255f0","system_id":"levelo_inurba_marseille","lat":43.30818,"lon":5.3816,"is_reserved":false,"is_disabled":false,"rental_uris":{"android":"levelo://app?vid=8805ec8a-501d-414a-afa7-02f93ec255f0","ios":"levelo://app?vid=8805ec8a-501d-414a-afa7-02f93ec255f0"},"vehicle_type_id":"4","last_reported":1744326593,"current_range_meters":16400,"station_id":"ce4bgt12rcd13ifvqce0","pricing_plan_id":"cebpf4jnsgd1na2vs0mg"},{"bike_id":"6d1f80b1-80e0-4012-99d1-3f8172cadb63","system_id":"levelo_inurba_marseille","lat":43.2417,"lon":5.36417,"is_reserved":false,"is_disabled":false,"rental_uris":{"android":"levelo://app?vid=6d1f80b1-80e0-4012-99d1-3f8172cadb63","ios":"levelo://app?vid=6d1f80b1-80e0-4012-99d1-3f8172cadb63"},"vehicle_type_id":"4","last_reported":1744326593,"current_range_meters":16400,"station_id":"cpo36qri1sfpv3e86is0","pricing_plan_id":"cebpf4jnsgd1na2vs0mg"},{"bike_id":"d3d9cd65-8151-402d-bb2b-ab24c1581d73","system_id":"levelo_inurba_marseille","lat":43.32054,"lon":5.41552,"is_reserved":false,"is_disabled":false,"rental_uris":{"android":"levelo://app?vid=d3d9cd65-8151-402d-bb2b-ab24c1581d73","ios":"levelo://app?vid=d3d9cd65-8151-402d-bb2b-ab24c1581d73"},"vehicle_type_id":"4","last_reported":1744326593,"current_range_meters":16400,"station_id":"ce4bhq92rcd13ifvqhkg","pricing_plan_id":"cebpf4jnsgd1na2vs0mg"},{"bike_id":"8901bb4b-63ee-41d7-825f-22963c0e6b59","system_id":"levelo_inurba_marseille","lat":43.303279,"lon":5.404417,"is_reserved":false,"is_disabled":false,"rental_uris":{"android":"levelo://app?vid=8901bb4b-63ee-41d7-825f-22963c0e6b59","ios":"levelo://app?vid=8901bb4b-63ee-41d7-825f-22963c0e6b59"},"vehicle_type_id":"4","last_reported":1744326593,"current_range_meters":16400,"station_id":"ce4bh012rcd13ifvqd10","pricing_plan_id":"cebpf4jnsgd1na2vs0mg"},{"bike_id":"b5d145ef-c318-499a-b993-d97bcc53fbc2","system_id":"levelo_inurba_marseille","lat":43.31167,"lon":5.38717,"is_reserved":false,"is_disabled":false,"rental_uris":{"android":"levelo://app?vid=b5d145ef-c318-499a-b993-d97bcc53fbc2","ios":"levelo://app?vid=b5d145ef-c318-499a-b993-d97bcc53fbc2"},"vehicle_type_id":"4","last_reported":1744326593,"current_range_meters":16400,"station_id":"ce4bgv12rcd13ifvqcp0","pricing_plan_id":"cebpf4jnsgd1na2vs0mg"},{"bike_id":"97e1cf13-6cae-4046-8135-09aeffc329ab","system_id":"levelo_inurba_marseille","lat":43.287,"lon":5.37408,"is_reserved":false,"is_disabled":true,"rental_uris":{"android":"levelo://app?vid=97e1cf13-6cae-4046-8135-09aeffc329ab","ios":"levelo://app?vid=97e1cf13-6cae-4046-8135-09aeffc329ab"},"vehicle_type_id":"4","last_reported":1744326593,"current_range_meters":16800,"station_id":"ce4bh3p2rcd13ifvqdq0","pricing_plan_id":"cebpf4jnsgd1na2vs0mg"},{"bike_id":"627403f8-4468-4a41-8798-323347b58cc9","system_id":"levelo_inurba_marseille","lat":43.27179,"lon":5.40982,"is_reserved":false,"is_disabled":false,"rental_uris":{"android":"levelo://app?vid=627403f8-4468-4a41-8798-323347b58cc9","ios":"levelo://app?vid=627403f8-4468-4a41-8798-323347b58cc9"},"vehicle_type_id":"4","last_reported":1744326593,"current_range_meters":16800,"station_id":"ce4bhl12rcd13ifvqgf0","pricing_plan_id":"cebpf4jnsgd1na2vs0mg"},{"bike_id":"b093352d-524d-4b3f-8621-9f8b15076acd","system_id":"levelo_inurba_marseille","lat":43.28485,"lon":5.38423,"is_reserved":false,"is_disabled":false,"rental_uris":{"android":"levelo://app?vid=b093352d-524d-4b3f-8621-9f8b15076acd","ios":"levelo://app?vid=b093352d-524d-4b3f-8621-9f8b15076acd"},"vehicle_type_id":"4","last_reported":1744326593,"current_range_meters":16800,"station_id":"ce4bh512rcd13ifvqe3g","pricing_plan_id":"cebpf4jnsgd1na2vs0mg"},{"bike_id":"9589476e-f9ed-406f-9128-3849603c1def","system_id":"levelo_inurba_marseille","lat":43.29886,"lon":5.38908,"is_reserved":false,"is_disabled":false,"rental_uris":{"android":"levelo://app?vid=9589476e-f9ed-406f-9128-3849603c1def","ios":"levelo://app?vid=9589476e-f9ed-406f-9128-3849603c1def"},"vehicle_type_id":"4","last_reported":1744326593,"current_range_meters":16800,"station_id":"ce4bh392rcd13ifvqdl0","pricing_plan_id":"cebpf4jnsgd1na2vs0mg"},{"bike_id":"549918be-d79a-4899-a870-6473907900ee","system_id":"levelo_inurba_marseille","lat":43.29853,"lon":5.36283,"is_reserved":false,"is_disabled":true,"rental_uris":{"android":"levelo://app?vid=549918be-d79a-4899-a870-6473907900ee","ios":"levelo://app?vid=549918be-d79a-4899-a870-6473907900ee"},"vehicle_type_id":"4","last_reported":1744326593,"current_range_meters":16800,"station_id":"ce4bgpp2rcd13ifvqc3g","pricing_plan_id":"cebpf4jnsgd1na2vs0mg"},{"bike_id":"09b23838-ef8a-400d-9175-f211d64a4290","system_id":"levelo_inurba_marseille","lat":43.25717,"lon":5.41043,"is_reserved":false,"is_disabled":false,"rental_uris":{"android":"levelo://app?vid=09b23838-ef8a-400d-9175-f211d64a4290","ios":"levelo://app?vid=09b23838-ef8a-400d-9175-f211d64a4290"},"vehicle_type_id":"4","last_reported":1744326593,"current_range_meters":16800,"station_id":"ce4bhkp2rcd13ifvqgd0","pricing_plan_id":"cebpf4jnsgd1na2vs0mg"},{"bike_id":"9231697b-6013-4739-8145-946afd92531f","system_id":"levelo_inurba_marseille","lat":43.30036,"lon":5.39993,"is_reserved":false,"is_disabled":false,"rental_uris":{"android":"levelo://app?vid=9231697b-6013-4739-8145-946afd92531f","ios":"levelo://app?vid=9231697b-6013-4739-8145-946afd92531f"},"vehicle_type_id":"4","last_reported":1744326593,"current_range_meters":16800,"station_id":"","pricing_plan_id":"cebpf4jnsgd1na2vs0mg"},{"bike_id":"1b28a96e-ff57-4bf5-85d0-8da089b3d3cd","system_id":"levelo_inurba_marseille","lat":43.26687,"lon":5.38265,"is_reserved":false,"is_disabled":true,"rental_uris":{"android":"levelo://app?vid=1b28a96e-ff57-4bf5-85d0-8da089b3d3cd","ios":"levelo://app?vid=1b28a96e-ff57-4bf5-85d0-8da089b3d3cd"},"vehicle_type_id":"4","last_reported":1744326593,"current_range_meters":16800,"station_id":"ce4bhg92rcd13ifvqf90","pricing_plan_id":"cebpf4jnsgd1na2vs0mg"},{"bike_id":"f67d7abe-c297-4957-b269-6e3ec729c773","system_id":"levelo_inurba_marseille","lat":43.27827,"lon":5.39202,"is_reserved":false,"is_disabled":false,"rental_uris":{"android":"levelo://app?vid=f67d7abe-c297-4957-b269-6e3ec729c773","ios":"levelo://app?vid=f67d7abe-c297-4957-b269-6e3ec729c773"},"vehicle_type_id":"4","last_reported":1744326593,"current_range_meters":16800,"station_id":"ce4bhjp2rcd13ifvqga0","pricing_plan_id":"cebpf4jnsgd1na2vs0mg"},{"bike_id":"4eb301e2-77f1-4208-aa3a-82260449b4aa","system_id":"levelo_inurba_marseille","lat":43.30949,"lon":5.40127,"is_reserved":false,"is_disabled":false,"rental_uris":{"android":"levelo://app?vid=4eb301e2-77f1-4208-aa3a-82260449b4aa","ios":"levelo://app?vid=4eb301e2-77f1-4208-aa3a-82260449b4aa"},"vehicle_type_id":"4","last_reported":1744326593,"current_range_meters":16800,"station_id":"ce4bgvp2rcd13ifvqct0","pricing_plan_id":"cebpf4jnsgd1na2vs0mg"},{"bike_id":"7dae892c-e628-48ac-a4f7-362869bb9d1b","system_id":"levelo_inurba_marseille","lat":43.30917,"lon":5.40155,"is_reserved":false,"is_disabled":false,"rental_uris":{"android":"levelo://app?vid=7dae892c-e628-48ac-a4f7-362869bb9d1b","ios":"levelo://app?vid=7dae892c-e628-48ac-a4f7-362869bb9d1b"},"vehicle_type_id":"4","last_reported":1744326593,"current_range_meters":16800,"station_id":"ce4bgvp2rcd13ifvqct0","pricing_plan_id":"cebpf4jnsgd1na2vs0mg"},{"bike_id":"736eddc2-3840-4903-8185-09191dc96ccf","system_id":"levelo_inurba_marseille","lat":43.287019,"lon":5.399815,"is_reserved":false,"is_disabled":false,"rental_uris":{"android":"levelo://app?vid=736eddc2-3840-4903-8185-09191dc96ccf","ios":"levelo://app?vid=736eddc2-3840-4903-8185-09191dc96ccf"},"vehicle_type_id":"4","last_reported":1744326593,"current_range_meters":16800,"station_id":"ce4bho92rcd13ifvqh3g","pricing_plan_id":"cebpf4jnsgd1na2vs0mg"},{"bike_id":"586d4bfc-c6e9-40ef-a5b4-76722cbc0f98","system_id":"levelo_inurba_marseille","lat":43.26803,"lon":5.402707,"is_reserved":false,"is_disabled":false,"rental_uris":{"android":"levelo://app?vid=586d4bfc-c6e9-40ef-a5b4-76722cbc0f98","ios":"levelo://app?vid=586d4bfc-c6e9-40ef-a5b4-76722cbc0f98"},"vehicle_type_id":"4","last_reported":1744326593,"current_range_meters":17200,"station_id":"ce501612rcd8frsf0b60","pricing_plan_id":"cebpf4jnsgd1na2vs0mg"},{"bike_id":"af97b660-61b6-4112-b666-cabde640725e","system_id":"levelo_inurba_marseille","lat":43.29917,"lon":5.37466,"is_reserved":false,"is_disabled":false,"rental_uris":{"android":"levelo://app?vid=af97b660-61b6-4112-b666-cabde640725e","ios":"levelo://app?vid=af97b660-61b6-4112-b666-cabde640725e"},"vehicle_type_id":"4","last_reported":1744326593,"current_range_meters":17200,"station_id":"ce4bgjh2rcd13ifvqbg0","pricing_plan_id":"cebpf4jnsgd1na2vs0mg"},{"bike_id":"88168c56-d263-4aae-a0c4-0de1c2e22b65","system_id":"levelo_inurba_marseille","lat":43.28714,"lon":5.39988,"is_reserved":false,"is_disabled":false,"rental_uris":{"android":"levelo://app?vid=88168c56-d263-4aae-a0c4-0de1c2e22b65","ios":"levelo://app?vid=88168c56-d263-4aae-a0c4-0de1c2e22b65"},"vehicle_type_id":"4","last_reported":1744326593,"current_range_meters":17200,"station_id":"ce4bho92rcd13ifvqh3g","pricing_plan_id":"cebpf4jnsgd1na2vs0mg"},{"bike_id":"0a12228f-61f9-48c1-9f2f-bd8159dce7a6","system_id":"levelo_inurba_marseille","lat":43.261874,"lon":5.374576,"is_reserved":false,"is_disabled":true,"rental_uris":{"android":"levelo://app?vid=0a12228f-61f9-48c1-9f2f-bd8159dce7a6","ios":"levelo://app?vid=0a12228f-61f9-48c1-9f2f-bd8159dce7a6"},"vehicle_type_id":"4","last_reported":1744326593,"current_range_meters":17200,"station_id":"ce4bhgp2rcd13ifvqfc0","pricing_plan_id":"cebpf4jnsgd1na2vs0mg"},{"bike_id":"3cc21430-ad05-4c1f-ae42-1925c305c6c3","system_id":"levelo_inurba_marseille","lat":43.281003,"lon":5.378354,"is_reserved":false,"is_disabled":false,"rental_uris":{"android":"levelo://app?vid=3cc21430-ad05-4c1f-ae42-1925c305c6c3","ios":"levelo://app?vid=3cc21430-ad05-4c1f-ae42-1925c305c6c3"},"vehicle_type_id":"4","last_reported":1744326593,"current_range_meters":17200,"station_id":"ce4bha12rcd13ifvqee0","pricing_plan_id":"cebpf4jnsgd1na2vs0mg"},{"bike_id":"5e7d0457-f5ee-4493-97f8-5a21f1298ee9","system_id":"levelo_inurba_marseille","lat":43.306488,"lon":5.401374,"is_reserved":false,"is_disabled":false,"rental_uris":{"android":"levelo://app?vid=5e7d0457-f5ee-4493-97f8-5a21f1298ee9","ios":"levelo://app?vid=5e7d0457-f5ee-4493-97f8-5a21f1298ee9"},"vehicle_type_id":"4","last_reported":1744326593,"current_range_meters":17200,"station_id":"ce4bh112rcd13ifvqda0","pricing_plan_id":"cebpf4jnsgd1na2vs0mg"},{"bike_id":"55f56f92-131a-48ea-be0d-6935144846b3","system_id":"levelo_inurba_marseille","lat":43.31078,"lon":5.42438,"is_reserved":false,"is_disabled":false,"rental_uris":{"android":"levelo://app?vid=55f56f92-131a-48ea-be0d-6935144846b3","ios":"levelo://app?vid=55f56f92-131a-48ea-be0d-6935144846b3"},"vehicle_type_id":"4","last_reported":1744326593,"current_range_meters":17200,"station_id":"ce4bhp92rcd13ifvqhag","pricing_plan_id":"cebpf4jnsgd1na2vs0mg"},{"bike_id":"cd5cd798-03bf-4411-a16f-e7360d877391","system_id":"levelo_inurba_marseille","lat":43.27929,"lon":5.41064,"is_reserved":false,"is_disabled":false,"rental_uris":{"android":"levelo://app?vid=cd5cd798-03bf-4411-a16f-e7360d877391","ios":"levelo://app?vid=cd5cd798-03bf-4411-a16f-e7360d877391"},"vehicle_type_id":"4","last_reported":1744326593,"current_range_meters":17200,"station_id":"ce4bhnp2rcd13ifvqh0g","pricing_plan_id":"cebpf4jnsgd1na2vs0mg"},{"bike_id":"a14445a7-8352-4579-b436-c4c39505d461","system_id":"levelo_inurba_marseille","lat":43.31325,"lon":5.39684,"is_reserved":false,"is_disabled":false,"rental_uris":{"android":"levelo://app?vid=a14445a7-8352-4579-b436-c4c39505d461","ios":"levelo://app?vid=a14445a7-8352-4579-b436-c4c39505d461"},"vehicle_type_id":"4","last_reported":1744326593,"current_range_meters":17200,"station_id":"ce4bgvp2rcd13ifvqcu0","pricing_plan_id":"cebpf4jnsgd1na2vs0mg"},{"bike_id":"1970d16b-6905-4f7f-b9bc-76881e34f784","system_id":"levelo_inurba_marseille","lat":43.29059,"lon":5.3717,"is_reserved":false,"is_disabled":false,"rental_uris":{"android":"levelo://app?vid=1970d16b-6905-4f7f-b9bc-76881e34f784","ios":"levelo://app?vid=1970d16b-6905-4f7f-b9bc-76881e34f784"},"vehicle_type_id":"4","last_reported":1744326593,"current_range_meters":17200,"station_id":"ce4bh5p2rcd13ifvqe4g","pricing_plan_id":"cebpf4jnsgd1na2vs0mg"},{"bike_id":"6596d3ef-1fb1-4021-b608-c5c3a532ea65","system_id":"levelo_inurba_marseille","lat":43.30638,"lon":5.4008,"is_reserved":false,"is_disabled":false,"rental_uris":{"android":"levelo://app?vid=6596d3ef-1fb1-4021-b608-c5c3a532ea65","ios":"levelo://app?vid=6596d3ef-1fb1-4021-b608-c5c3a532ea65"},"vehicle_type_id":"4","last_reported":1744326593,"current_range_meters":17600,"station_id":"ce4bh112rcd13ifvqda0","pricing_plan_id":"cebpf4jnsgd1na2vs0mg"},{"bike_id":"062b1ee1-d059-4792-8f14-745a52fbbd9b","system_id":"levelo_inurba_marseille","lat":43.30923,"lon":5.40159,"is_reserved":false,"is_disabled":false,"rental_uris":{"android":"levelo://app?vid=062b1ee1-d059-4792-8f14-745a52fbbd9b","ios":"levelo://app?vid=062b1ee1-d059-4792-8f14-745a52fbbd9b"},"vehicle_type_id":"4","last_reported":1744326593,"current_range_meters":17600,"station_id":"ce4bgvp2rcd13ifvqct0","pricing_plan_id":"cebpf4jnsgd1na2vs0mg"},{"bike_id":"7d3b44e2-e41b-45a7-b28a-d5034c0720d0","system_id":"levelo_inurba_marseille","lat":43.29006,"lon":5.39991,"is_reserved":false,"is_disabled":false,"rental_uris":{"android":"levelo://app?vid=7d3b44e2-e41b-45a7-b28a-d5034c0720d0","ios":"levelo://app?vid=7d3b44e2-e41b-45a7-b28a-d5034c0720d0"},"vehicle_type_id":"4","last_reported":1744326593,"current_range_meters":17600,"station_id":"ce4bh392rcd13ifvqdm0","pricing_plan_id":"cebpf4jnsgd1na2vs0mg"},{"bike_id":"872c2c56-2ca2-429f-bf74-abf0a69eeaca","system_id":"levelo_inurba_marseille","lat":43.30452,"lon":5.38908,"is_reserved":false,"is_disabled":false,"rental_uris":{"android":"levelo://app?vid=872c2c56-2ca2-429f-bf74-abf0a69eeaca","ios":"levelo://app?vid=872c2c56-2ca2-429f-bf74-abf0a69eeaca"},"vehicle_type_id":"4","last_reported":1744326593,"current_range_meters":17600,"station_id":"ce4bgk12rcd13ifvqbi0","pricing_plan_id":"cebpf4jnsgd1na2vs0mg"},{"bike_id":"c8552130-95bb-4240-8124-6420637dba94","system_id":"levelo_inurba_marseille","lat":43.28437,"lon":5.39212,"is_reserved":false,"is_disabled":false,"rental_uris":{"android":"levelo://app?vid=c8552130-95bb-4240-8124-6420637dba94","ios":"levelo://app?vid=c8552130-95bb-4240-8124-6420637dba94"},"vehicle_type_id":"4","last_reported":1744326593,"current_range_meters":17600,"station_id":"ce4bhoh2rcd13ifvqh5g","pricing_plan_id":"cebpf4jnsgd1na2vs0mg"},{"bike_id":"05f5c1d3-b643-4332-8073-2612ab9269a7","system_id":"levelo_inurba_marseille","lat":43.24548,"lon":5.39522,"is_reserved":false,"is_disabled":false,"rental_uris":{"android":"levelo://app?vid=05f5c1d3-b643-4332-8073-2612ab9269a7","ios":"levelo://app?vid=05f5c1d3-b643-4332-8073-2612ab9269a7"},"vehicle_type_id":"4","last_reported":1744326593,"current_range_meters":17600,"station_id":"ce4bhlp2rcd13ifvqgjg","pricing_plan_id":"cebpf4jnsgd1na2vs0mg"},{"bike_id":"2fc6ed43-afa6-4e15-8298-b996520ea1cf","system_id":"levelo_inurba_marseille","lat":43.30949,"lon":5.39036,"is_reserved":false,"is_disabled":false,"rental_uris":{"android":"levelo://app?vid=2fc6ed43-afa6-4e15-8298-b996520ea1cf","ios":"levelo://app?vid=2fc6ed43-afa6-4e15-8298-b996520ea1cf"},"vehicle_type_id":"4","last_reported":1744326593,"current_range_meters":18000,"station_id":"ce4bgup2rcd13ifvqco0","pricing_plan_id":"cebpf4jnsgd1na2vs0mg"},{"bike_id":"154a90c3-ac51-4671-9041-26e3a00be192","system_id":"levelo_inurba_marseille","lat":43.297025,"lon":5.391415,"is_reserved":false,"is_disabled":false,"rental_uris":{"android":"levelo://app?vid=154a90c3-ac51-4671-9041-26e3a00be192","ios":"levelo://app?vid=154a90c3-ac51-4671-9041-26e3a00be192"},"vehicle_type_id":"4","last_reported":1744326593,"current_range_meters":18000,"station_id":"","pricing_plan_id":"cebpf4jnsgd1na2vs0mg"},{"bike_id":"ef291804-1477-432e-b153-82ea15725418","system_id":"levelo_inurba_marseille","lat":43.33742,"lon":5.37454,"is_reserved":false,"is_disabled":false,"rental_uris":{"android":"levelo://app?vid=ef291804-1477-432e-b153-82ea15725418","ios":"levelo://app?vid=ef291804-1477-432e-b153-82ea15725418"},"vehicle_type_id":"4","last_reported":1744326593,"current_range_meters":18000,"station_id":"","pricing_plan_id":"cebpf4jnsgd1na2vs0mg"},{"bike_id":"4c893399-b4ed-40ed-a49f-713da320f269","system_id":"levelo_inurba_marseille","lat":43.29861,"lon":5.37841,"is_reserved":false,"is_disabled":false,"rental_uris":{"android":"levelo://app?vid=4c893399-b4ed-40ed-a49f-713da320f269","ios":"levelo://app?vid=4c893399-b4ed-40ed-a49f-713da320f269"},"vehicle_type_id":"4","last_reported":1744326593,"current_range_meters":18000,"station_id":"","pricing_plan_id":"cebpf4jnsgd1na2vs0mg"},{"bike_id":"8c58f2fa-99e1-41f8-bf90-9c1648b679b1","system_id":"levelo_inurba_marseille","lat":43.27305,"lon":5.41429,"is_reserved":false,"is_disabled":false,"rental_uris":{"android":"levelo://app?vid=8c58f2fa-99e1-41f8-bf90-9c1648b679b1","ios":"levelo://app?vid=8c58f2fa-99e1-41f8-bf90-9c1648b679b1"},"vehicle_type_id":"4","last_reported":1744326593,"current_range_meters":18000,"station_id":"","pricing_plan_id":"cebpf4jnsgd1na2vs0mg"},{"bike_id":"3c30d560-4424-42f3-861d-9100e4177d69","system_id":"levelo_inurba_marseille","lat":43.29853,"lon":5.39763,"is_reserved":false,"is_disabled":false,"rental_uris":{"android":"levelo://app?vid=3c30d560-4424-42f3-861d-9100e4177d69","ios":"levelo://app?vid=3c30d560-4424-42f3-861d-9100e4177d69"},"vehicle_type_id":"4","last_reported":1744326593,"current_range_meters":18000,"station_id":"ce4bh0h2rcd13ifvqd50","pricing_plan_id":"cebpf4jnsgd1na2vs0mg"},{"bike_id":"60f36dfd-b831-4787-95ef-4ddcce1ea764","system_id":"levelo_inurba_marseille","lat":43.28912,"lon":5.36415,"is_reserved":false,"is_disabled":false,"rental_uris":{"android":"levelo://app?vid=60f36dfd-b831-4787-95ef-4ddcce1ea764","ios":"levelo://app?vid=60f36dfd-b831-4787-95ef-4ddcce1ea764"},"vehicle_type_id":"4","last_reported":1744326593,"current_range_meters":18000,"station_id":"ce4bhc92rcd13ifvqetg","pricing_plan_id":"cebpf4jnsgd1na2vs0mg"},{"bike_id":"8d3eb705-ec51-4a50-b52e-ea56baf35fbf","system_id":"levelo_inurba_marseille","lat":43.3025,"lon":5.4006,"is_reserved":false,"is_disabled":false,"rental_uris":{"android":"levelo://app?vid=8d3eb705-ec51-4a50-b52e-ea56baf35fbf","ios":"levelo://app?vid=8d3eb705-ec51-4a50-b52e-ea56baf35fbf"},"vehicle_type_id":"4","last_reported":1744326593,"current_range_meters":18800,"station_id":"ce4bgvh2rcd13ifvqcs0","pricing_plan_id":"cebpf4jnsgd1na2vs0mg"},{"bike_id":"eb137e41-b7c3-4dbb-8c1a-f2852147a346","system_id":"levelo_inurba_marseille","lat":43.31262,"lon":5.40159,"is_reserved":false,"is_disabled":false,"rental_uris":{"android":"levelo://app?vid=eb137e41-b7c3-4dbb-8c1a-f2852147a346","ios":"levelo://app?vid=eb137e41-b7c3-4dbb-8c1a-f2852147a346"},"vehicle_type_id":"4","last_reported":1744326593,"current_range_meters":18800,"station_id":"ce4bh092rcd13ifvqd30","pricing_plan_id":"cebpf4jnsgd1na2vs0mg"},{"bike_id":"54a7d26a-c5f8-4008-b945-bcc5a036c746","system_id":"levelo_inurba_marseille","lat":43.2333,"lon":5.3617,"is_reserved":false,"is_disabled":false,"rental_uris":{"android":"levelo://app?vid=54a7d26a-c5f8-4008-b945-bcc5a036c746","ios":"levelo://app?vid=54a7d26a-c5f8-4008-b945-bcc5a036c746"},"vehicle_type_id":"4","last_reported":1744326593,"current_range_meters":18800,"station_id":"","pricing_plan_id":"cebpf4jnsgd1na2vs0mg"},{"bike_id":"97a21398-98b0-422e-9e04-3dac82a3cb35","system_id":"levelo_inurba_marseille","lat":43.24813,"lon":5.37449,"is_reserved":false,"is_disabled":false,"rental_uris":{"android":"levelo://app?vid=97a21398-98b0-422e-9e04-3dac82a3cb35","ios":"levelo://app?vid=97a21398-98b0-422e-9e04-3dac82a3cb35"},"vehicle_type_id":"4","last_reported":1744326593,"current_range_meters":18800,"station_id":"ce4bhgh2rcd13ifvqfb0","pricing_plan_id":"cebpf4jnsgd1na2vs0mg"},{"bike_id":"1167028c-7459-4619-b0df-13900c4ef2cf","system_id":"levelo_inurba_marseille","lat":43.35276,"lon":5.36412,"is_reserved":false,"is_disabled":false,"rental_uris":{"android":"levelo://app?vid=1167028c-7459-4619-b0df-13900c4ef2cf","ios":"levelo://app?vid=1167028c-7459-4619-b0df-13900c4ef2cf"},"vehicle_type_id":"4","last_reported":1744326593,"current_range_meters":18800,"station_id":"","pricing_plan_id":"cebpf4jnsgd1na2vs0mg"},