{"last_updated":1687190895,"ttl":30,"version":"2.2","data":{"bikes":[{"bike_id":"2fa450df-24e1-4d42-86f0-a96447b3f4fe","system_id":"levelo_inurba_marseille","lat":43.231562,"lon":5.436933,"is_reserved":false,"is_disabled":false,"rental_uris":{"android":"levelo://app?vid=2fa450df-24e1-4d42-86f0-a96447b3f4fe","ios":"levelo://app?vid=2fa450df-24e1-4d42-86f0-a96447b3f4fe"},"vehicle_type_id":"4","last_reported":1687190896,"current_range_meters":0,"station_id":"ce4bhmp2rcd13ifvqgog","pricing_plan_id":"free"},{"bike_id":"718a6536-34ad-4af0-b40f-4d22fecff928","system_id":"levelo_inurba_marseille","lat":43.312239,"lon":5.368562,"is_reserved":false,"is_disabled":false,"rental_uris":{"android":"levelo://app?vid=718a6536-34ad-4af0-b40f-4d22fecff928","ios":"levelo://app?vid=718a6536-34ad-4af0-b40f-4d22fecff928"},"vehicle_type_id":"4","last_reported":1687190896,"current_range_meters":26400,"station_id":"ce4bgl92rcd13ifvqbq0","pricing_plan_id":"free"},{"bike_id":"cc940c6d-7f6b-4634-8ea7-dcc39bd990b4","system_id":"levelo_inurba_marseille","lat":43.309076,"lon":5.368465,"is_reserved":false,"is_disabled":false,"rental_uris":{"android":"levelo://app?vid=cc940c6d-7f6b-4634-8ea7-dcc39bd990b4","ios":"levelo://app?vid=cc940c6d-7f6b-4634-8ea7-dcc39bd990b4"},"vehicle_type_id":"4","last_reported":1687190896,"current_range_meters":16800,"station_id":"ce4bgn92rcd13ifvqbvg","pricing_plan_id":"free"},{"bike_id":"4cfed2f9-bd4b-4ac7-bfd3-22510e81b360","system_id":"levelo_inurba_marseille","lat":43.309076,"lon":5.368465,"is_reserved":false,"is_disabled":false,"rental_uris":{"android":"levelo://app?vid=4cfed2f9-bd4b-4ac7-bfd3-22510e81b360","ios":"levelo://app?vid=4cfed2f9-bd4b-4ac7-bfd3-22510e81b360"},"vehicle_type_id":"4","last_reported":1687190896,"current_range_meters":0,"station_id":"ce4bgn92rcd13ifvqbvg","pricing_plan_id":"free"},{"bike_id":"910ff227-e1a3-4406-a598-2a9239588e39","system_id":"levelo_inurba_marseille","lat":43.314811,"lon":5.373103,"is_reserved":false,"is_disabled":false,"rental_uris":{"android":"levelo://app?vid=910ff227-e1a3-4406-a598-2a9239588e39","ios":"levelo://app?vid=910ff227-e1a3-4406-a598-2a9239588e39"},"vehicle_type_id":"4","last_reported":1687190896,"current_range_meters":10000,"station_id":"ce4bgt12rcd13ifvqcd0","pricing_plan_id":"free"},{"bike_id":"07abbc83-e872-4036-95c4-11ce1b5e5a3f","system_id":"levelo_inurba_marseille","lat":43.30896,"lon":5.37202,"is_reserved":false,"is_disabled":false,"rental_uris":{"android":"levelo://app?vid=07abbc83-e872-4036-95c4-11ce1b5e5a3f","ios":"levelo://app?vid=07abbc83-e872-4036-95c4-11ce1b5e5a3f"},"vehicle_type_id":"4","last_reported":1687190896,"current_range_meters":11600,"station_id":"","pricing_plan_id":"free"},{"bike_id":"d46d57ac-84c1-4ba1-a65f-141ecd0bf695","system_id":"levelo_inurba_marseille","lat":43.30889,"lon":5.37193,"is_reserved":false,"is_disabled":false,"rental_uris":{"android":"levelo://app?vid=d46d57ac-84c1-4ba1-a65f-141ecd0bf695","ios":"levelo://app?vid=d46d57ac-84c1-4ba1-a65f-141ecd0bf695"},"vehicle_type_id":"4","last_reported":1687190896,"current_range_meters":18000,"station_id":"ce4bguh2rcd13ifvqckg","pricing_plan_id":"free"},{"bike_id":"54de3d32-20e9-42f6-a0bb-ef4a70854850","system_id":"levelo_inurba_marseille","lat":43.305714,"lon":5.365633,"is_reserved":false,"is_disabled":false,"rental_uris":{"android":"levelo://app?vid=54de3d32-20e9-42f6-a0bb-ef4a70854850","ios":"levelo://app?vid=54de3d32-20e9-42f6-a0bb-ef4a70854850"},"vehicle_type_id":"4","last_reported":1687190896,"current_range_meters":29200,"station_id":"ce4bgs12rcd13ifvqcag","pricing_plan_id":"free"},{"bike_id":"1c56d66c-92ac-43af-9196-08f3f9d48f89","system_id":"levelo_inurba_marseille","lat":43.305706,"lon":5.365654,"is_reserved":false,"is_disabled":false,"rental_uris":{"android":"levelo://app?vid=1c56d66c-92ac-43af-9196-08f3f9d48f89","ios":"levelo://app?vid=1c56d66c-92ac-43af-9196-08f3f9d48f89"},"vehicle_type_id":"4","last_reported":1687190896,"current_range_meters":26800,"station_id":"ce4bgs12rcd13ifvqcag","pricing_plan_id":"free"},{"bike_id":"fcbc6b8a-363b-4fe0-9021-91c6f166e92f","system_id":"levelo_inurba_marseille","lat":43.30626,"lon":5.37217,"is_reserved":false,"is_disabled":false,"rental_uris":{"android":"levelo://app?vid=fcbc6b8a-363b-4fe0-9021-91c6f166e92f","ios":"levelo://app?vid=fcbc6b8a-363b-4fe0-9021-91c6f166e92f"},"vehicle_type_id":"4","last_reported":1687190896,"current_range_meters":18000,"station_id":"ce4bgqh2rcd13ifvqc4g","pricing_plan_id":"free"},{"bike_id":"219acdc6-4063-4a93-ab81-824ce9e4824b","system_id":"levelo_inurba_marseille","lat":43.305989,"lon":5.37225,"is_reserved":false,"is_disabled":false,"rental_uris":{"android":"levelo://app?vid=219acdc6-4063-4a93-ab81-824ce9e4824b","ios":"levelo://app?vid=219acdc6-4063-4a93-ab81-824ce9e4824b"},"vehicle_type_id":"4","last_reported":1687190896,"current_range_meters":2000,"station_id":"ce4bgqh2rcd13ifvqc4g","pricing_plan_id":"free"},{"bike_id":"6eb2d025-77f2-46fb-a6de-ba5fdf1407cf","system_id":"levelo_inurba_marseille","lat":43.31902,"lon":5.3732,"is_reserved":false,"is_disabled":false,"rental_uris":{"android":"levelo://app?vid=6eb2d025-77f2-46fb-a6de-ba5fdf1407cf","ios":"levelo://app?vid=6eb2d025-77f2-46fb-a6de-ba5fdf1407cf"},"vehicle_type_id":"4","last_reported":1687190896,"current_range_meters":0,"station_id":"","pricing_plan_id":"free"},{"bike_id":"ca8c092e-c9a0-4f25-8a5f-441aa76134fe","system_id":"levelo_inurba_marseille","lat":43.305989,"lon":5.37225,"is_reserved":false,"is_disabled":false,"rental_uris":{"android":"levelo://app?vid=ca8c092e-c9a0-4f25-8a5f-441aa76134fe","ios":"levelo://app?vid=ca8c092e-c9a0-4f25-8a5f-441aa76134fe"},"vehicle_type_id":"4","last_reported":1687190896,"current_range_meters":800,"station_id":"ce4bgqh2rcd13ifvqc4g","pricing_plan_id":"free"},{"bike_id":"93e3230a-24ac-4930-91d0-880b95c95333","system_id":"levelo_inurba_marseille","lat":43.311131,"lon":5.377651,"is_reserved":false,"is_disabled":false,"rental_uris":{"android":"levelo://app?vid=93e3230a-24ac-4930-91d0-880b95c95333","ios":"levelo://app?vid=93e3230a-24ac-4930-91d0-880b95c95333"},"vehicle_type_id":"4","last_reported":1687190896,"current_range_meters":31200,"station_id":"ce4bgt92rcd13ifvqcg0","pricing_plan_id":"free"},{"bike_id":"e5735cff-469a-47db-9ca3-14d970cc1cff","system_id":"levelo_inurba_marseille","lat":43.31124,"lon":5.37767,"is_reserved":false,"is_disabled":false,"rental_uris":{"android":"levelo://app?vid=e5735cff-469a-47db-9ca3-14d970cc1cff","ios":"levelo://app?vid=e5735cff-469a-47db-9ca3-14d970cc1cff"},"vehicle_type_id":"4","last_reported":1687190896,"current_range_meters":800,"station_id":"ce4bgt92rcd13ifvqcg0","pricing_plan_id":"free"},{"bike_id":"5a7dcb7e-3036-4ac9-bc79-25d7f22897c3","system_id":"levelo_inurba_marseille","lat":43.311131,"lon":5.377651,"is_reserved":false,"is_disabled":false,"rental_uris":{"android":"levelo://app?vid=5a7dcb7e-3036-4ac9-bc79-25d7f22897c3","ios":"levelo://app?vid=5a7dcb7e-3036-4ac9-bc79-25d7f22897c3"},"vehicle_type_id":"4","last_reported":1687190896,"current_range_meters":28000,"station_id":"ce4bgt92rcd13ifvqcg0","pricing_plan_id":"free"},{"bike_id":"212b682e-75bd-4fcf-93cf-3d8a990c17f0","system_id":"levelo_inurba_marseille","lat":43.31121,"lon":5.37783,"is_reserved":false,"is_disabled":false,"rental_uris":{"android":"levelo://app?vid=212b682e-75bd-4fcf-93cf-3d8a990c17f0","ios":"levelo://app?vid=212b682e-75bd-4fcf-93cf-3d8a990c17f0"},"vehicle_type_id":"4","last_reported":1687190896,"current_range_meters":0,"station_id":"ce4bgt92rcd13ifvqcg0","pricing_plan_id":"free"},{"bike_id":"e394e8a3-8395-4593-825c-5dec0d725b94","system_id":"levelo_inurba_marseille","lat":43.30964,"lon":5.37956,"is_reserved":false,"is_disabled":false,"rental_uris":{"android":"levelo://app?vid=e394e8a3-8395-4593-825c-5dec0d725b94","ios":"levelo://app?vid=e394e8a3-8395-4593-825c-5dec0d725b94"},"vehicle_type_id":"4","last_reported":1687190896,"current_range_meters":18400,"station_id":"","pricing_plan_id":"free"},{"bike_id":"e33277b5-e265-4eed-a8a1-c4353ef1ab79","system_id":"levelo_inurba_marseille","lat":43.303046,"lon":5.368981,"is_reserved":false,"is_disabled":false,"rental_uris":{"android":"levelo://app?vid=e33277b5-e265-4eed-a8a1-c4353ef1ab79","ios":"levelo://app?vid=e33277b5-e265-4eed-a8a1-c4353ef1ab79"},"vehicle_type_id":"4","last_reported":1687190896,"current_range_meters":18000,"station_id":"ce4bgqh2rcd13ifvqc5g","pricing_plan_id":"free"},{"bike_id":"5b788c28-ec9b-4993-b9c2-a1ec77a08e8f","system_id":"levelo_inurba_marseille","lat":43.315293,"lon":5.380349,"is_reserved":false,"is_disabled":false,"rental_uris":{"android":"levelo://app?vid=5b788c28-ec9b-4993-b9c2-a1ec77a08e8f","ios":"levelo://app?vid=5b788c28-ec9b-4993-b9c2-a1ec77a08e8f"},"vehicle_type_id":"4","last_reported":1687190896,"current_range_meters":21200,"station_id":"ce4bhsp2rcd13ifvqi50","pricing_plan_id":"free"},{"bike_id":"b08e1690-bc42-4020-8dec-7a10994db56b","system_id":"levelo_inurba_marseille","lat":43.31532,"lon":5.38038,"is_reserved":false,"is_disabled":false,"rental_uris":{"android":"levelo://app?vid=b08e1690-bc42-4020-8dec-7a10994db56b","ios":"levelo://app?vid=b08e1690-bc42-4020-8dec-7a10994db56b"},"vehicle_type_id":"4","last_reported":1687190896,"current_range_meters":20000,"station_id":"ce4bhsp2rcd13ifvqi50","pricing_plan_id":"free"},{"bike_id":"d15bd88b-d480-484c-ab79-216b08f7ae22","system_id":"levelo_inurba_marseille","lat":43.301939,"lon":5.366286,"is_reserved":false,"is_disabled":false,"rental_uris":{"android":"levelo://app?vid=d15bd88b-d480-484c-ab79-216b08f7ae22","ios":"levelo://app?vid=d15bd88b-d480-484c-ab79-216b08f7ae22"},"vehicle_type_id":"4","last_reported":1687190896,"current_range_meters":8000,"station_id":"ce4bgrh2rcd13ifvqc8g","pricing_plan_id":"free"},{"bike_id":"ae33307b-fcd5-479b-9ae1-9002ed226c6e","system_id":"levelo_inurba_marseille","lat":43.30806,"lon":5.38164,"is_reserved":false,"is_disabled":false,"rental_uris":{"android":"levelo://app?vid=ae33307b-fcd5-479b-9ae1-9002ed226c6e","ios":"levelo://app?vid=ae33307b-fcd5-479b-9ae1-9002ed226c6e"},"vehicle_type_id":"4","last_reported":1687190896,"current_range_meters":24400,"station_id":"ce4bgt12rcd13ifvqce0","pricing_plan_id":"free"},{"bike_id":"1f6320b3-09ac-4d3f-83b0-5a4e13b766ea","system_id":"levelo_inurba_marseille","lat":43.304581,"lon":5.378864,"is_reserved":false,"is_disabled":false,"rental_uris":{"android":"levelo://app?vid=1f6320b3-09ac-4d3f-83b0-5a4e13b766ea","ios":"levelo://app?vid=1f6320b3-09ac-4d3f-83b0-5a4e13b766ea"},"vehicle_type_id":"4","last_reported":1687190896,"current_range_meters":30800,"station_id":"ce4bgup2rcd13ifvqcn0","pricing_plan_id":"free"},{"bike_id":"43fc693e-f2a9-4aec-8fd9-d094bb02cb70","system_id":"levelo_inurba_marseille","lat":43.304606,"lon":5.379026,"is_reserved":false,"is_disabled":false,"rental_uris":{"android":"levelo://app?vid=43fc693e-f2a9-4aec-8fd9-d094bb02cb70","ios":"levelo://app?vid=43fc693e-f2a9-4aec-8fd9-d094bb02cb70"},"vehicle_type_id":"4","last_reported":1687190896,"current_range_meters":13200,"station_id":"ce4bgup2rcd13ifvqcn0","pricing_plan_id":"free"},{"bike_id":"e90dedbb-8714-439c-8286-d0d00af3d021","system_id":"levelo_inurba_marseille","lat":43.30143,"lon":5.37413,"is_reserved":false,"is_disabled":false,"rental_uris":{"android":"levelo://app?vid=e90dedbb-8714-439c-8286-d0d00af3d021","ios":"levelo://app?vid=e90dedbb-8714-439c-8286-d0d00af3d021"},"vehicle_type_id":"4","last_reported":1687190896,"current_range_meters":21600,"station_id":"ce4bgs92rcd13ifvqcc0","pricing_plan_id":"free"},{"bike_id":"f61b8dc1-3c74-46ad-a5a0-bcf4d4fd9de2","system_id":"levelo_inurba_marseille","lat":43.301399,"lon":5.374186,"is_reserved":false,"is_disabled":false,"rental_uris":{"android":"levelo://app?vid=f61b8dc1-3c74-46ad-a5a0-bcf4d4fd9de2","ios":"levelo://app?vid=f61b8dc1-3c74-46ad-a5a0-bcf4d4fd9de2"},"vehicle_type_id":"4","last_reported":1687190896,"current_range_meters":2400,"station_id":"","pricing_plan_id":"free"},{"bike_id":"7e3dde8f-d221-40a6-bb07-860041c9489c","system_id":"levelo_inurba_marseille","lat":43.319935,"lon":5.381699,"is_reserved":false,"is_disabled":false,"rental_uris":{"android":"levelo://app?vid=7e3dde8f-d221-40a6-bb07-860041c9489c","ios":"levelo://app?vid=7e3dde8f-d221-40a6-bb07-860041c9489c"},"vehicle_type_id":"4","last_reported":1687190896,"current_range_meters":26800,"station_id":"ce4bhr12rcd13ifvqhpg","pricing_plan_id":"free"},{"bike_id":"afddf203-8e1d-412d-8a76-c0767a0466c5","system_id":"levelo_inurba_marseille","lat":43.319935,"lon":5.381699,"is_reserved":false,"is_disabled":false,"rental_uris":{"android":"levelo://app?vid=afddf203-8e1d-412d-8a76-c0767a0466c5","ios":"levelo://app?vid=afddf203-8e1d-412d-8a76-c0767a0466c5"},"vehicle_type_id":"4","last_reported":1687190896,"current_range_meters":18400,"station_id":"ce4bhr12rcd13ifvqhpg","pricing_plan_id":"free"},{"bike_id":"f5076c6d-867d-4308-8b98-1144d735bb5c","system_id":"levelo_inurba_marseille","lat":43.313571,"lon":5.384829,"is_reserved":false,"is_disabled":false,"rental_uris":{"android":"levelo://app?vid=f5076c6d-867d-4308-8b98-1144d735bb5c","ios":"levelo://app?vid=f5076c6d-867d-4308-8b98-1144d735bb5c"},"vehicle_type_id":"4","last_reported":1687190896,"current_range_meters":0,"station_id":"ce4bgt92rcd13ifvqcf0","pricing_plan_id":"free"},{"bike_id":"bac6f12d-0bf7-4670-a581-8a804447834a","system_id":"levelo_inurba_marseille","lat":43.298433,"lon":5.362774,"is_reserved":false,"is_disabled":false,"rental_uris":{"android":"levelo://app?vid=bac6f12d-0bf7-4670-a581-8a804447834a","ios":"levelo://app?vid=bac6f12d-0bf7-4670-a581-8a804447834a"},"vehicle_type_id":"4","last_reported":1687190896,"current_range_meters":6400,"station_id":"ce4bgpp2rcd13ifvqc3g","pricing_plan_id":"free"},{"bike_id":"4a50c7db-e7ac-4ed2-b9dc-7c6caf5914ab","system_id":"levelo_inurba_marseille","lat":43.298433,"lon":5.362774,"is_reserved":false,"is_disabled":false,"rental_uris":{"android":"levelo://app?vid=4a50c7db-e7ac-4ed2-b9dc-7c6caf5914ab","ios":"levelo://app?vid=4a50c7db-e7ac-4ed2-b9dc-7c6caf5914ab"},"vehicle_type_id":"4","last_reported":1687190896,"current_range_meters":19200,"station_id":"ce4bgpp2rcd13ifvqc3g","pricing_plan_id":"free"},{"bike_id":"fd02e173-4bdf-4f93-8ea6-5a203ec721ad","system_id":"levelo_inurba_marseille","lat":43.299243,"lon":5.374807,"is_reserved":false,"is_disabled":false,"rental_uris":{"android":"levelo://app?vid=fd02e173-4bdf-4f93-8ea6-5a203ec721ad","ios":"levelo://app?vid=fd02e173-4bdf-4f93-8ea6-5a203ec721ad"},"vehicle_type_id":"4","last_reported":1687190896,"current_range_meters":10000,"station_id":"ce4bgjh2rcd13ifvqbg0","pricing_plan_id":"free"},{"bike_id":"00e767a4-d7c2-4bcc-ae70-c635921955ab","system_id":"levelo_inurba_marseille","lat":43.299243,"lon":5.37481,"is_reserved":false,"is_disabled":false,"rental_uris":{"android":"levelo://app?vid=00e767a4-d7c2-4bcc-ae70-c635921955ab","ios":"levelo://app?vid=00e767a4-d7c2-4bcc-ae70-c635921955ab"},"vehicle_type_id":"4","last_reported":1687190896,"current_range_meters":18000,"station_id":"ce4bgjh2rcd13ifvqbg0","pricing_plan_id":"free"},{"bike_id":"dc358ce1-b2f8-40aa-a789-24c593e6728f","system_id":"levelo_inurba_marseille","lat":43.311722,"lon":5.387247,"is_reserved":false,"is_disabled":false,"rental_uris":{"android":"levelo://app?vid=dc358ce1-b2f8-40aa-a789-24c593e6728f","ios":"levelo://app?vid=dc358ce1-b2f8-40aa-a789-24c593e6728f"},"vehicle_type_id":"4","last_reported":1687190896,"current_range_meters":21600,"station_id":"ce4bgv12rcd13ifvqcp0","pricing_plan_id":"free"},{"bike_id":"954f20a4-71a7-4678-bd51-7eb239f1a78a","system_id":"levelo_inurba_marseille","lat":43.29812,"lon":5.37136,"is_reserved":false,"is_disabled":false,"rental_uris":{"android":"levelo://app?vid=954f20a4-71a7-4678-bd51-7eb239f1a78a","ios":"levelo://app?vid=954f20a4-71a7-4678-bd51-7eb239f1a78a"},"vehicle_type_id":"4","last_reported":1687190896,"current_range_meters":21200,"station_id":"","pricing_plan_id":"free"},{"bike_id":"18a4512a-1900-41f0-bd58-c1480b7859a7","system_id":"levelo_inurba_marseille","lat":43.328371,"lon":5.366912,"is_reserved":false,"is_disabled":false,"rental_uris":{"android":"levelo://app?vid=18a4512a-1900-41f0-bd58-c1480b7859a7","ios":"levelo://app?vid=18a4512a-1900-41f0-bd58-c1480b7859a7"},"vehicle_type_id":"4","last_reported":1687190896,"current_range_meters":24400,"station_id":"ce4bhs92rcd13ifvqi0g","pricing_plan_id":"free"},{"bike_id":"c40b8cb2-e6a3-4771-bd56-823109feab39","system_id":"levelo_inurba_marseille","lat":43.29714,"lon":5.36611,"is_reserved":false,"is_disabled":false,"rental_uris":{"android":"levelo://app?vid=c40b8cb2-e6a3-4771-bd56-823109feab39","ios":"levelo://app?vid=c40b8cb2-e6a3-4771-bd56-823109feab39"},"vehicle_type_id":"4","last_reported":1687190896,"current_range_meters":12800,"station_id":"ce4bgn12rcd13ifvqbt0","pricing_plan_id":"free"},{"bike_id":"176f4894-d7fc-460e-aa5d-7c8c1e206dc3","system_id":"levelo_inurba_marseille","lat":43.29706,"lon":5.36618,"is_reserved":false,"is_disabled":false,"rental_uris":{"android":"levelo://app?vid=176f4894-d7fc-460e-aa5d-7c8c1e206dc3","ios":"levelo://app?vid=176f4894-d7fc-460e-aa5d-7c8c1e206dc3"},"vehicle_type_id":"4","last_reported":1687190896,"current_range_meters":29200,"station_id":"ce4bgn12rcd13ifvqbt0","pricing_plan_id":"free"},{"bike_id":"f5c7f8b6-0397-45cd-aaf7-282381eb2475","system_id":"levelo_inurba_marseille","lat":43.29703,"lon":5.36605,"is_reserved":false,"is_disabled":false,"rental_uris":{"android":"levelo://app?vid=f5c7f8b6-0397-45cd-aaf7-282381eb2475","ios":"levelo://app?vid=f5c7f8b6-0397-45cd-aaf7-282381eb2475"},"vehicle_type_id":"4","last_reported":1687190896,"current_range_meters":30400,"station_id":"ce4bgn12rcd13ifvqbt0","pricing_plan_id":"free"},{"bike_id":"88d0330c-5bb0-4a19-9b65-d4683b42e015","system_id":"levelo_inurba_marseille","lat":43.29683,"lon":5.36046,"is_reserved":false,"is_disabled":false,"rental_uris":{"android":"levelo://app?vid=88d0330c-5bb0-4a19-9b65-d4683b42e015","ios":"levelo://app?vid=88d0330c-5bb0-4a19-9b65-d4683b42e015"},"vehicle_type_id":"4","last_reported":1687190896,"current_range_meters":0,"station_id":"","pricing_plan_id":"free"},{"bike_id":"702a9da0-1ac3-4753-93c0-30dd564db13e","system_id":"levelo_inurba_marseille","lat":43.303672,"lon":5.386227,"is_reserved":false,"is_disabled":false,"rental_uris":{"android":"levelo://app?vid=702a9da0-1ac3-4753-93c0-30dd564db13e","ios":"levelo://app?vid=702a9da0-1ac3-4753-93c0-30dd564db13e"},"vehicle_type_id":"4","last_reported":1687190896,"current_range_meters":27200,"station_id":"","pricing_plan_id":"free"},{"bike_id":"bb7934a6-9556-448c-aeb6-3ab9d20dc0e0","system_id":"levelo_inurba_marseille","lat":43.29607,"lon":5.37042,"is_reserved":false,"is_disabled":false,"rental_uris":{"android":"levelo://app?vid=bb7934a6-9556-448c-aeb6-3ab9d20dc0e0","ios":"levelo://app?vid=bb7934a6-9556-448c-aeb6-3ab9d20dc0e0"},"vehicle_type_id":"4","last_reported":1687190896,"current_range_meters":13200,"station_id":"ce4bgph2rcd13ifvqc2g","pricing_plan_id":"free"},{"bike_id":"d97dc6e1-c6ca-4e56-95d4-3712e018ce3e","system_id":"levelo_inurba_marseille","lat":43.29573,"lon":5.367355,"is_reserved":false,"is_disabled":false,"rental_uris":{"android":"levelo://app?vid=d97dc6e1-c6ca-4e56-95d4-3712e018ce3e","ios":"levelo://app?vid=d97dc6e1-c6ca-4e56-95d4-3712e018ce3e"},"vehicle_type_id":"4","last_reported":1687190896,"current_range_meters":4800,"station_id":"ce4bgph2rcd13ifvqc2g","pricing_plan_id":"free"},{"bike_id":"5329c503-3db9-47bd-a3e9-540fb12132be","system_id":"levelo_inurba_marseille","lat":43.29573,"lon":5.367355,"is_reserved":false,"is_disabled":false,"rental_uris":{"android":"levelo://app?vid=5329c503-3db9-47bd-a3e9-540fb12132be","ios":"levelo://app?vid=5329c503-3db9-47bd-a3e9-540fb12132be"},"vehicle_type_id":"4","last_reported":1687190896,"current_range_meters":4400,"station_id":"ce4bgph2rcd13ifvqc2g","pricing_plan_id":"free"},{"bike_id":"0002ef23-1891-46fa-8738-e5ee99abba38","system_id":"levelo_inurba_marseille","lat":43.29582,"lon":5.36743,"is_reserved":false,"is_disabled":false,"rental_uris":{"android":"levelo://app?vid=0002ef23-1891-46fa-8738-e5ee99abba38","ios":"levelo://app?vid=0002ef23-1891-46fa-8738-e5ee99abba38"},"vehicle_type_id":"4","last_reported":1687190896,"current_range_meters":23200,"station_id":"ce4bgph2rcd13ifvqc2g","pricing_plan_id":"free"},{"bike_id":"24f41ca5-b432-4feb-a0c8-a15026b97306","system_id":"levelo_inurba_marseille","lat":43.296131,"lon":5.370773,"is_reserved":false,"is_disabled":false,"rental_uris":{"android":"levelo://app?vid=24f41ca5-b432-4feb-a0c8-a15026b97306","ios":"levelo://app?vid=24f41ca5-b432-4feb-a0c8-a15026b97306"},"vehicle_type_id":"4","last_reported":1687190896,"current_range_meters":8000,"station_id":"ce4bgnh2rcd13ifvqc0g","pricing_plan_id":"free"},{"bike_id":"5e2c9e3e-5eb0-46a5-8157-9f09b2aaeaac","system_id":"levelo_inurba_marseille","lat":43.29573,"lon":5.367355,"is_reserved":false,"is_disabled":false,"rental_uris":{"android":"levelo://app?vid=5e2c9e3e-5eb0-46a5-8157-9f09b2aaeaac","ios":"levelo://app?vid=5e2c9e3e-5eb0-46a5-8157-9f09b2aaeaac"},"vehicle_type_id":"4","last_reported":1687190896,"current_range_meters":6800,"station_id":"ce4bgph2rcd13ifvqc2g","pricing_plan_id":"free"},{"bike_id":"2608bdd6-ab97-4334-a920-3db78a2666f3","system_id":"levelo_inurba_marseille","lat":43.299028,"lon":5.381509,"is_reserved":false,"is_disabled":false,"rental_uris":{"android":"levelo://app?vid=2608bdd6-ab97-4334-a920-3db78a2666f3","ios":"levelo://app?vid=2608bdd6-ab97-4334-a920-3db78a2666f3"},"vehicle_type_id":"4","last_reported":1687190896,"current_range_meters":11600,"station_id":"ce4bgj12rcd13ifvqbc0","pricing_plan_id":"free"},{"bike_id":"ff5723ef-2dc5-4237-b380-ed763e6c483e","system_id":"levelo_inurba_marseille","lat":43.31758,"lon":5.39014,"is_reserved":false,"is_disabled":false,"rental_uris":{"android":"levelo://app?vid=ff5723ef-2dc5-4237-b380-ed763e6c483e","ios":"levelo://app?vid=ff5723ef-2dc5-4237-b380-ed763e6c483e"},"vehicle_type_id":"4","last_reported":1687190896,"current_range_meters":23200,"station_id":"ce4bhqp2rcd13ifvqhng","pricing_plan_id":"free"},{"bike_id":"afb14255-2329-4147-83b5-02806e9cbaf2","system_id":"levelo_inurba_marseille","lat":43.317557,"lon":5.390173,"is_reserved":false,"is_disabled":false,"rental_uris":{"android":"levelo://app?vid=afb14255-2329-4147-83b5-02806e9cbaf2","ios":"levelo://app?vid=afb14255-2329-4147-83b5-02806e9cbaf2"},"vehicle_type_id":"4","last_reported":1687190896,"current_range_meters":28400,"station_id":"ce4bhqp2rcd13ifvqhng","pricing_plan_id":"free"},{"bike_id":"24f9675a-8d21-415b-aa49-c502ddb17978","system_id":"levelo_inurba_marseille","lat":43.317557,"lon":5.390173,"is_reserved":false,"is_disabled":false,"rental_uris":{"android":"levelo://app?vid=24f9675a-8d21-415b-aa49-c502ddb17978","ios":"levelo://app?vid=24f9675a-8d21-415b-aa49-c502ddb17978"},"vehicle_type_id":"4","last_reported":1687190896,"current_range_meters":30000,"station_id":"ce4bhqp2rcd13ifvqhng","pricing_plan_id":"free"},{"bike_id":"e7fe27b0-bd0a-4427-97c2-50a4609c4a43","system_id":"levelo_inurba_marseille","lat":43.298037,"lon":5.381066,"is_reserved":false,"is_disabled":false,"rental_uris":{"android":"levelo://app?vid=e7fe27b0-bd0a-4427-97c2-50a4609c4a43","ios":"levelo://app?vid=e7fe27b0-bd0a-4427-97c2-50a4609c4a43"},"vehicle_type_id":"4","last_reported":1687190896,"current_range_meters":8800,"station_id":"ce4bgip2rcd13ifvqbb0","pricing_plan_id":"free"},{"bike_id":"495e627e-203f-40ba-b1ce-70d89cfe6405","system_id":"levelo_inurba_marseille","lat":43.298037,"lon":5.381066,"is_reserved":false,"is_disabled":false,"rental_uris":{"android":"levelo://app?vid=495e627e-203f-40ba-b1ce-70d89cfe6405","ios":"levelo://app?vid=495e627e-203f-40ba-b1ce-70d89cfe6405"},"vehicle_type_id":"4","last_reported":1687190896,"current_range_meters":17200,"station_id":"ce4bgip2rcd13ifvqbb0","pricing_plan_id":"free"},{"bike_id":"2b617417-748c-4597-9e47-3941b811a374","system_id":"levelo_inurba_marseille","lat":43.298037,"lon":5.381066,"is_reserved":false,"is_disabled":false,"rental_uris":{"android":"levelo://app?vid=2b617417-748c-4597-9e47-3941b811a374","ios":"levelo://app?vid=2b617417-748c-4597-9e47-3941b811a374"},"vehicle_type_id":"4","last_reported":1687190896,"current_range_meters":21200,"station_id":"ce4bgip2rcd13ifvqbb0","pricing_plan_id":"free"},{"bike_id":"66a793e7-9cd3-4f96-baea-482cbe2cc9c1","system_id":"levelo_inurba_marseille","lat":43.298037,"lon":5.381066,"is_reserved":false,"is_disabled":false,"rental_uris":{"android":"levelo://app?vid=66a793e7-9cd3-4f96-baea-482cbe2cc9c1","ios":"levelo://app?vid=66a793e7-9cd3-4f96-baea-482cbe2cc9c1"},"vehicle_type_id":"4","last_reported":1687190896,"current_range_meters":10400,"station_id":"ce4bgip2rcd13ifvqbb0","pricing_plan_id":"free"},{"bike_id":"6081c3d6-ef7b-4860-ab97-620d85c8f00c","system_id":"levelo_inurba_marseille","lat":43.295761,"lon":5.375029,"is_reserved":false,"is_disabled":false,"rental_uris":{"android":"levelo://app?vid=6081c3d6-ef7b-4860-ab97-620d85c8f00c","ios":"levelo://app?vid=6081c3d6-ef7b-4860-ab97-620d85c8f00c"},"vehicle_type_id":"4","last_reported":1687190896,"current_range_meters":12400,"station_id":"","pricing_plan_id":"free"},{"bike_id":"2500e354-7206-4125-b8da-0f1782363ccf","system_id":"levelo_inurba_marseille","lat":43.296263,"lon":5.377094,"is_reserved":false,"is_disabled":false,"rental_uris":{"android":"levelo://app?vid=2500e354-7206-4125-b8da-0f1782363ccf","ios":"levelo://app?vid=2500e354-7206-4125-b8da-0f1782363ccf"},"vehicle_type_id":"4","last_reported":1687190896,"current_range_meters":28000,"station_id":"ce4bgi92rcd13ifvqb90","pricing_plan_id":"free"},{"bike_id":"250c8a96-8498-4211-b8f3-1b00a8d1fbaf","system_id":"levelo_inurba_marseille","lat":43.296477,"lon":5.37768,"is_reserved":false,"is_disabled":false,"rental_uris":{"android":"levelo://app?vid=250c8a96-8498-4211-b8f3-1b00a8d1fbaf","ios":"levelo://app?vid=250c8a96-8498-4211-b8f3-1b00a8d1fbaf"},"vehicle_type_id":"4","last_reported":1687190896,"current_range_meters":8400,"station_id":"","pricing_plan_id":"free"},{"bike_id":"96e0d583-e503-4b6a-aca2-1dd37260e5e5","system_id":"levelo_inurba_marseille","lat":43.296277,"lon":5.377108,"is_reserved":false,"is_disabled":false,"rental_uris":{"android":"levelo://app?vid=96e0d583-e503-4b6a-aca2-1dd37260e5e5","ios":"levelo://app?vid=96e0d583-e503-4b6a-aca2-1dd37260e5e5"},"vehicle_type_id":"4","last_reported":1687190896,"current_range_meters":400,"station_id":"ce4bgi92rcd13ifvqb90","pricing_plan_id":"free"},{"bike_id":"fa542c33-8a8b-4fb4-b68c-be926b8ca451","system_id":"levelo_inurba_marseille","lat":43.295748,"lon":5.37522,"is_reserved":false,"is_disabled":false,"rental_uris":{"android":"levelo://app?vid=fa542c33-8a8b-4fb4-b68c-be926b8ca451","ios":"levelo://app?vid=fa542c33-8a8b-4fb4-b68c-be926b8ca451"},"vehicle_type_id":"4","last_reported":1687190896,"current_range_meters":20000,"station_id":"ce4bgh92rcd13ifvqb50","pricing_plan_id":"free"},{"bike_id":"56bf3152-19f9-4fd0-8c65-ec13cf2ff2ab","system_id":"levelo_inurba_marseille","lat":43.295748,"lon":5.37522,"is_reserved":false,"is_disabled":false,"rental_uris":{"android":"levelo://app?vid=56bf3152-19f9-4fd0-8c65-ec13cf2ff2ab","ios":"levelo://app?vid=56bf3152-19f9-4fd0-8c65-ec13cf2ff2ab"},"vehicle_type_id":"4","last_reported":1687190896,"current_range_meters":10400,"station_id":"ce4bgh92rcd13ifvqb50","pricing_plan_id":"free"},{"bike_id":"ca60fca4-b7c2-4be4-a89d-79aef2f30975","system_id":"levelo_inurba_marseille","lat":43.296277,"lon":5.377108,"is_reserved":false,"is_disabled":false,"rental_uris":{"android":"levelo://app?vid=ca60fca4-b7c2-4be4-a89d-79aef2f30975","ios":"levelo://app?vid=ca60fca4-b7c2-4be4-a89d-79aef2f30975"},"vehicle_type_id":"4","last_reported":1687190896,"current_range_meters":23200,"station_id":"ce4bgi92rcd13ifvqb90","pricing_plan_id":"free"},{"bike_id":"86d85035-7ffa-4db3-a804-cbdcfda06437","system_id":"levelo_inurba_marseille","lat":43.29535,"lon":5.37501,"is_reserved":false,"is_disabled":false,"rental_uris":{"android":"levelo://app?vid=86d85035-7ffa-4db3-a804-cbdcfda06437","ios":"levelo://app?vid=86d85035-7ffa-4db3-a804-cbdcfda06437"},"vehicle_type_id":"4","last_reported":1687190896,"current_range_meters":9200,"station_id":"ce4bgkp2rcd13ifvqbmg","pricing_plan_id":"free"},{"bike_id":"eb56f040-d7e3-440c-9d05-82afe187dd21","system_id":"levelo_inurba_marseille","lat":43.299724,"lon":5.384848,"is_reserved":false,"is_disabled":false,"rental_uris":{"android":"levelo://app?vid=eb56f040-d7e3-440c-9d05-82afe187dd21","ios":"levelo://app?vid=eb56f040-d7e3-440c-9d05-82afe187dd21"},"vehicle_type_id":"4","last_reported":1687190896,"current_range_meters":30400,"station_id":"ce4bgj92rcd13ifvqbd0","pricing_plan_id":"free"},{"bike_id":"b8408dd8-4851-4d05-8d4f-14b3386fda73","system_id":"levelo_inurba_marseille","lat":43.295279,"lon":5.375048,"is_reserved":false,"is_disabled":false,"rental_uris":{"android":"levelo://app?vid=b8408dd8-4851-4d05-8d4f-14b3386fda73","ios":"levelo://app?vid=b8408dd8-4851-4d05-8d4f-14b3386fda73"},"vehicle_type_id":"4","last_reported":1687190896,"current_range_meters":4400,"station_id":"ce4bgkp2rcd13ifvqbmg","pricing_plan_id":"free"},{"bike_id":"e5696224-6d76-40ac-ac75-31c2c7650aaf","system_id":"levelo_inurba_marseille","lat":43.298037,"lon":5.381066,"is_reserved":false,"is_disabled":false,"rental_uris":{"android":"levelo://app?vid=e5696224-6d76-40ac-ac75-31c2c7650aaf","ios":"levelo://app?vid=e5696224-6d76-40ac-ac75-31c2c7650aaf"},"vehicle_type_id":"4","last_reported":1687190896,"current_range_meters":24000,"station_id":"ce4bgip2rcd13ifvqbb0","pricing_plan_id":"free"},{"bike_id":"c25bbca6-334a-48c9-b2aa-c69eb97c9d81","system_id":"levelo_inurba_marseille","lat":43.32367,"lon":5.388836,"is_reserved":false,"is_disabled":false,"rental_uris":{"android":"levelo://app?vid=c25bbca6-334a-48c9-b2aa-c69eb97c9d81","ios":"levelo://app?vid=c25bbca6-334a-48c9-b2aa-c69eb97c9d81"},"vehicle_type_id":"4","last_reported":1687190896,"current_range_meters":25200,"station_id":"ce4bhqp2rcd13ifvqhog","pricing_plan_id":"free"},{"bike_id":"ae8b64c1-0b71-4f7c-a5e1-641d57f4f290","system_id":"levelo_inurba_marseille","lat":43.29573,"lon":5.367355,"is_reserved":false,"is_disabled":false,"rental_uris":{"android":"levelo://app?vid=ae8b64c1-0b71-4f7c-a5e1-641d57f4f290","ios":"levelo://app?vid=ae8b64c1-0b71-4f7c-a5e1-641d57f4f290"},"vehicle_type_id":"4","last_reported":1687190896,"current_range_meters":26000,"station_id":"ce4bgph2rcd13ifvqc2g","pricing_plan_id":"free"},{"bike_id":"51780f28-64dd-44d5-8ee5-cd7aa68e9b6f","system_id":"levelo_inurba_marseille","lat":43.29601,"lon":5.381084,"is_reserved":false,"is_disabled":false,"rental_uris":{"android":"levelo://app?vid=51780f28-64dd-44d5-8ee5-cd7aa68e9b6f","ios":"levelo://app?vid=51780f28-64dd-44d5-8ee5-cd7aa68e9b6f"},"vehicle_type_id":"4","last_reported":1687190896,"current_range_meters":13200,"station_id":"ce4bgl12rcd13ifvqbo0","pricing_plan_id":"free"},{"bike_id":"d075ecc2-a249-4fda-ac54-a4ed3e73e1b4","system_id":"levelo_inurba_marseille","lat":43.293249,"lon":5.371578,"is_reserved":false,"is_disabled":false,"rental_uris":{"android":"levelo://app?vid=d075ecc2-a249-4fda-ac54-a4ed3e73e1b4","ios":"levelo://app?vid=d075ecc2-a249-4fda-ac54-a4ed3e73e1b4"},"vehicle_type_id":"4","last_reported":1687190896,"current_range_meters":28000,"station_id":"ce4bgh92rcd13ifvqb40","pricing_plan_id":"free"},{"bike_id":"f96bc5ef-773a-4c29-b818-b40707fecfaa","system_id":"levelo_inurba_marseille","lat":43.305994,"lon":5.393687,"is_reserved":false,"is_disabled":false,"rental_uris":{"android":"levelo://app?vid=f96bc5ef-773a-4c29-b818-b40707fecfaa","ios":"levelo://app?vid=f96bc5ef-773a-4c29-b818-b40707fecfaa"},"vehicle_type_id":"4","last_reported":1687190896,"current_range_meters":31200,"station_id":"ce4bh0p2rcd13ifvqd80","pricing_plan_id":"free"},{"bike_id":"dc66b992-3b6b-40bc-a5a3-67626564f7c0","system_id":"levelo_inurba_marseille","lat":43.305994,"lon":5.393687,"is_reserved":false,"is_disabled":false,"rental_uris":{"android":"levelo://app?vid=dc66b992-3b6b-40bc-a5a3-67626564f7c0","ios":"levelo://app?vid=dc66b992-3b6b-40bc-a5a3-67626564f7c0"},"vehicle_type_id":"4","last_reported":1687190896,"current_range_meters":14400,"station_id":"ce4bh0p2rcd13ifvqd80","pricing_plan_id":"free"},{"bike_id":"ccde9848-a9cb-45a1-b327-8bee9795fc5d","system_id":"levelo_inurba_marseille","lat":43.29343,"lon":5.377,"is_reserved":false,"is_disabled":false,"rental_uris":{"android":"levelo://app?vid=ccde9848-a9cb-45a1-b327-8bee9795fc5d","ios":"levelo://app?vid=ccde9848-a9cb-45a1-b327-8bee9795fc5d"},"vehicle_type_id":"4","last_reported":1687190896,"current_range_meters":18000,"station_id":"","pricing_plan_id":"free"},{"bike_id":"659b5d8b-1631-48ee-8cff-de6411143e1c","system_id":"levelo_inurba_marseille","lat":43.30298,"lon":5.39198,"is_reserved":false,"is_disabled":false,"rental_uris":{"android":"levelo://app?vid=659b5d8b-1631-48ee-8cff-de6411143e1c","ios":"levelo://app?vid=659b5d8b-1631-48ee-8cff-de6411143e1c"},"vehicle_type_id":"4","last_reported":1687190896,"current_range_meters":0,"station_id":"ce4bgkh2rcd13ifvqbk0","pricing_plan_id":"free"},{"bike_id":"1211a73f-9b16-41b1-9f5f-2773dd5377c4","system_id":"levelo_inurba_marseille","lat":43.30295,"lon":5.39205,"is_reserved":false,"is_disabled":false,"rental_uris":{"android":"levelo://app?vid=1211a73f-9b16-41b1-9f5f-2773dd5377c4","ios":"levelo://app?vid=1211a73f-9b16-41b1-9f5f-2773dd5377c4"},"vehicle_type_id":"4","last_reported":1687190896,"current_range_meters":13200,"station_id":"ce4bgkh2rcd13ifvqbk0","pricing_plan_id":"free"},{"bike_id":"69126577-27fd-41dc-8436-52ec61c15fbf","system_id":"levelo_inurba_marseille","lat":43.303,"lon":5.3921,"is_reserved":false,"is_disabled":false,"rental_uris":{"android":"levelo://app?vid=69126577-27fd-41dc-8436-52ec61c15fbf","ios":"levelo://app?vid=69126577-27fd-41dc-8436-52ec61c15fbf"},"vehicle_type_id":"4","last_reported":1687190896,"current_range_meters":5600,"station_id":"ce4bgkh2rcd13ifvqbk0","pricing_plan_id":"free"},{"bike_id":"0047d509-bd02-4a3f-852c-bbef66bae76a","system_id":"levelo_inurba_marseille","lat":43.30294,"lon":5.39206,"is_reserved":false,"is_disabled":false,"rental_uris":{"android":"levelo://app?vid=0047d509-bd02-4a3f-852c-bbef66bae76a","ios":"levelo://app?vid=0047d509-bd02-4a3f-852c-bbef66bae76a"},"vehicle_type_id":"4","last_reported":1687190896,"current_range_meters":3200,"station_id":"ce4bgkh2rcd13ifvqbk0","pricing_plan_id":"free"},{"bike_id":"d90b04b9-7054-4b65-ae93-410a1e7ef90b","system_id":"levelo_inurba_marseille","lat":43.2936,"lon":5.37835,"is_reserved":false,"is_disabled":false,"rental_uris":{"android":"levelo://app?vid=d90b04b9-7054-4b65-ae93-410a1e7ef90b","ios":"levelo://app?vid=d90b04b9-7054-4b65-ae93-410a1e7ef90b"},"vehicle_type_id":"4","last_reported":1687190896,"current_range_meters":29200,"station_id":"ce4bgjh2rcd13ifvqbf0","pricing_plan_id":"free"},{"bike_id":"e7e8d03f-007a-4c12-b681-8b18c1c91a59","system_id":"levelo_inurba_marseille","lat":43.2936,"lon":5.37835,"is_reserved":false,"is_disabled":false,"rental_uris":{"android":"levelo://app?vid=e7e8d03f-007a-4c12-b681-8b18c1c91a59","ios":"levelo://app?vid=e7e8d03f-007a-4c12-b681-8b18c1c91a59"},"vehicle_type_id":"4","last_reported":1687190896,"current_range_meters":30800,"station_id":"ce4bgjh2rcd13ifvqbf0","pricing_plan_id":"free"},{"bike_id":"28a4539d-b547-4cd9-ae12-ad747cab8369","system_id":"levelo_inurba_marseille","lat":43.30299,"lon":5.39214,"is_reserved":false,"is_disabled":false,"rental_uris":{"android":"levelo://app?vid=28a4539d-b547-4cd9-ae12-ad747cab8369","ios":"levelo://app?vid=28a4539d-b547-4cd9-ae12-ad747cab8369"},"vehicle_type_id":"4","last_reported":1687190896,"current_range_meters":6800,"station_id":"ce4bgkh2rcd13ifvqbk0","pricing_plan_id":"free"},{"bike_id":"7ee8e857-e58f-4d0f-9ec8-cf55d6494b29","system_id":"levelo_inurba_marseille","lat":43.29264,"lon":5.35963,"is_reserved":false,"is_disabled":false,"rental_uris":{"android":"levelo://app?vid=7ee8e857-e58f-4d0f-9ec8-cf55d6494b29","ios":"levelo://app?vid=7ee8e857-e58f-4d0f-9ec8-cf55d6494b29"},"vehicle_type_id":"4","last_reported":1687190896,"current_range_meters":6400,"station_id":"","pricing_plan_id":"free"},{"bike_id":"b838a96a-05af-4729-9123-a540afe0bca2","system_id":"levelo_inurba_marseille","lat":43.2936,"lon":5.37835,"is_reserved":false,"is_disabled":false,"rental_uris":{"android":"levelo://app?vid=b838a96a-05af-4729-9123-a540afe0bca2","ios":"levelo://app?vid=b838a96a-05af-4729-9123-a540afe0bca2"},"vehicle_type_id":"4","last_reported":1687190896,"current_range_meters":10800,"station_id":"ce4bgjh2rcd13ifvqbf0","pricing_plan_id":"free"},{"bike_id":"056bd9b0-ba46-453a-8dd4-4d06af42f3f5","system_id":"levelo_inurba_marseille","lat":43.302929,"lon":5.392284,"is_reserved":false,"is_disabled":false,"rental_uris":{"android":"levelo://app?vid=056bd9b0-ba46-453a-8dd4-4d06af42f3f5","ios":"levelo://app?vid=056bd9b0-ba46-453a-8dd4-4d06af42f3f5"},"vehicle_type_id":"4","last_reported":1687190896,"current_range_meters":6800,"station_id":"ce4bgkh2rcd13ifvqbk0","pricing_plan_id":"free"},{"bike_id":"37763549-003c-4e67-a83a-954cdc6fc045","system_id":"levelo_inurba_marseille","lat":43.30091,"lon":5.39064,"is_reserved":false,"is_disabled":false,"rental_uris":{"android":"levelo://app?vid=37763549-003c-4e67-a83a-954cdc6fc045","ios":"levelo://app?vid=37763549-003c-4e67-a83a-954cdc6fc045"},"vehicle_type_id":"4","last_reported":1687190896,"current_range_meters":7200,"station_id":"","pricing_plan_id":"free"},{"bike_id":"a3e2a30f-fc8a-4f51-9f11-6fbbe1c3c875","system_id":"levelo_inurba_marseille","lat":43.30085,"lon":5.390856,"is_reserved":false,"is_disabled":false,"rental_uris":{"android":"levelo://app?vid=a3e2a30f-fc8a-4f51-9f11-6fbbe1c3c875","ios":"levelo://app?vid=a3e2a30f-fc8a-4f51-9f11-6fbbe1c3c875"},"vehicle_type_id":"4","last_reported":1687190896,"current_range_meters":24400,"station_id":"ce4bh192rcd13ifvqdb0","pricing_plan_id":"free"},{"bike_id":"96426844-debf-40a0-887e-a76f9e9b0a8f","system_id":"levelo_inurba_marseille","lat":43.298764,"lon":5.388973,"is_reserved":false,"is_disabled":false,"rental_uris":{"android":"levelo://app?vid=96426844-debf-40a0-887e-a76f9e9b0a8f","ios":"levelo://app?vid=96426844-debf-40a0-887e-a76f9e9b0a8f"},"vehicle_type_id":"4","last_reported":1687190896,"current_range_meters":14400,"station_id":"ce4bh392rcd13ifvqdl0","pricing_plan_id":"free"},{"bike_id":"a9e2e8b4-ea73-4d39-ab1a-3c16261a6c63","system_id":"levelo_inurba_marseille","lat":43.298764,"lon":5.388973,"is_reserved":false,"is_disabled":false,"rental_uris":{"android":"levelo://app?vid=a9e2e8b4-ea73-4d39-ab1a-3c16261a6c63","ios":"levelo://app?vid=a9e2e8b4-ea73-4d39-ab1a-3c16261a6c63"},"vehicle_type_id":"4","last_reported":1687190896,"current_range_meters":15600,"station_id":"ce4bh392rcd13ifvqdl0","pricing_plan_id":"free"},{"bike_id":"37603af1-eb71-441f-a245-a882b888f0d6","system_id":"levelo_inurba_marseille","lat":43.298764,"lon":5.388973,"is_reserved":false,"is_disabled":false,"rental_uris":{"android":"levelo://app?vid=37603af1-eb71-441f-a245-a882b888f0d6","ios":"levelo://app?vid=37603af1-eb71-441f-a245-a882b888f0d6"},"vehicle_type_id":"4","last_reported":1687190896,"current_range_meters":3200,"station_id":"ce4bh392rcd13ifvqdl0","pricing_plan_id":"free"},{"bike_id":"0be3e674-dc13-4614-b137-d3ce8ae5654d","system_id":"levelo_inurba_marseille","lat":43.298764,"lon":5.388973,"is_reserved":false,"is_disabled":false,"rental_uris":{"android":"levelo://app?vid=0be3e674-dc13-4614-b137-d3ce8ae5654d","ios":"levelo://app?vid=0be3e674-dc13-4614-b137-d3ce8ae5654d"},"vehicle_type_id":"4","last_reported":1687190896,"current_range_meters":4400,"station_id":"ce4bh392rcd13ifvqdl0","pricing_plan_id":"free"},{"bike_id":"347ab06d-4a85-4b74-b180-1d405d524af5","system_id":"levelo_inurba_marseille","lat":43.298764,"lon":5.388973,"is_reserved":false,"is_disabled":false,"rental_uris":{"android":"levelo://app?vid=347ab06d-4a85-4b74-b180-1d405d524af5","ios":"levelo://app?vid=347ab06d-4a85-4b74-b180-1d405d524af5"},"vehicle_type_id":"4","last_reported":1687190896,"current_range_meters":18000,"station_id":"ce4bh392rcd13ifvqdl0","pricing_plan_id":"free"},{"bike_id":"82cb3b8e-85c0-42e2-94f2-45a43a7ad863","system_id":"levelo_inurba_marseille","lat":43.291994,"lon":5.357886,"is_reserved":false,"is_disabled":false,"rental_uris":{"android":"levelo://app?vid=82cb3b8e-85c0-42e2-94f2-45a43a7ad863","ios":"levelo://app?vid=82cb3b8e-85c0-42e2-94f2-45a43a7ad863"},"vehicle_type_id":"4","last_reported":1687190896,"current_range_meters":16400,"station_id":"ce4bhb12rcd13ifvqel0","pricing_plan_id":"free"},{"bike_id":"57f1a0e3-d5c3-4289-aa0d-9f06690b5f63","system_id":"levelo_inurba_marseille","lat":43.291994,"lon":5.357886,"is_reserved":false,"is_disabled":false,"rental_uris":{"android":"levelo://app?vid=57f1a0e3-d5c3-4289-aa0d-9f06690b5f63","ios":"levelo://app?vid=57f1a0e3-d5c3-4289-aa0d-9f06690b5f63"},"vehicle_type_id":"4","last_reported":1687190896,"current_range_meters":31200,"station_id":"ce4bhb12rcd13ifvqel0","pricing_plan_id":"free"},{"bike_id":"d93529b2-519c-4dcd-a8e4-2dd84d65cab4","system_id":"levelo_inurba_marseille","lat":43.291994,"lon":5.357886,"is_reserved":false,"is_disabled":false,"rental_uris":{"android":"levelo://app?vid=d93529b2-519c-4dcd-a8e4-2dd84d65cab4","ios":"levelo://app?vid=d93529b2-519c-4dcd-a8e4-2dd84d65cab4"},"vehicle_type_id":"4","last_reported":1687190896,"current_range_meters":22000,"station_id":"ce4bhb12rcd13ifvqel0","pricing_plan_id":"free"},{"bike_id":"9b39cf8d-1d23-40ff-b1bf-910418490f08","system_id":"levelo_inurba_marseille","lat":43.291994,"lon":5.357886,"is_reserved":false,"is_disabled":false,"rental_uris":{"android":"levelo://app?vid=9b39cf8d-1d23-40ff-b1bf-910418490f08","ios":"levelo://app?vid=9b39cf8d-1d23-40ff-b1bf-910418490f08"},"vehicle_type_id":"4","last_reported":1687190896,"current_range_meters":5200,"station_id":"ce4bhb12rcd13ifvqel0","pricing_plan_id":"free"},{"bike_id":"b1e729cb-80f8-4569-a4e5-a398e8767339","system_id":"levelo_inurba_marseille","lat":43.291994,"lon":5.357886,"is_reserved":false,"is_disabled":false,"rental_uris":{"android":"levelo://app?vid=b1e729cb-80f8-4569-a4e5-a398e8767339","ios":"levelo://app?vid=b1e729cb-80f8-4569-a4e5-a398e8767339"},"vehicle_type_id":"4","last_reported":1687190896,"current_range_meters":17600,"station_id":"ce4bhb12rcd13ifvqel0","pricing_plan_id":"free"},{"bike_id":"d38c5de4-1b75-44fb-88b5-eb30bcdcd7d0","system_id":"levelo_inurba_marseille","lat":43.31325,"lon":5.396882,"is_reserved":false,"is_disabled":false,"rental_uris":{"android":"levelo://app?vid=d38c5de4-1b75-44fb-88b5-eb30bcdcd7d0","ios":"levelo://app?vid=d38c5de4-1b75-44fb-88b5-eb30bcdcd7d0"},"vehicle_type_id":"4","last_reported":1687190896,"current_range_meters":25600,"station_id":"","pricing_plan_id":"free"},{"bike_id":"b0149730-f08c-4514-8552-b20fd4c4f3f7","system_id":"levelo_inurba_marseille","lat":43.313291,"lon":5.396838,"is_reserved":false,"is_disabled":false,"rental_uris":{"android":"levelo://app?vid=b0149730-f08c-4514-8552-b20fd4c4f3f7","ios":"levelo://app?vid=b0149730-f08c-4514-8552-b20fd4c4f3f7"},"vehicle_type_id":"4","last_reported":1687190896,"current_range_meters":11600,"station_id":"ce4bgvp2rcd13ifvqcu0","pricing_plan_id":"free"},{"bike_id":"75b5ae49-28a9-4f2d-aed7-f2c1de4b783f","system_id":"levelo_inurba_marseille","lat":43.313291,"lon":5.396838,"is_reserved":false,"is_disabled":false,"rental_uris":{"android":"levelo://app?vid=75b5ae49-28a9-4f2d-aed7-f2c1de4b783f","ios":"levelo://app?vid=75b5ae49-28a9-4f2d-aed7-f2c1de4b783f"},"vehicle_type_id":"4","last_reported":1687190896,"current_range_meters":24000,"station_id":"ce4bgvp2rcd13ifvqcu0","pricing_plan_id":"free"},{"bike_id":"28aecd7f-0a25-4837-8f9d-7c4cd46e8e42","system_id":"levelo_inurba_marseille","lat":43.29529,"lon":5.385581,"is_reserved":false,"is_disabled":false,"rental_uris":{"android":"levelo://app?vid=28aecd7f-0a25-4837-8f9d-7c4cd46e8e42","ios":"levelo://app?vid=28aecd7f-0a25-4837-8f9d-7c4cd46e8e42"},"vehicle_type_id":"4","last_reported":1687190896,"current_range_meters":0,"station_id":"ce4bgih2rcd13ifvqba0","pricing_plan_id":"free"},{"bike_id":"f593ec54-dad4-4653-bf90-92a80b5559b8","system_id":"levelo_inurba_marseille","lat":43.29529,"lon":5.385581,"is_reserved":false,"is_disabled":false,"rental_uris":{"android":"levelo://app?vid=f593ec54-dad4-4653-bf90-92a80b5559b8","ios":"levelo://app?vid=f593ec54-dad4-4653-bf90-92a80b5559b8"},"vehicle_type_id":"4","last_reported":1687190896,"current_range_meters":14800,"station_id":"ce4bgih2rcd13ifvqba0","pricing_plan_id":"free"},{"bike_id":"9adb7de2-7396-40b8-8ac5-484ac1e36aeb","system_id":"levelo_inurba_marseille","lat":43.29529,"lon":5.385581,"is_reserved":false,"is_disabled":false,"rental_uris":{"android":"levelo://app?vid=9adb7de2-7396-40b8-8ac5-484ac1e36aeb","ios":"levelo://app?vid=9adb7de2-7396-40b8-8ac5-484ac1e36aeb"},"vehicle_type_id":"4","last_reported":1687190896,"current_range_meters":2800,"station_id":"ce4bgih2rcd13ifvqba0","pricing_plan_id":"free"},{"bike_id":"4eea7454-be79-4230-8b54-f4a91276f711","system_id":"levelo_inurba_marseille","lat":43.29529,"lon":5.385581,"is_reserved":false,"is_disabled":false,"rental_uris":{"android":"levelo://app?vid=4eea7454-be79-4230-8b54-f4a91276f711","ios":"levelo://app?vid=4eea7454-be79-4230-8b54-f4a91276f711"},"vehicle_type_id":"4","last_reported":1687190896,"current_range_meters":3600,"station_id":"ce4bgih2rcd13ifvqba0","pricing_plan_id":"free"},{"bike_id":"f7766469-8e5d-4919-bd23-9500479853b9","system_id":"levelo_inurba_marseille","lat":43.29529,"lon":5.385581,"is_reserved":false,"is_disabled":false,"rental_uris":{"android":"levelo://app?vid=f7766469-8e5d-4919-bd23-9500479853b9","ios":"levelo://app?vid=f7766469-8e5d-4919-bd23-9500479853b9"},"vehicle_type_id":"4","last_reported":1687190896,"current_range_meters":31200,"station_id":"ce4bgih2rcd13ifvqba0","pricing_plan_id":"free"},{"bike_id":"f046a37d-1fc7-4364-908b-d41009154ab1","system_id":"levelo_inurba_marseille","lat":43.29529,"lon":5.385581,"is_reserved":false,"is_disabled":false,"rental_uris":{"android":"levelo://app?vid=f046a37d-1fc7-4364-908b-d41009154ab1","ios":"levelo://app?vid=f046a37d-1fc7-4364-908b-d41009154ab1"},"vehicle_type_id":"4","last_reported":1687190896,"current_range_meters":12800,"station_id":"ce4bgih2rcd13ifvqba0","pricing_plan_id":"free"},{"bike_id":"76b209d3-c19e-46cb-aedb-c0ea668544d6","system_id":"levelo_inurba_marseille","lat":43.29529,"lon":5.385581,"is_reserved":false,"is_disabled":false,"rental_uris":{"android":"levelo://app?vid=76b209d3-c19e-46cb-aedb-c0ea668544d6","ios":"levelo://app?vid=76b209d3-c19e-46cb-aedb-c0ea668544d6"},"vehicle_type_id":"4","last_reported":1687190896,"current_range_meters":2800,"station_id":"ce4bgih2rcd13ifvqba0","pricing_plan_id":"free"},{"bike_id":"17c69ba3-0244-45cc-b412-f64e5f95f48c","system_id":"levelo_inurba_marseille","lat":43.29529,"lon":5.385581,"is_reserved":false,"is_disabled":false,"rental_uris":{"android":"levelo://app?vid=17c69ba3-0244-45cc-b412-f64e5f95f48c","ios":"levelo://app?vid=17c69ba3-0244-45cc-b412-f64e5f95f48c"},"vehicle_type_id":"4","last_reported":1687190896,"current_range_meters":19200,"station_id":"ce4bgih2rcd13ifvqba0","pricing_plan_id":"free"},{"bike_id":"2eb53baa-c79d-4344-901f-10e8fcc8f655","system_id":"levelo_inurba_marseille","lat":43.29529,"lon":5.385581,"is_reserved":false,"is_disabled":false,"rental_uris":{"android":"levelo://app?vid=2eb53baa-c79d-4344-901f-10e8fcc8f655","ios":"levelo://app?vid=2eb53baa-c79d-4344-901f-10e8fcc8f655"},"vehicle_type_id":"4","last_reported":1687190896,"current_range_meters":12800,"station_id":"ce4bgih2rcd13ifvqba0","pricing_plan_id":"free"},{"bike_id":"6c345782-5e5d-455b-a644-0475c9bac7c0","system_id":"levelo_inurba_marseille","lat":43.30215,"lon":5.39466,"is_reserved":false,"is_disabled":false,"rental_uris":{"android":"levelo://app?vid=6c345782-5e5d-455b-a644-0475c9bac7c0","ios":"levelo://app?vid=6c345782-5e5d-455b-a644-0475c9bac7c0"},"vehicle_type_id":"4","last_reported":1687190896,"current_range_meters":27600,"station_id":"ce4bh0p2rcd13ifvqd70","pricing_plan_id":"free"},{"bike_id":"faf10d1a-cc09-44d4-919e-572b4cfa989f","system_id":"levelo_inurba_marseille","lat":43.30222,"lon":5.39487,"is_reserved":false,"is_disabled":false,"rental_uris":{"android":"levelo://app?vid=faf10d1a-cc09-44d4-919e-572b4cfa989f","ios":"levelo://app?vid=faf10d1a-cc09-44d4-919e-572b4cfa989f"},"vehicle_type_id":"4","last_reported":1687190896,"current_range_meters":7200,"station_id":"","pricing_plan_id":"free"},{"bike_id":"5d6ad315-fe2d-4257-9740-c855270004ff","system_id":"levelo_inurba_marseille","lat":43.290631,"lon":5.359244,"is_reserved":false,"is_disabled":false,"rental_uris":{"android":"levelo://app?vid=5d6ad315-fe2d-4257-9740-c855270004ff","ios":"levelo://app?vid=5d6ad315-fe2d-4257-9740-c855270004ff"},"vehicle_type_id":"4","last_reported":1687190896,"current_range_meters":8400,"station_id":"ce4bha92rcd13ifvqeg0","pricing_plan_id":"free"},{"bike_id":"dfc94388-b9cf-45dd-84fb-59e28501563c","system_id":"levelo_inurba_marseille","lat":43.290631,"lon":5.359244,"is_reserved":false,"is_disabled":false,"rental_uris":{"android":"levelo://app?vid=dfc94388-b9cf-45dd-84fb-59e28501563c","ios":"levelo://app?vid=dfc94388-b9cf-45dd-84fb-59e28501563c"},"vehicle_type_id":"4","last_reported":1687190896,"current_range_meters":10000,"station_id":"ce4bha92rcd13ifvqeg0","pricing_plan_id":"free"},{"bike_id":"0609f09b-61e5-40d1-a057-3a5b9409ddd1","system_id":"levelo_inurba_marseille","lat":43.29424,"lon":5.38622,"is_reserved":false,"is_disabled":false,"rental_uris":{"android":"levelo://app?vid=0609f09b-61e5-40d1-a057-3a5b9409ddd1","ios":"levelo://app?vid=0609f09b-61e5-40d1-a057-3a5b9409ddd1"},"vehicle_type_id":"4","last_reported":1687190896,"current_range_meters":28400,"station_id":"ce4bh2h2rcd13ifvqdh0","pricing_plan_id":"free"},{"bike_id":"8ea39ed8-0125-4683-83b3-9654906e7eea","system_id":"levelo_inurba_marseille","lat":43.29418,"lon":5.38614,"is_reserved":false,"is_disabled":false,"rental_uris":{"android":"levelo://app?vid=8ea39ed8-0125-4683-83b3-9654906e7eea","ios":"levelo://app?vid=8ea39ed8-0125-4683-83b3-9654906e7eea"},"vehicle_type_id":"4","last_reported":1687190896,"current_range_meters":31200,"station_id":"ce4bh2h2rcd13ifvqdh0","pricing_plan_id":"free"},{"bike_id":"be09e98f-f3f9-4f24-88f4-989dee60ff6c","system_id":"levelo_inurba_marseille","lat":43.29419,"lon":5.3862,"is_reserved":false,"is_disabled":false,"rental_uris":{"android":"levelo://app?vid=be09e98f-f3f9-4f24-88f4-989dee60ff6c","ios":"levelo://app?vid=be09e98f-f3f9-4f24-88f4-989dee60ff6c"},"vehicle_type_id":"4","last_reported":1687190896,"current_range_meters":30000,"station_id":"ce4bh2h2rcd13ifvqdh0","pricing_plan_id":"free"},{"bike_id":"d35f7593-5ac3-4252-bc3a-ef92dbdb4920","system_id":"levelo_inurba_marseille","lat":43.29031,"lon":5.37545,"is_reserved":false,"is_disabled":false,"rental_uris":{"android":"levelo://app?vid=d35f7593-5ac3-4252-bc3a-ef92dbdb4920","ios":"levelo://app?vid=d35f7593-5ac3-4252-bc3a-ef92dbdb4920"},"vehicle_type_id":"4","last_reported":1687190896,"current_range_meters":12000,"station_id":"ce4bh692rcd13ifvqe90","pricing_plan_id":"free"},{"bike_id":"f0d459bb-5120-4222-a229-4d070408c262","system_id":"levelo_inurba_marseille","lat":43.294162,"lon":5.386292,"is_reserved":false,"is_disabled":false,"rental_uris":{"android":"levelo://app?vid=f0d459bb-5120-4222-a229-4d070408c262","ios":"levelo://app?vid=f0d459bb-5120-4222-a229-4d070408c262"},"vehicle_type_id":"4","last_reported":1687190896,"current_range_meters":0,"station_id":"ce4bh2h2rcd13ifvqdh0","pricing_plan_id":"free"},{"bike_id":"a312bb0e-4846-4a00-a1ca-8a173615b026","system_id":"levelo_inurba_marseille","lat":43.29418,"lon":5.38624,"is_reserved":false,"is_disabled":false,"rental_uris":{"android":"levelo://app?vid=a312bb0e-4846-4a00-a1ca-8a173615b026","ios":"levelo://app?vid=a312bb0e-4846-4a00-a1ca-8a173615b026"},"vehicle_type_id":"4","last_reported":1687190896,"current_range_meters":30800,"station_id":"","pricing_plan_id":"free"},{"bike_id":"a23f4523-6cfd-4471-9d65-ceb7fbf4b186","system_id":"levelo_inurba_marseille","lat":43.2942,"lon":5.38628,"is_reserved":false,"is_disabled":false,"rental_uris":{"android":"levelo://app?vid=a23f4523-6cfd-4471-9d65-ceb7fbf4b186","ios":"levelo://app?vid=a23f4523-6cfd-4471-9d65-ceb7fbf4b186"},"vehicle_type_id":"4","last_reported":1687190896,"current_range_meters":5200,"station_id":"ce4bh2h2rcd13ifvqdh0","pricing_plan_id":"free"},{"bike_id":"77095a1b-5991-4642-970c-aaf7d77b85d5","system_id":"levelo_inurba_marseille","lat":43.29415,"lon":5.38624,"is_reserved":false,"is_disabled":false,"rental_uris":{"android":"levelo://app?vid=77095a1b-5991-4642-970c-aaf7d77b85d5","ios":"levelo://app?vid=77095a1b-5991-4642-970c-aaf7d77b85d5"},"vehicle_type_id":"4","last_reported":1687190896,"current_range_meters":17600,"station_id":"ce4bh2h2rcd13ifvqdh0","pricing_plan_id":"free"},{"bike_id":"63a0a3fe-2b41-41a6-b409-881038dd29db","system_id":"levelo_inurba_marseille","lat":43.289468,"lon":5.363719,"is_reserved":false,"is_disabled":false,"rental_uris":{"android":"levelo://app?vid=63a0a3fe-2b41-41a6-b409-881038dd29db","ios":"levelo://app?vid=63a0a3fe-2b41-41a6-b409-881038dd29db"},"vehicle_type_id":"4","last_reported":1687190896,"current_range_meters":12000,"station_id":"ce4bhc92rcd13ifvqetg","pricing_plan_id":"free"},{"bike_id":"ad10c2a8-c795-45f7-b6a8-115828e88e3a","system_id":"levelo_inurba_marseille","lat":43.292644,"lon":5.384257,"is_reserved":false,"is_disabled":false,"rental_uris":{"android":"levelo://app?vid=ad10c2a8-c795-45f7-b6a8-115828e88e3a","ios":"levelo://app?vid=ad10c2a8-c795-45f7-b6a8-115828e88e3a"},"vehicle_type_id":"4","last_reported":1687190896,"current_range_meters":5600,"station_id":"ce4bh692rcd13ifvqea0","pricing_plan_id":"free"},{"bike_id":"3b960e90-331d-42da-9107-be0ab8fbf9ae","system_id":"levelo_inurba_marseille","lat":43.29276,"lon":5.38445,"is_reserved":false,"is_disabled":false,"rental_uris":{"android":"levelo://app?vid=3b960e90-331d-42da-9107-be0ab8fbf9ae","ios":"levelo://app?vid=3b960e90-331d-42da-9107-be0ab8fbf9ae"},"vehicle_type_id":"4","last_reported":1687190896,"current_range_meters":2800,"station_id":"ce4bh692rcd13ifvqea0","pricing_plan_id":"free"},{"bike_id":"38eb09af-7166-42b9-865e-84246929498f","system_id":"levelo_inurba_marseille","lat":43.292644,"lon":5.384257,"is_reserved":false,"is_disabled":false,"rental_uris":{"android":"levelo://app?vid=38eb09af-7166-42b9-865e-84246929498f","ios":"levelo://app?vid=38eb09af-7166-42b9-865e-84246929498f"},"vehicle_type_id":"4","last_reported":1687190896,"current_range_meters":31600,"station_id":"ce4bh692rcd13ifvqea0","pricing_plan_id":"free"},{"bike_id":"cc1dc4d8-7377-4e61-b128-1e3115f2d5fa","system_id":"levelo_inurba_marseille","lat":43.304296,"lon":5.397513,"is_reserved":false,"is_disabled":false,"rental_uris":{"android":"levelo://app?vid=cc1dc4d8-7377-4e61-b128-1e3115f2d5fa","ios":"levelo://app?vid=cc1dc4d8-7377-4e61-b128-1e3115f2d5fa"},"vehicle_type_id":"4","last_reported":1687190896,"current_range_meters":17600,"station_id":"ce4bh092rcd13ifvqd20","pricing_plan_id":"free"},{"bike_id":"6e490b1c-0cab-454c-973c-49b136f2b08e","system_id":"levelo_inurba_marseille","lat":43.304296,"lon":5.397513,"is_reserved":false,"is_disabled":false,"rental_uris":{"android":"levelo://app?vid=6e490b1c-0cab-454c-973c-49b136f2b08e","ios":"levelo://app?vid=6e490b1c-0cab-454c-973c-49b136f2b08e"},"vehicle_type_id":"4","last_reported":1687190896,"current_range_meters":20000,"station_id":"ce4bh092rcd13ifvqd20","pricing_plan_id":"free"},{"bike_id":"cbff60ee-dd9b-4964-98da-b9d3b47c5d6c","system_id":"levelo_inurba_marseille","lat":43.292644,"lon":5.384257,"is_reserved":false,"is_disabled":false,"rental_uris":{"android":"levelo://app?vid=cbff60ee-dd9b-4964-98da-b9d3b47c5d6c","ios":"levelo://app?vid=cbff60ee-dd9b-4964-98da-b9d3b47c5d6c"},"vehicle_type_id":"4","last_reported":1687190896,"current_range_meters":4400,"station_id":"ce4bh692rcd13ifvqea0","pricing_plan_id":"free"},{"bike_id":"b1df00eb-45fe-49d0-bb74-c5f427476ef1","system_id":"levelo_inurba_marseille","lat":43.29269,"lon":5.38448,"is_reserved":false,"is_disabled":false,"rental_uris":{"android":"levelo://app?vid=b1df00eb-45fe-49d0-bb74-c5f427476ef1","ios":"levelo://app?vid=b1df00eb-45fe-49d0-bb74-c5f427476ef1"},"vehicle_type_id":"4","last_reported":1687190896,"current_range_meters":31200,"station_id":"ce4bh692rcd13ifvqea0","pricing_plan_id":"free"},{"bike_id":"9f99b50f-7f09-4513-a2a8-801b2f253037","system_id":"levelo_inurba_marseille","lat":43.2927,"lon":5.38451,"is_reserved":false,"is_disabled":false,"rental_uris":{"android":"levelo://app?vid=9f99b50f-7f09-4513-a2a8-801b2f253037","ios":"levelo://app?vid=9f99b50f-7f09-4513-a2a8-801b2f253037"},"vehicle_type_id":"4","last_reported":1687190896,"current_range_meters":31200,"station_id":"ce4bh692rcd13ifvqea0","pricing_plan_id":"free"},{"bike_id":"bac27a8b-ae95-4376-b197-2db5e81cad13","system_id":"levelo_inurba_marseille","lat":43.292644,"lon":5.384257,"is_reserved":false,"is_disabled":false,"rental_uris":{"android":"levelo://app?vid=bac27a8b-ae95-4376-b197-2db5e81cad13","ios":"levelo://app?vid=bac27a8b-ae95-4376-b197-2db5e81cad13"},"vehicle_type_id":"4","last_reported":1687190896,"current_range_meters":29600,"station_id":"ce4bh692rcd13ifvqea0","pricing_plan_id":"free"},{"bike_id":"6a606ec0-8631-4538-ab6e-ffb4dbf2470c","system_id":"levelo_inurba_marseille","lat":43.292644,"lon":5.384257,"is_reserved":false,"is_disabled":false,"rental_uris":{"android":"levelo://app?vid=6a606ec0-8631-4538-ab6e-ffb4dbf2470c","ios":"levelo://app?vid=6a606ec0-8631-4538-ab6e-ffb4dbf2470c"},"vehicle_type_id":"4","last_reported":1687190896,"current_range_meters":30400,"station_id":"ce4bh692rcd13ifvqea0","pricing_plan_id":"free"},{"bike_id":"856302c7-b552-4b12-bc58-6bad65609b5c","system_id":"levelo_inurba_marseille","lat":43.29266,"lon":5.38448,"is_reserved":false,"is_disabled":false,"rental_uris":{"android":"levelo://app?vid=856302c7-b552-4b12-bc58-6bad65609b5c","ios":"levelo://app?vid=856302c7-b552-4b12-bc58-6bad65609b5c"},"vehicle_type_id":"4","last_reported":1687190896,"current_range_meters":26000,"station_id":"ce4bh692rcd13ifvqea0","pricing_plan_id":"free"},{"bike_id":"6e0682b6-8052-461d-9577-632e3f414440","system_id":"levelo_inurba_marseille","lat":43.29264,"lon":5.38448,"is_reserved":false,"is_disabled":false,"rental_uris":{"android":"levelo://app?vid=6e0682b6-8052-461d-9577-632e3f414440","ios":"levelo://app?vid=6e0682b6-8052-461d-9577-632e3f414440"},"vehicle_type_id":"4","last_reported":1687190896,"current_range_meters":0,"station_id":"ce4bh692rcd13ifvqea0","pricing_plan_id":"free"},{"bike_id":"85d6635d-313c-4f7b-9f7e-cdb76dd62687","system_id":"levelo_inurba_marseille","lat":43.304296,"lon":5.397513,"is_reserved":false,"is_disabled":false,"rental_uris":{"android":"levelo://app?vid=85d6635d-313c-4f7b-9f7e-cdb76dd62687","ios":"levelo://app?vid=85d6635d-313c-4f7b-9f7e-cdb76dd62687"},"vehicle_type_id":"4","last_reported":1687190896,"current_range_meters":23600,"station_id":"ce4bh092rcd13ifvqd20","pricing_plan_id":"free"},{"bike_id":"10f94c83-1963-4f1f-938e-438ed650c155","system_id":"levelo_inurba_marseille","lat":43.290104,"lon":5.356111,"is_reserved":false,"is_disabled":false,"rental_uris":{"android":"levelo://app?vid=10f94c83-1963-4f1f-938e-438ed650c155","ios":"levelo://app?vid=10f94c83-1963-4f1f-938e-438ed650c155"},"vehicle_type_id":"4","last_reported":1687190896,"current_range_meters":22400,"station_id":"ce4bhb92rcd13ifvqen0","pricing_plan_id":"free"},{"bike_id":"4febbc9b-2d49-4ee9-9f76-552b68937bbc","system_id":"levelo_inurba_marseille","lat":43.290103,"lon":5.356114,"is_reserved":false,"is_disabled":false,"rental_uris":{"android":"levelo://app?vid=4febbc9b-2d49-4ee9-9f76-552b68937bbc","ios":"levelo://app?vid=4febbc9b-2d49-4ee9-9f76-552b68937bbc"},"vehicle_type_id":"4","last_reported":1687190896,"current_range_meters":21200,"station_id":"ce4bhb92rcd13ifvqen0","pricing_plan_id":"free"},{"bike_id":"a449db63-709b-4118-aad7-1f381557c91a","system_id":"levelo_inurba_marseille","lat":43.290104,"lon":5.356111,"is_reserved":false,"is_disabled":false,"rental_uris":{"android":"levelo://app?vid=a449db63-709b-4118-aad7-1f381557c91a","ios":"levelo://app?vid=a449db63-709b-4118-aad7-1f381557c91a"},"vehicle_type_id":"4","last_reported":1687190896,"current_range_meters":9600,"station_id":"ce4bhb92rcd13ifvqen0","pricing_plan_id":"free"},{"bike_id":"7aa88461-a80f-4915-80c0-d04626ef1313","system_id":"levelo_inurba_marseille","lat":43.290103,"lon":5.356114,"is_reserved":false,"is_disabled":false,"rental_uris":{"android":"levelo://app?vid=7aa88461-a80f-4915-80c0-d04626ef1313","ios":"levelo://app?vid=7aa88461-a80f-4915-80c0-d04626ef1313"},"vehicle_type_id":"4","last_reported":1687190896,"current_range_meters":14400,"station_id":"ce4bhb92rcd13ifvqen0","pricing_plan_id":"free"},{"bike_id":"2d7ce5b6-df34-477f-95be-587416420196","system_id":"levelo_inurba_marseille","lat":43.290104,"lon":5.356111,"is_reserved":false,"is_disabled":false,"rental_uris":{"android":"levelo://app?vid=2d7ce5b6-df34-477f-95be-587416420196","ios":"levelo://app?vid=2d7ce5b6-df34-477f-95be-587416420196"},"vehicle_type_id":"4","last_reported":1687190896,"current_range_meters":17600,"station_id":"ce4bhb92rcd13ifvqen0","pricing_plan_id":"free"},{"bike_id":"8f16ab45-0154-48c5-ac3d-1ecc75454bd0","system_id":"levelo_inurba_marseille","lat":43.290104,"lon":5.356111,"is_reserved":false,"is_disabled":false,"rental_uris":{"android":"levelo://app?vid=8f16ab45-0154-48c5-ac3d-1ecc75454bd0","ios":"levelo://app?vid=8f16ab45-0154-48c5-ac3d-1ecc75454bd0"},"vehicle_type_id":"4","last_reported":1687190896,"current_range_meters":6400,"station_id":"ce4bhb92rcd13ifvqen0","pricing_plan_id":"free"},{"bike_id":"9f26f854-9866-4bb8-93fc-0d56f84c0ff6","system_id":"levelo_inurba_marseille","lat":43.290103,"lon":5.356114,"is_reserved":false,"is_disabled":false,"rental_uris":{"android":"levelo://app?vid=9f26f854-9866-4bb8-93fc-0d56f84c0ff6","ios":"levelo://app?vid=9f26f854-9866-4bb8-93fc-0d56f84c0ff6"},"vehicle_type_id":"4","last_reported":1687190896,"current_range_meters":29600,"station_id":"ce4bhb92rcd13ifvqen0","pricing_plan_id":"free"},{"bike_id":"77ad13e7-fc05-4f6a-a5f4-dcc587d34bdd","system_id":"levelo_inurba_marseille","lat":43.290104,"lon":5.356111,"is_reserved":false,"is_disabled":false,"rental_uris":{"android":"levelo://app?vid=77ad13e7-fc05-4f6a-a5f4-dcc587d34bdd","ios":"levelo://app?vid=77ad13e7-fc05-4f6a-a5f4-dcc587d34bdd"},"vehicle_type_id":"4","last_reported":1687190896,"current_range_meters":21200,"station_id":"ce4bhb92rcd13ifvqen0","pricing_plan_id":"free"},{"bike_id":"ab3f7302-913f-4520-aa41-792a98c17402","system_id":"levelo_inurba_marseille","lat":43.290104,"lon":5.356111,"is_reserved":false,"is_disabled":false,"rental_uris":{"android":"levelo://app?vid=ab3f7302-913f-4520-aa41-792a98c17402","ios":"levelo://app?vid=ab3f7302-913f-4520-aa41-792a98c17402"},"vehicle_type_id":"4","last_reported":1687190896,"current_range_meters":25600,"station_id":"ce4bhb92rcd13ifvqen0","pricing_plan_id":"free"},{"bike_id":"836247c4-4ae8-476d-8c5b-d22d70d12cad","system_id":"levelo_inurba_marseille","lat":43.290103,"lon":5.356114,"is_reserved":false,"is_disabled":false,"rental_uris":{"android":"levelo://app?vid=836247c4-4ae8-476d-8c5b-d22d70d12cad","ios":"levelo://app?vid=836247c4-4ae8-476d-8c5b-d22d70d12cad"},"vehicle_type_id":"4","last_reported":1687190896,"current_range_meters":24400,"station_id":"ce4bhb92rcd13ifvqen0","pricing_plan_id":"free"},{"bike_id":"073dd23f-0603-4e56-87a7-31b9491279cb","system_id":"levelo_inurba_marseille","lat":43.290104,"lon":5.356111,"is_reserved":false,"is_disabled":false,"rental_uris":{"android":"levelo://app?vid=073dd23f-0603-4e56-87a7-31b9491279cb","ios":"levelo://app?vid=073dd23f-0603-4e56-87a7-31b9491279cb"},"vehicle_type_id":"4","last_reported":1687190896,"current_range_meters":16000,"station_id":"ce4bhb92rcd13ifvqen0","pricing_plan_id":"free"},{"bike_id":"f14c5b6e-fbf1-4bc4-8cac-5384a6889676","system_id":"levelo_inurba_marseille","lat":43.33044,"lon":5.38923,"is_reserved":false,"is_disabled":false,"rental_uris":{"android":"levelo://app?vid=f14c5b6e-fbf1-4bc4-8cac-5384a6889676","ios":"levelo://app?vid=f14c5b6e-fbf1-4bc4-8cac-5384a6889676"},"vehicle_type_id":"4","last_reported":1687190896,"current_range_meters":4800,"station_id":"ce4bhr92rcd13ifvqhrg","pricing_plan_id":"free"},{"bike_id":"017493c1-f696-4900-a930-da29fc67cce6","system_id":"levelo_inurba_marseille","lat":43.290104,"lon":5.356111,"is_reserved":false,"is_disabled":false,"rental_uris":{"android":"levelo://app?vid=017493c1-f696-4900-a930-da29fc67cce6","ios":"levelo://app?vid=017493c1-f696-4900-a930-da29fc67cce6"},"vehicle_type_id":"4","last_reported":1687190896,"current_range_meters":2800,"station_id":"ce4bhb92rcd13ifvqen0","pricing_plan_id":"free"},{"bike_id":"41802908-b9b0-427f-bd1e-2402ae2ae2b4","system_id":"levelo_inurba_marseille","lat":43.295169,"lon":5.390426,"is_reserved":false,"is_disabled":false,"rental_uris":{"android":"levelo://app?vid=41802908-b9b0-427f-bd1e-2402ae2ae2b4","ios":"levelo://app?vid=41802908-b9b0-427f-bd1e-2402ae2ae2b4"},"vehicle_type_id":"4","last_reported":1687190896,"current_range_meters":5200,"station_id":"ce4bh3p2rcd13ifvqdp0","pricing_plan_id":"free"},{"bike_id":"b9b44b37-7edf-4ab6-8685-17eb58a26dbc","system_id":"levelo_inurba_marseille","lat":43.295169,"lon":5.390426,"is_reserved":false,"is_disabled":false,"rental_uris":{"android":"levelo://app?vid=b9b44b37-7edf-4ab6-8685-17eb58a26dbc","ios":"levelo://app?vid=b9b44b37-7edf-4ab6-8685-17eb58a26dbc"},"vehicle_type_id":"4","last_reported":1687190896,"current_range_meters":31200,"station_id":"ce4bh3p2rcd13ifvqdp0","pricing_plan_id":"free"},{"bike_id":"f1a64b76-57a5-4d59-bce1-3e9718a4ed2a","system_id":"levelo_inurba_marseille","lat":43.28856,"lon":5.358371,"is_reserved":false,"is_disabled":false,"rental_uris":{"android":"levelo://app?vid=f1a64b76-57a5-4d59-bce1-3e9718a4ed2a","ios":"levelo://app?vid=f1a64b76-57a5-4d59-bce1-3e9718a4ed2a"},"vehicle_type_id":"4","last_reported":1687190896,"current_range_meters":22400,"station_id":"ce4bhb12rcd13ifvqem0","pricing_plan_id":"free"},{"bike_id":"3b3f8c76-7501-4210-8e33-72c733efedb5","system_id":"levelo_inurba_marseille","lat":43.28856,"lon":5.358371,"is_reserved":false,"is_disabled":false,"rental_uris":{"android":"levelo://app?vid=3b3f8c76-7501-4210-8e33-72c733efedb5","ios":"levelo://app?vid=3b3f8c76-7501-4210-8e33-72c733efedb5"},"vehicle_type_id":"4","last_reported":1687190896,"current_range_meters":22400,"station_id":"ce4bhb12rcd13ifvqem0","pricing_plan_id":"free"},{"bike_id":"5bbbcb5b-1a93-40ca-9c22-10d59e363603","system_id":"levelo_inurba_marseille","lat":43.28856,"lon":5.358371,"is_reserved":false,"is_disabled":false,"rental_uris":{"android":"levelo://app?vid=5bbbcb5b-1a93-40ca-9c22-10d59e363603","ios":"levelo://app?vid=5bbbcb5b-1a93-40ca-9c22-10d59e363603"},"vehicle_type_id":"4","last_reported":1687190896,"current_range_meters":20000,"station_id":"ce4bhb12rcd13ifvqem0","pricing_plan_id":"free"},{"bike_id":"5e8d88a6-e5b0-436c-ab2f-4561bda8cbf4","system_id":"levelo_inurba_marseille","lat":43.28856,"lon":5.358371,"is_reserved":false,"is_disabled":false,"rental_uris":{"android":"levelo://app?vid=5e8d88a6-e5b0-436c-ab2f-4561bda8cbf4","ios":"levelo://app?vid=5e8d88a6-e5b0-436c-ab2f-4561bda8cbf4"},"vehicle_type_id":"4","last_reported":1687190896,"current_range_meters":26400,"station_id":"ce4bhb12rcd13ifvqem0","pricing_plan_id":"free"},{"bike_id":"7df76350-9348-4ce4-9dde-57221debd867","system_id":"levelo_inurba_marseille","lat":43.28856,"lon":5.358371,"is_reserved":false,"is_disabled":false,"rental_uris":{"android":"levelo://app?vid=7df76350-9348-4ce4-9dde-57221debd867","ios":"levelo://app?vid=7df76350-9348-4ce4-9dde-57221debd867"},"vehicle_type_id":"4","last_reported":1687190896,"current_range_meters":3600,"station_id":"ce4bhb12rcd13ifvqem0","pricing_plan_id":"free"},{"bike_id":"3f50ab8c-2491-42ca-8c41-5373a49ad8e9","system_id":"levelo_inurba_marseille","lat":43.28849,"lon":5.35866,"is_reserved":false,"is_disabled":false,"rental_uris":{"android":"levelo://app?vid=3f50ab8c-2491-42ca-8c41-5373a49ad8e9","ios":"levelo://app?vid=3f50ab8c-2491-42ca-8c41-5373a49ad8e9"},"vehicle_type_id":"4","last_reported":1687190896,"current_range_meters":13600,"station_id":"ce4bhb12rcd13ifvqem0","pricing_plan_id":"free"},{"bike_id":"af662e15-832b-4533-af9d-1a4e41167610","system_id":"levelo_inurba_marseille","lat":43.309371,"lon":5.401449,"is_reserved":false,"is_disabled":false,"rental_uris":{"android":"levelo://app?vid=af662e15-832b-4533-af9d-1a4e41167610","ios":"levelo://app?vid=af662e15-832b-4533-af9d-1a4e41167610"},"vehicle_type_id":"4","last_reported":1687190896,"current_range_meters":18400,"station_id":"ce4bgvp2rcd13ifvqct0","pricing_plan_id":"free"},{"bike_id":"84235437-fc3e-48f8-8248-b3e75018958b","system_id":"levelo_inurba_marseille","lat":43.30642,"lon":5.401031,"is_reserved":false,"is_disabled":false,"rental_uris":{"android":"levelo://app?vid=84235437-fc3e-48f8-8248-b3e75018958b","ios":"levelo://app?vid=84235437-fc3e-48f8-8248-b3e75018958b"},"vehicle_type_id":"4","last_reported":1687190896,"current_range_meters":31200,"station_id":"ce4bh112rcd13ifvqda0","pricing_plan_id":"free"},{"bike_id":"83bce30a-5455-4c9e-922b-21c21465e074","system_id":"levelo_inurba_marseille","lat":43.30642,"lon":5.401031,"is_reserved":false,"is_disabled":false,"rental_uris":{"android":"levelo://app?vid=83bce30a-5455-4c9e-922b-21c21465e074","ios":"levelo://app?vid=83bce30a-5455-4c9e-922b-21c21465e074"},"vehicle_type_id":"4","last_reported":1687190896,"current_range_meters":18800,"station_id":"ce4bh112rcd13ifvqda0","pricing_plan_id":"free"},{"bike_id":"41a8749b-6d93-4d1b-8e52-c5f60f65ae7c","system_id":"levelo_inurba_marseille","lat":43.33756,"lon":5.3745,"is_reserved":false,"is_disabled":false,"rental_uris":{"android":"levelo://app?vid=41a8749b-6d93-4d1b-8e52-c5f60f65ae7c","ios":"levelo://app?vid=41a8749b-6d93-4d1b-8e52-c5f60f65ae7c"},"vehicle_type_id":"4","last_reported":1687190896,"current_range_meters":30800,"station_id":"","pricing_plan_id":"free"},{"bike_id":"2cc82dd6-0c30-4b26-990e-df1acb7a344b","system_id":"levelo_inurba_marseille","lat":43.30664,"lon":5.40086,"is_reserved":false,"is_disabled":false,"rental_uris":{"android":"levelo://app?vid=2cc82dd6-0c30-4b26-990e-df1acb7a344b","ios":"levelo://app?vid=2cc82dd6-0c30-4b26-990e-df1acb7a344b"},"vehicle_type_id":"4","last_reported":1687190896,"current_range_meters":20400,"station_id":"ce4bh112rcd13ifvqda0","pricing_plan_id":"free"},{"bike_id":"995d8c7e-6f97-4dca-81a0-d653b451e26f","system_id":"levelo_inurba_marseille","lat":43.30642,"lon":5.401031,"is_reserved":false,"is_disabled":false,"rental_uris":{"android":"levelo://app?vid=995d8c7e-6f97-4dca-81a0-d653b451e26f","ios":"levelo://app?vid=995d8c7e-6f97-4dca-81a0-d653b451e26f"},"vehicle_type_id":"4","last_reported":1687190896,"current_range_meters":26000,"station_id":"ce4bh112rcd13ifvqda0","pricing_plan_id":"free"},{"bike_id":"fd6ae118-2bfa-47fe-9e3a-7043c821477c","system_id":"levelo_inurba_marseille","lat":43.30648,"lon":5.40094,"is_reserved":false,"is_disabled":false,"rental_uris":{"android":"levelo://app?vid=fd6ae118-2bfa-47fe-9e3a-7043c821477c","ios":"levelo://app?vid=fd6ae118-2bfa-47fe-9e3a-7043c821477c"},"vehicle_type_id":"4","last_reported":1687190896,"current_range_meters":28400,"station_id":"ce4bh112rcd13ifvqda0","pricing_plan_id":"free"},{"bike_id":"08183059-4186-491b-a41f-89f53526645c","system_id":"levelo_inurba_marseille","lat":43.30642,"lon":5.401031,"is_reserved":false,"is_disabled":false,"rental_uris":{"android":"levelo://app?vid=08183059-4186-491b-a41f-89f53526645c","ios":"levelo://app?vid=08183059-4186-491b-a41f-89f53526645c"},"vehicle_type_id":"4","last_reported":1687190896,"current_range_meters":30000,"station_id":"ce4bh112rcd13ifvqda0","pricing_plan_id":"free"},{"bike_id":"b34b0b72-8cc8-4086-a968-440a07c19996","system_id":"levelo_inurba_marseille","lat":43.30596,"lon":5.40089,"is_reserved":false,"is_disabled":false,"rental_uris":{"android":"levelo://app?vid=b34b0b72-8cc8-4086-a968-440a07c19996","ios":"levelo://app?vid=b34b0b72-8cc8-4086-a968-440a07c19996"},"vehicle_type_id":"4","last_reported":1687190896,"current_range_meters":16400,"station_id":"","pricing_plan_id":"free"},{"bike_id":"7ba9ddff-0f4e-4129-befe-1ac2174e962c","system_id":"levelo_inurba_marseille","lat":43.301117,"lon":5.398795,"is_reserved":false,"is_disabled":false,"rental_uris":{"android":"levelo://app?vid=7ba9ddff-0f4e-4129-befe-1ac2174e962c","ios":"levelo://app?vid=7ba9ddff-0f4e-4129-befe-1ac2174e962c"},"vehicle_type_id":"4","last_reported":1687190896,"current_range_meters":25600,"station_id":"ce4bh0h2rcd13ifvqd40","pricing_plan_id":"free"},{"bike_id":"9cdddb81-db03-4b3c-ba2e-bba8c4e40fab","system_id":"levelo_inurba_marseille","lat":43.301117,"lon":5.398795,"is_reserved":false,"is_disabled":false,"rental_uris":{"android":"levelo://app?vid=9cdddb81-db03-4b3c-ba2e-bba8c4e40fab","ios":"levelo://app?vid=9cdddb81-db03-4b3c-ba2e-bba8c4e40fab"},"vehicle_type_id":"4","last_reported":1687190896,"current_range_meters":6800,"station_id":"ce4bh0h2rcd13ifvqd40","pricing_plan_id":"free"},{"bike_id":"8d4ac985-db1d-4869-aa10-5706c5c8c948","system_id":"levelo_inurba_marseille","lat":43.301117,"lon":5.398795,"is_reserved":false,"is_disabled":false,"rental_uris":{"android":"levelo://app?vid=8d4ac985-db1d-4869-aa10-5706c5c8c948","ios":"levelo://app?vid=8d4ac985-db1d-4869-aa10-5706c5c8c948"},"vehicle_type_id":"4","last_reported":1687190896,"current_range_meters":31200,"station_id":"ce4bh0h2rcd13ifvqd40","pricing_plan_id":"free"},{"bike_id":"7ebc1515-8bee-48a9-a678-1d1069bda32f","system_id":"levelo_inurba_marseille","lat":43.301117,"lon":5.398795,"is_reserved":false,"is_disabled":false,"rental_uris":{"android":"levelo://app?vid=7ebc1515-8bee-48a9-a678-1d1069bda32f","ios":"levelo://app?vid=7ebc1515-8bee-48a9-a678-1d1069bda32f"},"vehicle_type_id":"4","last_reported":1687190896,"current_range_meters":6400,"station_id":"ce4bh0h2rcd13ifvqd40","pricing_plan_id":"free"},{"bike_id":"af792e83-bfd3-45d5-8aff-9ad8b49bcff9","system_id":"levelo_inurba_marseille","lat":43.286961,"lon":5.373785,"is_reserved":false,"is_disabled":false,"rental_uris":{"android":"levelo://app?vid=af792e83-bfd3-45d5-8aff-9ad8b49bcff9","ios":"levelo://app?vid=af792e83-bfd3-45d5-8aff-9ad8b49bcff9"},"vehicle_type_id":"4","last_reported":1687190896,"current_range_meters":5200,"station_id":"ce4bh3p2rcd13ifvqdq0","pricing_plan_id":"free"},{"bike_id":"851dc344-a327-4168-a747-c25779f8f431","system_id":"levelo_inurba_marseille","lat":43.286591,"lon":5.363346,"is_reserved":false,"is_disabled":false,"rental_uris":{"android":"levelo://app?vid=851dc344-a327-4168-a747-c25779f8f431","ios":"levelo://app?vid=851dc344-a327-4168-a747-c25779f8f431"},"vehicle_type_id":"4","last_reported":1687190896,"current_range_meters":17200,"station_id":"ce4bhah2rcd13ifvqej0","pricing_plan_id":"free"},{"bike_id":"c8bf13a5-3bb8-47d5-a6ce-050de2b89bf8","system_id":"levelo_inurba_marseille","lat":43.286591,"lon":5.363346,"is_reserved":false,"is_disabled":false,"rental_uris":{"android":"levelo://app?vid=c8bf13a5-3bb8-47d5-a6ce-050de2b89bf8","ios":"levelo://app?vid=c8bf13a5-3bb8-47d5-a6ce-050de2b89bf8"},"vehicle_type_id":"4","last_reported":1687190896,"current_range_meters":0,"station_id":"ce4bhah2rcd13ifvqej0","pricing_plan_id":"free"},{"bike_id":"752f5d1d-93b5-4aef-92f3-79dd41d3731f","system_id":"levelo_inurba_marseille","lat":43.286593,"lon":5.363346,"is_reserved":false,"is_disabled":false,"rental_uris":{"android":"levelo://app?vid=752f5d1d-93b5-4aef-92f3-79dd41d3731f","ios":"levelo://app?vid=752f5d1d-93b5-4aef-92f3-79dd41d3731f"},"vehicle_type_id":"4","last_reported":1687190896,"current_range_meters":17200,"station_id":"ce4bhah2rcd13ifvqej0","pricing_plan_id":"free"},{"bike_id":"f10e33e4-ef24-4aeb-96a4-354786dc389a","system_id":"levelo_inurba_marseille","lat":43.286961,"lon":5.373785,"is_reserved":false,"is_disabled":false,"rental_uris":{"android":"levelo://app?vid=f10e33e4-ef24-4aeb-96a4-354786dc389a","ios":"levelo://app?vid=f10e33e4-ef24-4aeb-96a4-354786dc389a"},"vehicle_type_id":"4","last_reported":1687190896,"current_range_meters":25200,"station_id":"ce4bh3p2rcd13ifvqdq0","pricing_plan_id":"free"},{"bike_id":"44ebf620-1db2-4fb9-ab6a-c73cfc4bf145","system_id":"levelo_inurba_marseille","lat":43.286593,"lon":5.363346,"is_reserved":false,"is_disabled":false,"rental_uris":{"android":"levelo://app?vid=44ebf620-1db2-4fb9-ab6a-c73cfc4bf145","ios":"levelo://app?vid=44ebf620-1db2-4fb9-ab6a-c73cfc4bf145"},"vehicle_type_id":"4","last_reported":1687190896,"current_range_meters":11200,"station_id":"ce4bhah2rcd13ifvqej0","pricing_plan_id":"free"},{"bike_id":"13b28cb2-a69b-4560-b00e-9fae09934b10","system_id":"levelo_inurba_marseille","lat":43.298681,"lon":5.397225,"is_reserved":false,"is_disabled":false,"rental_uris":{"android":"levelo://app?vid=13b28cb2-a69b-4560-b00e-9fae09934b10","ios":"levelo://app?vid=13b28cb2-a69b-4560-b00e-9fae09934b10"},"vehicle_type_id":"4","last_reported":1687190896,"current_range_meters":0,"station_id":"ce4bh0h2rcd13ifvqd50","pricing_plan_id":"free"},{"bike_id":"efe17600-a1e4-4e42-9237-92df6d3fc34b","system_id":"levelo_inurba_marseille","lat":43.298681,"lon":5.397225,"is_reserved":false,"is_disabled":false,"rental_uris":{"android":"levelo://app?vid=efe17600-a1e4-4e42-9237-92df6d3fc34b","ios":"levelo://app?vid=efe17600-a1e4-4e42-9237-92df6d3fc34b"},"vehicle_type_id":"4","last_reported":1687190896,"current_range_meters":20400,"station_id":"ce4bh0h2rcd13ifvqd50","pricing_plan_id":"free"},{"bike_id":"9fefcb73-9c7a-4822-9f91-8d1185ab2eaa","system_id":"levelo_inurba_marseille","lat":43.286591,"lon":5.363346,"is_reserved":false,"is_disabled":false,"rental_uris":{"android":"levelo://app?vid=9fefcb73-9c7a-4822-9f91-8d1185ab2eaa","ios":"levelo://app?vid=9fefcb73-9c7a-4822-9f91-8d1185ab2eaa"},"vehicle_type_id":"4","last_reported":1687190896,"current_range_meters":10400,"station_id":"ce4bhah2rcd13ifvqej0","pricing_plan_id":"free"},{"bike_id":"57650279-2a89-47c6-b9e3-221213d42d63","system_id":"levelo_inurba_marseille","lat":43.298681,"lon":5.397225,"is_reserved":false,"is_disabled":false,"rental_uris":{"android":"levelo://app?vid=57650279-2a89-47c6-b9e3-221213d42d63","ios":"levelo://app?vid=57650279-2a89-47c6-b9e3-221213d42d63"},"vehicle_type_id":"4","last_reported":1687190896,"current_range_meters":6800,"station_id":"ce4bh0h2rcd13ifvqd50","pricing_plan_id":"free"},{"bike_id":"148540c1-5133-4b9c-ab2c-f4c23edb2d8b","system_id":"levelo_inurba_marseille","lat":43.295196,"lon":5.39397,"is_reserved":false,"is_disabled":false,"rental_uris":{"android":"levelo://app?vid=148540c1-5133-4b9c-ab2c-f4c23edb2d8b","ios":"levelo://app?vid=148540c1-5133-4b9c-ab2c-f4c23edb2d8b"},"vehicle_type_id":"4","last_reported":1687190896,"current_range_meters":27600,"station_id":"ce4bh292rcd13ifvqdf0","pricing_plan_id":"free"},{"bike_id":"7b5ea7b7-9dfa-4f14-a901-e748d76b4a5e","system_id":"levelo_inurba_marseille","lat":43.290337,"lon":5.386365,"is_reserved":false,"is_disabled":false,"rental_uris":{"android":"levelo://app?vid=7b5ea7b7-9dfa-4f14-a901-e748d76b4a5e","ios":"levelo://app?vid=7b5ea7b7-9dfa-4f14-a901-e748d76b4a5e"},"vehicle_type_id":"4","last_reported":1687190896,"current_range_meters":27200,"station_id":"ce4bh4p2rcd13ifvqe0g","pricing_plan_id":"free"},{"bike_id":"6e4b8c9a-1ec6-459f-96e9-ae2332e61231","system_id":"levelo_inurba_marseille","lat":43.290345,"lon":5.38646,"is_reserved":false,"is_disabled":false,"rental_uris":{"android":"levelo://app?vid=6e4b8c9a-1ec6-459f-96e9-ae2332e61231","ios":"levelo://app?vid=6e4b8c9a-1ec6-459f-96e9-ae2332e61231"},"vehicle_type_id":"4","last_reported":1687190896,"current_range_meters":30800,"station_id":"ce4bh4p2rcd13ifvqe0g","pricing_plan_id":"free"},{"bike_id":"58707687-0050-4d7d-9b0b-96cbad9d37a1","system_id":"levelo_inurba_marseille","lat":43.290336,"lon":5.386425,"is_reserved":false,"is_disabled":false,"rental_uris":{"android":"levelo://app?vid=58707687-0050-4d7d-9b0b-96cbad9d37a1","ios":"levelo://app?vid=58707687-0050-4d7d-9b0b-96cbad9d37a1"},"vehicle_type_id":"4","last_reported":1687190896,"current_range_meters":7600,"station_id":"ce4bh4p2rcd13ifvqe0g","pricing_plan_id":"free"},{"bike_id":"d2750f1d-6c31-4856-8a14-46bd874bad45","system_id":"levelo_inurba_marseille","lat":43.29029,"lon":5.38647,"is_reserved":false,"is_disabled":false,"rental_uris":{"android":"levelo://app?vid=d2750f1d-6c31-4856-8a14-46bd874bad45","ios":"levelo://app?vid=d2750f1d-6c31-4856-8a14-46bd874bad45"},"vehicle_type_id":"4","last_reported":1687190896,"current_range_meters":15200,"station_id":"ce4bh4p2rcd13ifvqe0g","pricing_plan_id":"free"},{"bike_id":"79fa5e2c-a7a9-405b-9764-e26605b58251","system_id":"levelo_inurba_marseille","lat":43.302759,"lon":5.400793,"is_reserved":false,"is_disabled":false,"rental_uris":{"android":"levelo://app?vid=79fa5e2c-a7a9-405b-9764-e26605b58251","ios":"levelo://app?vid=79fa5e2c-a7a9-405b-9764-e26605b58251"},"vehicle_type_id":"4","last_reported":1687190896,"current_range_meters":9600,"station_id":"ce4bgvh2rcd13ifvqcs0","pricing_plan_id":"free"},{"bike_id":"dfc6d7d5-d50d-4cb3-bbb3-be602fc9b321","system_id":"levelo_inurba_marseille","lat":43.28616,"lon":5.37062,"is_reserved":false,"is_disabled":false,"rental_uris":{"android":"levelo://app?vid=dfc6d7d5-d50d-4cb3-bbb3-be602fc9b321","ios":"levelo://app?vid=dfc6d7d5-d50d-4cb3-bbb3-be602fc9b321"},"vehicle_type_id":"4","last_reported":1687190896,"current_range_meters":24400,"station_id":"ce4bht12rcd13ifvqi60","pricing_plan_id":"free"},{"bike_id":"5a9b7765-2415-493a-adce-03a0f76492f1","system_id":"levelo_inurba_marseille","lat":43.286039,"lon":5.370679,"is_reserved":false,"is_disabled":false,"rental_uris":{"android":"levelo://app?vid=5a9b7765-2415-493a-adce-03a0f76492f1","ios":"levelo://app?vid=5a9b7765-2415-493a-adce-03a0f76492f1"},"vehicle_type_id":"4","last_reported":1687190896,"current_range_meters":5200,"station_id":"ce4bht12rcd13ifvqi60","pricing_plan_id":"free"},{"bike_id":"8f1fac53-6a2a-4ace-adce-eabda8ac096b","system_id":"levelo_inurba_marseille","lat":43.28611,"lon":5.37063,"is_reserved":false,"is_disabled":false,"rental_uris":{"android":"levelo://app?vid=8f1fac53-6a2a-4ace-adce-eabda8ac096b","ios":"levelo://app?vid=8f1fac53-6a2a-4ace-adce-eabda8ac096b"},"vehicle_type_id":"4","last_reported":1687190896,"current_range_meters":4800,"station_id":"ce4bht12rcd13ifvqi60","pricing_plan_id":"free"},{"bike_id":"6c48283c-bdec-485a-8f8d-9cc362d9e803","system_id":"levelo_inurba_marseille","lat":43.316523,"lon":5.404367,"is_reserved":false,"is_disabled":false,"rental_uris":{"android":"levelo://app?vid=6c48283c-bdec-485a-8f8d-9cc362d9e803","ios":"levelo://app?vid=6c48283c-bdec-485a-8f8d-9cc362d9e803"},"vehicle_type_id":"4","last_reported":1687190896,"current_range_meters":31200,"station_id":"ce4bh012rcd13ifvqd00","pricing_plan_id":"free"},{"bike_id":"226721e2-5fdf-410a-8814-d8d42da95ebb","system_id":"levelo_inurba_marseille","lat":43.31646,"lon":5.40442,"is_reserved":false,"is_disabled":false,"rental_uris":{"android":"levelo://app?vid=226721e2-5fdf-410a-8814-d8d42da95ebb","ios":"levelo://app?vid=226721e2-5fdf-410a-8814-d8d42da95ebb"},"vehicle_type_id":"4","last_reported":1687190896,"current_range_meters":24000,"station_id":"ce4bh012rcd13ifvqd00","pricing_plan_id":"free"},{"bike_id":"af0e39a1-3f77-4028-b3ae-c2bd506f213a","system_id":"levelo_inurba_marseille","lat":43.291994,"lon":5.392907,"is_reserved":false,"is_disabled":false,"rental_uris":{"android":"levelo://app?vid=af0e39a1-3f77-4028-b3ae-c2bd506f213a","ios":"levelo://app?vid=af0e39a1-3f77-4028-b3ae-c2bd506f213a"},"vehicle_type_id":"4","last_reported":1687190896,"current_range_meters":18000,"station_id":"ce4bh192rcd13ifvqdd0","pricing_plan_id":"free"},{"bike_id":"a7fc1897-79df-49f5-b5a0-3a86b7ed938b","system_id":"levelo_inurba_marseille","lat":43.33353,"lon":5.39375,"is_reserved":false,"is_disabled":false,"rental_uris":{"android":"levelo://app?vid=a7fc1897-79df-49f5-b5a0-3a86b7ed938b","ios":"levelo://app?vid=a7fc1897-79df-49f5-b5a0-3a86b7ed938b"},"vehicle_type_id":"4","last_reported":1687190896,"current_range_meters":5200,"station_id":"","pricing_plan_id":"free"},{"bike_id":"7f684ca4-bf5b-4229-993b-ffee8bd6d310","system_id":"levelo_inurba_marseille","lat":43.294314,"lon":5.397498,"is_reserved":false,"is_disabled":false,"rental_uris":{"android":"levelo://app?vid=7f684ca4-bf5b-4229-993b-ffee8bd6d310","ios":"levelo://app?vid=7f684ca4-bf5b-4229-993b-ffee8bd6d310"},"vehicle_type_id":"4","last_reported":1687190896,"current_range_meters":24000,"station_id":"ce4bh3h2rcd13ifvqdo0","pricing_plan_id":"free"},{"bike_id":"38dd2849-9301-43d7-bff0-1bab89484a95","system_id":"levelo_inurba_marseille","lat":43.295713,"lon":5.399639,"is_reserved":false,"is_disabled":false,"rental_uris":{"android":"levelo://app?vid=38dd2849-9301-43d7-bff0-1bab89484a95","ios":"levelo://app?vid=38dd2849-9301-43d7-bff0-1bab89484a95"},"vehicle_type_id":"4","last_reported":1687190896,"current_range_meters":25600,"station_id":"ce4bh312rcd13ifvqdj0","pricing_plan_id":"free"},{"bike_id":"ef21323e-2c44-4388-bc2a-03f84ac62e41","system_id":"levelo_inurba_marseille","lat":43.283998,"lon":5.375062,"is_reserved":false,"is_disabled":false,"rental_uris":{"android":"levelo://app?vid=ef21323e-2c44-4388-bc2a-03f84ac62e41","ios":"levelo://app?vid=ef21323e-2c44-4388-bc2a-03f84ac62e41"},"vehicle_type_id":"4","last_reported":1687190896,"current_range_meters":6000,"station_id":"ce4bh412rcd13ifvqds0","pricing_plan_id":"free"},{"bike_id":"b4f90c27-d094-4eeb-998f-43afd4c07ec9","system_id":"levelo_inurba_marseille","lat":43.295713,"lon":5.399639,"is_reserved":false,"is_disabled":false,"rental_uris":{"android":"levelo://app?vid=b4f90c27-d094-4eeb-998f-43afd4c07ec9","ios":"levelo://app?vid=b4f90c27-d094-4eeb-998f-43afd4c07ec9"},"vehicle_type_id":"4","last_reported":1687190896,"current_range_meters":16000,"station_id":"ce4bh312rcd13ifvqdj0","pricing_plan_id":"free"},{"bike_id":"9f29a03f-f8a5-4789-b515-3ce8fa8f4fbe","system_id":"levelo_inurba_marseille","lat":43.286595,"lon":5.386795,"is_reserved":false,"is_disabled":false,"rental_uris":{"android":"levelo://app?vid=9f29a03f-f8a5-4789-b515-3ce8fa8f4fbe","ios":"levelo://app?vid=9f29a03f-f8a5-4789-b515-3ce8fa8f4fbe"},"vehicle_type_id":"4","last_reported":1687190896,"current_range_meters":7200,"station_id":"ce4bh492rcd13ifvqdug","pricing_plan_id":"free"},{"bike_id":"f6fda2f2-04f1-4377-bae3-2fc212d95c47","system_id":"levelo_inurba_marseille","lat":43.34236,"lon":5.36185,"is_reserved":false,"is_disabled":false,"rental_uris":{"android":"levelo://app?vid=f6fda2f2-04f1-4377-bae3-2fc212d95c47","ios":"levelo://app?vid=f6fda2f2-04f1-4377-bae3-2fc212d95c47"},"vehicle_type_id":"4","last_reported":1687190896,"current_range_meters":14800,"station_id":"","pricing_plan_id":"free"},{"bike_id":"43275ef6-770c-4f0e-926c-1c3aecd7abec","system_id":"levelo_inurba_marseille","lat":43.287909,"lon":5.390554,"is_reserved":false,"is_disabled":false,"rental_uris":{"android":"levelo://app?vid=43275ef6-770c-4f0e-926c-1c3aecd7abec","ios":"levelo://app?vid=43275ef6-770c-4f0e-926c-1c3aecd7abec"},"vehicle_type_id":"4","last_reported":1687190896,"current_range_meters":8400,"station_id":"","pricing_plan_id":"free"},{"bike_id":"3387087c-538c-487c-921d-89c948355a67","system_id":"levelo_inurba_marseille","lat":43.281044,"lon":5.378308,"is_reserved":false,"is_disabled":false,"rental_uris":{"android":"levelo://app?vid=3387087c-538c-487c-921d-89c948355a67","ios":"levelo://app?vid=3387087c-538c-487c-921d-89c948355a67"},"vehicle_type_id":"4","last_reported":1687190896,"current_range_meters":14800,"station_id":"ce4bha12rcd13ifvqee0","pricing_plan_id":"free"},{"bike_id":"00b4d942-d645-4a17-a320-9c02b5ecca68","system_id":"levelo_inurba_marseille","lat":43.288501,"lon":5.393087,"is_reserved":false,"is_disabled":false,"rental_uris":{"android":"levelo://app?vid=00b4d942-d645-4a17-a320-9c02b5ecca68","ios":"levelo://app?vid=00b4d942-d645-4a17-a320-9c02b5ecca68"},"vehicle_type_id":"4","last_reported":1687190896,"current_range_meters":17600,"station_id":"ce4bh2p2rcd13ifvqdi0","pricing_plan_id":"free"},{"bike_id":"837e20c7-8ed5-4437-9b0f-661acf680e72","system_id":"levelo_inurba_marseille","lat":43.288509,"lon":5.393164,"is_reserved":false,"is_disabled":false,"rental_uris":{"android":"levelo://app?vid=837e20c7-8ed5-4437-9b0f-661acf680e72","ios":"levelo://app?vid=837e20c7-8ed5-4437-9b0f-661acf680e72"},"vehicle_type_id":"4","last_reported":1687190896,"current_range_meters":0,"station_id":"ce4bh2p2rcd13ifvqdi0","pricing_plan_id":"free"},{"bike_id":"3ed14413-024c-49a8-bd4a-428eea5c26c9","system_id":"levelo_inurba_marseille","lat":43.283498,"lon":5.380948,"is_reserved":false,"is_disabled":false,"rental_uris":{"android":"levelo://app?vid=3ed14413-024c-49a8-bd4a-428eea5c26c9","ios":"levelo://app?vid=3ed14413-024c-49a8-bd4a-428eea5c26c9"},"vehicle_type_id":"4","last_reported":1687190896,"current_range_meters":2000,"station_id":"ce4bh412rcd13ifvqdr0","pricing_plan_id":"free"},{"bike_id":"b475d7a7-8c51-4c2e-a019-f293471529a4","system_id":"levelo_inurba_marseille","lat":43.283498,"lon":5.380948,"is_reserved":false,"is_disabled":false,"rental_uris":{"android":"levelo://app?vid=b475d7a7-8c51-4c2e-a019-f293471529a4","ios":"levelo://app?vid=b475d7a7-8c51-4c2e-a019-f293471529a4"},"vehicle_type_id":"4","last_reported":1687190896,"current_range_meters":13600,"station_id":"ce4bh412rcd13ifvqdr0","pricing_plan_id":"free"},{"bike_id":"98ae20a3-a07c-46ce-9559-a91a7dea5eae","system_id":"levelo_inurba_marseille","lat":43.283498,"lon":5.380948,"is_reserved":false,"is_disabled":false,"rental_uris":{"android":"levelo://app?vid=98ae20a3-a07c-46ce-9559-a91a7dea5eae","ios":"levelo://app?vid=98ae20a3-a07c-46ce-9559-a91a7dea5eae"},"vehicle_type_id":"4","last_reported":1687190896,"current_range_meters":13200,"station_id":"ce4bh412rcd13ifvqdr0","pricing_plan_id":"free"},{"bike_id":"c054d5aa-dbac-46c8-bb35-44f08bd36ab7","system_id":"levelo_inurba_marseille","lat":43.304188,"lon":5.412904,"is_reserved":false,"is_disabled":false,"rental_uris":{"android":"levelo://app?vid=c054d5aa-dbac-46c8-bb35-44f08bd36ab7","ios":"levelo://app?vid=c054d5aa-dbac-46c8-bb35-44f08bd36ab7"},"vehicle_type_id":"4","last_reported":1687190896,"current_range_meters":1200,"station_id":"ce4bhop2rcd13ifvqh8g","pricing_plan_id":"free"},{"bike_id":"d3ddd202-1adf-4027-8c8e-f1e58b7a70b0","system_id":"levelo_inurba_marseille","lat":43.284219,"lon":5.3497,"is_reserved":false,"is_disabled":false,"rental_uris":{"android":"levelo://app?vid=d3ddd202-1adf-4027-8c8e-f1e58b7a70b0","ios":"levelo://app?vid=d3ddd202-1adf-4027-8c8e-f1e58b7a70b0"},"vehicle_type_id":"4","last_reported":1687190896,"current_range_meters":19600,"station_id":"ce4bhbh2rcd13ifvqepg","pricing_plan_id":"free"},{"bike_id":"0e45f2ac-c1cd-46ae-900a-a10a6d88714c","system_id":"levelo_inurba_marseille","lat":43.284217,"lon":5.349697,"is_reserved":false,"is_disabled":false,"rental_uris":{"android":"levelo://app?vid=0e45f2ac-c1cd-46ae-900a-a10a6d88714c","ios":"levelo://app?vid=0e45f2ac-c1cd-46ae-900a-a10a6d88714c"},"vehicle_type_id":"4","last_reported":1687190896,"current_range_meters":26000,"station_id":"ce4bhbh2rcd13ifvqepg","pricing_plan_id":"free"},{"bike_id":"16e5fedd-6e86-436a-a0a2-72c7cd60a6ea","system_id":"levelo_inurba_marseille","lat":43.32187,"lon":5.40792,"is_reserved":false,"is_disabled":false,"rental_uris":{"android":"levelo://app?vid=16e5fedd-6e86-436a-a0a2-72c7cd60a6ea","ios":"levelo://app?vid=16e5fedd-6e86-436a-a0a2-72c7cd60a6ea"},"vehicle_type_id":"4","last_reported":1687190896,"current_range_meters":28000,"station_id":"","pricing_plan_id":"free"},{"bike_id":"f222138d-6065-4e59-91c0-378ec4265eff","system_id":"levelo_inurba_marseille","lat":43.29278,"lon":5.40115,"is_reserved":false,"is_disabled":false,"rental_uris":{"android":"levelo://app?vid=f222138d-6065-4e59-91c0-378ec4265eff","ios":"levelo://app?vid=f222138d-6065-4e59-91c0-378ec4265eff"},"vehicle_type_id":"4","last_reported":1687190896,"current_range_meters":22400,"station_id":"ce4bh312rcd13ifvqdk0","pricing_plan_id":"free"},{"bike_id":"1fd9afc7-7f11-4e5c-af6e-7b40bb84f30d","system_id":"levelo_inurba_marseille","lat":43.292724,"lon":5.401131,"is_reserved":false,"is_disabled":false,"rental_uris":{"android":"levelo://app?vid=1fd9afc7-7f11-4e5c-af6e-7b40bb84f30d","ios":"levelo://app?vid=1fd9afc7-7f11-4e5c-af6e-7b40bb84f30d"},"vehicle_type_id":"4","last_reported":1687190896,"current_range_meters":18400,"station_id":"ce4bh312rcd13ifvqdk0","pricing_plan_id":"free"},{"bike_id":"a3f19b23-df86-4d79-a9fa-4e8f5f0d95e9","system_id":"levelo_inurba_marseille","lat":43.292724,"lon":5.401131,"is_reserved":false,"is_disabled":false,"rental_uris":{"android":"levelo://app?vid=a3f19b23-df86-4d79-a9fa-4e8f5f0d95e9","ios":"levelo://app?vid=a3f19b23-df86-4d79-a9fa-4e8f5f0d95e9"},"vehicle_type_id":"4","last_reported":1687190896,"current_range_meters":800,"station_id":"ce4bh312rcd13ifvqdk0","pricing_plan_id":"free"},{"bike_id":"a3c8103d-ee6f-462f-be9a-1842babc5ff6","system_id":"levelo_inurba_marseille","lat":43.282754,"lon":5.350519,"is_reserved":false,"is_disabled":false,"rental_uris":{"android":"levelo://app?vid=a3c8103d-ee6f-462f-be9a-1842babc5ff6","ios":"levelo://app?vid=a3c8103d-ee6f-462f-be9a-1842babc5ff6"},"vehicle_type_id":"4","last_reported":1687190896,"current_range_meters":10000,"station_id":"ce4bhbp2rcd13ifvqerg","pricing_plan_id":"free"},{"bike_id":"b42dd19c-3a73-4275-9b21-53f61ca8bf27","system_id":"levelo_inurba_marseille","lat":43.28039,"lon":5.369297,"is_reserved":false,"is_disabled":false,"rental_uris":{"android":"levelo://app?vid=b42dd19c-3a73-4275-9b21-53f61ca8bf27","ios":"levelo://app?vid=b42dd19c-3a73-4275-9b21-53f61ca8bf27"},"vehicle_type_id":"4","last_reported":1687190896,"current_range_meters":30000,"station_id":"ce4bha12rcd13ifvqef0","pricing_plan_id":"free"},{"bike_id":"a38f4b00-bf04-426d-8624-9240368969c4","system_id":"levelo_inurba_marseille","lat":43.28039,"lon":5.369297,"is_reserved":false,"is_disabled":false,"rental_uris":{"android":"levelo://app?vid=a38f4b00-bf04-426d-8624-9240368969c4","ios":"levelo://app?vid=a38f4b00-bf04-426d-8624-9240368969c4"},"vehicle_type_id":"4","last_reported":1687190896,"current_range_meters":31200,"station_id":"ce4bha12rcd13ifvqef0","pricing_plan_id":"free"},{"bike_id":"7a7662db-23d7-415b-8278-542fe2a26a8b","system_id":"levelo_inurba_marseille","lat":43.28039,"lon":5.369297,"is_reserved":false,"is_disabled":false,"rental_uris":{"android":"levelo://app?vid=7a7662db-23d7-415b-8278-542fe2a26a8b","ios":"levelo://app?vid=7a7662db-23d7-415b-8278-542fe2a26a8b"},"vehicle_type_id":"4","last_reported":1687190896,"current_range_meters":30000,"station_id":"ce4bha12rcd13ifvqef0","pricing_plan_id":"free"},{"bike_id":"3435ec7a-e7ef-4326-9007-969b0de1a6fc","system_id":"levelo_inurba_marseille","lat":43.28039,"lon":5.369297,"is_reserved":false,"is_disabled":false,"rental_uris":{"android":"levelo://app?vid=3435ec7a-e7ef-4326-9007-969b0de1a6fc","ios":"levelo://app?vid=3435ec7a-e7ef-4326-9007-969b0de1a6fc"},"vehicle_type_id":"4","last_reported":1687190896,"current_range_meters":31600,"station_id":"ce4bha12rcd13ifvqef0","pricing_plan_id":"free"},{"bike_id":"9cd779f2-2898-4256-8568-865e7fd6ac8d","system_id":"levelo_inurba_marseille","lat":43.280382,"lon":5.369291,"is_reserved":false,"is_disabled":false,"rental_uris":{"android":"levelo://app?vid=9cd779f2-2898-4256-8568-865e7fd6ac8d","ios":"levelo://app?vid=9cd779f2-2898-4256-8568-865e7fd6ac8d"},"vehicle_type_id":"4","last_reported":1687190896,"current_range_meters":18400,"station_id":"ce4bha12rcd13ifvqef0","pricing_plan_id":"free"},{"bike_id":"d780e6cc-b4d4-442e-b4c1-4b98977b283b","system_id":"levelo_inurba_marseille","lat":43.280382,"lon":5.369291,"is_reserved":false,"is_disabled":false,"rental_uris":{"android":"levelo://app?vid=d780e6cc-b4d4-442e-b4c1-4b98977b283b","ios":"levelo://app?vid=d780e6cc-b4d4-442e-b4c1-4b98977b283b"},"vehicle_type_id":"4","last_reported":1687190896,"current_range_meters":11600,"station_id":"ce4bha12rcd13ifvqef0","pricing_plan_id":"free"},{"bike_id":"f39ce8e2-fa86-408f-af63-04e3215f2058","system_id":"levelo_inurba_marseille","lat":43.28039,"lon":5.369297,"is_reserved":false,"is_disabled":false,"rental_uris":{"android":"levelo://app?vid=f39ce8e2-fa86-408f-af63-04e3215f2058","ios":"levelo://app?vid=f39ce8e2-fa86-408f-af63-04e3215f2058"},"vehicle_type_id":"4","last_reported":1687190896,"current_range_meters":30800,"station_id":"ce4bha12rcd13ifvqef0","pricing_plan_id":"free"},{"bike_id":"3972666c-f62c-4f0e-ade4-9239f29269cd","system_id":"levelo_inurba_marseille","lat":43.280382,"lon":5.369291,"is_reserved":false,"is_disabled":false,"rental_uris":{"android":"levelo://app?vid=3972666c-f62c-4f0e-ade4-9239f29269cd","ios":"levelo://app?vid=3972666c-f62c-4f0e-ade4-9239f29269cd"},"vehicle_type_id":"4","last_reported":1687190896,"current_range_meters":12400,"station_id":"ce4bha12rcd13ifvqef0","pricing_plan_id":"free"},{"bike_id":"b4e36854-260d-4f9e-b84e-43d9b05315fb","system_id":"levelo_inurba_marseille","lat":43.28039,"lon":5.369297,"is_reserved":false,"is_disabled":false,"rental_uris":{"android":"levelo://app?vid=b4e36854-260d-4f9e-b84e-43d9b05315fb","ios":"levelo://app?vid=b4e36854-260d-4f9e-b84e-43d9b05315fb"},"vehicle_type_id":"4","last_reported":1687190896,"current_range_meters":31200,"station_id":"ce4bha12rcd13ifvqef0","pricing_plan_id":"free"},{"bike_id":"93aa72b6-91b7-4ce2-ac9d-62bd52aec23d","system_id":"levelo_inurba_marseille","lat":43.28039,"lon":5.369297,"is_reserved":false,"is_disabled":false,"rental_uris":{"android":"levelo://app?vid=93aa72b6-91b7-4ce2-ac9d-62bd52aec23d","ios":"levelo://app?vid=93aa72b6-91b7-4ce2-ac9d-62bd52aec23d"},"vehicle_type_id":"4","last_reported":1687190896,"current_range_meters":14800,"station_id":"ce4bha12rcd13ifvqef0","pricing_plan_id":"free"},{"bike_id":"9d64c627-16e4-432f-8c0e-d2e2bcf1be05","system_id":"levelo_inurba_marseille","lat":43.28354,"lon":5.38645,"is_reserved":false,"is_disabled":false,"rental_uris":{"android":"levelo://app?vid=9d64c627-16e4-432f-8c0e-d2e2bcf1be05","ios":"levelo://app?vid=9d64c627-16e4-432f-8c0e-d2e2bcf1be05"},"vehicle_type_id":"4","last_reported":1687190896,"current_range_meters":6400,"station_id":"ce4bh492rcd13ifvqdvg","pricing_plan_id":"free"},{"bike_id":"9a89ccab-4f3c-47aa-be4f-39913ffa3cc1","system_id":"levelo_inurba_marseille","lat":43.281044,"lon":5.378308,"is_reserved":false,"is_disabled":false,"rental_uris":{"android":"levelo://app?vid=9a89ccab-4f3c-47aa-be4f-39913ffa3cc1","ios":"levelo://app?vid=9a89ccab-4f3c-47aa-be4f-39913ffa3cc1"},"vehicle_type_id":"4","last_reported":1687190896,"current_range_meters":31200,"station_id":"ce4bha12rcd13ifvqee0","pricing_plan_id":"free"},{"bike_id":"7bbbe805-9fbd-42b7-81b0-0f4fb7bc9ee4","system_id":"levelo_inurba_marseille","lat":43.281044,"lon":5.378308,"is_reserved":false,"is_disabled":false,"rental_uris":{"android":"levelo://app?vid=7bbbe805-9fbd-42b7-81b0-0f4fb7bc9ee4","ios":"levelo://app?vid=7bbbe805-9fbd-42b7-81b0-0f4fb7bc9ee4"},"vehicle_type_id":"4","last_reported":1687190896,"current_range_meters":12800,"station_id":"ce4bha12rcd13ifvqee0","pricing_plan_id":"free"},{"bike_id":"5f4533d8-338c-4e75-baf3-d84a27ea8cb3","system_id":"levelo_inurba_marseille","lat":43.281044,"lon":5.378308,"is_reserved":false,"is_disabled":false,"rental_uris":{"android":"levelo://app?vid=5f4533d8-338c-4e75-baf3-d84a27ea8cb3","ios":"levelo://app?vid=5f4533d8-338c-4e75-baf3-d84a27ea8cb3"},"vehicle_type_id":"4","last_reported":1687190896,"current_range_meters":25600,"station_id":"ce4bha12rcd13ifvqee0","pricing_plan_id":"free"},{"bike_id":"cc1aa874-ba5f-4616-a1eb-b7b15dbd1927","system_id":"levelo_inurba_marseille","lat":43.296263,"lon":5.40601,"is_reserved":false,"is_disabled":false,"rental_uris":{"android":"levelo://app?vid=cc1aa874-ba5f-4616-a1eb-b7b15dbd1927","ios":"levelo://app?vid=cc1aa874-ba5f-4616-a1eb-b7b15dbd1927"},"vehicle_type_id":"4","last_reported":1687190896,"current_range_meters":21200,"station_id":"ce4bh0h2rcd13ifvqd60","pricing_plan_id":"free"},