{"last_updated":1719425426,"ttl":30,"version":"2.2","data":{"bikes":[{"bike_id":"843d495b-b1a4-40f0-a62b-e9ab5fa0a587","system_id":"levelo_inurba_marseille","lat":43.312239,"lon":5.368562,"is_reserved":false,"is_disabled":false,"rental_uris":{"android":"levelo://app?vid=843d495b-b1a4-40f0-a62b-e9ab5fa0a587","ios":"levelo://app?vid=843d495b-b1a4-40f0-a62b-e9ab5fa0a587"},"vehicle_type_id":"4","last_reported":1719425426,"current_range_meters":7600,"station_id":"ce4bgl92rcd13ifvqbq0","pricing_plan_id":"cebpf4jnsgd1na2vs0mg"},{"bike_id":"bcc3e4e7-49ad-4827-ad72-a8aac5cd29e6","system_id":"levelo_inurba_marseille","lat":43.31509,"lon":5.37089,"is_reserved":false,"is_disabled":false,"rental_uris":{"android":"levelo://app?vid=bcc3e4e7-49ad-4827-ad72-a8aac5cd29e6","ios":"levelo://app?vid=bcc3e4e7-49ad-4827-ad72-a8aac5cd29e6"},"vehicle_type_id":"4","last_reported":1719425426,"current_range_meters":14800,"station_id":"","pricing_plan_id":"cebpf4jnsgd1na2vs0mg"},{"bike_id":"ccaaf6c8-206b-42e8-83b4-8cf4f8fa0d39","system_id":"levelo_inurba_marseille","lat":43.309076,"lon":5.368465,"is_reserved":false,"is_disabled":false,"rental_uris":{"android":"levelo://app?vid=ccaaf6c8-206b-42e8-83b4-8cf4f8fa0d39","ios":"levelo://app?vid=ccaaf6c8-206b-42e8-83b4-8cf4f8fa0d39"},"vehicle_type_id":"4","last_reported":1719425426,"current_range_meters":0,"station_id":"ce4bgn92rcd13ifvqbvg","pricing_plan_id":"cebpf4jnsgd1na2vs0mg"},{"bike_id":"6ffde1cb-eda3-4a61-9831-abddf900469a","system_id":"levelo_inurba_marseille","lat":43.309076,"lon":5.368465,"is_reserved":false,"is_disabled":false,"rental_uris":{"android":"levelo://app?vid=6ffde1cb-eda3-4a61-9831-abddf900469a","ios":"levelo://app?vid=6ffde1cb-eda3-4a61-9831-abddf900469a"},"vehicle_type_id":"4","last_reported":1719425426,"current_range_meters":31200,"station_id":"ce4bgn92rcd13ifvqbvg","pricing_plan_id":"cebpf4jnsgd1na2vs0mg"},{"bike_id":"1d09cd68-07be-4824-87cc-826acc070f57","system_id":"levelo_inurba_marseille","lat":43.314811,"lon":5.373103,"is_reserved":false,"is_disabled":false,"rental_uris":{"android":"levelo://app?vid=1d09cd68-07be-4824-87cc-826acc070f57","ios":"levelo://app?vid=1d09cd68-07be-4824-87cc-826acc070f57"},"vehicle_type_id":"4","last_reported":1719425426,"current_range_meters":15200,"station_id":"ce4bgt12rcd13ifvqcd0","pricing_plan_id":"cebpf4jnsgd1na2vs0mg"},{"bike_id":"2a612128-07bc-4460-be4b-620e43a46f4b","system_id":"levelo_inurba_marseille","lat":43.314811,"lon":5.373103,"is_reserved":false,"is_disabled":false,"rental_uris":{"android":"levelo://app?vid=2a612128-07bc-4460-be4b-620e43a46f4b","ios":"levelo://app?vid=2a612128-07bc-4460-be4b-620e43a46f4b"},"vehicle_type_id":"4","last_reported":1719425426,"current_range_meters":800,"station_id":"ce4bgt12rcd13ifvqcd0","pricing_plan_id":"cebpf4jnsgd1na2vs0mg"},{"bike_id":"68bf1c39-cd2f-462b-aa7c-5e3ae2faff89","system_id":"levelo_inurba_marseille","lat":43.314811,"lon":5.373104,"is_reserved":false,"is_disabled":false,"rental_uris":{"android":"levelo://app?vid=68bf1c39-cd2f-462b-aa7c-5e3ae2faff89","ios":"levelo://app?vid=68bf1c39-cd2f-462b-aa7c-5e3ae2faff89"},"vehicle_type_id":"4","last_reported":1719425426,"current_range_meters":0,"station_id":"ce4bgt12rcd13ifvqcd0","pricing_plan_id":"cebpf4jnsgd1na2vs0mg"},{"bike_id":"347b4d0e-7dc8-484e-a485-14fb128c554e","system_id":"levelo_inurba_marseille","lat":43.309039,"lon":5.371797,"is_reserved":false,"is_disabled":false,"rental_uris":{"android":"levelo://app?vid=347b4d0e-7dc8-484e-a485-14fb128c554e","ios":"levelo://app?vid=347b4d0e-7dc8-484e-a485-14fb128c554e"},"vehicle_type_id":"4","last_reported":1719425426,"current_range_meters":30400,"station_id":"ce4bguh2rcd13ifvqckg","pricing_plan_id":"cebpf4jnsgd1na2vs0mg"},{"bike_id":"8044bc91-ca4f-4017-bb29-eb164b6b5896","system_id":"levelo_inurba_marseille","lat":43.306397,"lon":5.366874,"is_reserved":false,"is_disabled":false,"rental_uris":{"android":"levelo://app?vid=8044bc91-ca4f-4017-bb29-eb164b6b5896","ios":"levelo://app?vid=8044bc91-ca4f-4017-bb29-eb164b6b5896"},"vehicle_type_id":"4","last_reported":1719425426,"current_range_meters":30000,"station_id":"","pricing_plan_id":"cebpf4jnsgd1na2vs0mg"},{"bike_id":"81634482-8f34-454e-b8c4-39ba90bcfb3d","system_id":"levelo_inurba_marseille","lat":43.305714,"lon":5.365633,"is_reserved":false,"is_disabled":false,"rental_uris":{"android":"levelo://app?vid=81634482-8f34-454e-b8c4-39ba90bcfb3d","ios":"levelo://app?vid=81634482-8f34-454e-b8c4-39ba90bcfb3d"},"vehicle_type_id":"4","last_reported":1719425426,"current_range_meters":12000,"station_id":"ce4bgs12rcd13ifvqcag","pricing_plan_id":"cebpf4jnsgd1na2vs0mg"},{"bike_id":"d30efc01-54d2-4a20-880d-78ce0b4bc99b","system_id":"levelo_inurba_marseille","lat":43.305347,"lon":5.366527,"is_reserved":false,"is_disabled":false,"rental_uris":{"android":"levelo://app?vid=d30efc01-54d2-4a20-880d-78ce0b4bc99b","ios":"levelo://app?vid=d30efc01-54d2-4a20-880d-78ce0b4bc99b"},"vehicle_type_id":"4","last_reported":1719425426,"current_range_meters":0,"station_id":"","pricing_plan_id":"cebpf4jnsgd1na2vs0mg"},{"bike_id":"2f9cb63c-d624-42cd-b269-97769f2cbb14","system_id":"levelo_inurba_marseille","lat":43.30537,"lon":5.367345,"is_reserved":false,"is_disabled":false,"rental_uris":{"android":"levelo://app?vid=2f9cb63c-d624-42cd-b269-97769f2cbb14","ios":"levelo://app?vid=2f9cb63c-d624-42cd-b269-97769f2cbb14"},"vehicle_type_id":"4","last_reported":1719425426,"current_range_meters":0,"station_id":"ce4bgrp2rcd13ifvqc9g","pricing_plan_id":"cebpf4jnsgd1na2vs0mg"},{"bike_id":"efc7615d-30bb-4754-a9dd-645c7db295a4","system_id":"levelo_inurba_marseille","lat":43.305202,"lon":5.366435,"is_reserved":false,"is_disabled":false,"rental_uris":{"android":"levelo://app?vid=efc7615d-30bb-4754-a9dd-645c7db295a4","ios":"levelo://app?vid=efc7615d-30bb-4754-a9dd-645c7db295a4"},"vehicle_type_id":"4","last_reported":1719425426,"current_range_meters":31200,"station_id":"","pricing_plan_id":"cebpf4jnsgd1na2vs0mg"},{"bike_id":"ae91e37d-5278-4cb6-944e-6f46643a5784","system_id":"levelo_inurba_marseille","lat":43.30517,"lon":5.36708,"is_reserved":false,"is_disabled":false,"rental_uris":{"android":"levelo://app?vid=ae91e37d-5278-4cb6-944e-6f46643a5784","ios":"levelo://app?vid=ae91e37d-5278-4cb6-944e-6f46643a5784"},"vehicle_type_id":"4","last_reported":1719425426,"current_range_meters":8400,"station_id":"ce4bgrp2rcd13ifvqc9g","pricing_plan_id":"cebpf4jnsgd1na2vs0mg"},{"bike_id":"36c140fe-d18f-4ff5-be8f-386de33eddf0","system_id":"levelo_inurba_marseille","lat":43.311178,"lon":5.377647,"is_reserved":false,"is_disabled":false,"rental_uris":{"android":"levelo://app?vid=36c140fe-d18f-4ff5-be8f-386de33eddf0","ios":"levelo://app?vid=36c140fe-d18f-4ff5-be8f-386de33eddf0"},"vehicle_type_id":"4","last_reported":1719425426,"current_range_meters":24800,"station_id":"ce4bgt92rcd13ifvqcg0","pricing_plan_id":"cebpf4jnsgd1na2vs0mg"},{"bike_id":"6ba11245-2cf2-4c9d-bc0b-abc1fd6d6f93","system_id":"levelo_inurba_marseille","lat":43.311125,"lon":5.377624,"is_reserved":false,"is_disabled":false,"rental_uris":{"android":"levelo://app?vid=6ba11245-2cf2-4c9d-bc0b-abc1fd6d6f93","ios":"levelo://app?vid=6ba11245-2cf2-4c9d-bc0b-abc1fd6d6f93"},"vehicle_type_id":"4","last_reported":1719425426,"current_range_meters":0,"station_id":"ce4bgt92rcd13ifvqcg0","pricing_plan_id":"cebpf4jnsgd1na2vs0mg"},{"bike_id":"cdb59e2e-723e-47a0-b4af-242d1445ff31","system_id":"levelo_inurba_marseille","lat":43.307945,"lon":5.376487,"is_reserved":false,"is_disabled":false,"rental_uris":{"android":"levelo://app?vid=cdb59e2e-723e-47a0-b4af-242d1445ff31","ios":"levelo://app?vid=cdb59e2e-723e-47a0-b4af-242d1445ff31"},"vehicle_type_id":"4","last_reported":1719425426,"current_range_meters":11200,"station_id":"ce4bgv92rcd13ifvqcq0","pricing_plan_id":"cebpf4jnsgd1na2vs0mg"},{"bike_id":"f8786749-7ea7-4c68-b77c-ad4c2e149b9f","system_id":"levelo_inurba_marseille","lat":43.317075,"lon":5.377367,"is_reserved":false,"is_disabled":false,"rental_uris":{"android":"levelo://app?vid=f8786749-7ea7-4c68-b77c-ad4c2e149b9f","ios":"levelo://app?vid=f8786749-7ea7-4c68-b77c-ad4c2e149b9f"},"vehicle_type_id":"4","last_reported":1719425426,"current_range_meters":25200,"station_id":"ce4bgth2rcd13ifvqch0","pricing_plan_id":"cebpf4jnsgd1na2vs0mg"},{"bike_id":"6f73dda0-cefb-4e4a-918f-37b29806f9ae","system_id":"levelo_inurba_marseille","lat":43.303046,"lon":5.368981,"is_reserved":false,"is_disabled":false,"rental_uris":{"android":"levelo://app?vid=6f73dda0-cefb-4e4a-918f-37b29806f9ae","ios":"levelo://app?vid=6f73dda0-cefb-4e4a-918f-37b29806f9ae"},"vehicle_type_id":"4","last_reported":1719425426,"current_range_meters":6000,"station_id":"ce4bgqh2rcd13ifvqc5g","pricing_plan_id":"cebpf4jnsgd1na2vs0mg"},{"bike_id":"f371d22a-c98c-4730-8432-4d981c1936f8","system_id":"levelo_inurba_marseille","lat":43.303046,"lon":5.368981,"is_reserved":false,"is_disabled":false,"rental_uris":{"android":"levelo://app?vid=f371d22a-c98c-4730-8432-4d981c1936f8","ios":"levelo://app?vid=f371d22a-c98c-4730-8432-4d981c1936f8"},"vehicle_type_id":"4","last_reported":1719425426,"current_range_meters":4800,"station_id":"ce4bgqh2rcd13ifvqc5g","pricing_plan_id":"cebpf4jnsgd1na2vs0mg"},{"bike_id":"16474c9a-2951-4680-8800-804308930c68","system_id":"levelo_inurba_marseille","lat":43.301939,"lon":5.366286,"is_reserved":false,"is_disabled":false,"rental_uris":{"android":"levelo://app?vid=16474c9a-2951-4680-8800-804308930c68","ios":"levelo://app?vid=16474c9a-2951-4680-8800-804308930c68"},"vehicle_type_id":"4","last_reported":1719425426,"current_range_meters":30400,"station_id":"ce4bgrh2rcd13ifvqc8g","pricing_plan_id":"cebpf4jnsgd1na2vs0mg"},{"bike_id":"85b0fb2d-1973-407b-8bb8-e4f5d89842d4","system_id":"levelo_inurba_marseille","lat":43.308012,"lon":5.381511,"is_reserved":false,"is_disabled":false,"rental_uris":{"android":"levelo://app?vid=85b0fb2d-1973-407b-8bb8-e4f5d89842d4","ios":"levelo://app?vid=85b0fb2d-1973-407b-8bb8-e4f5d89842d4"},"vehicle_type_id":"4","last_reported":1719425426,"current_range_meters":29200,"station_id":"ce4bgt12rcd13ifvqce0","pricing_plan_id":"cebpf4jnsgd1na2vs0mg"},{"bike_id":"fe427492-1372-4600-8824-920ebb1c0d11","system_id":"levelo_inurba_marseille","lat":43.308012,"lon":5.381511,"is_reserved":false,"is_disabled":false,"rental_uris":{"android":"levelo://app?vid=fe427492-1372-4600-8824-920ebb1c0d11","ios":"levelo://app?vid=fe427492-1372-4600-8824-920ebb1c0d11"},"vehicle_type_id":"4","last_reported":1719425426,"current_range_meters":0,"station_id":"ce4bgt12rcd13ifvqce0","pricing_plan_id":"cebpf4jnsgd1na2vs0mg"},{"bike_id":"3a44bd6a-0536-42de-b722-5cffab2381f5","system_id":"levelo_inurba_marseille","lat":43.324771,"lon":5.36557,"is_reserved":false,"is_disabled":false,"rental_uris":{"android":"levelo://app?vid=3a44bd6a-0536-42de-b722-5cffab2381f5","ios":"levelo://app?vid=3a44bd6a-0536-42de-b722-5cffab2381f5"},"vehicle_type_id":"4","last_reported":1719425426,"current_range_meters":18400,"station_id":"ce4bhs12rcd13ifvqhvg","pricing_plan_id":"cebpf4jnsgd1na2vs0mg"},{"bike_id":"37f19f28-6219-490d-b282-ef257077f032","system_id":"levelo_inurba_marseille","lat":43.32481,"lon":5.36562,"is_reserved":false,"is_disabled":false,"rental_uris":{"android":"levelo://app?vid=37f19f28-6219-490d-b282-ef257077f032","ios":"levelo://app?vid=37f19f28-6219-490d-b282-ef257077f032"},"vehicle_type_id":"4","last_reported":1719425426,"current_range_meters":0,"station_id":"ce4bhs12rcd13ifvqhvg","pricing_plan_id":"cebpf4jnsgd1na2vs0mg"},{"bike_id":"5778e24b-fc00-45b7-a201-1e5486ad8f63","system_id":"levelo_inurba_marseille","lat":43.319957,"lon":5.38161,"is_reserved":false,"is_disabled":false,"rental_uris":{"android":"levelo://app?vid=5778e24b-fc00-45b7-a201-1e5486ad8f63","ios":"levelo://app?vid=5778e24b-fc00-45b7-a201-1e5486ad8f63"},"vehicle_type_id":"4","last_reported":1719425426,"current_range_meters":12800,"station_id":"ce4bhr12rcd13ifvqhpg","pricing_plan_id":"cebpf4jnsgd1na2vs0mg"},{"bike_id":"26f48a42-0141-4e4b-86f1-11e360e2ac1a","system_id":"levelo_inurba_marseille","lat":43.31367,"lon":5.38491,"is_reserved":false,"is_disabled":false,"rental_uris":{"android":"levelo://app?vid=26f48a42-0141-4e4b-86f1-11e360e2ac1a","ios":"levelo://app?vid=26f48a42-0141-4e4b-86f1-11e360e2ac1a"},"vehicle_type_id":"4","last_reported":1719425426,"current_range_meters":0,"station_id":"ce4bgt92rcd13ifvqcf0","pricing_plan_id":"cebpf4jnsgd1na2vs0mg"},{"bike_id":"0549f69a-cbcc-4b12-9355-0fbedef5363f","system_id":"levelo_inurba_marseille","lat":43.299222,"lon":5.365554,"is_reserved":false,"is_disabled":false,"rental_uris":{"android":"levelo://app?vid=0549f69a-cbcc-4b12-9355-0fbedef5363f","ios":"levelo://app?vid=0549f69a-cbcc-4b12-9355-0fbedef5363f"},"vehicle_type_id":"4","last_reported":1719425426,"current_range_meters":0,"station_id":"ce4bgm92rcd13ifvqbr0","pricing_plan_id":"cebpf4jnsgd1na2vs0mg"},{"bike_id":"d742514b-839b-4465-a743-f9aab2393b84","system_id":"levelo_inurba_marseille","lat":43.299724,"lon":5.371829,"is_reserved":false,"is_disabled":false,"rental_uris":{"android":"levelo://app?vid=d742514b-839b-4465-a743-f9aab2393b84","ios":"levelo://app?vid=d742514b-839b-4465-a743-f9aab2393b84"},"vehicle_type_id":"4","last_reported":1719425426,"current_range_meters":2400,"station_id":"ce4bgr92rcd13ifvqc7g","pricing_plan_id":"cebpf4jnsgd1na2vs0mg"},{"bike_id":"1b665810-5b62-42b2-a0c6-f6fd3519bb93","system_id":"levelo_inurba_marseille","lat":43.31908,"lon":5.38452,"is_reserved":false,"is_disabled":false,"rental_uris":{"android":"levelo://app?vid=1b665810-5b62-42b2-a0c6-f6fd3519bb93","ios":"levelo://app?vid=1b665810-5b62-42b2-a0c6-f6fd3519bb93"},"vehicle_type_id":"4","last_reported":1719425426,"current_range_meters":24400,"station_id":"","pricing_plan_id":"cebpf4jnsgd1na2vs0mg"},{"bike_id":"b4e90371-b51b-4bb3-9f26-7d543acd8573","system_id":"levelo_inurba_marseille","lat":43.30956,"lon":5.38622,"is_reserved":false,"is_disabled":false,"rental_uris":{"android":"levelo://app?vid=b4e90371-b51b-4bb3-9f26-7d543acd8573","ios":"levelo://app?vid=b4e90371-b51b-4bb3-9f26-7d543acd8573"},"vehicle_type_id":"4","last_reported":1719425426,"current_range_meters":20000,"station_id":"","pricing_plan_id":"cebpf4jnsgd1na2vs0mg"},{"bike_id":"3b762c00-c901-43bd-8b14-72a5b83d1322","system_id":"levelo_inurba_marseille","lat":43.305364,"lon":5.384119,"is_reserved":false,"is_disabled":false,"rental_uris":{"android":"levelo://app?vid=3b762c00-c901-43bd-8b14-72a5b83d1322","ios":"levelo://app?vid=3b762c00-c901-43bd-8b14-72a5b83d1322"},"vehicle_type_id":"4","last_reported":1719425426,"current_range_meters":0,"station_id":"ce4bgg92rcd13ifvqb30","pricing_plan_id":"cebpf4jnsgd1na2vs0mg"},{"bike_id":"8cc85adc-8f94-4850-9479-6d9146dc1d3d","system_id":"levelo_inurba_marseille","lat":43.298433,"lon":5.362774,"is_reserved":false,"is_disabled":false,"rental_uris":{"android":"levelo://app?vid=8cc85adc-8f94-4850-9479-6d9146dc1d3d","ios":"levelo://app?vid=8cc85adc-8f94-4850-9479-6d9146dc1d3d"},"vehicle_type_id":"4","last_reported":1719425426,"current_range_meters":9200,"station_id":"ce4bgpp2rcd13ifvqc3g","pricing_plan_id":"cebpf4jnsgd1na2vs0mg"},{"bike_id":"633f85d6-c790-49e4-80c9-4cc9912c7395","system_id":"levelo_inurba_marseille","lat":43.298433,"lon":5.362774,"is_reserved":false,"is_disabled":false,"rental_uris":{"android":"levelo://app?vid=633f85d6-c790-49e4-80c9-4cc9912c7395","ios":"levelo://app?vid=633f85d6-c790-49e4-80c9-4cc9912c7395"},"vehicle_type_id":"4","last_reported":1719425426,"current_range_meters":27600,"station_id":"ce4bgpp2rcd13ifvqc3g","pricing_plan_id":"cebpf4jnsgd1na2vs0mg"},{"bike_id":"202e06bc-2f3d-4706-a59f-90e656230670","system_id":"levelo_inurba_marseille","lat":43.305364,"lon":5.384119,"is_reserved":false,"is_disabled":false,"rental_uris":{"android":"levelo://app?vid=202e06bc-2f3d-4706-a59f-90e656230670","ios":"levelo://app?vid=202e06bc-2f3d-4706-a59f-90e656230670"},"vehicle_type_id":"4","last_reported":1719425426,"current_range_meters":19600,"station_id":"ce4bgg92rcd13ifvqb30","pricing_plan_id":"cebpf4jnsgd1na2vs0mg"},{"bike_id":"9a6efe7b-acb1-4faf-879e-ab372aa70740","system_id":"levelo_inurba_marseille","lat":43.298433,"lon":5.362774,"is_reserved":false,"is_disabled":false,"rental_uris":{"android":"levelo://app?vid=9a6efe7b-acb1-4faf-879e-ab372aa70740","ios":"levelo://app?vid=9a6efe7b-acb1-4faf-879e-ab372aa70740"},"vehicle_type_id":"4","last_reported":1719425426,"current_range_meters":12000,"station_id":"ce4bgpp2rcd13ifvqc3g","pricing_plan_id":"cebpf4jnsgd1na2vs0mg"},{"bike_id":"57214598-8eaa-43bc-94be-0d1fd8c47a7a","system_id":"levelo_inurba_marseille","lat":43.298433,"lon":5.362774,"is_reserved":false,"is_disabled":false,"rental_uris":{"android":"levelo://app?vid=57214598-8eaa-43bc-94be-0d1fd8c47a7a","ios":"levelo://app?vid=57214598-8eaa-43bc-94be-0d1fd8c47a7a"},"vehicle_type_id":"4","last_reported":1719425426,"current_range_meters":1600,"station_id":"ce4bgpp2rcd13ifvqc3g","pricing_plan_id":"cebpf4jnsgd1na2vs0mg"},{"bike_id":"9ef1eac2-42c9-4d51-a24c-a58b23152321","system_id":"levelo_inurba_marseille","lat":43.299243,"lon":5.37481,"is_reserved":false,"is_disabled":false,"rental_uris":{"android":"levelo://app?vid=9ef1eac2-42c9-4d51-a24c-a58b23152321","ios":"levelo://app?vid=9ef1eac2-42c9-4d51-a24c-a58b23152321"},"vehicle_type_id":"4","last_reported":1719425426,"current_range_meters":12000,"station_id":"ce4bgjh2rcd13ifvqbg0","pricing_plan_id":"cebpf4jnsgd1na2vs0mg"},{"bike_id":"f3a2f707-8c21-4d46-8b61-bd7b26777ed4","system_id":"levelo_inurba_marseille","lat":43.311698,"lon":5.387183,"is_reserved":false,"is_disabled":false,"rental_uris":{"android":"levelo://app?vid=f3a2f707-8c21-4d46-8b61-bd7b26777ed4","ios":"levelo://app?vid=f3a2f707-8c21-4d46-8b61-bd7b26777ed4"},"vehicle_type_id":"4","last_reported":1719425426,"current_range_meters":24400,"station_id":"ce4bgv12rcd13ifvqcp0","pricing_plan_id":"cebpf4jnsgd1na2vs0mg"},{"bike_id":"66d562b1-94ad-47bd-8923-f2da14c8b7ed","system_id":"levelo_inurba_marseille","lat":43.311722,"lon":5.387247,"is_reserved":false,"is_disabled":false,"rental_uris":{"android":"levelo://app?vid=66d562b1-94ad-47bd-8923-f2da14c8b7ed","ios":"levelo://app?vid=66d562b1-94ad-47bd-8923-f2da14c8b7ed"},"vehicle_type_id":"4","last_reported":1719425426,"current_range_meters":4400,"station_id":"ce4bgv12rcd13ifvqcp0","pricing_plan_id":"cebpf4jnsgd1na2vs0mg"},{"bike_id":"ab743ec7-c962-457e-a8dc-839c32b933f8","system_id":"levelo_inurba_marseille","lat":43.31163,"lon":5.38725,"is_reserved":false,"is_disabled":false,"rental_uris":{"android":"levelo://app?vid=ab743ec7-c962-457e-a8dc-839c32b933f8","ios":"levelo://app?vid=ab743ec7-c962-457e-a8dc-839c32b933f8"},"vehicle_type_id":"4","last_reported":1719425426,"current_range_meters":0,"station_id":"ce4bgv12rcd13ifvqcp0","pricing_plan_id":"cebpf4jnsgd1na2vs0mg"},{"bike_id":"878f5f5b-f7d1-4c47-a7a4-a1ab4110cefd","system_id":"levelo_inurba_marseille","lat":43.3228,"lon":5.38263,"is_reserved":false,"is_disabled":false,"rental_uris":{"android":"levelo://app?vid=878f5f5b-f7d1-4c47-a7a4-a1ab4110cefd","ios":"levelo://app?vid=878f5f5b-f7d1-4c47-a7a4-a1ab4110cefd"},"vehicle_type_id":"4","last_reported":1719425426,"current_range_meters":24400,"station_id":"ce4bhr12rcd13ifvqhqg","pricing_plan_id":"cebpf4jnsgd1na2vs0mg"},{"bike_id":"03380d49-48df-4caf-a543-f21c6d13b8e5","system_id":"levelo_inurba_marseille","lat":43.29779,"lon":5.36288,"is_reserved":false,"is_disabled":false,"rental_uris":{"android":"levelo://app?vid=03380d49-48df-4caf-a543-f21c6d13b8e5","ios":"levelo://app?vid=03380d49-48df-4caf-a543-f21c6d13b8e5"},"vehicle_type_id":"4","last_reported":1719425426,"current_range_meters":0,"station_id":"","pricing_plan_id":"cebpf4jnsgd1na2vs0mg"},{"bike_id":"0fa421ba-4bc6-41c4-82bc-83ae1991e160","system_id":"levelo_inurba_marseille","lat":43.29772,"lon":5.37116,"is_reserved":false,"is_disabled":false,"rental_uris":{"android":"levelo://app?vid=0fa421ba-4bc6-41c4-82bc-83ae1991e160","ios":"levelo://app?vid=0fa421ba-4bc6-41c4-82bc-83ae1991e160"},"vehicle_type_id":"4","last_reported":1719425426,"current_range_meters":5600,"station_id":"ce4bgop2rcd13ifvqc1g","pricing_plan_id":"cebpf4jnsgd1na2vs0mg"},{"bike_id":"c0ffbafc-079b-4ef1-82ea-e851f8ba8df2","system_id":"levelo_inurba_marseille","lat":43.322872,"lon":5.382756,"is_reserved":false,"is_disabled":false,"rental_uris":{"android":"levelo://app?vid=c0ffbafc-079b-4ef1-82ea-e851f8ba8df2","ios":"levelo://app?vid=c0ffbafc-079b-4ef1-82ea-e851f8ba8df2"},"vehicle_type_id":"4","last_reported":1719425426,"current_range_meters":28800,"station_id":"ce4bhr12rcd13ifvqhqg","pricing_plan_id":"cebpf4jnsgd1na2vs0mg"},{"bike_id":"cfac87ca-95bc-4584-b5ff-62b8c9c08b22","system_id":"levelo_inurba_marseille","lat":43.322872,"lon":5.382756,"is_reserved":false,"is_disabled":false,"rental_uris":{"android":"levelo://app?vid=cfac87ca-95bc-4584-b5ff-62b8c9c08b22","ios":"levelo://app?vid=cfac87ca-95bc-4584-b5ff-62b8c9c08b22"},"vehicle_type_id":"4","last_reported":1719425426,"current_range_meters":0,"station_id":"ce4bhr12rcd13ifvqhqg","pricing_plan_id":"cebpf4jnsgd1na2vs0mg"},{"bike_id":"bcfeee5e-e88a-45f0-bc38-0324d6034e2d","system_id":"levelo_inurba_marseille","lat":43.29881,"lon":5.37641,"is_reserved":false,"is_disabled":false,"rental_uris":{"android":"levelo://app?vid=bcfeee5e-e88a-45f0-bc38-0324d6034e2d","ios":"levelo://app?vid=bcfeee5e-e88a-45f0-bc38-0324d6034e2d"},"vehicle_type_id":"4","last_reported":1719425426,"current_range_meters":0,"station_id":"","pricing_plan_id":"cebpf4jnsgd1na2vs0mg"},{"bike_id":"cba20759-e872-4c6d-b084-902bc92bee72","system_id":"levelo_inurba_marseille","lat":43.297163,"lon":5.365866,"is_reserved":false,"is_disabled":false,"rental_uris":{"android":"levelo://app?vid=cba20759-e872-4c6d-b084-902bc92bee72","ios":"levelo://app?vid=cba20759-e872-4c6d-b084-902bc92bee72"},"vehicle_type_id":"4","last_reported":1719425426,"current_range_meters":2000,"station_id":"ce4bgn12rcd13ifvqbt0","pricing_plan_id":"cebpf4jnsgd1na2vs0mg"},{"bike_id":"537cf91c-0463-424e-bc1f-8abd0773a754","system_id":"levelo_inurba_marseille","lat":43.296129,"lon":5.370777,"is_reserved":false,"is_disabled":false,"rental_uris":{"android":"levelo://app?vid=537cf91c-0463-424e-bc1f-8abd0773a754","ios":"levelo://app?vid=537cf91c-0463-424e-bc1f-8abd0773a754"},"vehicle_type_id":"4","last_reported":1719425426,"current_range_meters":13600,"station_id":"ce4bgnh2rcd13ifvqc0g","pricing_plan_id":"cebpf4jnsgd1na2vs0mg"},{"bike_id":"da7994da-3f96-4094-978e-38b11350f9c1","system_id":"levelo_inurba_marseille","lat":43.29573,"lon":5.367355,"is_reserved":false,"is_disabled":false,"rental_uris":{"android":"levelo://app?vid=da7994da-3f96-4094-978e-38b11350f9c1","ios":"levelo://app?vid=da7994da-3f96-4094-978e-38b11350f9c1"},"vehicle_type_id":"4","last_reported":1719425426,"current_range_meters":3200,"station_id":"ce4bgph2rcd13ifvqc2g","pricing_plan_id":"cebpf4jnsgd1na2vs0mg"},{"bike_id":"1113b568-2012-4220-b21a-ea153cb71387","system_id":"levelo_inurba_marseille","lat":43.29573,"lon":5.367355,"is_reserved":false,"is_disabled":false,"rental_uris":{"android":"levelo://app?vid=1113b568-2012-4220-b21a-ea153cb71387","ios":"levelo://app?vid=1113b568-2012-4220-b21a-ea153cb71387"},"vehicle_type_id":"4","last_reported":1719425426,"current_range_meters":15200,"station_id":"ce4bgph2rcd13ifvqc2g","pricing_plan_id":"cebpf4jnsgd1na2vs0mg"},{"bike_id":"1c0fe972-8f8a-493d-8869-614dfc7c8be2","system_id":"levelo_inurba_marseille","lat":43.292642,"lon":5.384254,"is_reserved":false,"is_disabled":false,"rental_uris":{"android":"levelo://app?vid=1c0fe972-8f8a-493d-8869-614dfc7c8be2","ios":"levelo://app?vid=1c0fe972-8f8a-493d-8869-614dfc7c8be2"},"vehicle_type_id":"4","last_reported":1719425426,"current_range_meters":12800,"station_id":"ce4bh692rcd13ifvqea0","pricing_plan_id":"cebpf4jnsgd1na2vs0mg"},{"bike_id":"16844c75-a331-40ea-87f9-b337fbb17297","system_id":"levelo_inurba_marseille","lat":43.299055,"lon":5.38149,"is_reserved":false,"is_disabled":false,"rental_uris":{"android":"levelo://app?vid=16844c75-a331-40ea-87f9-b337fbb17297","ios":"levelo://app?vid=16844c75-a331-40ea-87f9-b337fbb17297"},"vehicle_type_id":"4","last_reported":1719425426,"current_range_meters":0,"station_id":"ce4bgj12rcd13ifvqbc0","pricing_plan_id":"cebpf4jnsgd1na2vs0mg"},{"bike_id":"4e2c1d3a-ea4e-4996-99fa-c49cddb1a4c0","system_id":"levelo_inurba_marseille","lat":43.299028,"lon":5.381509,"is_reserved":false,"is_disabled":false,"rental_uris":{"android":"levelo://app?vid=4e2c1d3a-ea4e-4996-99fa-c49cddb1a4c0","ios":"levelo://app?vid=4e2c1d3a-ea4e-4996-99fa-c49cddb1a4c0"},"vehicle_type_id":"4","last_reported":1719425426,"current_range_meters":16400,"station_id":"ce4bgj12rcd13ifvqbc0","pricing_plan_id":"cebpf4jnsgd1na2vs0mg"},{"bike_id":"7a259c0b-7b3d-4a02-8755-13a89dee2ef8","system_id":"levelo_inurba_marseille","lat":43.298037,"lon":5.381066,"is_reserved":false,"is_disabled":false,"rental_uris":{"android":"levelo://app?vid=7a259c0b-7b3d-4a02-8755-13a89dee2ef8","ios":"levelo://app?vid=7a259c0b-7b3d-4a02-8755-13a89dee2ef8"},"vehicle_type_id":"4","last_reported":1719425426,"current_range_meters":1200,"station_id":"ce4bgip2rcd13ifvqbb0","pricing_plan_id":"cebpf4jnsgd1na2vs0mg"},{"bike_id":"b584b4bf-460f-4b17-baed-2f9a60d6098a","system_id":"levelo_inurba_marseille","lat":43.2958,"lon":5.37518,"is_reserved":false,"is_disabled":false,"rental_uris":{"android":"levelo://app?vid=b584b4bf-460f-4b17-baed-2f9a60d6098a","ios":"levelo://app?vid=b584b4bf-460f-4b17-baed-2f9a60d6098a"},"vehicle_type_id":"4","last_reported":1719425426,"current_range_meters":0,"station_id":"ce4bgh92rcd13ifvqb50","pricing_plan_id":"cebpf4jnsgd1na2vs0mg"},{"bike_id":"76daee9f-7b81-42c6-925e-3469e7c0ba5d","system_id":"levelo_inurba_marseille","lat":43.298037,"lon":5.381066,"is_reserved":false,"is_disabled":false,"rental_uris":{"android":"levelo://app?vid=76daee9f-7b81-42c6-925e-3469e7c0ba5d","ios":"levelo://app?vid=76daee9f-7b81-42c6-925e-3469e7c0ba5d"},"vehicle_type_id":"4","last_reported":1719425426,"current_range_meters":7200,"station_id":"ce4bgip2rcd13ifvqbb0","pricing_plan_id":"cebpf4jnsgd1na2vs0mg"},{"bike_id":"649936aa-4a89-4937-86f6-9ab750064c82","system_id":"levelo_inurba_marseille","lat":43.296263,"lon":5.377094,"is_reserved":false,"is_disabled":false,"rental_uris":{"android":"levelo://app?vid=649936aa-4a89-4937-86f6-9ab750064c82","ios":"levelo://app?vid=649936aa-4a89-4937-86f6-9ab750064c82"},"vehicle_type_id":"4","last_reported":1719425426,"current_range_meters":16800,"station_id":"ce4bgi92rcd13ifvqb90","pricing_plan_id":"cebpf4jnsgd1na2vs0mg"},{"bike_id":"e8f95106-57f2-44a0-8bd1-0031fb329fb2","system_id":"levelo_inurba_marseille","lat":43.304274,"lon":5.388873,"is_reserved":false,"is_disabled":false,"rental_uris":{"android":"levelo://app?vid=e8f95106-57f2-44a0-8bd1-0031fb329fb2","ios":"levelo://app?vid=e8f95106-57f2-44a0-8bd1-0031fb329fb2"},"vehicle_type_id":"4","last_reported":1719425426,"current_range_meters":28400,"station_id":"ce4bgk12rcd13ifvqbi0","pricing_plan_id":"cebpf4jnsgd1na2vs0mg"},{"bike_id":"81c96ad7-e0ef-4973-b051-d8372ade0d83","system_id":"levelo_inurba_marseille","lat":43.304274,"lon":5.388873,"is_reserved":false,"is_disabled":false,"rental_uris":{"android":"levelo://app?vid=81c96ad7-e0ef-4973-b051-d8372ade0d83","ios":"levelo://app?vid=81c96ad7-e0ef-4973-b051-d8372ade0d83"},"vehicle_type_id":"4","last_reported":1719425426,"current_range_meters":31200,"station_id":"ce4bgk12rcd13ifvqbi0","pricing_plan_id":"cebpf4jnsgd1na2vs0mg"},{"bike_id":"1ad713d4-3680-4831-bdd6-a483e84a0662","system_id":"levelo_inurba_marseille","lat":43.29621,"lon":5.37728,"is_reserved":false,"is_disabled":false,"rental_uris":{"android":"levelo://app?vid=1ad713d4-3680-4831-bdd6-a483e84a0662","ios":"levelo://app?vid=1ad713d4-3680-4831-bdd6-a483e84a0662"},"vehicle_type_id":"4","last_reported":1719425426,"current_range_meters":24000,"station_id":"ce4bgi92rcd13ifvqb90","pricing_plan_id":"cebpf4jnsgd1na2vs0mg"},{"bike_id":"dd8df9a4-f81f-4127-b417-c26a55a732e5","system_id":"levelo_inurba_marseille","lat":43.29978,"lon":5.38481,"is_reserved":false,"is_disabled":false,"rental_uris":{"android":"levelo://app?vid=dd8df9a4-f81f-4127-b417-c26a55a732e5","ios":"levelo://app?vid=dd8df9a4-f81f-4127-b417-c26a55a732e5"},"vehicle_type_id":"4","last_reported":1719425426,"current_range_meters":0,"station_id":"ce4bgj92rcd13ifvqbd0","pricing_plan_id":"cebpf4jnsgd1na2vs0mg"},{"bike_id":"6ad46f15-ef88-482f-aaeb-b4ab8e851310","system_id":"levelo_inurba_marseille","lat":43.295279,"lon":5.375048,"is_reserved":false,"is_disabled":false,"rental_uris":{"android":"levelo://app?vid=6ad46f15-ef88-482f-aaeb-b4ab8e851310","ios":"levelo://app?vid=6ad46f15-ef88-482f-aaeb-b4ab8e851310"},"vehicle_type_id":"4","last_reported":1719425426,"current_range_meters":22800,"station_id":"ce4bgkp2rcd13ifvqbmg","pricing_plan_id":"cebpf4jnsgd1na2vs0mg"},{"bike_id":"117aa61f-d4c3-4596-9c3b-9c03cb528c6e","system_id":"levelo_inurba_marseille","lat":43.29969,"lon":5.38491,"is_reserved":false,"is_disabled":false,"rental_uris":{"android":"levelo://app?vid=117aa61f-d4c3-4596-9c3b-9c03cb528c6e","ios":"levelo://app?vid=117aa61f-d4c3-4596-9c3b-9c03cb528c6e"},"vehicle_type_id":"4","last_reported":1719425426,"current_range_meters":16000,"station_id":"ce4bgj92rcd13ifvqbd0","pricing_plan_id":"cebpf4jnsgd1na2vs0mg"},{"bike_id":"f0d5b2cf-c30d-4573-8e06-b85e53d2f544","system_id":"levelo_inurba_marseille","lat":43.29971,"lon":5.38494,"is_reserved":false,"is_disabled":false,"rental_uris":{"android":"levelo://app?vid=f0d5b2cf-c30d-4573-8e06-b85e53d2f544","ios":"levelo://app?vid=f0d5b2cf-c30d-4573-8e06-b85e53d2f544"},"vehicle_type_id":"4","last_reported":1719425426,"current_range_meters":31200,"station_id":"ce4bgj92rcd13ifvqbd0","pricing_plan_id":"cebpf4jnsgd1na2vs0mg"},{"bike_id":"417ffbf6-3bd0-414c-bd6c-6469ec7ba8c7","system_id":"levelo_inurba_marseille","lat":43.295279,"lon":5.375048,"is_reserved":false,"is_disabled":false,"rental_uris":{"android":"levelo://app?vid=417ffbf6-3bd0-414c-bd6c-6469ec7ba8c7","ios":"levelo://app?vid=417ffbf6-3bd0-414c-bd6c-6469ec7ba8c7"},"vehicle_type_id":"4","last_reported":1719425426,"current_range_meters":24400,"station_id":"ce4bgkp2rcd13ifvqbmg","pricing_plan_id":"cebpf4jnsgd1na2vs0mg"},{"bike_id":"936464d8-1e06-4807-8ba5-19fad4f9a9f0","system_id":"levelo_inurba_marseille","lat":43.32367,"lon":5.388836,"is_reserved":false,"is_disabled":false,"rental_uris":{"android":"levelo://app?vid=936464d8-1e06-4807-8ba5-19fad4f9a9f0","ios":"levelo://app?vid=936464d8-1e06-4807-8ba5-19fad4f9a9f0"},"vehicle_type_id":"4","last_reported":1719425426,"current_range_meters":7200,"station_id":"ce4bhqp2rcd13ifvqhog","pricing_plan_id":"cebpf4jnsgd1na2vs0mg"},{"bike_id":"9da2796b-f4d0-4895-bf3c-303e3c72a841","system_id":"levelo_inurba_marseille","lat":43.29602,"lon":5.381084,"is_reserved":false,"is_disabled":false,"rental_uris":{"android":"levelo://app?vid=9da2796b-f4d0-4895-bf3c-303e3c72a841","ios":"levelo://app?vid=9da2796b-f4d0-4895-bf3c-303e3c72a841"},"vehicle_type_id":"4","last_reported":1719425426,"current_range_meters":22400,"station_id":"ce4bgl12rcd13ifvqbo0","pricing_plan_id":"cebpf4jnsgd1na2vs0mg"},{"bike_id":"b542bbf4-e2d8-4baf-abd7-91d26b7296c0","system_id":"levelo_inurba_marseille","lat":43.29601,"lon":5.381084,"is_reserved":false,"is_disabled":false,"rental_uris":{"android":"levelo://app?vid=b542bbf4-e2d8-4baf-abd7-91d26b7296c0","ios":"levelo://app?vid=b542bbf4-e2d8-4baf-abd7-91d26b7296c0"},"vehicle_type_id":"4","last_reported":1719425426,"current_range_meters":7200,"station_id":"ce4bgl12rcd13ifvqbo0","pricing_plan_id":"cebpf4jnsgd1na2vs0mg"},{"bike_id":"4e8c7877-9450-4a2b-9fcc-aaac8f895f49","system_id":"levelo_inurba_marseille","lat":43.29601,"lon":5.381084,"is_reserved":false,"is_disabled":false,"rental_uris":{"android":"levelo://app?vid=4e8c7877-9450-4a2b-9fcc-aaac8f895f49","ios":"levelo://app?vid=4e8c7877-9450-4a2b-9fcc-aaac8f895f49"},"vehicle_type_id":"4","last_reported":1719425426,"current_range_meters":24400,"station_id":"ce4bgl12rcd13ifvqbo0","pricing_plan_id":"cebpf4jnsgd1na2vs0mg"},{"bike_id":"6028d106-d28f-4869-b696-0aa97e49bcf6","system_id":"levelo_inurba_marseille","lat":43.29602,"lon":5.381084,"is_reserved":false,"is_disabled":false,"rental_uris":{"android":"levelo://app?vid=6028d106-d28f-4869-b696-0aa97e49bcf6","ios":"levelo://app?vid=6028d106-d28f-4869-b696-0aa97e49bcf6"},"vehicle_type_id":"4","last_reported":1719425426,"current_range_meters":10800,"station_id":"ce4bgl12rcd13ifvqbo0","pricing_plan_id":"cebpf4jnsgd1na2vs0mg"},{"bike_id":"51eaa4fb-57be-406c-a052-fd89d774786a","system_id":"levelo_inurba_marseille","lat":43.292749,"lon":5.368402,"is_reserved":false,"is_disabled":false,"rental_uris":{"android":"levelo://app?vid=51eaa4fb-57be-406c-a052-fd89d774786a","ios":"levelo://app?vid=51eaa4fb-57be-406c-a052-fd89d774786a"},"vehicle_type_id":"4","last_reported":1719425426,"current_range_meters":400,"station_id":"ce4bhbp2rcd13ifvqesg","pricing_plan_id":"cebpf4jnsgd1na2vs0mg"},{"bike_id":"31812a2e-9c89-4354-b9a1-314e960c52ad","system_id":"levelo_inurba_marseille","lat":43.292749,"lon":5.368402,"is_reserved":false,"is_disabled":false,"rental_uris":{"android":"levelo://app?vid=31812a2e-9c89-4354-b9a1-314e960c52ad","ios":"levelo://app?vid=31812a2e-9c89-4354-b9a1-314e960c52ad"},"vehicle_type_id":"4","last_reported":1719425426,"current_range_meters":0,"station_id":"ce4bhbp2rcd13ifvqesg","pricing_plan_id":"cebpf4jnsgd1na2vs0mg"},{"bike_id":"f24215ab-b98a-4ded-89f7-d88e140bd45d","system_id":"levelo_inurba_marseille","lat":43.29307,"lon":5.37183,"is_reserved":false,"is_disabled":false,"rental_uris":{"android":"levelo://app?vid=f24215ab-b98a-4ded-89f7-d88e140bd45d","ios":"levelo://app?vid=f24215ab-b98a-4ded-89f7-d88e140bd45d"},"vehicle_type_id":"4","last_reported":1719425426,"current_range_meters":0,"station_id":"ce4bgh92rcd13ifvqb40","pricing_plan_id":"cebpf4jnsgd1na2vs0mg"},{"bike_id":"498053f8-9792-4c89-a827-d07e736656b1","system_id":"levelo_inurba_marseille","lat":43.29276,"lon":5.36845,"is_reserved":false,"is_disabled":false,"rental_uris":{"android":"levelo://app?vid=498053f8-9792-4c89-a827-d07e736656b1","ios":"levelo://app?vid=498053f8-9792-4c89-a827-d07e736656b1"},"vehicle_type_id":"4","last_reported":1719425426,"current_range_meters":28400,"station_id":"ce4bhbp2rcd13ifvqesg","pricing_plan_id":"cebpf4jnsgd1na2vs0mg"},{"bike_id":"4e8f3775-bfbd-4474-a659-6153be7a0ddb","system_id":"levelo_inurba_marseille","lat":43.29275,"lon":5.36849,"is_reserved":false,"is_disabled":false,"rental_uris":{"android":"levelo://app?vid=4e8f3775-bfbd-4474-a659-6153be7a0ddb","ios":"levelo://app?vid=4e8f3775-bfbd-4474-a659-6153be7a0ddb"},"vehicle_type_id":"4","last_reported":1719425426,"current_range_meters":0,"station_id":"ce4bhbp2rcd13ifvqesg","pricing_plan_id":"cebpf4jnsgd1na2vs0mg"},{"bike_id":"aa7e3f6e-8b2d-44fa-9627-7b1718007014","system_id":"levelo_inurba_marseille","lat":43.297774,"lon":5.370875,"is_reserved":false,"is_disabled":false,"rental_uris":{"android":"levelo://app?vid=aa7e3f6e-8b2d-44fa-9627-7b1718007014","ios":"levelo://app?vid=aa7e3f6e-8b2d-44fa-9627-7b1718007014"},"vehicle_type_id":"4","last_reported":1719425426,"current_range_meters":12000,"station_id":"ce4bgop2rcd13ifvqc1g","pricing_plan_id":"cebpf4jnsgd1na2vs0mg"},{"bike_id":"e47a0f89-b3c2-4047-9965-42e72692e197","system_id":"levelo_inurba_marseille","lat":43.292749,"lon":5.368402,"is_reserved":false,"is_disabled":false,"rental_uris":{"android":"levelo://app?vid=e47a0f89-b3c2-4047-9965-42e72692e197","ios":"levelo://app?vid=e47a0f89-b3c2-4047-9965-42e72692e197"},"vehicle_type_id":"4","last_reported":1719425426,"current_range_meters":22400,"station_id":"ce4bhbp2rcd13ifvqesg","pricing_plan_id":"cebpf4jnsgd1na2vs0mg"},{"bike_id":"60fa1029-1bbf-4155-a1da-1d406ec1a4ca","system_id":"levelo_inurba_marseille","lat":43.293009,"lon":5.374584,"is_reserved":false,"is_disabled":false,"rental_uris":{"android":"levelo://app?vid=60fa1029-1bbf-4155-a1da-1d406ec1a4ca","ios":"levelo://app?vid=60fa1029-1bbf-4155-a1da-1d406ec1a4ca"},"vehicle_type_id":"4","last_reported":1719425426,"current_range_meters":0,"station_id":"ce4bgi12rcd13ifvqb70","pricing_plan_id":"cebpf4jnsgd1na2vs0mg"},{"bike_id":"480ec277-cf4b-4ba8-80a8-aedade60352b","system_id":"levelo_inurba_marseille","lat":43.29307,"lon":5.37462,"is_reserved":false,"is_disabled":false,"rental_uris":{"android":"levelo://app?vid=480ec277-cf4b-4ba8-80a8-aedade60352b","ios":"levelo://app?vid=480ec277-cf4b-4ba8-80a8-aedade60352b"},"vehicle_type_id":"4","last_reported":1719425426,"current_range_meters":0,"station_id":"ce4bgi12rcd13ifvqb70","pricing_plan_id":"cebpf4jnsgd1na2vs0mg"},{"bike_id":"fb447734-f71c-45b8-9c9a-16ac42714099","system_id":"levelo_inurba_marseille","lat":43.29303,"lon":5.37454,"is_reserved":false,"is_disabled":false,"rental_uris":{"android":"levelo://app?vid=fb447734-f71c-45b8-9c9a-16ac42714099","ios":"levelo://app?vid=fb447734-f71c-45b8-9c9a-16ac42714099"},"vehicle_type_id":"4","last_reported":1719425426,"current_range_meters":0,"station_id":"ce4bgi12rcd13ifvqb70","pricing_plan_id":"cebpf4jnsgd1na2vs0mg"},{"bike_id":"2a2b9df2-8b45-42ed-acf3-b7f2ef535fa2","system_id":"levelo_inurba_marseille","lat":43.29302,"lon":5.37459,"is_reserved":false,"is_disabled":false,"rental_uris":{"android":"levelo://app?vid=2a2b9df2-8b45-42ed-acf3-b7f2ef535fa2","ios":"levelo://app?vid=2a2b9df2-8b45-42ed-acf3-b7f2ef535fa2"},"vehicle_type_id":"4","last_reported":1719425426,"current_range_meters":29200,"station_id":"ce4bgi12rcd13ifvqb70","pricing_plan_id":"cebpf4jnsgd1na2vs0mg"},{"bike_id":"4b1044f5-aaa5-4802-a2a3-3170abd4f4bf","system_id":"levelo_inurba_marseille","lat":43.293009,"lon":5.374584,"is_reserved":false,"is_disabled":false,"rental_uris":{"android":"levelo://app?vid=4b1044f5-aaa5-4802-a2a3-3170abd4f4bf","ios":"levelo://app?vid=4b1044f5-aaa5-4802-a2a3-3170abd4f4bf"},"vehicle_type_id":"4","last_reported":1719425426,"current_range_meters":0,"station_id":"ce4bgi12rcd13ifvqb70","pricing_plan_id":"cebpf4jnsgd1na2vs0mg"},{"bike_id":"5d044e89-3d3b-4f18-8ba3-da4433993cb1","system_id":"levelo_inurba_marseille","lat":43.305994,"lon":5.393687,"is_reserved":false,"is_disabled":false,"rental_uris":{"android":"levelo://app?vid=5d044e89-3d3b-4f18-8ba3-da4433993cb1","ios":"levelo://app?vid=5d044e89-3d3b-4f18-8ba3-da4433993cb1"},"vehicle_type_id":"4","last_reported":1719425426,"current_range_meters":2800,"station_id":"ce4bh0p2rcd13ifvqd80","pricing_plan_id":"cebpf4jnsgd1na2vs0mg"},{"bike_id":"13f15978-e291-4e04-a330-21088fb88f2c","system_id":"levelo_inurba_marseille","lat":43.293009,"lon":5.374584,"is_reserved":false,"is_disabled":false,"rental_uris":{"android":"levelo://app?vid=13f15978-e291-4e04-a330-21088fb88f2c","ios":"levelo://app?vid=13f15978-e291-4e04-a330-21088fb88f2c"},"vehicle_type_id":"4","last_reported":1719425426,"current_range_meters":14400,"station_id":"ce4bgi12rcd13ifvqb70","pricing_plan_id":"cebpf4jnsgd1na2vs0mg"},{"bike_id":"c80f75a4-70fd-41fe-81f3-5e7c06a21474","system_id":"levelo_inurba_marseille","lat":43.303002,"lon":5.392142,"is_reserved":false,"is_disabled":false,"rental_uris":{"android":"levelo://app?vid=c80f75a4-70fd-41fe-81f3-5e7c06a21474","ios":"levelo://app?vid=c80f75a4-70fd-41fe-81f3-5e7c06a21474"},"vehicle_type_id":"4","last_reported":1719425426,"current_range_meters":20400,"station_id":"ce4bgkh2rcd13ifvqbk0","pricing_plan_id":"cebpf4jnsgd1na2vs0mg"},{"bike_id":"3c43ada5-3409-42e4-84a5-250218b0fa57","system_id":"levelo_inurba_marseille","lat":43.302992,"lon":5.392136,"is_reserved":false,"is_disabled":false,"rental_uris":{"android":"levelo://app?vid=3c43ada5-3409-42e4-84a5-250218b0fa57","ios":"levelo://app?vid=3c43ada5-3409-42e4-84a5-250218b0fa57"},"vehicle_type_id":"4","last_reported":1719425426,"current_range_meters":0,"station_id":"ce4bgkh2rcd13ifvqbk0","pricing_plan_id":"cebpf4jnsgd1na2vs0mg"},{"bike_id":"9be8c78e-4b89-4f79-a63e-bca4de6f8e7f","system_id":"levelo_inurba_marseille","lat":43.303002,"lon":5.392142,"is_reserved":false,"is_disabled":false,"rental_uris":{"android":"levelo://app?vid=9be8c78e-4b89-4f79-a63e-bca4de6f8e7f","ios":"levelo://app?vid=9be8c78e-4b89-4f79-a63e-bca4de6f8e7f"},"vehicle_type_id":"4","last_reported":1719425426,"current_range_meters":6800,"station_id":"ce4bgkh2rcd13ifvqbk0","pricing_plan_id":"cebpf4jnsgd1na2vs0mg"},{"bike_id":"7abb10a0-5a01-4d14-8356-6412c29c40da","system_id":"levelo_inurba_marseille","lat":43.305994,"lon":5.393687,"is_reserved":false,"is_disabled":false,"rental_uris":{"android":"levelo://app?vid=7abb10a0-5a01-4d14-8356-6412c29c40da","ios":"levelo://app?vid=7abb10a0-5a01-4d14-8356-6412c29c40da"},"vehicle_type_id":"4","last_reported":1719425426,"current_range_meters":2800,"station_id":"ce4bh0p2rcd13ifvqd80","pricing_plan_id":"cebpf4jnsgd1na2vs0mg"},{"bike_id":"68ea4273-7716-4e4d-803d-6338ea4f6217","system_id":"levelo_inurba_marseille","lat":43.302992,"lon":5.392136,"is_reserved":false,"is_disabled":false,"rental_uris":{"android":"levelo://app?vid=68ea4273-7716-4e4d-803d-6338ea4f6217","ios":"levelo://app?vid=68ea4273-7716-4e4d-803d-6338ea4f6217"},"vehicle_type_id":"4","last_reported":1719425426,"current_range_meters":22800,"station_id":"ce4bgkh2rcd13ifvqbk0","pricing_plan_id":"cebpf4jnsgd1na2vs0mg"},{"bike_id":"480ec0c7-43be-4c5a-b5c1-34c1575668fb","system_id":"levelo_inurba_marseille","lat":43.292311,"lon":5.360731,"is_reserved":false,"is_disabled":false,"rental_uris":{"android":"levelo://app?vid=480ec0c7-43be-4c5a-b5c1-34c1575668fb","ios":"levelo://app?vid=480ec0c7-43be-4c5a-b5c1-34c1575668fb"},"vehicle_type_id":"4","last_reported":1719425426,"current_range_meters":18800,"station_id":"ce4bhbh2rcd13ifvqeqg","pricing_plan_id":"cebpf4jnsgd1na2vs0mg"},{"bike_id":"aab00a06-3499-4c2a-b3a4-6cfc6ccdde18","system_id":"levelo_inurba_marseille","lat":43.292311,"lon":5.360731,"is_reserved":false,"is_disabled":false,"rental_uris":{"android":"levelo://app?vid=aab00a06-3499-4c2a-b3a4-6cfc6ccdde18","ios":"levelo://app?vid=aab00a06-3499-4c2a-b3a4-6cfc6ccdde18"},"vehicle_type_id":"4","last_reported":1719425426,"current_range_meters":1600,"station_id":"ce4bhbh2rcd13ifvqeqg","pricing_plan_id":"cebpf4jnsgd1na2vs0mg"},{"bike_id":"318c01df-5c34-4eae-a2dc-deafc5709ded","system_id":"levelo_inurba_marseille","lat":43.30085,"lon":5.390856,"is_reserved":false,"is_disabled":false,"rental_uris":{"android":"levelo://app?vid=318c01df-5c34-4eae-a2dc-deafc5709ded","ios":"levelo://app?vid=318c01df-5c34-4eae-a2dc-deafc5709ded"},"vehicle_type_id":"4","last_reported":1719425426,"current_range_meters":9600,"station_id":"ce4bh192rcd13ifvqdb0","pricing_plan_id":"cebpf4jnsgd1na2vs0mg"},{"bike_id":"bf179f3d-2ce7-47fd-b00a-8246539a93b3","system_id":"levelo_inurba_marseille","lat":43.30085,"lon":5.390856,"is_reserved":false,"is_disabled":false,"rental_uris":{"android":"levelo://app?vid=bf179f3d-2ce7-47fd-b00a-8246539a93b3","ios":"levelo://app?vid=bf179f3d-2ce7-47fd-b00a-8246539a93b3"},"vehicle_type_id":"4","last_reported":1719425426,"current_range_meters":30400,"station_id":"ce4bh192rcd13ifvqdb0","pricing_plan_id":"cebpf4jnsgd1na2vs0mg"},{"bike_id":"0f643685-d5b1-4fec-9bc5-5a1e19fc4dba","system_id":"levelo_inurba_marseille","lat":43.298764,"lon":5.388973,"is_reserved":false,"is_disabled":false,"rental_uris":{"android":"levelo://app?vid=0f643685-d5b1-4fec-9bc5-5a1e19fc4dba","ios":"levelo://app?vid=0f643685-d5b1-4fec-9bc5-5a1e19fc4dba"},"vehicle_type_id":"4","last_reported":1719425426,"current_range_meters":18800,"station_id":"ce4bh392rcd13ifvqdl0","pricing_plan_id":"cebpf4jnsgd1na2vs0mg"},{"bike_id":"06e1678c-a023-49a5-8027-e528104bd11a","system_id":"levelo_inurba_marseille","lat":43.302008,"lon":5.394694,"is_reserved":false,"is_disabled":false,"rental_uris":{"android":"levelo://app?vid=06e1678c-a023-49a5-8027-e528104bd11a","ios":"levelo://app?vid=06e1678c-a023-49a5-8027-e528104bd11a"},"vehicle_type_id":"4","last_reported":1719425426,"current_range_meters":0,"station_id":"ce4bh0p2rcd13ifvqd70","pricing_plan_id":"cebpf4jnsgd1na2vs0mg"},{"bike_id":"3bba12dd-cd4c-4f47-b970-46a3f8817d3b","system_id":"levelo_inurba_marseille","lat":43.292005,"lon":5.357875,"is_reserved":false,"is_disabled":false,"rental_uris":{"android":"levelo://app?vid=3bba12dd-cd4c-4f47-b970-46a3f8817d3b","ios":"levelo://app?vid=3bba12dd-cd4c-4f47-b970-46a3f8817d3b"},"vehicle_type_id":"4","last_reported":1719425426,"current_range_meters":13600,"station_id":"ce4bhb12rcd13ifvqel0","pricing_plan_id":"cebpf4jnsgd1na2vs0mg"},{"bike_id":"5ae38036-3a5a-4809-af0d-e34e944fe17a","system_id":"levelo_inurba_marseille","lat":43.292005,"lon":5.357875,"is_reserved":false,"is_disabled":false,"rental_uris":{"android":"levelo://app?vid=5ae38036-3a5a-4809-af0d-e34e944fe17a","ios":"levelo://app?vid=5ae38036-3a5a-4809-af0d-e34e944fe17a"},"vehicle_type_id":"4","last_reported":1719425426,"current_range_meters":800,"station_id":"ce4bhb12rcd13ifvqel0","pricing_plan_id":"cebpf4jnsgd1na2vs0mg"},{"bike_id":"c00b0925-9ca5-41c6-a280-cb78a18262f4","system_id":"levelo_inurba_marseille","lat":43.291994,"lon":5.357886,"is_reserved":false,"is_disabled":false,"rental_uris":{"android":"levelo://app?vid=c00b0925-9ca5-41c6-a280-cb78a18262f4","ios":"levelo://app?vid=c00b0925-9ca5-41c6-a280-cb78a18262f4"},"vehicle_type_id":"4","last_reported":1719425426,"current_range_meters":26800,"station_id":"ce4bhb12rcd13ifvqel0","pricing_plan_id":"cebpf4jnsgd1na2vs0mg"},{"bike_id":"0dc4fa71-ce7a-4eb8-b858-71f29a5e335e","system_id":"levelo_inurba_marseille","lat":43.309047,"lon":5.396551,"is_reserved":false,"is_disabled":false,"rental_uris":{"android":"levelo://app?vid=0dc4fa71-ce7a-4eb8-b858-71f29a5e335e","ios":"levelo://app?vid=0dc4fa71-ce7a-4eb8-b858-71f29a5e335e"},"vehicle_type_id":"4","last_reported":1719425426,"current_range_meters":0,"station_id":"ce4bh012rcd13ifvqcv0","pricing_plan_id":"cebpf4jnsgd1na2vs0mg"},{"bike_id":"d2604188-7fea-4765-907c-60ea41c52e43","system_id":"levelo_inurba_marseille","lat":43.313291,"lon":5.396838,"is_reserved":false,"is_disabled":false,"rental_uris":{"android":"levelo://app?vid=d2604188-7fea-4765-907c-60ea41c52e43","ios":"levelo://app?vid=d2604188-7fea-4765-907c-60ea41c52e43"},"vehicle_type_id":"4","last_reported":1719425426,"current_range_meters":21200,"station_id":"ce4bgvp2rcd13ifvqcu0","pricing_plan_id":"cebpf4jnsgd1na2vs0mg"},{"bike_id":"c5b64c8d-c03f-489a-b6e5-beb883f0bd94","system_id":"levelo_inurba_marseille","lat":43.313291,"lon":5.396838,"is_reserved":false,"is_disabled":false,"rental_uris":{"android":"levelo://app?vid=c5b64c8d-c03f-489a-b6e5-beb883f0bd94","ios":"levelo://app?vid=c5b64c8d-c03f-489a-b6e5-beb883f0bd94"},"vehicle_type_id":"4","last_reported":1719425426,"current_range_meters":30000,"station_id":"ce4bgvp2rcd13ifvqcu0","pricing_plan_id":"cebpf4jnsgd1na2vs0mg"},{"bike_id":"fb4b226f-ae04-45a2-aae9-8a79103a3831","system_id":"levelo_inurba_marseille","lat":43.313291,"lon":5.396838,"is_reserved":false,"is_disabled":false,"rental_uris":{"android":"levelo://app?vid=fb4b226f-ae04-45a2-aae9-8a79103a3831","ios":"levelo://app?vid=fb4b226f-ae04-45a2-aae9-8a79103a3831"},"vehicle_type_id":"4","last_reported":1719425426,"current_range_meters":5600,"station_id":"ce4bgvp2rcd13ifvqcu0","pricing_plan_id":"cebpf4jnsgd1na2vs0mg"},{"bike_id":"7e0aa367-d4fa-4eec-8ac3-a86a43a26848","system_id":"levelo_inurba_marseille","lat":43.309038,"lon":5.396546,"is_reserved":false,"is_disabled":false,"rental_uris":{"android":"levelo://app?vid=7e0aa367-d4fa-4eec-8ac3-a86a43a26848","ios":"levelo://app?vid=7e0aa367-d4fa-4eec-8ac3-a86a43a26848"},"vehicle_type_id":"4","last_reported":1719425426,"current_range_meters":0,"station_id":"ce4bh012rcd13ifvqcv0","pricing_plan_id":"cebpf4jnsgd1na2vs0mg"},{"bike_id":"d21e7dc8-4b61-4be5-8406-e323f14da434","system_id":"levelo_inurba_marseille","lat":43.30883,"lon":5.3965,"is_reserved":false,"is_disabled":false,"rental_uris":{"android":"levelo://app?vid=d21e7dc8-4b61-4be5-8406-e323f14da434","ios":"levelo://app?vid=d21e7dc8-4b61-4be5-8406-e323f14da434"},"vehicle_type_id":"4","last_reported":1719425426,"current_range_meters":4800,"station_id":"ce4bh012rcd13ifvqcv0","pricing_plan_id":"cebpf4jnsgd1na2vs0mg"},{"bike_id":"5e1c65d0-9a0c-4b57-8355-b6be90b58818","system_id":"levelo_inurba_marseille","lat":43.309038,"lon":5.396546,"is_reserved":false,"is_disabled":false,"rental_uris":{"android":"levelo://app?vid=5e1c65d0-9a0c-4b57-8355-b6be90b58818","ios":"levelo://app?vid=5e1c65d0-9a0c-4b57-8355-b6be90b58818"},"vehicle_type_id":"4","last_reported":1719425426,"current_range_meters":6800,"station_id":"ce4bh012rcd13ifvqcv0","pricing_plan_id":"cebpf4jnsgd1na2vs0mg"},{"bike_id":"48ebff3a-6ad1-4681-8bd8-dc3b7d8faa55","system_id":"levelo_inurba_marseille","lat":43.309038,"lon":5.396546,"is_reserved":false,"is_disabled":false,"rental_uris":{"android":"levelo://app?vid=48ebff3a-6ad1-4681-8bd8-dc3b7d8faa55","ios":"levelo://app?vid=48ebff3a-6ad1-4681-8bd8-dc3b7d8faa55"},"vehicle_type_id":"4","last_reported":1719425426,"current_range_meters":13200,"station_id":"ce4bh012rcd13ifvqcv0","pricing_plan_id":"cebpf4jnsgd1na2vs0mg"},{"bike_id":"0a70f146-5c73-4385-801a-4d4d8ea0484e","system_id":"levelo_inurba_marseille","lat":43.29534,"lon":5.38538,"is_reserved":false,"is_disabled":false,"rental_uris":{"android":"levelo://app?vid=0a70f146-5c73-4385-801a-4d4d8ea0484e","ios":"levelo://app?vid=0a70f146-5c73-4385-801a-4d4d8ea0484e"},"vehicle_type_id":"4","last_reported":1719425426,"current_range_meters":0,"station_id":"ce4bgih2rcd13ifvqba0","pricing_plan_id":"cebpf4jnsgd1na2vs0mg"},{"bike_id":"49b6e987-9d8f-4eea-8830-2fb1535f402f","system_id":"levelo_inurba_marseille","lat":43.29529,"lon":5.385581,"is_reserved":false,"is_disabled":false,"rental_uris":{"android":"levelo://app?vid=49b6e987-9d8f-4eea-8830-2fb1535f402f","ios":"levelo://app?vid=49b6e987-9d8f-4eea-8830-2fb1535f402f"},"vehicle_type_id":"4","last_reported":1719425426,"current_range_meters":23200,"station_id":"ce4bgih2rcd13ifvqba0","pricing_plan_id":"cebpf4jnsgd1na2vs0mg"},{"bike_id":"794ae866-da65-4011-9d49-3d32e709e13a","system_id":"levelo_inurba_marseille","lat":43.29529,"lon":5.385581,"is_reserved":false,"is_disabled":false,"rental_uris":{"android":"levelo://app?vid=794ae866-da65-4011-9d49-3d32e709e13a","ios":"levelo://app?vid=794ae866-da65-4011-9d49-3d32e709e13a"},"vehicle_type_id":"4","last_reported":1719425426,"current_range_meters":22800,"station_id":"ce4bgih2rcd13ifvqba0","pricing_plan_id":"cebpf4jnsgd1na2vs0mg"},{"bike_id":"9ea7e04d-10f0-4c49-9773-df72523dd807","system_id":"levelo_inurba_marseille","lat":43.29528,"lon":5.3855,"is_reserved":false,"is_disabled":false,"rental_uris":{"android":"levelo://app?vid=9ea7e04d-10f0-4c49-9773-df72523dd807","ios":"levelo://app?vid=9ea7e04d-10f0-4c49-9773-df72523dd807"},"vehicle_type_id":"4","last_reported":1719425426,"current_range_meters":0,"station_id":"ce4bgih2rcd13ifvqba0","pricing_plan_id":"cebpf4jnsgd1na2vs0mg"},{"bike_id":"5476f3ae-cd34-4310-80c9-4babad14e244","system_id":"levelo_inurba_marseille","lat":43.302008,"lon":5.394694,"is_reserved":false,"is_disabled":false,"rental_uris":{"android":"levelo://app?vid=5476f3ae-cd34-4310-80c9-4babad14e244","ios":"levelo://app?vid=5476f3ae-cd34-4310-80c9-4babad14e244"},"vehicle_type_id":"4","last_reported":1719425426,"current_range_meters":0,"station_id":"ce4bh0p2rcd13ifvqd70","pricing_plan_id":"cebpf4jnsgd1na2vs0mg"},{"bike_id":"1e4c9f6e-9fd8-4fc8-a358-0a3d54aea3cc","system_id":"levelo_inurba_marseille","lat":43.30218,"lon":5.39477,"is_reserved":false,"is_disabled":false,"rental_uris":{"android":"levelo://app?vid=1e4c9f6e-9fd8-4fc8-a358-0a3d54aea3cc","ios":"levelo://app?vid=1e4c9f6e-9fd8-4fc8-a358-0a3d54aea3cc"},"vehicle_type_id":"4","last_reported":1719425426,"current_range_meters":23200,"station_id":"ce4bh0p2rcd13ifvqd70","pricing_plan_id":"cebpf4jnsgd1na2vs0mg"},{"bike_id":"e3eaf661-9f3e-4823-ab1c-0151d9c5b159","system_id":"levelo_inurba_marseille","lat":43.290624,"lon":5.359245,"is_reserved":false,"is_disabled":false,"rental_uris":{"android":"levelo://app?vid=e3eaf661-9f3e-4823-ab1c-0151d9c5b159","ios":"levelo://app?vid=e3eaf661-9f3e-4823-ab1c-0151d9c5b159"},"vehicle_type_id":"4","last_reported":1719425426,"current_range_meters":29600,"station_id":"ce4bha92rcd13ifvqeg0","pricing_plan_id":"cebpf4jnsgd1na2vs0mg"},{"bike_id":"67ad9d1b-6377-4b98-aca7-6c148261ed10","system_id":"levelo_inurba_marseille","lat":43.294162,"lon":5.386292,"is_reserved":false,"is_disabled":false,"rental_uris":{"android":"levelo://app?vid=67ad9d1b-6377-4b98-aca7-6c148261ed10","ios":"levelo://app?vid=67ad9d1b-6377-4b98-aca7-6c148261ed10"},"vehicle_type_id":"4","last_reported":1719425426,"current_range_meters":0,"station_id":"ce4bh2h2rcd13ifvqdh0","pricing_plan_id":"cebpf4jnsgd1na2vs0mg"},{"bike_id":"3addbfd2-f415-44a1-a3e6-04c678009082","system_id":"levelo_inurba_marseille","lat":43.294153,"lon":5.386305,"is_reserved":false,"is_disabled":false,"rental_uris":{"android":"levelo://app?vid=3addbfd2-f415-44a1-a3e6-04c678009082","ios":"levelo://app?vid=3addbfd2-f415-44a1-a3e6-04c678009082"},"vehicle_type_id":"4","last_reported":1719425426,"current_range_meters":19200,"station_id":"ce4bh2h2rcd13ifvqdh0","pricing_plan_id":"cebpf4jnsgd1na2vs0mg"},{"bike_id":"7f845f3e-89bb-4a6c-97c9-c8af89a28791","system_id":"levelo_inurba_marseille","lat":43.289184,"lon":5.366408,"is_reserved":false,"is_disabled":false,"rental_uris":{"android":"levelo://app?vid=7f845f3e-89bb-4a6c-97c9-c8af89a28791","ios":"levelo://app?vid=7f845f3e-89bb-4a6c-97c9-c8af89a28791"},"vehicle_type_id":"4","last_reported":1719425426,"current_range_meters":0,"station_id":"ce4bhap2rcd13ifvqek0","pricing_plan_id":"cebpf4jnsgd1na2vs0mg"},{"bike_id":"f8e762a7-d342-417b-bd2f-73992f21b379","system_id":"levelo_inurba_marseille","lat":43.289184,"lon":5.366408,"is_reserved":false,"is_disabled":false,"rental_uris":{"android":"levelo://app?vid=f8e762a7-d342-417b-bd2f-73992f21b379","ios":"levelo://app?vid=f8e762a7-d342-417b-bd2f-73992f21b379"},"vehicle_type_id":"4","last_reported":1719425426,"current_range_meters":2400,"station_id":"ce4bhap2rcd13ifvqek0","pricing_plan_id":"cebpf4jnsgd1na2vs0mg"},{"bike_id":"89a8d2b1-5f4d-4c9f-842a-ede0d2a330b0","system_id":"levelo_inurba_marseille","lat":43.29274,"lon":5.384353,"is_reserved":false,"is_disabled":false,"rental_uris":{"android":"levelo://app?vid=89a8d2b1-5f4d-4c9f-842a-ede0d2a330b0","ios":"levelo://app?vid=89a8d2b1-5f4d-4c9f-842a-ede0d2a330b0"},"vehicle_type_id":"4","last_reported":1719425426,"current_range_meters":22000,"station_id":"ce4bh692rcd13ifvqea0","pricing_plan_id":"cebpf4jnsgd1na2vs0mg"},{"bike_id":"b9f5998d-1200-4ba5-b11a-85b6b0d241e9","system_id":"levelo_inurba_marseille","lat":43.29272,"lon":5.38434,"is_reserved":false,"is_disabled":false,"rental_uris":{"android":"levelo://app?vid=b9f5998d-1200-4ba5-b11a-85b6b0d241e9","ios":"levelo://app?vid=b9f5998d-1200-4ba5-b11a-85b6b0d241e9"},"vehicle_type_id":"4","last_reported":1719425426,"current_range_meters":22000,"station_id":"ce4bh692rcd13ifvqea0","pricing_plan_id":"cebpf4jnsgd1na2vs0mg"},{"bike_id":"37532170-f6b1-4b5d-ac55-02493ab7f28e","system_id":"levelo_inurba_marseille","lat":43.292643,"lon":5.384417,"is_reserved":false,"is_disabled":false,"rental_uris":{"android":"levelo://app?vid=37532170-f6b1-4b5d-ac55-02493ab7f28e","ios":"levelo://app?vid=37532170-f6b1-4b5d-ac55-02493ab7f28e"},"vehicle_type_id":"4","last_reported":1719425426,"current_range_meters":31200,"station_id":"ce4bh692rcd13ifvqea0","pricing_plan_id":"cebpf4jnsgd1na2vs0mg"},{"bike_id":"3ab59fa1-1bcd-452b-8a1b-4d00eed2a1a1","system_id":"levelo_inurba_marseille","lat":43.292644,"lon":5.384257,"is_reserved":false,"is_disabled":false,"rental_uris":{"android":"levelo://app?vid=3ab59fa1-1bcd-452b-8a1b-4d00eed2a1a1","ios":"levelo://app?vid=3ab59fa1-1bcd-452b-8a1b-4d00eed2a1a1"},"vehicle_type_id":"4","last_reported":1719425426,"current_range_meters":31200,"station_id":"ce4bh692rcd13ifvqea0","pricing_plan_id":"cebpf4jnsgd1na2vs0mg"},{"bike_id":"2ea38cc3-e008-4057-97a6-2989b742e4d9","system_id":"levelo_inurba_marseille","lat":43.292642,"lon":5.384254,"is_reserved":false,"is_disabled":false,"rental_uris":{"android":"levelo://app?vid=2ea38cc3-e008-4057-97a6-2989b742e4d9","ios":"levelo://app?vid=2ea38cc3-e008-4057-97a6-2989b742e4d9"},"vehicle_type_id":"4","last_reported":1719425426,"current_range_meters":14400,"station_id":"ce4bh692rcd13ifvqea0","pricing_plan_id":"cebpf4jnsgd1na2vs0mg"},{"bike_id":"0dd06982-d640-40ea-a69a-464725b310e5","system_id":"levelo_inurba_marseille","lat":43.292644,"lon":5.384257,"is_reserved":false,"is_disabled":false,"rental_uris":{"android":"levelo://app?vid=0dd06982-d640-40ea-a69a-464725b310e5","ios":"levelo://app?vid=0dd06982-d640-40ea-a69a-464725b310e5"},"vehicle_type_id":"4","last_reported":1719425426,"current_range_meters":20000,"station_id":"ce4bh692rcd13ifvqea0","pricing_plan_id":"cebpf4jnsgd1na2vs0mg"},{"bike_id":"c76815e3-7889-4101-93aa-4cb1d0def78b","system_id":"levelo_inurba_marseille","lat":43.292642,"lon":5.384254,"is_reserved":false,"is_disabled":false,"rental_uris":{"android":"levelo://app?vid=c76815e3-7889-4101-93aa-4cb1d0def78b","ios":"levelo://app?vid=c76815e3-7889-4101-93aa-4cb1d0def78b"},"vehicle_type_id":"4","last_reported":1719425426,"current_range_meters":31200,"station_id":"ce4bh692rcd13ifvqea0","pricing_plan_id":"cebpf4jnsgd1na2vs0mg"},{"bike_id":"7430101f-3354-4994-a2e6-76a4164adb11","system_id":"levelo_inurba_marseille","lat":43.29005,"lon":5.35614,"is_reserved":false,"is_disabled":false,"rental_uris":{"android":"levelo://app?vid=7430101f-3354-4994-a2e6-76a4164adb11","ios":"levelo://app?vid=7430101f-3354-4994-a2e6-76a4164adb11"},"vehicle_type_id":"4","last_reported":1719425426,"current_range_meters":0,"station_id":"ce4bhb92rcd13ifvqen0","pricing_plan_id":"cebpf4jnsgd1na2vs0mg"},{"bike_id":"0ac79f24-129b-4daa-8b72-2eb3a9e79fb1","system_id":"levelo_inurba_marseille","lat":43.330442,"lon":5.389148,"is_reserved":false,"is_disabled":false,"rental_uris":{"android":"levelo://app?vid=0ac79f24-129b-4daa-8b72-2eb3a9e79fb1","ios":"levelo://app?vid=0ac79f24-129b-4daa-8b72-2eb3a9e79fb1"},"vehicle_type_id":"4","last_reported":1719425426,"current_range_meters":5200,"station_id":"ce4bhr92rcd13ifvqhrg","pricing_plan_id":"cebpf4jnsgd1na2vs0mg"},{"bike_id":"610d9743-2e98-4141-92c0-7beb2f86288f","system_id":"levelo_inurba_marseille","lat":43.330442,"lon":5.389148,"is_reserved":false,"is_disabled":false,"rental_uris":{"android":"levelo://app?vid=610d9743-2e98-4141-92c0-7beb2f86288f","ios":"levelo://app?vid=610d9743-2e98-4141-92c0-7beb2f86288f"},"vehicle_type_id":"4","last_reported":1719425426,"current_range_meters":800,"station_id":"ce4bhr92rcd13ifvqhrg","pricing_plan_id":"cebpf4jnsgd1na2vs0mg"},{"bike_id":"c62c1a3a-fbab-46c6-a050-a7fe53156df1","system_id":"levelo_inurba_marseille","lat":43.330442,"lon":5.389148,"is_reserved":false,"is_disabled":false,"rental_uris":{"android":"levelo://app?vid=c62c1a3a-fbab-46c6-a050-a7fe53156df1","ios":"levelo://app?vid=c62c1a3a-fbab-46c6-a050-a7fe53156df1"},"vehicle_type_id":"4","last_reported":1719425426,"current_range_meters":0,"station_id":"ce4bhr92rcd13ifvqhrg","pricing_plan_id":"cebpf4jnsgd1na2vs0mg"},{"bike_id":"41af1152-1077-4b4e-baaa-97cacc3135b1","system_id":"levelo_inurba_marseille","lat":43.2912,"lon":5.38301,"is_reserved":false,"is_disabled":false,"rental_uris":{"android":"levelo://app?vid=41af1152-1077-4b4e-baaa-97cacc3135b1","ios":"levelo://app?vid=41af1152-1077-4b4e-baaa-97cacc3135b1"},"vehicle_type_id":"4","last_reported":1719425426,"current_range_meters":0,"station_id":"","pricing_plan_id":"cebpf4jnsgd1na2vs0mg"},{"bike_id":"267f636f-dbc7-4865-90d7-aab7d10ed76e","system_id":"levelo_inurba_marseille","lat":43.295169,"lon":5.390426,"is_reserved":false,"is_disabled":false,"rental_uris":{"android":"levelo://app?vid=267f636f-dbc7-4865-90d7-aab7d10ed76e","ios":"levelo://app?vid=267f636f-dbc7-4865-90d7-aab7d10ed76e"},"vehicle_type_id":"4","last_reported":1719425426,"current_range_meters":0,"station_id":"ce4bh3p2rcd13ifvqdp0","pricing_plan_id":"cebpf4jnsgd1na2vs0mg"},{"bike_id":"c7cdd302-176f-41e2-a661-b9d57f222cbd","system_id":"levelo_inurba_marseille","lat":43.2901,"lon":5.381269,"is_reserved":false,"is_disabled":false,"rental_uris":{"android":"levelo://app?vid=c7cdd302-176f-41e2-a661-b9d57f222cbd","ios":"levelo://app?vid=c7cdd302-176f-41e2-a661-b9d57f222cbd"},"vehicle_type_id":"4","last_reported":1719425426,"current_range_meters":1600,"station_id":"ce4bh4p2rcd13ifvqe1g","pricing_plan_id":"cebpf4jnsgd1na2vs0mg"},{"bike_id":"ab4b7a83-a496-4a20-9c9f-48d6e29f3a3e","system_id":"levelo_inurba_marseille","lat":43.31064,"lon":5.40086,"is_reserved":false,"is_disabled":false,"rental_uris":{"android":"levelo://app?vid=ab4b7a83-a496-4a20-9c9f-48d6e29f3a3e","ios":"levelo://app?vid=ab4b7a83-a496-4a20-9c9f-48d6e29f3a3e"},"vehicle_type_id":"4","last_reported":1719425426,"current_range_meters":19600,"station_id":"","pricing_plan_id":"cebpf4jnsgd1na2vs0mg"},{"bike_id":"6cb841b1-e3d8-48e6-a5b9-c65a2f18b91e","system_id":"levelo_inurba_marseille","lat":43.31059,"lon":5.40098,"is_reserved":false,"is_disabled":false,"rental_uris":{"android":"levelo://app?vid=6cb841b1-e3d8-48e6-a5b9-c65a2f18b91e","ios":"levelo://app?vid=6cb841b1-e3d8-48e6-a5b9-c65a2f18b91e"},"vehicle_type_id":"4","last_reported":1719425426,"current_range_meters":9600,"station_id":"","pricing_plan_id":"cebpf4jnsgd1na2vs0mg"},{"bike_id":"4f43de1c-c04f-469f-a826-932b923dc40f","system_id":"levelo_inurba_marseille","lat":43.2886,"lon":5.35856,"is_reserved":false,"is_disabled":false,"rental_uris":{"android":"levelo://app?vid=4f43de1c-c04f-469f-a826-932b923dc40f","ios":"levelo://app?vid=4f43de1c-c04f-469f-a826-932b923dc40f"},"vehicle_type_id":"4","last_reported":1719425426,"current_range_meters":0,"station_id":"ce4bhb12rcd13ifvqem0","pricing_plan_id":"cebpf4jnsgd1na2vs0mg"},{"bike_id":"c4514e59-4b57-42fd-8dea-cfde2e22051c","system_id":"levelo_inurba_marseille","lat":43.29015,"lon":5.38141,"is_reserved":false,"is_disabled":false,"rental_uris":{"android":"levelo://app?vid=c4514e59-4b57-42fd-8dea-cfde2e22051c","ios":"levelo://app?vid=c4514e59-4b57-42fd-8dea-cfde2e22051c"},"vehicle_type_id":"4","last_reported":1719425426,"current_range_meters":24800,"station_id":"ce4bh4p2rcd13ifvqe1g","pricing_plan_id":"cebpf4jnsgd1na2vs0mg"},{"bike_id":"4aea9c60-0008-486a-9b4c-b233ef196ff4","system_id":"levelo_inurba_marseille","lat":43.28854,"lon":5.35861,"is_reserved":false,"is_disabled":false,"rental_uris":{"android":"levelo://app?vid=4aea9c60-0008-486a-9b4c-b233ef196ff4","ios":"levelo://app?vid=4aea9c60-0008-486a-9b4c-b233ef196ff4"},"vehicle_type_id":"4","last_reported":1719425426,"current_range_meters":0,"station_id":"ce4bhb12rcd13ifvqem0","pricing_plan_id":"cebpf4jnsgd1na2vs0mg"},{"bike_id":"c3ddbe4a-157d-4893-acf1-f1f626a65d21","system_id":"levelo_inurba_marseille","lat":43.33715,"lon":5.37426,"is_reserved":false,"is_disabled":false,"rental_uris":{"android":"levelo://app?vid=c3ddbe4a-157d-4893-acf1-f1f626a65d21","ios":"levelo://app?vid=c3ddbe4a-157d-4893-acf1-f1f626a65d21"},"vehicle_type_id":"0","last_reported":1719425426,"current_range_meters":19200,"station_id":"","pricing_plan_id":"cebpf4jnsgd1na2vs0mg"},{"bike_id":"2b122f24-1f19-49a8-be1e-c36c7351d301","system_id":"levelo_inurba_marseille","lat":43.28856,"lon":5.358371,"is_reserved":false,"is_disabled":false,"rental_uris":{"android":"levelo://app?vid=2b122f24-1f19-49a8-be1e-c36c7351d301","ios":"levelo://app?vid=2b122f24-1f19-49a8-be1e-c36c7351d301"},"vehicle_type_id":"4","last_reported":1719425426,"current_range_meters":0,"station_id":"ce4bhb12rcd13ifvqem0","pricing_plan_id":"cebpf4jnsgd1na2vs0mg"},{"bike_id":"70df0eff-7892-4d64-8b33-f9b25d3cdb77","system_id":"levelo_inurba_marseille","lat":43.337356,"lon":5.374659,"is_reserved":false,"is_disabled":false,"rental_uris":{"android":"levelo://app?vid=70df0eff-7892-4d64-8b33-f9b25d3cdb77","ios":"levelo://app?vid=70df0eff-7892-4d64-8b33-f9b25d3cdb77"},"vehicle_type_id":"4","last_reported":1719425426,"current_range_meters":18000,"station_id":"","pricing_plan_id":"cebpf4jnsgd1na2vs0mg"},{"bike_id":"9b81675f-44cd-4cbe-9733-2d36a516d8f7","system_id":"levelo_inurba_marseille","lat":43.337388,"lon":5.374603,"is_reserved":false,"is_disabled":false,"rental_uris":{"android":"levelo://app?vid=9b81675f-44cd-4cbe-9733-2d36a516d8f7","ios":"levelo://app?vid=9b81675f-44cd-4cbe-9733-2d36a516d8f7"},"vehicle_type_id":"0","last_reported":1719425426,"current_range_meters":20400,"station_id":"","pricing_plan_id":"cebpf4jnsgd1na2vs0mg"},{"bike_id":"c25a3696-e1cc-43ba-8656-23d4a118ee2e","system_id":"levelo_inurba_marseille","lat":43.337388,"lon":5.374716,"is_reserved":false,"is_disabled":false,"rental_uris":{"android":"levelo://app?vid=c25a3696-e1cc-43ba-8656-23d4a118ee2e","ios":"levelo://app?vid=c25a3696-e1cc-43ba-8656-23d4a118ee2e"},"vehicle_type_id":"4","last_reported":1719425426,"current_range_meters":18000,"station_id":"","pricing_plan_id":"cebpf4jnsgd1na2vs0mg"},{"bike_id":"bb65fb70-df82-47d8-b27f-438620895501","system_id":"levelo_inurba_marseille","lat":43.337393,"lon":5.374693,"is_reserved":false,"is_disabled":false,"rental_uris":{"android":"levelo://app?vid=bb65fb70-df82-47d8-b27f-438620895501","ios":"levelo://app?vid=bb65fb70-df82-47d8-b27f-438620895501"},"vehicle_type_id":"4","last_reported":1719425426,"current_range_meters":12400,"station_id":"","pricing_plan_id":"cebpf4jnsgd1na2vs0mg"},{"bike_id":"2a0fb516-a307-4861-b129-104556c40f00","system_id":"levelo_inurba_marseille","lat":43.337404,"lon":5.374687,"is_reserved":false,"is_disabled":false,"rental_uris":{"android":"levelo://app?vid=2a0fb516-a307-4861-b129-104556c40f00","ios":"levelo://app?vid=2a0fb516-a307-4861-b129-104556c40f00"},"vehicle_type_id":"0","last_reported":1719425426,"current_range_meters":10400,"station_id":"","pricing_plan_id":"cebpf4jnsgd1na2vs0mg"},{"bike_id":"bd9a6c26-2db3-4e30-92c7-c85ae97147aa","system_id":"levelo_inurba_marseille","lat":43.3374,"lon":5.37472,"is_reserved":false,"is_disabled":false,"rental_uris":{"android":"levelo://app?vid=bd9a6c26-2db3-4e30-92c7-c85ae97147aa","ios":"levelo://app?vid=bd9a6c26-2db3-4e30-92c7-c85ae97147aa"},"vehicle_type_id":"0","last_reported":1719425426,"current_range_meters":21600,"station_id":"","pricing_plan_id":"cebpf4jnsgd1na2vs0mg"},{"bike_id":"0b53ac72-8cdb-4f3a-a6a0-e8576f4a9535","system_id":"levelo_inurba_marseille","lat":43.337444,"lon":5.374475,"is_reserved":false,"is_disabled":false,"rental_uris":{"android":"levelo://app?vid=0b53ac72-8cdb-4f3a-a6a0-e8576f4a9535","ios":"levelo://app?vid=0b53ac72-8cdb-4f3a-a6a0-e8576f4a9535"},"vehicle_type_id":"4","last_reported":1719425426,"current_range_meters":26000,"station_id":"","pricing_plan_id":"cebpf4jnsgd1na2vs0mg"},{"bike_id":"cbff8e2e-87ad-4d9e-a09d-9b1fba1c0aeb","system_id":"levelo_inurba_marseille","lat":43.337424,"lon":5.374709,"is_reserved":false,"is_disabled":false,"rental_uris":{"android":"levelo://app?vid=cbff8e2e-87ad-4d9e-a09d-9b1fba1c0aeb","ios":"levelo://app?vid=cbff8e2e-87ad-4d9e-a09d-9b1fba1c0aeb"},"vehicle_type_id":"0","last_reported":1719425426,"current_range_meters":18400,"station_id":"","pricing_plan_id":"cebpf4jnsgd1na2vs0mg"},{"bike_id":"aa527c2c-31a5-479b-bfbe-daae0d9bb514","system_id":"levelo_inurba_marseille","lat":43.337439,"lon":5.374637,"is_reserved":false,"is_disabled":false,"rental_uris":{"android":"levelo://app?vid=aa527c2c-31a5-479b-bfbe-daae0d9bb514","ios":"levelo://app?vid=aa527c2c-31a5-479b-bfbe-daae0d9bb514"},"vehicle_type_id":"0","last_reported":1719425426,"current_range_meters":8000,"station_id":"","pricing_plan_id":"cebpf4jnsgd1na2vs0mg"},{"bike_id":"8043cc8a-f702-4e45-9523-d56dfd7ee432","system_id":"levelo_inurba_marseille","lat":43.337435,"lon":5.374696,"is_reserved":false,"is_disabled":false,"rental_uris":{"android":"levelo://app?vid=8043cc8a-f702-4e45-9523-d56dfd7ee432","ios":"levelo://app?vid=8043cc8a-f702-4e45-9523-d56dfd7ee432"},"vehicle_type_id":"0","last_reported":1719425426,"current_range_meters":17600,"station_id":"","pricing_plan_id":"cebpf4jnsgd1na2vs0mg"},{"bike_id":"985eda3a-8205-4c72-8b0d-a44593dd15b5","system_id":"levelo_inurba_marseille","lat":43.337451,"lon":5.374706,"is_reserved":false,"is_disabled":false,"rental_uris":{"android":"levelo://app?vid=985eda3a-8205-4c72-8b0d-a44593dd15b5","ios":"levelo://app?vid=985eda3a-8205-4c72-8b0d-a44593dd15b5"},"vehicle_type_id":"0","last_reported":1719425426,"current_range_meters":11600,"station_id":"","pricing_plan_id":"cebpf4jnsgd1na2vs0mg"},{"bike_id":"11da98ef-d0c3-43c2-a7e4-890f2c23ccbc","system_id":"levelo_inurba_marseille","lat":43.33747,"lon":5.3747,"is_reserved":false,"is_disabled":false,"rental_uris":{"android":"levelo://app?vid=11da98ef-d0c3-43c2-a7e4-890f2c23ccbc","ios":"levelo://app?vid=11da98ef-d0c3-43c2-a7e4-890f2c23ccbc"},"vehicle_type_id":"4","last_reported":1719425426,"current_range_meters":12000,"station_id":"","pricing_plan_id":"cebpf4jnsgd1na2vs0mg"},{"bike_id":"bf709b1a-1e81-4c69-a36a-dfef45d67fee","system_id":"levelo_inurba_marseille","lat":43.337469,"lon":5.374711,"is_reserved":false,"is_disabled":false,"rental_uris":{"android":"levelo://app?vid=bf709b1a-1e81-4c69-a36a-dfef45d67fee","ios":"levelo://app?vid=bf709b1a-1e81-4c69-a36a-dfef45d67fee"},"vehicle_type_id":"4","last_reported":1719425426,"current_range_meters":18000,"station_id":"","pricing_plan_id":"cebpf4jnsgd1na2vs0mg"},{"bike_id":"9c212851-943a-4b41-a824-e19458f60cad","system_id":"levelo_inurba_marseille","lat":43.33762,"lon":5.37439,"is_reserved":false,"is_disabled":false,"rental_uris":{"android":"levelo://app?vid=9c212851-943a-4b41-a824-e19458f60cad","ios":"levelo://app?vid=9c212851-943a-4b41-a824-e19458f60cad"},"vehicle_type_id":"4","last_reported":1719425426,"current_range_meters":20000,"station_id":"","pricing_plan_id":"cebpf4jnsgd1na2vs0mg"},{"bike_id":"fe03bd49-4204-4ac1-ac4b-dea5c1524540","system_id":"levelo_inurba_marseille","lat":43.30641,"lon":5.40096,"is_reserved":false,"is_disabled":false,"rental_uris":{"android":"levelo://app?vid=fe03bd49-4204-4ac1-ac4b-dea5c1524540","ios":"levelo://app?vid=fe03bd49-4204-4ac1-ac4b-dea5c1524540"},"vehicle_type_id":"4","last_reported":1719425426,"current_range_meters":4800,"station_id":"ce4bh112rcd13ifvqda0","pricing_plan_id":"cebpf4jnsgd1na2vs0mg"},{"bike_id":"fc35b070-6760-4675-86c4-ba6b3a187fc2","system_id":"levelo_inurba_marseille","lat":43.306412,"lon":5.401035,"is_reserved":false,"is_disabled":false,"rental_uris":{"android":"levelo://app?vid=fc35b070-6760-4675-86c4-ba6b3a187fc2","ios":"levelo://app?vid=fc35b070-6760-4675-86c4-ba6b3a187fc2"},"vehicle_type_id":"4","last_reported":1719425426,"current_range_meters":4400,"station_id":"ce4bh112rcd13ifvqda0","pricing_plan_id":"cebpf4jnsgd1na2vs0mg"},{"bike_id":"be913276-abec-4279-bfc4-216edfadc2bb","system_id":"levelo_inurba_marseille","lat":43.301117,"lon":5.398795,"is_reserved":false,"is_disabled":false,"rental_uris":{"android":"levelo://app?vid=be913276-abec-4279-bfc4-216edfadc2bb","ios":"levelo://app?vid=be913276-abec-4279-bfc4-216edfadc2bb"},"vehicle_type_id":"4","last_reported":1719425426,"current_range_meters":11200,"station_id":"ce4bh0h2rcd13ifvqd40","pricing_plan_id":"cebpf4jnsgd1na2vs0mg"},{"bike_id":"d9355a6c-3363-4b2b-a541-8b7971e0d8aa","system_id":"levelo_inurba_marseille","lat":43.301117,"lon":5.398795,"is_reserved":false,"is_disabled":false,"rental_uris":{"android":"levelo://app?vid=d9355a6c-3363-4b2b-a541-8b7971e0d8aa","ios":"levelo://app?vid=d9355a6c-3363-4b2b-a541-8b7971e0d8aa"},"vehicle_type_id":"4","last_reported":1719425426,"current_range_meters":0,"station_id":"ce4bh0h2rcd13ifvqd40","pricing_plan_id":"cebpf4jnsgd1na2vs0mg"},{"bike_id":"a3192f8a-f186-4646-b52f-d84e9cfc66b5","system_id":"levelo_inurba_marseille","lat":43.301117,"lon":5.398795,"is_reserved":false,"is_disabled":false,"rental_uris":{"android":"levelo://app?vid=a3192f8a-f186-4646-b52f-d84e9cfc66b5","ios":"levelo://app?vid=a3192f8a-f186-4646-b52f-d84e9cfc66b5"},"vehicle_type_id":"4","last_reported":1719425426,"current_range_meters":1200,"station_id":"ce4bh0h2rcd13ifvqd40","pricing_plan_id":"cebpf4jnsgd1na2vs0mg"},{"bike_id":"b064b950-507f-4811-bdd0-0bd648125175","system_id":"levelo_inurba_marseille","lat":43.301117,"lon":5.398795,"is_reserved":false,"is_disabled":false,"rental_uris":{"android":"levelo://app?vid=b064b950-507f-4811-bdd0-0bd648125175","ios":"levelo://app?vid=b064b950-507f-4811-bdd0-0bd648125175"},"vehicle_type_id":"4","last_reported":1719425426,"current_range_meters":1600,"station_id":"ce4bh0h2rcd13ifvqd40","pricing_plan_id":"cebpf4jnsgd1na2vs0mg"},{"bike_id":"45f36cf2-88ff-47b5-acf5-4bdbea53523f","system_id":"levelo_inurba_marseille","lat":43.301117,"lon":5.398795,"is_reserved":false,"is_disabled":false,"rental_uris":{"android":"levelo://app?vid=45f36cf2-88ff-47b5-acf5-4bdbea53523f","ios":"levelo://app?vid=45f36cf2-88ff-47b5-acf5-4bdbea53523f"},"vehicle_type_id":"4","last_reported":1719425426,"current_range_meters":11600,"station_id":"ce4bh0h2rcd13ifvqd40","pricing_plan_id":"cebpf4jnsgd1na2vs0mg"},{"bike_id":"54e62f12-3ffa-44f1-a0cb-12a7b014ce22","system_id":"levelo_inurba_marseille","lat":43.28727,"lon":5.36078,"is_reserved":false,"is_disabled":false,"rental_uris":{"android":"levelo://app?vid=54e62f12-3ffa-44f1-a0cb-12a7b014ce22","ios":"levelo://app?vid=54e62f12-3ffa-44f1-a0cb-12a7b014ce22"},"vehicle_type_id":"4","last_reported":1719425426,"current_range_meters":13200,"station_id":"cki0cbj6b192h4jlfktg","pricing_plan_id":"cebpf4jnsgd1na2vs0mg"},{"bike_id":"9754640f-908b-44b6-afd2-00f8ce03d109","system_id":"levelo_inurba_marseille","lat":43.298681,"lon":5.397225,"is_reserved":false,"is_disabled":false,"rental_uris":{"android":"levelo://app?vid=9754640f-908b-44b6-afd2-00f8ce03d109","ios":"levelo://app?vid=9754640f-908b-44b6-afd2-00f8ce03d109"},"vehicle_type_id":"4","last_reported":1719425426,"current_range_meters":19200,"station_id":"ce4bh0h2rcd13ifvqd50","pricing_plan_id":"cebpf4jnsgd1na2vs0mg"},{"bike_id":"0a769e55-84bb-4cd8-b400-354e3b53c3bf","system_id":"levelo_inurba_marseille","lat":43.286591,"lon":5.363346,"is_reserved":false,"is_disabled":false,"rental_uris":{"android":"levelo://app?vid=0a769e55-84bb-4cd8-b400-354e3b53c3bf","ios":"levelo://app?vid=0a769e55-84bb-4cd8-b400-354e3b53c3bf"},"vehicle_type_id":"4","last_reported":1719425426,"current_range_meters":14000,"station_id":"ce4bhah2rcd13ifvqej0","pricing_plan_id":"cebpf4jnsgd1na2vs0mg"},{"bike_id":"8d59a2ae-1ab5-4a77-9f3a-137b9f8596a8","system_id":"levelo_inurba_marseille","lat":43.286039,"lon":5.370681,"is_reserved":false,"is_disabled":false,"rental_uris":{"android":"levelo://app?vid=8d59a2ae-1ab5-4a77-9f3a-137b9f8596a8","ios":"levelo://app?vid=8d59a2ae-1ab5-4a77-9f3a-137b9f8596a8"},"vehicle_type_id":"4","last_reported":1719425426,"current_range_meters":24000,"station_id":"ce4bht12rcd13ifvqi60","pricing_plan_id":"cebpf4jnsgd1na2vs0mg"},{"bike_id":"a30128ab-ef1d-4c9d-a593-26af5a99184b","system_id":"levelo_inurba_marseille","lat":43.29514,"lon":5.39402,"is_reserved":false,"is_disabled":false,"rental_uris":{"android":"levelo://app?vid=a30128ab-ef1d-4c9d-a593-26af5a99184b","ios":"levelo://app?vid=a30128ab-ef1d-4c9d-a593-26af5a99184b"},"vehicle_type_id":"4","last_reported":1719425426,"current_range_meters":0,"station_id":"ce4bh292rcd13ifvqdf0","pricing_plan_id":"cebpf4jnsgd1na2vs0mg"},{"bike_id":"97e983a7-ac82-4e06-bd79-3270bc56382f","system_id":"levelo_inurba_marseille","lat":43.295194,"lon":5.39397,"is_reserved":false,"is_disabled":false,"rental_uris":{"android":"levelo://app?vid=97e983a7-ac82-4e06-bd79-3270bc56382f","ios":"levelo://app?vid=97e983a7-ac82-4e06-bd79-3270bc56382f"},"vehicle_type_id":"4","last_reported":1719425426,"current_range_meters":0,"station_id":"ce4bh292rcd13ifvqdf0","pricing_plan_id":"cebpf4jnsgd1na2vs0mg"},{"bike_id":"c7acf9c4-4d21-46c7-bba2-294a54e8ed4e","system_id":"levelo_inurba_marseille","lat":43.286961,"lon":5.373785,"is_reserved":false,"is_disabled":false,"rental_uris":{"android":"levelo://app?vid=c7acf9c4-4d21-46c7-bba2-294a54e8ed4e","ios":"levelo://app?vid=c7acf9c4-4d21-46c7-bba2-294a54e8ed4e"},"vehicle_type_id":"4","last_reported":1719425426,"current_range_meters":0,"station_id":"ce4bh3p2rcd13ifvqdq0","pricing_plan_id":"cebpf4jnsgd1na2vs0mg"},{"bike_id":"6bfb6aa4-71e9-46de-a1b5-d3817dd50334","system_id":"levelo_inurba_marseille","lat":43.289307,"lon":5.38406,"is_reserved":false,"is_disabled":false,"rental_uris":{"android":"levelo://app?vid=6bfb6aa4-71e9-46de-a1b5-d3817dd50334","ios":"levelo://app?vid=6bfb6aa4-71e9-46de-a1b5-d3817dd50334"},"vehicle_type_id":"4","last_reported":1719425426,"current_range_meters":0,"station_id":"ce4bh612rcd13ifvqe6g","pricing_plan_id":"cebpf4jnsgd1na2vs0mg"},{"bike_id":"8b37a37c-a786-479a-a406-a4125dd9267f","system_id":"levelo_inurba_marseille","lat":43.290345,"lon":5.38646,"is_reserved":false,"is_disabled":false,"rental_uris":{"android":"levelo://app?vid=8b37a37c-a786-479a-a406-a4125dd9267f","ios":"levelo://app?vid=8b37a37c-a786-479a-a406-a4125dd9267f"},"vehicle_type_id":"4","last_reported":1719425426,"current_range_meters":21600,"station_id":"ce4bh4p2rcd13ifvqe0g","pricing_plan_id":"cebpf4jnsgd1na2vs0mg"},{"bike_id":"32f8d896-4a9a-4c26-87ab-2721a4a20980","system_id":"levelo_inurba_marseille","lat":43.290345,"lon":5.38646,"is_reserved":false,"is_disabled":false,"rental_uris":{"android":"levelo://app?vid=32f8d896-4a9a-4c26-87ab-2721a4a20980","ios":"levelo://app?vid=32f8d896-4a9a-4c26-87ab-2721a4a20980"},"vehicle_type_id":"4","last_reported":1719425426,"current_range_meters":6000,"station_id":"ce4bh4p2rcd13ifvqe0g","pricing_plan_id":"cebpf4jnsgd1na2vs0mg"},{"bike_id":"0de61fb0-19fa-45f6-b67c-f6a0134ea852","system_id":"levelo_inurba_marseille","lat":43.29567,"lon":5.39591,"is_reserved":false,"is_disabled":false,"rental_uris":{"android":"levelo://app?vid=0de61fb0-19fa-45f6-b67c-f6a0134ea852","ios":"levelo://app?vid=0de61fb0-19fa-45f6-b67c-f6a0134ea852"},"vehicle_type_id":"4","last_reported":1719425426,"current_range_meters":0,"station_id":"","pricing_plan_id":"cebpf4jnsgd1na2vs0mg"},{"bike_id":"aa78e2e2-3232-4b63-a510-0252c9e5ec8f","system_id":"levelo_inurba_marseille","lat":43.316828,"lon":5.404723,"is_reserved":false,"is_disabled":false,"rental_uris":{"android":"levelo://app?vid=aa78e2e2-3232-4b63-a510-0252c9e5ec8f","ios":"levelo://app?vid=aa78e2e2-3232-4b63-a510-0252c9e5ec8f"},"vehicle_type_id":"4","last_reported":1719425426,"current_range_meters":0,"station_id":"ce4bh012rcd13ifvqd00","pricing_plan_id":"cebpf4jnsgd1na2vs0mg"},{"bike_id":"988f98b5-5b1f-402b-a3aa-15798fc4da84","system_id":"levelo_inurba_marseille","lat":43.316821,"lon":5.404737,"is_reserved":false,"is_disabled":false,"rental_uris":{"android":"levelo://app?vid=988f98b5-5b1f-402b-a3aa-15798fc4da84","ios":"levelo://app?vid=988f98b5-5b1f-402b-a3aa-15798fc4da84"},"vehicle_type_id":"4","last_reported":1719425426,"current_range_meters":8400,"station_id":"ce4bh012rcd13ifvqd00","pricing_plan_id":"cebpf4jnsgd1na2vs0mg"},{"bike_id":"bb81408c-cb41-45c6-b914-0bc0833a8af6","system_id":"levelo_inurba_marseille","lat":43.316828,"lon":5.404723,"is_reserved":false,"is_disabled":false,"rental_uris":{"android":"levelo://app?vid=bb81408c-cb41-45c6-b914-0bc0833a8af6","ios":"levelo://app?vid=bb81408c-cb41-45c6-b914-0bc0833a8af6"},"vehicle_type_id":"4","last_reported":1719425426,"current_range_meters":0,"station_id":"ce4bh012rcd13ifvqd00","pricing_plan_id":"cebpf4jnsgd1na2vs0mg"},{"bike_id":"2b5c5455-c450-4115-b67f-2914fd30ede3","system_id":"levelo_inurba_marseille","lat":43.316828,"lon":5.404723,"is_reserved":false,"is_disabled":false,"rental_uris":{"android":"levelo://app?vid=2b5c5455-c450-4115-b67f-2914fd30ede3","ios":"levelo://app?vid=2b5c5455-c450-4115-b67f-2914fd30ede3"},"vehicle_type_id":"4","last_reported":1719425426,"current_range_meters":18800,"station_id":"ce4bh012rcd13ifvqd00","pricing_plan_id":"cebpf4jnsgd1na2vs0mg"},{"bike_id":"23f32a42-f6d6-406b-980a-ce9401585bd9","system_id":"levelo_inurba_marseille","lat":43.316821,"lon":5.404737,"is_reserved":false,"is_disabled":false,"rental_uris":{"android":"levelo://app?vid=23f32a42-f6d6-406b-980a-ce9401585bd9","ios":"levelo://app?vid=23f32a42-f6d6-406b-980a-ce9401585bd9"},"vehicle_type_id":"4","last_reported":1719425426,"current_range_meters":16000,"station_id":"ce4bh012rcd13ifvqd00","pricing_plan_id":"cebpf4jnsgd1na2vs0mg"},{"bike_id":"977646e4-b8d1-46e9-8877-23106f71bc05","system_id":"levelo_inurba_marseille","lat":43.291994,"lon":5.392907,"is_reserved":false,"is_disabled":false,"rental_uris":{"android":"levelo://app?vid=977646e4-b8d1-46e9-8877-23106f71bc05","ios":"levelo://app?vid=977646e4-b8d1-46e9-8877-23106f71bc05"},"vehicle_type_id":"4","last_reported":1719425426,"current_range_meters":5200,"station_id":"ce4bh192rcd13ifvqdd0","pricing_plan_id":"cebpf4jnsgd1na2vs0mg"},{"bike_id":"ae16db1e-9429-4159-acae-265133c76787","system_id":"levelo_inurba_marseille","lat":43.291994,"lon":5.392907,"is_reserved":false,"is_disabled":false,"rental_uris":{"android":"levelo://app?vid=ae16db1e-9429-4159-acae-265133c76787","ios":"levelo://app?vid=ae16db1e-9429-4159-acae-265133c76787"},"vehicle_type_id":"4","last_reported":1719425426,"current_range_meters":26800,"station_id":"ce4bh192rcd13ifvqdd0","pricing_plan_id":"cebpf4jnsgd1na2vs0mg"},{"bike_id":"dd7e344e-1860-4467-8635-77133bf35488","system_id":"levelo_inurba_marseille","lat":43.284423,"lon":5.371653,"is_reserved":false,"is_disabled":false,"rental_uris":{"android":"levelo://app?vid=dd7e344e-1860-4467-8635-77133bf35488","ios":"levelo://app?vid=dd7e344e-1860-4467-8635-77133bf35488"},"vehicle_type_id":"4","last_reported":1719425426,"current_range_meters":22000,"station_id":"","pricing_plan_id":"cebpf4jnsgd1na2vs0mg"},{"bike_id":"887d02c1-a5d2-4010-85a7-5204387896b7","system_id":"levelo_inurba_marseille","lat":43.284534,"lon":5.358662,"is_reserved":false,"is_disabled":false,"rental_uris":{"android":"levelo://app?vid=887d02c1-a5d2-4010-85a7-5204387896b7","ios":"levelo://app?vid=887d02c1-a5d2-4010-85a7-5204387896b7"},"vehicle_type_id":"4","last_reported":1719425426,"current_range_meters":31600,"station_id":"ce4bhah2rcd13ifvqei0","pricing_plan_id":"cebpf4jnsgd1na2vs0mg"},{"bike_id":"43da4e51-d198-4a29-ba87-9f1ac3f57db1","system_id":"levelo_inurba_marseille","lat":43.284534,"lon":5.358662,"is_reserved":false,"is_disabled":false,"rental_uris":{"android":"levelo://app?vid=43da4e51-d198-4a29-ba87-9f1ac3f57db1","ios":"levelo://app?vid=43da4e51-d198-4a29-ba87-9f1ac3f57db1"},"vehicle_type_id":"4","last_reported":1719425426,"current_range_meters":20400,"station_id":"ce4bhah2rcd13ifvqei0","pricing_plan_id":"cebpf4jnsgd1na2vs0mg"},{"bike_id":"353000c7-fcaa-4959-b1e2-7dd6f5fb2ba2","system_id":"levelo_inurba_marseille","lat":43.294314,"lon":5.397498,"is_reserved":false,"is_disabled":false,"rental_uris":{"android":"levelo://app?vid=353000c7-fcaa-4959-b1e2-7dd6f5fb2ba2","ios":"levelo://app?vid=353000c7-fcaa-4959-b1e2-7dd6f5fb2ba2"},"vehicle_type_id":"4","last_reported":1719425426,"current_range_meters":30800,"station_id":"ce4bh3h2rcd13ifvqdo0","pricing_plan_id":"cebpf4jnsgd1na2vs0mg"},{"bike_id":"6a8f6979-994d-424d-a1b9-60ec06eaaee0","system_id":"levelo_inurba_marseille","lat":43.2862,"lon":5.351065,"is_reserved":false,"is_disabled":false,"rental_uris":{"android":"levelo://app?vid=6a8f6979-994d-424d-a1b9-60ec06eaaee0","ios":"levelo://app?vid=6a8f6979-994d-424d-a1b9-60ec06eaaee0"},"vehicle_type_id":"4","last_reported":1719425426,"current_range_meters":0,"station_id":"ce4bhch2rcd13ifvqeug","pricing_plan_id":"cebpf4jnsgd1na2vs0mg"},{"bike_id":"0dba33f5-6567-4613-8b5d-5c80cdd50b46","system_id":"levelo_inurba_marseille","lat":43.28615,"lon":5.35103,"is_reserved":false,"is_disabled":false,"rental_uris":{"android":"levelo://app?vid=0dba33f5-6567-4613-8b5d-5c80cdd50b46","ios":"levelo://app?vid=0dba33f5-6567-4613-8b5d-5c80cdd50b46"},"vehicle_type_id":"4","last_reported":1719425426,"current_range_meters":0,"station_id":"ce4bhch2rcd13ifvqeug","pricing_plan_id":"cebpf4jnsgd1na2vs0mg"},{"bike_id":"f274e126-4c55-44de-bae0-6f2bed10d294","system_id":"levelo_inurba_marseille","lat":43.28613,"lon":5.351,"is_reserved":false,"is_disabled":false,"rental_uris":{"android":"levelo://app?vid=f274e126-4c55-44de-bae0-6f2bed10d294","ios":"levelo://app?vid=f274e126-4c55-44de-bae0-6f2bed10d294"},"vehicle_type_id":"4","last_reported":1719425426,"current_range_meters":0,"station_id":"ce4bhch2rcd13ifvqeug","pricing_plan_id":"cebpf4jnsgd1na2vs0mg"},{"bike_id":"996ccf41-bc05-4609-947f-dd8b4cb6c0c7","system_id":"levelo_inurba_marseille","lat":43.28613,"lon":5.351,"is_reserved":false,"is_disabled":false,"rental_uris":{"android":"levelo://app?vid=996ccf41-bc05-4609-947f-dd8b4cb6c0c7","ios":"levelo://app?vid=996ccf41-bc05-4609-947f-dd8b4cb6c0c7"},"vehicle_type_id":"4","last_reported":1719425426,"current_range_meters":12400,"station_id":"ce4bhch2rcd13ifvqeug","pricing_plan_id":"cebpf4jnsgd1na2vs0mg"},{"bike_id":"11080612-d8fe-4687-bbfe-99d15bf9a15e","system_id":"levelo_inurba_marseille","lat":43.28611,"lon":5.35103,"is_reserved":false,"is_disabled":false,"rental_uris":{"android":"levelo://app?vid=11080612-d8fe-4687-bbfe-99d15bf9a15e","ios":"levelo://app?vid=11080612-d8fe-4687-bbfe-99d15bf9a15e"},"vehicle_type_id":"4","last_reported":1719425426,"current_range_meters":13600,"station_id":"ce4bhch2rcd13ifvqeug","pricing_plan_id":"cebpf4jnsgd1na2vs0mg"},{"bike_id":"b9109328-64c1-4e77-b53e-9df33d26adfa","system_id":"levelo_inurba_marseille","lat":43.283998,"lon":5.375062,"is_reserved":false,"is_disabled":false,"rental_uris":{"android":"levelo://app?vid=b9109328-64c1-4e77-b53e-9df33d26adfa","ios":"levelo://app?vid=b9109328-64c1-4e77-b53e-9df33d26adfa"},"vehicle_type_id":"4","last_reported":1719425426,"current_range_meters":0,"station_id":"ce4bh412rcd13ifvqds0","pricing_plan_id":"cebpf4jnsgd1na2vs0mg"},{"bike_id":"63dd9d1b-85b4-4e95-b17a-04b0913fef23","system_id":"levelo_inurba_marseille","lat":43.283998,"lon":5.375062,"is_reserved":false,"is_disabled":false,"rental_uris":{"android":"levelo://app?vid=63dd9d1b-85b4-4e95-b17a-04b0913fef23","ios":"levelo://app?vid=63dd9d1b-85b4-4e95-b17a-04b0913fef23"},"vehicle_type_id":"4","last_reported":1719425426,"current_range_meters":26400,"station_id":"ce4bh412rcd13ifvqds0","pricing_plan_id":"cebpf4jnsgd1na2vs0mg"},{"bike_id":"3184c4cc-3b75-4480-bbb8-eea79cc43f90","system_id":"levelo_inurba_marseille","lat":43.28406,"lon":5.37515,"is_reserved":false,"is_disabled":false,"rental_uris":{"android":"levelo://app?vid=3184c4cc-3b75-4480-bbb8-eea79cc43f90","ios":"levelo://app?vid=3184c4cc-3b75-4480-bbb8-eea79cc43f90"},"vehicle_type_id":"4","last_reported":1719425426,"current_range_meters":0,"station_id":"ce4bh412rcd13ifvqds0","pricing_plan_id":"cebpf4jnsgd1na2vs0mg"},{"bike_id":"c8b439a9-9565-479a-a541-c4755417e270","system_id":"levelo_inurba_marseille","lat":43.295713,"lon":5.399639,"is_reserved":false,"is_disabled":false,"rental_uris":{"android":"levelo://app?vid=c8b439a9-9565-479a-a541-c4755417e270","ios":"levelo://app?vid=c8b439a9-9565-479a-a541-c4755417e270"},"vehicle_type_id":"4","last_reported":1719425426,"current_range_meters":10000,"station_id":"ce4bh312rcd13ifvqdj0","pricing_plan_id":"cebpf4jnsgd1na2vs0mg"},{"bike_id":"6c84ccbc-6047-49aa-898d-1cf795ab5f47","system_id":"levelo_inurba_marseille","lat":43.283998,"lon":5.375062,"is_reserved":false,"is_disabled":false,"rental_uris":{"android":"levelo://app?vid=6c84ccbc-6047-49aa-898d-1cf795ab5f47","ios":"levelo://app?vid=6c84ccbc-6047-49aa-898d-1cf795ab5f47"},"vehicle_type_id":"4","last_reported":1719425426,"current_range_meters":0,"station_id":"ce4bh412rcd13ifvqds0","pricing_plan_id":"cebpf4jnsgd1na2vs0mg"},{"bike_id":"c9d2c53e-dc8b-44ff-af58-d850c70bca84","system_id":"levelo_inurba_marseille","lat":43.284793,"lon":5.384119,"is_reserved":false,"is_disabled":false,"rental_uris":{"android":"levelo://app?vid=c9d2c53e-dc8b-44ff-af58-d850c70bca84","ios":"levelo://app?vid=c9d2c53e-dc8b-44ff-af58-d850c70bca84"},"vehicle_type_id":"4","last_reported":1719425426,"current_range_meters":800,"station_id":"ce4bh512rcd13ifvqe3g","pricing_plan_id":"cebpf4jnsgd1na2vs0mg"},{"bike_id":"782b0a0a-e1e6-4a2a-b6d1-0c63ef93e9de","system_id":"levelo_inurba_marseille","lat":43.31892,"lon":5.40738,"is_reserved":false,"is_disabled":false,"rental_uris":{"android":"levelo://app?vid=782b0a0a-e1e6-4a2a-b6d1-0c63ef93e9de","ios":"levelo://app?vid=782b0a0a-e1e6-4a2a-b6d1-0c63ef93e9de"},"vehicle_type_id":"4","last_reported":1719425426,"current_range_meters":0,"station_id":"ce4bhq12rcd13ifvqhig","pricing_plan_id":"cebpf4jnsgd1na2vs0mg"},{"bike_id":"c0ba75b7-4f11-420e-8a77-7913de8d55b8","system_id":"levelo_inurba_marseille","lat":43.319179,"lon":5.407725,"is_reserved":false,"is_disabled":false,"rental_uris":{"android":"levelo://app?vid=c0ba75b7-4f11-420e-8a77-7913de8d55b8","ios":"levelo://app?vid=c0ba75b7-4f11-420e-8a77-7913de8d55b8"},"vehicle_type_id":"4","last_reported":1719425426,"current_range_meters":10400,"station_id":"ce4bhq12rcd13ifvqhig","pricing_plan_id":"cebpf4jnsgd1na2vs0mg"},{"bike_id":"df6ce507-2dfd-4cb5-b65d-c2cf17aaa45e","system_id":"levelo_inurba_marseille","lat":43.323464,"lon":5.406297,"is_reserved":false,"is_disabled":false,"rental_uris":{"android":"levelo://app?vid=df6ce507-2dfd-4cb5-b65d-c2cf17aaa45e","ios":"levelo://app?vid=df6ce507-2dfd-4cb5-b65d-c2cf17aaa45e"},"vehicle_type_id":"4","last_reported":1719425426,"current_range_meters":22000,"station_id":"ce4bhq92rcd13ifvqhjg","pricing_plan_id":"cebpf4jnsgd1na2vs0mg"},{"bike_id":"76b5e5cd-fc10-46c2-8a68-0260a60d0c84","system_id":"levelo_inurba_marseille","lat":43.284793,"lon":5.384119,"is_reserved":false,"is_disabled":false,"rental_uris":{"android":"levelo://app?vid=76b5e5cd-fc10-46c2-8a68-0260a60d0c84","ios":"levelo://app?vid=76b5e5cd-fc10-46c2-8a68-0260a60d0c84"},"vehicle_type_id":"4","last_reported":1719425426,"current_range_meters":21200,"station_id":"ce4bh512rcd13ifvqe3g","pricing_plan_id":"cebpf4jnsgd1na2vs0mg"},{"bike_id":"b2e758d2-f368-4627-aa7c-cdb590fcca5a","system_id":"levelo_inurba_marseille","lat":43.28249,"lon":5.37256,"is_reserved":false,"is_disabled":false,"rental_uris":{"android":"levelo://app?vid=b2e758d2-f368-4627-aa7c-cdb590fcca5a","ios":"levelo://app?vid=b2e758d2-f368-4627-aa7c-cdb590fcca5a"},"vehicle_type_id":"4","last_reported":1719425426,"current_range_meters":17600,"station_id":"","pricing_plan_id":"cebpf4jnsgd1na2vs0mg"},{"bike_id":"311c3a7d-ed26-4e20-b696-f702ef51dba3","system_id":"levelo_inurba_marseille","lat":43.323464,"lon":5.406297,"is_reserved":false,"is_disabled":false,"rental_uris":{"android":"levelo://app?vid=311c3a7d-ed26-4e20-b696-f702ef51dba3","ios":"levelo://app?vid=311c3a7d-ed26-4e20-b696-f702ef51dba3"},"vehicle_type_id":"4","last_reported":1719425426,"current_range_meters":6000,"station_id":"ce4bhq92rcd13ifvqhjg","pricing_plan_id":"cebpf4jnsgd1na2vs0mg"},{"bike_id":"01234115-4ef9-4020-bbe4-eb39fbd93d56","system_id":"levelo_inurba_marseille","lat":43.32348,"lon":5.406288,"is_reserved":false,"is_disabled":false,"rental_uris":{"android":"levelo://app?vid=01234115-4ef9-4020-bbe4-eb39fbd93d56","ios":"levelo://app?vid=01234115-4ef9-4020-bbe4-eb39fbd93d56"},"vehicle_type_id":"4","last_reported":1719425426,"current_range_meters":12400,"station_id":"ce4bhq92rcd13ifvqhjg","pricing_plan_id":"cebpf4jnsgd1na2vs0mg"},{"bike_id":"7e8f9fc1-69e7-4bc1-9311-e6b11f732146","system_id":"levelo_inurba_marseille","lat":43.288497,"lon":5.393089,"is_reserved":false,"is_disabled":false,"rental_uris":{"android":"levelo://app?vid=7e8f9fc1-69e7-4bc1-9311-e6b11f732146","ios":"levelo://app?vid=7e8f9fc1-69e7-4bc1-9311-e6b11f732146"},"vehicle_type_id":"4","last_reported":1719425426,"current_range_meters":8400,"station_id":"ce4bh2p2rcd13ifvqdi0","pricing_plan_id":"cebpf4jnsgd1na2vs0mg"},{"bike_id":"846c4e6f-b392-4b6d-b813-316b97ad1961","system_id":"levelo_inurba_marseille","lat":43.288501,"lon":5.393087,"is_reserved":false,"is_disabled":false,"rental_uris":{"android":"levelo://app?vid=846c4e6f-b392-4b6d-b813-316b97ad1961","ios":"levelo://app?vid=846c4e6f-b392-4b6d-b813-316b97ad1961"},"vehicle_type_id":"4","last_reported":1719425426,"current_range_meters":19200,"station_id":"ce4bh2p2rcd13ifvqdi0","pricing_plan_id":"cebpf4jnsgd1na2vs0mg"},{"bike_id":"85eb8e79-27bc-4b93-95d2-0c9a09c55d8c","system_id":"levelo_inurba_marseille","lat":43.28757,"lon":5.39147,"is_reserved":false,"is_disabled":false,"rental_uris":{"android":"levelo://app?vid=85eb8e79-27bc-4b93-95d2-0c9a09c55d8c","ios":"levelo://app?vid=85eb8e79-27bc-4b93-95d2-0c9a09c55d8c"},"vehicle_type_id":"4","last_reported":1719425426,"current_range_meters":15600,"station_id":"","pricing_plan_id":"cebpf4jnsgd1na2vs0mg"},{"bike_id":"2e2ef8dd-c4b4-43ac-ba02-3a50e3ce4e4b","system_id":"levelo_inurba_marseille","lat":43.288501,"lon":5.393087,"is_reserved":false,"is_disabled":false,"rental_uris":{"android":"levelo://app?vid=2e2ef8dd-c4b4-43ac-ba02-3a50e3ce4e4b","ios":"levelo://app?vid=2e2ef8dd-c4b4-43ac-ba02-3a50e3ce4e4b"},"vehicle_type_id":"4","last_reported":1719425426,"current_range_meters":12000,"station_id":"ce4bh2p2rcd13ifvqdi0","pricing_plan_id":"cebpf4jnsgd1na2vs0mg"},{"bike_id":"f4cc9ee5-5015-4e37-b301-9203b24d4e08","system_id":"levelo_inurba_marseille","lat":43.284776,"lon":5.385603,"is_reserved":false,"is_disabled":false,"rental_uris":{"android":"levelo://app?vid=f4cc9ee5-5015-4e37-b301-9203b24d4e08","ios":"levelo://app?vid=f4cc9ee5-5015-4e37-b301-9203b24d4e08"},"vehicle_type_id":"4","last_reported":1719425426,"current_range_meters":24400,"station_id":"ce4bh8p2rcd13ifvqeb0","pricing_plan_id":"cebpf4jnsgd1na2vs0mg"},{"bike_id":"4271581f-7c75-40ac-b481-9f511daeba19","system_id":"levelo_inurba_marseille","lat":43.283498,"lon":5.380948,"is_reserved":false,"is_disabled":false,"rental_uris":{"android":"levelo://app?vid=4271581f-7c75-40ac-b481-9f511daeba19","ios":"levelo://app?vid=4271581f-7c75-40ac-b481-9f511daeba19"},"vehicle_type_id":"4","last_reported":1719425426,"current_range_meters":9200,"station_id":"ce4bh412rcd13ifvqdr0","pricing_plan_id":"cebpf4jnsgd1na2vs0mg"},{"bike_id":"502b8aa0-4c80-4b43-b062-5e722079b83e","system_id":"levelo_inurba_marseille","lat":43.28431,"lon":5.34989,"is_reserved":false,"is_disabled":false,"rental_uris":{"android":"levelo://app?vid=502b8aa0-4c80-4b43-b062-5e722079b83e","ios":"levelo://app?vid=502b8aa0-4c80-4b43-b062-5e722079b83e"},"vehicle_type_id":"4","last_reported":1719425426,"current_range_meters":0,"station_id":"ce4bhbh2rcd13ifvqepg","pricing_plan_id":"cebpf4jnsgd1na2vs0mg"},{"bike_id":"1c365f73-202b-43d8-b64a-7614d6458de3","system_id":"levelo_inurba_marseille","lat":43.28346,"lon":5.38107,"is_reserved":false,"is_disabled":false,"rental_uris":{"android":"levelo://app?vid=1c365f73-202b-43d8-b64a-7614d6458de3","ios":"levelo://app?vid=1c365f73-202b-43d8-b64a-7614d6458de3"},"vehicle_type_id":"4","last_reported":1719425426,"current_range_meters":21600,"station_id":"ce4bh412rcd13ifvqdr0","pricing_plan_id":"cebpf4jnsgd1na2vs0mg"},{"bike_id":"3ee8da6e-de85-474c-a659-01faa7a4948d","system_id":"levelo_inurba_marseille","lat":43.28379,"lon":5.34997,"is_reserved":false,"is_disabled":false,"rental_uris":{"android":"levelo://app?vid=3ee8da6e-de85-474c-a659-01faa7a4948d","ios":"levelo://app?vid=3ee8da6e-de85-474c-a659-01faa7a4948d"},"vehicle_type_id":"4","last_reported":1719425426,"current_range_meters":29200,"station_id":"","pricing_plan_id":"cebpf4jnsgd1na2vs0mg"},{"bike_id":"f20481be-a45e-4a72-b4fb-9a285b937811","system_id":"levelo_inurba_marseille","lat":43.292215,"lon":5.399906,"is_reserved":false,"is_disabled":false,"rental_uris":{"android":"levelo://app?vid=f20481be-a45e-4a72-b4fb-9a285b937811","ios":"levelo://app?vid=f20481be-a45e-4a72-b4fb-9a285b937811"},"vehicle_type_id":"4","last_reported":1719425426,"current_range_meters":6800,"station_id":"","pricing_plan_id":"cebpf4jnsgd1na2vs0mg"},{"bike_id":"cf2af19b-425d-4e7c-9a94-1734c9f78f8e","system_id":"levelo_inurba_marseille","lat":43.282744,"lon":5.350533,"is_reserved":false,"is_disabled":false,"rental_uris":{"android":"levelo://app?vid=cf2af19b-425d-4e7c-9a94-1734c9f78f8e","ios":"levelo://app?vid=cf2af19b-425d-4e7c-9a94-1734c9f78f8e"},"vehicle_type_id":"4","last_reported":1719425426,"current_range_meters":0,"station_id":"ce4bhbp2rcd13ifvqerg","pricing_plan_id":"cebpf4jnsgd1na2vs0mg"},{"bike_id":"f1b6bdc3-9e8e-4f6f-8bee-0426323ae1b2","system_id":"levelo_inurba_marseille","lat":43.28277,"lon":5.35065,"is_reserved":false,"is_disabled":false,"rental_uris":{"android":"levelo://app?vid=f1b6bdc3-9e8e-4f6f-8bee-0426323ae1b2","ios":"levelo://app?vid=f1b6bdc3-9e8e-4f6f-8bee-0426323ae1b2"},"vehicle_type_id":"4","last_reported":1719425426,"current_range_meters":0,"station_id":"ce4bhbp2rcd13ifvqerg","pricing_plan_id":"cebpf4jnsgd1na2vs0mg"},{"bike_id":"ff899783-9e0e-459a-91d0-81729d3fcda5","system_id":"levelo_inurba_marseille","lat":43.282754,"lon":5.350519,"is_reserved":false,"is_disabled":false,"rental_uris":{"android":"levelo://app?vid=ff899783-9e0e-459a-91d0-81729d3fcda5","ios":"levelo://app?vid=ff899783-9e0e-459a-91d0-81729d3fcda5"},"vehicle_type_id":"4","last_reported":1719425426,"current_range_meters":0,"station_id":"ce4bhbp2rcd13ifvqerg","pricing_plan_id":"cebpf4jnsgd1na2vs0mg"},{"bike_id":"9b425637-a21d-4114-b070-82ccb518b865","system_id":"levelo_inurba_marseille","lat":43.282744,"lon":5.350533,"is_reserved":false,"is_disabled":false,"rental_uris":{"android":"levelo://app?vid=9b425637-a21d-4114-b070-82ccb518b865","ios":"levelo://app?vid=9b425637-a21d-4114-b070-82ccb518b865"},"vehicle_type_id":"4","last_reported":1719425426,"current_range_meters":15200,"station_id":"ce4bhbp2rcd13ifvqerg","pricing_plan_id":"cebpf4jnsgd1na2vs0mg"},{"bike_id":"ad371165-110d-4ced-bb02-10585f4171c7","system_id":"levelo_inurba_marseille","lat":43.283502,"lon":5.386471,"is_reserved":false,"is_disabled":false,"rental_uris":{"android":"levelo://app?vid=ad371165-110d-4ced-bb02-10585f4171c7","ios":"levelo://app?vid=ad371165-110d-4ced-bb02-10585f4171c7"},"vehicle_type_id":"4","last_reported":1719425426,"current_range_meters":24400,"station_id":"ce4bh492rcd13ifvqdvg","pricing_plan_id":"cebpf4jnsgd1na2vs0mg"},{"bike_id":"10957259-6af9-4d63-9467-bafc710813d7","system_id":"levelo_inurba_marseille","lat":43.283502,"lon":5.386471,"is_reserved":false,"is_disabled":false,"rental_uris":{"android":"levelo://app?vid=10957259-6af9-4d63-9467-bafc710813d7","ios":"levelo://app?vid=10957259-6af9-4d63-9467-bafc710813d7"},"vehicle_type_id":"4","last_reported":1719425426,"current_range_meters":21200,"station_id":"ce4bh492rcd13ifvqdvg","pricing_plan_id":"cebpf4jnsgd1na2vs0mg"},{"bike_id":"d3ce1470-f96b-44f3-8533-f0e35682fbde","system_id":"levelo_inurba_marseille","lat":43.283583,"lon":5.386341,"is_reserved":false,"is_disabled":false,"rental_uris":{"android":"levelo://app?vid=d3ce1470-f96b-44f3-8533-f0e35682fbde","ios":"levelo://app?vid=d3ce1470-f96b-44f3-8533-f0e35682fbde"},"vehicle_type_id":"4","last_reported":1719425426,"current_range_meters":30400,"station_id":"ce4bh492rcd13ifvqdvg","pricing_plan_id":"cebpf4jnsgd1na2vs0mg"},{"bike_id":"04fce16f-50b6-4a2c-9a91-45d7a5acf8c8","system_id":"levelo_inurba_marseille","lat":43.28354,"lon":5.38636,"is_reserved":false,"is_disabled":false,"rental_uris":{"android":"levelo://app?vid=04fce16f-50b6-4a2c-9a91-45d7a5acf8c8","ios":"levelo://app?vid=04fce16f-50b6-4a2c-9a91-45d7a5acf8c8"},"vehicle_type_id":"4","last_reported":1719425426,"current_range_meters":27600,"station_id":"ce4bh492rcd13ifvqdvg","pricing_plan_id":"cebpf4jnsgd1na2vs0mg"},{"bike_id":"863400d3-d370-4737-9053-167fc9892fe6","system_id":"levelo_inurba_marseille","lat":43.28033,"lon":5.36943,"is_reserved":false,"is_disabled":false,"rental_uris":{"android":"levelo://app?vid=863400d3-d370-4737-9053-167fc9892fe6","ios":"levelo://app?vid=863400d3-d370-4737-9053-167fc9892fe6"},"vehicle_type_id":"4","last_reported":1719425426,"current_range_meters":8800,"station_id":"ce4bha12rcd13ifvqef0","pricing_plan_id":"cebpf4jnsgd1na2vs0mg"},{"bike_id":"388f73b6-d8c6-4e1f-8f0e-9d3101173d35","system_id":"levelo_inurba_marseille","lat":43.28039,"lon":5.369297,"is_reserved":false,"is_disabled":false,"rental_uris":{"android":"levelo://app?vid=388f73b6-d8c6-4e1f-8f0e-9d3101173d35","ios":"levelo://app?vid=388f73b6-d8c6-4e1f-8f0e-9d3101173d35"},"vehicle_type_id":"4","last_reported":1719425426,"current_range_meters":6800,"station_id":"ce4bha12rcd13ifvqef0","pricing_plan_id":"cebpf4jnsgd1na2vs0mg"},