{"last_updated":1700813366,"ttl":30,"version":"2.2","data":{"bikes":[{"bike_id":"f4d12bb3-dbf4-4762-8312-6a8151cd6f1f","system_id":"levelo_inurba_marseille","lat":43.31341,"lon":5.367098,"is_reserved":false,"is_disabled":false,"rental_uris":{"android":"levelo://app?vid=f4d12bb3-dbf4-4762-8312-6a8151cd6f1f","ios":"levelo://app?vid=f4d12bb3-dbf4-4762-8312-6a8151cd6f1f"},"vehicle_type_id":"4","last_reported":1700813366,"current_range_meters":30000,"station_id":"ce4bgr92rcd13ifvqc6g","pricing_plan_id":"free"},{"bike_id":"1dadd186-8494-41ba-b128-e376bbda2eab","system_id":"levelo_inurba_marseille","lat":43.31341,"lon":5.367098,"is_reserved":false,"is_disabled":false,"rental_uris":{"android":"levelo://app?vid=1dadd186-8494-41ba-b128-e376bbda2eab","ios":"levelo://app?vid=1dadd186-8494-41ba-b128-e376bbda2eab"},"vehicle_type_id":"4","last_reported":1700813366,"current_range_meters":24800,"station_id":"ce4bgr92rcd13ifvqc6g","pricing_plan_id":"free"},{"bike_id":"3976ee32-97c3-4afa-965a-ffd466bdd50d","system_id":"levelo_inurba_marseille","lat":43.31341,"lon":5.367098,"is_reserved":false,"is_disabled":false,"rental_uris":{"android":"levelo://app?vid=3976ee32-97c3-4afa-965a-ffd466bdd50d","ios":"levelo://app?vid=3976ee32-97c3-4afa-965a-ffd466bdd50d"},"vehicle_type_id":"4","last_reported":1700813366,"current_range_meters":16800,"station_id":"ce4bgr92rcd13ifvqc6g","pricing_plan_id":"free"},{"bike_id":"5a427959-cf38-4f14-88b0-9897f052df1a","system_id":"levelo_inurba_marseille","lat":43.312239,"lon":5.368562,"is_reserved":false,"is_disabled":false,"rental_uris":{"android":"levelo://app?vid=5a427959-cf38-4f14-88b0-9897f052df1a","ios":"levelo://app?vid=5a427959-cf38-4f14-88b0-9897f052df1a"},"vehicle_type_id":"4","last_reported":1700813366,"current_range_meters":8800,"station_id":"ce4bgl92rcd13ifvqbq0","pricing_plan_id":"free"},{"bike_id":"aff4c4bd-c502-4122-9fa9-5e0bd2b9e2bc","system_id":"levelo_inurba_marseille","lat":43.309076,"lon":5.368465,"is_reserved":false,"is_disabled":false,"rental_uris":{"android":"levelo://app?vid=aff4c4bd-c502-4122-9fa9-5e0bd2b9e2bc","ios":"levelo://app?vid=aff4c4bd-c502-4122-9fa9-5e0bd2b9e2bc"},"vehicle_type_id":"4","last_reported":1700813366,"current_range_meters":8000,"station_id":"ce4bgn92rcd13ifvqbvg","pricing_plan_id":"free"},{"bike_id":"11430954-102b-48d5-82d0-cd4738cf5660","system_id":"levelo_inurba_marseille","lat":43.309076,"lon":5.368465,"is_reserved":false,"is_disabled":false,"rental_uris":{"android":"levelo://app?vid=11430954-102b-48d5-82d0-cd4738cf5660","ios":"levelo://app?vid=11430954-102b-48d5-82d0-cd4738cf5660"},"vehicle_type_id":"4","last_reported":1700813366,"current_range_meters":22000,"station_id":"ce4bgn92rcd13ifvqbvg","pricing_plan_id":"free"},{"bike_id":"00810fed-52b8-45f4-8fa0-a3bbadff2793","system_id":"levelo_inurba_marseille","lat":43.309076,"lon":5.368465,"is_reserved":false,"is_disabled":false,"rental_uris":{"android":"levelo://app?vid=00810fed-52b8-45f4-8fa0-a3bbadff2793","ios":"levelo://app?vid=00810fed-52b8-45f4-8fa0-a3bbadff2793"},"vehicle_type_id":"4","last_reported":1700813366,"current_range_meters":9600,"station_id":"ce4bgn92rcd13ifvqbvg","pricing_plan_id":"free"},{"bike_id":"b446cbde-7096-4bbf-8b31-e65347b1284d","system_id":"levelo_inurba_marseille","lat":43.309039,"lon":5.371797,"is_reserved":false,"is_disabled":false,"rental_uris":{"android":"levelo://app?vid=b446cbde-7096-4bbf-8b31-e65347b1284d","ios":"levelo://app?vid=b446cbde-7096-4bbf-8b31-e65347b1284d"},"vehicle_type_id":"4","last_reported":1700813366,"current_range_meters":28000,"station_id":"ce4bguh2rcd13ifvqckg","pricing_plan_id":"free"},{"bike_id":"b87c10e0-e678-4edc-b76a-14a8cf744431","system_id":"levelo_inurba_marseille","lat":43.309039,"lon":5.371797,"is_reserved":false,"is_disabled":false,"rental_uris":{"android":"levelo://app?vid=b87c10e0-e678-4edc-b76a-14a8cf744431","ios":"levelo://app?vid=b87c10e0-e678-4edc-b76a-14a8cf744431"},"vehicle_type_id":"4","last_reported":1700813366,"current_range_meters":27600,"station_id":"ce4bguh2rcd13ifvqckg","pricing_plan_id":"free"},{"bike_id":"2d0c73a7-4b71-4d32-bcc4-260d4dbd4d73","system_id":"levelo_inurba_marseille","lat":43.309039,"lon":5.371797,"is_reserved":false,"is_disabled":false,"rental_uris":{"android":"levelo://app?vid=2d0c73a7-4b71-4d32-bcc4-260d4dbd4d73","ios":"levelo://app?vid=2d0c73a7-4b71-4d32-bcc4-260d4dbd4d73"},"vehicle_type_id":"4","last_reported":1700813366,"current_range_meters":9200,"station_id":"ce4bguh2rcd13ifvqckg","pricing_plan_id":"free"},{"bike_id":"51205c9b-3d27-46a9-8ca6-b4c68ad7cc5c","system_id":"levelo_inurba_marseille","lat":43.305714,"lon":5.365633,"is_reserved":false,"is_disabled":false,"rental_uris":{"android":"levelo://app?vid=51205c9b-3d27-46a9-8ca6-b4c68ad7cc5c","ios":"levelo://app?vid=51205c9b-3d27-46a9-8ca6-b4c68ad7cc5c"},"vehicle_type_id":"4","last_reported":1700813366,"current_range_meters":26400,"station_id":"ce4bgs12rcd13ifvqcag","pricing_plan_id":"free"},{"bike_id":"8bc23b3e-7620-4590-91f5-766628ef04bd","system_id":"levelo_inurba_marseille","lat":43.305368,"lon":5.367343,"is_reserved":false,"is_disabled":false,"rental_uris":{"android":"levelo://app?vid=8bc23b3e-7620-4590-91f5-766628ef04bd","ios":"levelo://app?vid=8bc23b3e-7620-4590-91f5-766628ef04bd"},"vehicle_type_id":"4","last_reported":1700813366,"current_range_meters":25600,"station_id":"ce4bgrp2rcd13ifvqc9g","pricing_plan_id":"free"},{"bike_id":"a864e621-fb78-488f-8f4f-1165f8d80b90","system_id":"levelo_inurba_marseille","lat":43.305714,"lon":5.365633,"is_reserved":false,"is_disabled":false,"rental_uris":{"android":"levelo://app?vid=a864e621-fb78-488f-8f4f-1165f8d80b90","ios":"levelo://app?vid=a864e621-fb78-488f-8f4f-1165f8d80b90"},"vehicle_type_id":"4","last_reported":1700813366,"current_range_meters":18400,"station_id":"ce4bgs12rcd13ifvqcag","pricing_plan_id":"free"},{"bike_id":"03aeff45-7844-4d47-acd1-8af45330d1a1","system_id":"levelo_inurba_marseille","lat":43.305714,"lon":5.365633,"is_reserved":false,"is_disabled":false,"rental_uris":{"android":"levelo://app?vid=03aeff45-7844-4d47-acd1-8af45330d1a1","ios":"levelo://app?vid=03aeff45-7844-4d47-acd1-8af45330d1a1"},"vehicle_type_id":"4","last_reported":1700813366,"current_range_meters":20000,"station_id":"ce4bgs12rcd13ifvqcag","pricing_plan_id":"free"},{"bike_id":"b6dd5827-2613-44d3-acca-f7f13454348b","system_id":"levelo_inurba_marseille","lat":43.305368,"lon":5.367343,"is_reserved":false,"is_disabled":false,"rental_uris":{"android":"levelo://app?vid=b6dd5827-2613-44d3-acca-f7f13454348b","ios":"levelo://app?vid=b6dd5827-2613-44d3-acca-f7f13454348b"},"vehicle_type_id":"4","last_reported":1700813366,"current_range_meters":28800,"station_id":"ce4bgrp2rcd13ifvqc9g","pricing_plan_id":"free"},{"bike_id":"80b45c8b-c4fc-40e1-ac23-7604546e37bc","system_id":"levelo_inurba_marseille","lat":43.305714,"lon":5.365633,"is_reserved":false,"is_disabled":false,"rental_uris":{"android":"levelo://app?vid=80b45c8b-c4fc-40e1-ac23-7604546e37bc","ios":"levelo://app?vid=80b45c8b-c4fc-40e1-ac23-7604546e37bc"},"vehicle_type_id":"4","last_reported":1700813366,"current_range_meters":27200,"station_id":"ce4bgs12rcd13ifvqcag","pricing_plan_id":"free"},{"bike_id":"630a1bf5-3ea9-4e60-aa8d-fd106442c32b","system_id":"levelo_inurba_marseille","lat":43.305355,"lon":5.36716,"is_reserved":false,"is_disabled":false,"rental_uris":{"android":"levelo://app?vid=630a1bf5-3ea9-4e60-aa8d-fd106442c32b","ios":"levelo://app?vid=630a1bf5-3ea9-4e60-aa8d-fd106442c32b"},"vehicle_type_id":"4","last_reported":1700813366,"current_range_meters":22800,"station_id":"ce4bgrp2rcd13ifvqc9g","pricing_plan_id":"free"},{"bike_id":"c72bc89d-1dfb-4def-815b-6026950c5a6e","system_id":"levelo_inurba_marseille","lat":43.305714,"lon":5.365633,"is_reserved":false,"is_disabled":false,"rental_uris":{"android":"levelo://app?vid=c72bc89d-1dfb-4def-815b-6026950c5a6e","ios":"levelo://app?vid=c72bc89d-1dfb-4def-815b-6026950c5a6e"},"vehicle_type_id":"4","last_reported":1700813366,"current_range_meters":18400,"station_id":"ce4bgs12rcd13ifvqcag","pricing_plan_id":"free"},{"bike_id":"49dbf777-39f8-4d60-851c-300a21f7f10f","system_id":"levelo_inurba_marseille","lat":43.305368,"lon":5.367343,"is_reserved":false,"is_disabled":false,"rental_uris":{"android":"levelo://app?vid=49dbf777-39f8-4d60-851c-300a21f7f10f","ios":"levelo://app?vid=49dbf777-39f8-4d60-851c-300a21f7f10f"},"vehicle_type_id":"4","last_reported":1700813366,"current_range_meters":13200,"station_id":"ce4bgrp2rcd13ifvqc9g","pricing_plan_id":"free"},{"bike_id":"c1a9f473-0814-464f-bf69-299b0a8cd5c0","system_id":"levelo_inurba_marseille","lat":43.305714,"lon":5.365633,"is_reserved":false,"is_disabled":false,"rental_uris":{"android":"levelo://app?vid=c1a9f473-0814-464f-bf69-299b0a8cd5c0","ios":"levelo://app?vid=c1a9f473-0814-464f-bf69-299b0a8cd5c0"},"vehicle_type_id":"4","last_reported":1700813366,"current_range_meters":2000,"station_id":"ce4bgs12rcd13ifvqcag","pricing_plan_id":"free"},{"bike_id":"7c0c0eb6-209d-490a-85f1-f0c806c490a0","system_id":"levelo_inurba_marseille","lat":43.30534,"lon":5.36732,"is_reserved":false,"is_disabled":false,"rental_uris":{"android":"levelo://app?vid=7c0c0eb6-209d-490a-85f1-f0c806c490a0","ios":"levelo://app?vid=7c0c0eb6-209d-490a-85f1-f0c806c490a0"},"vehicle_type_id":"4","last_reported":1700813366,"current_range_meters":22800,"station_id":"ce4bgrp2rcd13ifvqc9g","pricing_plan_id":"free"},{"bike_id":"222d7e37-6eff-4b3f-b420-7d27d2fea60f","system_id":"levelo_inurba_marseille","lat":43.30537,"lon":5.367345,"is_reserved":false,"is_disabled":false,"rental_uris":{"android":"levelo://app?vid=222d7e37-6eff-4b3f-b420-7d27d2fea60f","ios":"levelo://app?vid=222d7e37-6eff-4b3f-b420-7d27d2fea60f"},"vehicle_type_id":"4","last_reported":1700813366,"current_range_meters":22800,"station_id":"ce4bgrp2rcd13ifvqc9g","pricing_plan_id":"free"},{"bike_id":"77eeb088-e463-4b29-80a5-8b7eb4a58a7b","system_id":"levelo_inurba_marseille","lat":43.305714,"lon":5.365633,"is_reserved":false,"is_disabled":false,"rental_uris":{"android":"levelo://app?vid=77eeb088-e463-4b29-80a5-8b7eb4a58a7b","ios":"levelo://app?vid=77eeb088-e463-4b29-80a5-8b7eb4a58a7b"},"vehicle_type_id":"4","last_reported":1700813366,"current_range_meters":21600,"station_id":"ce4bgs12rcd13ifvqcag","pricing_plan_id":"free"},{"bike_id":"e72d5dbe-d923-4a6c-96ab-dbe9156e538f","system_id":"levelo_inurba_marseille","lat":43.30536,"lon":5.36545,"is_reserved":false,"is_disabled":false,"rental_uris":{"android":"levelo://app?vid=e72d5dbe-d923-4a6c-96ab-dbe9156e538f","ios":"levelo://app?vid=e72d5dbe-d923-4a6c-96ab-dbe9156e538f"},"vehicle_type_id":"4","last_reported":1700813366,"current_range_meters":31200,"station_id":"ce4bgs12rcd13ifvqcag","pricing_plan_id":"free"},{"bike_id":"43bf5cf6-ac0a-4035-9884-61a3aec3d997","system_id":"levelo_inurba_marseille","lat":43.30535,"lon":5.36545,"is_reserved":false,"is_disabled":false,"rental_uris":{"android":"levelo://app?vid=43bf5cf6-ac0a-4035-9884-61a3aec3d997","ios":"levelo://app?vid=43bf5cf6-ac0a-4035-9884-61a3aec3d997"},"vehicle_type_id":"4","last_reported":1700813366,"current_range_meters":29600,"station_id":"ce4bgs12rcd13ifvqcag","pricing_plan_id":"free"},{"bike_id":"f8867632-c836-458f-8bd0-ffad506867e9","system_id":"levelo_inurba_marseille","lat":43.305368,"lon":5.367343,"is_reserved":false,"is_disabled":false,"rental_uris":{"android":"levelo://app?vid=f8867632-c836-458f-8bd0-ffad506867e9","ios":"levelo://app?vid=f8867632-c836-458f-8bd0-ffad506867e9"},"vehicle_type_id":"4","last_reported":1700813366,"current_range_meters":21600,"station_id":"ce4bgrp2rcd13ifvqc9g","pricing_plan_id":"free"},{"bike_id":"1840ea6f-b8d4-43d3-b5ac-ef1dd8918f7b","system_id":"levelo_inurba_marseille","lat":43.305147,"lon":5.367209,"is_reserved":false,"is_disabled":false,"rental_uris":{"android":"levelo://app?vid=1840ea6f-b8d4-43d3-b5ac-ef1dd8918f7b","ios":"levelo://app?vid=1840ea6f-b8d4-43d3-b5ac-ef1dd8918f7b"},"vehicle_type_id":"4","last_reported":1700813366,"current_range_meters":22400,"station_id":"ce4bgrp2rcd13ifvqc9g","pricing_plan_id":"free"},{"bike_id":"51ff5fce-7c37-4c8b-9d23-1c4e7ef4baa5","system_id":"levelo_inurba_marseille","lat":43.305989,"lon":5.37225,"is_reserved":false,"is_disabled":false,"rental_uris":{"android":"levelo://app?vid=51ff5fce-7c37-4c8b-9d23-1c4e7ef4baa5","ios":"levelo://app?vid=51ff5fce-7c37-4c8b-9d23-1c4e7ef4baa5"},"vehicle_type_id":"4","last_reported":1700813366,"current_range_meters":20000,"station_id":"ce4bgqh2rcd13ifvqc4g","pricing_plan_id":"free"},{"bike_id":"4a2f776a-6d09-4a64-8289-5e90a9e7539c","system_id":"levelo_inurba_marseille","lat":43.305989,"lon":5.37225,"is_reserved":false,"is_disabled":false,"rental_uris":{"android":"levelo://app?vid=4a2f776a-6d09-4a64-8289-5e90a9e7539c","ios":"levelo://app?vid=4a2f776a-6d09-4a64-8289-5e90a9e7539c"},"vehicle_type_id":"4","last_reported":1700813366,"current_range_meters":29200,"station_id":"ce4bgqh2rcd13ifvqc4g","pricing_plan_id":"free"},{"bike_id":"56e1aeca-3d47-4546-a14a-e60da9c464a1","system_id":"levelo_inurba_marseille","lat":43.305989,"lon":5.37225,"is_reserved":false,"is_disabled":false,"rental_uris":{"android":"levelo://app?vid=56e1aeca-3d47-4546-a14a-e60da9c464a1","ios":"levelo://app?vid=56e1aeca-3d47-4546-a14a-e60da9c464a1"},"vehicle_type_id":"4","last_reported":1700813366,"current_range_meters":4400,"station_id":"ce4bgqh2rcd13ifvqc4g","pricing_plan_id":"free"},{"bike_id":"6fda7dea-77f0-4422-943b-3e6a20e9cac5","system_id":"levelo_inurba_marseille","lat":43.305989,"lon":5.37225,"is_reserved":false,"is_disabled":false,"rental_uris":{"android":"levelo://app?vid=6fda7dea-77f0-4422-943b-3e6a20e9cac5","ios":"levelo://app?vid=6fda7dea-77f0-4422-943b-3e6a20e9cac5"},"vehicle_type_id":"4","last_reported":1700813366,"current_range_meters":18000,"station_id":"ce4bgqh2rcd13ifvqc4g","pricing_plan_id":"free"},{"bike_id":"12f1e750-7a87-43df-91a1-9d2388e2de09","system_id":"levelo_inurba_marseille","lat":43.311125,"lon":5.377624,"is_reserved":false,"is_disabled":false,"rental_uris":{"android":"levelo://app?vid=12f1e750-7a87-43df-91a1-9d2388e2de09","ios":"levelo://app?vid=12f1e750-7a87-43df-91a1-9d2388e2de09"},"vehicle_type_id":"4","last_reported":1700813366,"current_range_meters":16400,"station_id":"ce4bgt92rcd13ifvqcg0","pricing_plan_id":"free"},{"bike_id":"10227959-ff9a-4db5-8e6f-660873996693","system_id":"levelo_inurba_marseille","lat":43.307945,"lon":5.376487,"is_reserved":false,"is_disabled":false,"rental_uris":{"android":"levelo://app?vid=10227959-ff9a-4db5-8e6f-660873996693","ios":"levelo://app?vid=10227959-ff9a-4db5-8e6f-660873996693"},"vehicle_type_id":"4","last_reported":1700813366,"current_range_meters":27600,"station_id":"ce4bgv92rcd13ifvqcq0","pricing_plan_id":"free"},{"bike_id":"de958c51-6407-4287-8373-36d7285c5b88","system_id":"levelo_inurba_marseille","lat":43.317075,"lon":5.377367,"is_reserved":false,"is_disabled":false,"rental_uris":{"android":"levelo://app?vid=de958c51-6407-4287-8373-36d7285c5b88","ios":"levelo://app?vid=de958c51-6407-4287-8373-36d7285c5b88"},"vehicle_type_id":"4","last_reported":1700813366,"current_range_meters":29200,"station_id":"ce4bgth2rcd13ifvqch0","pricing_plan_id":"free"},{"bike_id":"410aa63a-c5ac-4679-ba02-23bd2cc5170b","system_id":"levelo_inurba_marseille","lat":43.317075,"lon":5.377367,"is_reserved":false,"is_disabled":false,"rental_uris":{"android":"levelo://app?vid=410aa63a-c5ac-4679-ba02-23bd2cc5170b","ios":"levelo://app?vid=410aa63a-c5ac-4679-ba02-23bd2cc5170b"},"vehicle_type_id":"4","last_reported":1700813366,"current_range_meters":27600,"station_id":"ce4bgth2rcd13ifvqch0","pricing_plan_id":"free"},{"bike_id":"5432ebe5-659a-45a0-a8e1-89d3238e7a59","system_id":"levelo_inurba_marseille","lat":43.303143,"lon":5.36908,"is_reserved":false,"is_disabled":false,"rental_uris":{"android":"levelo://app?vid=5432ebe5-659a-45a0-a8e1-89d3238e7a59","ios":"levelo://app?vid=5432ebe5-659a-45a0-a8e1-89d3238e7a59"},"vehicle_type_id":"4","last_reported":1700813366,"current_range_meters":13600,"station_id":"ce4bgqh2rcd13ifvqc5g","pricing_plan_id":"free"},{"bike_id":"d69c1c85-1044-4c77-958a-bf353bfba4d2","system_id":"levelo_inurba_marseille","lat":43.30304,"lon":5.368987,"is_reserved":false,"is_disabled":false,"rental_uris":{"android":"levelo://app?vid=d69c1c85-1044-4c77-958a-bf353bfba4d2","ios":"levelo://app?vid=d69c1c85-1044-4c77-958a-bf353bfba4d2"},"vehicle_type_id":"4","last_reported":1700813366,"current_range_meters":20000,"station_id":"ce4bgqh2rcd13ifvqc5g","pricing_plan_id":"free"},{"bike_id":"1377a259-4089-4d93-b5f8-15bda2106c6b","system_id":"levelo_inurba_marseille","lat":43.30304,"lon":5.368987,"is_reserved":false,"is_disabled":false,"rental_uris":{"android":"levelo://app?vid=1377a259-4089-4d93-b5f8-15bda2106c6b","ios":"levelo://app?vid=1377a259-4089-4d93-b5f8-15bda2106c6b"},"vehicle_type_id":"4","last_reported":1700813366,"current_range_meters":29200,"station_id":"ce4bgqh2rcd13ifvqc5g","pricing_plan_id":"free"},{"bike_id":"5a38a669-03f0-41fb-9b2f-324962fcf727","system_id":"levelo_inurba_marseille","lat":43.30304,"lon":5.368987,"is_reserved":false,"is_disabled":false,"rental_uris":{"android":"levelo://app?vid=5a38a669-03f0-41fb-9b2f-324962fcf727","ios":"levelo://app?vid=5a38a669-03f0-41fb-9b2f-324962fcf727"},"vehicle_type_id":"4","last_reported":1700813366,"current_range_meters":15200,"station_id":"ce4bgqh2rcd13ifvqc5g","pricing_plan_id":"free"},{"bike_id":"508c56e1-bf28-4848-bca9-f164cc6e9124","system_id":"levelo_inurba_marseille","lat":43.303046,"lon":5.368981,"is_reserved":false,"is_disabled":false,"rental_uris":{"android":"levelo://app?vid=508c56e1-bf28-4848-bca9-f164cc6e9124","ios":"levelo://app?vid=508c56e1-bf28-4848-bca9-f164cc6e9124"},"vehicle_type_id":"4","last_reported":1700813366,"current_range_meters":29200,"station_id":"ce4bgqh2rcd13ifvqc5g","pricing_plan_id":"free"},{"bike_id":"3f2a9b8c-854c-499d-9fea-beb2130aa9a6","system_id":"levelo_inurba_marseille","lat":43.31534,"lon":5.38035,"is_reserved":false,"is_disabled":false,"rental_uris":{"android":"levelo://app?vid=3f2a9b8c-854c-499d-9fea-beb2130aa9a6","ios":"levelo://app?vid=3f2a9b8c-854c-499d-9fea-beb2130aa9a6"},"vehicle_type_id":"4","last_reported":1700813366,"current_range_meters":4000,"station_id":"ce4bhsp2rcd13ifvqi50","pricing_plan_id":"free"},{"bike_id":"7ae418fb-107c-4d89-901b-ed3951d02ab9","system_id":"levelo_inurba_marseille","lat":43.301882,"lon":5.366243,"is_reserved":false,"is_disabled":false,"rental_uris":{"android":"levelo://app?vid=7ae418fb-107c-4d89-901b-ed3951d02ab9","ios":"levelo://app?vid=7ae418fb-107c-4d89-901b-ed3951d02ab9"},"vehicle_type_id":"4","last_reported":1700813366,"current_range_meters":4000,"station_id":"ce4bgrh2rcd13ifvqc8g","pricing_plan_id":"free"},{"bike_id":"4d31b9d8-3333-4a2c-8bea-b6b9e38c9b5a","system_id":"levelo_inurba_marseille","lat":43.308012,"lon":5.381511,"is_reserved":false,"is_disabled":false,"rental_uris":{"android":"levelo://app?vid=4d31b9d8-3333-4a2c-8bea-b6b9e38c9b5a","ios":"levelo://app?vid=4d31b9d8-3333-4a2c-8bea-b6b9e38c9b5a"},"vehicle_type_id":"4","last_reported":1700813366,"current_range_meters":24800,"station_id":"ce4bgt12rcd13ifvqce0","pricing_plan_id":"free"},{"bike_id":"1f62dc47-a107-4457-bcf5-eb1313d926fa","system_id":"levelo_inurba_marseille","lat":43.304606,"lon":5.379026,"is_reserved":false,"is_disabled":false,"rental_uris":{"android":"levelo://app?vid=1f62dc47-a107-4457-bcf5-eb1313d926fa","ios":"levelo://app?vid=1f62dc47-a107-4457-bcf5-eb1313d926fa"},"vehicle_type_id":"4","last_reported":1700813366,"current_range_meters":16800,"station_id":"ce4bgup2rcd13ifvqcn0","pricing_plan_id":"free"},{"bike_id":"8f601231-3856-411f-ab25-71f77a1a141a","system_id":"levelo_inurba_marseille","lat":43.304606,"lon":5.379026,"is_reserved":false,"is_disabled":false,"rental_uris":{"android":"levelo://app?vid=8f601231-3856-411f-ab25-71f77a1a141a","ios":"levelo://app?vid=8f601231-3856-411f-ab25-71f77a1a141a"},"vehicle_type_id":"4","last_reported":1700813366,"current_range_meters":24800,"station_id":"ce4bgup2rcd13ifvqcn0","pricing_plan_id":"free"},{"bike_id":"88f9885d-2aba-4ffd-98e6-b3afeb25071d","system_id":"levelo_inurba_marseille","lat":43.304606,"lon":5.379026,"is_reserved":false,"is_disabled":false,"rental_uris":{"android":"levelo://app?vid=88f9885d-2aba-4ffd-98e6-b3afeb25071d","ios":"levelo://app?vid=88f9885d-2aba-4ffd-98e6-b3afeb25071d"},"vehicle_type_id":"4","last_reported":1700813366,"current_range_meters":31600,"station_id":"ce4bgup2rcd13ifvqcn0","pricing_plan_id":"free"},{"bike_id":"e8cc6fcf-f363-4bba-b0e2-bb9aaed0d1a2","system_id":"levelo_inurba_marseille","lat":43.304606,"lon":5.379026,"is_reserved":false,"is_disabled":false,"rental_uris":{"android":"levelo://app?vid=e8cc6fcf-f363-4bba-b0e2-bb9aaed0d1a2","ios":"levelo://app?vid=e8cc6fcf-f363-4bba-b0e2-bb9aaed0d1a2"},"vehicle_type_id":"4","last_reported":1700813366,"current_range_meters":24400,"station_id":"ce4bgup2rcd13ifvqcn0","pricing_plan_id":"free"},{"bike_id":"0a0ea16b-9cb2-4ca6-af29-0042edb6317c","system_id":"levelo_inurba_marseille","lat":43.304606,"lon":5.379026,"is_reserved":false,"is_disabled":false,"rental_uris":{"android":"levelo://app?vid=0a0ea16b-9cb2-4ca6-af29-0042edb6317c","ios":"levelo://app?vid=0a0ea16b-9cb2-4ca6-af29-0042edb6317c"},"vehicle_type_id":"4","last_reported":1700813366,"current_range_meters":6800,"station_id":"ce4bgup2rcd13ifvqcn0","pricing_plan_id":"free"},{"bike_id":"ca2ad060-9ff3-491f-8b90-837f5ab0dc21","system_id":"levelo_inurba_marseille","lat":43.304606,"lon":5.379026,"is_reserved":false,"is_disabled":false,"rental_uris":{"android":"levelo://app?vid=ca2ad060-9ff3-491f-8b90-837f5ab0dc21","ios":"levelo://app?vid=ca2ad060-9ff3-491f-8b90-837f5ab0dc21"},"vehicle_type_id":"4","last_reported":1700813366,"current_range_meters":13600,"station_id":"ce4bgup2rcd13ifvqcn0","pricing_plan_id":"free"},{"bike_id":"45d93b2b-e763-4ae3-b99f-d5ea218f5eac","system_id":"levelo_inurba_marseille","lat":43.304606,"lon":5.379026,"is_reserved":false,"is_disabled":false,"rental_uris":{"android":"levelo://app?vid=45d93b2b-e763-4ae3-b99f-d5ea218f5eac","ios":"levelo://app?vid=45d93b2b-e763-4ae3-b99f-d5ea218f5eac"},"vehicle_type_id":"4","last_reported":1700813366,"current_range_meters":28000,"station_id":"ce4bgup2rcd13ifvqcn0","pricing_plan_id":"free"},{"bike_id":"a95dfbcd-204e-4572-9d8b-1efb3562f131","system_id":"levelo_inurba_marseille","lat":43.30462,"lon":5.37903,"is_reserved":false,"is_disabled":false,"rental_uris":{"android":"levelo://app?vid=a95dfbcd-204e-4572-9d8b-1efb3562f131","ios":"levelo://app?vid=a95dfbcd-204e-4572-9d8b-1efb3562f131"},"vehicle_type_id":"4","last_reported":1700813366,"current_range_meters":27200,"station_id":"ce4bgup2rcd13ifvqcn0","pricing_plan_id":"free"},{"bike_id":"cb6473fa-4d3d-428d-876e-2a8d89dc00e1","system_id":"levelo_inurba_marseille","lat":43.304606,"lon":5.379026,"is_reserved":false,"is_disabled":false,"rental_uris":{"android":"levelo://app?vid=cb6473fa-4d3d-428d-876e-2a8d89dc00e1","ios":"levelo://app?vid=cb6473fa-4d3d-428d-876e-2a8d89dc00e1"},"vehicle_type_id":"4","last_reported":1700813366,"current_range_meters":27600,"station_id":"ce4bgup2rcd13ifvqcn0","pricing_plan_id":"free"},{"bike_id":"7a029a82-552d-487f-bf4c-ac28cf4e1050","system_id":"levelo_inurba_marseille","lat":43.304606,"lon":5.379026,"is_reserved":false,"is_disabled":false,"rental_uris":{"android":"levelo://app?vid=7a029a82-552d-487f-bf4c-ac28cf4e1050","ios":"levelo://app?vid=7a029a82-552d-487f-bf4c-ac28cf4e1050"},"vehicle_type_id":"4","last_reported":1700813366,"current_range_meters":19600,"station_id":"ce4bgup2rcd13ifvqcn0","pricing_plan_id":"free"},{"bike_id":"014c12ed-94c4-4be6-b3d6-553003b2a4f4","system_id":"levelo_inurba_marseille","lat":43.304606,"lon":5.379026,"is_reserved":false,"is_disabled":false,"rental_uris":{"android":"levelo://app?vid=014c12ed-94c4-4be6-b3d6-553003b2a4f4","ios":"levelo://app?vid=014c12ed-94c4-4be6-b3d6-553003b2a4f4"},"vehicle_type_id":"4","last_reported":1700813366,"current_range_meters":16000,"station_id":"ce4bgup2rcd13ifvqcn0","pricing_plan_id":"free"},{"bike_id":"343a5ed7-267d-4836-abfd-8a847f1cf217","system_id":"levelo_inurba_marseille","lat":43.304606,"lon":5.379026,"is_reserved":false,"is_disabled":false,"rental_uris":{"android":"levelo://app?vid=343a5ed7-267d-4836-abfd-8a847f1cf217","ios":"levelo://app?vid=343a5ed7-267d-4836-abfd-8a847f1cf217"},"vehicle_type_id":"4","last_reported":1700813366,"current_range_meters":22000,"station_id":"ce4bgup2rcd13ifvqcn0","pricing_plan_id":"free"},{"bike_id":"626726e1-27ea-48c5-bbb6-b57416c0e64d","system_id":"levelo_inurba_marseille","lat":43.304606,"lon":5.379026,"is_reserved":false,"is_disabled":false,"rental_uris":{"android":"levelo://app?vid=626726e1-27ea-48c5-bbb6-b57416c0e64d","ios":"levelo://app?vid=626726e1-27ea-48c5-bbb6-b57416c0e64d"},"vehicle_type_id":"4","last_reported":1700813366,"current_range_meters":23200,"station_id":"ce4bgup2rcd13ifvqcn0","pricing_plan_id":"free"},{"bike_id":"b81ff271-8371-49d0-bf62-835fec7950b5","system_id":"levelo_inurba_marseille","lat":43.304606,"lon":5.379026,"is_reserved":false,"is_disabled":false,"rental_uris":{"android":"levelo://app?vid=b81ff271-8371-49d0-bf62-835fec7950b5","ios":"levelo://app?vid=b81ff271-8371-49d0-bf62-835fec7950b5"},"vehicle_type_id":"4","last_reported":1700813366,"current_range_meters":23200,"station_id":"ce4bgup2rcd13ifvqcn0","pricing_plan_id":"free"},{"bike_id":"4a9c6fa3-235e-483e-9e8f-e82d12d74620","system_id":"levelo_inurba_marseille","lat":43.302784,"lon":5.377158,"is_reserved":false,"is_disabled":false,"rental_uris":{"android":"levelo://app?vid=4a9c6fa3-235e-483e-9e8f-e82d12d74620","ios":"levelo://app?vid=4a9c6fa3-235e-483e-9e8f-e82d12d74620"},"vehicle_type_id":"4","last_reported":1700813366,"current_range_meters":30000,"station_id":"ce4bguh2rcd13ifvqcj0","pricing_plan_id":"free"},{"bike_id":"771dec50-9859-4ba1-9101-9df1b92b6b00","system_id":"levelo_inurba_marseille","lat":43.301429,"lon":5.37413,"is_reserved":false,"is_disabled":false,"rental_uris":{"android":"levelo://app?vid=771dec50-9859-4ba1-9101-9df1b92b6b00","ios":"levelo://app?vid=771dec50-9859-4ba1-9101-9df1b92b6b00"},"vehicle_type_id":"4","last_reported":1700813366,"current_range_meters":24000,"station_id":"ce4bgs92rcd13ifvqcc0","pricing_plan_id":"free"},{"bike_id":"20c79e95-47ee-426a-876b-cdef583a9d83","system_id":"levelo_inurba_marseille","lat":43.301429,"lon":5.37413,"is_reserved":false,"is_disabled":false,"rental_uris":{"android":"levelo://app?vid=20c79e95-47ee-426a-876b-cdef583a9d83","ios":"levelo://app?vid=20c79e95-47ee-426a-876b-cdef583a9d83"},"vehicle_type_id":"4","last_reported":1700813366,"current_range_meters":29600,"station_id":"ce4bgs92rcd13ifvqcc0","pricing_plan_id":"free"},{"bike_id":"352cf774-61d8-45b0-a4a4-3da606ea7b11","system_id":"levelo_inurba_marseille","lat":43.301429,"lon":5.37413,"is_reserved":false,"is_disabled":false,"rental_uris":{"android":"levelo://app?vid=352cf774-61d8-45b0-a4a4-3da606ea7b11","ios":"levelo://app?vid=352cf774-61d8-45b0-a4a4-3da606ea7b11"},"vehicle_type_id":"4","last_reported":1700813366,"current_range_meters":2800,"station_id":"ce4bgs92rcd13ifvqcc0","pricing_plan_id":"free"},{"bike_id":"cf7ba4d9-bc2c-4cbb-9182-eba8f1ad5c38","system_id":"levelo_inurba_marseille","lat":43.301429,"lon":5.37413,"is_reserved":false,"is_disabled":false,"rental_uris":{"android":"levelo://app?vid=cf7ba4d9-bc2c-4cbb-9182-eba8f1ad5c38","ios":"levelo://app?vid=cf7ba4d9-bc2c-4cbb-9182-eba8f1ad5c38"},"vehicle_type_id":"4","last_reported":1700813366,"current_range_meters":24800,"station_id":"ce4bgs92rcd13ifvqcc0","pricing_plan_id":"free"},{"bike_id":"5b4a5770-e9df-4ccd-8169-0f84f572cebb","system_id":"levelo_inurba_marseille","lat":43.30143,"lon":5.37413,"is_reserved":false,"is_disabled":false,"rental_uris":{"android":"levelo://app?vid=5b4a5770-e9df-4ccd-8169-0f84f572cebb","ios":"levelo://app?vid=5b4a5770-e9df-4ccd-8169-0f84f572cebb"},"vehicle_type_id":"4","last_reported":1700813366,"current_range_meters":24400,"station_id":"ce4bgs92rcd13ifvqcc0","pricing_plan_id":"free"},{"bike_id":"743b976c-752b-4821-b0cd-2b8e6cfecef0","system_id":"levelo_inurba_marseille","lat":43.302784,"lon":5.377158,"is_reserved":false,"is_disabled":false,"rental_uris":{"android":"levelo://app?vid=743b976c-752b-4821-b0cd-2b8e6cfecef0","ios":"levelo://app?vid=743b976c-752b-4821-b0cd-2b8e6cfecef0"},"vehicle_type_id":"4","last_reported":1700813366,"current_range_meters":13200,"station_id":"ce4bguh2rcd13ifvqcj0","pricing_plan_id":"free"},{"bike_id":"725dcb49-737c-4112-b5fa-a3b286a2b98a","system_id":"levelo_inurba_marseille","lat":43.30143,"lon":5.37413,"is_reserved":false,"is_disabled":false,"rental_uris":{"android":"levelo://app?vid=725dcb49-737c-4112-b5fa-a3b286a2b98a","ios":"levelo://app?vid=725dcb49-737c-4112-b5fa-a3b286a2b98a"},"vehicle_type_id":"4","last_reported":1700813366,"current_range_meters":31200,"station_id":"ce4bgs92rcd13ifvqcc0","pricing_plan_id":"free"},{"bike_id":"20957eac-e278-4cdf-874b-5e9d515149f6","system_id":"levelo_inurba_marseille","lat":43.301429,"lon":5.37413,"is_reserved":false,"is_disabled":false,"rental_uris":{"android":"levelo://app?vid=20957eac-e278-4cdf-874b-5e9d515149f6","ios":"levelo://app?vid=20957eac-e278-4cdf-874b-5e9d515149f6"},"vehicle_type_id":"4","last_reported":1700813366,"current_range_meters":10000,"station_id":"ce4bgs92rcd13ifvqcc0","pricing_plan_id":"free"},{"bike_id":"11da3c25-7041-40e0-9019-e3b0e611e701","system_id":"levelo_inurba_marseille","lat":43.301429,"lon":5.37413,"is_reserved":false,"is_disabled":false,"rental_uris":{"android":"levelo://app?vid=11da3c25-7041-40e0-9019-e3b0e611e701","ios":"levelo://app?vid=11da3c25-7041-40e0-9019-e3b0e611e701"},"vehicle_type_id":"4","last_reported":1700813366,"current_range_meters":15200,"station_id":"ce4bgs92rcd13ifvqcc0","pricing_plan_id":"free"},{"bike_id":"ac68c09a-4e62-4c31-9923-af2f4f660b39","system_id":"levelo_inurba_marseille","lat":43.302784,"lon":5.377158,"is_reserved":false,"is_disabled":false,"rental_uris":{"android":"levelo://app?vid=ac68c09a-4e62-4c31-9923-af2f4f660b39","ios":"levelo://app?vid=ac68c09a-4e62-4c31-9923-af2f4f660b39"},"vehicle_type_id":"4","last_reported":1700813366,"current_range_meters":12000,"station_id":"ce4bguh2rcd13ifvqcj0","pricing_plan_id":"free"},{"bike_id":"76066549-55e8-4acb-a02b-8e077aa09890","system_id":"levelo_inurba_marseille","lat":43.302784,"lon":5.377158,"is_reserved":false,"is_disabled":false,"rental_uris":{"android":"levelo://app?vid=76066549-55e8-4acb-a02b-8e077aa09890","ios":"levelo://app?vid=76066549-55e8-4acb-a02b-8e077aa09890"},"vehicle_type_id":"4","last_reported":1700813366,"current_range_meters":19200,"station_id":"ce4bguh2rcd13ifvqcj0","pricing_plan_id":"free"},{"bike_id":"ddcd8fb5-e6f9-4509-b663-a5f016a9be0b","system_id":"levelo_inurba_marseille","lat":43.32001,"lon":5.38148,"is_reserved":false,"is_disabled":false,"rental_uris":{"android":"levelo://app?vid=ddcd8fb5-e6f9-4509-b663-a5f016a9be0b","ios":"levelo://app?vid=ddcd8fb5-e6f9-4509-b663-a5f016a9be0b"},"vehicle_type_id":"4","last_reported":1700813366,"current_range_meters":4400,"station_id":"ce4bhr12rcd13ifvqhpg","pricing_plan_id":"free"},{"bike_id":"52b3d9e0-eb07-4b48-a73d-f17c79b4d433","system_id":"levelo_inurba_marseille","lat":43.319935,"lon":5.381699,"is_reserved":false,"is_disabled":false,"rental_uris":{"android":"levelo://app?vid=52b3d9e0-eb07-4b48-a73d-f17c79b4d433","ios":"levelo://app?vid=52b3d9e0-eb07-4b48-a73d-f17c79b4d433"},"vehicle_type_id":"4","last_reported":1700813366,"current_range_meters":6800,"station_id":"ce4bhr12rcd13ifvqhpg","pricing_plan_id":"free"},{"bike_id":"a25e2f85-b32e-459e-a861-318044894c9f","system_id":"levelo_inurba_marseille","lat":43.313571,"lon":5.384829,"is_reserved":false,"is_disabled":false,"rental_uris":{"android":"levelo://app?vid=a25e2f85-b32e-459e-a861-318044894c9f","ios":"levelo://app?vid=a25e2f85-b32e-459e-a861-318044894c9f"},"vehicle_type_id":"4","last_reported":1700813366,"current_range_meters":19200,"station_id":"ce4bgt92rcd13ifvqcf0","pricing_plan_id":"free"},{"bike_id":"87cc2264-b8a0-4271-959d-f0e1973cdc3f","system_id":"levelo_inurba_marseille","lat":43.313571,"lon":5.384829,"is_reserved":false,"is_disabled":false,"rental_uris":{"android":"levelo://app?vid=87cc2264-b8a0-4271-959d-f0e1973cdc3f","ios":"levelo://app?vid=87cc2264-b8a0-4271-959d-f0e1973cdc3f"},"vehicle_type_id":"4","last_reported":1700813366,"current_range_meters":28400,"station_id":"ce4bgt92rcd13ifvqcf0","pricing_plan_id":"free"},{"bike_id":"6d08430c-1059-4620-95be-d563651e715d","system_id":"levelo_inurba_marseille","lat":43.299724,"lon":5.371829,"is_reserved":false,"is_disabled":false,"rental_uris":{"android":"levelo://app?vid=6d08430c-1059-4620-95be-d563651e715d","ios":"levelo://app?vid=6d08430c-1059-4620-95be-d563651e715d"},"vehicle_type_id":"4","last_reported":1700813366,"current_range_meters":25600,"station_id":"ce4bgr92rcd13ifvqc7g","pricing_plan_id":"free"},{"bike_id":"cc98c914-02ae-4d59-aaf3-3bdc99d50bde","system_id":"levelo_inurba_marseille","lat":43.299724,"lon":5.371829,"is_reserved":false,"is_disabled":false,"rental_uris":{"android":"levelo://app?vid=cc98c914-02ae-4d59-aaf3-3bdc99d50bde","ios":"levelo://app?vid=cc98c914-02ae-4d59-aaf3-3bdc99d50bde"},"vehicle_type_id":"4","last_reported":1700813366,"current_range_meters":20000,"station_id":"ce4bgr92rcd13ifvqc7g","pricing_plan_id":"free"},{"bike_id":"b35d98a3-9c0d-4bc9-b7aa-dab5b52650cb","system_id":"levelo_inurba_marseille","lat":43.30202,"lon":5.38044,"is_reserved":false,"is_disabled":false,"rental_uris":{"android":"levelo://app?vid=b35d98a3-9c0d-4bc9-b7aa-dab5b52650cb","ios":"levelo://app?vid=b35d98a3-9c0d-4bc9-b7aa-dab5b52650cb"},"vehicle_type_id":"4","last_reported":1700813366,"current_range_meters":13200,"station_id":"","pricing_plan_id":"free"},{"bike_id":"0046eecc-ff7c-4287-8e67-69c8f009b134","system_id":"levelo_inurba_marseille","lat":43.298433,"lon":5.362774,"is_reserved":false,"is_disabled":false,"rental_uris":{"android":"levelo://app?vid=0046eecc-ff7c-4287-8e67-69c8f009b134","ios":"levelo://app?vid=0046eecc-ff7c-4287-8e67-69c8f009b134"},"vehicle_type_id":"4","last_reported":1700813366,"current_range_meters":28400,"station_id":"ce4bgpp2rcd13ifvqc3g","pricing_plan_id":"free"},{"bike_id":"3f61182c-8e06-48a9-848e-d3a1293e2985","system_id":"levelo_inurba_marseille","lat":43.298433,"lon":5.362774,"is_reserved":false,"is_disabled":false,"rental_uris":{"android":"levelo://app?vid=3f61182c-8e06-48a9-848e-d3a1293e2985","ios":"levelo://app?vid=3f61182c-8e06-48a9-848e-d3a1293e2985"},"vehicle_type_id":"4","last_reported":1700813366,"current_range_meters":3600,"station_id":"ce4bgpp2rcd13ifvqc3g","pricing_plan_id":"free"},{"bike_id":"14e338cd-f954-43f7-8714-55426985f0c9","system_id":"levelo_inurba_marseille","lat":43.299243,"lon":5.37481,"is_reserved":false,"is_disabled":false,"rental_uris":{"android":"levelo://app?vid=14e338cd-f954-43f7-8714-55426985f0c9","ios":"levelo://app?vid=14e338cd-f954-43f7-8714-55426985f0c9"},"vehicle_type_id":"4","last_reported":1700813366,"current_range_meters":19200,"station_id":"ce4bgjh2rcd13ifvqbg0","pricing_plan_id":"free"},{"bike_id":"2c6e9bb8-ac14-49ec-adfc-97289641911b","system_id":"levelo_inurba_marseille","lat":43.299243,"lon":5.37481,"is_reserved":false,"is_disabled":false,"rental_uris":{"android":"levelo://app?vid=2c6e9bb8-ac14-49ec-adfc-97289641911b","ios":"levelo://app?vid=2c6e9bb8-ac14-49ec-adfc-97289641911b"},"vehicle_type_id":"4","last_reported":1700813366,"current_range_meters":20000,"station_id":"ce4bgjh2rcd13ifvqbg0","pricing_plan_id":"free"},{"bike_id":"57f07daa-f979-41b2-bf81-49ff7a829b2a","system_id":"levelo_inurba_marseille","lat":43.32285,"lon":5.38259,"is_reserved":false,"is_disabled":false,"rental_uris":{"android":"levelo://app?vid=57f07daa-f979-41b2-bf81-49ff7a829b2a","ios":"levelo://app?vid=57f07daa-f979-41b2-bf81-49ff7a829b2a"},"vehicle_type_id":"4","last_reported":1700813366,"current_range_meters":7600,"station_id":"ce4bhr12rcd13ifvqhqg","pricing_plan_id":"free"},{"bike_id":"8eccf735-9f13-4d66-89ee-04a7bf59eec2","system_id":"levelo_inurba_marseille","lat":43.322872,"lon":5.382756,"is_reserved":false,"is_disabled":false,"rental_uris":{"android":"levelo://app?vid=8eccf735-9f13-4d66-89ee-04a7bf59eec2","ios":"levelo://app?vid=8eccf735-9f13-4d66-89ee-04a7bf59eec2"},"vehicle_type_id":"4","last_reported":1700813366,"current_range_meters":30400,"station_id":"ce4bhr12rcd13ifvqhqg","pricing_plan_id":"free"},{"bike_id":"5169e814-1b84-49ba-be67-78f670ac569e","system_id":"levelo_inurba_marseille","lat":43.322872,"lon":5.382756,"is_reserved":false,"is_disabled":false,"rental_uris":{"android":"levelo://app?vid=5169e814-1b84-49ba-be67-78f670ac569e","ios":"levelo://app?vid=5169e814-1b84-49ba-be67-78f670ac569e"},"vehicle_type_id":"4","last_reported":1700813366,"current_range_meters":22000,"station_id":"ce4bhr12rcd13ifvqhqg","pricing_plan_id":"free"},{"bike_id":"ddd3fff7-fc57-48f9-825f-f47d18d1dbee","system_id":"levelo_inurba_marseille","lat":43.328276,"lon":5.366838,"is_reserved":false,"is_disabled":false,"rental_uris":{"android":"levelo://app?vid=ddd3fff7-fc57-48f9-825f-f47d18d1dbee","ios":"levelo://app?vid=ddd3fff7-fc57-48f9-825f-f47d18d1dbee"},"vehicle_type_id":"4","last_reported":1700813366,"current_range_meters":400,"station_id":"ce4bhs92rcd13ifvqi0g","pricing_plan_id":"free"},{"bike_id":"02f1d3d5-0f04-4159-9b7b-17f28025ba66","system_id":"levelo_inurba_marseille","lat":43.328371,"lon":5.366909,"is_reserved":false,"is_disabled":false,"rental_uris":{"android":"levelo://app?vid=02f1d3d5-0f04-4159-9b7b-17f28025ba66","ios":"levelo://app?vid=02f1d3d5-0f04-4159-9b7b-17f28025ba66"},"vehicle_type_id":"4","last_reported":1700813366,"current_range_meters":7200,"station_id":"ce4bhs92rcd13ifvqi0g","pricing_plan_id":"free"},{"bike_id":"4d7509f5-9559-42ca-a60d-bef9e80f0981","system_id":"levelo_inurba_marseille","lat":43.299579,"lon":5.379146,"is_reserved":false,"is_disabled":false,"rental_uris":{"android":"levelo://app?vid=4d7509f5-9559-42ca-a60d-bef9e80f0981","ios":"levelo://app?vid=4d7509f5-9559-42ca-a60d-bef9e80f0981"},"vehicle_type_id":"4","last_reported":1700813366,"current_range_meters":0,"station_id":"","pricing_plan_id":"free"},{"bike_id":"8d6f7e85-40ba-4b13-9f5d-f73a2b06b67b","system_id":"levelo_inurba_marseille","lat":43.296131,"lon":5.370791,"is_reserved":false,"is_disabled":false,"rental_uris":{"android":"levelo://app?vid=8d6f7e85-40ba-4b13-9f5d-f73a2b06b67b","ios":"levelo://app?vid=8d6f7e85-40ba-4b13-9f5d-f73a2b06b67b"},"vehicle_type_id":"4","last_reported":1700813366,"current_range_meters":28800,"station_id":"ce4bgnh2rcd13ifvqc0g","pricing_plan_id":"free"},{"bike_id":"c915f272-1145-4e9d-b7c8-a32b5ded15dc","system_id":"levelo_inurba_marseille","lat":43.309615,"lon":5.390152,"is_reserved":false,"is_disabled":false,"rental_uris":{"android":"levelo://app?vid=c915f272-1145-4e9d-b7c8-a32b5ded15dc","ios":"levelo://app?vid=c915f272-1145-4e9d-b7c8-a32b5ded15dc"},"vehicle_type_id":"4","last_reported":1700813366,"current_range_meters":20800,"station_id":"ce4bgup2rcd13ifvqco0","pricing_plan_id":"free"},{"bike_id":"661fe955-1b3e-4f10-8f7f-225fa285a412","system_id":"levelo_inurba_marseille","lat":43.309644,"lon":5.390219,"is_reserved":false,"is_disabled":false,"rental_uris":{"android":"levelo://app?vid=661fe955-1b3e-4f10-8f7f-225fa285a412","ios":"levelo://app?vid=661fe955-1b3e-4f10-8f7f-225fa285a412"},"vehicle_type_id":"4","last_reported":1700813366,"current_range_meters":5200,"station_id":"","pricing_plan_id":"free"},{"bike_id":"16304e3b-4bd7-49a6-8adf-29afefb83b38","system_id":"levelo_inurba_marseille","lat":43.309589,"lon":5.390258,"is_reserved":false,"is_disabled":false,"rental_uris":{"android":"levelo://app?vid=16304e3b-4bd7-49a6-8adf-29afefb83b38","ios":"levelo://app?vid=16304e3b-4bd7-49a6-8adf-29afefb83b38"},"vehicle_type_id":"4","last_reported":1700813366,"current_range_meters":26400,"station_id":"ce4bgup2rcd13ifvqco0","pricing_plan_id":"free"},{"bike_id":"2a695ef4-b090-459e-8fd0-25e339883ac5","system_id":"levelo_inurba_marseille","lat":43.309589,"lon":5.390258,"is_reserved":false,"is_disabled":false,"rental_uris":{"android":"levelo://app?vid=2a695ef4-b090-459e-8fd0-25e339883ac5","ios":"levelo://app?vid=2a695ef4-b090-459e-8fd0-25e339883ac5"},"vehicle_type_id":"4","last_reported":1700813366,"current_range_meters":30000,"station_id":"ce4bgup2rcd13ifvqco0","pricing_plan_id":"free"},{"bike_id":"5733243b-f660-48cd-889a-61ae82f9f001","system_id":"levelo_inurba_marseille","lat":43.305714,"lon":5.365633,"is_reserved":false,"is_disabled":false,"rental_uris":{"android":"levelo://app?vid=5733243b-f660-48cd-889a-61ae82f9f001","ios":"levelo://app?vid=5733243b-f660-48cd-889a-61ae82f9f001"},"vehicle_type_id":"4","last_reported":1700813366,"current_range_meters":18800,"station_id":"ce4bgs12rcd13ifvqcag","pricing_plan_id":"free"},{"bike_id":"5d3fc9e2-b7a3-40bc-ae24-042208810db4","system_id":"levelo_inurba_marseille","lat":43.309589,"lon":5.390258,"is_reserved":false,"is_disabled":false,"rental_uris":{"android":"levelo://app?vid=5d3fc9e2-b7a3-40bc-ae24-042208810db4","ios":"levelo://app?vid=5d3fc9e2-b7a3-40bc-ae24-042208810db4"},"vehicle_type_id":"4","last_reported":1700813366,"current_range_meters":15600,"station_id":"ce4bgup2rcd13ifvqco0","pricing_plan_id":"free"},{"bike_id":"7bbfaa23-e6f5-4611-a5f9-38c97c00eb43","system_id":"levelo_inurba_marseille","lat":43.309589,"lon":5.390258,"is_reserved":false,"is_disabled":false,"rental_uris":{"android":"levelo://app?vid=7bbfaa23-e6f5-4611-a5f9-38c97c00eb43","ios":"levelo://app?vid=7bbfaa23-e6f5-4611-a5f9-38c97c00eb43"},"vehicle_type_id":"4","last_reported":1700813366,"current_range_meters":16800,"station_id":"ce4bgup2rcd13ifvqco0","pricing_plan_id":"free"},{"bike_id":"1dd7041b-e111-421a-8fc5-e2b7ab6f439a","system_id":"levelo_inurba_marseille","lat":43.309589,"lon":5.390258,"is_reserved":false,"is_disabled":false,"rental_uris":{"android":"levelo://app?vid=1dd7041b-e111-421a-8fc5-e2b7ab6f439a","ios":"levelo://app?vid=1dd7041b-e111-421a-8fc5-e2b7ab6f439a"},"vehicle_type_id":"4","last_reported":1700813366,"current_range_meters":25200,"station_id":"ce4bgup2rcd13ifvqco0","pricing_plan_id":"free"},{"bike_id":"e870a805-2fbd-40ae-aeb8-108dc772ed5d","system_id":"levelo_inurba_marseille","lat":43.317584,"lon":5.390248,"is_reserved":false,"is_disabled":false,"rental_uris":{"android":"levelo://app?vid=e870a805-2fbd-40ae-aeb8-108dc772ed5d","ios":"levelo://app?vid=e870a805-2fbd-40ae-aeb8-108dc772ed5d"},"vehicle_type_id":"4","last_reported":1700813366,"current_range_meters":0,"station_id":"ce4bhqp2rcd13ifvqhng","pricing_plan_id":"free"},{"bike_id":"cdcc6730-f665-4128-8996-c67345cd72f5","system_id":"levelo_inurba_marseille","lat":43.295748,"lon":5.37522,"is_reserved":false,"is_disabled":false,"rental_uris":{"android":"levelo://app?vid=cdcc6730-f665-4128-8996-c67345cd72f5","ios":"levelo://app?vid=cdcc6730-f665-4128-8996-c67345cd72f5"},"vehicle_type_id":"4","last_reported":1700813366,"current_range_meters":16000,"station_id":"ce4bgh92rcd13ifvqb50","pricing_plan_id":"free"},{"bike_id":"07771156-2779-4aff-8144-06ef8d56e9a3","system_id":"levelo_inurba_marseille","lat":43.295748,"lon":5.37522,"is_reserved":false,"is_disabled":false,"rental_uris":{"android":"levelo://app?vid=07771156-2779-4aff-8144-06ef8d56e9a3","ios":"levelo://app?vid=07771156-2779-4aff-8144-06ef8d56e9a3"},"vehicle_type_id":"4","last_reported":1700813366,"current_range_meters":13200,"station_id":"ce4bgh92rcd13ifvqb50","pricing_plan_id":"free"},{"bike_id":"a69526d8-f5e6-4c7e-ba83-cadb232abf7f","system_id":"levelo_inurba_marseille","lat":43.29536,"lon":5.37502,"is_reserved":false,"is_disabled":false,"rental_uris":{"android":"levelo://app?vid=a69526d8-f5e6-4c7e-ba83-cadb232abf7f","ios":"levelo://app?vid=a69526d8-f5e6-4c7e-ba83-cadb232abf7f"},"vehicle_type_id":"4","last_reported":1700813366,"current_range_meters":24000,"station_id":"ce4bgkp2rcd13ifvqbmg","pricing_plan_id":"free"},{"bike_id":"3343097e-1ed6-4fab-b521-f8a7f986cbf7","system_id":"levelo_inurba_marseille","lat":43.295279,"lon":5.375048,"is_reserved":false,"is_disabled":false,"rental_uris":{"android":"levelo://app?vid=3343097e-1ed6-4fab-b521-f8a7f986cbf7","ios":"levelo://app?vid=3343097e-1ed6-4fab-b521-f8a7f986cbf7"},"vehicle_type_id":"4","last_reported":1700813366,"current_range_meters":0,"station_id":"ce4bgkp2rcd13ifvqbmg","pricing_plan_id":"free"},{"bike_id":"51a1296b-316d-444f-99f9-865cb334e7d0","system_id":"levelo_inurba_marseille","lat":43.29969,"lon":5.38492,"is_reserved":false,"is_disabled":false,"rental_uris":{"android":"levelo://app?vid=51a1296b-316d-444f-99f9-865cb334e7d0","ios":"levelo://app?vid=51a1296b-316d-444f-99f9-865cb334e7d0"},"vehicle_type_id":"4","last_reported":1700813366,"current_range_meters":11600,"station_id":"ce4bgj92rcd13ifvqbd0","pricing_plan_id":"free"},{"bike_id":"aa654554-a642-4d6a-ade6-ce65f1aca2e4","system_id":"levelo_inurba_marseille","lat":43.299724,"lon":5.384848,"is_reserved":false,"is_disabled":false,"rental_uris":{"android":"levelo://app?vid=aa654554-a642-4d6a-ade6-ce65f1aca2e4","ios":"levelo://app?vid=aa654554-a642-4d6a-ade6-ce65f1aca2e4"},"vehicle_type_id":"4","last_reported":1700813366,"current_range_meters":12000,"station_id":"ce4bgj92rcd13ifvqbd0","pricing_plan_id":"free"},{"bike_id":"662d4162-84d9-4796-954c-6912b18c7049","system_id":"levelo_inurba_marseille","lat":43.299653,"lon":5.384973,"is_reserved":false,"is_disabled":false,"rental_uris":{"android":"levelo://app?vid=662d4162-84d9-4796-954c-6912b18c7049","ios":"levelo://app?vid=662d4162-84d9-4796-954c-6912b18c7049"},"vehicle_type_id":"4","last_reported":1700813366,"current_range_meters":26400,"station_id":"","pricing_plan_id":"free"},{"bike_id":"c7404532-9796-4173-b2e6-2235b9ede2b1","system_id":"levelo_inurba_marseille","lat":43.300967,"lon":5.386934,"is_reserved":false,"is_disabled":false,"rental_uris":{"android":"levelo://app?vid=c7404532-9796-4173-b2e6-2235b9ede2b1","ios":"levelo://app?vid=c7404532-9796-4173-b2e6-2235b9ede2b1"},"vehicle_type_id":"4","last_reported":1700813366,"current_range_meters":0,"station_id":"","pricing_plan_id":"free"},{"bike_id":"6b621983-5e9e-42f7-990d-ad5a093820d2","system_id":"levelo_inurba_marseille","lat":43.293801,"lon":5.363066,"is_reserved":false,"is_disabled":false,"rental_uris":{"android":"levelo://app?vid=6b621983-5e9e-42f7-990d-ad5a093820d2","ios":"levelo://app?vid=6b621983-5e9e-42f7-990d-ad5a093820d2"},"vehicle_type_id":"4","last_reported":1700813366,"current_range_meters":5200,"station_id":"","pricing_plan_id":"free"},{"bike_id":"c19b1b72-68b8-43bd-a0c6-1ae2d4db2160","system_id":"levelo_inurba_marseille","lat":43.32363,"lon":5.38876,"is_reserved":false,"is_disabled":false,"rental_uris":{"android":"levelo://app?vid=c19b1b72-68b8-43bd-a0c6-1ae2d4db2160","ios":"levelo://app?vid=c19b1b72-68b8-43bd-a0c6-1ae2d4db2160"},"vehicle_type_id":"4","last_reported":1700813366,"current_range_meters":13600,"station_id":"ce4bhqp2rcd13ifvqhog","pricing_plan_id":"free"},{"bike_id":"3b5ce91f-4509-4d53-8414-319f702fbfed","system_id":"levelo_inurba_marseille","lat":43.32364,"lon":5.38883,"is_reserved":false,"is_disabled":false,"rental_uris":{"android":"levelo://app?vid=3b5ce91f-4509-4d53-8414-319f702fbfed","ios":"levelo://app?vid=3b5ce91f-4509-4d53-8414-319f702fbfed"},"vehicle_type_id":"4","last_reported":1700813366,"current_range_meters":4800,"station_id":"ce4bhqp2rcd13ifvqhog","pricing_plan_id":"free"},{"bike_id":"59398d6a-1eaf-4e92-b0ad-03db71680ea9","system_id":"levelo_inurba_marseille","lat":43.32366,"lon":5.38888,"is_reserved":false,"is_disabled":false,"rental_uris":{"android":"levelo://app?vid=59398d6a-1eaf-4e92-b0ad-03db71680ea9","ios":"levelo://app?vid=59398d6a-1eaf-4e92-b0ad-03db71680ea9"},"vehicle_type_id":"4","last_reported":1700813366,"current_range_meters":1600,"station_id":"ce4bhqp2rcd13ifvqhog","pricing_plan_id":"free"},{"bike_id":"e975fd59-6a66-4587-b393-99f7ea5bfce0","system_id":"levelo_inurba_marseille","lat":43.293249,"lon":5.371578,"is_reserved":false,"is_disabled":false,"rental_uris":{"android":"levelo://app?vid=e975fd59-6a66-4587-b393-99f7ea5bfce0","ios":"levelo://app?vid=e975fd59-6a66-4587-b393-99f7ea5bfce0"},"vehicle_type_id":"4","last_reported":1700813366,"current_range_meters":29200,"station_id":"ce4bgh92rcd13ifvqb40","pricing_plan_id":"free"},{"bike_id":"0ab97273-3cc9-404b-b7be-9909717156d1","system_id":"levelo_inurba_marseille","lat":43.292749,"lon":5.368402,"is_reserved":false,"is_disabled":false,"rental_uris":{"android":"levelo://app?vid=0ab97273-3cc9-404b-b7be-9909717156d1","ios":"levelo://app?vid=0ab97273-3cc9-404b-b7be-9909717156d1"},"vehicle_type_id":"4","last_reported":1700813366,"current_range_meters":18000,"station_id":"ce4bhbp2rcd13ifvqesg","pricing_plan_id":"free"},{"bike_id":"fc76ebb5-8444-44bc-a560-ec1794ff1eec","system_id":"levelo_inurba_marseille","lat":43.293009,"lon":5.374584,"is_reserved":false,"is_disabled":false,"rental_uris":{"android":"levelo://app?vid=fc76ebb5-8444-44bc-a560-ec1794ff1eec","ios":"levelo://app?vid=fc76ebb5-8444-44bc-a560-ec1794ff1eec"},"vehicle_type_id":"4","last_reported":1700813366,"current_range_meters":29200,"station_id":"ce4bgi12rcd13ifvqb70","pricing_plan_id":"free"},{"bike_id":"ef2e4d94-5821-4133-aa16-8444eeb84bd0","system_id":"levelo_inurba_marseille","lat":43.293009,"lon":5.374584,"is_reserved":false,"is_disabled":false,"rental_uris":{"android":"levelo://app?vid=ef2e4d94-5821-4133-aa16-8444eeb84bd0","ios":"levelo://app?vid=ef2e4d94-5821-4133-aa16-8444eeb84bd0"},"vehicle_type_id":"4","last_reported":1700813366,"current_range_meters":27200,"station_id":"ce4bgi12rcd13ifvqb70","pricing_plan_id":"free"},{"bike_id":"02373417-abc7-43e6-b306-e53bcdc36c36","system_id":"levelo_inurba_marseille","lat":43.293675,"lon":5.378552,"is_reserved":false,"is_disabled":false,"rental_uris":{"android":"levelo://app?vid=02373417-abc7-43e6-b306-e53bcdc36c36","ios":"levelo://app?vid=02373417-abc7-43e6-b306-e53bcdc36c36"},"vehicle_type_id":"4","last_reported":1700813366,"current_range_meters":0,"station_id":"ce4bgjh2rcd13ifvqbf0","pricing_plan_id":"free"},{"bike_id":"5e061635-98ba-42bc-acb7-760ed104eff7","system_id":"levelo_inurba_marseille","lat":43.291671,"lon":5.371575,"is_reserved":false,"is_disabled":false,"rental_uris":{"android":"levelo://app?vid=5e061635-98ba-42bc-acb7-760ed104eff7","ios":"levelo://app?vid=5e061635-98ba-42bc-acb7-760ed104eff7"},"vehicle_type_id":"4","last_reported":1700813366,"current_range_meters":4800,"station_id":"ce4bha92rcd13ifvqeh0","pricing_plan_id":"free"},{"bike_id":"852d4446-a272-4c97-b32e-b1a877b9d507","system_id":"levelo_inurba_marseille","lat":43.291671,"lon":5.371575,"is_reserved":false,"is_disabled":false,"rental_uris":{"android":"levelo://app?vid=852d4446-a272-4c97-b32e-b1a877b9d507","ios":"levelo://app?vid=852d4446-a272-4c97-b32e-b1a877b9d507"},"vehicle_type_id":"4","last_reported":1700813366,"current_range_meters":21200,"station_id":"ce4bha92rcd13ifvqeh0","pricing_plan_id":"free"},{"bike_id":"1d10a1b1-d55f-4279-928a-9c6858f32ca9","system_id":"levelo_inurba_marseille","lat":43.33211,"lon":5.38112,"is_reserved":false,"is_disabled":false,"rental_uris":{"android":"levelo://app?vid=1d10a1b1-d55f-4279-928a-9c6858f32ca9","ios":"levelo://app?vid=1d10a1b1-d55f-4279-928a-9c6858f32ca9"},"vehicle_type_id":"4","last_reported":1700813366,"current_range_meters":0,"station_id":"","pricing_plan_id":"free"},{"bike_id":"b6264fbb-2186-40b3-b4c6-c9ec4bb2d31f","system_id":"levelo_inurba_marseille","lat":43.302008,"lon":5.394694,"is_reserved":false,"is_disabled":false,"rental_uris":{"android":"levelo://app?vid=b6264fbb-2186-40b3-b4c6-c9ec4bb2d31f","ios":"levelo://app?vid=b6264fbb-2186-40b3-b4c6-c9ec4bb2d31f"},"vehicle_type_id":"4","last_reported":1700813366,"current_range_meters":16000,"station_id":"ce4bh0p2rcd13ifvqd70","pricing_plan_id":"free"},{"bike_id":"03c1c5f9-500f-4057-9929-5bc84d4e1004","system_id":"levelo_inurba_marseille","lat":43.30214,"lon":5.39473,"is_reserved":false,"is_disabled":false,"rental_uris":{"android":"levelo://app?vid=03c1c5f9-500f-4057-9929-5bc84d4e1004","ios":"levelo://app?vid=03c1c5f9-500f-4057-9929-5bc84d4e1004"},"vehicle_type_id":"4","last_reported":1700813366,"current_range_meters":0,"station_id":"ce4bh0p2rcd13ifvqd70","pricing_plan_id":"free"},{"bike_id":"17ee70d0-4804-4c19-ae4e-fddd47aa9fa7","system_id":"levelo_inurba_marseille","lat":43.29038,"lon":5.37569,"is_reserved":false,"is_disabled":false,"rental_uris":{"android":"levelo://app?vid=17ee70d0-4804-4c19-ae4e-fddd47aa9fa7","ios":"levelo://app?vid=17ee70d0-4804-4c19-ae4e-fddd47aa9fa7"},"vehicle_type_id":"4","last_reported":1700813366,"current_range_meters":27600,"station_id":"ce4bh692rcd13ifvqe90","pricing_plan_id":"free"},{"bike_id":"c1393e99-6765-4338-9ed7-bfe1ec8b9893","system_id":"levelo_inurba_marseille","lat":43.294153,"lon":5.386305,"is_reserved":false,"is_disabled":false,"rental_uris":{"android":"levelo://app?vid=c1393e99-6765-4338-9ed7-bfe1ec8b9893","ios":"levelo://app?vid=c1393e99-6765-4338-9ed7-bfe1ec8b9893"},"vehicle_type_id":"4","last_reported":1700813366,"current_range_meters":14800,"station_id":"ce4bh2h2rcd13ifvqdh0","pricing_plan_id":"free"},{"bike_id":"34e879d2-7a67-4403-93d7-b1a3c906a995","system_id":"levelo_inurba_marseille","lat":43.289184,"lon":5.366408,"is_reserved":false,"is_disabled":false,"rental_uris":{"android":"levelo://app?vid=34e879d2-7a67-4403-93d7-b1a3c906a995","ios":"levelo://app?vid=34e879d2-7a67-4403-93d7-b1a3c906a995"},"vehicle_type_id":"4","last_reported":1700813366,"current_range_meters":21600,"station_id":"ce4bhap2rcd13ifvqek0","pricing_plan_id":"free"},{"bike_id":"6ac4baa3-47ac-41c8-9a8f-2d85f0cd8934","system_id":"levelo_inurba_marseille","lat":43.28943,"lon":5.36414,"is_reserved":false,"is_disabled":false,"rental_uris":{"android":"levelo://app?vid=6ac4baa3-47ac-41c8-9a8f-2d85f0cd8934","ios":"levelo://app?vid=6ac4baa3-47ac-41c8-9a8f-2d85f0cd8934"},"vehicle_type_id":"4","last_reported":1700813366,"current_range_meters":17200,"station_id":"ce4bhc92rcd13ifvqetg","pricing_plan_id":"free"},{"bike_id":"bdab7800-e721-40c0-977e-642e8f0484a9","system_id":"levelo_inurba_marseille","lat":43.292644,"lon":5.384257,"is_reserved":false,"is_disabled":false,"rental_uris":{"android":"levelo://app?vid=bdab7800-e721-40c0-977e-642e8f0484a9","ios":"levelo://app?vid=bdab7800-e721-40c0-977e-642e8f0484a9"},"vehicle_type_id":"4","last_reported":1700813366,"current_range_meters":0,"station_id":"ce4bh692rcd13ifvqea0","pricing_plan_id":"free"},{"bike_id":"6904b484-132c-42a8-a3c7-a1f453b205cd","system_id":"levelo_inurba_marseille","lat":43.3304,"lon":5.38919,"is_reserved":false,"is_disabled":false,"rental_uris":{"android":"levelo://app?vid=6904b484-132c-42a8-a3c7-a1f453b205cd","ios":"levelo://app?vid=6904b484-132c-42a8-a3c7-a1f453b205cd"},"vehicle_type_id":"4","last_reported":1700813366,"current_range_meters":18800,"station_id":"ce4bhr92rcd13ifvqhrg","pricing_plan_id":"free"},{"bike_id":"55466b2d-38b9-49ee-bda8-84fa58cf75ed","system_id":"levelo_inurba_marseille","lat":43.33045,"lon":5.38913,"is_reserved":false,"is_disabled":false,"rental_uris":{"android":"levelo://app?vid=55466b2d-38b9-49ee-bda8-84fa58cf75ed","ios":"levelo://app?vid=55466b2d-38b9-49ee-bda8-84fa58cf75ed"},"vehicle_type_id":"4","last_reported":1700813366,"current_range_meters":0,"station_id":"ce4bhr92rcd13ifvqhrg","pricing_plan_id":"free"},{"bike_id":"57718bac-76b9-4c7c-8fb9-a626558b8870","system_id":"levelo_inurba_marseille","lat":43.29783,"lon":5.393401,"is_reserved":false,"is_disabled":false,"rental_uris":{"android":"levelo://app?vid=57718bac-76b9-4c7c-8fb9-a626558b8870","ios":"levelo://app?vid=57718bac-76b9-4c7c-8fb9-a626558b8870"},"vehicle_type_id":"4","last_reported":1700813366,"current_range_meters":9600,"station_id":"chh1huq6cuj3fo74tm60","pricing_plan_id":"free"},{"bike_id":"00f06c00-d9de-4e59-8408-fed3b9c2d8e4","system_id":"levelo_inurba_marseille","lat":43.28844,"lon":5.35849,"is_reserved":false,"is_disabled":false,"rental_uris":{"android":"levelo://app?vid=00f06c00-d9de-4e59-8408-fed3b9c2d8e4","ios":"levelo://app?vid=00f06c00-d9de-4e59-8408-fed3b9c2d8e4"},"vehicle_type_id":"4","last_reported":1700813366,"current_range_meters":0,"station_id":"ce4bhb12rcd13ifvqem0","pricing_plan_id":"free"},{"bike_id":"b7373e59-33e3-43c9-8180-06f363ceeee0","system_id":"levelo_inurba_marseille","lat":43.29033,"lon":5.38647,"is_reserved":false,"is_disabled":false,"rental_uris":{"android":"levelo://app?vid=b7373e59-33e3-43c9-8180-06f363ceeee0","ios":"levelo://app?vid=b7373e59-33e3-43c9-8180-06f363ceeee0"},"vehicle_type_id":"4","last_reported":1700813366,"current_range_meters":20800,"station_id":"ce4bh4p2rcd13ifvqe0g","pricing_plan_id":"free"},{"bike_id":"68f23eed-37ac-4cea-ab31-6e5fbb16356d","system_id":"levelo_inurba_marseille","lat":43.2903,"lon":5.38648,"is_reserved":false,"is_disabled":false,"rental_uris":{"android":"levelo://app?vid=68f23eed-37ac-4cea-ab31-6e5fbb16356d","ios":"levelo://app?vid=68f23eed-37ac-4cea-ab31-6e5fbb16356d"},"vehicle_type_id":"4","last_reported":1700813366,"current_range_meters":9600,"station_id":"ce4bh4p2rcd13ifvqe0g","pricing_plan_id":"free"},{"bike_id":"500460b2-be1b-4e74-b14d-18f3f5322c1b","system_id":"levelo_inurba_marseille","lat":43.29027,"lon":5.38644,"is_reserved":false,"is_disabled":false,"rental_uris":{"android":"levelo://app?vid=500460b2-be1b-4e74-b14d-18f3f5322c1b","ios":"levelo://app?vid=500460b2-be1b-4e74-b14d-18f3f5322c1b"},"vehicle_type_id":"4","last_reported":1700813366,"current_range_meters":21600,"station_id":"ce4bh4p2rcd13ifvqe0g","pricing_plan_id":"free"},{"bike_id":"212428ce-d30a-4c39-8a24-7f442d19cec5","system_id":"levelo_inurba_marseille","lat":43.287185,"lon":5.379373,"is_reserved":false,"is_disabled":false,"rental_uris":{"android":"levelo://app?vid=212428ce-d30a-4c39-8a24-7f442d19cec5","ios":"levelo://app?vid=212428ce-d30a-4c39-8a24-7f442d19cec5"},"vehicle_type_id":"4","last_reported":1700813366,"current_range_meters":24400,"station_id":"ce4bh9p2rcd13ifvqec0","pricing_plan_id":"free"},{"bike_id":"bd2162a3-96f0-4ebc-8c4f-811e97e3b536","system_id":"levelo_inurba_marseille","lat":43.287184,"lon":5.37937,"is_reserved":false,"is_disabled":false,"rental_uris":{"android":"levelo://app?vid=bd2162a3-96f0-4ebc-8c4f-811e97e3b536","ios":"levelo://app?vid=bd2162a3-96f0-4ebc-8c4f-811e97e3b536"},"vehicle_type_id":"4","last_reported":1700813366,"current_range_meters":2800,"station_id":"ce4bh9p2rcd13ifvqec0","pricing_plan_id":"free"},{"bike_id":"f0cae586-73af-44da-a622-dd8dac89c057","system_id":"levelo_inurba_marseille","lat":43.287184,"lon":5.37937,"is_reserved":false,"is_disabled":false,"rental_uris":{"android":"levelo://app?vid=f0cae586-73af-44da-a622-dd8dac89c057","ios":"levelo://app?vid=f0cae586-73af-44da-a622-dd8dac89c057"},"vehicle_type_id":"4","last_reported":1700813366,"current_range_meters":14800,"station_id":"ce4bh9p2rcd13ifvqec0","pricing_plan_id":"free"},{"bike_id":"4ecd3fe3-1c5f-4b96-8235-e687c9412893","system_id":"levelo_inurba_marseille","lat":43.316517,"lon":5.404375,"is_reserved":false,"is_disabled":false,"rental_uris":{"android":"levelo://app?vid=4ecd3fe3-1c5f-4b96-8235-e687c9412893","ios":"levelo://app?vid=4ecd3fe3-1c5f-4b96-8235-e687c9412893"},"vehicle_type_id":"4","last_reported":1700813366,"current_range_meters":29600,"station_id":"ce4bh012rcd13ifvqd00","pricing_plan_id":"free"},{"bike_id":"039b05b6-a3f0-4e23-80b3-727097c47fb1","system_id":"levelo_inurba_marseille","lat":43.284104,"lon":5.375007,"is_reserved":false,"is_disabled":false,"rental_uris":{"android":"levelo://app?vid=039b05b6-a3f0-4e23-80b3-727097c47fb1","ios":"levelo://app?vid=039b05b6-a3f0-4e23-80b3-727097c47fb1"},"vehicle_type_id":"4","last_reported":1700813366,"current_range_meters":24800,"station_id":"","pricing_plan_id":"free"},{"bike_id":"0fc449a4-d365-430e-b0fa-32368ba65ccd","system_id":"levelo_inurba_marseille","lat":43.31901,"lon":5.40746,"is_reserved":false,"is_disabled":false,"rental_uris":{"android":"levelo://app?vid=0fc449a4-d365-430e-b0fa-32368ba65ccd","ios":"levelo://app?vid=0fc449a4-d365-430e-b0fa-32368ba65ccd"},"vehicle_type_id":"4","last_reported":1700813366,"current_range_meters":11600,"station_id":"ce4bhq12rcd13ifvqhig","pricing_plan_id":"free"},{"bike_id":"51ab13c2-ceec-401b-abca-7c1d566b0af3","system_id":"levelo_inurba_marseille","lat":43.288501,"lon":5.393087,"is_reserved":false,"is_disabled":false,"rental_uris":{"android":"levelo://app?vid=51ab13c2-ceec-401b-abca-7c1d566b0af3","ios":"levelo://app?vid=51ab13c2-ceec-401b-abca-7c1d566b0af3"},"vehicle_type_id":"4","last_reported":1700813366,"current_range_meters":17200,"station_id":"ce4bh2p2rcd13ifvqdi0","pricing_plan_id":"free"},{"bike_id":"cac16a79-b2f2-408d-9f6b-c190b0364f02","system_id":"levelo_inurba_marseille","lat":43.28355,"lon":5.38114,"is_reserved":false,"is_disabled":false,"rental_uris":{"android":"levelo://app?vid=cac16a79-b2f2-408d-9f6b-c190b0364f02","ios":"levelo://app?vid=cac16a79-b2f2-408d-9f6b-c190b0364f02"},"vehicle_type_id":"4","last_reported":1700813366,"current_range_meters":0,"station_id":"ce4bh412rcd13ifvqdr0","pricing_plan_id":"free"},{"bike_id":"86d22183-fb04-4ff5-af72-837426252e59","system_id":"levelo_inurba_marseille","lat":43.283498,"lon":5.380948,"is_reserved":false,"is_disabled":false,"rental_uris":{"android":"levelo://app?vid=86d22183-fb04-4ff5-af72-837426252e59","ios":"levelo://app?vid=86d22183-fb04-4ff5-af72-837426252e59"},"vehicle_type_id":"4","last_reported":1700813366,"current_range_meters":15600,"station_id":"ce4bh412rcd13ifvqdr0","pricing_plan_id":"free"},{"bike_id":"e2284003-4e46-4e0a-93e7-73d05c3666d9","system_id":"levelo_inurba_marseille","lat":43.33479,"lon":5.39788,"is_reserved":false,"is_disabled":false,"rental_uris":{"android":"levelo://app?vid=e2284003-4e46-4e0a-93e7-73d05c3666d9","ios":"levelo://app?vid=e2284003-4e46-4e0a-93e7-73d05c3666d9"},"vehicle_type_id":"4","last_reported":1700813366,"current_range_meters":25600,"station_id":"","pricing_plan_id":"free"},{"bike_id":"6f87bdf9-99cb-4a34-9283-5fce79e9ad6e","system_id":"levelo_inurba_marseille","lat":43.289363,"lon":5.396322,"is_reserved":false,"is_disabled":false,"rental_uris":{"android":"levelo://app?vid=6f87bdf9-99cb-4a34-9283-5fce79e9ad6e","ios":"levelo://app?vid=6f87bdf9-99cb-4a34-9283-5fce79e9ad6e"},"vehicle_type_id":"4","last_reported":1700813366,"current_range_meters":25200,"station_id":"ce4bh3h2rcd13ifvqdn0","pricing_plan_id":"free"},{"bike_id":"b4bc6c19-20e6-4b1e-b989-40d4ba171e93","system_id":"levelo_inurba_marseille","lat":43.335276,"lon":5.397563,"is_reserved":false,"is_disabled":false,"rental_uris":{"android":"levelo://app?vid=b4bc6c19-20e6-4b1e-b989-40d4ba171e93","ios":"levelo://app?vid=b4bc6c19-20e6-4b1e-b989-40d4ba171e93"},"vehicle_type_id":"4","last_reported":1700813366,"current_range_meters":6400,"station_id":"","pricing_plan_id":"free"},{"bike_id":"fc231c5f-d015-44c9-bf62-cb4400e16e74","system_id":"levelo_inurba_marseille","lat":43.29178,"lon":5.40008,"is_reserved":false,"is_disabled":false,"rental_uris":{"android":"levelo://app?vid=fc231c5f-d015-44c9-bf62-cb4400e16e74","ios":"levelo://app?vid=fc231c5f-d015-44c9-bf62-cb4400e16e74"},"vehicle_type_id":"4","last_reported":1700813366,"current_range_meters":7200,"station_id":"","pricing_plan_id":"free"},{"bike_id":"cc597062-c2b3-4454-ae2d-de2a596ef936","system_id":"levelo_inurba_marseille","lat":43.29126,"lon":5.3997,"is_reserved":false,"is_disabled":false,"rental_uris":{"android":"levelo://app?vid=cc597062-c2b3-4454-ae2d-de2a596ef936","ios":"levelo://app?vid=cc597062-c2b3-4454-ae2d-de2a596ef936"},"vehicle_type_id":"4","last_reported":1700813366,"current_range_meters":11600,"station_id":"","pricing_plan_id":"free"},{"bike_id":"11128761-6914-49db-a417-29528d7b7f60","system_id":"levelo_inurba_marseille","lat":43.282754,"lon":5.350519,"is_reserved":false,"is_disabled":false,"rental_uris":{"android":"levelo://app?vid=11128761-6914-49db-a417-29528d7b7f60","ios":"levelo://app?vid=11128761-6914-49db-a417-29528d7b7f60"},"vehicle_type_id":"4","last_reported":1700813366,"current_range_meters":13200,"station_id":"ce4bhbp2rcd13ifvqerg","pricing_plan_id":"free"},{"bike_id":"9dc06acf-6924-47bd-86e5-6a89e48fc859","system_id":"levelo_inurba_marseille","lat":43.283502,"lon":5.386471,"is_reserved":false,"is_disabled":false,"rental_uris":{"android":"levelo://app?vid=9dc06acf-6924-47bd-86e5-6a89e48fc859","ios":"levelo://app?vid=9dc06acf-6924-47bd-86e5-6a89e48fc859"},"vehicle_type_id":"4","last_reported":1700813366,"current_range_meters":7200,"station_id":"ce4bh492rcd13ifvqdvg","pricing_plan_id":"free"},{"bike_id":"8f8a7ff0-633b-4d19-894d-fcd2b7006d8f","system_id":"levelo_inurba_marseille","lat":43.290412,"lon":5.399633,"is_reserved":false,"is_disabled":false,"rental_uris":{"android":"levelo://app?vid=8f8a7ff0-633b-4d19-894d-fcd2b7006d8f","ios":"levelo://app?vid=8f8a7ff0-633b-4d19-894d-fcd2b7006d8f"},"vehicle_type_id":"4","last_reported":1700813366,"current_range_meters":6400,"station_id":"ce4bh392rcd13ifvqdm0","pricing_plan_id":"free"},{"bike_id":"54de3520-1cef-4d6e-ba35-6e871969aa06","system_id":"levelo_inurba_marseille","lat":43.29041,"lon":5.399634,"is_reserved":false,"is_disabled":false,"rental_uris":{"android":"levelo://app?vid=54de3520-1cef-4d6e-ba35-6e871969aa06","ios":"levelo://app?vid=54de3520-1cef-4d6e-ba35-6e871969aa06"},"vehicle_type_id":"4","last_reported":1700813366,"current_range_meters":27200,"station_id":"ce4bh392rcd13ifvqdm0","pricing_plan_id":"free"},{"bike_id":"43239748-22ac-4130-8062-e6597a1dd43a","system_id":"levelo_inurba_marseille","lat":43.29041,"lon":5.399634,"is_reserved":false,"is_disabled":false,"rental_uris":{"android":"levelo://app?vid=43239748-22ac-4130-8062-e6597a1dd43a","ios":"levelo://app?vid=43239748-22ac-4130-8062-e6597a1dd43a"},"vehicle_type_id":"4","last_reported":1700813366,"current_range_meters":24000,"station_id":"ce4bh392rcd13ifvqdm0","pricing_plan_id":"free"},{"bike_id":"5de45e7e-42bc-4fd8-9d52-80f700812aa8","system_id":"levelo_inurba_marseille","lat":43.326605,"lon":5.409903,"is_reserved":false,"is_disabled":false,"rental_uris":{"android":"levelo://app?vid=5de45e7e-42bc-4fd8-9d52-80f700812aa8","ios":"levelo://app?vid=5de45e7e-42bc-4fd8-9d52-80f700812aa8"},"vehicle_type_id":"4","last_reported":1700813366,"current_range_meters":19600,"station_id":"ce4bhpp2rcd13ifvqhgg","pricing_plan_id":"free"},{"bike_id":"e8997d84-e9e0-4aaa-a76a-c6d2af7271c7","system_id":"levelo_inurba_marseille","lat":43.298799,"lon":5.410316,"is_reserved":false,"is_disabled":false,"rental_uris":{"android":"levelo://app?vid=e8997d84-e9e0-4aaa-a76a-c6d2af7271c7","ios":"levelo://app?vid=e8997d84-e9e0-4aaa-a76a-c6d2af7271c7"},"vehicle_type_id":"4","last_reported":1700813366,"current_range_meters":800,"station_id":"","pricing_plan_id":"free"},{"bike_id":"40a4fae4-cbf7-4d53-9ba7-a3200f8f11a8","system_id":"levelo_inurba_marseille","lat":43.279742,"lon":5.38744,"is_reserved":false,"is_disabled":false,"rental_uris":{"android":"levelo://app?vid=40a4fae4-cbf7-4d53-9ba7-a3200f8f11a8","ios":"levelo://app?vid=40a4fae4-cbf7-4d53-9ba7-a3200f8f11a8"},"vehicle_type_id":"4","last_reported":1700813366,"current_range_meters":17200,"station_id":"ce4bhg12rcd13ifvqf80","pricing_plan_id":"free"},{"bike_id":"1c9cddba-fc2a-425c-83b0-a979a93363e0","system_id":"levelo_inurba_marseille","lat":43.279742,"lon":5.38744,"is_reserved":false,"is_disabled":false,"rental_uris":{"android":"levelo://app?vid=1c9cddba-fc2a-425c-83b0-a979a93363e0","ios":"levelo://app?vid=1c9cddba-fc2a-425c-83b0-a979a93363e0"},"vehicle_type_id":"4","last_reported":1700813366,"current_range_meters":12800,"station_id":"ce4bhg12rcd13ifvqf80","pricing_plan_id":"free"},{"bike_id":"a76f9693-87a9-46e0-8d6f-53150f454b87","system_id":"levelo_inurba_marseille","lat":43.279742,"lon":5.38744,"is_reserved":false,"is_disabled":false,"rental_uris":{"android":"levelo://app?vid=a76f9693-87a9-46e0-8d6f-53150f454b87","ios":"levelo://app?vid=a76f9693-87a9-46e0-8d6f-53150f454b87"},"vehicle_type_id":"4","last_reported":1700813366,"current_range_meters":22400,"station_id":"ce4bhg12rcd13ifvqf80","pricing_plan_id":"free"},{"bike_id":"a8e2b52b-9ba9-4b70-bcb4-1e1ad46ab6fe","system_id":"levelo_inurba_marseille","lat":43.29937,"lon":5.41327,"is_reserved":false,"is_disabled":false,"rental_uris":{"android":"levelo://app?vid=a8e2b52b-9ba9-4b70-bcb4-1e1ad46ab6fe","ios":"levelo://app?vid=a8e2b52b-9ba9-4b70-bcb4-1e1ad46ab6fe"},"vehicle_type_id":"4","last_reported":1700813366,"current_range_meters":28000,"station_id":"ce4bhp12rcd13ifvqh9g","pricing_plan_id":"free"},{"bike_id":"ebaf918f-038c-4bff-9443-0ff0553128c6","system_id":"levelo_inurba_marseille","lat":43.279742,"lon":5.38744,"is_reserved":false,"is_disabled":false,"rental_uris":{"android":"levelo://app?vid=ebaf918f-038c-4bff-9443-0ff0553128c6","ios":"levelo://app?vid=ebaf918f-038c-4bff-9443-0ff0553128c6"},"vehicle_type_id":"4","last_reported":1700813366,"current_range_meters":18800,"station_id":"ce4bhg12rcd13ifvqf80","pricing_plan_id":"free"},{"bike_id":"a954200a-e694-4ead-9ad3-420e90b99780","system_id":"levelo_inurba_marseille","lat":43.29252,"lon":5.40908,"is_reserved":false,"is_disabled":false,"rental_uris":{"android":"levelo://app?vid=a954200a-e694-4ead-9ad3-420e90b99780","ios":"levelo://app?vid=a954200a-e694-4ead-9ad3-420e90b99780"},"vehicle_type_id":"4","last_reported":1700813366,"current_range_meters":0,"station_id":"ce4bh192rcd13ifvqdc0","pricing_plan_id":"free"},{"bike_id":"380bea03-66b9-494a-9d3c-ad0da1c35a22","system_id":"levelo_inurba_marseille","lat":43.29367,"lon":5.412604,"is_reserved":false,"is_disabled":false,"rental_uris":{"android":"levelo://app?vid=380bea03-66b9-494a-9d3c-ad0da1c35a22","ios":"levelo://app?vid=380bea03-66b9-494a-9d3c-ad0da1c35a22"},"vehicle_type_id":"4","last_reported":1700813366,"current_range_meters":0,"station_id":"","pricing_plan_id":"free"},{"bike_id":"df1b074b-8a41-42e6-afe2-2ad135f82612","system_id":"levelo_inurba_marseille","lat":43.278401,"lon":5.392152,"is_reserved":false,"is_disabled":false,"rental_uris":{"android":"levelo://app?vid=df1b074b-8a41-42e6-afe2-2ad135f82612","ios":"levelo://app?vid=df1b074b-8a41-42e6-afe2-2ad135f82612"},"vehicle_type_id":"4","last_reported":1700813366,"current_range_meters":20400,"station_id":"ce4bhjp2rcd13ifvqga0","pricing_plan_id":"free"},{"bike_id":"9a8f26ec-f183-465f-9363-2c44d4d80177","system_id":"levelo_inurba_marseille","lat":43.33612,"lon":5.410321,"is_reserved":false,"is_disabled":false,"rental_uris":{"android":"levelo://app?vid=9a8f26ec-f183-465f-9363-2c44d4d80177","ios":"levelo://app?vid=9a8f26ec-f183-465f-9363-2c44d4d80177"},"vehicle_type_id":"4","last_reported":1700813366,"current_range_meters":26800,"station_id":"ce4bhqh2rcd13ifvqhmg","pricing_plan_id":"free"},{"bike_id":"7302e833-b74e-4d7c-a973-5c04354dcbe1","system_id":"levelo_inurba_marseille","lat":43.33612,"lon":5.410321,"is_reserved":false,"is_disabled":false,"rental_uris":{"android":"levelo://app?vid=7302e833-b74e-4d7c-a973-5c04354dcbe1","ios":"levelo://app?vid=7302e833-b74e-4d7c-a973-5c04354dcbe1"},"vehicle_type_id":"4","last_reported":1700813366,"current_range_meters":18800,"station_id":"ce4bhqh2rcd13ifvqhmg","pricing_plan_id":"free"},{"bike_id":"3cc89bf6-2a81-470b-bdc0-e31850cc08a7","system_id":"levelo_inurba_marseille","lat":43.33612,"lon":5.410321,"is_reserved":false,"is_disabled":false,"rental_uris":{"android":"levelo://app?vid=3cc89bf6-2a81-470b-bdc0-e31850cc08a7","ios":"levelo://app?vid=3cc89bf6-2a81-470b-bdc0-e31850cc08a7"},"vehicle_type_id":"4","last_reported":1700813366,"current_range_meters":18800,"station_id":"ce4bhqh2rcd13ifvqhmg","pricing_plan_id":"free"},{"bike_id":"81238b9e-b8d9-4a83-b963-933f305bd46d","system_id":"levelo_inurba_marseille","lat":43.336148,"lon":5.410349,"is_reserved":false,"is_disabled":false,"rental_uris":{"android":"levelo://app?vid=81238b9e-b8d9-4a83-b963-933f305bd46d","ios":"levelo://app?vid=81238b9e-b8d9-4a83-b963-933f305bd46d"},"vehicle_type_id":"4","last_reported":1700813366,"current_range_meters":4000,"station_id":"ce4bhqh2rcd13ifvqhmg","pricing_plan_id":"free"},{"bike_id":"99cdfccc-b6d1-4d42-a20b-b719e8222b3e","system_id":"levelo_inurba_marseille","lat":43.33612,"lon":5.410321,"is_reserved":false,"is_disabled":false,"rental_uris":{"android":"levelo://app?vid=99cdfccc-b6d1-4d42-a20b-b719e8222b3e","ios":"levelo://app?vid=99cdfccc-b6d1-4d42-a20b-b719e8222b3e"},"vehicle_type_id":"4","last_reported":1700813366,"current_range_meters":29200,"station_id":"ce4bhqh2rcd13ifvqhmg","pricing_plan_id":"free"},{"bike_id":"d1635978-d3be-4e6b-ac91-48deafb06b1b","system_id":"levelo_inurba_marseille","lat":43.276771,"lon":5.388799,"is_reserved":false,"is_disabled":false,"rental_uris":{"android":"levelo://app?vid=d1635978-d3be-4e6b-ac91-48deafb06b1b","ios":"levelo://app?vid=d1635978-d3be-4e6b-ac91-48deafb06b1b"},"vehicle_type_id":"4","last_reported":1700813366,"current_range_meters":26400,"station_id":"ce4bhi12rcd13ifvqfo0","pricing_plan_id":"free"},{"bike_id":"052cba5a-1cbf-4bdf-b154-378643cd8888","system_id":"levelo_inurba_marseille","lat":43.276769,"lon":5.388787,"is_reserved":false,"is_disabled":false,"rental_uris":{"android":"levelo://app?vid=052cba5a-1cbf-4bdf-b154-378643cd8888","ios":"levelo://app?vid=052cba5a-1cbf-4bdf-b154-378643cd8888"},"vehicle_type_id":"4","last_reported":1700813366,"current_range_meters":25600,"station_id":"ce4bhi12rcd13ifvqfo0","pricing_plan_id":"free"},{"bike_id":"5324d027-383c-406f-a501-89fe9526a77a","system_id":"levelo_inurba_marseille","lat":43.276769,"lon":5.388787,"is_reserved":false,"is_disabled":false,"rental_uris":{"android":"levelo://app?vid=5324d027-383c-406f-a501-89fe9526a77a","ios":"levelo://app?vid=5324d027-383c-406f-a501-89fe9526a77a"},"vehicle_type_id":"4","last_reported":1700813366,"current_range_meters":21600,"station_id":"ce4bhi12rcd13ifvqfo0","pricing_plan_id":"free"},{"bike_id":"fc8a50fc-7fb9-4b58-ae5e-3658ebaf4b71","system_id":"levelo_inurba_marseille","lat":43.34185,"lon":5.40619,"is_reserved":false,"is_disabled":false,"rental_uris":{"android":"levelo://app?vid=fc8a50fc-7fb9-4b58-ae5e-3658ebaf4b71","ios":"levelo://app?vid=fc8a50fc-7fb9-4b58-ae5e-3658ebaf4b71"},"vehicle_type_id":"4","last_reported":1700813366,"current_range_meters":7600,"station_id":"","pricing_plan_id":"free"},{"bike_id":"956da717-90df-4ce3-a679-0013338aba66","system_id":"levelo_inurba_marseille","lat":43.310785,"lon":5.424305,"is_reserved":false,"is_disabled":false,"rental_uris":{"android":"levelo://app?vid=956da717-90df-4ce3-a679-0013338aba66","ios":"levelo://app?vid=956da717-90df-4ce3-a679-0013338aba66"},"vehicle_type_id":"4","last_reported":1700813366,"current_range_meters":28000,"station_id":"ce4bhp92rcd13ifvqhag","pricing_plan_id":"free"},{"bike_id":"ee3353de-ad16-41b2-900b-c0d5b5e68caf","system_id":"levelo_inurba_marseille","lat":43.340804,"lon":5.410219,"is_reserved":false,"is_disabled":false,"rental_uris":{"android":"levelo://app?vid=ee3353de-ad16-41b2-900b-c0d5b5e68caf","ios":"levelo://app?vid=ee3353de-ad16-41b2-900b-c0d5b5e68caf"},"vehicle_type_id":"4","last_reported":1700813366,"current_range_meters":30800,"station_id":"ce4bhqh2rcd13ifvqhlg","pricing_plan_id":"free"},{"bike_id":"f6d19d1b-693b-4963-ba5a-4b930cec88fd","system_id":"levelo_inurba_marseille","lat":43.340804,"lon":5.410219,"is_reserved":false,"is_disabled":false,"rental_uris":{"android":"levelo://app?vid=f6d19d1b-693b-4963-ba5a-4b930cec88fd","ios":"levelo://app?vid=f6d19d1b-693b-4963-ba5a-4b930cec88fd"},"vehicle_type_id":"4","last_reported":1700813366,"current_range_meters":30800,"station_id":"ce4bhqh2rcd13ifvqhlg","pricing_plan_id":"free"},{"bike_id":"a2d72a8f-bcbc-4ffb-bb39-fd9c74af990e","system_id":"levelo_inurba_marseille","lat":43.340804,"lon":5.410219,"is_reserved":false,"is_disabled":false,"rental_uris":{"android":"levelo://app?vid=a2d72a8f-bcbc-4ffb-bb39-fd9c74af990e","ios":"levelo://app?vid=a2d72a8f-bcbc-4ffb-bb39-fd9c74af990e"},"vehicle_type_id":"4","last_reported":1700813366,"current_range_meters":17600,"station_id":"ce4bhqh2rcd13ifvqhlg","pricing_plan_id":"free"},{"bike_id":"784eedf8-1ff9-494d-91cc-6d6e4e868912","system_id":"levelo_inurba_marseille","lat":43.340804,"lon":5.410219,"is_reserved":false,"is_disabled":false,"rental_uris":{"android":"levelo://app?vid=784eedf8-1ff9-494d-91cc-6d6e4e868912","ios":"levelo://app?vid=784eedf8-1ff9-494d-91cc-6d6e4e868912"},"vehicle_type_id":"4","last_reported":1700813366,"current_range_meters":24400,"station_id":"ce4bhqh2rcd13ifvqhlg","pricing_plan_id":"free"},{"bike_id":"8cf32a11-a7f1-4b41-a589-35b58f8d38f6","system_id":"levelo_inurba_marseille","lat":43.340804,"lon":5.410219,"is_reserved":false,"is_disabled":false,"rental_uris":{"android":"levelo://app?vid=8cf32a11-a7f1-4b41-a589-35b58f8d38f6","ios":"levelo://app?vid=8cf32a11-a7f1-4b41-a589-35b58f8d38f6"},"vehicle_type_id":"4","last_reported":1700813366,"current_range_meters":19600,"station_id":"ce4bhqh2rcd13ifvqhlg","pricing_plan_id":"free"},{"bike_id":"48565e36-de67-4c6a-8337-460138cf3900","system_id":"levelo_inurba_marseille","lat":43.340804,"lon":5.410219,"is_reserved":false,"is_disabled":false,"rental_uris":{"android":"levelo://app?vid=48565e36-de67-4c6a-8337-460138cf3900","ios":"levelo://app?vid=48565e36-de67-4c6a-8337-460138cf3900"},"vehicle_type_id":"4","last_reported":1700813366,"current_range_meters":13600,"station_id":"ce4bhqh2rcd13ifvqhlg","pricing_plan_id":"free"},{"bike_id":"422eaa23-7465-45a6-8f34-ef03bb0d0a13","system_id":"levelo_inurba_marseille","lat":43.340804,"lon":5.410219,"is_reserved":false,"is_disabled":false,"rental_uris":{"android":"levelo://app?vid=422eaa23-7465-45a6-8f34-ef03bb0d0a13","ios":"levelo://app?vid=422eaa23-7465-45a6-8f34-ef03bb0d0a13"},"vehicle_type_id":"4","last_reported":1700813366,"current_range_meters":24400,"station_id":"ce4bhqh2rcd13ifvqhlg","pricing_plan_id":"free"},{"bike_id":"e0251fd8-4e40-4ecc-8379-605029ccde6c","system_id":"levelo_inurba_marseille","lat":43.340804,"lon":5.410219,"is_reserved":false,"is_disabled":false,"rental_uris":{"android":"levelo://app?vid=e0251fd8-4e40-4ecc-8379-605029ccde6c","ios":"levelo://app?vid=e0251fd8-4e40-4ecc-8379-605029ccde6c"},"vehicle_type_id":"4","last_reported":1700813366,"current_range_meters":16400,"station_id":"ce4bhqh2rcd13ifvqhlg","pricing_plan_id":"free"},{"bike_id":"04c48993-d044-41c4-9cb8-117723655329","system_id":"levelo_inurba_marseille","lat":43.340804,"lon":5.410219,"is_reserved":false,"is_disabled":false,"rental_uris":{"android":"levelo://app?vid=04c48993-d044-41c4-9cb8-117723655329","ios":"levelo://app?vid=04c48993-d044-41c4-9cb8-117723655329"},"vehicle_type_id":"4","last_reported":1700813366,"current_range_meters":20000,"station_id":"ce4bhqh2rcd13ifvqhlg","pricing_plan_id":"free"},{"bike_id":"8e4053a5-c9e1-4cda-bd78-8c66eae6e10c","system_id":"levelo_inurba_marseille","lat":43.273125,"lon":5.390731,"is_reserved":false,"is_disabled":false,"rental_uris":{"android":"levelo://app?vid=8e4053a5-c9e1-4cda-bd78-8c66eae6e10c","ios":"levelo://app?vid=8e4053a5-c9e1-4cda-bd78-8c66eae6e10c"},"vehicle_type_id":"4","last_reported":1700813366,"current_range_meters":19200,"station_id":"ce4bhgp2rcd13ifvqfe0","pricing_plan_id":"free"},{"bike_id":"81fe877c-20ac-4f99-b9d8-660050a701b9","system_id":"levelo_inurba_marseille","lat":43.273125,"lon":5.390731,"is_reserved":false,"is_disabled":false,"rental_uris":{"android":"levelo://app?vid=81fe877c-20ac-4f99-b9d8-660050a701b9","ios":"levelo://app?vid=81fe877c-20ac-4f99-b9d8-660050a701b9"},"vehicle_type_id":"4","last_reported":1700813366,"current_range_meters":29200,"station_id":"ce4bhgp2rcd13ifvqfe0","pricing_plan_id":"free"},{"bike_id":"78645e51-b018-40f5-862f-c81680bb2bd9","system_id":"levelo_inurba_marseille","lat":43.274103,"lon":5.394016,"is_reserved":false,"is_disabled":false,"rental_uris":{"android":"levelo://app?vid=78645e51-b018-40f5-862f-c81680bb2bd9","ios":"levelo://app?vid=78645e51-b018-40f5-862f-c81680bb2bd9"},"vehicle_type_id":"4","last_reported":1700813366,"current_range_meters":28800,"station_id":"ce4bhdp2rcd13ifvqf20","pricing_plan_id":"free"},{"bike_id":"1a79a1c2-d8c9-4322-8979-3c8200a45a4f","system_id":"levelo_inurba_marseille","lat":43.273125,"lon":5.390731,"is_reserved":false,"is_disabled":false,"rental_uris":{"android":"levelo://app?vid=1a79a1c2-d8c9-4322-8979-3c8200a45a4f","ios":"levelo://app?vid=1a79a1c2-d8c9-4322-8979-3c8200a45a4f"},"vehicle_type_id":"4","last_reported":1700813366,"current_range_meters":30800,"station_id":"ce4bhgp2rcd13ifvqfe0","pricing_plan_id":"free"},{"bike_id":"3b32c6b9-90e6-4887-ac49-65fb0d7d7a9e","system_id":"levelo_inurba_marseille","lat":43.273129,"lon":5.390725,"is_reserved":false,"is_disabled":false,"rental_uris":{"android":"levelo://app?vid=3b32c6b9-90e6-4887-ac49-65fb0d7d7a9e","ios":"levelo://app?vid=3b32c6b9-90e6-4887-ac49-65fb0d7d7a9e"},"vehicle_type_id":"4","last_reported":1700813366,"current_range_meters":24400,"station_id":"ce4bhgp2rcd13ifvqfe0","pricing_plan_id":"free"},{"bike_id":"d6eba79b-1c9d-47d0-85bb-25176f38acb6","system_id":"levelo_inurba_marseille","lat":43.274103,"lon":5.394016,"is_reserved":false,"is_disabled":false,"rental_uris":{"android":"levelo://app?vid=d6eba79b-1c9d-47d0-85bb-25176f38acb6","ios":"levelo://app?vid=d6eba79b-1c9d-47d0-85bb-25176f38acb6"},"vehicle_type_id":"4","last_reported":1700813366,"current_range_meters":19200,"station_id":"ce4bhdp2rcd13ifvqf20","pricing_plan_id":"free"},{"bike_id":"f81de44f-7c01-4de9-806e-35d8e8fbafd9","system_id":"levelo_inurba_marseille","lat":43.30415,"lon":5.42542,"is_reserved":false,"is_disabled":false,"rental_uris":{"android":"levelo://app?vid=f81de44f-7c01-4de9-806e-35d8e8fbafd9","ios":"levelo://app?vid=f81de44f-7c01-4de9-806e-35d8e8fbafd9"},"vehicle_type_id":"4","last_reported":1700813366,"current_range_meters":18400,"station_id":"ce4bhoh2rcd13ifvqh6g","pricing_plan_id":"free"},{"bike_id":"b044c956-5275-44de-9ec4-2b01ab2e08e5","system_id":"levelo_inurba_marseille","lat":43.295523,"lon":5.422926,"is_reserved":false,"is_disabled":false,"rental_uris":{"android":"levelo://app?vid=b044c956-5275-44de-9ec4-2b01ab2e08e5","ios":"levelo://app?vid=b044c956-5275-44de-9ec4-2b01ab2e08e5"},"vehicle_type_id":"4","last_reported":1700813366,"current_range_meters":26800,"station_id":"ce4bhph2rcd13ifvqhdg","pricing_plan_id":"free"},{"bike_id":"6dd6cc3c-d873-42bf-9d1d-0909f06c563e","system_id":"levelo_inurba_marseille","lat":43.295523,"lon":5.422926,"is_reserved":false,"is_disabled":false,"rental_uris":{"android":"levelo://app?vid=6dd6cc3c-d873-42bf-9d1d-0909f06c563e","ios":"levelo://app?vid=6dd6cc3c-d873-42bf-9d1d-0909f06c563e"},"vehicle_type_id":"4","last_reported":1700813366,"current_range_meters":5600,"station_id":"ce4bhph2rcd13ifvqhdg","pricing_plan_id":"free"},{"bike_id":"ea47dfeb-90c4-48e6-8e4a-ba9ba2d47305","system_id":"levelo_inurba_marseille","lat":43.272124,"lon":5.391768,"is_reserved":false,"is_disabled":false,"rental_uris":{"android":"levelo://app?vid=ea47dfeb-90c4-48e6-8e4a-ba9ba2d47305","ios":"levelo://app?vid=ea47dfeb-90c4-48e6-8e4a-ba9ba2d47305"},"vehicle_type_id":"4","last_reported":1700813366,"current_range_meters":12000,"station_id":"ce4bhhp2rcd13ifvqfm0","pricing_plan_id":"free"},{"bike_id":"2b022ff2-8716-4afa-a6b1-d7816a956d94","system_id":"levelo_inurba_marseille","lat":43.2721,"lon":5.39172,"is_reserved":false,"is_disabled":false,"rental_uris":{"android":"levelo://app?vid=2b022ff2-8716-4afa-a6b1-d7816a956d94","ios":"levelo://app?vid=2b022ff2-8716-4afa-a6b1-d7816a956d94"},"vehicle_type_id":"4","last_reported":1700813366,"current_range_meters":1200,"station_id":"ce4bhhp2rcd13ifvqfm0","pricing_plan_id":"free"},{"bike_id":"af9cca84-d962-49e4-b1bf-b81e8241a8e8","system_id":"levelo_inurba_marseille","lat":43.27211,"lon":5.39177,"is_reserved":false,"is_disabled":false,"rental_uris":{"android":"levelo://app?vid=af9cca84-d962-49e4-b1bf-b81e8241a8e8","ios":"levelo://app?vid=af9cca84-d962-49e4-b1bf-b81e8241a8e8"},"vehicle_type_id":"4","last_reported":1700813366,"current_range_meters":18400,"station_id":"ce4bhhp2rcd13ifvqfm0","pricing_plan_id":"free"},{"bike_id":"959365cd-4d36-4918-bc96-3e1db69d5c66","system_id":"levelo_inurba_marseille","lat":43.272048,"lon":5.391903,"is_reserved":false,"is_disabled":false,"rental_uris":{"android":"levelo://app?vid=959365cd-4d36-4918-bc96-3e1db69d5c66","ios":"levelo://app?vid=959365cd-4d36-4918-bc96-3e1db69d5c66"},"vehicle_type_id":"4","last_reported":1700813366,"current_range_meters":17200,"station_id":"ce4bhhp2rcd13ifvqfm0","pricing_plan_id":"free"},{"bike_id":"48c1fbfb-e6c4-4c56-a75c-55416f8bb4c3","system_id":"levelo_inurba_marseille","lat":43.271883,"lon":5.393037,"is_reserved":false,"is_disabled":false,"rental_uris":{"android":"levelo://app?vid=48c1fbfb-e6c4-4c56-a75c-55416f8bb4c3","ios":"levelo://app?vid=48c1fbfb-e6c4-4c56-a75c-55416f8bb4c3"},"vehicle_type_id":"4","last_reported":1700813366,"current_range_meters":24800,"station_id":"","pricing_plan_id":"free"},{"bike_id":"30a3118b-b8f9-4fc1-98b6-e119d9ea32a9","system_id":"levelo_inurba_marseille","lat":43.27811,"lon":5.40711,"is_reserved":false,"is_disabled":false,"rental_uris":{"android":"levelo://app?vid=30a3118b-b8f9-4fc1-98b6-e119d9ea32a9","ios":"levelo://app?vid=30a3118b-b8f9-4fc1-98b6-e119d9ea32a9"},"vehicle_type_id":"4","last_reported":1700813366,"current_range_meters":0,"station_id":"ce4bhnh2rcd13ifvqgtg","pricing_plan_id":"free"},{"bike_id":"e3917084-ac8b-4789-8960-08b14030da5d","system_id":"levelo_inurba_marseille","lat":43.269467,"lon":5.386439,"is_reserved":false,"is_disabled":false,"rental_uris":{"android":"levelo://app?vid=e3917084-ac8b-4789-8960-08b14030da5d","ios":"levelo://app?vid=e3917084-ac8b-4789-8960-08b14030da5d"},"vehicle_type_id":"4","last_reported":1700813366,"current_range_meters":29200,"station_id":"ce4bhh92rcd13ifvqfh0","pricing_plan_id":"free"},{"bike_id":"a198e1e9-aceb-4183-a0b7-90d5c30a65c3","system_id":"levelo_inurba_marseille","lat":43.269467,"lon":5.386439,"is_reserved":false,"is_disabled":false,"rental_uris":{"android":"levelo://app?vid=a198e1e9-aceb-4183-a0b7-90d5c30a65c3","ios":"levelo://app?vid=a198e1e9-aceb-4183-a0b7-90d5c30a65c3"},"vehicle_type_id":"4","last_reported":1700813366,"current_range_meters":26800,"station_id":"ce4bhh92rcd13ifvqfh0","pricing_plan_id":"free"},{"bike_id":"fb0cc95f-cb0b-4a61-8152-64aec83ba21d","system_id":"levelo_inurba_marseille","lat":43.269467,"lon":5.386439,"is_reserved":false,"is_disabled":false,"rental_uris":{"android":"levelo://app?vid=fb0cc95f-cb0b-4a61-8152-64aec83ba21d","ios":"levelo://app?vid=fb0cc95f-cb0b-4a61-8152-64aec83ba21d"},"vehicle_type_id":"4","last_reported":1700813366,"current_range_meters":16800,"station_id":"ce4bhh92rcd13ifvqfh0","pricing_plan_id":"free"},{"bike_id":"3f890ca1-7eba-46c6-b86b-b0f92424a267","system_id":"levelo_inurba_marseille","lat":43.269467,"lon":5.386439,"is_reserved":false,"is_disabled":false,"rental_uris":{"android":"levelo://app?vid=3f890ca1-7eba-46c6-b86b-b0f92424a267","ios":"levelo://app?vid=3f890ca1-7eba-46c6-b86b-b0f92424a267"},"vehicle_type_id":"4","last_reported":1700813366,"current_range_meters":16800,"station_id":"ce4bhh92rcd13ifvqfh0","pricing_plan_id":"free"},{"bike_id":"91cf7d6d-6a48-40d6-a390-a469feb9c050","system_id":"levelo_inurba_marseille","lat":43.269467,"lon":5.386439,"is_reserved":false,"is_disabled":false,"rental_uris":{"android":"levelo://app?vid=91cf7d6d-6a48-40d6-a390-a469feb9c050","ios":"levelo://app?vid=91cf7d6d-6a48-40d6-a390-a469feb9c050"},"vehicle_type_id":"4","last_reported":1700813366,"current_range_meters":8000,"station_id":"ce4bhh92rcd13ifvqfh0","pricing_plan_id":"free"},{"bike_id":"c00a7075-0c49-4d7a-8c3c-816c2fc5c06f","system_id":"levelo_inurba_marseille","lat":43.269467,"lon":5.386439,"is_reserved":false,"is_disabled":false,"rental_uris":{"android":"levelo://app?vid=c00a7075-0c49-4d7a-8c3c-816c2fc5c06f","ios":"levelo://app?vid=c00a7075-0c49-4d7a-8c3c-816c2fc5c06f"},"vehicle_type_id":"4","last_reported":1700813366,"current_range_meters":25600,"station_id":"ce4bhh92rcd13ifvqfh0","pricing_plan_id":"free"},{"bike_id":"ce35b53f-155d-419f-b34c-e438d2697016","system_id":"levelo_inurba_marseille","lat":43.269467,"lon":5.386439,"is_reserved":false,"is_disabled":false,"rental_uris":{"android":"levelo://app?vid=ce35b53f-155d-419f-b34c-e438d2697016","ios":"levelo://app?vid=ce35b53f-155d-419f-b34c-e438d2697016"},"vehicle_type_id":"4","last_reported":1700813366,"current_range_meters":26800,"station_id":"ce4bhh92rcd13ifvqfh0","pricing_plan_id":"free"},{"bike_id":"c9ac3473-4cdb-4cf1-9a12-26cab065a558","system_id":"levelo_inurba_marseille","lat":43.269467,"lon":5.386439,"is_reserved":false,"is_disabled":false,"rental_uris":{"android":"levelo://app?vid=c9ac3473-4cdb-4cf1-9a12-26cab065a558","ios":"levelo://app?vid=c9ac3473-4cdb-4cf1-9a12-26cab065a558"},"vehicle_type_id":"4","last_reported":1700813366,"current_range_meters":25600,"station_id":"ce4bhh92rcd13ifvqfh0","pricing_plan_id":"free"},{"bike_id":"5dc0f627-0f35-4ff0-98bb-de9d38eb222a","system_id":"levelo_inurba_marseille","lat":43.269467,"lon":5.386439,"is_reserved":false,"is_disabled":false,"rental_uris":{"android":"levelo://app?vid=5dc0f627-0f35-4ff0-98bb-de9d38eb222a","ios":"levelo://app?vid=5dc0f627-0f35-4ff0-98bb-de9d38eb222a"},"vehicle_type_id":"4","last_reported":1700813366,"current_range_meters":28800,"station_id":"ce4bhh92rcd13ifvqfh0","pricing_plan_id":"free"},{"bike_id":"0dce8a02-28e4-4bd7-970b-ba8635323d25","system_id":"levelo_inurba_marseille","lat":43.269467,"lon":5.386439,"is_reserved":false,"is_disabled":false,"rental_uris":{"android":"levelo://app?vid=0dce8a02-28e4-4bd7-970b-ba8635323d25","ios":"levelo://app?vid=0dce8a02-28e4-4bd7-970b-ba8635323d25"},"vehicle_type_id":"4","last_reported":1700813366,"current_range_meters":16000,"station_id":"ce4bhh92rcd13ifvqfh0","pricing_plan_id":"free"},{"bike_id":"31fcc982-4a73-4e40-963e-315277929b25","system_id":"levelo_inurba_marseille","lat":43.269467,"lon":5.386439,"is_reserved":false,"is_disabled":false,"rental_uris":{"android":"levelo://app?vid=31fcc982-4a73-4e40-963e-315277929b25","ios":"levelo://app?vid=31fcc982-4a73-4e40-963e-315277929b25"},"vehicle_type_id":"4","last_reported":1700813366,"current_range_meters":8800,"station_id":"ce4bhh92rcd13ifvqfh0","pricing_plan_id":"free"},{"bike_id":"f60e0cdd-f643-4f09-b32f-53fdd78bcbb4","system_id":"levelo_inurba_marseille","lat":43.279577,"lon":5.41049,"is_reserved":false,"is_disabled":false,"rental_uris":{"android":"levelo://app?vid=f60e0cdd-f643-4f09-b32f-53fdd78bcbb4","ios":"levelo://app?vid=f60e0cdd-f643-4f09-b32f-53fdd78bcbb4"},"vehicle_type_id":"4","last_reported":1700813366,"current_range_meters":0,"station_id":"ce4bhnp2rcd13ifvqh0g","pricing_plan_id":"free"},{"bike_id":"4b084f2c-adb7-4cd1-9f15-6c7d7b135df0","system_id":"levelo_inurba_marseille","lat":43.26681,"lon":5.382694,"is_reserved":false,"is_disabled":false,"rental_uris":{"android":"levelo://app?vid=4b084f2c-adb7-4cd1-9f15-6c7d7b135df0","ios":"levelo://app?vid=4b084f2c-adb7-4cd1-9f15-6c7d7b135df0"},"vehicle_type_id":"4","last_reported":1700813366,"current_range_meters":12800,"station_id":"ce4bhg92rcd13ifvqf90","pricing_plan_id":"free"},{"bike_id":"7dbe6933-5cdc-4140-acb7-c4617a3c5263","system_id":"levelo_inurba_marseille","lat":43.26681,"lon":5.382694,"is_reserved":false,"is_disabled":false,"rental_uris":{"android":"levelo://app?vid=7dbe6933-5cdc-4140-acb7-c4617a3c5263","ios":"levelo://app?vid=7dbe6933-5cdc-4140-acb7-c4617a3c5263"},"vehicle_type_id":"4","last_reported":1700813366,"current_range_meters":24400,"station_id":"ce4bhg92rcd13ifvqf90","pricing_plan_id":"free"},{"bike_id":"b449913f-9aa9-4545-a71e-3edfee803c9a","system_id":"levelo_inurba_marseille","lat":43.26681,"lon":5.382694,"is_reserved":false,"is_disabled":false,"rental_uris":{"android":"levelo://app?vid=b449913f-9aa9-4545-a71e-3edfee803c9a","ios":"levelo://app?vid=b449913f-9aa9-4545-a71e-3edfee803c9a"},"vehicle_type_id":"4","last_reported":1700813366,"current_range_meters":11600,"station_id":"ce4bhg92rcd13ifvqf90","pricing_plan_id":"free"},{"bike_id":"a1c6dbae-6a50-4808-b409-93cda7db7bfc","system_id":"levelo_inurba_marseille","lat":43.26681,"lon":5.382694,"is_reserved":false,"is_disabled":false,"rental_uris":{"android":"levelo://app?vid=a1c6dbae-6a50-4808-b409-93cda7db7bfc","ios":"levelo://app?vid=a1c6dbae-6a50-4808-b409-93cda7db7bfc"},"vehicle_type_id":"4","last_reported":1700813366,"current_range_meters":5200,"station_id":"ce4bhg92rcd13ifvqf90","pricing_plan_id":"free"},{"bike_id":"a3119acb-7ba8-4a08-b8ba-8b9efb38ed2f","system_id":"levelo_inurba_marseille","lat":43.26681,"lon":5.382694,"is_reserved":false,"is_disabled":false,"rental_uris":{"android":"levelo://app?vid=a3119acb-7ba8-4a08-b8ba-8b9efb38ed2f","ios":"levelo://app?vid=a3119acb-7ba8-4a08-b8ba-8b9efb38ed2f"},"vehicle_type_id":"4","last_reported":1700813366,"current_range_meters":0,"station_id":"ce4bhg92rcd13ifvqf90","pricing_plan_id":"free"},{"bike_id":"41de51a6-505b-4bd1-af98-8b03e9811828","system_id":"levelo_inurba_marseille","lat":43.26681,"lon":5.382694,"is_reserved":false,"is_disabled":false,"rental_uris":{"android":"levelo://app?vid=41de51a6-505b-4bd1-af98-8b03e9811828","ios":"levelo://app?vid=41de51a6-505b-4bd1-af98-8b03e9811828"},"vehicle_type_id":"4","last_reported":1700813366,"current_range_meters":30400,"station_id":"ce4bhg92rcd13ifvqf90","pricing_plan_id":"free"},{"bike_id":"e5e9fc9f-3310-44d2-aece-a9a06023fa18","system_id":"levelo_inurba_marseille","lat":43.26681,"lon":5.382694,"is_reserved":false,"is_disabled":false,"rental_uris":{"android":"levelo://app?vid=e5e9fc9f-3310-44d2-aece-a9a06023fa18","ios":"levelo://app?vid=e5e9fc9f-3310-44d2-aece-a9a06023fa18"},"vehicle_type_id":"4","last_reported":1700813366,"current_range_meters":20400,"station_id":"ce4bhg92rcd13ifvqf90","pricing_plan_id":"free"},{"bike_id":"34168a30-db98-462e-9a3a-7edfb6f5cf58","system_id":"levelo_inurba_marseille","lat":43.265714,"lon":5.372891,"is_reserved":false,"is_disabled":false,"rental_uris":{"android":"levelo://app?vid=34168a30-db98-462e-9a3a-7edfb6f5cf58","ios":"levelo://app?vid=34168a30-db98-462e-9a3a-7edfb6f5cf58"},"vehicle_type_id":"4","last_reported":1700813366,"current_range_meters":20000,"station_id":"ce4bhg12rcd13ifvqf70","pricing_plan_id":"free"},{"bike_id":"e00df8e9-8083-4b8d-bd2f-958912a002c0","system_id":"levelo_inurba_marseille","lat":43.26681,"lon":5.382694,"is_reserved":false,"is_disabled":false,"rental_uris":{"android":"levelo://app?vid=e00df8e9-8083-4b8d-bd2f-958912a002c0","ios":"levelo://app?vid=e00df8e9-8083-4b8d-bd2f-958912a002c0"},"vehicle_type_id":"4","last_reported":1700813366,"current_range_meters":27600,"station_id":"ce4bhg92rcd13ifvqf90","pricing_plan_id":"free"},{"bike_id":"afca0fe0-702c-4607-8149-ab8757df2f63","system_id":"levelo_inurba_marseille","lat":43.265714,"lon":5.372891,"is_reserved":false,"is_disabled":false,"rental_uris":{"android":"levelo://app?vid=afca0fe0-702c-4607-8149-ab8757df2f63","ios":"levelo://app?vid=afca0fe0-702c-4607-8149-ab8757df2f63"},"vehicle_type_id":"4","last_reported":1700813366,"current_range_meters":0,"station_id":"ce4bhg12rcd13ifvqf70","pricing_plan_id":"free"},{"bike_id":"72b1047d-07d2-47c4-9805-d565409aa9fb","system_id":"levelo_inurba_marseille","lat":43.26681,"lon":5.382694,"is_reserved":false,"is_disabled":false,"rental_uris":{"android":"levelo://app?vid=72b1047d-07d2-47c4-9805-d565409aa9fb","ios":"levelo://app?vid=72b1047d-07d2-47c4-9805-d565409aa9fb"},"vehicle_type_id":"4","last_reported":1700813366,"current_range_meters":24000,"station_id":"ce4bhg92rcd13ifvqf90","pricing_plan_id":"free"},{"bike_id":"28e8ce00-6b21-4e06-9930-c7c4408cc650","system_id":"levelo_inurba_marseille","lat":43.326174,"lon":5.430584,"is_reserved":false,"is_disabled":false,"rental_uris":{"android":"levelo://app?vid=28e8ce00-6b21-4e06-9930-c7c4408cc650","ios":"levelo://app?vid=28e8ce00-6b21-4e06-9930-c7c4408cc650"},"vehicle_type_id":"4","last_reported":1700813366,"current_range_meters":0,"station_id":"","pricing_plan_id":"free"},{"bike_id":"e1c5aebc-ee6b-4705-aa75-1033e20494cf","system_id":"levelo_inurba_marseille","lat":43.27991,"lon":5.41669,"is_reserved":false,"is_disabled":false,"rental_uris":{"android":"levelo://app?vid=e1c5aebc-ee6b-4705-aa75-1033e20494cf","ios":"levelo://app?vid=e1c5aebc-ee6b-4705-aa75-1033e20494cf"},"vehicle_type_id":"4","last_reported":1700813366,"current_range_meters":0,"station_id":"ce4bho12rcd13ifvqh1g","pricing_plan_id":"free"},{"bike_id":"773975ec-023c-4304-b0d2-ca92c1b7d94e","system_id":"levelo_inurba_marseille","lat":43.267966,"lon":5.393976,"is_reserved":false,"is_disabled":false,"rental_uris":{"android":"levelo://app?vid=773975ec-023c-4304-b0d2-ca92c1b7d94e","ios":"levelo://app?vid=773975ec-023c-4304-b0d2-ca92c1b7d94e"},"vehicle_type_id":"4","last_reported":1700813366,"current_range_meters":18800,"station_id":"ce4bhh12rcd13ifvqfg0","pricing_plan_id":"free"},{"bike_id":"564a3a5e-12b1-4694-b98b-887ffce7f88f","system_id":"levelo_inurba_marseille","lat":43.267966,"lon":5.393976,"is_reserved":false,"is_disabled":false,"rental_uris":{"android":"levelo://app?vid=564a3a5e-12b1-4694-b98b-887ffce7f88f","ios":"levelo://app?vid=564a3a5e-12b1-4694-b98b-887ffce7f88f"},"vehicle_type_id":"4","last_reported":1700813366,"current_range_meters":21600,"station_id":"ce4bhh12rcd13ifvqfg0","pricing_plan_id":"free"},{"bike_id":"2b5f0b27-ae58-4e9e-bd76-c585f78e8a73","system_id":"levelo_inurba_marseille","lat":43.26386,"lon":5.37454,"is_reserved":false,"is_disabled":false,"rental_uris":{"android":"levelo://app?vid=2b5f0b27-ae58-4e9e-bd76-c585f78e8a73","ios":"levelo://app?vid=2b5f0b27-ae58-4e9e-bd76-c585f78e8a73"},"vehicle_type_id":"4","last_reported":1700813366,"current_range_meters":15600,"station_id":"","pricing_plan_id":"free"},{"bike_id":"86871016-0bc5-4756-ae87-327a5120a435","system_id":"levelo_inurba_marseille","lat":43.26562,"lon":5.39003,"is_reserved":false,"is_disabled":false,"rental_uris":{"android":"levelo://app?vid=86871016-0bc5-4756-ae87-327a5120a435","ios":"levelo://app?vid=86871016-0bc5-4756-ae87-327a5120a435"},"vehicle_type_id":"4","last_reported":1700813366,"current_range_meters":0,"station_id":"ce4bhe12rcd13ifvqf30","pricing_plan_id":"free"},{"bike_id":"17bf2bed-5e1c-4ca5-9bf6-eb5beb8569f6","system_id":"levelo_inurba_marseille","lat":43.26941,"lon":5.40248,"is_reserved":false,"is_disabled":false,"rental_uris":{"android":"levelo://app?vid=17bf2bed-5e1c-4ca5-9bf6-eb5beb8569f6","ios":"levelo://app?vid=17bf2bed-5e1c-4ca5-9bf6-eb5beb8569f6"},"vehicle_type_id":"4","last_reported":1700813366,"current_range_meters":19600,"station_id":"cjm6bp8fraef2m0cb0m0","pricing_plan_id":"free"},{"bike_id":"1c7166a0-5193-49d5-96d1-ed153762e64e","system_id":"levelo_inurba_marseille","lat":43.2618,"lon":5.37439,"is_reserved":false,"is_disabled":false,"rental_uris":{"android":"levelo://app?vid=1c7166a0-5193-49d5-96d1-ed153762e64e","ios":"levelo://app?vid=1c7166a0-5193-49d5-96d1-ed153762e64e"},"vehicle_type_id":"4","last_reported":1700813366,"current_range_meters":2800,"station_id":"ce4bhgp2rcd13ifvqfc0","pricing_plan_id":"free"},{"bike_id":"d924d271-f127-4834-b6ef-9ee3219f6397","system_id":"levelo_inurba_marseille","lat":43.262012,"lon":5.379307,"is_reserved":false,"is_disabled":false,"rental_uris":{"android":"levelo://app?vid=d924d271-f127-4834-b6ef-9ee3219f6397","ios":"levelo://app?vid=d924d271-f127-4834-b6ef-9ee3219f6397"},"vehicle_type_id":"4","last_reported":1700813366,"current_range_meters":23200,"station_id":"ce4bhjp2rcd13ifvqg90","pricing_plan_id":"free"},{"bike_id":"d0bb53f7-f1b8-4609-a668-27efdac67f66","system_id":"levelo_inurba_marseille","lat":43.26301,"lon":5.38842,"is_reserved":false,"is_disabled":false,"rental_uris":{"android":"levelo://app?vid=d0bb53f7-f1b8-4609-a668-27efdac67f66","ios":"levelo://app?vid=d0bb53f7-f1b8-4609-a668-27efdac67f66"},"vehicle_type_id":"4","last_reported":1700813366,"current_range_meters":0,"station_id":"","pricing_plan_id":"free"},{"bike_id":"efe02d19-0356-4f27-85ef-675447d0f7ba","system_id":"levelo_inurba_marseille","lat":43.29897,"lon":5.43659,"is_reserved":false,"is_disabled":false,"rental_uris":{"android":"levelo://app?vid=efe02d19-0356-4f27-85ef-675447d0f7ba","ios":"levelo://app?vid=efe02d19-0356-4f27-85ef-675447d0f7ba"},"vehicle_type_id":"4","last_reported":1700813366,"current_range_meters":15200,"station_id":"ce4bhpp2rcd13ifvqhfg","pricing_plan_id":"free"},