{"last_updated":1718226445,"ttl":30,"version":"2.2","data":{"bikes":[{"bike_id":"7f63abb5-39bd-4f46-a85d-8cc02ca3dac0","system_id":"levelo_inurba_marseille","lat":43.313545,"lon":5.367017,"is_reserved":false,"is_disabled":false,"rental_uris":{"android":"levelo://app?vid=7f63abb5-39bd-4f46-a85d-8cc02ca3dac0","ios":"levelo://app?vid=7f63abb5-39bd-4f46-a85d-8cc02ca3dac0"},"vehicle_type_id":"4","last_reported":1718226445,"current_range_meters":17600,"station_id":"","pricing_plan_id":"cebpf4jnsgd1na2vs0mg"},{"bike_id":"e1c3eaaa-295f-4f12-b394-48549dc1031a","system_id":"levelo_inurba_marseille","lat":43.31341,"lon":5.367098,"is_reserved":false,"is_disabled":false,"rental_uris":{"android":"levelo://app?vid=e1c3eaaa-295f-4f12-b394-48549dc1031a","ios":"levelo://app?vid=e1c3eaaa-295f-4f12-b394-48549dc1031a"},"vehicle_type_id":"4","last_reported":1718226445,"current_range_meters":1600,"station_id":"ce4bgr92rcd13ifvqc6g","pricing_plan_id":"cebpf4jnsgd1na2vs0mg"},{"bike_id":"e76b4330-5299-4580-a87e-12841f9186ae","system_id":"levelo_inurba_marseille","lat":43.312239,"lon":5.368562,"is_reserved":false,"is_disabled":false,"rental_uris":{"android":"levelo://app?vid=e76b4330-5299-4580-a87e-12841f9186ae","ios":"levelo://app?vid=e76b4330-5299-4580-a87e-12841f9186ae"},"vehicle_type_id":"4","last_reported":1718226445,"current_range_meters":23600,"station_id":"ce4bgl92rcd13ifvqbq0","pricing_plan_id":"cebpf4jnsgd1na2vs0mg"},{"bike_id":"a6f24a86-6baa-4b68-8410-d69ef8b52941","system_id":"levelo_inurba_marseille","lat":43.309076,"lon":5.368465,"is_reserved":false,"is_disabled":false,"rental_uris":{"android":"levelo://app?vid=a6f24a86-6baa-4b68-8410-d69ef8b52941","ios":"levelo://app?vid=a6f24a86-6baa-4b68-8410-d69ef8b52941"},"vehicle_type_id":"4","last_reported":1718226445,"current_range_meters":26400,"station_id":"ce4bgn92rcd13ifvqbvg","pricing_plan_id":"cebpf4jnsgd1na2vs0mg"},{"bike_id":"00951305-50c4-4bc0-be62-5ca8f61db59e","system_id":"levelo_inurba_marseille","lat":43.309076,"lon":5.368465,"is_reserved":false,"is_disabled":false,"rental_uris":{"android":"levelo://app?vid=00951305-50c4-4bc0-be62-5ca8f61db59e","ios":"levelo://app?vid=00951305-50c4-4bc0-be62-5ca8f61db59e"},"vehicle_type_id":"4","last_reported":1718226445,"current_range_meters":21600,"station_id":"ce4bgn92rcd13ifvqbvg","pricing_plan_id":"cebpf4jnsgd1na2vs0mg"},{"bike_id":"de27f82e-81d6-42cc-9854-7ad08b628ee0","system_id":"levelo_inurba_marseille","lat":43.3151,"lon":5.37119,"is_reserved":false,"is_disabled":false,"rental_uris":{"android":"levelo://app?vid=de27f82e-81d6-42cc-9854-7ad08b628ee0","ios":"levelo://app?vid=de27f82e-81d6-42cc-9854-7ad08b628ee0"},"vehicle_type_id":"4","last_reported":1718226445,"current_range_meters":19600,"station_id":"","pricing_plan_id":"cebpf4jnsgd1na2vs0mg"},{"bike_id":"63744ec6-dae6-4546-bb44-6c7a0896c81f","system_id":"levelo_inurba_marseille","lat":43.309076,"lon":5.368465,"is_reserved":false,"is_disabled":false,"rental_uris":{"android":"levelo://app?vid=63744ec6-dae6-4546-bb44-6c7a0896c81f","ios":"levelo://app?vid=63744ec6-dae6-4546-bb44-6c7a0896c81f"},"vehicle_type_id":"4","last_reported":1718226445,"current_range_meters":1600,"station_id":"ce4bgn92rcd13ifvqbvg","pricing_plan_id":"cebpf4jnsgd1na2vs0mg"},{"bike_id":"834d0e56-96e1-4c9a-83c9-2f11613b5d0c","system_id":"levelo_inurba_marseille","lat":43.309039,"lon":5.371797,"is_reserved":false,"is_disabled":false,"rental_uris":{"android":"levelo://app?vid=834d0e56-96e1-4c9a-83c9-2f11613b5d0c","ios":"levelo://app?vid=834d0e56-96e1-4c9a-83c9-2f11613b5d0c"},"vehicle_type_id":"4","last_reported":1718226445,"current_range_meters":23200,"station_id":"ce4bguh2rcd13ifvqckg","pricing_plan_id":"cebpf4jnsgd1na2vs0mg"},{"bike_id":"a59ab443-9760-466f-8151-b2883bd5f27a","system_id":"levelo_inurba_marseille","lat":43.30632,"lon":5.36563,"is_reserved":false,"is_disabled":false,"rental_uris":{"android":"levelo://app?vid=a59ab443-9760-466f-8151-b2883bd5f27a","ios":"levelo://app?vid=a59ab443-9760-466f-8151-b2883bd5f27a"},"vehicle_type_id":"4","last_reported":1718226445,"current_range_meters":26800,"station_id":"ce4bgs12rcd13ifvqcag","pricing_plan_id":"cebpf4jnsgd1na2vs0mg"},{"bike_id":"c3652718-05a5-42d0-ab94-71e8b3f29da9","system_id":"levelo_inurba_marseille","lat":43.305368,"lon":5.367343,"is_reserved":false,"is_disabled":false,"rental_uris":{"android":"levelo://app?vid=c3652718-05a5-42d0-ab94-71e8b3f29da9","ios":"levelo://app?vid=c3652718-05a5-42d0-ab94-71e8b3f29da9"},"vehicle_type_id":"4","last_reported":1718226445,"current_range_meters":25200,"station_id":"ce4bgrp2rcd13ifvqc9g","pricing_plan_id":"cebpf4jnsgd1na2vs0mg"},{"bike_id":"0e0efc33-3607-42cc-aaf5-06c5688a7fa2","system_id":"levelo_inurba_marseille","lat":43.305989,"lon":5.37225,"is_reserved":false,"is_disabled":false,"rental_uris":{"android":"levelo://app?vid=0e0efc33-3607-42cc-aaf5-06c5688a7fa2","ios":"levelo://app?vid=0e0efc33-3607-42cc-aaf5-06c5688a7fa2"},"vehicle_type_id":"4","last_reported":1718226445,"current_range_meters":8000,"station_id":"ce4bgqh2rcd13ifvqc4g","pricing_plan_id":"cebpf4jnsgd1na2vs0mg"},{"bike_id":"aa10ee3b-cc1b-4216-ac3a-6ff025eb1181","system_id":"levelo_inurba_marseille","lat":43.305989,"lon":5.37225,"is_reserved":false,"is_disabled":false,"rental_uris":{"android":"levelo://app?vid=aa10ee3b-cc1b-4216-ac3a-6ff025eb1181","ios":"levelo://app?vid=aa10ee3b-cc1b-4216-ac3a-6ff025eb1181"},"vehicle_type_id":"4","last_reported":1718226445,"current_range_meters":29200,"station_id":"ce4bgqh2rcd13ifvqc4g","pricing_plan_id":"cebpf4jnsgd1na2vs0mg"},{"bike_id":"93af9941-9497-47ba-a649-7d6a73a7b388","system_id":"levelo_inurba_marseille","lat":43.305989,"lon":5.37225,"is_reserved":false,"is_disabled":false,"rental_uris":{"android":"levelo://app?vid=93af9941-9497-47ba-a649-7d6a73a7b388","ios":"levelo://app?vid=93af9941-9497-47ba-a649-7d6a73a7b388"},"vehicle_type_id":"4","last_reported":1718226445,"current_range_meters":26400,"station_id":"ce4bgqh2rcd13ifvqc4g","pricing_plan_id":"cebpf4jnsgd1na2vs0mg"},{"bike_id":"226b1ee1-2790-4a0d-a3e1-04f9c67abfa1","system_id":"levelo_inurba_marseille","lat":43.305989,"lon":5.37225,"is_reserved":false,"is_disabled":false,"rental_uris":{"android":"levelo://app?vid=226b1ee1-2790-4a0d-a3e1-04f9c67abfa1","ios":"levelo://app?vid=226b1ee1-2790-4a0d-a3e1-04f9c67abfa1"},"vehicle_type_id":"4","last_reported":1718226445,"current_range_meters":24000,"station_id":"ce4bgqh2rcd13ifvqc4g","pricing_plan_id":"cebpf4jnsgd1na2vs0mg"},{"bike_id":"7306bf08-3432-4489-92a5-6d447d70cc8e","system_id":"levelo_inurba_marseille","lat":43.311125,"lon":5.377624,"is_reserved":false,"is_disabled":false,"rental_uris":{"android":"levelo://app?vid=7306bf08-3432-4489-92a5-6d447d70cc8e","ios":"levelo://app?vid=7306bf08-3432-4489-92a5-6d447d70cc8e"},"vehicle_type_id":"4","last_reported":1718226445,"current_range_meters":22800,"station_id":"ce4bgt92rcd13ifvqcg0","pricing_plan_id":"cebpf4jnsgd1na2vs0mg"},{"bike_id":"d1a84b74-397c-462b-9c36-a60eb184e244","system_id":"levelo_inurba_marseille","lat":43.311131,"lon":5.377651,"is_reserved":false,"is_disabled":false,"rental_uris":{"android":"levelo://app?vid=d1a84b74-397c-462b-9c36-a60eb184e244","ios":"levelo://app?vid=d1a84b74-397c-462b-9c36-a60eb184e244"},"vehicle_type_id":"4","last_reported":1718226445,"current_range_meters":0,"station_id":"ce4bgt92rcd13ifvqcg0","pricing_plan_id":"cebpf4jnsgd1na2vs0mg"},{"bike_id":"3a95ba2c-7eb9-4faa-bcad-9aba1c848fe7","system_id":"levelo_inurba_marseille","lat":43.311125,"lon":5.377624,"is_reserved":false,"is_disabled":false,"rental_uris":{"android":"levelo://app?vid=3a95ba2c-7eb9-4faa-bcad-9aba1c848fe7","ios":"levelo://app?vid=3a95ba2c-7eb9-4faa-bcad-9aba1c848fe7"},"vehicle_type_id":"4","last_reported":1718226445,"current_range_meters":20000,"station_id":"ce4bgt92rcd13ifvqcg0","pricing_plan_id":"cebpf4jnsgd1na2vs0mg"},{"bike_id":"4d59f3aa-694e-41ed-bd8e-d762e9550d2f","system_id":"levelo_inurba_marseille","lat":43.311131,"lon":5.377651,"is_reserved":false,"is_disabled":false,"rental_uris":{"android":"levelo://app?vid=4d59f3aa-694e-41ed-bd8e-d762e9550d2f","ios":"levelo://app?vid=4d59f3aa-694e-41ed-bd8e-d762e9550d2f"},"vehicle_type_id":"4","last_reported":1718226445,"current_range_meters":10000,"station_id":"ce4bgt92rcd13ifvqcg0","pricing_plan_id":"cebpf4jnsgd1na2vs0mg"},{"bike_id":"8af9978d-c286-4ffa-8992-34093fde2aaf","system_id":"levelo_inurba_marseille","lat":43.311271,"lon":5.377998,"is_reserved":false,"is_disabled":false,"rental_uris":{"android":"levelo://app?vid=8af9978d-c286-4ffa-8992-34093fde2aaf","ios":"levelo://app?vid=8af9978d-c286-4ffa-8992-34093fde2aaf"},"vehicle_type_id":"4","last_reported":1718226445,"current_range_meters":5600,"station_id":"","pricing_plan_id":"cebpf4jnsgd1na2vs0mg"},{"bike_id":"7647cd4f-f7fd-443a-b7d1-28ea6fd04084","system_id":"levelo_inurba_marseille","lat":43.307945,"lon":5.376487,"is_reserved":false,"is_disabled":false,"rental_uris":{"android":"levelo://app?vid=7647cd4f-f7fd-443a-b7d1-28ea6fd04084","ios":"levelo://app?vid=7647cd4f-f7fd-443a-b7d1-28ea6fd04084"},"vehicle_type_id":"4","last_reported":1718226445,"current_range_meters":23600,"station_id":"ce4bgv92rcd13ifvqcq0","pricing_plan_id":"cebpf4jnsgd1na2vs0mg"},{"bike_id":"46bc9aba-151c-4e97-8674-32afe202af45","system_id":"levelo_inurba_marseille","lat":43.307945,"lon":5.376487,"is_reserved":false,"is_disabled":false,"rental_uris":{"android":"levelo://app?vid=46bc9aba-151c-4e97-8674-32afe202af45","ios":"levelo://app?vid=46bc9aba-151c-4e97-8674-32afe202af45"},"vehicle_type_id":"4","last_reported":1718226445,"current_range_meters":8800,"station_id":"ce4bgv92rcd13ifvqcq0","pricing_plan_id":"cebpf4jnsgd1na2vs0mg"},{"bike_id":"3df0ba0c-84f3-4cf4-bb5e-529956904ccc","system_id":"levelo_inurba_marseille","lat":43.307945,"lon":5.376487,"is_reserved":false,"is_disabled":false,"rental_uris":{"android":"levelo://app?vid=3df0ba0c-84f3-4cf4-bb5e-529956904ccc","ios":"levelo://app?vid=3df0ba0c-84f3-4cf4-bb5e-529956904ccc"},"vehicle_type_id":"4","last_reported":1718226445,"current_range_meters":20000,"station_id":"ce4bgv92rcd13ifvqcq0","pricing_plan_id":"cebpf4jnsgd1na2vs0mg"},{"bike_id":"a0c95956-3767-48ce-a33b-a7d817d7589d","system_id":"levelo_inurba_marseille","lat":43.307945,"lon":5.376487,"is_reserved":false,"is_disabled":false,"rental_uris":{"android":"levelo://app?vid=a0c95956-3767-48ce-a33b-a7d817d7589d","ios":"levelo://app?vid=a0c95956-3767-48ce-a33b-a7d817d7589d"},"vehicle_type_id":"4","last_reported":1718226445,"current_range_meters":9200,"station_id":"ce4bgv92rcd13ifvqcq0","pricing_plan_id":"cebpf4jnsgd1na2vs0mg"},{"bike_id":"c52da7d7-0dab-40f9-bac7-baa153e876fb","system_id":"levelo_inurba_marseille","lat":43.307945,"lon":5.376487,"is_reserved":false,"is_disabled":false,"rental_uris":{"android":"levelo://app?vid=c52da7d7-0dab-40f9-bac7-baa153e876fb","ios":"levelo://app?vid=c52da7d7-0dab-40f9-bac7-baa153e876fb"},"vehicle_type_id":"4","last_reported":1718226445,"current_range_meters":4400,"station_id":"ce4bgv92rcd13ifvqcq0","pricing_plan_id":"cebpf4jnsgd1na2vs0mg"},{"bike_id":"2038536e-f1b5-4384-98b4-9e453cba8236","system_id":"levelo_inurba_marseille","lat":43.307945,"lon":5.376487,"is_reserved":false,"is_disabled":false,"rental_uris":{"android":"levelo://app?vid=2038536e-f1b5-4384-98b4-9e453cba8236","ios":"levelo://app?vid=2038536e-f1b5-4384-98b4-9e453cba8236"},"vehicle_type_id":"4","last_reported":1718226445,"current_range_meters":6400,"station_id":"ce4bgv92rcd13ifvqcq0","pricing_plan_id":"cebpf4jnsgd1na2vs0mg"},{"bike_id":"cbe4226c-8520-468a-91f1-072bcbe32553","system_id":"levelo_inurba_marseille","lat":43.31865,"lon":5.37535,"is_reserved":false,"is_disabled":false,"rental_uris":{"android":"levelo://app?vid=cbe4226c-8520-468a-91f1-072bcbe32553","ios":"levelo://app?vid=cbe4226c-8520-468a-91f1-072bcbe32553"},"vehicle_type_id":"4","last_reported":1718226445,"current_range_meters":3600,"station_id":"","pricing_plan_id":"cebpf4jnsgd1na2vs0mg"},{"bike_id":"c1da5626-d0d0-499d-a1e8-28b5f98bb0e6","system_id":"levelo_inurba_marseille","lat":43.307945,"lon":5.376487,"is_reserved":false,"is_disabled":false,"rental_uris":{"android":"levelo://app?vid=c1da5626-d0d0-499d-a1e8-28b5f98bb0e6","ios":"levelo://app?vid=c1da5626-d0d0-499d-a1e8-28b5f98bb0e6"},"vehicle_type_id":"4","last_reported":1718226445,"current_range_meters":9600,"station_id":"ce4bgv92rcd13ifvqcq0","pricing_plan_id":"cebpf4jnsgd1na2vs0mg"},{"bike_id":"eca8da1c-57c2-42b1-99e9-2a602cd04909","system_id":"levelo_inurba_marseille","lat":43.307945,"lon":5.376487,"is_reserved":false,"is_disabled":false,"rental_uris":{"android":"levelo://app?vid=eca8da1c-57c2-42b1-99e9-2a602cd04909","ios":"levelo://app?vid=eca8da1c-57c2-42b1-99e9-2a602cd04909"},"vehicle_type_id":"4","last_reported":1718226445,"current_range_meters":26000,"station_id":"ce4bgv92rcd13ifvqcq0","pricing_plan_id":"cebpf4jnsgd1na2vs0mg"},{"bike_id":"52600a79-b477-4e6e-b106-66d4e198f699","system_id":"levelo_inurba_marseille","lat":43.307945,"lon":5.376487,"is_reserved":false,"is_disabled":false,"rental_uris":{"android":"levelo://app?vid=52600a79-b477-4e6e-b106-66d4e198f699","ios":"levelo://app?vid=52600a79-b477-4e6e-b106-66d4e198f699"},"vehicle_type_id":"4","last_reported":1718226445,"current_range_meters":6800,"station_id":"ce4bgv92rcd13ifvqcq0","pricing_plan_id":"cebpf4jnsgd1na2vs0mg"},{"bike_id":"11be6e87-174a-4b2f-a561-cf0bb7d88c55","system_id":"levelo_inurba_marseille","lat":43.303046,"lon":5.368981,"is_reserved":false,"is_disabled":false,"rental_uris":{"android":"levelo://app?vid=11be6e87-174a-4b2f-a561-cf0bb7d88c55","ios":"levelo://app?vid=11be6e87-174a-4b2f-a561-cf0bb7d88c55"},"vehicle_type_id":"4","last_reported":1718226445,"current_range_meters":22800,"station_id":"ce4bgqh2rcd13ifvqc5g","pricing_plan_id":"cebpf4jnsgd1na2vs0mg"},{"bike_id":"67211061-2036-4f8b-a763-963b7c5e72f7","system_id":"levelo_inurba_marseille","lat":43.315289,"lon":5.380349,"is_reserved":false,"is_disabled":false,"rental_uris":{"android":"levelo://app?vid=67211061-2036-4f8b-a763-963b7c5e72f7","ios":"levelo://app?vid=67211061-2036-4f8b-a763-963b7c5e72f7"},"vehicle_type_id":"4","last_reported":1718226445,"current_range_meters":18800,"station_id":"ce4bhsp2rcd13ifvqi50","pricing_plan_id":"cebpf4jnsgd1na2vs0mg"},{"bike_id":"48a747df-f9a4-4c4f-ace4-eeceeac9ec69","system_id":"levelo_inurba_marseille","lat":43.315289,"lon":5.380349,"is_reserved":false,"is_disabled":false,"rental_uris":{"android":"levelo://app?vid=48a747df-f9a4-4c4f-ace4-eeceeac9ec69","ios":"levelo://app?vid=48a747df-f9a4-4c4f-ace4-eeceeac9ec69"},"vehicle_type_id":"4","last_reported":1718226445,"current_range_meters":23200,"station_id":"ce4bhsp2rcd13ifvqi50","pricing_plan_id":"cebpf4jnsgd1na2vs0mg"},{"bike_id":"dcceed73-db7a-4858-bc2f-6af3f019df28","system_id":"levelo_inurba_marseille","lat":43.301939,"lon":5.366286,"is_reserved":false,"is_disabled":false,"rental_uris":{"android":"levelo://app?vid=dcceed73-db7a-4858-bc2f-6af3f019df28","ios":"levelo://app?vid=dcceed73-db7a-4858-bc2f-6af3f019df28"},"vehicle_type_id":"4","last_reported":1718226445,"current_range_meters":0,"station_id":"ce4bgrh2rcd13ifvqc8g","pricing_plan_id":"cebpf4jnsgd1na2vs0mg"},{"bike_id":"bacb81ed-d577-41d8-be08-a7fe0f2a01ae","system_id":"levelo_inurba_marseille","lat":43.308012,"lon":5.381511,"is_reserved":false,"is_disabled":false,"rental_uris":{"android":"levelo://app?vid=bacb81ed-d577-41d8-be08-a7fe0f2a01ae","ios":"levelo://app?vid=bacb81ed-d577-41d8-be08-a7fe0f2a01ae"},"vehicle_type_id":"4","last_reported":1718226445,"current_range_meters":28400,"station_id":"ce4bgt12rcd13ifvqce0","pricing_plan_id":"cebpf4jnsgd1na2vs0mg"},{"bike_id":"5fe60115-a7cd-432a-9b7c-33432e115e5d","system_id":"levelo_inurba_marseille","lat":43.308012,"lon":5.381511,"is_reserved":false,"is_disabled":false,"rental_uris":{"android":"levelo://app?vid=5fe60115-a7cd-432a-9b7c-33432e115e5d","ios":"levelo://app?vid=5fe60115-a7cd-432a-9b7c-33432e115e5d"},"vehicle_type_id":"4","last_reported":1718226445,"current_range_meters":15200,"station_id":"ce4bgt12rcd13ifvqce0","pricing_plan_id":"cebpf4jnsgd1na2vs0mg"},{"bike_id":"d3b8165d-4098-4395-8e84-79e33e919b67","system_id":"levelo_inurba_marseille","lat":43.324771,"lon":5.36557,"is_reserved":false,"is_disabled":false,"rental_uris":{"android":"levelo://app?vid=d3b8165d-4098-4395-8e84-79e33e919b67","ios":"levelo://app?vid=d3b8165d-4098-4395-8e84-79e33e919b67"},"vehicle_type_id":"4","last_reported":1718226445,"current_range_meters":1200,"station_id":"ce4bhs12rcd13ifvqhvg","pricing_plan_id":"cebpf4jnsgd1na2vs0mg"},{"bike_id":"0270aab2-49de-4394-bed5-70d2997b3f7e","system_id":"levelo_inurba_marseille","lat":43.324771,"lon":5.36557,"is_reserved":false,"is_disabled":false,"rental_uris":{"android":"levelo://app?vid=0270aab2-49de-4394-bed5-70d2997b3f7e","ios":"levelo://app?vid=0270aab2-49de-4394-bed5-70d2997b3f7e"},"vehicle_type_id":"4","last_reported":1718226445,"current_range_meters":3200,"station_id":"ce4bhs12rcd13ifvqhvg","pricing_plan_id":"cebpf4jnsgd1na2vs0mg"},{"bike_id":"211f9115-e6a8-4fc8-9664-8c0a58d47260","system_id":"levelo_inurba_marseille","lat":43.324771,"lon":5.36557,"is_reserved":false,"is_disabled":false,"rental_uris":{"android":"levelo://app?vid=211f9115-e6a8-4fc8-9664-8c0a58d47260","ios":"levelo://app?vid=211f9115-e6a8-4fc8-9664-8c0a58d47260"},"vehicle_type_id":"4","last_reported":1718226445,"current_range_meters":10800,"station_id":"ce4bhs12rcd13ifvqhvg","pricing_plan_id":"cebpf4jnsgd1na2vs0mg"},{"bike_id":"0b10ed5c-b5c4-4cac-9db6-f0c709beb0e6","system_id":"levelo_inurba_marseille","lat":43.324771,"lon":5.36557,"is_reserved":false,"is_disabled":false,"rental_uris":{"android":"levelo://app?vid=0b10ed5c-b5c4-4cac-9db6-f0c709beb0e6","ios":"levelo://app?vid=0b10ed5c-b5c4-4cac-9db6-f0c709beb0e6"},"vehicle_type_id":"4","last_reported":1718226445,"current_range_meters":2400,"station_id":"ce4bhs12rcd13ifvqhvg","pricing_plan_id":"cebpf4jnsgd1na2vs0mg"},{"bike_id":"10528ba9-1863-4898-8c40-6c4a29873f3f","system_id":"levelo_inurba_marseille","lat":43.310804,"lon":5.38359,"is_reserved":false,"is_disabled":false,"rental_uris":{"android":"levelo://app?vid=10528ba9-1863-4898-8c40-6c4a29873f3f","ios":"levelo://app?vid=10528ba9-1863-4898-8c40-6c4a29873f3f"},"vehicle_type_id":"4","last_reported":1718226445,"current_range_meters":2000,"station_id":"ce4bgv92rcd13ifvqcr0","pricing_plan_id":"cebpf4jnsgd1na2vs0mg"},{"bike_id":"7f314ece-12ff-4320-9a37-315e81d1ac4c","system_id":"levelo_inurba_marseille","lat":43.310804,"lon":5.38359,"is_reserved":false,"is_disabled":false,"rental_uris":{"android":"levelo://app?vid=7f314ece-12ff-4320-9a37-315e81d1ac4c","ios":"levelo://app?vid=7f314ece-12ff-4320-9a37-315e81d1ac4c"},"vehicle_type_id":"4","last_reported":1718226445,"current_range_meters":0,"station_id":"ce4bgv92rcd13ifvqcr0","pricing_plan_id":"cebpf4jnsgd1na2vs0mg"},{"bike_id":"32137fd2-511d-44ad-b329-5a2a802ed770","system_id":"levelo_inurba_marseille","lat":43.310804,"lon":5.38359,"is_reserved":false,"is_disabled":false,"rental_uris":{"android":"levelo://app?vid=32137fd2-511d-44ad-b329-5a2a802ed770","ios":"levelo://app?vid=32137fd2-511d-44ad-b329-5a2a802ed770"},"vehicle_type_id":"4","last_reported":1718226445,"current_range_meters":12000,"station_id":"ce4bgv92rcd13ifvqcr0","pricing_plan_id":"cebpf4jnsgd1na2vs0mg"},{"bike_id":"e4d4b9a4-17d0-489e-be01-3172bc75c04c","system_id":"levelo_inurba_marseille","lat":43.302784,"lon":5.377158,"is_reserved":false,"is_disabled":false,"rental_uris":{"android":"levelo://app?vid=e4d4b9a4-17d0-489e-be01-3172bc75c04c","ios":"levelo://app?vid=e4d4b9a4-17d0-489e-be01-3172bc75c04c"},"vehicle_type_id":"4","last_reported":1718226445,"current_range_meters":22400,"station_id":"ce4bguh2rcd13ifvqcj0","pricing_plan_id":"cebpf4jnsgd1na2vs0mg"},{"bike_id":"db03d066-dad0-4242-b5f6-cda976c88e2a","system_id":"levelo_inurba_marseille","lat":43.301429,"lon":5.37413,"is_reserved":false,"is_disabled":false,"rental_uris":{"android":"levelo://app?vid=db03d066-dad0-4242-b5f6-cda976c88e2a","ios":"levelo://app?vid=db03d066-dad0-4242-b5f6-cda976c88e2a"},"vehicle_type_id":"4","last_reported":1718226445,"current_range_meters":18400,"station_id":"ce4bgs92rcd13ifvqcc0","pricing_plan_id":"cebpf4jnsgd1na2vs0mg"},{"bike_id":"6f17ae84-005c-4f99-bcf0-2d874837fb9c","system_id":"levelo_inurba_marseille","lat":43.30143,"lon":5.37413,"is_reserved":false,"is_disabled":false,"rental_uris":{"android":"levelo://app?vid=6f17ae84-005c-4f99-bcf0-2d874837fb9c","ios":"levelo://app?vid=6f17ae84-005c-4f99-bcf0-2d874837fb9c"},"vehicle_type_id":"4","last_reported":1718226445,"current_range_meters":26400,"station_id":"ce4bgs92rcd13ifvqcc0","pricing_plan_id":"cebpf4jnsgd1na2vs0mg"},{"bike_id":"87d72a8c-f2bd-4ea2-84f6-9a0420d68e07","system_id":"levelo_inurba_marseille","lat":43.30143,"lon":5.37413,"is_reserved":false,"is_disabled":false,"rental_uris":{"android":"levelo://app?vid=87d72a8c-f2bd-4ea2-84f6-9a0420d68e07","ios":"levelo://app?vid=87d72a8c-f2bd-4ea2-84f6-9a0420d68e07"},"vehicle_type_id":"4","last_reported":1718226445,"current_range_meters":6400,"station_id":"ce4bgs92rcd13ifvqcc0","pricing_plan_id":"cebpf4jnsgd1na2vs0mg"},{"bike_id":"9d708d7c-b7c6-4bfc-a304-093fb44408dd","system_id":"levelo_inurba_marseille","lat":43.31645,"lon":5.38342,"is_reserved":false,"is_disabled":false,"rental_uris":{"android":"levelo://app?vid=9d708d7c-b7c6-4bfc-a304-093fb44408dd","ios":"levelo://app?vid=9d708d7c-b7c6-4bfc-a304-093fb44408dd"},"vehicle_type_id":"4","last_reported":1718226445,"current_range_meters":10400,"station_id":"","pricing_plan_id":"cebpf4jnsgd1na2vs0mg"},{"bike_id":"3792d2f0-e70f-44af-b88c-2898546cb996","system_id":"levelo_inurba_marseille","lat":43.31984,"lon":5.38141,"is_reserved":false,"is_disabled":false,"rental_uris":{"android":"levelo://app?vid=3792d2f0-e70f-44af-b88c-2898546cb996","ios":"levelo://app?vid=3792d2f0-e70f-44af-b88c-2898546cb996"},"vehicle_type_id":"4","last_reported":1718226445,"current_range_meters":10800,"station_id":"ce4bhr12rcd13ifvqhpg","pricing_plan_id":"cebpf4jnsgd1na2vs0mg"},{"bike_id":"6c8496a8-1fd4-46d4-9960-7a0026c34fc5","system_id":"levelo_inurba_marseille","lat":43.319935,"lon":5.381699,"is_reserved":false,"is_disabled":false,"rental_uris":{"android":"levelo://app?vid=6c8496a8-1fd4-46d4-9960-7a0026c34fc5","ios":"levelo://app?vid=6c8496a8-1fd4-46d4-9960-7a0026c34fc5"},"vehicle_type_id":"4","last_reported":1718226445,"current_range_meters":11200,"station_id":"ce4bhr12rcd13ifvqhpg","pricing_plan_id":"cebpf4jnsgd1na2vs0mg"},{"bike_id":"0b5bef83-7ce5-4b59-ba06-9ffb2ff4343f","system_id":"levelo_inurba_marseille","lat":43.319935,"lon":5.381699,"is_reserved":false,"is_disabled":false,"rental_uris":{"android":"levelo://app?vid=0b5bef83-7ce5-4b59-ba06-9ffb2ff4343f","ios":"levelo://app?vid=0b5bef83-7ce5-4b59-ba06-9ffb2ff4343f"},"vehicle_type_id":"4","last_reported":1718226445,"current_range_meters":21600,"station_id":"ce4bhr12rcd13ifvqhpg","pricing_plan_id":"cebpf4jnsgd1na2vs0mg"},{"bike_id":"0ed5ef63-18b1-4669-920e-0b7f9a2dccf9","system_id":"levelo_inurba_marseille","lat":43.313571,"lon":5.384829,"is_reserved":false,"is_disabled":false,"rental_uris":{"android":"levelo://app?vid=0ed5ef63-18b1-4669-920e-0b7f9a2dccf9","ios":"levelo://app?vid=0ed5ef63-18b1-4669-920e-0b7f9a2dccf9"},"vehicle_type_id":"4","last_reported":1718226445,"current_range_meters":15600,"station_id":"ce4bgt92rcd13ifvqcf0","pricing_plan_id":"cebpf4jnsgd1na2vs0mg"},{"bike_id":"53b354f8-b2ea-4ede-b601-c0c1155eda11","system_id":"levelo_inurba_marseille","lat":43.313571,"lon":5.384829,"is_reserved":false,"is_disabled":false,"rental_uris":{"android":"levelo://app?vid=53b354f8-b2ea-4ede-b601-c0c1155eda11","ios":"levelo://app?vid=53b354f8-b2ea-4ede-b601-c0c1155eda11"},"vehicle_type_id":"4","last_reported":1718226445,"current_range_meters":4000,"station_id":"ce4bgt92rcd13ifvqcf0","pricing_plan_id":"cebpf4jnsgd1na2vs0mg"},{"bike_id":"b0fb9e6d-f80f-4615-8b4c-07feecfd11a8","system_id":"levelo_inurba_marseille","lat":43.31353,"lon":5.38492,"is_reserved":false,"is_disabled":false,"rental_uris":{"android":"levelo://app?vid=b0fb9e6d-f80f-4615-8b4c-07feecfd11a8","ios":"levelo://app?vid=b0fb9e6d-f80f-4615-8b4c-07feecfd11a8"},"vehicle_type_id":"4","last_reported":1718226445,"current_range_meters":5200,"station_id":"ce4bgt92rcd13ifvqcf0","pricing_plan_id":"cebpf4jnsgd1na2vs0mg"},{"bike_id":"231b8946-6e96-4819-bf53-86e13dec95c2","system_id":"levelo_inurba_marseille","lat":43.313571,"lon":5.384829,"is_reserved":false,"is_disabled":false,"rental_uris":{"android":"levelo://app?vid=231b8946-6e96-4819-bf53-86e13dec95c2","ios":"levelo://app?vid=231b8946-6e96-4819-bf53-86e13dec95c2"},"vehicle_type_id":"4","last_reported":1718226445,"current_range_meters":6000,"station_id":"ce4bgt92rcd13ifvqcf0","pricing_plan_id":"cebpf4jnsgd1na2vs0mg"},{"bike_id":"d4ac25ba-7175-4ce6-8ea9-1cc084d8009d","system_id":"levelo_inurba_marseille","lat":43.313571,"lon":5.384829,"is_reserved":false,"is_disabled":false,"rental_uris":{"android":"levelo://app?vid=d4ac25ba-7175-4ce6-8ea9-1cc084d8009d","ios":"levelo://app?vid=d4ac25ba-7175-4ce6-8ea9-1cc084d8009d"},"vehicle_type_id":"4","last_reported":1718226445,"current_range_meters":17600,"station_id":"ce4bgt92rcd13ifvqcf0","pricing_plan_id":"cebpf4jnsgd1na2vs0mg"},{"bike_id":"588e0ac7-c574-49e3-8ff2-02cd6ad9b884","system_id":"levelo_inurba_marseille","lat":43.313571,"lon":5.384829,"is_reserved":false,"is_disabled":false,"rental_uris":{"android":"levelo://app?vid=588e0ac7-c574-49e3-8ff2-02cd6ad9b884","ios":"levelo://app?vid=588e0ac7-c574-49e3-8ff2-02cd6ad9b884"},"vehicle_type_id":"4","last_reported":1718226445,"current_range_meters":14000,"station_id":"ce4bgt92rcd13ifvqcf0","pricing_plan_id":"cebpf4jnsgd1na2vs0mg"},{"bike_id":"dcfc85a9-b6ea-428f-ad25-7f3fcea67484","system_id":"levelo_inurba_marseille","lat":43.299724,"lon":5.371829,"is_reserved":false,"is_disabled":false,"rental_uris":{"android":"levelo://app?vid=dcfc85a9-b6ea-428f-ad25-7f3fcea67484","ios":"levelo://app?vid=dcfc85a9-b6ea-428f-ad25-7f3fcea67484"},"vehicle_type_id":"4","last_reported":1718226445,"current_range_meters":29200,"station_id":"ce4bgr92rcd13ifvqc7g","pricing_plan_id":"cebpf4jnsgd1na2vs0mg"},{"bike_id":"01ca70b6-4e2c-42cb-9aed-a8b80d5ea29c","system_id":"levelo_inurba_marseille","lat":43.305343,"lon":5.383673,"is_reserved":false,"is_disabled":false,"rental_uris":{"android":"levelo://app?vid=01ca70b6-4e2c-42cb-9aed-a8b80d5ea29c","ios":"levelo://app?vid=01ca70b6-4e2c-42cb-9aed-a8b80d5ea29c"},"vehicle_type_id":"4","last_reported":1718226445,"current_range_meters":7200,"station_id":"ce4bgg92rcd13ifvqb30","pricing_plan_id":"cebpf4jnsgd1na2vs0mg"},{"bike_id":"cc22503d-0686-4ddf-8a84-e198532cd386","system_id":"levelo_inurba_marseille","lat":43.305364,"lon":5.384119,"is_reserved":false,"is_disabled":false,"rental_uris":{"android":"levelo://app?vid=cc22503d-0686-4ddf-8a84-e198532cd386","ios":"levelo://app?vid=cc22503d-0686-4ddf-8a84-e198532cd386"},"vehicle_type_id":"4","last_reported":1718226445,"current_range_meters":4400,"station_id":"ce4bgg92rcd13ifvqb30","pricing_plan_id":"cebpf4jnsgd1na2vs0mg"},{"bike_id":"461ba997-1d21-49a7-96a3-8f78815bf0f1","system_id":"levelo_inurba_marseille","lat":43.299243,"lon":5.37481,"is_reserved":false,"is_disabled":false,"rental_uris":{"android":"levelo://app?vid=461ba997-1d21-49a7-96a3-8f78815bf0f1","ios":"levelo://app?vid=461ba997-1d21-49a7-96a3-8f78815bf0f1"},"vehicle_type_id":"4","last_reported":1718226445,"current_range_meters":26800,"station_id":"ce4bgjh2rcd13ifvqbg0","pricing_plan_id":"cebpf4jnsgd1na2vs0mg"},{"bike_id":"62be238f-d44c-4625-8eab-8175b676d534","system_id":"levelo_inurba_marseille","lat":43.305364,"lon":5.384119,"is_reserved":false,"is_disabled":false,"rental_uris":{"android":"levelo://app?vid=62be238f-d44c-4625-8eab-8175b676d534","ios":"levelo://app?vid=62be238f-d44c-4625-8eab-8175b676d534"},"vehicle_type_id":"4","last_reported":1718226445,"current_range_meters":10000,"station_id":"ce4bgg92rcd13ifvqb30","pricing_plan_id":"cebpf4jnsgd1na2vs0mg"},{"bike_id":"bdd3a2fd-417d-4979-997f-5eeec324d139","system_id":"levelo_inurba_marseille","lat":43.31176,"lon":5.387027,"is_reserved":false,"is_disabled":false,"rental_uris":{"android":"levelo://app?vid=bdd3a2fd-417d-4979-997f-5eeec324d139","ios":"levelo://app?vid=bdd3a2fd-417d-4979-997f-5eeec324d139"},"vehicle_type_id":"4","last_reported":1718226445,"current_range_meters":0,"station_id":"ce4bgv12rcd13ifvqcp0","pricing_plan_id":"cebpf4jnsgd1na2vs0mg"},{"bike_id":"4b429a91-aeff-43d6-a37a-079f6a82c6aa","system_id":"levelo_inurba_marseille","lat":43.311722,"lon":5.387247,"is_reserved":false,"is_disabled":false,"rental_uris":{"android":"levelo://app?vid=4b429a91-aeff-43d6-a37a-079f6a82c6aa","ios":"levelo://app?vid=4b429a91-aeff-43d6-a37a-079f6a82c6aa"},"vehicle_type_id":"4","last_reported":1718226445,"current_range_meters":7600,"station_id":"ce4bgv12rcd13ifvqcp0","pricing_plan_id":"cebpf4jnsgd1na2vs0mg"},{"bike_id":"41152940-4bdf-462f-b72c-ab14064eaf99","system_id":"levelo_inurba_marseille","lat":43.311722,"lon":5.387247,"is_reserved":false,"is_disabled":false,"rental_uris":{"android":"levelo://app?vid=41152940-4bdf-462f-b72c-ab14064eaf99","ios":"levelo://app?vid=41152940-4bdf-462f-b72c-ab14064eaf99"},"vehicle_type_id":"4","last_reported":1718226445,"current_range_meters":2800,"station_id":"ce4bgv12rcd13ifvqcp0","pricing_plan_id":"cebpf4jnsgd1na2vs0mg"},{"bike_id":"e3532e14-ef82-4df5-9978-1e2713dbc255","system_id":"levelo_inurba_marseille","lat":43.299243,"lon":5.374807,"is_reserved":false,"is_disabled":false,"rental_uris":{"android":"levelo://app?vid=e3532e14-ef82-4df5-9978-1e2713dbc255","ios":"levelo://app?vid=e3532e14-ef82-4df5-9978-1e2713dbc255"},"vehicle_type_id":"4","last_reported":1718226445,"current_range_meters":28800,"station_id":"ce4bgjh2rcd13ifvqbg0","pricing_plan_id":"cebpf4jnsgd1na2vs0mg"},{"bike_id":"f384134b-bfc4-4af9-abe0-797f860aa8bd","system_id":"levelo_inurba_marseille","lat":43.311722,"lon":5.387247,"is_reserved":false,"is_disabled":false,"rental_uris":{"android":"levelo://app?vid=f384134b-bfc4-4af9-abe0-797f860aa8bd","ios":"levelo://app?vid=f384134b-bfc4-4af9-abe0-797f860aa8bd"},"vehicle_type_id":"4","last_reported":1718226445,"current_range_meters":27200,"station_id":"ce4bgv12rcd13ifvqcp0","pricing_plan_id":"cebpf4jnsgd1na2vs0mg"},{"bike_id":"9efe87f5-21c8-480d-8947-d6685a4a84f4","system_id":"levelo_inurba_marseille","lat":43.299243,"lon":5.37481,"is_reserved":false,"is_disabled":false,"rental_uris":{"android":"levelo://app?vid=9efe87f5-21c8-480d-8947-d6685a4a84f4","ios":"levelo://app?vid=9efe87f5-21c8-480d-8947-d6685a4a84f4"},"vehicle_type_id":"4","last_reported":1718226445,"current_range_meters":19600,"station_id":"ce4bgjh2rcd13ifvqbg0","pricing_plan_id":"cebpf4jnsgd1na2vs0mg"},{"bike_id":"04bbb28f-771b-4e95-b7f2-36f6447b61d6","system_id":"levelo_inurba_marseille","lat":43.311722,"lon":5.387247,"is_reserved":false,"is_disabled":false,"rental_uris":{"android":"levelo://app?vid=04bbb28f-771b-4e95-b7f2-36f6447b61d6","ios":"levelo://app?vid=04bbb28f-771b-4e95-b7f2-36f6447b61d6"},"vehicle_type_id":"4","last_reported":1718226445,"current_range_meters":13200,"station_id":"ce4bgv12rcd13ifvqcp0","pricing_plan_id":"cebpf4jnsgd1na2vs0mg"},{"bike_id":"79f8539a-e4a7-474b-9d74-db416cbee8f9","system_id":"levelo_inurba_marseille","lat":43.311722,"lon":5.387247,"is_reserved":false,"is_disabled":false,"rental_uris":{"android":"levelo://app?vid=79f8539a-e4a7-474b-9d74-db416cbee8f9","ios":"levelo://app?vid=79f8539a-e4a7-474b-9d74-db416cbee8f9"},"vehicle_type_id":"4","last_reported":1718226445,"current_range_meters":800,"station_id":"ce4bgv12rcd13ifvqcp0","pricing_plan_id":"cebpf4jnsgd1na2vs0mg"},{"bike_id":"fe596353-de56-426e-af43-aa3533297794","system_id":"levelo_inurba_marseille","lat":43.311722,"lon":5.387247,"is_reserved":false,"is_disabled":false,"rental_uris":{"android":"levelo://app?vid=fe596353-de56-426e-af43-aa3533297794","ios":"levelo://app?vid=fe596353-de56-426e-af43-aa3533297794"},"vehicle_type_id":"4","last_reported":1718226445,"current_range_meters":10400,"station_id":"ce4bgv12rcd13ifvqcp0","pricing_plan_id":"cebpf4jnsgd1na2vs0mg"},{"bike_id":"b5124d0a-2bf3-449f-8d43-ebfaca91a74c","system_id":"levelo_inurba_marseille","lat":43.311722,"lon":5.387247,"is_reserved":false,"is_disabled":false,"rental_uris":{"android":"levelo://app?vid=b5124d0a-2bf3-449f-8d43-ebfaca91a74c","ios":"levelo://app?vid=b5124d0a-2bf3-449f-8d43-ebfaca91a74c"},"vehicle_type_id":"4","last_reported":1718226445,"current_range_meters":6000,"station_id":"ce4bgv12rcd13ifvqcp0","pricing_plan_id":"cebpf4jnsgd1na2vs0mg"},{"bike_id":"838f4de3-cf46-485c-a2fd-20092117b4da","system_id":"levelo_inurba_marseille","lat":43.299243,"lon":5.374807,"is_reserved":false,"is_disabled":false,"rental_uris":{"android":"levelo://app?vid=838f4de3-cf46-485c-a2fd-20092117b4da","ios":"levelo://app?vid=838f4de3-cf46-485c-a2fd-20092117b4da"},"vehicle_type_id":"4","last_reported":1718226445,"current_range_meters":19200,"station_id":"ce4bgjh2rcd13ifvqbg0","pricing_plan_id":"cebpf4jnsgd1na2vs0mg"},{"bike_id":"261b15df-1f90-4eaf-8d41-87334cad7836","system_id":"levelo_inurba_marseille","lat":43.311722,"lon":5.387247,"is_reserved":false,"is_disabled":false,"rental_uris":{"android":"levelo://app?vid=261b15df-1f90-4eaf-8d41-87334cad7836","ios":"levelo://app?vid=261b15df-1f90-4eaf-8d41-87334cad7836"},"vehicle_type_id":"4","last_reported":1718226445,"current_range_meters":6800,"station_id":"ce4bgv12rcd13ifvqcp0","pricing_plan_id":"cebpf4jnsgd1na2vs0mg"},{"bike_id":"549b5301-8a66-4f8d-8eff-8c4c2087a9fc","system_id":"levelo_inurba_marseille","lat":43.311722,"lon":5.387247,"is_reserved":false,"is_disabled":false,"rental_uris":{"android":"levelo://app?vid=549b5301-8a66-4f8d-8eff-8c4c2087a9fc","ios":"levelo://app?vid=549b5301-8a66-4f8d-8eff-8c4c2087a9fc"},"vehicle_type_id":"4","last_reported":1718226445,"current_range_meters":11600,"station_id":"ce4bgv12rcd13ifvqcp0","pricing_plan_id":"cebpf4jnsgd1na2vs0mg"},{"bike_id":"28b65bbb-6cbd-43c9-8e99-c677abc75f45","system_id":"levelo_inurba_marseille","lat":43.311722,"lon":5.387247,"is_reserved":false,"is_disabled":false,"rental_uris":{"android":"levelo://app?vid=28b65bbb-6cbd-43c9-8e99-c677abc75f45","ios":"levelo://app?vid=28b65bbb-6cbd-43c9-8e99-c677abc75f45"},"vehicle_type_id":"4","last_reported":1718226445,"current_range_meters":23200,"station_id":"ce4bgv12rcd13ifvqcp0","pricing_plan_id":"cebpf4jnsgd1na2vs0mg"},{"bike_id":"cbd455fd-a387-4915-94f8-4bc7c1b4d22b","system_id":"levelo_inurba_marseille","lat":43.311722,"lon":5.387247,"is_reserved":false,"is_disabled":false,"rental_uris":{"android":"levelo://app?vid=cbd455fd-a387-4915-94f8-4bc7c1b4d22b","ios":"levelo://app?vid=cbd455fd-a387-4915-94f8-4bc7c1b4d22b"},"vehicle_type_id":"4","last_reported":1718226445,"current_range_meters":20000,"station_id":"ce4bgv12rcd13ifvqcp0","pricing_plan_id":"cebpf4jnsgd1na2vs0mg"},{"bike_id":"4724ace2-c8fa-4e2a-a0ea-0a3df197f679","system_id":"levelo_inurba_marseille","lat":43.311722,"lon":5.387247,"is_reserved":false,"is_disabled":false,"rental_uris":{"android":"levelo://app?vid=4724ace2-c8fa-4e2a-a0ea-0a3df197f679","ios":"levelo://app?vid=4724ace2-c8fa-4e2a-a0ea-0a3df197f679"},"vehicle_type_id":"4","last_reported":1718226445,"current_range_meters":21200,"station_id":"ce4bgv12rcd13ifvqcp0","pricing_plan_id":"cebpf4jnsgd1na2vs0mg"},{"bike_id":"c4a083bd-6c2d-48fb-b5f4-4bd32c526d49","system_id":"levelo_inurba_marseille","lat":43.311722,"lon":5.387247,"is_reserved":false,"is_disabled":false,"rental_uris":{"android":"levelo://app?vid=c4a083bd-6c2d-48fb-b5f4-4bd32c526d49","ios":"levelo://app?vid=c4a083bd-6c2d-48fb-b5f4-4bd32c526d49"},"vehicle_type_id":"4","last_reported":1718226445,"current_range_meters":8800,"station_id":"ce4bgv12rcd13ifvqcp0","pricing_plan_id":"cebpf4jnsgd1na2vs0mg"},{"bike_id":"819c7cd0-8a20-4444-8120-0a97fcb62f8e","system_id":"levelo_inurba_marseille","lat":43.311722,"lon":5.387247,"is_reserved":false,"is_disabled":false,"rental_uris":{"android":"levelo://app?vid=819c7cd0-8a20-4444-8120-0a97fcb62f8e","ios":"levelo://app?vid=819c7cd0-8a20-4444-8120-0a97fcb62f8e"},"vehicle_type_id":"4","last_reported":1718226445,"current_range_meters":22400,"station_id":"ce4bgv12rcd13ifvqcp0","pricing_plan_id":"cebpf4jnsgd1na2vs0mg"},{"bike_id":"5ad299bc-7194-4685-8b19-1ea7d3bc1717","system_id":"levelo_inurba_marseille","lat":43.298232,"lon":5.372938,"is_reserved":false,"is_disabled":false,"rental_uris":{"android":"levelo://app?vid=5ad299bc-7194-4685-8b19-1ea7d3bc1717","ios":"levelo://app?vid=5ad299bc-7194-4685-8b19-1ea7d3bc1717"},"vehicle_type_id":"4","last_reported":1718226445,"current_range_meters":24800,"station_id":"","pricing_plan_id":"cebpf4jnsgd1na2vs0mg"},{"bike_id":"109325fb-0bc4-4ccd-b5fc-2dbade4c6461","system_id":"levelo_inurba_marseille","lat":43.297794,"lon":5.370888,"is_reserved":false,"is_disabled":false,"rental_uris":{"android":"levelo://app?vid=109325fb-0bc4-4ccd-b5fc-2dbade4c6461","ios":"levelo://app?vid=109325fb-0bc4-4ccd-b5fc-2dbade4c6461"},"vehicle_type_id":"4","last_reported":1718226445,"current_range_meters":24000,"station_id":"ce4bgop2rcd13ifvqc1g","pricing_plan_id":"cebpf4jnsgd1na2vs0mg"},{"bike_id":"2da36980-0f47-404a-80e4-cc61c882313e","system_id":"levelo_inurba_marseille","lat":43.297774,"lon":5.370875,"is_reserved":false,"is_disabled":false,"rental_uris":{"android":"levelo://app?vid=2da36980-0f47-404a-80e4-cc61c882313e","ios":"levelo://app?vid=2da36980-0f47-404a-80e4-cc61c882313e"},"vehicle_type_id":"4","last_reported":1718226445,"current_range_meters":16800,"station_id":"ce4bgop2rcd13ifvqc1g","pricing_plan_id":"cebpf4jnsgd1na2vs0mg"},{"bike_id":"65d3454a-708f-4293-89b7-38811dc320a6","system_id":"levelo_inurba_marseille","lat":43.32288,"lon":5.38261,"is_reserved":false,"is_disabled":false,"rental_uris":{"android":"levelo://app?vid=65d3454a-708f-4293-89b7-38811dc320a6","ios":"levelo://app?vid=65d3454a-708f-4293-89b7-38811dc320a6"},"vehicle_type_id":"4","last_reported":1718226445,"current_range_meters":0,"station_id":"ce4bhr12rcd13ifvqhqg","pricing_plan_id":"cebpf4jnsgd1na2vs0mg"},{"bike_id":"f16cc06f-1098-40f3-a6a1-a8a5004aec9e","system_id":"levelo_inurba_marseille","lat":43.324771,"lon":5.36557,"is_reserved":false,"is_disabled":false,"rental_uris":{"android":"levelo://app?vid=f16cc06f-1098-40f3-a6a1-a8a5004aec9e","ios":"levelo://app?vid=f16cc06f-1098-40f3-a6a1-a8a5004aec9e"},"vehicle_type_id":"4","last_reported":1718226445,"current_range_meters":5200,"station_id":"ce4bhs12rcd13ifvqhvg","pricing_plan_id":"cebpf4jnsgd1na2vs0mg"},{"bike_id":"56ae48b9-cb8d-4d94-966b-b3be837fb22c","system_id":"levelo_inurba_marseille","lat":43.322894,"lon":5.382628,"is_reserved":false,"is_disabled":false,"rental_uris":{"android":"levelo://app?vid=56ae48b9-cb8d-4d94-966b-b3be837fb22c","ios":"levelo://app?vid=56ae48b9-cb8d-4d94-966b-b3be837fb22c"},"vehicle_type_id":"4","last_reported":1718226445,"current_range_meters":2400,"station_id":"ce4bhr12rcd13ifvqhqg","pricing_plan_id":"cebpf4jnsgd1na2vs0mg"},{"bike_id":"376fa2a0-cde1-45a6-b499-c911de54c8c9","system_id":"levelo_inurba_marseille","lat":43.322872,"lon":5.382756,"is_reserved":false,"is_disabled":false,"rental_uris":{"android":"levelo://app?vid=376fa2a0-cde1-45a6-b499-c911de54c8c9","ios":"levelo://app?vid=376fa2a0-cde1-45a6-b499-c911de54c8c9"},"vehicle_type_id":"4","last_reported":1718226445,"current_range_meters":18800,"station_id":"ce4bhr12rcd13ifvqhqg","pricing_plan_id":"cebpf4jnsgd1na2vs0mg"},{"bike_id":"f7d3e57f-85c1-4dd2-a2e9-8941bda67830","system_id":"levelo_inurba_marseille","lat":43.322872,"lon":5.382756,"is_reserved":false,"is_disabled":false,"rental_uris":{"android":"levelo://app?vid=f7d3e57f-85c1-4dd2-a2e9-8941bda67830","ios":"levelo://app?vid=f7d3e57f-85c1-4dd2-a2e9-8941bda67830"},"vehicle_type_id":"4","last_reported":1718226445,"current_range_meters":2400,"station_id":"ce4bhr12rcd13ifvqhqg","pricing_plan_id":"cebpf4jnsgd1na2vs0mg"},{"bike_id":"d37aca2e-5e3a-4fc5-b364-015a8d62c309","system_id":"levelo_inurba_marseille","lat":43.297163,"lon":5.365866,"is_reserved":false,"is_disabled":false,"rental_uris":{"android":"levelo://app?vid=d37aca2e-5e3a-4fc5-b364-015a8d62c309","ios":"levelo://app?vid=d37aca2e-5e3a-4fc5-b364-015a8d62c309"},"vehicle_type_id":"4","last_reported":1718226445,"current_range_meters":21600,"station_id":"ce4bgn12rcd13ifvqbt0","pricing_plan_id":"cebpf4jnsgd1na2vs0mg"},{"bike_id":"61b59230-8c90-4027-9003-b0426fd8b79d","system_id":"levelo_inurba_marseille","lat":43.297163,"lon":5.365866,"is_reserved":false,"is_disabled":false,"rental_uris":{"android":"levelo://app?vid=61b59230-8c90-4027-9003-b0426fd8b79d","ios":"levelo://app?vid=61b59230-8c90-4027-9003-b0426fd8b79d"},"vehicle_type_id":"4","last_reported":1718226445,"current_range_meters":17200,"station_id":"ce4bgn12rcd13ifvqbt0","pricing_plan_id":"cebpf4jnsgd1na2vs0mg"},{"bike_id":"3206ae81-5352-4dfc-bcaf-f1154c218d36","system_id":"levelo_inurba_marseille","lat":43.297163,"lon":5.365866,"is_reserved":false,"is_disabled":false,"rental_uris":{"android":"levelo://app?vid=3206ae81-5352-4dfc-bcaf-f1154c218d36","ios":"levelo://app?vid=3206ae81-5352-4dfc-bcaf-f1154c218d36"},"vehicle_type_id":"4","last_reported":1718226445,"current_range_meters":18400,"station_id":"ce4bgn12rcd13ifvqbt0","pricing_plan_id":"cebpf4jnsgd1na2vs0mg"},{"bike_id":"3342ee91-5ed1-4e88-921f-6a85027a4a13","system_id":"levelo_inurba_marseille","lat":43.29651,"lon":5.372618,"is_reserved":false,"is_disabled":false,"rental_uris":{"android":"levelo://app?vid=3342ee91-5ed1-4e88-921f-6a85027a4a13","ios":"levelo://app?vid=3342ee91-5ed1-4e88-921f-6a85027a4a13"},"vehicle_type_id":"4","last_reported":1718226445,"current_range_meters":0,"station_id":"","pricing_plan_id":"cebpf4jnsgd1na2vs0mg"},{"bike_id":"f12fe903-e430-4a5b-854f-91048e026aaf","system_id":"levelo_inurba_marseille","lat":43.32953,"lon":5.36553,"is_reserved":false,"is_disabled":false,"rental_uris":{"android":"levelo://app?vid=f12fe903-e430-4a5b-854f-91048e026aaf","ios":"levelo://app?vid=f12fe903-e430-4a5b-854f-91048e026aaf"},"vehicle_type_id":"4","last_reported":1718226445,"current_range_meters":6000,"station_id":"","pricing_plan_id":"cebpf4jnsgd1na2vs0mg"},{"bike_id":"13a3b725-a6b8-47c0-9b1e-aa026bbec650","system_id":"levelo_inurba_marseille","lat":43.296935,"lon":5.376544,"is_reserved":false,"is_disabled":false,"rental_uris":{"android":"levelo://app?vid=13a3b725-a6b8-47c0-9b1e-aa026bbec650","ios":"levelo://app?vid=13a3b725-a6b8-47c0-9b1e-aa026bbec650"},"vehicle_type_id":"4","last_reported":1718226445,"current_range_meters":23600,"station_id":"ce4bgkh2rcd13ifvqbl0","pricing_plan_id":"cebpf4jnsgd1na2vs0mg"},{"bike_id":"9d294b1e-7857-4d76-a3ff-c5ae4456412a","system_id":"levelo_inurba_marseille","lat":43.29573,"lon":5.367355,"is_reserved":false,"is_disabled":false,"rental_uris":{"android":"levelo://app?vid=9d294b1e-7857-4d76-a3ff-c5ae4456412a","ios":"levelo://app?vid=9d294b1e-7857-4d76-a3ff-c5ae4456412a"},"vehicle_type_id":"4","last_reported":1718226445,"current_range_meters":28000,"station_id":"ce4bgph2rcd13ifvqc2g","pricing_plan_id":"cebpf4jnsgd1na2vs0mg"},{"bike_id":"9f2cfc6a-a9bc-4491-a719-1b85b449c7fd","system_id":"levelo_inurba_marseille","lat":43.29573,"lon":5.367355,"is_reserved":false,"is_disabled":false,"rental_uris":{"android":"levelo://app?vid=9f2cfc6a-a9bc-4491-a719-1b85b449c7fd","ios":"levelo://app?vid=9f2cfc6a-a9bc-4491-a719-1b85b449c7fd"},"vehicle_type_id":"4","last_reported":1718226445,"current_range_meters":31200,"station_id":"ce4bgph2rcd13ifvqc2g","pricing_plan_id":"cebpf4jnsgd1na2vs0mg"},{"bike_id":"e8bdf93d-ce58-4872-80cc-10b27bd2385a","system_id":"levelo_inurba_marseille","lat":43.299028,"lon":5.381509,"is_reserved":false,"is_disabled":false,"rental_uris":{"android":"levelo://app?vid=e8bdf93d-ce58-4872-80cc-10b27bd2385a","ios":"levelo://app?vid=e8bdf93d-ce58-4872-80cc-10b27bd2385a"},"vehicle_type_id":"4","last_reported":1718226445,"current_range_meters":30800,"station_id":"ce4bgj12rcd13ifvqbc0","pricing_plan_id":"cebpf4jnsgd1na2vs0mg"},{"bike_id":"931dab37-a5b3-4075-ac7d-e76723d02206","system_id":"levelo_inurba_marseille","lat":43.29721,"lon":5.37693,"is_reserved":false,"is_disabled":false,"rental_uris":{"android":"levelo://app?vid=931dab37-a5b3-4075-ac7d-e76723d02206","ios":"levelo://app?vid=931dab37-a5b3-4075-ac7d-e76723d02206"},"vehicle_type_id":"4","last_reported":1718226445,"current_range_meters":800,"station_id":"","pricing_plan_id":"cebpf4jnsgd1na2vs0mg"},{"bike_id":"9c87c9a1-e59d-4149-bace-25b5d4e2fe0e","system_id":"levelo_inurba_marseille","lat":43.299028,"lon":5.381509,"is_reserved":false,"is_disabled":false,"rental_uris":{"android":"levelo://app?vid=9c87c9a1-e59d-4149-bace-25b5d4e2fe0e","ios":"levelo://app?vid=9c87c9a1-e59d-4149-bace-25b5d4e2fe0e"},"vehicle_type_id":"4","last_reported":1718226445,"current_range_meters":10400,"station_id":"ce4bgj12rcd13ifvqbc0","pricing_plan_id":"cebpf4jnsgd1na2vs0mg"},{"bike_id":"76aabc13-d3c0-4629-8739-c4ca6f99d864","system_id":"levelo_inurba_marseille","lat":43.299028,"lon":5.381509,"is_reserved":false,"is_disabled":false,"rental_uris":{"android":"levelo://app?vid=76aabc13-d3c0-4629-8739-c4ca6f99d864","ios":"levelo://app?vid=76aabc13-d3c0-4629-8739-c4ca6f99d864"},"vehicle_type_id":"4","last_reported":1718226445,"current_range_meters":24800,"station_id":"ce4bgj12rcd13ifvqbc0","pricing_plan_id":"cebpf4jnsgd1na2vs0mg"},{"bike_id":"b925c017-bd68-4f98-b60b-27569c40f068","system_id":"levelo_inurba_marseille","lat":43.299028,"lon":5.381509,"is_reserved":false,"is_disabled":false,"rental_uris":{"android":"levelo://app?vid=b925c017-bd68-4f98-b60b-27569c40f068","ios":"levelo://app?vid=b925c017-bd68-4f98-b60b-27569c40f068"},"vehicle_type_id":"4","last_reported":1718226445,"current_range_meters":21200,"station_id":"ce4bgj12rcd13ifvqbc0","pricing_plan_id":"cebpf4jnsgd1na2vs0mg"},{"bike_id":"4977c32b-c40b-4e18-8e0d-e27196bed109","system_id":"levelo_inurba_marseille","lat":43.296935,"lon":5.376544,"is_reserved":false,"is_disabled":false,"rental_uris":{"android":"levelo://app?vid=4977c32b-c40b-4e18-8e0d-e27196bed109","ios":"levelo://app?vid=4977c32b-c40b-4e18-8e0d-e27196bed109"},"vehicle_type_id":"4","last_reported":1718226445,"current_range_meters":22000,"station_id":"ce4bgkh2rcd13ifvqbl0","pricing_plan_id":"cebpf4jnsgd1na2vs0mg"},{"bike_id":"57d7c690-cfd4-44e6-a3e5-39a766ee2737","system_id":"levelo_inurba_marseille","lat":43.296921,"lon":5.376579,"is_reserved":false,"is_disabled":false,"rental_uris":{"android":"levelo://app?vid=57d7c690-cfd4-44e6-a3e5-39a766ee2737","ios":"levelo://app?vid=57d7c690-cfd4-44e6-a3e5-39a766ee2737"},"vehicle_type_id":"4","last_reported":1718226445,"current_range_meters":24000,"station_id":"ce4bgkh2rcd13ifvqbl0","pricing_plan_id":"cebpf4jnsgd1na2vs0mg"},{"bike_id":"669096d8-dfa9-42a4-9b5f-08a986277def","system_id":"levelo_inurba_marseille","lat":43.309589,"lon":5.390258,"is_reserved":false,"is_disabled":false,"rental_uris":{"android":"levelo://app?vid=669096d8-dfa9-42a4-9b5f-08a986277def","ios":"levelo://app?vid=669096d8-dfa9-42a4-9b5f-08a986277def"},"vehicle_type_id":"4","last_reported":1718226445,"current_range_meters":24800,"station_id":"ce4bgup2rcd13ifvqco0","pricing_plan_id":"cebpf4jnsgd1na2vs0mg"},{"bike_id":"fc5d9bac-883e-4eef-be8a-99267af2967d","system_id":"levelo_inurba_marseille","lat":43.317557,"lon":5.390173,"is_reserved":false,"is_disabled":false,"rental_uris":{"android":"levelo://app?vid=fc5d9bac-883e-4eef-be8a-99267af2967d","ios":"levelo://app?vid=fc5d9bac-883e-4eef-be8a-99267af2967d"},"vehicle_type_id":"4","last_reported":1718226445,"current_range_meters":7600,"station_id":"ce4bhqp2rcd13ifvqhng","pricing_plan_id":"cebpf4jnsgd1na2vs0mg"},{"bike_id":"ac0636f9-ee24-4f01-ac2e-4f0abad03890","system_id":"levelo_inurba_marseille","lat":43.317557,"lon":5.390173,"is_reserved":false,"is_disabled":false,"rental_uris":{"android":"levelo://app?vid=ac0636f9-ee24-4f01-ac2e-4f0abad03890","ios":"levelo://app?vid=ac0636f9-ee24-4f01-ac2e-4f0abad03890"},"vehicle_type_id":"4","last_reported":1718226445,"current_range_meters":2000,"station_id":"ce4bhqp2rcd13ifvqhng","pricing_plan_id":"cebpf4jnsgd1na2vs0mg"},{"bike_id":"5f3ebbe0-f2a4-4310-907d-48d065d90b25","system_id":"levelo_inurba_marseille","lat":43.317557,"lon":5.390173,"is_reserved":false,"is_disabled":false,"rental_uris":{"android":"levelo://app?vid=5f3ebbe0-f2a4-4310-907d-48d065d90b25","ios":"levelo://app?vid=5f3ebbe0-f2a4-4310-907d-48d065d90b25"},"vehicle_type_id":"4","last_reported":1718226445,"current_range_meters":27600,"station_id":"ce4bhqp2rcd13ifvqhng","pricing_plan_id":"cebpf4jnsgd1na2vs0mg"},{"bike_id":"4c623094-9072-4d12-a132-fddaae1de704","system_id":"levelo_inurba_marseille","lat":43.317557,"lon":5.390173,"is_reserved":false,"is_disabled":false,"rental_uris":{"android":"levelo://app?vid=4c623094-9072-4d12-a132-fddaae1de704","ios":"levelo://app?vid=4c623094-9072-4d12-a132-fddaae1de704"},"vehicle_type_id":"4","last_reported":1718226445,"current_range_meters":3600,"station_id":"ce4bhqp2rcd13ifvqhng","pricing_plan_id":"cebpf4jnsgd1na2vs0mg"},{"bike_id":"d7e0438f-a9d8-44cb-9d72-8e3ae42ef422","system_id":"levelo_inurba_marseille","lat":43.309589,"lon":5.390258,"is_reserved":false,"is_disabled":false,"rental_uris":{"android":"levelo://app?vid=d7e0438f-a9d8-44cb-9d72-8e3ae42ef422","ios":"levelo://app?vid=d7e0438f-a9d8-44cb-9d72-8e3ae42ef422"},"vehicle_type_id":"4","last_reported":1718226445,"current_range_meters":6000,"station_id":"ce4bgup2rcd13ifvqco0","pricing_plan_id":"cebpf4jnsgd1na2vs0mg"},{"bike_id":"08c3b1f0-78c7-4d98-861e-c434a80ae99a","system_id":"levelo_inurba_marseille","lat":43.298037,"lon":5.381066,"is_reserved":false,"is_disabled":false,"rental_uris":{"android":"levelo://app?vid=08c3b1f0-78c7-4d98-861e-c434a80ae99a","ios":"levelo://app?vid=08c3b1f0-78c7-4d98-861e-c434a80ae99a"},"vehicle_type_id":"4","last_reported":1718226445,"current_range_meters":30000,"station_id":"ce4bgip2rcd13ifvqbb0","pricing_plan_id":"cebpf4jnsgd1na2vs0mg"},{"bike_id":"435bd29c-8c20-4b81-8d24-088bd7a3a6f7","system_id":"levelo_inurba_marseille","lat":43.295748,"lon":5.37522,"is_reserved":false,"is_disabled":false,"rental_uris":{"android":"levelo://app?vid=435bd29c-8c20-4b81-8d24-088bd7a3a6f7","ios":"levelo://app?vid=435bd29c-8c20-4b81-8d24-088bd7a3a6f7"},"vehicle_type_id":"4","last_reported":1718226445,"current_range_meters":18000,"station_id":"ce4bgh92rcd13ifvqb50","pricing_plan_id":"cebpf4jnsgd1na2vs0mg"},{"bike_id":"537986e4-9758-489c-9a50-ee5df42f2d11","system_id":"levelo_inurba_marseille","lat":43.295748,"lon":5.37522,"is_reserved":false,"is_disabled":false,"rental_uris":{"android":"levelo://app?vid=537986e4-9758-489c-9a50-ee5df42f2d11","ios":"levelo://app?vid=537986e4-9758-489c-9a50-ee5df42f2d11"},"vehicle_type_id":"4","last_reported":1718226445,"current_range_meters":20800,"station_id":"ce4bgh92rcd13ifvqb50","pricing_plan_id":"cebpf4jnsgd1na2vs0mg"},{"bike_id":"945beab3-d7bf-4e2a-9e6f-adfe26aa69af","system_id":"levelo_inurba_marseille","lat":43.304278,"lon":5.388868,"is_reserved":false,"is_disabled":false,"rental_uris":{"android":"levelo://app?vid=945beab3-d7bf-4e2a-9e6f-adfe26aa69af","ios":"levelo://app?vid=945beab3-d7bf-4e2a-9e6f-adfe26aa69af"},"vehicle_type_id":"4","last_reported":1718226445,"current_range_meters":31600,"station_id":"ce4bgk12rcd13ifvqbi0","pricing_plan_id":"cebpf4jnsgd1na2vs0mg"},{"bike_id":"4e5d8b9b-b714-4d01-9903-bf84f928b68d","system_id":"levelo_inurba_marseille","lat":43.30441,"lon":5.38891,"is_reserved":false,"is_disabled":false,"rental_uris":{"android":"levelo://app?vid=4e5d8b9b-b714-4d01-9903-bf84f928b68d","ios":"levelo://app?vid=4e5d8b9b-b714-4d01-9903-bf84f928b68d"},"vehicle_type_id":"4","last_reported":1718226445,"current_range_meters":9200,"station_id":"ce4bgk12rcd13ifvqbi0","pricing_plan_id":"cebpf4jnsgd1na2vs0mg"},{"bike_id":"51311dfd-70f2-4050-8994-4d1890952260","system_id":"levelo_inurba_marseille","lat":43.304274,"lon":5.388873,"is_reserved":false,"is_disabled":false,"rental_uris":{"android":"levelo://app?vid=51311dfd-70f2-4050-8994-4d1890952260","ios":"levelo://app?vid=51311dfd-70f2-4050-8994-4d1890952260"},"vehicle_type_id":"4","last_reported":1718226445,"current_range_meters":27200,"station_id":"ce4bgk12rcd13ifvqbi0","pricing_plan_id":"cebpf4jnsgd1na2vs0mg"},{"bike_id":"d51789ea-eb04-4e0b-b0d1-a567aa1af80c","system_id":"levelo_inurba_marseille","lat":43.304606,"lon":5.379026,"is_reserved":false,"is_disabled":false,"rental_uris":{"android":"levelo://app?vid=d51789ea-eb04-4e0b-b0d1-a567aa1af80c","ios":"levelo://app?vid=d51789ea-eb04-4e0b-b0d1-a567aa1af80c"},"vehicle_type_id":"4","last_reported":1718226445,"current_range_meters":9200,"station_id":"ce4bgup2rcd13ifvqcn0","pricing_plan_id":"cebpf4jnsgd1na2vs0mg"},{"bike_id":"f96a4db7-e76f-40e2-9565-d48f139bbec1","system_id":"levelo_inurba_marseille","lat":43.30426,"lon":5.388838,"is_reserved":false,"is_disabled":false,"rental_uris":{"android":"levelo://app?vid=f96a4db7-e76f-40e2-9565-d48f139bbec1","ios":"levelo://app?vid=f96a4db7-e76f-40e2-9565-d48f139bbec1"},"vehicle_type_id":"4","last_reported":1718226445,"current_range_meters":27600,"station_id":"ce4bgk12rcd13ifvqbi0","pricing_plan_id":"cebpf4jnsgd1na2vs0mg"},{"bike_id":"0b9ac1fb-a384-4c4a-884d-d490d38df598","system_id":"levelo_inurba_marseille","lat":43.304278,"lon":5.388868,"is_reserved":false,"is_disabled":false,"rental_uris":{"android":"levelo://app?vid=0b9ac1fb-a384-4c4a-884d-d490d38df598","ios":"levelo://app?vid=0b9ac1fb-a384-4c4a-884d-d490d38df598"},"vehicle_type_id":"4","last_reported":1718226445,"current_range_meters":0,"station_id":"ce4bgk12rcd13ifvqbi0","pricing_plan_id":"cebpf4jnsgd1na2vs0mg"},{"bike_id":"e39aeee1-217f-4859-9a41-6049f57decd3","system_id":"levelo_inurba_marseille","lat":43.299707,"lon":5.384859,"is_reserved":false,"is_disabled":false,"rental_uris":{"android":"levelo://app?vid=e39aeee1-217f-4859-9a41-6049f57decd3","ios":"levelo://app?vid=e39aeee1-217f-4859-9a41-6049f57decd3"},"vehicle_type_id":"4","last_reported":1718226445,"current_range_meters":7600,"station_id":"ce4bgj92rcd13ifvqbd0","pricing_plan_id":"cebpf4jnsgd1na2vs0mg"},{"bike_id":"d3913978-fde6-40ca-b3b8-a7639677f862","system_id":"levelo_inurba_marseille","lat":43.299717,"lon":5.384845,"is_reserved":false,"is_disabled":false,"rental_uris":{"android":"levelo://app?vid=d3913978-fde6-40ca-b3b8-a7639677f862","ios":"levelo://app?vid=d3913978-fde6-40ca-b3b8-a7639677f862"},"vehicle_type_id":"4","last_reported":1718226445,"current_range_meters":7600,"station_id":"ce4bgj92rcd13ifvqbd0","pricing_plan_id":"cebpf4jnsgd1na2vs0mg"},{"bike_id":"e78d90e2-526f-4f1d-9d4c-130f6174e680","system_id":"levelo_inurba_marseille","lat":43.299717,"lon":5.384845,"is_reserved":false,"is_disabled":false,"rental_uris":{"android":"levelo://app?vid=e78d90e2-526f-4f1d-9d4c-130f6174e680","ios":"levelo://app?vid=e78d90e2-526f-4f1d-9d4c-130f6174e680"},"vehicle_type_id":"4","last_reported":1718226445,"current_range_meters":30000,"station_id":"ce4bgj92rcd13ifvqbd0","pricing_plan_id":"cebpf4jnsgd1na2vs0mg"},{"bike_id":"def32e2b-3263-42a7-8614-8d436ff006d0","system_id":"levelo_inurba_marseille","lat":43.29667,"lon":5.37929,"is_reserved":false,"is_disabled":false,"rental_uris":{"android":"levelo://app?vid=def32e2b-3263-42a7-8614-8d436ff006d0","ios":"levelo://app?vid=def32e2b-3263-42a7-8614-8d436ff006d0"},"vehicle_type_id":"4","last_reported":1718226445,"current_range_meters":2800,"station_id":"","pricing_plan_id":"cebpf4jnsgd1na2vs0mg"},{"bike_id":"3208e987-9f16-4ac0-818c-14a97eef481e","system_id":"levelo_inurba_marseille","lat":43.299717,"lon":5.384845,"is_reserved":false,"is_disabled":false,"rental_uris":{"android":"levelo://app?vid=3208e987-9f16-4ac0-818c-14a97eef481e","ios":"levelo://app?vid=3208e987-9f16-4ac0-818c-14a97eef481e"},"vehicle_type_id":"4","last_reported":1718226445,"current_range_meters":17200,"station_id":"ce4bgj92rcd13ifvqbd0","pricing_plan_id":"cebpf4jnsgd1na2vs0mg"},{"bike_id":"a8aceef6-75c9-4423-8ca5-d19aa8d5e2f6","system_id":"levelo_inurba_marseille","lat":43.299717,"lon":5.384845,"is_reserved":false,"is_disabled":false,"rental_uris":{"android":"levelo://app?vid=a8aceef6-75c9-4423-8ca5-d19aa8d5e2f6","ios":"levelo://app?vid=a8aceef6-75c9-4423-8ca5-d19aa8d5e2f6"},"vehicle_type_id":"4","last_reported":1718226445,"current_range_meters":16000,"station_id":"ce4bgj92rcd13ifvqbd0","pricing_plan_id":"cebpf4jnsgd1na2vs0mg"},{"bike_id":"1cb2a1bf-af51-4a03-aadb-f92584eec5ce","system_id":"levelo_inurba_marseille","lat":43.299724,"lon":5.384848,"is_reserved":false,"is_disabled":false,"rental_uris":{"android":"levelo://app?vid=1cb2a1bf-af51-4a03-aadb-f92584eec5ce","ios":"levelo://app?vid=1cb2a1bf-af51-4a03-aadb-f92584eec5ce"},"vehicle_type_id":"4","last_reported":1718226445,"current_range_meters":25200,"station_id":"ce4bgj92rcd13ifvqbd0","pricing_plan_id":"cebpf4jnsgd1na2vs0mg"},{"bike_id":"42309f9c-bcb4-41c8-93c1-b2bf019e77ec","system_id":"levelo_inurba_marseille","lat":43.299724,"lon":5.384848,"is_reserved":false,"is_disabled":false,"rental_uris":{"android":"levelo://app?vid=42309f9c-bcb4-41c8-93c1-b2bf019e77ec","ios":"levelo://app?vid=42309f9c-bcb4-41c8-93c1-b2bf019e77ec"},"vehicle_type_id":"4","last_reported":1718226445,"current_range_meters":12800,"station_id":"ce4bgj92rcd13ifvqbd0","pricing_plan_id":"cebpf4jnsgd1na2vs0mg"},{"bike_id":"5d217b16-5bfd-465c-a373-6549a7a1da4e","system_id":"levelo_inurba_marseille","lat":43.32367,"lon":5.388836,"is_reserved":false,"is_disabled":false,"rental_uris":{"android":"levelo://app?vid=5d217b16-5bfd-465c-a373-6549a7a1da4e","ios":"levelo://app?vid=5d217b16-5bfd-465c-a373-6549a7a1da4e"},"vehicle_type_id":"4","last_reported":1718226445,"current_range_meters":31200,"station_id":"ce4bhqp2rcd13ifvqhog","pricing_plan_id":"cebpf4jnsgd1na2vs0mg"},{"bike_id":"d4dd3d7a-9bef-483c-a60b-88617163048c","system_id":"levelo_inurba_marseille","lat":43.32367,"lon":5.388836,"is_reserved":false,"is_disabled":false,"rental_uris":{"android":"levelo://app?vid=d4dd3d7a-9bef-483c-a60b-88617163048c","ios":"levelo://app?vid=d4dd3d7a-9bef-483c-a60b-88617163048c"},"vehicle_type_id":"4","last_reported":1718226445,"current_range_meters":31200,"station_id":"ce4bhqp2rcd13ifvqhog","pricing_plan_id":"cebpf4jnsgd1na2vs0mg"},{"bike_id":"be044c13-9595-46a2-a6e1-02d71d12a95b","system_id":"levelo_inurba_marseille","lat":43.32367,"lon":5.388836,"is_reserved":false,"is_disabled":false,"rental_uris":{"android":"levelo://app?vid=be044c13-9595-46a2-a6e1-02d71d12a95b","ios":"levelo://app?vid=be044c13-9595-46a2-a6e1-02d71d12a95b"},"vehicle_type_id":"4","last_reported":1718226445,"current_range_meters":22800,"station_id":"ce4bhqp2rcd13ifvqhog","pricing_plan_id":"cebpf4jnsgd1na2vs0mg"},{"bike_id":"97420346-f724-47f3-8309-866f39a9acae","system_id":"levelo_inurba_marseille","lat":43.32367,"lon":5.388836,"is_reserved":false,"is_disabled":false,"rental_uris":{"android":"levelo://app?vid=97420346-f724-47f3-8309-866f39a9acae","ios":"levelo://app?vid=97420346-f724-47f3-8309-866f39a9acae"},"vehicle_type_id":"4","last_reported":1718226445,"current_range_meters":22800,"station_id":"ce4bhqp2rcd13ifvqhog","pricing_plan_id":"cebpf4jnsgd1na2vs0mg"},{"bike_id":"3091db33-17ab-4793-b223-cec22614392f","system_id":"levelo_inurba_marseille","lat":43.32367,"lon":5.388836,"is_reserved":false,"is_disabled":false,"rental_uris":{"android":"levelo://app?vid=3091db33-17ab-4793-b223-cec22614392f","ios":"levelo://app?vid=3091db33-17ab-4793-b223-cec22614392f"},"vehicle_type_id":"4","last_reported":1718226445,"current_range_meters":31200,"station_id":"ce4bhqp2rcd13ifvqhog","pricing_plan_id":"cebpf4jnsgd1na2vs0mg"},{"bike_id":"07fadfff-c572-4234-b142-b67975660912","system_id":"levelo_inurba_marseille","lat":43.32369,"lon":5.38886,"is_reserved":false,"is_disabled":false,"rental_uris":{"android":"levelo://app?vid=07fadfff-c572-4234-b142-b67975660912","ios":"levelo://app?vid=07fadfff-c572-4234-b142-b67975660912"},"vehicle_type_id":"4","last_reported":1718226445,"current_range_meters":31200,"station_id":"ce4bhqp2rcd13ifvqhog","pricing_plan_id":"cebpf4jnsgd1na2vs0mg"},{"bike_id":"724d0d29-2088-4145-9f0a-53ba694ceb46","system_id":"levelo_inurba_marseille","lat":43.32367,"lon":5.388836,"is_reserved":false,"is_disabled":false,"rental_uris":{"android":"levelo://app?vid=724d0d29-2088-4145-9f0a-53ba694ceb46","ios":"levelo://app?vid=724d0d29-2088-4145-9f0a-53ba694ceb46"},"vehicle_type_id":"4","last_reported":1718226445,"current_range_meters":17200,"station_id":"ce4bhqp2rcd13ifvqhog","pricing_plan_id":"cebpf4jnsgd1na2vs0mg"},{"bike_id":"f9233f2b-06d8-4ea1-9fb3-2d50e4b056e4","system_id":"levelo_inurba_marseille","lat":43.2941,"lon":5.37413,"is_reserved":false,"is_disabled":false,"rental_uris":{"android":"levelo://app?vid=f9233f2b-06d8-4ea1-9fb3-2d50e4b056e4","ios":"levelo://app?vid=f9233f2b-06d8-4ea1-9fb3-2d50e4b056e4"},"vehicle_type_id":"4","last_reported":1718226445,"current_range_meters":0,"station_id":"","pricing_plan_id":"cebpf4jnsgd1na2vs0mg"},{"bike_id":"f0e66573-3087-464c-845c-bbad563319f4","system_id":"levelo_inurba_marseille","lat":43.312866,"lon":5.393583,"is_reserved":false,"is_disabled":false,"rental_uris":{"android":"levelo://app?vid=f0e66573-3087-464c-845c-bbad563319f4","ios":"levelo://app?vid=f0e66573-3087-464c-845c-bbad563319f4"},"vehicle_type_id":"4","last_reported":1718226445,"current_range_meters":13200,"station_id":"ce4bhm12rcd13ifvqgkg","pricing_plan_id":"cebpf4jnsgd1na2vs0mg"},{"bike_id":"c9d90584-3608-4038-815b-097e1871ae47","system_id":"levelo_inurba_marseille","lat":43.29602,"lon":5.381084,"is_reserved":false,"is_disabled":false,"rental_uris":{"android":"levelo://app?vid=c9d90584-3608-4038-815b-097e1871ae47","ios":"levelo://app?vid=c9d90584-3608-4038-815b-097e1871ae47"},"vehicle_type_id":"4","last_reported":1718226445,"current_range_meters":16400,"station_id":"ce4bgl12rcd13ifvqbo0","pricing_plan_id":"cebpf4jnsgd1na2vs0mg"},{"bike_id":"de5357c5-0323-4ce4-940c-f2ab7b183f48","system_id":"levelo_inurba_marseille","lat":43.293259,"lon":5.371586,"is_reserved":false,"is_disabled":false,"rental_uris":{"android":"levelo://app?vid=de5357c5-0323-4ce4-940c-f2ab7b183f48","ios":"levelo://app?vid=de5357c5-0323-4ce4-940c-f2ab7b183f48"},"vehicle_type_id":"4","last_reported":1718226445,"current_range_meters":0,"station_id":"ce4bgh92rcd13ifvqb40","pricing_plan_id":"cebpf4jnsgd1na2vs0mg"},{"bike_id":"2a752627-d824-4aee-b879-2686e3c473f3","system_id":"levelo_inurba_marseille","lat":43.292345,"lon":5.368338,"is_reserved":false,"is_disabled":false,"rental_uris":{"android":"levelo://app?vid=2a752627-d824-4aee-b879-2686e3c473f3","ios":"levelo://app?vid=2a752627-d824-4aee-b879-2686e3c473f3"},"vehicle_type_id":"4","last_reported":1718226445,"current_range_meters":8400,"station_id":"ce4bhbp2rcd13ifvqesg","pricing_plan_id":"cebpf4jnsgd1na2vs0mg"},{"bike_id":"2cf7bd91-0951-464d-8d31-852ce106c3a1","system_id":"levelo_inurba_marseille","lat":43.30307,"lon":5.39203,"is_reserved":false,"is_disabled":false,"rental_uris":{"android":"levelo://app?vid=2cf7bd91-0951-464d-8d31-852ce106c3a1","ios":"levelo://app?vid=2cf7bd91-0951-464d-8d31-852ce106c3a1"},"vehicle_type_id":"4","last_reported":1718226445,"current_range_meters":16800,"station_id":"ce4bgkh2rcd13ifvqbk0","pricing_plan_id":"cebpf4jnsgd1na2vs0mg"},{"bike_id":"7c0a977c-0cbe-4eea-aac5-945075c6b25c","system_id":"levelo_inurba_marseille","lat":43.303002,"lon":5.392142,"is_reserved":false,"is_disabled":false,"rental_uris":{"android":"levelo://app?vid=7c0a977c-0cbe-4eea-aac5-945075c6b25c","ios":"levelo://app?vid=7c0a977c-0cbe-4eea-aac5-945075c6b25c"},"vehicle_type_id":"4","last_reported":1718226445,"current_range_meters":22400,"station_id":"ce4bgkh2rcd13ifvqbk0","pricing_plan_id":"cebpf4jnsgd1na2vs0mg"},{"bike_id":"7265866b-0a54-4fb0-8dd4-6be47e70d018","system_id":"levelo_inurba_marseille","lat":43.2936,"lon":5.37835,"is_reserved":false,"is_disabled":false,"rental_uris":{"android":"levelo://app?vid=7265866b-0a54-4fb0-8dd4-6be47e70d018","ios":"levelo://app?vid=7265866b-0a54-4fb0-8dd4-6be47e70d018"},"vehicle_type_id":"4","last_reported":1718226445,"current_range_meters":3600,"station_id":"ce4bgjh2rcd13ifvqbf0","pricing_plan_id":"cebpf4jnsgd1na2vs0mg"},{"bike_id":"f28d28f7-e292-4f0a-a6a9-387159e64b5f","system_id":"levelo_inurba_marseille","lat":43.2936,"lon":5.37835,"is_reserved":false,"is_disabled":false,"rental_uris":{"android":"levelo://app?vid=f28d28f7-e292-4f0a-a6a9-387159e64b5f","ios":"levelo://app?vid=f28d28f7-e292-4f0a-a6a9-387159e64b5f"},"vehicle_type_id":"4","last_reported":1718226445,"current_range_meters":2800,"station_id":"ce4bgjh2rcd13ifvqbf0","pricing_plan_id":"cebpf4jnsgd1na2vs0mg"},{"bike_id":"bfae9f6b-ccf2-42e9-81de-25a7e20df68c","system_id":"levelo_inurba_marseille","lat":43.30309,"lon":5.39211,"is_reserved":false,"is_disabled":false,"rental_uris":{"android":"levelo://app?vid=bfae9f6b-ccf2-42e9-81de-25a7e20df68c","ios":"levelo://app?vid=bfae9f6b-ccf2-42e9-81de-25a7e20df68c"},"vehicle_type_id":"4","last_reported":1718226445,"current_range_meters":21200,"station_id":"ce4bgkh2rcd13ifvqbk0","pricing_plan_id":"cebpf4jnsgd1na2vs0mg"},{"bike_id":"701b7f37-2655-47eb-87a5-d5d56787a0c8","system_id":"levelo_inurba_marseille","lat":43.30309,"lon":5.39211,"is_reserved":false,"is_disabled":false,"rental_uris":{"android":"levelo://app?vid=701b7f37-2655-47eb-87a5-d5d56787a0c8","ios":"levelo://app?vid=701b7f37-2655-47eb-87a5-d5d56787a0c8"},"vehicle_type_id":"4","last_reported":1718226445,"current_range_meters":23600,"station_id":"ce4bgkh2rcd13ifvqbk0","pricing_plan_id":"cebpf4jnsgd1na2vs0mg"},{"bike_id":"c4e96395-ff8b-4ee9-97eb-86f1fc31bba4","system_id":"levelo_inurba_marseille","lat":43.30304,"lon":5.39211,"is_reserved":false,"is_disabled":false,"rental_uris":{"android":"levelo://app?vid=c4e96395-ff8b-4ee9-97eb-86f1fc31bba4","ios":"levelo://app?vid=c4e96395-ff8b-4ee9-97eb-86f1fc31bba4"},"vehicle_type_id":"4","last_reported":1718226445,"current_range_meters":20000,"station_id":"ce4bgkh2rcd13ifvqbk0","pricing_plan_id":"cebpf4jnsgd1na2vs0mg"},{"bike_id":"349dd5fd-6597-41c2-8493-1af3f378595b","system_id":"levelo_inurba_marseille","lat":43.30305,"lon":5.39212,"is_reserved":false,"is_disabled":false,"rental_uris":{"android":"levelo://app?vid=349dd5fd-6597-41c2-8493-1af3f378595b","ios":"levelo://app?vid=349dd5fd-6597-41c2-8493-1af3f378595b"},"vehicle_type_id":"4","last_reported":1718226445,"current_range_meters":20000,"station_id":"ce4bgkh2rcd13ifvqbk0","pricing_plan_id":"cebpf4jnsgd1na2vs0mg"},{"bike_id":"d6d44fe6-f693-4a02-a74b-0d65630c5773","system_id":"levelo_inurba_marseille","lat":43.30303,"lon":5.39213,"is_reserved":false,"is_disabled":false,"rental_uris":{"android":"levelo://app?vid=d6d44fe6-f693-4a02-a74b-0d65630c5773","ios":"levelo://app?vid=d6d44fe6-f693-4a02-a74b-0d65630c5773"},"vehicle_type_id":"4","last_reported":1718226445,"current_range_meters":12800,"station_id":"ce4bgkh2rcd13ifvqbk0","pricing_plan_id":"cebpf4jnsgd1na2vs0mg"},{"bike_id":"1c356829-4872-4c39-8021-26058484af99","system_id":"levelo_inurba_marseille","lat":43.30303,"lon":5.39213,"is_reserved":false,"is_disabled":false,"rental_uris":{"android":"levelo://app?vid=1c356829-4872-4c39-8021-26058484af99","ios":"levelo://app?vid=1c356829-4872-4c39-8021-26058484af99"},"vehicle_type_id":"4","last_reported":1718226445,"current_range_meters":9600,"station_id":"ce4bgkh2rcd13ifvqbk0","pricing_plan_id":"cebpf4jnsgd1na2vs0mg"},{"bike_id":"3be5110e-8c3c-4171-aecc-b9820dd08139","system_id":"levelo_inurba_marseille","lat":43.30302,"lon":5.39216,"is_reserved":false,"is_disabled":false,"rental_uris":{"android":"levelo://app?vid=3be5110e-8c3c-4171-aecc-b9820dd08139","ios":"levelo://app?vid=3be5110e-8c3c-4171-aecc-b9820dd08139"},"vehicle_type_id":"4","last_reported":1718226445,"current_range_meters":16400,"station_id":"ce4bgkh2rcd13ifvqbk0","pricing_plan_id":"cebpf4jnsgd1na2vs0mg"},{"bike_id":"58e84870-e343-4d3f-8771-77471d891dd3","system_id":"levelo_inurba_marseille","lat":43.30304,"lon":5.39219,"is_reserved":false,"is_disabled":false,"rental_uris":{"android":"levelo://app?vid=58e84870-e343-4d3f-8771-77471d891dd3","ios":"levelo://app?vid=58e84870-e343-4d3f-8771-77471d891dd3"},"vehicle_type_id":"4","last_reported":1718226445,"current_range_meters":11600,"station_id":"ce4bgkh2rcd13ifvqbk0","pricing_plan_id":"cebpf4jnsgd1na2vs0mg"},{"bike_id":"b72d331b-5533-4929-991e-2a68ce13fa88","system_id":"levelo_inurba_marseille","lat":43.2936,"lon":5.37835,"is_reserved":false,"is_disabled":false,"rental_uris":{"android":"levelo://app?vid=b72d331b-5533-4929-991e-2a68ce13fa88","ios":"levelo://app?vid=b72d331b-5533-4929-991e-2a68ce13fa88"},"vehicle_type_id":"4","last_reported":1718226445,"current_range_meters":14800,"station_id":"ce4bgjh2rcd13ifvqbf0","pricing_plan_id":"cebpf4jnsgd1na2vs0mg"},{"bike_id":"1a4744cf-c28b-4afa-9320-833c3aea4e4a","system_id":"levelo_inurba_marseille","lat":43.30085,"lon":5.390856,"is_reserved":false,"is_disabled":false,"rental_uris":{"android":"levelo://app?vid=1a4744cf-c28b-4afa-9320-833c3aea4e4a","ios":"levelo://app?vid=1a4744cf-c28b-4afa-9320-833c3aea4e4a"},"vehicle_type_id":"4","last_reported":1718226445,"current_range_meters":24000,"station_id":"ce4bh192rcd13ifvqdb0","pricing_plan_id":"cebpf4jnsgd1na2vs0mg"},{"bike_id":"7bbd61e1-004e-4175-b43e-24d4b26fec33","system_id":"levelo_inurba_marseille","lat":43.30085,"lon":5.390856,"is_reserved":false,"is_disabled":false,"rental_uris":{"android":"levelo://app?vid=7bbd61e1-004e-4175-b43e-24d4b26fec33","ios":"levelo://app?vid=7bbd61e1-004e-4175-b43e-24d4b26fec33"},"vehicle_type_id":"4","last_reported":1718226445,"current_range_meters":20400,"station_id":"ce4bh192rcd13ifvqdb0","pricing_plan_id":"cebpf4jnsgd1na2vs0mg"},{"bike_id":"00baa734-85f3-4c83-90c4-180e5fa72c9d","system_id":"levelo_inurba_marseille","lat":43.30085,"lon":5.390856,"is_reserved":false,"is_disabled":false,"rental_uris":{"android":"levelo://app?vid=00baa734-85f3-4c83-90c4-180e5fa72c9d","ios":"levelo://app?vid=00baa734-85f3-4c83-90c4-180e5fa72c9d"},"vehicle_type_id":"4","last_reported":1718226445,"current_range_meters":7600,"station_id":"ce4bh192rcd13ifvqdb0","pricing_plan_id":"cebpf4jnsgd1na2vs0mg"},{"bike_id":"b10c9653-ca4e-45d0-a2f3-c98335d53f81","system_id":"levelo_inurba_marseille","lat":43.30085,"lon":5.390856,"is_reserved":false,"is_disabled":false,"rental_uris":{"android":"levelo://app?vid=b10c9653-ca4e-45d0-a2f3-c98335d53f81","ios":"levelo://app?vid=b10c9653-ca4e-45d0-a2f3-c98335d53f81"},"vehicle_type_id":"4","last_reported":1718226445,"current_range_meters":14000,"station_id":"ce4bh192rcd13ifvqdb0","pricing_plan_id":"cebpf4jnsgd1na2vs0mg"},{"bike_id":"91cae3e0-724a-4e3f-83ee-697e673ba01f","system_id":"levelo_inurba_marseille","lat":43.29223,"lon":5.36049,"is_reserved":false,"is_disabled":false,"rental_uris":{"android":"levelo://app?vid=91cae3e0-724a-4e3f-83ee-697e673ba01f","ios":"levelo://app?vid=91cae3e0-724a-4e3f-83ee-697e673ba01f"},"vehicle_type_id":"4","last_reported":1718226445,"current_range_meters":30000,"station_id":"ce4bhbh2rcd13ifvqeqg","pricing_plan_id":"cebpf4jnsgd1na2vs0mg"},{"bike_id":"c9304544-7635-4ee3-9100-35cf0a5301ed","system_id":"levelo_inurba_marseille","lat":43.29221,"lon":5.36053,"is_reserved":false,"is_disabled":false,"rental_uris":{"android":"levelo://app?vid=c9304544-7635-4ee3-9100-35cf0a5301ed","ios":"levelo://app?vid=c9304544-7635-4ee3-9100-35cf0a5301ed"},"vehicle_type_id":"4","last_reported":1718226445,"current_range_meters":9600,"station_id":"ce4bhbh2rcd13ifvqeqg","pricing_plan_id":"cebpf4jnsgd1na2vs0mg"},{"bike_id":"fd75c057-bb60-49b4-84d4-2f31d733a785","system_id":"levelo_inurba_marseille","lat":43.29219,"lon":5.36063,"is_reserved":false,"is_disabled":false,"rental_uris":{"android":"levelo://app?vid=fd75c057-bb60-49b4-84d4-2f31d733a785","ios":"levelo://app?vid=fd75c057-bb60-49b4-84d4-2f31d733a785"},"vehicle_type_id":"4","last_reported":1718226445,"current_range_meters":10400,"station_id":"ce4bhbh2rcd13ifvqeqg","pricing_plan_id":"cebpf4jnsgd1na2vs0mg"},{"bike_id":"61c71d90-1e58-445b-8aef-5fe2cf8449b8","system_id":"levelo_inurba_marseille","lat":43.298764,"lon":5.388973,"is_reserved":false,"is_disabled":false,"rental_uris":{"android":"levelo://app?vid=61c71d90-1e58-445b-8aef-5fe2cf8449b8","ios":"levelo://app?vid=61c71d90-1e58-445b-8aef-5fe2cf8449b8"},"vehicle_type_id":"4","last_reported":1718226445,"current_range_meters":9200,"station_id":"ce4bh392rcd13ifvqdl0","pricing_plan_id":"cebpf4jnsgd1na2vs0mg"},{"bike_id":"6f50d89e-fa8e-437c-ac8b-e30c12b37a45","system_id":"levelo_inurba_marseille","lat":43.291675,"lon":5.371583,"is_reserved":false,"is_disabled":false,"rental_uris":{"android":"levelo://app?vid=6f50d89e-fa8e-437c-ac8b-e30c12b37a45","ios":"levelo://app?vid=6f50d89e-fa8e-437c-ac8b-e30c12b37a45"},"vehicle_type_id":"4","last_reported":1718226445,"current_range_meters":4400,"station_id":"ce4bha92rcd13ifvqeh0","pricing_plan_id":"cebpf4jnsgd1na2vs0mg"},{"bike_id":"b75b8d2b-b89a-47cb-af2f-8c6c8fc77c7c","system_id":"levelo_inurba_marseille","lat":43.298668,"lon":5.388966,"is_reserved":false,"is_disabled":false,"rental_uris":{"android":"levelo://app?vid=b75b8d2b-b89a-47cb-af2f-8c6c8fc77c7c","ios":"levelo://app?vid=b75b8d2b-b89a-47cb-af2f-8c6c8fc77c7c"},"vehicle_type_id":"4","last_reported":1718226445,"current_range_meters":25600,"station_id":"ce4bh392rcd13ifvqdm0","pricing_plan_id":"cebpf4jnsgd1na2vs0mg"},{"bike_id":"35e98808-942e-42f4-9a8e-893d5d52c8f5","system_id":"levelo_inurba_marseille","lat":43.29167,"lon":5.37157,"is_reserved":false,"is_disabled":false,"rental_uris":{"android":"levelo://app?vid=35e98808-942e-42f4-9a8e-893d5d52c8f5","ios":"levelo://app?vid=35e98808-942e-42f4-9a8e-893d5d52c8f5"},"vehicle_type_id":"4","last_reported":1718226445,"current_range_meters":24000,"station_id":"ce4bha92rcd13ifvqeh0","pricing_plan_id":"cebpf4jnsgd1na2vs0mg"},{"bike_id":"2d7a309d-617c-4694-960c-f99b6640d3d0","system_id":"levelo_inurba_marseille","lat":43.29871,"lon":5.38904,"is_reserved":false,"is_disabled":false,"rental_uris":{"android":"levelo://app?vid=2d7a309d-617c-4694-960c-f99b6640d3d0","ios":"levelo://app?vid=2d7a309d-617c-4694-960c-f99b6640d3d0"},"vehicle_type_id":"4","last_reported":1718226445,"current_range_meters":0,"station_id":"ce4bh392rcd13ifvqdl0","pricing_plan_id":"cebpf4jnsgd1na2vs0mg"},{"bike_id":"49dc5f94-61b7-4ea5-a4fe-9cb9c11b0cdd","system_id":"levelo_inurba_marseille","lat":43.308858,"lon":5.396167,"is_reserved":false,"is_disabled":false,"rental_uris":{"android":"levelo://app?vid=49dc5f94-61b7-4ea5-a4fe-9cb9c11b0cdd","ios":"levelo://app?vid=49dc5f94-61b7-4ea5-a4fe-9cb9c11b0cdd"},"vehicle_type_id":"4","last_reported":1718226445,"current_range_meters":14400,"station_id":"ce4bh012rcd13ifvqcv0","pricing_plan_id":"cebpf4jnsgd1na2vs0mg"},{"bike_id":"2a5ff82f-3fd0-48e0-bb1e-a547bccfeb62","system_id":"levelo_inurba_marseille","lat":43.30882,"lon":5.39623,"is_reserved":false,"is_disabled":false,"rental_uris":{"android":"levelo://app?vid=2a5ff82f-3fd0-48e0-bb1e-a547bccfeb62","ios":"levelo://app?vid=2a5ff82f-3fd0-48e0-bb1e-a547bccfeb62"},"vehicle_type_id":"4","last_reported":1718226445,"current_range_meters":19600,"station_id":"ce4bh012rcd13ifvqcv0","pricing_plan_id":"cebpf4jnsgd1na2vs0mg"},{"bike_id":"fad1f035-7e82-4ca9-b33b-158249f7aec5","system_id":"levelo_inurba_marseille","lat":43.309038,"lon":5.396546,"is_reserved":false,"is_disabled":false,"rental_uris":{"android":"levelo://app?vid=fad1f035-7e82-4ca9-b33b-158249f7aec5","ios":"levelo://app?vid=fad1f035-7e82-4ca9-b33b-158249f7aec5"},"vehicle_type_id":"4","last_reported":1718226445,"current_range_meters":28000,"station_id":"ce4bh012rcd13ifvqcv0","pricing_plan_id":"cebpf4jnsgd1na2vs0mg"},{"bike_id":"444d3d9a-9cad-4833-ae49-38909374368f","system_id":"levelo_inurba_marseille","lat":43.309038,"lon":5.396546,"is_reserved":false,"is_disabled":false,"rental_uris":{"android":"levelo://app?vid=444d3d9a-9cad-4833-ae49-38909374368f","ios":"levelo://app?vid=444d3d9a-9cad-4833-ae49-38909374368f"},"vehicle_type_id":"4","last_reported":1718226445,"current_range_meters":22000,"station_id":"ce4bh012rcd13ifvqcv0","pricing_plan_id":"cebpf4jnsgd1na2vs0mg"},{"bike_id":"037d2563-7c0c-43a9-8dd6-2173afe72cd3","system_id":"levelo_inurba_marseille","lat":43.30887,"lon":5.39627,"is_reserved":false,"is_disabled":false,"rental_uris":{"android":"levelo://app?vid=037d2563-7c0c-43a9-8dd6-2173afe72cd3","ios":"levelo://app?vid=037d2563-7c0c-43a9-8dd6-2173afe72cd3"},"vehicle_type_id":"4","last_reported":1718226445,"current_range_meters":8000,"station_id":"ce4bh012rcd13ifvqcv0","pricing_plan_id":"cebpf4jnsgd1na2vs0mg"},{"bike_id":"77e12be7-f38a-49d6-9ea2-2baadc20b57e","system_id":"levelo_inurba_marseille","lat":43.291994,"lon":5.357886,"is_reserved":false,"is_disabled":false,"rental_uris":{"android":"levelo://app?vid=77e12be7-f38a-49d6-9ea2-2baadc20b57e","ios":"levelo://app?vid=77e12be7-f38a-49d6-9ea2-2baadc20b57e"},"vehicle_type_id":"4","last_reported":1718226445,"current_range_meters":18400,"station_id":"ce4bhb12rcd13ifvqel0","pricing_plan_id":"cebpf4jnsgd1na2vs0mg"},{"bike_id":"f711bcba-9f31-413d-a703-fa16a8af1753","system_id":"levelo_inurba_marseille","lat":43.309038,"lon":5.396546,"is_reserved":false,"is_disabled":false,"rental_uris":{"android":"levelo://app?vid=f711bcba-9f31-413d-a703-fa16a8af1753","ios":"levelo://app?vid=f711bcba-9f31-413d-a703-fa16a8af1753"},"vehicle_type_id":"4","last_reported":1718226445,"current_range_meters":30800,"station_id":"ce4bh012rcd13ifvqcv0","pricing_plan_id":"cebpf4jnsgd1na2vs0mg"},{"bike_id":"f202a986-8148-4233-91ac-9a63c42bf4ef","system_id":"levelo_inurba_marseille","lat":43.313291,"lon":5.396838,"is_reserved":false,"is_disabled":false,"rental_uris":{"android":"levelo://app?vid=f202a986-8148-4233-91ac-9a63c42bf4ef","ios":"levelo://app?vid=f202a986-8148-4233-91ac-9a63c42bf4ef"},"vehicle_type_id":"4","last_reported":1718226445,"current_range_meters":30000,"station_id":"ce4bgvp2rcd13ifvqcu0","pricing_plan_id":"cebpf4jnsgd1na2vs0mg"},{"bike_id":"4badb878-f7fe-40d2-ac09-ab732fd35b54","system_id":"levelo_inurba_marseille","lat":43.309047,"lon":5.396551,"is_reserved":false,"is_disabled":false,"rental_uris":{"android":"levelo://app?vid=4badb878-f7fe-40d2-ac09-ab732fd35b54","ios":"levelo://app?vid=4badb878-f7fe-40d2-ac09-ab732fd35b54"},"vehicle_type_id":"4","last_reported":1718226445,"current_range_meters":23200,"station_id":"ce4bh012rcd13ifvqcv0","pricing_plan_id":"cebpf4jnsgd1na2vs0mg"},{"bike_id":"dea13d7f-3d32-40bd-8dcd-2fa9eb6911fe","system_id":"levelo_inurba_marseille","lat":43.291994,"lon":5.357886,"is_reserved":false,"is_disabled":false,"rental_uris":{"android":"levelo://app?vid=dea13d7f-3d32-40bd-8dcd-2fa9eb6911fe","ios":"levelo://app?vid=dea13d7f-3d32-40bd-8dcd-2fa9eb6911fe"},"vehicle_type_id":"4","last_reported":1718226445,"current_range_meters":6400,"station_id":"ce4bhb12rcd13ifvqel0","pricing_plan_id":"cebpf4jnsgd1na2vs0mg"},{"bike_id":"a82a4ebc-c511-42c2-b9c1-fac7af19fc45","system_id":"levelo_inurba_marseille","lat":43.309038,"lon":5.396546,"is_reserved":false,"is_disabled":false,"rental_uris":{"android":"levelo://app?vid=a82a4ebc-c511-42c2-b9c1-fac7af19fc45","ios":"levelo://app?vid=a82a4ebc-c511-42c2-b9c1-fac7af19fc45"},"vehicle_type_id":"4","last_reported":1718226445,"current_range_meters":20400,"station_id":"ce4bh012rcd13ifvqcv0","pricing_plan_id":"cebpf4jnsgd1na2vs0mg"},{"bike_id":"c7fe245c-6dd9-443f-9e4f-6aa3e739692e","system_id":"levelo_inurba_marseille","lat":43.309038,"lon":5.396546,"is_reserved":false,"is_disabled":false,"rental_uris":{"android":"levelo://app?vid=c7fe245c-6dd9-443f-9e4f-6aa3e739692e","ios":"levelo://app?vid=c7fe245c-6dd9-443f-9e4f-6aa3e739692e"},"vehicle_type_id":"4","last_reported":1718226445,"current_range_meters":16800,"station_id":"ce4bh012rcd13ifvqcv0","pricing_plan_id":"cebpf4jnsgd1na2vs0mg"},{"bike_id":"39963f3d-196c-4f1d-8530-b5f587752cd2","system_id":"levelo_inurba_marseille","lat":43.30887,"lon":5.396368,"is_reserved":false,"is_disabled":false,"rental_uris":{"android":"levelo://app?vid=39963f3d-196c-4f1d-8530-b5f587752cd2","ios":"levelo://app?vid=39963f3d-196c-4f1d-8530-b5f587752cd2"},"vehicle_type_id":"4","last_reported":1718226445,"current_range_meters":21600,"station_id":"ce4bh012rcd13ifvqcv0","pricing_plan_id":"cebpf4jnsgd1na2vs0mg"},{"bike_id":"a2c4d7b6-254f-419d-aba0-a87d18108b5f","system_id":"levelo_inurba_marseille","lat":43.313291,"lon":5.396838,"is_reserved":false,"is_disabled":false,"rental_uris":{"android":"levelo://app?vid=a2c4d7b6-254f-419d-aba0-a87d18108b5f","ios":"levelo://app?vid=a2c4d7b6-254f-419d-aba0-a87d18108b5f"},"vehicle_type_id":"4","last_reported":1718226445,"current_range_meters":0,"station_id":"ce4bgvp2rcd13ifvqcu0","pricing_plan_id":"cebpf4jnsgd1na2vs0mg"},{"bike_id":"66d3ce27-2899-4357-af54-7f9087beba47","system_id":"levelo_inurba_marseille","lat":43.30881,"lon":5.39638,"is_reserved":false,"is_disabled":false,"rental_uris":{"android":"levelo://app?vid=66d3ce27-2899-4357-af54-7f9087beba47","ios":"levelo://app?vid=66d3ce27-2899-4357-af54-7f9087beba47"},"vehicle_type_id":"4","last_reported":1718226445,"current_range_meters":20000,"station_id":"ce4bh012rcd13ifvqcv0","pricing_plan_id":"cebpf4jnsgd1na2vs0mg"},{"bike_id":"97e51d94-3278-4a7b-a82b-cfe2300de94d","system_id":"levelo_inurba_marseille","lat":43.313291,"lon":5.396838,"is_reserved":false,"is_disabled":false,"rental_uris":{"android":"levelo://app?vid=97e51d94-3278-4a7b-a82b-cfe2300de94d","ios":"levelo://app?vid=97e51d94-3278-4a7b-a82b-cfe2300de94d"},"vehicle_type_id":"4","last_reported":1718226445,"current_range_meters":15200,"station_id":"ce4bgvp2rcd13ifvqcu0","pricing_plan_id":"cebpf4jnsgd1na2vs0mg"},{"bike_id":"64c254b0-5407-41d2-8e11-f71a1e9ef6c6","system_id":"levelo_inurba_marseille","lat":43.309047,"lon":5.396551,"is_reserved":false,"is_disabled":false,"rental_uris":{"android":"levelo://app?vid=64c254b0-5407-41d2-8e11-f71a1e9ef6c6","ios":"levelo://app?vid=64c254b0-5407-41d2-8e11-f71a1e9ef6c6"},"vehicle_type_id":"4","last_reported":1718226445,"current_range_meters":16400,"station_id":"ce4bh012rcd13ifvqcv0","pricing_plan_id":"cebpf4jnsgd1na2vs0mg"},{"bike_id":"041c0fb3-0197-49d0-9328-3c4f8eb328d8","system_id":"levelo_inurba_marseille","lat":43.309038,"lon":5.396546,"is_reserved":false,"is_disabled":false,"rental_uris":{"android":"levelo://app?vid=041c0fb3-0197-49d0-9328-3c4f8eb328d8","ios":"levelo://app?vid=041c0fb3-0197-49d0-9328-3c4f8eb328d8"},"vehicle_type_id":"4","last_reported":1718226445,"current_range_meters":24800,"station_id":"ce4bh012rcd13ifvqcv0","pricing_plan_id":"cebpf4jnsgd1na2vs0mg"},{"bike_id":"e2505d2f-457d-48f2-8e0b-53c53e3433c0","system_id":"levelo_inurba_marseille","lat":43.313291,"lon":5.396838,"is_reserved":false,"is_disabled":false,"rental_uris":{"android":"levelo://app?vid=e2505d2f-457d-48f2-8e0b-53c53e3433c0","ios":"levelo://app?vid=e2505d2f-457d-48f2-8e0b-53c53e3433c0"},"vehicle_type_id":"4","last_reported":1718226445,"current_range_meters":15600,"station_id":"ce4bgvp2rcd13ifvqcu0","pricing_plan_id":"cebpf4jnsgd1na2vs0mg"},{"bike_id":"2787c238-a0ec-471e-a79e-d9139d86a0a3","system_id":"levelo_inurba_marseille","lat":43.309038,"lon":5.396546,"is_reserved":false,"is_disabled":false,"rental_uris":{"android":"levelo://app?vid=2787c238-a0ec-471e-a79e-d9139d86a0a3","ios":"levelo://app?vid=2787c238-a0ec-471e-a79e-d9139d86a0a3"},"vehicle_type_id":"4","last_reported":1718226445,"current_range_meters":16400,"station_id":"ce4bh012rcd13ifvqcv0","pricing_plan_id":"cebpf4jnsgd1na2vs0mg"},{"bike_id":"0bf2e1ca-68f1-4c76-a9bf-9af37335f229","system_id":"levelo_inurba_marseille","lat":43.313291,"lon":5.396838,"is_reserved":false,"is_disabled":false,"rental_uris":{"android":"levelo://app?vid=0bf2e1ca-68f1-4c76-a9bf-9af37335f229","ios":"levelo://app?vid=0bf2e1ca-68f1-4c76-a9bf-9af37335f229"},"vehicle_type_id":"4","last_reported":1718226445,"current_range_meters":0,"station_id":"ce4bgvp2rcd13ifvqcu0","pricing_plan_id":"cebpf4jnsgd1na2vs0mg"},{"bike_id":"9ba93939-b83f-49cf-ac38-7dd9cb7971d8","system_id":"levelo_inurba_marseille","lat":43.31329,"lon":5.39693,"is_reserved":false,"is_disabled":false,"rental_uris":{"android":"levelo://app?vid=9ba93939-b83f-49cf-ac38-7dd9cb7971d8","ios":"levelo://app?vid=9ba93939-b83f-49cf-ac38-7dd9cb7971d8"},"vehicle_type_id":"4","last_reported":1718226445,"current_range_meters":1200,"station_id":"ce4bgvp2rcd13ifvqcu0","pricing_plan_id":"cebpf4jnsgd1na2vs0mg"},{"bike_id":"a743105d-ab50-4e92-860b-8dd7dc340ff1","system_id":"levelo_inurba_marseille","lat":43.313291,"lon":5.396838,"is_reserved":false,"is_disabled":false,"rental_uris":{"android":"levelo://app?vid=a743105d-ab50-4e92-860b-8dd7dc340ff1","ios":"levelo://app?vid=a743105d-ab50-4e92-860b-8dd7dc340ff1"},"vehicle_type_id":"4","last_reported":1718226445,"current_range_meters":15200,"station_id":"ce4bgvp2rcd13ifvqcu0","pricing_plan_id":"cebpf4jnsgd1na2vs0mg"},{"bike_id":"fb69aa4e-f81f-4b1f-b080-f8ac39695f5b","system_id":"levelo_inurba_marseille","lat":43.309038,"lon":5.396546,"is_reserved":false,"is_disabled":false,"rental_uris":{"android":"levelo://app?vid=fb69aa4e-f81f-4b1f-b080-f8ac39695f5b","ios":"levelo://app?vid=fb69aa4e-f81f-4b1f-b080-f8ac39695f5b"},"vehicle_type_id":"4","last_reported":1718226445,"current_range_meters":20800,"station_id":"ce4bh012rcd13ifvqcv0","pricing_plan_id":"cebpf4jnsgd1na2vs0mg"},{"bike_id":"3f1d4d45-a430-42f7-b15d-a2afbe17e67e","system_id":"levelo_inurba_marseille","lat":43.309038,"lon":5.396546,"is_reserved":false,"is_disabled":false,"rental_uris":{"android":"levelo://app?vid=3f1d4d45-a430-42f7-b15d-a2afbe17e67e","ios":"levelo://app?vid=3f1d4d45-a430-42f7-b15d-a2afbe17e67e"},"vehicle_type_id":"4","last_reported":1718226445,"current_range_meters":21200,"station_id":"ce4bh012rcd13ifvqcv0","pricing_plan_id":"cebpf4jnsgd1na2vs0mg"},{"bike_id":"c948fd18-5bff-4084-8ff5-6df87a4fc4de","system_id":"levelo_inurba_marseille","lat":43.30889,"lon":5.39659,"is_reserved":false,"is_disabled":false,"rental_uris":{"android":"levelo://app?vid=c948fd18-5bff-4084-8ff5-6df87a4fc4de","ios":"levelo://app?vid=c948fd18-5bff-4084-8ff5-6df87a4fc4de"},"vehicle_type_id":"4","last_reported":1718226445,"current_range_meters":0,"station_id":"ce4bh012rcd13ifvqcv0","pricing_plan_id":"cebpf4jnsgd1na2vs0mg"},{"bike_id":"0f2074cd-143a-42b3-9352-ff3d40d496f0","system_id":"levelo_inurba_marseille","lat":43.327007,"lon":5.39034,"is_reserved":false,"is_disabled":false,"rental_uris":{"android":"levelo://app?vid=0f2074cd-143a-42b3-9352-ff3d40d496f0","ios":"levelo://app?vid=0f2074cd-143a-42b3-9352-ff3d40d496f0"},"vehicle_type_id":"4","last_reported":1718226445,"current_range_meters":0,"station_id":"","pricing_plan_id":"cebpf4jnsgd1na2vs0mg"},{"bike_id":"b9c2521c-ab6b-4898-b2bc-fb7f98b09b21","system_id":"levelo_inurba_marseille","lat":43.290624,"lon":5.359245,"is_reserved":false,"is_disabled":false,"rental_uris":{"android":"levelo://app?vid=b9c2521c-ab6b-4898-b2bc-fb7f98b09b21","ios":"levelo://app?vid=b9c2521c-ab6b-4898-b2bc-fb7f98b09b21"},"vehicle_type_id":"4","last_reported":1718226445,"current_range_meters":22000,"station_id":"ce4bha92rcd13ifvqeg0","pricing_plan_id":"cebpf4jnsgd1na2vs0mg"},{"bike_id":"721f7798-543f-43f2-80a4-2d50e62f3e3a","system_id":"levelo_inurba_marseille","lat":43.293245,"lon":5.38372,"is_reserved":false,"is_disabled":false,"rental_uris":{"android":"levelo://app?vid=721f7798-543f-43f2-80a4-2d50e62f3e3a","ios":"levelo://app?vid=721f7798-543f-43f2-80a4-2d50e62f3e3a"},"vehicle_type_id":"4","last_reported":1718226445,"current_range_meters":11200,"station_id":"","pricing_plan_id":"cebpf4jnsgd1na2vs0mg"},{"bike_id":"96888109-f10d-4f7a-9a64-56b54d22d973","system_id":"levelo_inurba_marseille","lat":43.290319,"lon":5.375732,"is_reserved":false,"is_disabled":false,"rental_uris":{"android":"levelo://app?vid=96888109-f10d-4f7a-9a64-56b54d22d973","ios":"levelo://app?vid=96888109-f10d-4f7a-9a64-56b54d22d973"},"vehicle_type_id":"4","last_reported":1718226445,"current_range_meters":8800,"station_id":"ce4bh692rcd13ifvqe90","pricing_plan_id":"cebpf4jnsgd1na2vs0mg"},{"bike_id":"923766cb-6573-4f35-bddf-2a218a6a4ac1","system_id":"levelo_inurba_marseille","lat":43.29038,"lon":5.37561,"is_reserved":false,"is_disabled":false,"rental_uris":{"android":"levelo://app?vid=923766cb-6573-4f35-bddf-2a218a6a4ac1","ios":"levelo://app?vid=923766cb-6573-4f35-bddf-2a218a6a4ac1"},"vehicle_type_id":"4","last_reported":1718226445,"current_range_meters":0,"station_id":"ce4bh692rcd13ifvqe90","pricing_plan_id":"cebpf4jnsgd1na2vs0mg"},{"bike_id":"a5e7523d-653a-49ef-9903-2300a8e6123b","system_id":"levelo_inurba_marseille","lat":43.29037,"lon":5.37562,"is_reserved":false,"is_disabled":false,"rental_uris":{"android":"levelo://app?vid=a5e7523d-653a-49ef-9903-2300a8e6123b","ios":"levelo://app?vid=a5e7523d-653a-49ef-9903-2300a8e6123b"},"vehicle_type_id":"4","last_reported":1718226445,"current_range_meters":14400,"station_id":"","pricing_plan_id":"cebpf4jnsgd1na2vs0mg"},{"bike_id":"36dd5aca-1612-491a-bd83-383ea466c961","system_id":"levelo_inurba_marseille","lat":43.29418,"lon":5.3862,"is_reserved":false,"is_disabled":false,"rental_uris":{"android":"levelo://app?vid=36dd5aca-1612-491a-bd83-383ea466c961","ios":"levelo://app?vid=36dd5aca-1612-491a-bd83-383ea466c961"},"vehicle_type_id":"4","last_reported":1718226445,"current_range_meters":0,"station_id":"ce4bh2h2rcd13ifvqdh0","pricing_plan_id":"cebpf4jnsgd1na2vs0mg"},{"bike_id":"5358102e-9735-4cb2-9752-6738d5cbb5de","system_id":"levelo_inurba_marseille","lat":43.290327,"lon":5.375711,"is_reserved":false,"is_disabled":false,"rental_uris":{"android":"levelo://app?vid=5358102e-9735-4cb2-9752-6738d5cbb5de","ios":"levelo://app?vid=5358102e-9735-4cb2-9752-6738d5cbb5de"},"vehicle_type_id":"4","last_reported":1718226445,"current_range_meters":17600,"station_id":"ce4bh692rcd13ifvqe90","pricing_plan_id":"cebpf4jnsgd1na2vs0mg"},{"bike_id":"9059104b-b167-420e-a4d2-4f83f0a1342c","system_id":"levelo_inurba_marseille","lat":43.290327,"lon":5.375711,"is_reserved":false,"is_disabled":false,"rental_uris":{"android":"levelo://app?vid=9059104b-b167-420e-a4d2-4f83f0a1342c","ios":"levelo://app?vid=9059104b-b167-420e-a4d2-4f83f0a1342c"},"vehicle_type_id":"4","last_reported":1718226445,"current_range_meters":3600,"station_id":"ce4bh692rcd13ifvqe90","pricing_plan_id":"cebpf4jnsgd1na2vs0mg"},{"bike_id":"9b27092a-66e8-4bdd-8fc0-837b50e716f5","system_id":"levelo_inurba_marseille","lat":43.29421,"lon":5.38632,"is_reserved":false,"is_disabled":false,"rental_uris":{"android":"levelo://app?vid=9b27092a-66e8-4bdd-8fc0-837b50e716f5","ios":"levelo://app?vid=9b27092a-66e8-4bdd-8fc0-837b50e716f5"},"vehicle_type_id":"4","last_reported":1718226445,"current_range_meters":14800,"station_id":"ce4bh2h2rcd13ifvqdh0","pricing_plan_id":"cebpf4jnsgd1na2vs0mg"},{"bike_id":"c992ccf5-7cbd-46d4-a2d3-a5120889e35e","system_id":"levelo_inurba_marseille","lat":43.29412,"lon":5.38616,"is_reserved":false,"is_disabled":false,"rental_uris":{"android":"levelo://app?vid=c992ccf5-7cbd-46d4-a2d3-a5120889e35e","ios":"levelo://app?vid=c992ccf5-7cbd-46d4-a2d3-a5120889e35e"},"vehicle_type_id":"4","last_reported":1718226445,"current_range_meters":20000,"station_id":"ce4bh2h2rcd13ifvqdh0","pricing_plan_id":"cebpf4jnsgd1na2vs0mg"},{"bike_id":"2f9883e5-d718-4549-821a-34e2899406ba","system_id":"levelo_inurba_marseille","lat":43.29412,"lon":5.38627,"is_reserved":false,"is_disabled":false,"rental_uris":{"android":"levelo://app?vid=2f9883e5-d718-4549-821a-34e2899406ba","ios":"levelo://app?vid=2f9883e5-d718-4549-821a-34e2899406ba"},"vehicle_type_id":"4","last_reported":1718226445,"current_range_meters":24000,"station_id":"ce4bh2h2rcd13ifvqdh0","pricing_plan_id":"cebpf4jnsgd1na2vs0mg"},{"bike_id":"de7a1f47-5b5d-41d6-ab4b-9c694c424ccd","system_id":"levelo_inurba_marseille","lat":43.289184,"lon":5.366408,"is_reserved":false,"is_disabled":false,"rental_uris":{"android":"levelo://app?vid=de7a1f47-5b5d-41d6-ab4b-9c694c424ccd","ios":"levelo://app?vid=de7a1f47-5b5d-41d6-ab4b-9c694c424ccd"},"vehicle_type_id":"4","last_reported":1718226445,"current_range_meters":18400,"station_id":"ce4bhap2rcd13ifvqek0","pricing_plan_id":"cebpf4jnsgd1na2vs0mg"},{"bike_id":"024d7d77-02d0-41a5-8dfb-fad67b471874","system_id":"levelo_inurba_marseille","lat":43.289184,"lon":5.366408,"is_reserved":false,"is_disabled":false,"rental_uris":{"android":"levelo://app?vid=024d7d77-02d0-41a5-8dfb-fad67b471874","ios":"levelo://app?vid=024d7d77-02d0-41a5-8dfb-fad67b471874"},"vehicle_type_id":"4","last_reported":1718226445,"current_range_meters":13200,"station_id":"ce4bhap2rcd13ifvqek0","pricing_plan_id":"cebpf4jnsgd1na2vs0mg"},{"bike_id":"fdfdfba1-dfb4-4945-8346-7e738d48c88f","system_id":"levelo_inurba_marseille","lat":43.289184,"lon":5.366408,"is_reserved":false,"is_disabled":false,"rental_uris":{"android":"levelo://app?vid=fdfdfba1-dfb4-4945-8346-7e738d48c88f","ios":"levelo://app?vid=fdfdfba1-dfb4-4945-8346-7e738d48c88f"},"vehicle_type_id":"4","last_reported":1718226445,"current_range_meters":0,"station_id":"ce4bhap2rcd13ifvqek0","pricing_plan_id":"cebpf4jnsgd1na2vs0mg"},{"bike_id":"57b2074c-6642-453a-a957-b2535b21904d","system_id":"levelo_inurba_marseille","lat":43.2927,"lon":5.384393,"is_reserved":false,"is_disabled":false,"rental_uris":{"android":"levelo://app?vid=57b2074c-6642-453a-a957-b2535b21904d","ios":"levelo://app?vid=57b2074c-6642-453a-a957-b2535b21904d"},"vehicle_type_id":"4","last_reported":1718226445,"current_range_meters":0,"station_id":"ce4bh692rcd13ifvqea0","pricing_plan_id":"cebpf4jnsgd1na2vs0mg"},{"bike_id":"7c122417-7a4c-459f-89ee-dec5a7178144","system_id":"levelo_inurba_marseille","lat":43.292644,"lon":5.384257,"is_reserved":false,"is_disabled":false,"rental_uris":{"android":"levelo://app?vid=7c122417-7a4c-459f-89ee-dec5a7178144","ios":"levelo://app?vid=7c122417-7a4c-459f-89ee-dec5a7178144"},"vehicle_type_id":"4","last_reported":1718226445,"current_range_meters":0,"station_id":"ce4bh692rcd13ifvqea0","pricing_plan_id":"cebpf4jnsgd1na2vs0mg"},{"bike_id":"65b32797-6ed5-4b7c-9034-38eb4c170b56","system_id":"levelo_inurba_marseille","lat":43.304274,"lon":5.397513,"is_reserved":false,"is_disabled":false,"rental_uris":{"android":"levelo://app?vid=65b32797-6ed5-4b7c-9034-38eb4c170b56","ios":"levelo://app?vid=65b32797-6ed5-4b7c-9034-38eb4c170b56"},"vehicle_type_id":"4","last_reported":1718226445,"current_range_meters":20000,"station_id":"ce4bh092rcd13ifvqd20","pricing_plan_id":"cebpf4jnsgd1na2vs0mg"},{"bike_id":"bf1e2669-8b46-49c7-a05b-28b506ada997","system_id":"levelo_inurba_marseille","lat":43.304296,"lon":5.397513,"is_reserved":false,"is_disabled":false,"rental_uris":{"android":"levelo://app?vid=bf1e2669-8b46-49c7-a05b-28b506ada997","ios":"levelo://app?vid=bf1e2669-8b46-49c7-a05b-28b506ada997"},"vehicle_type_id":"4","last_reported":1718226445,"current_range_meters":20800,"station_id":"ce4bh092rcd13ifvqd20","pricing_plan_id":"cebpf4jnsgd1na2vs0mg"},{"bike_id":"04f9fe80-7682-4b93-a416-e76bc7a838b3","system_id":"levelo_inurba_marseille","lat":43.287154,"lon":5.399979,"is_reserved":false,"is_disabled":false,"rental_uris":{"android":"levelo://app?vid=04f9fe80-7682-4b93-a416-e76bc7a838b3","ios":"levelo://app?vid=04f9fe80-7682-4b93-a416-e76bc7a838b3"},"vehicle_type_id":"4","last_reported":1718226445,"current_range_meters":7600,"station_id":"ce4bho92rcd13ifvqh3g","pricing_plan_id":"cebpf4jnsgd1na2vs0mg"},{"bike_id":"ba63e12d-bdde-46a3-9696-c1d41a6edf87","system_id":"levelo_inurba_marseille","lat":43.304296,"lon":5.397513,"is_reserved":false,"is_disabled":false,"rental_uris":{"android":"levelo://app?vid=ba63e12d-bdde-46a3-9696-c1d41a6edf87","ios":"levelo://app?vid=ba63e12d-bdde-46a3-9696-c1d41a6edf87"},"vehicle_type_id":"4","last_reported":1718226445,"current_range_meters":21600,"station_id":"ce4bh092rcd13ifvqd20","pricing_plan_id":"cebpf4jnsgd1na2vs0mg"},{"bike_id":"89ae51fa-86f9-46a1-b19a-2ee3cd088cc7","system_id":"levelo_inurba_marseille","lat":43.28997,"lon":5.35618,"is_reserved":false,"is_disabled":false,"rental_uris":{"android":"levelo://app?vid=89ae51fa-86f9-46a1-b19a-2ee3cd088cc7","ios":"levelo://app?vid=89ae51fa-86f9-46a1-b19a-2ee3cd088cc7"},"vehicle_type_id":"4","last_reported":1718226445,"current_range_meters":16000,"station_id":"ce4bhb92rcd13ifvqen0","pricing_plan_id":"cebpf4jnsgd1na2vs0mg"},{"bike_id":"cdd2b6ae-d7b4-4ebc-8649-febf17ce489e","system_id":"levelo_inurba_marseille","lat":43.29802,"lon":5.39337,"is_reserved":false,"is_disabled":false,"rental_uris":{"android":"levelo://app?vid=cdd2b6ae-d7b4-4ebc-8649-febf17ce489e","ios":"levelo://app?vid=cdd2b6ae-d7b4-4ebc-8649-febf17ce489e"},"vehicle_type_id":"4","last_reported":1718226445,"current_range_meters":24400,"station_id":"chh1huq6cuj3fo74tm60","pricing_plan_id":"cebpf4jnsgd1na2vs0mg"},{"bike_id":"77a7e223-d2e5-4173-80c9-e2b36fda296d","system_id":"levelo_inurba_marseille","lat":43.29794,"lon":5.39333,"is_reserved":false,"is_disabled":false,"rental_uris":{"android":"levelo://app?vid=77a7e223-d2e5-4173-80c9-e2b36fda296d","ios":"levelo://app?vid=77a7e223-d2e5-4173-80c9-e2b36fda296d"},"vehicle_type_id":"4","last_reported":1718226445,"current_range_meters":18800,"station_id":"chh1huq6cuj3fo74tm60","pricing_plan_id":"cebpf4jnsgd1na2vs0mg"},{"bike_id":"cde84ab5-d378-456a-aae4-5b34c3fab206","system_id":"levelo_inurba_marseille","lat":43.29096,"lon":5.38162,"is_reserved":false,"is_disabled":false,"rental_uris":{"android":"levelo://app?vid=cde84ab5-d378-456a-aae4-5b34c3fab206","ios":"levelo://app?vid=cde84ab5-d378-456a-aae4-5b34c3fab206"},"vehicle_type_id":"4","last_reported":1718226445,"current_range_meters":8400,"station_id":"ce4bh512rcd13ifvqe2g","pricing_plan_id":"cebpf4jnsgd1na2vs0mg"},{"bike_id":"1c183076-c1f0-4c3a-9b09-7f57f30b9404","system_id":"levelo_inurba_marseille","lat":43.29799,"lon":5.39349,"is_reserved":false,"is_disabled":false,"rental_uris":{"android":"levelo://app?vid=1c183076-c1f0-4c3a-9b09-7f57f30b9404","ios":"levelo://app?vid=1c183076-c1f0-4c3a-9b09-7f57f30b9404"},"vehicle_type_id":"4","last_reported":1718226445,"current_range_meters":6000,"station_id":"chh1huq6cuj3fo74tm60","pricing_plan_id":"cebpf4jnsgd1na2vs0mg"},{"bike_id":"e8f4c7d3-cefe-4708-a3f7-8ab765663ff6","system_id":"levelo_inurba_marseille","lat":43.29794,"lon":5.39346,"is_reserved":false,"is_disabled":false,"rental_uris":{"android":"levelo://app?vid=e8f4c7d3-cefe-4708-a3f7-8ab765663ff6","ios":"levelo://app?vid=e8f4c7d3-cefe-4708-a3f7-8ab765663ff6"},"vehicle_type_id":"4","last_reported":1718226445,"current_range_meters":26800,"station_id":"chh1huq6cuj3fo74tm60","pricing_plan_id":"cebpf4jnsgd1na2vs0mg"},{"bike_id":"733e12e5-933e-4cc2-940e-b4bc52d13412","system_id":"levelo_inurba_marseille","lat":43.29794,"lon":5.39347,"is_reserved":false,"is_disabled":false,"rental_uris":{"android":"levelo://app?vid=733e12e5-933e-4cc2-940e-b4bc52d13412","ios":"levelo://app?vid=733e12e5-933e-4cc2-940e-b4bc52d13412"},"vehicle_type_id":"4","last_reported":1718226445,"current_range_meters":31200,"station_id":"chh1huq6cuj3fo74tm60","pricing_plan_id":"cebpf4jnsgd1na2vs0mg"},{"bike_id":"4a96c610-c4f0-4336-a676-429194e06a6a","system_id":"levelo_inurba_marseille","lat":43.297907,"lon":5.393443,"is_reserved":false,"is_disabled":false,"rental_uris":{"android":"levelo://app?vid=4a96c610-c4f0-4336-a676-429194e06a6a","ios":"levelo://app?vid=4a96c610-c4f0-4336-a676-429194e06a6a"},"vehicle_type_id":"4","last_reported":1718226445,"current_range_meters":31600,"station_id":"chh1huq6cuj3fo74tm60","pricing_plan_id":"cebpf4jnsgd1na2vs0mg"},{"bike_id":"7b2676f3-83b5-461a-b140-cf8faf59197e","system_id":"levelo_inurba_marseille","lat":43.297853,"lon":5.393393,"is_reserved":false,"is_disabled":false,"rental_uris":{"android":"levelo://app?vid=7b2676f3-83b5-461a-b140-cf8faf59197e","ios":"levelo://app?vid=7b2676f3-83b5-461a-b140-cf8faf59197e"},"vehicle_type_id":"4","last_reported":1718226445,"current_range_meters":13200,"station_id":"chh1huq6cuj3fo74tm60","pricing_plan_id":"cebpf4jnsgd1na2vs0mg"},{"bike_id":"595fa85c-dc85-44fe-af3f-c5bebb8ebe00","system_id":"levelo_inurba_marseille","lat":43.2979,"lon":5.39345,"is_reserved":false,"is_disabled":false,"rental_uris":{"android":"levelo://app?vid=595fa85c-dc85-44fe-af3f-c5bebb8ebe00","ios":"levelo://app?vid=595fa85c-dc85-44fe-af3f-c5bebb8ebe00"},