{"last_updated":1751998533,"ttl":60,"version":"2.2","data":{"bikes":[{"bike_id":"cd20cfea-2f2f-444d-a882-a49b6cf370eb","system_id":"levelo_inurba_marseille","lat":43.337444,"lon":5.374475,"is_reserved":false,"is_disabled":true,"rental_uris":{"android":"levelo://app?vid=cd20cfea-2f2f-444d-a882-a49b6cf370eb","ios":"levelo://app?vid=cd20cfea-2f2f-444d-a882-a49b6cf370eb"},"vehicle_type_id":"4","last_reported":1751998533,"current_range_meters":0,"station_id":"","pricing_plan_id":"cebpf4jnsgd1na2vs0mg"},{"bike_id":"3da29fb8-fc97-44c6-b9ac-31dd456b2fd4","system_id":"levelo_inurba_marseille","lat":43.33771,"lon":5.37424,"is_reserved":false,"is_disabled":true,"rental_uris":{"android":"levelo://app?vid=3da29fb8-fc97-44c6-b9ac-31dd456b2fd4","ios":"levelo://app?vid=3da29fb8-fc97-44c6-b9ac-31dd456b2fd4"},"vehicle_type_id":"4","last_reported":1751998533,"current_range_meters":0,"station_id":"","pricing_plan_id":"cebpf4jnsgd1na2vs0mg"},{"bike_id":"01861ad8-a8d7-4be6-816e-651927c87584","system_id":"levelo_inurba_marseille","lat":43.33751,"lon":5.37456,"is_reserved":false,"is_disabled":true,"rental_uris":{"android":"levelo://app?vid=01861ad8-a8d7-4be6-816e-651927c87584","ios":"levelo://app?vid=01861ad8-a8d7-4be6-816e-651927c87584"},"vehicle_type_id":"4","last_reported":1751998533,"current_range_meters":0,"station_id":"","pricing_plan_id":"cebpf4jnsgd1na2vs0mg"},{"bike_id":"3d508917-55ee-42b6-894b-89c2a444dc06","system_id":"levelo_inurba_marseille","lat":43.33779,"lon":5.37485,"is_reserved":false,"is_disabled":true,"rental_uris":{"android":"levelo://app?vid=3d508917-55ee-42b6-894b-89c2a444dc06","ios":"levelo://app?vid=3d508917-55ee-42b6-894b-89c2a444dc06"},"vehicle_type_id":"4","last_reported":1751998533,"current_range_meters":0,"station_id":"","pricing_plan_id":"cebpf4jnsgd1na2vs0mg"},{"bike_id":"d4242f2e-e9cc-400b-b523-4d48ccb4af07","system_id":"levelo_inurba_marseille","lat":43.30325,"lon":5.37549,"is_reserved":false,"is_disabled":true,"rental_uris":{"android":"levelo://app?vid=d4242f2e-e9cc-400b-b523-4d48ccb4af07","ios":"levelo://app?vid=d4242f2e-e9cc-400b-b523-4d48ccb4af07"},"vehicle_type_id":"4","last_reported":1751998533,"current_range_meters":0,"station_id":"","pricing_plan_id":"cebpf4jnsgd1na2vs0mg"},{"bike_id":"761bbc96-1a4c-4566-a931-ae42b16ad4ff","system_id":"levelo_inurba_marseille","lat":43.29531,"lon":5.38542,"is_reserved":false,"is_disabled":true,"rental_uris":{"android":"levelo://app?vid=761bbc96-1a4c-4566-a931-ae42b16ad4ff","ios":"levelo://app?vid=761bbc96-1a4c-4566-a931-ae42b16ad4ff"},"vehicle_type_id":"4","last_reported":1751998533,"current_range_meters":0,"station_id":"ce4bgih2rcd13ifvqba0","pricing_plan_id":"cebpf4jnsgd1na2vs0mg"},{"bike_id":"8954e657-9ab2-4bc8-8a4e-45beea541b2a","system_id":"levelo_inurba_marseille","lat":43.29972,"lon":5.38512,"is_reserved":false,"is_disabled":true,"rental_uris":{"android":"levelo://app?vid=8954e657-9ab2-4bc8-8a4e-45beea541b2a","ios":"levelo://app?vid=8954e657-9ab2-4bc8-8a4e-45beea541b2a"},"vehicle_type_id":"4","last_reported":1751998533,"current_range_meters":0,"station_id":"ce4bgj92rcd13ifvqbd0","pricing_plan_id":"cebpf4jnsgd1na2vs0mg"},{"bike_id":"aa26886f-8830-4af1-aedf-8e5a8589d7df","system_id":"levelo_inurba_marseille","lat":43.31226,"lon":5.36859,"is_reserved":false,"is_disabled":true,"rental_uris":{"android":"levelo://app?vid=aa26886f-8830-4af1-aedf-8e5a8589d7df","ios":"levelo://app?vid=aa26886f-8830-4af1-aedf-8e5a8589d7df"},"vehicle_type_id":"4","last_reported":1751998533,"current_range_meters":0,"station_id":"ce4bgl92rcd13ifvqbq0","pricing_plan_id":"cebpf4jnsgd1na2vs0mg"},{"bike_id":"c9b998e0-355e-470e-ae3f-51b580192560","system_id":"levelo_inurba_marseille","lat":43.31347,"lon":5.3672,"is_reserved":false,"is_disabled":true,"rental_uris":{"android":"levelo://app?vid=c9b998e0-355e-470e-ae3f-51b580192560","ios":"levelo://app?vid=c9b998e0-355e-470e-ae3f-51b580192560"},"vehicle_type_id":"4","last_reported":1751998533,"current_range_meters":0,"station_id":"ce4bgr92rcd13ifvqc6g","pricing_plan_id":"cebpf4jnsgd1na2vs0mg"},{"bike_id":"963e05e5-1f73-4dc3-92a0-c7251fcfe01e","system_id":"levelo_inurba_marseille","lat":43.29557,"lon":5.42292,"is_reserved":false,"is_disabled":true,"rental_uris":{"android":"levelo://app?vid=963e05e5-1f73-4dc3-92a0-c7251fcfe01e","ios":"levelo://app?vid=963e05e5-1f73-4dc3-92a0-c7251fcfe01e"},"vehicle_type_id":"4","last_reported":1751998533,"current_range_meters":0,"station_id":"ce4bhph2rcd13ifvqhdg","pricing_plan_id":"cebpf4jnsgd1na2vs0mg"},{"bike_id":"7bc81e41-ce8f-41cd-a3d6-116edffc93ca","system_id":"levelo_inurba_marseille","lat":43.29534,"lon":5.38533,"is_reserved":false,"is_disabled":true,"rental_uris":{"android":"levelo://app?vid=7bc81e41-ce8f-41cd-a3d6-116edffc93ca","ios":"levelo://app?vid=7bc81e41-ce8f-41cd-a3d6-116edffc93ca"},"vehicle_type_id":"4","last_reported":1751998533,"current_range_meters":400,"station_id":"ce4bgih2rcd13ifvqba0","pricing_plan_id":"cebpf4jnsgd1na2vs0mg"},{"bike_id":"2b588793-1f6c-4860-8f15-69a1ad913978","system_id":"levelo_inurba_marseille","lat":43.29175,"lon":5.37148,"is_reserved":false,"is_disabled":true,"rental_uris":{"android":"levelo://app?vid=2b588793-1f6c-4860-8f15-69a1ad913978","ios":"levelo://app?vid=2b588793-1f6c-4860-8f15-69a1ad913978"},"vehicle_type_id":"4","last_reported":1751998533,"current_range_meters":400,"station_id":"ce4bha92rcd13ifvqeh0","pricing_plan_id":"cebpf4jnsgd1na2vs0mg"},{"bike_id":"d38748ad-f686-4ac2-9ed7-ad9d8d759c24","system_id":"levelo_inurba_marseille","lat":43.28475,"lon":5.38411,"is_reserved":false,"is_disabled":true,"rental_uris":{"android":"levelo://app?vid=d38748ad-f686-4ac2-9ed7-ad9d8d759c24","ios":"levelo://app?vid=d38748ad-f686-4ac2-9ed7-ad9d8d759c24"},"vehicle_type_id":"4","last_reported":1751998533,"current_range_meters":800,"station_id":"ce4bh512rcd13ifvqe3g","pricing_plan_id":"cebpf4jnsgd1na2vs0mg"},{"bike_id":"9adf4378-5d7e-4da4-a058-8a53fc94e56b","system_id":"levelo_inurba_marseille","lat":43.26682,"lon":5.38264,"is_reserved":false,"is_disabled":true,"rental_uris":{"android":"levelo://app?vid=9adf4378-5d7e-4da4-a058-8a53fc94e56b","ios":"levelo://app?vid=9adf4378-5d7e-4da4-a058-8a53fc94e56b"},"vehicle_type_id":"4","last_reported":1751998533,"current_range_meters":800,"station_id":"ce4bhg92rcd13ifvqf90","pricing_plan_id":"cebpf4jnsgd1na2vs0mg"},{"bike_id":"ed290504-6948-4f69-8584-2e2b0286febf","system_id":"levelo_inurba_marseille","lat":43.21199,"lon":5.35077,"is_reserved":false,"is_disabled":true,"rental_uris":{"android":"levelo://app?vid=ed290504-6948-4f69-8584-2e2b0286febf","ios":"levelo://app?vid=ed290504-6948-4f69-8584-2e2b0286febf"},"vehicle_type_id":"4","last_reported":1751998533,"current_range_meters":800,"station_id":"st_cvj6sg6p6f1abm77japg","pricing_plan_id":"cebpf4jnsgd1na2vs0mg"},{"bike_id":"f019955e-f7a1-4a35-8f42-1fdf08ee12bc","system_id":"levelo_inurba_marseille","lat":43.29731,"lon":5.37811,"is_reserved":false,"is_disabled":true,"rental_uris":{"android":"levelo://app?vid=f019955e-f7a1-4a35-8f42-1fdf08ee12bc","ios":"levelo://app?vid=f019955e-f7a1-4a35-8f42-1fdf08ee12bc"},"vehicle_type_id":"4","last_reported":1751998533,"current_range_meters":1200,"station_id":"","pricing_plan_id":"cebpf4jnsgd1na2vs0mg"},{"bike_id":"9b26f0fb-c298-4b5e-a626-8cf133c525c8","system_id":"levelo_inurba_marseille","lat":43.29647,"lon":5.40604,"is_reserved":false,"is_disabled":true,"rental_uris":{"android":"levelo://app?vid=9b26f0fb-c298-4b5e-a626-8cf133c525c8","ios":"levelo://app?vid=9b26f0fb-c298-4b5e-a626-8cf133c525c8"},"vehicle_type_id":"4","last_reported":1751998533,"current_range_meters":1200,"station_id":"ce4bh0h2rcd13ifvqd60","pricing_plan_id":"cebpf4jnsgd1na2vs0mg"},{"bike_id":"6661cbd2-6ba2-4b46-b15e-1188df0f29d7","system_id":"levelo_inurba_marseille","lat":43.21202,"lon":5.35079,"is_reserved":false,"is_disabled":true,"rental_uris":{"android":"levelo://app?vid=6661cbd2-6ba2-4b46-b15e-1188df0f29d7","ios":"levelo://app?vid=6661cbd2-6ba2-4b46-b15e-1188df0f29d7"},"vehicle_type_id":"4","last_reported":1751998533,"current_range_meters":1200,"station_id":"st_cvj6sg6p6f1abm77japg","pricing_plan_id":"cebpf4jnsgd1na2vs0mg"},{"bike_id":"47cc12e9-1f9d-4b29-b948-db655857089a","system_id":"levelo_inurba_marseille","lat":43.22527,"lon":5.34753,"is_reserved":false,"is_disabled":true,"rental_uris":{"android":"levelo://app?vid=47cc12e9-1f9d-4b29-b948-db655857089a","ios":"levelo://app?vid=47cc12e9-1f9d-4b29-b948-db655857089a"},"vehicle_type_id":"4","last_reported":1751998533,"current_range_meters":1600,"station_id":"st_cvj5dfep6f1abm77gieg","pricing_plan_id":"cebpf4jnsgd1na2vs0mg"},{"bike_id":"7dc2b59d-917d-4a38-a1bd-bb398a2015da","system_id":"levelo_inurba_marseille","lat":43.29537,"lon":5.38544,"is_reserved":false,"is_disabled":true,"rental_uris":{"android":"levelo://app?vid=7dc2b59d-917d-4a38-a1bd-bb398a2015da","ios":"levelo://app?vid=7dc2b59d-917d-4a38-a1bd-bb398a2015da"},"vehicle_type_id":"4","last_reported":1751998533,"current_range_meters":2000,"station_id":"ce4bgih2rcd13ifvqba0","pricing_plan_id":"cebpf4jnsgd1na2vs0mg"},{"bike_id":"898bd229-b5c9-4fc2-8857-977ca2d9ae87","system_id":"levelo_inurba_marseille","lat":43.29913,"lon":5.38132,"is_reserved":false,"is_disabled":true,"rental_uris":{"android":"levelo://app?vid=898bd229-b5c9-4fc2-8857-977ca2d9ae87","ios":"levelo://app?vid=898bd229-b5c9-4fc2-8857-977ca2d9ae87"},"vehicle_type_id":"4","last_reported":1751998533,"current_range_meters":2000,"station_id":"ce4bgj12rcd13ifvqbc0","pricing_plan_id":"cebpf4jnsgd1na2vs0mg"},{"bike_id":"8de0de68-d9b5-4901-b24c-9f41ac683c4b","system_id":"levelo_inurba_marseille","lat":43.313197,"lon":5.396912,"is_reserved":false,"is_disabled":false,"rental_uris":{"android":"levelo://app?vid=8de0de68-d9b5-4901-b24c-9f41ac683c4b","ios":"levelo://app?vid=8de0de68-d9b5-4901-b24c-9f41ac683c4b"},"vehicle_type_id":"4","last_reported":1751998533,"current_range_meters":2800,"station_id":"ce4bgvp2rcd13ifvqcu0","pricing_plan_id":"cebpf4jnsgd1na2vs0mg"},{"bike_id":"637a660b-ad85-48b7-9071-da3e70569301","system_id":"levelo_inurba_marseille","lat":43.27241,"lon":5.39132,"is_reserved":false,"is_disabled":false,"rental_uris":{"android":"levelo://app?vid=637a660b-ad85-48b7-9071-da3e70569301","ios":"levelo://app?vid=637a660b-ad85-48b7-9071-da3e70569301"},"vehicle_type_id":"4","last_reported":1751998533,"current_range_meters":2800,"station_id":"ce4bhhp2rcd13ifvqfm0","pricing_plan_id":"cebpf4jnsgd1na2vs0mg"},{"bike_id":"ff6969fc-5512-4edf-a61d-6936ccb9a278","system_id":"levelo_inurba_marseille","lat":43.330142,"lon":5.36378,"is_reserved":false,"is_disabled":false,"rental_uris":{"android":"levelo://app?vid=ff6969fc-5512-4edf-a61d-6936ccb9a278","ios":"levelo://app?vid=ff6969fc-5512-4edf-a61d-6936ccb9a278"},"vehicle_type_id":"4","last_reported":1751998533,"current_range_meters":3200,"station_id":"","pricing_plan_id":"cebpf4jnsgd1na2vs0mg"},{"bike_id":"c7547968-e70d-4608-87a6-03920a3359d7","system_id":"levelo_inurba_marseille","lat":43.29197,"lon":5.35804,"is_reserved":false,"is_disabled":false,"rental_uris":{"android":"levelo://app?vid=c7547968-e70d-4608-87a6-03920a3359d7","ios":"levelo://app?vid=c7547968-e70d-4608-87a6-03920a3359d7"},"vehicle_type_id":"4","last_reported":1751998533,"current_range_meters":3200,"station_id":"ce4bhb12rcd13ifvqel0","pricing_plan_id":"cebpf4jnsgd1na2vs0mg"},{"bike_id":"e562ad4e-a577-4b7b-a74e-7e00b9c0f52f","system_id":"levelo_inurba_marseille","lat":43.22504,"lon":5.3478,"is_reserved":false,"is_disabled":false,"rental_uris":{"android":"levelo://app?vid=e562ad4e-a577-4b7b-a74e-7e00b9c0f52f","ios":"levelo://app?vid=e562ad4e-a577-4b7b-a74e-7e00b9c0f52f"},"vehicle_type_id":"4","last_reported":1751998533,"current_range_meters":3600,"station_id":"st_cvj5dfep6f1abm77gieg","pricing_plan_id":"cebpf4jnsgd1na2vs0mg"},{"bike_id":"e42be354-0292-4a2b-ae0c-98036440eaa4","system_id":"levelo_inurba_marseille","lat":43.26562,"lon":5.38999,"is_reserved":false,"is_disabled":false,"rental_uris":{"android":"levelo://app?vid=e42be354-0292-4a2b-ae0c-98036440eaa4","ios":"levelo://app?vid=e42be354-0292-4a2b-ae0c-98036440eaa4"},"vehicle_type_id":"4","last_reported":1751998533,"current_range_meters":4000,"station_id":"ce4bhe12rcd13ifvqf30","pricing_plan_id":"cebpf4jnsgd1na2vs0mg"},{"bike_id":"55cd8f49-e0ca-4a08-bf68-cec0346fde4b","system_id":"levelo_inurba_marseille","lat":43.25591,"lon":5.38222,"is_reserved":false,"is_disabled":false,"rental_uris":{"android":"levelo://app?vid=55cd8f49-e0ca-4a08-bf68-cec0346fde4b","ios":"levelo://app?vid=55cd8f49-e0ca-4a08-bf68-cec0346fde4b"},"vehicle_type_id":"4","last_reported":1751998533,"current_range_meters":4000,"station_id":"ce4bhih2rcd13ifvqfs0","pricing_plan_id":"cebpf4jnsgd1na2vs0mg"},{"bike_id":"b6fa6ec0-2f1a-46af-836d-a362af3ddda1","system_id":"levelo_inurba_marseille","lat":43.310827,"lon":5.424296,"is_reserved":false,"is_disabled":false,"rental_uris":{"android":"levelo://app?vid=b6fa6ec0-2f1a-46af-836d-a362af3ddda1","ios":"levelo://app?vid=b6fa6ec0-2f1a-46af-836d-a362af3ddda1"},"vehicle_type_id":"4","last_reported":1751998533,"current_range_meters":4400,"station_id":"ce4bhp92rcd13ifvqhag","pricing_plan_id":"cebpf4jnsgd1na2vs0mg"},{"bike_id":"7b527f00-f6ea-4963-b59d-8da04a2feedb","system_id":"levelo_inurba_marseille","lat":43.32089,"lon":5.40115,"is_reserved":false,"is_disabled":false,"rental_uris":{"android":"levelo://app?vid=7b527f00-f6ea-4963-b59d-8da04a2feedb","ios":"levelo://app?vid=7b527f00-f6ea-4963-b59d-8da04a2feedb"},"vehicle_type_id":"4","last_reported":1751998533,"current_range_meters":4800,"station_id":"","pricing_plan_id":"cebpf4jnsgd1na2vs0mg"},{"bike_id":"7f5f97ec-94b7-407a-8968-cbb631df2315","system_id":"levelo_inurba_marseille","lat":43.31705,"lon":5.37722,"is_reserved":false,"is_disabled":false,"rental_uris":{"android":"levelo://app?vid=7f5f97ec-94b7-407a-8968-cbb631df2315","ios":"levelo://app?vid=7f5f97ec-94b7-407a-8968-cbb631df2315"},"vehicle_type_id":"4","last_reported":1751998533,"current_range_meters":4800,"station_id":"ce4bgth2rcd13ifvqch0","pricing_plan_id":"cebpf4jnsgd1na2vs0mg"},{"bike_id":"e97ee5c0-87e5-403c-92ed-929b14d6ff8f","system_id":"levelo_inurba_marseille","lat":43.283267,"lon":5.38528,"is_reserved":false,"is_disabled":false,"rental_uris":{"android":"levelo://app?vid=e97ee5c0-87e5-403c-92ed-929b14d6ff8f","ios":"levelo://app?vid=e97ee5c0-87e5-403c-92ed-929b14d6ff8f"},"vehicle_type_id":"4","last_reported":1751998533,"current_range_meters":6000,"station_id":"","pricing_plan_id":"cebpf4jnsgd1na2vs0mg"},{"bike_id":"88ea42cb-cf0f-4e4a-8442-732645bc4ba5","system_id":"levelo_inurba_marseille","lat":43.310854,"lon":5.367046,"is_reserved":false,"is_disabled":false,"rental_uris":{"android":"levelo://app?vid=88ea42cb-cf0f-4e4a-8442-732645bc4ba5","ios":"levelo://app?vid=88ea42cb-cf0f-4e4a-8442-732645bc4ba5"},"vehicle_type_id":"4","last_reported":1751998533,"current_range_meters":6000,"station_id":"","pricing_plan_id":"cebpf4jnsgd1na2vs0mg"},{"bike_id":"aacad1ec-3c81-4dda-a1b5-6d7a0a0623c9","system_id":"levelo_inurba_marseille","lat":43.26565,"lon":5.39003,"is_reserved":false,"is_disabled":false,"rental_uris":{"android":"levelo://app?vid=aacad1ec-3c81-4dda-a1b5-6d7a0a0623c9","ios":"levelo://app?vid=aacad1ec-3c81-4dda-a1b5-6d7a0a0623c9"},"vehicle_type_id":"4","last_reported":1751998533,"current_range_meters":6000,"station_id":"ce4bhe12rcd13ifvqf30","pricing_plan_id":"cebpf4jnsgd1na2vs0mg"},{"bike_id":"53d0f73b-7ed9-4618-9f69-c7a0bae94f0e","system_id":"levelo_inurba_marseille","lat":43.32003,"lon":5.38163,"is_reserved":false,"is_disabled":false,"rental_uris":{"android":"levelo://app?vid=53d0f73b-7ed9-4618-9f69-c7a0bae94f0e","ios":"levelo://app?vid=53d0f73b-7ed9-4618-9f69-c7a0bae94f0e"},"vehicle_type_id":"4","last_reported":1751998533,"current_range_meters":6000,"station_id":"ce4bhr12rcd13ifvqhpg","pricing_plan_id":"cebpf4jnsgd1na2vs0mg"},{"bike_id":"3b22f952-d0bc-4c00-8fd3-7e27b88aea23","system_id":"levelo_inurba_marseille","lat":43.29659,"lon":5.36245,"is_reserved":false,"is_disabled":false,"rental_uris":{"android":"levelo://app?vid=3b22f952-d0bc-4c00-8fd3-7e27b88aea23","ios":"levelo://app?vid=3b22f952-d0bc-4c00-8fd3-7e27b88aea23"},"vehicle_type_id":"4","last_reported":1751998533,"current_range_meters":6400,"station_id":"","pricing_plan_id":"cebpf4jnsgd1na2vs0mg"},{"bike_id":"9a11154c-cf48-486d-b9c4-cb1c45b79b9e","system_id":"levelo_inurba_marseille","lat":43.29613,"lon":5.38091,"is_reserved":false,"is_disabled":false,"rental_uris":{"android":"levelo://app?vid=9a11154c-cf48-486d-b9c4-cb1c45b79b9e","ios":"levelo://app?vid=9a11154c-cf48-486d-b9c4-cb1c45b79b9e"},"vehicle_type_id":"4","last_reported":1751998533,"current_range_meters":6400,"station_id":"ce4bgl12rcd13ifvqbo0","pricing_plan_id":"cebpf4jnsgd1na2vs0mg"},{"bike_id":"d3108e66-ec81-4f0f-bdbf-9257d1395e5c","system_id":"levelo_inurba_marseille","lat":43.24545,"lon":5.39521,"is_reserved":false,"is_disabled":false,"rental_uris":{"android":"levelo://app?vid=d3108e66-ec81-4f0f-bdbf-9257d1395e5c","ios":"levelo://app?vid=d3108e66-ec81-4f0f-bdbf-9257d1395e5c"},"vehicle_type_id":"4","last_reported":1751998533,"current_range_meters":6400,"station_id":"ce4bhlp2rcd13ifvqgjg","pricing_plan_id":"cebpf4jnsgd1na2vs0mg"},{"bike_id":"37f2becd-23f9-4f13-a711-38b8024eeec7","system_id":"levelo_inurba_marseille","lat":43.33768,"lon":5.37516,"is_reserved":false,"is_disabled":false,"rental_uris":{"android":"levelo://app?vid=37f2becd-23f9-4f13-a711-38b8024eeec7","ios":"levelo://app?vid=37f2becd-23f9-4f13-a711-38b8024eeec7"},"vehicle_type_id":"4","last_reported":1751998533,"current_range_meters":6800,"station_id":"","pricing_plan_id":"cebpf4jnsgd1na2vs0mg"},{"bike_id":"1a7596c3-008b-4e10-acf2-3111c897298b","system_id":"levelo_inurba_marseille","lat":43.30272,"lon":5.37691,"is_reserved":false,"is_disabled":false,"rental_uris":{"android":"levelo://app?vid=1a7596c3-008b-4e10-acf2-3111c897298b","ios":"levelo://app?vid=1a7596c3-008b-4e10-acf2-3111c897298b"},"vehicle_type_id":"4","last_reported":1751998533,"current_range_meters":6800,"station_id":"ce4bguh2rcd13ifvqcj0","pricing_plan_id":"cebpf4jnsgd1na2vs0mg"},{"bike_id":"9fa664a3-630a-438c-838b-9985219ed05a","system_id":"levelo_inurba_marseille","lat":43.30937,"lon":5.40144,"is_reserved":false,"is_disabled":false,"rental_uris":{"android":"levelo://app?vid=9fa664a3-630a-438c-838b-9985219ed05a","ios":"levelo://app?vid=9fa664a3-630a-438c-838b-9985219ed05a"},"vehicle_type_id":"4","last_reported":1751998533,"current_range_meters":6800,"station_id":"ce4bgvp2rcd13ifvqct0","pricing_plan_id":"cebpf4jnsgd1na2vs0mg"},{"bike_id":"4ebaf935-e61b-4b73-a7f2-664d4e218c4b","system_id":"levelo_inurba_marseille","lat":43.24651,"lon":5.38119,"is_reserved":false,"is_disabled":false,"rental_uris":{"android":"levelo://app?vid=4ebaf935-e61b-4b73-a7f2-664d4e218c4b","ios":"levelo://app?vid=4ebaf935-e61b-4b73-a7f2-664d4e218c4b"},"vehicle_type_id":"4","last_reported":1751998533,"current_range_meters":6800,"station_id":"ce4bhih2rcd13ifvqfr0","pricing_plan_id":"cebpf4jnsgd1na2vs0mg"},{"bike_id":"fa411f1a-ca6a-46c0-81e5-1394f7ce5f4f","system_id":"levelo_inurba_marseille","lat":43.2991,"lon":5.38126,"is_reserved":false,"is_disabled":false,"rental_uris":{"android":"levelo://app?vid=fa411f1a-ca6a-46c0-81e5-1394f7ce5f4f","ios":"levelo://app?vid=fa411f1a-ca6a-46c0-81e5-1394f7ce5f4f"},"vehicle_type_id":"4","last_reported":1751998533,"current_range_meters":7200,"station_id":"ce4bgj12rcd13ifvqbc0","pricing_plan_id":"cebpf4jnsgd1na2vs0mg"},{"bike_id":"2e5934e1-ae44-4321-9cd0-5a4000e310ad","system_id":"levelo_inurba_marseille","lat":43.25582,"lon":5.38229,"is_reserved":false,"is_disabled":false,"rental_uris":{"android":"levelo://app?vid=2e5934e1-ae44-4321-9cd0-5a4000e310ad","ios":"levelo://app?vid=2e5934e1-ae44-4321-9cd0-5a4000e310ad"},"vehicle_type_id":"4","last_reported":1751998533,"current_range_meters":7200,"station_id":"ce4bhih2rcd13ifvqfs0","pricing_plan_id":"cebpf4jnsgd1na2vs0mg"},{"bike_id":"0e53acfd-1f9e-4aff-834b-37324a9a6a7d","system_id":"levelo_inurba_marseille","lat":43.27174,"lon":5.4099,"is_reserved":false,"is_disabled":false,"rental_uris":{"android":"levelo://app?vid=0e53acfd-1f9e-4aff-834b-37324a9a6a7d","ios":"levelo://app?vid=0e53acfd-1f9e-4aff-834b-37324a9a6a7d"},"vehicle_type_id":"4","last_reported":1751998533,"current_range_meters":7200,"station_id":"ce4bhl12rcd13ifvqgf0","pricing_plan_id":"cebpf4jnsgd1na2vs0mg"},{"bike_id":"feb76783-1feb-4d35-8211-62adccca722e","system_id":"levelo_inurba_marseille","lat":43.3089,"lon":5.37187,"is_reserved":false,"is_disabled":false,"rental_uris":{"android":"levelo://app?vid=feb76783-1feb-4d35-8211-62adccca722e","ios":"levelo://app?vid=feb76783-1feb-4d35-8211-62adccca722e"},"vehicle_type_id":"4","last_reported":1751998533,"current_range_meters":8000,"station_id":"ce4bguh2rcd13ifvqckg","pricing_plan_id":"cebpf4jnsgd1na2vs0mg"},{"bike_id":"96c20207-967f-41ec-bdb9-3aac3bd7bfce","system_id":"levelo_inurba_marseille","lat":43.29437,"lon":5.38591,"is_reserved":false,"is_disabled":false,"rental_uris":{"android":"levelo://app?vid=96c20207-967f-41ec-bdb9-3aac3bd7bfce","ios":"levelo://app?vid=96c20207-967f-41ec-bdb9-3aac3bd7bfce"},"vehicle_type_id":"4","last_reported":1751998533,"current_range_meters":8000,"station_id":"ce4bh2h2rcd13ifvqdh0","pricing_plan_id":"cebpf4jnsgd1na2vs0mg"},{"bike_id":"eb971fa1-cabe-4a73-ae0d-cdbe01dfd5e6","system_id":"levelo_inurba_marseille","lat":43.30803,"lon":5.43524,"is_reserved":false,"is_disabled":false,"rental_uris":{"android":"levelo://app?vid=eb971fa1-cabe-4a73-ae0d-cdbe01dfd5e6","ios":"levelo://app?vid=eb971fa1-cabe-4a73-ae0d-cdbe01dfd5e6"},"vehicle_type_id":"4","last_reported":1751998533,"current_range_meters":8000,"station_id":"ce4bhph2rcd13ifvqheg","pricing_plan_id":"cebpf4jnsgd1na2vs0mg"},{"bike_id":"2c423baa-ecca-420a-87d7-ad0b7e0b9ebb","system_id":"levelo_inurba_marseille","lat":43.28045,"lon":5.35322,"is_reserved":false,"is_disabled":false,"rental_uris":{"android":"levelo://app?vid=2c423baa-ecca-420a-87d7-ad0b7e0b9ebb","ios":"levelo://app?vid=2c423baa-ecca-420a-87d7-ad0b7e0b9ebb"},"vehicle_type_id":"4","last_reported":1751998533,"current_range_meters":8400,"station_id":"","pricing_plan_id":"cebpf4jnsgd1na2vs0mg"},{"bike_id":"a36f646d-f56d-488e-ae23-4f6d36b93a97","system_id":"levelo_inurba_marseille","lat":43.29028,"lon":5.38641,"is_reserved":false,"is_disabled":false,"rental_uris":{"android":"levelo://app?vid=a36f646d-f56d-488e-ae23-4f6d36b93a97","ios":"levelo://app?vid=a36f646d-f56d-488e-ae23-4f6d36b93a97"},"vehicle_type_id":"4","last_reported":1751998533,"current_range_meters":8400,"station_id":"ce4bh4p2rcd13ifvqe0g","pricing_plan_id":"cebpf4jnsgd1na2vs0mg"},{"bike_id":"a70cfab5-f447-4d61-b80a-343a49825360","system_id":"levelo_inurba_marseille","lat":43.31952,"lon":5.37994,"is_reserved":false,"is_disabled":false,"rental_uris":{"android":"levelo://app?vid=a70cfab5-f447-4d61-b80a-343a49825360","ios":"levelo://app?vid=a70cfab5-f447-4d61-b80a-343a49825360"},"vehicle_type_id":"4","last_reported":1751998533,"current_range_meters":8800,"station_id":"","pricing_plan_id":"cebpf4jnsgd1na2vs0mg"},{"bike_id":"79d90d50-688b-4105-bdf8-9919e76c1002","system_id":"levelo_inurba_marseille","lat":43.309656,"lon":5.390366,"is_reserved":false,"is_disabled":false,"rental_uris":{"android":"levelo://app?vid=79d90d50-688b-4105-bdf8-9919e76c1002","ios":"levelo://app?vid=79d90d50-688b-4105-bdf8-9919e76c1002"},"vehicle_type_id":"4","last_reported":1751998533,"current_range_meters":9200,"station_id":"ce4bgup2rcd13ifvqco0","pricing_plan_id":"cebpf4jnsgd1na2vs0mg"},{"bike_id":"3bcc5a3f-af73-4673-97ef-ffd0b117d51c","system_id":"levelo_inurba_marseille","lat":43.3022,"lon":5.39455,"is_reserved":false,"is_disabled":false,"rental_uris":{"android":"levelo://app?vid=3bcc5a3f-af73-4673-97ef-ffd0b117d51c","ios":"levelo://app?vid=3bcc5a3f-af73-4673-97ef-ffd0b117d51c"},"vehicle_type_id":"4","last_reported":1751998533,"current_range_meters":9200,"station_id":"ce4bh0p2rcd13ifvqd70","pricing_plan_id":"cebpf4jnsgd1na2vs0mg"},{"bike_id":"efaa934a-9f39-47c0-b541-82947043afe3","system_id":"levelo_inurba_marseille","lat":43.27375,"lon":5.36259,"is_reserved":false,"is_disabled":false,"rental_uris":{"android":"levelo://app?vid=efaa934a-9f39-47c0-b541-82947043afe3","ios":"levelo://app?vid=efaa934a-9f39-47c0-b541-82947043afe3"},"vehicle_type_id":"4","last_reported":1751998533,"current_range_meters":9200,"station_id":"ce4bhbh2rcd13ifvqeo0","pricing_plan_id":"cebpf4jnsgd1na2vs0mg"},{"bike_id":"793e3684-6325-4e87-abfb-f21383e9da13","system_id":"levelo_inurba_marseille","lat":43.240761,"lon":5.377603,"is_reserved":false,"is_disabled":false,"rental_uris":{"android":"levelo://app?vid=793e3684-6325-4e87-abfb-f21383e9da13","ios":"levelo://app?vid=793e3684-6325-4e87-abfb-f21383e9da13"},"vehicle_type_id":"4","last_reported":1751998533,"current_range_meters":9200,"station_id":"ce4bhnp2rcd13ifvqgvg","pricing_plan_id":"cebpf4jnsgd1na2vs0mg"},{"bike_id":"33680659-1fbb-441c-a212-9bd6f805c975","system_id":"levelo_inurba_marseille","lat":43.32483,"lon":5.36574,"is_reserved":false,"is_disabled":false,"rental_uris":{"android":"levelo://app?vid=33680659-1fbb-441c-a212-9bd6f805c975","ios":"levelo://app?vid=33680659-1fbb-441c-a212-9bd6f805c975"},"vehicle_type_id":"4","last_reported":1751998533,"current_range_meters":9200,"station_id":"ce4bhs12rcd13ifvqhvg","pricing_plan_id":"cebpf4jnsgd1na2vs0mg"},{"bike_id":"3c94d2c6-2996-41de-9e54-fa8af7df6912","system_id":"levelo_inurba_marseille","lat":43.21755,"lon":5.34591,"is_reserved":false,"is_disabled":false,"rental_uris":{"android":"levelo://app?vid=3c94d2c6-2996-41de-9e54-fa8af7df6912","ios":"levelo://app?vid=3c94d2c6-2996-41de-9e54-fa8af7df6912"},"vehicle_type_id":"4","last_reported":1751998533,"current_range_meters":9200,"station_id":"st_cvj6r9ubvosntc0bgbag","pricing_plan_id":"cebpf4jnsgd1na2vs0mg"},{"bike_id":"35195b04-2d5f-458e-9aa8-6e7e95573ed7","system_id":"levelo_inurba_marseille","lat":43.27987,"lon":5.41651,"is_reserved":false,"is_disabled":false,"rental_uris":{"android":"levelo://app?vid=35195b04-2d5f-458e-9aa8-6e7e95573ed7","ios":"levelo://app?vid=35195b04-2d5f-458e-9aa8-6e7e95573ed7"},"vehicle_type_id":"4","last_reported":1751998533,"current_range_meters":9600,"station_id":"ce4bho12rcd13ifvqh1g","pricing_plan_id":"cebpf4jnsgd1na2vs0mg"},{"bike_id":"a3ce009b-f92f-43ed-9331-c46b7b53f8a2","system_id":"levelo_inurba_marseille","lat":43.28078,"lon":5.396627,"is_reserved":false,"is_disabled":false,"rental_uris":{"android":"levelo://app?vid=a3ce009b-f92f-43ed-9331-c46b7b53f8a2","ios":"levelo://app?vid=a3ce009b-f92f-43ed-9331-c46b7b53f8a2"},"vehicle_type_id":"4","last_reported":1751998533,"current_range_meters":9600,"station_id":"ce4bho12rcd13ifvqh2g","pricing_plan_id":"cebpf4jnsgd1na2vs0mg"},{"bike_id":"373f7154-05e4-4923-8d21-eb4b99691656","system_id":"levelo_inurba_marseille","lat":43.31532,"lon":5.38685,"is_reserved":false,"is_disabled":false,"rental_uris":{"android":"levelo://app?vid=373f7154-05e4-4923-8d21-eb4b99691656","ios":"levelo://app?vid=373f7154-05e4-4923-8d21-eb4b99691656"},"vehicle_type_id":"4","last_reported":1751998533,"current_range_meters":10000,"station_id":"","pricing_plan_id":"cebpf4jnsgd1na2vs0mg"},{"bike_id":"f6d02df1-9f1e-4215-b7e3-91692210e5b5","system_id":"levelo_inurba_marseille","lat":43.29988,"lon":5.37174,"is_reserved":false,"is_disabled":false,"rental_uris":{"android":"levelo://app?vid=f6d02df1-9f1e-4215-b7e3-91692210e5b5","ios":"levelo://app?vid=f6d02df1-9f1e-4215-b7e3-91692210e5b5"},"vehicle_type_id":"4","last_reported":1751998533,"current_range_meters":10000,"station_id":"ce4bgr92rcd13ifvqc7g","pricing_plan_id":"cebpf4jnsgd1na2vs0mg"},{"bike_id":"b5349466-bf8b-41a0-85f1-0b091430d295","system_id":"levelo_inurba_marseille","lat":43.31742,"lon":5.37804,"is_reserved":false,"is_disabled":false,"rental_uris":{"android":"levelo://app?vid=b5349466-bf8b-41a0-85f1-0b091430d295","ios":"levelo://app?vid=b5349466-bf8b-41a0-85f1-0b091430d295"},"vehicle_type_id":"4","last_reported":1751998533,"current_range_meters":10000,"station_id":"ce4bgth2rcd13ifvqch0","pricing_plan_id":"cebpf4jnsgd1na2vs0mg"},{"bike_id":"984cde16-1f21-440e-b70e-19d73c0ecd6a","system_id":"levelo_inurba_marseille","lat":43.301487,"lon":5.39878,"is_reserved":false,"is_disabled":false,"rental_uris":{"android":"levelo://app?vid=984cde16-1f21-440e-b70e-19d73c0ecd6a","ios":"levelo://app?vid=984cde16-1f21-440e-b70e-19d73c0ecd6a"},"vehicle_type_id":"4","last_reported":1751998533,"current_range_meters":10000,"station_id":"ce4bh0h2rcd13ifvqd40","pricing_plan_id":"cebpf4jnsgd1na2vs0mg"},{"bike_id":"6e758e2c-0fff-4e75-a991-9b9f25b964a4","system_id":"levelo_inurba_marseille","lat":43.30149,"lon":5.3985,"is_reserved":false,"is_disabled":false,"rental_uris":{"android":"levelo://app?vid=6e758e2c-0fff-4e75-a991-9b9f25b964a4","ios":"levelo://app?vid=6e758e2c-0fff-4e75-a991-9b9f25b964a4"},"vehicle_type_id":"4","last_reported":1751998533,"current_range_meters":10000,"station_id":"ce4bh0h2rcd13ifvqd40","pricing_plan_id":"cebpf4jnsgd1na2vs0mg"},{"bike_id":"45e447b2-0edd-4a87-9d52-18d42fe2eb64","system_id":"levelo_inurba_marseille","lat":43.28511,"lon":5.37711,"is_reserved":false,"is_disabled":false,"rental_uris":{"android":"levelo://app?vid=45e447b2-0edd-4a87-9d52-18d42fe2eb64","ios":"levelo://app?vid=45e447b2-0edd-4a87-9d52-18d42fe2eb64"},"vehicle_type_id":"4","last_reported":1751998533,"current_range_meters":10000,"station_id":"ce4bh412rcd13ifvqds0","pricing_plan_id":"cebpf4jnsgd1na2vs0mg"},{"bike_id":"1dfe2a62-5151-4cd4-bb1b-c713bf0a102e","system_id":"levelo_inurba_marseille","lat":43.28458,"lon":5.35887,"is_reserved":false,"is_disabled":false,"rental_uris":{"android":"levelo://app?vid=1dfe2a62-5151-4cd4-bb1b-c713bf0a102e","ios":"levelo://app?vid=1dfe2a62-5151-4cd4-bb1b-c713bf0a102e"},"vehicle_type_id":"4","last_reported":1751998533,"current_range_meters":10000,"station_id":"ce4bhah2rcd13ifvqei0","pricing_plan_id":"cebpf4jnsgd1na2vs0mg"},{"bike_id":"0c1a21d3-1824-42db-8b1b-eb7ac12819c8","system_id":"levelo_inurba_marseille","lat":43.281769,"lon":5.426395,"is_reserved":false,"is_disabled":false,"rental_uris":{"android":"levelo://app?vid=0c1a21d3-1824-42db-8b1b-eb7ac12819c8","ios":"levelo://app?vid=0c1a21d3-1824-42db-8b1b-eb7ac12819c8"},"vehicle_type_id":"4","last_reported":1751998533,"current_range_meters":10000,"station_id":"ce4bhnh2rcd13ifvqgug","pricing_plan_id":"cebpf4jnsgd1na2vs0mg"},{"bike_id":"bb9a89b7-e405-465c-be9d-7eaab0f1d4d3","system_id":"levelo_inurba_marseille","lat":43.31701,"lon":5.43696,"is_reserved":false,"is_disabled":false,"rental_uris":{"android":"levelo://app?vid=bb9a89b7-e405-465c-be9d-7eaab0f1d4d3","ios":"levelo://app?vid=bb9a89b7-e405-465c-be9d-7eaab0f1d4d3"},"vehicle_type_id":"4","last_reported":1751998533,"current_range_meters":10000,"station_id":"ce4bhp92rcd13ifvqhcg","pricing_plan_id":"cebpf4jnsgd1na2vs0mg"},{"bike_id":"c2ee7d66-374b-44cd-b9d7-9ad64301293b","system_id":"levelo_inurba_marseille","lat":43.33803,"lon":5.37457,"is_reserved":false,"is_disabled":false,"rental_uris":{"android":"levelo://app?vid=c2ee7d66-374b-44cd-b9d7-9ad64301293b","ios":"levelo://app?vid=c2ee7d66-374b-44cd-b9d7-9ad64301293b"},"vehicle_type_id":"4","last_reported":1751998533,"current_range_meters":10800,"station_id":"","pricing_plan_id":"cebpf4jnsgd1na2vs0mg"},{"bike_id":"8004fca6-586b-4426-b6cb-48c87967a5d2","system_id":"levelo_inurba_marseille","lat":43.29972,"lon":5.38492,"is_reserved":false,"is_disabled":false,"rental_uris":{"android":"levelo://app?vid=8004fca6-586b-4426-b6cb-48c87967a5d2","ios":"levelo://app?vid=8004fca6-586b-4426-b6cb-48c87967a5d2"},"vehicle_type_id":"4","last_reported":1751998533,"current_range_meters":10800,"station_id":"ce4bgj92rcd13ifvqbd0","pricing_plan_id":"cebpf4jnsgd1na2vs0mg"},{"bike_id":"bbaf0b82-1426-479d-81e2-1553276d8aab","system_id":"levelo_inurba_marseille","lat":43.296636,"lon":5.37763,"is_reserved":false,"is_disabled":false,"rental_uris":{"android":"levelo://app?vid=bbaf0b82-1426-479d-81e2-1553276d8aab","ios":"levelo://app?vid=bbaf0b82-1426-479d-81e2-1553276d8aab"},"vehicle_type_id":"4","last_reported":1751998533,"current_range_meters":10800,"station_id":"ce4bgkh2rcd13ifvqbl0","pricing_plan_id":"cebpf4jnsgd1na2vs0mg"},{"bike_id":"8374199e-1de6-4b3f-b2b9-0ce3be10c77e","system_id":"levelo_inurba_marseille","lat":43.313477,"lon":5.367232,"is_reserved":false,"is_disabled":false,"rental_uris":{"android":"levelo://app?vid=8374199e-1de6-4b3f-b2b9-0ce3be10c77e","ios":"levelo://app?vid=8374199e-1de6-4b3f-b2b9-0ce3be10c77e"},"vehicle_type_id":"4","last_reported":1751998533,"current_range_meters":10800,"station_id":"ce4bgr92rcd13ifvqc6g","pricing_plan_id":"cebpf4jnsgd1na2vs0mg"},{"bike_id":"5cbe7cd8-9696-41ba-a2cc-ec72cad0545f","system_id":"levelo_inurba_marseille","lat":43.29537,"lon":5.39392,"is_reserved":false,"is_disabled":false,"rental_uris":{"android":"levelo://app?vid=5cbe7cd8-9696-41ba-a2cc-ec72cad0545f","ios":"levelo://app?vid=5cbe7cd8-9696-41ba-a2cc-ec72cad0545f"},"vehicle_type_id":"4","last_reported":1751998533,"current_range_meters":10800,"station_id":"ce4bh292rcd13ifvqdf0","pricing_plan_id":"cebpf4jnsgd1na2vs0mg"},{"bike_id":"8d3ca803-c773-4b62-a5a6-4f530c4c8983","system_id":"levelo_inurba_marseille","lat":43.25495,"lon":5.37646,"is_reserved":false,"is_disabled":false,"rental_uris":{"android":"levelo://app?vid=8d3ca803-c773-4b62-a5a6-4f530c4c8983","ios":"levelo://app?vid=8d3ca803-c773-4b62-a5a6-4f530c4c8983"},"vehicle_type_id":"4","last_reported":1751998533,"current_range_meters":10800,"station_id":"ce4bhh12rcd13ifvqff0","pricing_plan_id":"cebpf4jnsgd1na2vs0mg"},{"bike_id":"ef61f1fd-0474-4857-8e80-4ccf0fae9017","system_id":"levelo_inurba_marseille","lat":43.28709,"lon":5.39987,"is_reserved":false,"is_disabled":false,"rental_uris":{"android":"levelo://app?vid=ef61f1fd-0474-4857-8e80-4ccf0fae9017","ios":"levelo://app?vid=ef61f1fd-0474-4857-8e80-4ccf0fae9017"},"vehicle_type_id":"4","last_reported":1751998533,"current_range_meters":10800,"station_id":"ce4bho92rcd13ifvqh3g","pricing_plan_id":"cebpf4jnsgd1na2vs0mg"},{"bike_id":"98f46642-8fdc-43be-8379-a5bf33d8441b","system_id":"levelo_inurba_marseille","lat":43.211907,"lon":5.35072,"is_reserved":false,"is_disabled":false,"rental_uris":{"android":"levelo://app?vid=98f46642-8fdc-43be-8379-a5bf33d8441b","ios":"levelo://app?vid=98f46642-8fdc-43be-8379-a5bf33d8441b"},"vehicle_type_id":"4","last_reported":1751998533,"current_range_meters":10800,"station_id":"st_cvj6sg6p6f1abm77japg","pricing_plan_id":"cebpf4jnsgd1na2vs0mg"},{"bike_id":"e54a69bc-634c-4579-91a1-2ea1e7521c68","system_id":"levelo_inurba_marseille","lat":43.30159,"lon":5.37203,"is_reserved":false,"is_disabled":false,"rental_uris":{"android":"levelo://app?vid=e54a69bc-634c-4579-91a1-2ea1e7521c68","ios":"levelo://app?vid=e54a69bc-634c-4579-91a1-2ea1e7521c68"},"vehicle_type_id":"4","last_reported":1751998533,"current_range_meters":11200,"station_id":"","pricing_plan_id":"cebpf4jnsgd1na2vs0mg"},{"bike_id":"b2b3d053-1ab3-49c7-b482-363c88a18d31","system_id":"levelo_inurba_marseille","lat":43.233412,"lon":5.399697,"is_reserved":false,"is_disabled":false,"rental_uris":{"android":"levelo://app?vid=b2b3d053-1ab3-49c7-b482-363c88a18d31","ios":"levelo://app?vid=b2b3d053-1ab3-49c7-b482-363c88a18d31"},"vehicle_type_id":"4","last_reported":1751998533,"current_range_meters":11600,"station_id":"","pricing_plan_id":"cebpf4jnsgd1na2vs0mg"},{"bike_id":"6ffc31bf-be63-440b-8353-4ff83386083b","system_id":"levelo_inurba_marseille","lat":43.2984,"lon":5.36403,"is_reserved":false,"is_disabled":false,"rental_uris":{"android":"levelo://app?vid=6ffc31bf-be63-440b-8353-4ff83386083b","ios":"levelo://app?vid=6ffc31bf-be63-440b-8353-4ff83386083b"},"vehicle_type_id":"4","last_reported":1751998533,"current_range_meters":11600,"station_id":"","pricing_plan_id":"cebpf4jnsgd1na2vs0mg"},{"bike_id":"888522e3-39b6-4ff3-ad74-ff6c6f771157","system_id":"levelo_inurba_marseille","lat":43.295006,"lon":5.402617,"is_reserved":false,"is_disabled":false,"rental_uris":{"android":"levelo://app?vid=888522e3-39b6-4ff3-ad74-ff6c6f771157","ios":"levelo://app?vid=888522e3-39b6-4ff3-ad74-ff6c6f771157"},"vehicle_type_id":"4","last_reported":1751998533,"current_range_meters":11600,"station_id":"","pricing_plan_id":"cebpf4jnsgd1na2vs0mg"},{"bike_id":"d2e6bce5-3f79-4d1c-acaa-b4cd329357d7","system_id":"levelo_inurba_marseille","lat":43.30882,"lon":5.39655,"is_reserved":false,"is_disabled":false,"rental_uris":{"android":"levelo://app?vid=d2e6bce5-3f79-4d1c-acaa-b4cd329357d7","ios":"levelo://app?vid=d2e6bce5-3f79-4d1c-acaa-b4cd329357d7"},"vehicle_type_id":"4","last_reported":1751998533,"current_range_meters":11600,"station_id":"ce4bh012rcd13ifvqcv0","pricing_plan_id":"cebpf4jnsgd1na2vs0mg"},{"bike_id":"6e0e8506-0517-4d71-b7bc-a9313dd2a17a","system_id":"levelo_inurba_marseille","lat":43.28848,"lon":5.35855,"is_reserved":false,"is_disabled":false,"rental_uris":{"android":"levelo://app?vid=6e0e8506-0517-4d71-b7bc-a9313dd2a17a","ios":"levelo://app?vid=6e0e8506-0517-4d71-b7bc-a9313dd2a17a"},"vehicle_type_id":"4","last_reported":1751998533,"current_range_meters":11600,"station_id":"ce4bhb12rcd13ifvqem0","pricing_plan_id":"cebpf4jnsgd1na2vs0mg"},{"bike_id":"dd2ec9cc-6dbf-4817-ab81-d68ef6f9ef04","system_id":"levelo_inurba_marseille","lat":43.32289,"lon":5.38272,"is_reserved":false,"is_disabled":false,"rental_uris":{"android":"levelo://app?vid=dd2ec9cc-6dbf-4817-ab81-d68ef6f9ef04","ios":"levelo://app?vid=dd2ec9cc-6dbf-4817-ab81-d68ef6f9ef04"},"vehicle_type_id":"4","last_reported":1751998533,"current_range_meters":11600,"station_id":"ce4bhr12rcd13ifvqhqg","pricing_plan_id":"cebpf4jnsgd1na2vs0mg"},{"bike_id":"8d6887f6-b938-4b46-8f30-f7e89fcddc3f","system_id":"levelo_inurba_marseille","lat":43.29303,"lon":5.374428,"is_reserved":false,"is_disabled":false,"rental_uris":{"android":"levelo://app?vid=8d6887f6-b938-4b46-8f30-f7e89fcddc3f","ios":"levelo://app?vid=8d6887f6-b938-4b46-8f30-f7e89fcddc3f"},"vehicle_type_id":"4","last_reported":1751998533,"current_range_meters":12000,"station_id":"ce4bgh92rcd13ifvqb50","pricing_plan_id":"cebpf4jnsgd1na2vs0mg"},{"bike_id":"538e1b05-e2a4-4a42-9bc7-7ddbe3e776fc","system_id":"levelo_inurba_marseille","lat":43.30776,"lon":5.37655,"is_reserved":false,"is_disabled":false,"rental_uris":{"android":"levelo://app?vid=538e1b05-e2a4-4a42-9bc7-7ddbe3e776fc","ios":"levelo://app?vid=538e1b05-e2a4-4a42-9bc7-7ddbe3e776fc"},"vehicle_type_id":"4","last_reported":1751998533,"current_range_meters":12000,"station_id":"ce4bgv92rcd13ifvqcq0","pricing_plan_id":"cebpf4jnsgd1na2vs0mg"},{"bike_id":"9e057cb2-dffc-48cd-a115-95eef14863b5","system_id":"levelo_inurba_marseille","lat":43.24073,"lon":5.37745,"is_reserved":false,"is_disabled":false,"rental_uris":{"android":"levelo://app?vid=9e057cb2-dffc-48cd-a115-95eef14863b5","ios":"levelo://app?vid=9e057cb2-dffc-48cd-a115-95eef14863b5"},"vehicle_type_id":"4","last_reported":1751998533,"current_range_meters":12000,"station_id":"ce4bhnp2rcd13ifvqgvg","pricing_plan_id":"cebpf4jnsgd1na2vs0mg"},{"bike_id":"7867a23a-3bdf-4fa1-9c73-ab4e74e4bcf9","system_id":"levelo_inurba_marseille","lat":43.31088,"lon":5.42419,"is_reserved":false,"is_disabled":false,"rental_uris":{"android":"levelo://app?vid=7867a23a-3bdf-4fa1-9c73-ab4e74e4bcf9","ios":"levelo://app?vid=7867a23a-3bdf-4fa1-9c73-ab4e74e4bcf9"},"vehicle_type_id":"4","last_reported":1751998533,"current_range_meters":12000,"station_id":"ce4bhp92rcd13ifvqhag","pricing_plan_id":"cebpf4jnsgd1na2vs0mg"},{"bike_id":"2a7d25e5-223e-4042-b5fb-213400ff3e9c","system_id":"levelo_inurba_marseille","lat":43.30265,"lon":5.400771,"is_reserved":false,"is_disabled":false,"rental_uris":{"android":"levelo://app?vid=2a7d25e5-223e-4042-b5fb-213400ff3e9c","ios":"levelo://app?vid=2a7d25e5-223e-4042-b5fb-213400ff3e9c"},"vehicle_type_id":"4","last_reported":1751998533,"current_range_meters":12400,"station_id":"ce4bgvh2rcd13ifvqcs0","pricing_plan_id":"cebpf4jnsgd1na2vs0mg"},{"bike_id":"95150053-c77f-49ce-8976-03fbf21e7971","system_id":"levelo_inurba_marseille","lat":43.30248,"lon":5.39458,"is_reserved":false,"is_disabled":false,"rental_uris":{"android":"levelo://app?vid=95150053-c77f-49ce-8976-03fbf21e7971","ios":"levelo://app?vid=95150053-c77f-49ce-8976-03fbf21e7971"},"vehicle_type_id":"4","last_reported":1751998533,"current_range_meters":12400,"station_id":"ce4bh0p2rcd13ifvqd70","pricing_plan_id":"cebpf4jnsgd1na2vs0mg"},{"bike_id":"85d8e0f1-9f08-490f-8d39-71be41881789","system_id":"levelo_inurba_marseille","lat":43.25105,"lon":5.4032,"is_reserved":false,"is_disabled":false,"rental_uris":{"android":"levelo://app?vid=85d8e0f1-9f08-490f-8d39-71be41881789","ios":"levelo://app?vid=85d8e0f1-9f08-490f-8d39-71be41881789"},"vehicle_type_id":"4","last_reported":1751998533,"current_range_meters":12400,"station_id":"ce4bhlh2rcd13ifvqgig","pricing_plan_id":"cebpf4jnsgd1na2vs0mg"},{"bike_id":"77c63ecf-8ec4-46ab-b695-3fed0ff0fb70","system_id":"levelo_inurba_marseille","lat":43.29901,"lon":5.43669,"is_reserved":false,"is_disabled":false,"rental_uris":{"android":"levelo://app?vid=77c63ecf-8ec4-46ab-b695-3fed0ff0fb70","ios":"levelo://app?vid=77c63ecf-8ec4-46ab-b695-3fed0ff0fb70"},"vehicle_type_id":"4","last_reported":1751998533,"current_range_meters":12400,"station_id":"ce4bhpp2rcd13ifvqhfg","pricing_plan_id":"cebpf4jnsgd1na2vs0mg"},{"bike_id":"02e2f49a-9f3b-4d6e-b67b-8eb5a925aa1d","system_id":"levelo_inurba_marseille","lat":43.324921,"lon":5.36712,"is_reserved":false,"is_disabled":false,"rental_uris":{"android":"levelo://app?vid=02e2f49a-9f3b-4d6e-b67b-8eb5a925aa1d","ios":"levelo://app?vid=02e2f49a-9f3b-4d6e-b67b-8eb5a925aa1d"},"vehicle_type_id":"4","last_reported":1751998533,"current_range_meters":12400,"station_id":"ce4bhs12rcd13ifvqhvg","pricing_plan_id":"cebpf4jnsgd1na2vs0mg"},{"bike_id":"b287377f-3d0b-47ac-86fe-9e0dfc1563de","system_id":"levelo_inurba_marseille","lat":43.225018,"lon":5.347769,"is_reserved":false,"is_disabled":false,"rental_uris":{"android":"levelo://app?vid=b287377f-3d0b-47ac-86fe-9e0dfc1563de","ios":"levelo://app?vid=b287377f-3d0b-47ac-86fe-9e0dfc1563de"},"vehicle_type_id":"4","last_reported":1751998533,"current_range_meters":12400,"station_id":"st_cvj5dfep6f1abm77gieg","pricing_plan_id":"cebpf4jnsgd1na2vs0mg"},{"bike_id":"d5ef770d-9759-47e3-b3a5-7d2785ef76db","system_id":"levelo_inurba_marseille","lat":43.32929,"lon":5.39031,"is_reserved":false,"is_disabled":false,"rental_uris":{"android":"levelo://app?vid=d5ef770d-9759-47e3-b3a5-7d2785ef76db","ios":"levelo://app?vid=d5ef770d-9759-47e3-b3a5-7d2785ef76db"},"vehicle_type_id":"4","last_reported":1751998533,"current_range_meters":12800,"station_id":"","pricing_plan_id":"cebpf4jnsgd1na2vs0mg"},{"bike_id":"3030cb07-c041-4d87-a253-8c849c24aa85","system_id":"levelo_inurba_marseille","lat":43.32654,"lon":5.3622,"is_reserved":false,"is_disabled":false,"rental_uris":{"android":"levelo://app?vid=3030cb07-c041-4d87-a253-8c849c24aa85","ios":"levelo://app?vid=3030cb07-c041-4d87-a253-8c849c24aa85"},"vehicle_type_id":"4","last_reported":1751998533,"current_range_meters":12800,"station_id":"","pricing_plan_id":"cebpf4jnsgd1na2vs0mg"},{"bike_id":"94ad6290-e640-4c32-813b-5a33a8c4943f","system_id":"levelo_inurba_marseille","lat":43.30954,"lon":5.39028,"is_reserved":false,"is_disabled":false,"rental_uris":{"android":"levelo://app?vid=94ad6290-e640-4c32-813b-5a33a8c4943f","ios":"levelo://app?vid=94ad6290-e640-4c32-813b-5a33a8c4943f"},"vehicle_type_id":"4","last_reported":1751998533,"current_range_meters":12800,"station_id":"ce4bgup2rcd13ifvqco0","pricing_plan_id":"cebpf4jnsgd1na2vs0mg"},{"bike_id":"9cc9f981-8101-4dbe-b5da-8303610ec005","system_id":"levelo_inurba_marseille","lat":43.29266,"lon":5.38444,"is_reserved":false,"is_disabled":false,"rental_uris":{"android":"levelo://app?vid=9cc9f981-8101-4dbe-b5da-8303610ec005","ios":"levelo://app?vid=9cc9f981-8101-4dbe-b5da-8303610ec005"},"vehicle_type_id":"4","last_reported":1751998533,"current_range_meters":12800,"station_id":"ce4bh692rcd13ifvqea0","pricing_plan_id":"cebpf4jnsgd1na2vs0mg"},{"bike_id":"6dfb2c48-1fb7-48e6-9a90-cfe55fcdda84","system_id":"levelo_inurba_marseille","lat":43.309962,"lon":5.390435,"is_reserved":false,"is_disabled":false,"rental_uris":{"android":"levelo://app?vid=6dfb2c48-1fb7-48e6-9a90-cfe55fcdda84","ios":"levelo://app?vid=6dfb2c48-1fb7-48e6-9a90-cfe55fcdda84"},"vehicle_type_id":"4","last_reported":1751998533,"current_range_meters":13600,"station_id":"ce4bgup2rcd13ifvqco0","pricing_plan_id":"cebpf4jnsgd1na2vs0mg"},{"bike_id":"91150746-e6ca-4b0b-a0b8-35438692bd2f","system_id":"levelo_inurba_marseille","lat":43.30942,"lon":5.39029,"is_reserved":false,"is_disabled":false,"rental_uris":{"android":"levelo://app?vid=91150746-e6ca-4b0b-a0b8-35438692bd2f","ios":"levelo://app?vid=91150746-e6ca-4b0b-a0b8-35438692bd2f"},"vehicle_type_id":"4","last_reported":1751998533,"current_range_meters":13600,"station_id":"ce4bgup2rcd13ifvqco0","pricing_plan_id":"cebpf4jnsgd1na2vs0mg"},{"bike_id":"196e7cac-79da-4b38-9746-b8f9ee7d5a7f","system_id":"levelo_inurba_marseille","lat":43.28935,"lon":5.36639,"is_reserved":false,"is_disabled":false,"rental_uris":{"android":"levelo://app?vid=196e7cac-79da-4b38-9746-b8f9ee7d5a7f","ios":"levelo://app?vid=196e7cac-79da-4b38-9746-b8f9ee7d5a7f"},"vehicle_type_id":"4","last_reported":1751998533,"current_range_meters":13600,"station_id":"ce4bhap2rcd13ifvqek0","pricing_plan_id":"cebpf4jnsgd1na2vs0mg"},{"bike_id":"82f40aca-214c-480a-99d7-4df294448107","system_id":"levelo_inurba_marseille","lat":43.254895,"lon":5.376448,"is_reserved":false,"is_disabled":false,"rental_uris":{"android":"levelo://app?vid=82f40aca-214c-480a-99d7-4df294448107","ios":"levelo://app?vid=82f40aca-214c-480a-99d7-4df294448107"},"vehicle_type_id":"4","last_reported":1751998533,"current_range_meters":13600,"station_id":"ce4bhh12rcd13ifvqff0","pricing_plan_id":"cebpf4jnsgd1na2vs0mg"},{"bike_id":"f5c5d48c-b7cf-48a8-84f0-a80044871d04","system_id":"levelo_inurba_marseille","lat":43.264907,"lon":5.395394,"is_reserved":false,"is_disabled":false,"rental_uris":{"android":"levelo://app?vid=f5c5d48c-b7cf-48a8-84f0-a80044871d04","ios":"levelo://app?vid=f5c5d48c-b7cf-48a8-84f0-a80044871d04"},"vehicle_type_id":"4","last_reported":1751998533,"current_range_meters":14000,"station_id":"","pricing_plan_id":"cebpf4jnsgd1na2vs0mg"},{"bike_id":"87c2d236-4978-4760-be77-27d7f5a212e4","system_id":"levelo_inurba_marseille","lat":43.29644,"lon":5.36205,"is_reserved":false,"is_disabled":false,"rental_uris":{"android":"levelo://app?vid=87c2d236-4978-4760-be77-27d7f5a212e4","ios":"levelo://app?vid=87c2d236-4978-4760-be77-27d7f5a212e4"},"vehicle_type_id":"4","last_reported":1751998533,"current_range_meters":14000,"station_id":"","pricing_plan_id":"cebpf4jnsgd1na2vs0mg"},{"bike_id":"cb5501f4-b90d-44f9-8401-d6971ef6d013","system_id":"levelo_inurba_marseille","lat":43.30956,"lon":5.39022,"is_reserved":false,"is_disabled":false,"rental_uris":{"android":"levelo://app?vid=cb5501f4-b90d-44f9-8401-d6971ef6d013","ios":"levelo://app?vid=cb5501f4-b90d-44f9-8401-d6971ef6d013"},"vehicle_type_id":"4","last_reported":1751998533,"current_range_meters":14000,"station_id":"ce4bgup2rcd13ifvqco0","pricing_plan_id":"cebpf4jnsgd1na2vs0mg"},{"bike_id":"27e2edd1-67ef-4361-be71-511b37880069","system_id":"levelo_inurba_marseille","lat":43.34141,"lon":5.40899,"is_reserved":false,"is_disabled":false,"rental_uris":{"android":"levelo://app?vid=27e2edd1-67ef-4361-be71-511b37880069","ios":"levelo://app?vid=27e2edd1-67ef-4361-be71-511b37880069"},"vehicle_type_id":"4","last_reported":1751998533,"current_range_meters":14000,"station_id":"ce4bhqh2rcd13ifvqhlg","pricing_plan_id":"cebpf4jnsgd1na2vs0mg"},{"bike_id":"a24d40b2-78fe-4838-911c-e01296b7c96a","system_id":"levelo_inurba_marseille","lat":43.30887,"lon":5.39642,"is_reserved":false,"is_disabled":false,"rental_uris":{"android":"levelo://app?vid=a24d40b2-78fe-4838-911c-e01296b7c96a","ios":"levelo://app?vid=a24d40b2-78fe-4838-911c-e01296b7c96a"},"vehicle_type_id":"4","last_reported":1751998533,"current_range_meters":14400,"station_id":"ce4bh012rcd13ifvqcv0","pricing_plan_id":"cebpf4jnsgd1na2vs0mg"},{"bike_id":"8e57243b-08f3-4c66-b2f4-5776b4efc86e","system_id":"levelo_inurba_marseille","lat":43.29421,"lon":5.38607,"is_reserved":false,"is_disabled":false,"rental_uris":{"android":"levelo://app?vid=8e57243b-08f3-4c66-b2f4-5776b4efc86e","ios":"levelo://app?vid=8e57243b-08f3-4c66-b2f4-5776b4efc86e"},"vehicle_type_id":"4","last_reported":1751998533,"current_range_meters":14400,"station_id":"ce4bh2h2rcd13ifvqdh0","pricing_plan_id":"cebpf4jnsgd1na2vs0mg"},{"bike_id":"9e5dcd97-d267-46c6-b5b3-4efa12cf5c95","system_id":"levelo_inurba_marseille","lat":43.29169,"lon":5.37153,"is_reserved":false,"is_disabled":false,"rental_uris":{"android":"levelo://app?vid=9e5dcd97-d267-46c6-b5b3-4efa12cf5c95","ios":"levelo://app?vid=9e5dcd97-d267-46c6-b5b3-4efa12cf5c95"},"vehicle_type_id":"4","last_reported":1751998533,"current_range_meters":14400,"station_id":"ce4bha92rcd13ifvqeh0","pricing_plan_id":"cebpf4jnsgd1na2vs0mg"},{"bike_id":"eabc7782-9fe8-4348-9655-da2b8044f20c","system_id":"levelo_inurba_marseille","lat":43.2962,"lon":5.37159,"is_reserved":false,"is_disabled":false,"rental_uris":{"android":"levelo://app?vid=eabc7782-9fe8-4348-9655-da2b8044f20c","ios":"levelo://app?vid=eabc7782-9fe8-4348-9655-da2b8044f20c"},"vehicle_type_id":"4","last_reported":1751998533,"current_range_meters":14800,"station_id":"ce4bgnh2rcd13ifvqc0g","pricing_plan_id":"cebpf4jnsgd1na2vs0mg"},{"bike_id":"8aea7c6c-b6cd-4bf1-be06-818ca8e7e3ca","system_id":"levelo_inurba_marseille","lat":43.26678,"lon":5.38268,"is_reserved":false,"is_disabled":false,"rental_uris":{"android":"levelo://app?vid=8aea7c6c-b6cd-4bf1-be06-818ca8e7e3ca","ios":"levelo://app?vid=8aea7c6c-b6cd-4bf1-be06-818ca8e7e3ca"},"vehicle_type_id":"4","last_reported":1751998533,"current_range_meters":14800,"station_id":"ce4bhg92rcd13ifvqf90","pricing_plan_id":"cebpf4jnsgd1na2vs0mg"},{"bike_id":"95c5e9eb-2655-4f38-aff7-f267536c9413","system_id":"levelo_inurba_marseille","lat":43.2783,"lon":5.40708,"is_reserved":false,"is_disabled":false,"rental_uris":{"android":"levelo://app?vid=95c5e9eb-2655-4f38-aff7-f267536c9413","ios":"levelo://app?vid=95c5e9eb-2655-4f38-aff7-f267536c9413"},"vehicle_type_id":"4","last_reported":1751998533,"current_range_meters":14800,"station_id":"ce4bhnh2rcd13ifvqgtg","pricing_plan_id":"cebpf4jnsgd1na2vs0mg"},{"bike_id":"bb29e41f-3292-49b1-a9fc-f6c4198e0b85","system_id":"levelo_inurba_marseille","lat":43.31084,"lon":5.42417,"is_reserved":false,"is_disabled":false,"rental_uris":{"android":"levelo://app?vid=bb29e41f-3292-49b1-a9fc-f6c4198e0b85","ios":"levelo://app?vid=bb29e41f-3292-49b1-a9fc-f6c4198e0b85"},"vehicle_type_id":"4","last_reported":1751998533,"current_range_meters":14800,"station_id":"ce4bhp92rcd13ifvqhag","pricing_plan_id":"cebpf4jnsgd1na2vs0mg"},{"bike_id":"b6e2314d-7714-4264-8a74-3163ecf6cc8f","system_id":"levelo_inurba_marseille","lat":43.29294,"lon":5.37448,"is_reserved":false,"is_disabled":false,"rental_uris":{"android":"levelo://app?vid=b6e2314d-7714-4264-8a74-3163ecf6cc8f","ios":"levelo://app?vid=b6e2314d-7714-4264-8a74-3163ecf6cc8f"},"vehicle_type_id":"4","last_reported":1751998533,"current_range_meters":15200,"station_id":"ce4bgi12rcd13ifvqb70","pricing_plan_id":"cebpf4jnsgd1na2vs0mg"},{"bike_id":"732db02c-a2e8-435f-b9d7-f4a12e26dc4a","system_id":"levelo_inurba_marseille","lat":43.28419,"lon":5.34987,"is_reserved":false,"is_disabled":false,"rental_uris":{"android":"levelo://app?vid=732db02c-a2e8-435f-b9d7-f4a12e26dc4a","ios":"levelo://app?vid=732db02c-a2e8-435f-b9d7-f4a12e26dc4a"},"vehicle_type_id":"4","last_reported":1751998533,"current_range_meters":15200,"station_id":"ce4bhbh2rcd13ifvqepg","pricing_plan_id":"cebpf4jnsgd1na2vs0mg"},{"bike_id":"8935e67e-e377-4f20-b30d-fbcbd3d43af7","system_id":"levelo_inurba_marseille","lat":43.28614,"lon":5.351,"is_reserved":false,"is_disabled":false,"rental_uris":{"android":"levelo://app?vid=8935e67e-e377-4f20-b30d-fbcbd3d43af7","ios":"levelo://app?vid=8935e67e-e377-4f20-b30d-fbcbd3d43af7"},"vehicle_type_id":"4","last_reported":1751998533,"current_range_meters":15200,"station_id":"ce4bhch2rcd13ifvqeug","pricing_plan_id":"cebpf4jnsgd1na2vs0mg"},{"bike_id":"3c78f3be-0595-4cde-ab3a-21eba194a66a","system_id":"levelo_inurba_marseille","lat":43.21758,"lon":5.34607,"is_reserved":false,"is_disabled":false,"rental_uris":{"android":"levelo://app?vid=3c78f3be-0595-4cde-ab3a-21eba194a66a","ios":"levelo://app?vid=3c78f3be-0595-4cde-ab3a-21eba194a66a"},"vehicle_type_id":"4","last_reported":1751998533,"current_range_meters":16000,"station_id":"","pricing_plan_id":"cebpf4jnsgd1na2vs0mg"},{"bike_id":"66cf151f-746e-421c-84a4-71c815214002","system_id":"levelo_inurba_marseille","lat":43.28693,"lon":5.37397,"is_reserved":false,"is_disabled":false,"rental_uris":{"android":"levelo://app?vid=66cf151f-746e-421c-84a4-71c815214002","ios":"levelo://app?vid=66cf151f-746e-421c-84a4-71c815214002"},"vehicle_type_id":"4","last_reported":1751998533,"current_range_meters":16000,"station_id":"ce4bh3p2rcd13ifvqdq0","pricing_plan_id":"cebpf4jnsgd1na2vs0mg"},{"bike_id":"e07099cc-ccdf-4511-aa53-76cc8d902771","system_id":"levelo_inurba_marseille","lat":43.28999,"lon":5.35597,"is_reserved":false,"is_disabled":false,"rental_uris":{"android":"levelo://app?vid=e07099cc-ccdf-4511-aa53-76cc8d902771","ios":"levelo://app?vid=e07099cc-ccdf-4511-aa53-76cc8d902771"},"vehicle_type_id":"4","last_reported":1751998533,"current_range_meters":16000,"station_id":"ce4bhb92rcd13ifvqen0","pricing_plan_id":"cebpf4jnsgd1na2vs0mg"},{"bike_id":"51053700-5cc1-4447-bcd7-7617a1543563","system_id":"levelo_inurba_marseille","lat":43.28263,"lon":5.35058,"is_reserved":false,"is_disabled":false,"rental_uris":{"android":"levelo://app?vid=51053700-5cc1-4447-bcd7-7617a1543563","ios":"levelo://app?vid=51053700-5cc1-4447-bcd7-7617a1543563"},"vehicle_type_id":"4","last_reported":1751998533,"current_range_meters":16000,"station_id":"ce4bhbp2rcd13ifvqerg","pricing_plan_id":"cebpf4jnsgd1na2vs0mg"},{"bike_id":"d4023fd1-9cb5-46ba-bc86-f38958ec1d50","system_id":"levelo_inurba_marseille","lat":43.270542,"lon":5.402613,"is_reserved":false,"is_disabled":false,"rental_uris":{"android":"levelo://app?vid=d4023fd1-9cb5-46ba-bc86-f38958ec1d50","ios":"levelo://app?vid=d4023fd1-9cb5-46ba-bc86-f38958ec1d50"},"vehicle_type_id":"4","last_reported":1751998533,"current_range_meters":16000,"station_id":"ce4bhk92rcd13ifvqgc0","pricing_plan_id":"cebpf4jnsgd1na2vs0mg"},{"bike_id":"dfed5170-dd30-4c34-b10d-0827cb5726cb","system_id":"levelo_inurba_marseille","lat":43.23194,"lon":5.3997,"is_reserved":false,"is_disabled":false,"rental_uris":{"android":"levelo://app?vid=dfed5170-dd30-4c34-b10d-0827cb5726cb","ios":"levelo://app?vid=dfed5170-dd30-4c34-b10d-0827cb5726cb"},"vehicle_type_id":"4","last_reported":1751998533,"current_range_meters":16000,"station_id":"ce4bhn12rcd13ifvqgqg","pricing_plan_id":"cebpf4jnsgd1na2vs0mg"},{"bike_id":"6011260d-93f7-4e5e-90f7-5c20c9a824d7","system_id":"levelo_inurba_marseille","lat":43.27785,"lon":5.40737,"is_reserved":false,"is_disabled":false,"rental_uris":{"android":"levelo://app?vid=6011260d-93f7-4e5e-90f7-5c20c9a824d7","ios":"levelo://app?vid=6011260d-93f7-4e5e-90f7-5c20c9a824d7"},"vehicle_type_id":"4","last_reported":1751998533,"current_range_meters":16000,"station_id":"ce4bhnh2rcd13ifvqgtg","pricing_plan_id":"cebpf4jnsgd1na2vs0mg"},{"bike_id":"9f920175-7375-44d5-ab90-1800fa9b8919","system_id":"levelo_inurba_marseille","lat":43.30955,"lon":5.39052,"is_reserved":false,"is_disabled":false,"rental_uris":{"android":"levelo://app?vid=9f920175-7375-44d5-ab90-1800fa9b8919","ios":"levelo://app?vid=9f920175-7375-44d5-ab90-1800fa9b8919"},"vehicle_type_id":"4","last_reported":1751998533,"current_range_meters":16400,"station_id":"ce4bgup2rcd13ifvqco0","pricing_plan_id":"cebpf4jnsgd1na2vs0mg"},{"bike_id":"447e9898-b875-4556-b118-4f74043ff35f","system_id":"levelo_inurba_marseille","lat":43.29527,"lon":5.39019,"is_reserved":false,"is_disabled":false,"rental_uris":{"android":"levelo://app?vid=447e9898-b875-4556-b118-4f74043ff35f","ios":"levelo://app?vid=447e9898-b875-4556-b118-4f74043ff35f"},"vehicle_type_id":"4","last_reported":1751998533,"current_range_meters":16400,"station_id":"ce4bh3p2rcd13ifvqdp0","pricing_plan_id":"cebpf4jnsgd1na2vs0mg"},{"bike_id":"69575b5f-fcff-448f-882b-795b66413514","system_id":"levelo_inurba_marseille","lat":43.29017,"lon":5.38638,"is_reserved":false,"is_disabled":false,"rental_uris":{"android":"levelo://app?vid=69575b5f-fcff-448f-882b-795b66413514","ios":"levelo://app?vid=69575b5f-fcff-448f-882b-795b66413514"},"vehicle_type_id":"4","last_reported":1751998533,"current_range_meters":16400,"station_id":"ce4bh4p2rcd13ifvqe0g","pricing_plan_id":"cebpf4jnsgd1na2vs0mg"},{"bike_id":"4e6c48fb-4e03-4428-98f6-c763cf43902a","system_id":"levelo_inurba_marseille","lat":43.29029,"lon":5.35621,"is_reserved":false,"is_disabled":false,"rental_uris":{"android":"levelo://app?vid=4e6c48fb-4e03-4428-98f6-c763cf43902a","ios":"levelo://app?vid=4e6c48fb-4e03-4428-98f6-c763cf43902a"},"vehicle_type_id":"4","last_reported":1751998533,"current_range_meters":16400,"station_id":"ce4bhb92rcd13ifvqen0","pricing_plan_id":"cebpf4jnsgd1na2vs0mg"},{"bike_id":"a74d1421-7a37-499b-b1c4-5e1394842b7e","system_id":"levelo_inurba_marseille","lat":43.33717,"lon":5.39188,"is_reserved":false,"is_disabled":false,"rental_uris":{"android":"levelo://app?vid=a74d1421-7a37-499b-b1c4-5e1394842b7e","ios":"levelo://app?vid=a74d1421-7a37-499b-b1c4-5e1394842b7e"},"vehicle_type_id":"4","last_reported":1751998533,"current_range_meters":16400,"station_id":"ce4bhr92rcd13ifvqhsg","pricing_plan_id":"cebpf4jnsgd1na2vs0mg"},{"bike_id":"a8dd1938-e9db-4444-98d6-ac7e8b3d788f","system_id":"levelo_inurba_marseille","lat":43.28696,"lon":5.37395,"is_reserved":false,"is_disabled":false,"rental_uris":{"android":"levelo://app?vid=a8dd1938-e9db-4444-98d6-ac7e8b3d788f","ios":"levelo://app?vid=a8dd1938-e9db-4444-98d6-ac7e8b3d788f"},"vehicle_type_id":"4","last_reported":1751998533,"current_range_meters":16800,"station_id":"ce4bh3p2rcd13ifvqdq0","pricing_plan_id":"cebpf4jnsgd1na2vs0mg"},{"bike_id":"1e112a52-32ff-42af-8077-893c4a6d3611","system_id":"levelo_inurba_marseille","lat":43.28408,"lon":5.35004,"is_reserved":false,"is_disabled":false,"rental_uris":{"android":"levelo://app?vid=1e112a52-32ff-42af-8077-893c4a6d3611","ios":"levelo://app?vid=1e112a52-32ff-42af-8077-893c4a6d3611"},"vehicle_type_id":"4","last_reported":1751998533,"current_range_meters":16800,"station_id":"ce4bhbh2rcd13ifvqepg","pricing_plan_id":"cebpf4jnsgd1na2vs0mg"},{"bike_id":"9959d7fa-4898-43a5-a1ec-b9fed544cad3","system_id":"levelo_inurba_marseille","lat":43.28429,"lon":5.34985,"is_reserved":false,"is_disabled":false,"rental_uris":{"android":"levelo://app?vid=9959d7fa-4898-43a5-a1ec-b9fed544cad3","ios":"levelo://app?vid=9959d7fa-4898-43a5-a1ec-b9fed544cad3"},"vehicle_type_id":"4","last_reported":1751998533,"current_range_meters":16800,"station_id":"ce4bhbh2rcd13ifvqepg","pricing_plan_id":"cebpf4jnsgd1na2vs0mg"},{"bike_id":"22f236a5-e5df-40f4-91dc-f73a0109c762","system_id":"levelo_inurba_marseille","lat":43.27998,"lon":5.41662,"is_reserved":false,"is_disabled":false,"rental_uris":{"android":"levelo://app?vid=22f236a5-e5df-40f4-91dc-f73a0109c762","ios":"levelo://app?vid=22f236a5-e5df-40f4-91dc-f73a0109c762"},"vehicle_type_id":"4","last_reported":1751998533,"current_range_meters":16800,"station_id":"ce4bho12rcd13ifvqh1g","pricing_plan_id":"cebpf4jnsgd1na2vs0mg"},{"bike_id":"56ea222d-46cf-4ab7-bd5d-fdb5864b6496","system_id":"levelo_inurba_marseille","lat":43.32114,"lon":5.36765,"is_reserved":false,"is_disabled":false,"rental_uris":{"android":"levelo://app?vid=56ea222d-46cf-4ab7-bd5d-fdb5864b6496","ios":"levelo://app?vid=56ea222d-46cf-4ab7-bd5d-fdb5864b6496"},"vehicle_type_id":"4","last_reported":1751998533,"current_range_meters":16800,"station_id":"ce4bhrh2rcd13ifvqhug","pricing_plan_id":"cebpf4jnsgd1na2vs0mg"},{"bike_id":"19c552da-55bc-46d8-97cb-d1fbabdad01a","system_id":"levelo_inurba_marseille","lat":43.211939,"lon":5.350691,"is_reserved":false,"is_disabled":false,"rental_uris":{"android":"levelo://app?vid=19c552da-55bc-46d8-97cb-d1fbabdad01a","ios":"levelo://app?vid=19c552da-55bc-46d8-97cb-d1fbabdad01a"},"vehicle_type_id":"4","last_reported":1751998533,"current_range_meters":16800,"station_id":"st_cvj6sg6p6f1abm77japg","pricing_plan_id":"cebpf4jnsgd1na2vs0mg"},{"bike_id":"d6455161-2340-4760-920c-8dafa357fe0a","system_id":"levelo_inurba_marseille","lat":43.29304,"lon":5.37445,"is_reserved":false,"is_disabled":false,"rental_uris":{"android":"levelo://app?vid=d6455161-2340-4760-920c-8dafa357fe0a","ios":"levelo://app?vid=d6455161-2340-4760-920c-8dafa357fe0a"},"vehicle_type_id":"4","last_reported":1751998533,"current_range_meters":17200,"station_id":"ce4bgi12rcd13ifvqb70","pricing_plan_id":"cebpf4jnsgd1na2vs0mg"},{"bike_id":"c7f9c41f-7209-4521-b44c-1a1cc6992dba","system_id":"levelo_inurba_marseille","lat":43.29227,"lon":5.36074,"is_reserved":false,"is_disabled":false,"rental_uris":{"android":"levelo://app?vid=c7f9c41f-7209-4521-b44c-1a1cc6992dba","ios":"levelo://app?vid=c7f9c41f-7209-4521-b44c-1a1cc6992dba"},"vehicle_type_id":"4","last_reported":1751998533,"current_range_meters":17200,"station_id":"ce4bhbh2rcd13ifvqeqg","pricing_plan_id":"cebpf4jnsgd1na2vs0mg"},{"bike_id":"f187bca7-730c-495f-b36c-b985f85f6d76","system_id":"levelo_inurba_marseille","lat":43.28642,"lon":5.35065,"is_reserved":false,"is_disabled":false,"rental_uris":{"android":"levelo://app?vid=f187bca7-730c-495f-b36c-b985f85f6d76","ios":"levelo://app?vid=f187bca7-730c-495f-b36c-b985f85f6d76"},"vehicle_type_id":"4","last_reported":1751998533,"current_range_meters":17200,"station_id":"ce4bhch2rcd13ifvqeug","pricing_plan_id":"cebpf4jnsgd1na2vs0mg"},{"bike_id":"66386396-35fc-468a-b38c-9308529e893c","system_id":"levelo_inurba_marseille","lat":43.27425,"lon":5.39419,"is_reserved":false,"is_disabled":false,"rental_uris":{"android":"levelo://app?vid=66386396-35fc-468a-b38c-9308529e893c","ios":"levelo://app?vid=66386396-35fc-468a-b38c-9308529e893c"},"vehicle_type_id":"4","last_reported":1751998533,"current_range_meters":17200,"station_id":"ce4bhdp2rcd13ifvqf20","pricing_plan_id":"cebpf4jnsgd1na2vs0mg"},{"bike_id":"53bf309d-5f95-449a-8bbe-084cfb8613af","system_id":"levelo_inurba_marseille","lat":43.33026,"lon":5.39039,"is_reserved":false,"is_disabled":false,"rental_uris":{"android":"levelo://app?vid=53bf309d-5f95-449a-8bbe-084cfb8613af","ios":"levelo://app?vid=53bf309d-5f95-449a-8bbe-084cfb8613af"},"vehicle_type_id":"4","last_reported":1751998533,"current_range_meters":17200,"station_id":"ce4bhr92rcd13ifvqhrg","pricing_plan_id":"cebpf4jnsgd1na2vs0mg"},{"bike_id":"cd812f06-3254-4dc4-bdab-94ecd7361d33","system_id":"levelo_inurba_marseille","lat":43.21753,"lon":5.34619,"is_reserved":false,"is_disabled":false,"rental_uris":{"android":"levelo://app?vid=cd812f06-3254-4dc4-bdab-94ecd7361d33","ios":"levelo://app?vid=cd812f06-3254-4dc4-bdab-94ecd7361d33"},"vehicle_type_id":"4","last_reported":1751998533,"current_range_meters":17200,"station_id":"st_cvj6r9ubvosntc0bgbag","pricing_plan_id":"cebpf4jnsgd1na2vs0mg"},{"bike_id":"d0f90c24-dd03-411b-9731-55305f76b7c8","system_id":"levelo_inurba_marseille","lat":43.211993,"lon":5.35075,"is_reserved":false,"is_disabled":false,"rental_uris":{"android":"levelo://app?vid=d0f90c24-dd03-411b-9731-55305f76b7c8","ios":"levelo://app?vid=d0f90c24-dd03-411b-9731-55305f76b7c8"},"vehicle_type_id":"4","last_reported":1751998533,"current_range_meters":17200,"station_id":"st_cvj6sg6p6f1abm77japg","pricing_plan_id":"cebpf4jnsgd1na2vs0mg"},{"bike_id":"c2b72fe0-bae6-4c7b-ad48-9e771b203dc8","system_id":"levelo_inurba_marseille","lat":43.31383,"lon":5.38432,"is_reserved":false,"is_disabled":false,"rental_uris":{"android":"levelo://app?vid=c2b72fe0-bae6-4c7b-ad48-9e771b203dc8","ios":"levelo://app?vid=c2b72fe0-bae6-4c7b-ad48-9e771b203dc8"},"vehicle_type_id":"4","last_reported":1751998533,"current_range_meters":17600,"station_id":"","pricing_plan_id":"cebpf4jnsgd1na2vs0mg"},{"bike_id":"4d780bb1-56dd-4231-bc5c-fd652a482ab8","system_id":"levelo_inurba_marseille","lat":43.30447,"lon":5.38889,"is_reserved":false,"is_disabled":false,"rental_uris":{"android":"levelo://app?vid=4d780bb1-56dd-4231-bc5c-fd652a482ab8","ios":"levelo://app?vid=4d780bb1-56dd-4231-bc5c-fd652a482ab8"},"vehicle_type_id":"4","last_reported":1751998533,"current_range_meters":17600,"station_id":"ce4bgk12rcd13ifvqbi0","pricing_plan_id":"cebpf4jnsgd1na2vs0mg"},{"bike_id":"f06ad9c1-4d2d-477f-9cf5-8a8b31168797","system_id":"levelo_inurba_marseille","lat":43.28708,"lon":5.37385,"is_reserved":false,"is_disabled":false,"rental_uris":{"android":"levelo://app?vid=f06ad9c1-4d2d-477f-9cf5-8a8b31168797","ios":"levelo://app?vid=f06ad9c1-4d2d-477f-9cf5-8a8b31168797"},"vehicle_type_id":"4","last_reported":1751998533,"current_range_meters":17600,"station_id":"ce4bh3p2rcd13ifvqdq0","pricing_plan_id":"cebpf4jnsgd1na2vs0mg"},{"bike_id":"1b6b1577-eabb-40f9-b388-687ef6c5de83","system_id":"levelo_inurba_marseille","lat":43.28105,"lon":5.37838,"is_reserved":false,"is_disabled":false,"rental_uris":{"android":"levelo://app?vid=1b6b1577-eabb-40f9-b388-687ef6c5de83","ios":"levelo://app?vid=1b6b1577-eabb-40f9-b388-687ef6c5de83"},"vehicle_type_id":"4","last_reported":1751998533,"current_range_meters":17600,"station_id":"ce4bha12rcd13ifvqee0","pricing_plan_id":"cebpf4jnsgd1na2vs0mg"},{"bike_id":"d6543ad0-16d4-4793-8970-3736097362b9","system_id":"levelo_inurba_marseille","lat":43.28625,"lon":5.35093,"is_reserved":false,"is_disabled":false,"rental_uris":{"android":"levelo://app?vid=d6543ad0-16d4-4793-8970-3736097362b9","ios":"levelo://app?vid=d6543ad0-16d4-4793-8970-3736097362b9"},"vehicle_type_id":"4","last_reported":1751998533,"current_range_meters":17600,"station_id":"ce4bhch2rcd13ifvqeug","pricing_plan_id":"cebpf4jnsgd1na2vs0mg"},{"bike_id":"4975b22d-8c48-452f-bd19-7a9d3ed7c378","system_id":"levelo_inurba_marseille","lat":43.29676,"lon":5.37424,"is_reserved":false,"is_disabled":false,"rental_uris":{"android":"levelo://app?vid=4975b22d-8c48-452f-bd19-7a9d3ed7c378","ios":"levelo://app?vid=4975b22d-8c48-452f-bd19-7a9d3ed7c378"},"vehicle_type_id":"4","last_reported":1751998533,"current_range_meters":18000,"station_id":"","pricing_plan_id":"cebpf4jnsgd1na2vs0mg"},{"bike_id":"f5c16f07-bc6f-4121-91a7-5ad90eec4f34","system_id":"levelo_inurba_marseille","lat":43.31205,"lon":5.37327,"is_reserved":false,"is_disabled":false,"rental_uris":{"android":"levelo://app?vid=f5c16f07-bc6f-4121-91a7-5ad90eec4f34","ios":"levelo://app?vid=f5c16f07-bc6f-4121-91a7-5ad90eec4f34"},"vehicle_type_id":"4","last_reported":1751998533,"current_range_meters":18000,"station_id":"","pricing_plan_id":"cebpf4jnsgd1na2vs0mg"},{"bike_id":"24495f00-def8-4a73-b7a4-3c42670c5b75","system_id":"levelo_inurba_marseille","lat":43.29531,"lon":5.3855,"is_reserved":false,"is_disabled":false,"rental_uris":{"android":"levelo://app?vid=24495f00-def8-4a73-b7a4-3c42670c5b75","ios":"levelo://app?vid=24495f00-def8-4a73-b7a4-3c42670c5b75"},"vehicle_type_id":"4","last_reported":1751998533,"current_range_meters":18000,"station_id":"ce4bgih2rcd13ifvqba0","pricing_plan_id":"cebpf4jnsgd1na2vs0mg"},{"bike_id":"a7f0466c-6e00-4f6c-9f12-af59e8219af7","system_id":"levelo_inurba_marseille","lat":43.30301,"lon":5.39204,"is_reserved":false,"is_disabled":false,"rental_uris":{"android":"levelo://app?vid=a7f0466c-6e00-4f6c-9f12-af59e8219af7","ios":"levelo://app?vid=a7f0466c-6e00-4f6c-9f12-af59e8219af7"},"vehicle_type_id":"4","last_reported":1751998533,"current_range_meters":18000,"station_id":"ce4bgkh2rcd13ifvqbk0","pricing_plan_id":"cebpf4jnsgd1na2vs0mg"},{"bike_id":"1fa20b0b-52a0-43eb-af59-89f627ca11db","system_id":"levelo_inurba_marseille","lat":43.29429,"lon":5.38587,"is_reserved":false,"is_disabled":false,"rental_uris":{"android":"levelo://app?vid=1fa20b0b-52a0-43eb-af59-89f627ca11db","ios":"levelo://app?vid=1fa20b0b-52a0-43eb-af59-89f627ca11db"},"vehicle_type_id":"4","last_reported":1751998533,"current_range_meters":18000,"station_id":"ce4bh2h2rcd13ifvqdh0","pricing_plan_id":"cebpf4jnsgd1na2vs0mg"},{"bike_id":"a3666b6e-85b0-4d1b-8bd3-1b3a7dd97b7c","system_id":"levelo_inurba_marseille","lat":43.29167,"lon":5.37161,"is_reserved":false,"is_disabled":false,"rental_uris":{"android":"levelo://app?vid=a3666b6e-85b0-4d1b-8bd3-1b3a7dd97b7c","ios":"levelo://app?vid=a3666b6e-85b0-4d1b-8bd3-1b3a7dd97b7c"},"vehicle_type_id":"4","last_reported":1751998533,"current_range_meters":18000,"station_id":"ce4bha92rcd13ifvqeh0","pricing_plan_id":"cebpf4jnsgd1na2vs0mg"},{"bike_id":"720fda3a-9f51-4994-9a6a-f417b68c1a8a","system_id":"levelo_inurba_marseille","lat":43.28868,"lon":5.3584,"is_reserved":false,"is_disabled":false,"rental_uris":{"android":"levelo://app?vid=720fda3a-9f51-4994-9a6a-f417b68c1a8a","ios":"levelo://app?vid=720fda3a-9f51-4994-9a6a-f417b68c1a8a"},"vehicle_type_id":"4","last_reported":1751998533,"current_range_meters":18000,"station_id":"ce4bhb12rcd13ifvqem0","pricing_plan_id":"cebpf4jnsgd1na2vs0mg"},{"bike_id":"36e649fc-7b0b-4ae6-aa2f-0849ff821119","system_id":"levelo_inurba_marseille","lat":43.28162,"lon":5.42616,"is_reserved":false,"is_disabled":false,"rental_uris":{"android":"levelo://app?vid=36e649fc-7b0b-4ae6-aa2f-0849ff821119","ios":"levelo://app?vid=36e649fc-7b0b-4ae6-aa2f-0849ff821119"},"vehicle_type_id":"4","last_reported":1751998533,"current_range_meters":18000,"station_id":"ce4bhnh2rcd13ifvqgug","pricing_plan_id":"cebpf4jnsgd1na2vs0mg"},{"bike_id":"56eb3fdf-ea87-4fcf-85df-3680fa66363e","system_id":"levelo_inurba_marseille","lat":43.22509,"lon":5.34758,"is_reserved":false,"is_disabled":false,"rental_uris":{"android":"levelo://app?vid=56eb3fdf-ea87-4fcf-85df-3680fa66363e","ios":"levelo://app?vid=56eb3fdf-ea87-4fcf-85df-3680fa66363e"},"vehicle_type_id":"4","last_reported":1751998533,"current_range_meters":18000,"station_id":"st_cvj5dfep6f1abm77gieg","pricing_plan_id":"cebpf4jnsgd1na2vs0mg"},{"bike_id":"697d5fc4-b988-4a4e-8323-c1ce5ed61a61","system_id":"levelo_inurba_marseille","lat":43.21211,"lon":5.35033,"is_reserved":false,"is_disabled":false,"rental_uris":{"android":"levelo://app?vid=697d5fc4-b988-4a4e-8323-c1ce5ed61a61","ios":"levelo://app?vid=697d5fc4-b988-4a4e-8323-c1ce5ed61a61"},"vehicle_type_id":"4","last_reported":1751998533,"current_range_meters":18800,"station_id":"","pricing_plan_id":"cebpf4jnsgd1na2vs0mg"},{"bike_id":"b757ffbb-2b71-4330-9f60-5f8a9d46d16e","system_id":"levelo_inurba_marseille","lat":43.29682,"lon":5.37096,"is_reserved":false,"is_disabled":false,"rental_uris":{"android":"levelo://app?vid=b757ffbb-2b71-4330-9f60-5f8a9d46d16e","ios":"levelo://app?vid=b757ffbb-2b71-4330-9f60-5f8a9d46d16e"},"vehicle_type_id":"4","last_reported":1751998533,"current_range_meters":18800,"station_id":"","pricing_plan_id":"cebpf4jnsgd1na2vs0mg"},{"bike_id":"c9c15b47-d55e-44dc-979f-44c5b9d1bd58","system_id":"levelo_inurba_marseille","lat":43.295213,"lon":5.390313,"is_reserved":false,"is_disabled":false,"rental_uris":{"android":"levelo://app?vid=c9c15b47-d55e-44dc-979f-44c5b9d1bd58","ios":"levelo://app?vid=c9c15b47-d55e-44dc-979f-44c5b9d1bd58"},"vehicle_type_id":"4","last_reported":1751998533,"current_range_meters":18800,"station_id":"ce4bh3p2rcd13ifvqdp0","pricing_plan_id":"cebpf4jnsgd1na2vs0mg"},{"bike_id":"d1bce385-97f6-4d4a-a445-51994e867d06","system_id":"levelo_inurba_marseille","lat":43.27899,"lon":5.37993,"is_reserved":false,"is_disabled":false,"rental_uris":{"android":"levelo://app?vid=d1bce385-97f6-4d4a-a445-51994e867d06","ios":"levelo://app?vid=d1bce385-97f6-4d4a-a445-51994e867d06"},"vehicle_type_id":"4","last_reported":1751998533,"current_range_meters":18800,"station_id":"ce4bhf92rcd13ifvqf50","pricing_plan_id":"cebpf4jnsgd1na2vs0mg"},{"bike_id":"00123be2-9f59-4a71-b069-9512e4590a6a","system_id":"levelo_inurba_marseille","lat":43.26216,"lon":5.37439,"is_reserved":false,"is_disabled":false,"rental_uris":{"android":"levelo://app?vid=00123be2-9f59-4a71-b069-9512e4590a6a","ios":"levelo://app?vid=00123be2-9f59-4a71-b069-9512e4590a6a"},"vehicle_type_id":"4","last_reported":1751998533,"current_range_meters":18800,"station_id":"ce4bhgp2rcd13ifvqfc0","pricing_plan_id":"cebpf4jnsgd1na2vs0mg"},{"bike_id":"88db2fba-19fb-4c01-a7a6-ac50889c4875","system_id":"levelo_inurba_marseille","lat":43.24076,"lon":5.37733,"is_reserved":false,"is_disabled":false,"rental_uris":{"android":"levelo://app?vid=88db2fba-19fb-4c01-a7a6-ac50889c4875","ios":"levelo://app?vid=88db2fba-19fb-4c01-a7a6-ac50889c4875"},"vehicle_type_id":"4","last_reported":1751998533,"current_range_meters":18800,"station_id":"ce4bhnp2rcd13ifvqgvg","pricing_plan_id":"cebpf4jnsgd1na2vs0mg"},{"bike_id":"b5a5cc8d-b9fd-4a1e-b64c-4f97a2cf614b","system_id":"levelo_inurba_marseille","lat":43.28703,"lon":5.3997,"is_reserved":false,"is_disabled":false,"rental_uris":{"android":"levelo://app?vid=b5a5cc8d-b9fd-4a1e-b64c-4f97a2cf614b","ios":"levelo://app?vid=b5a5cc8d-b9fd-4a1e-b64c-4f97a2cf614b"},"vehicle_type_id":"4","last_reported":1751998533,"current_range_meters":18800,"station_id":"ce4bho92rcd13ifvqh3g","pricing_plan_id":"cebpf4jnsgd1na2vs0mg"},{"bike_id":"b6d9b946-f66a-4c6f-96e5-5d23e176360c","system_id":"levelo_inurba_marseille","lat":43.31315,"lon":5.38172,"is_reserved":false,"is_disabled":false,"rental_uris":{"android":"levelo://app?vid=b6d9b946-f66a-4c6f-96e5-5d23e176360c","ios":"levelo://app?vid=b6d9b946-f66a-4c6f-96e5-5d23e176360c"},"vehicle_type_id":"4","last_reported":1751998533,"current_range_meters":19200,"station_id":"","pricing_plan_id":"cebpf4jnsgd1na2vs0mg"},{"bike_id":"b2caa530-bb19-4cc6-a6bd-61e3e1d7432e","system_id":"levelo_inurba_marseille","lat":43.33763,"lon":5.37461,"is_reserved":false,"is_disabled":false,"rental_uris":{"android":"levelo://app?vid=b2caa530-bb19-4cc6-a6bd-61e3e1d7432e","ios":"levelo://app?vid=b2caa530-bb19-4cc6-a6bd-61e3e1d7432e"},"vehicle_type_id":"4","last_reported":1751998533,"current_range_meters":19200,"station_id":"","pricing_plan_id":"cebpf4jnsgd1na2vs0mg"},{"bike_id":"09336cd1-7b2f-46b8-ac6e-85b310d42b0a","system_id":"levelo_inurba_marseille","lat":43.29352,"lon":5.42857,"is_reserved":false,"is_disabled":false,"rental_uris":{"android":"levelo://app?vid=09336cd1-7b2f-46b8-ac6e-85b310d42b0a","ios":"levelo://app?vid=09336cd1-7b2f-46b8-ac6e-85b310d42b0a"},"vehicle_type_id":"4","last_reported":1751998533,"current_range_meters":19200,"station_id":"","pricing_plan_id":"cebpf4jnsgd1na2vs0mg"},{"bike_id":"491f200e-13c9-4b0a-8834-b214412b86b5","system_id":"levelo_inurba_marseille","lat":43.30247,"lon":5.40074,"is_reserved":false,"is_disabled":false,"rental_uris":{"android":"levelo://app?vid=491f200e-13c9-4b0a-8834-b214412b86b5","ios":"levelo://app?vid=491f200e-13c9-4b0a-8834-b214412b86b5"},"vehicle_type_id":"4","last_reported":1751998533,"current_range_meters":19200,"station_id":"ce4bgvh2rcd13ifvqcs0","pricing_plan_id":"cebpf4jnsgd1na2vs0mg"},{"bike_id":"8211f701-a25d-4a73-97f0-abd2a8aaba76","system_id":"levelo_inurba_marseille","lat":43.29005,"lon":5.35608,"is_reserved":false,"is_disabled":false,"rental_uris":{"android":"levelo://app?vid=8211f701-a25d-4a73-97f0-abd2a8aaba76","ios":"levelo://app?vid=8211f701-a25d-4a73-97f0-abd2a8aaba76"},"vehicle_type_id":"4","last_reported":1751998533,"current_range_meters":19200,"station_id":"ce4bhb92rcd13ifvqen0","pricing_plan_id":"cebpf4jnsgd1na2vs0mg"},{"bike_id":"3101423c-5c95-4bef-ae2a-639fbf51bb4b","system_id":"levelo_inurba_marseille","lat":43.28,"lon":5.40011,"is_reserved":false,"is_disabled":false,"rental_uris":{"android":"levelo://app?vid=3101423c-5c95-4bef-ae2a-639fbf51bb4b","ios":"levelo://app?vid=3101423c-5c95-4bef-ae2a-639fbf51bb4b"},"vehicle_type_id":"4","last_reported":1751998533,"current_range_meters":19200,"station_id":"ce4bho92rcd13ifvqh4g","pricing_plan_id":"cebpf4jnsgd1na2vs0mg"},{"bike_id":"b28aa0a0-791c-4a08-9a16-c7bf6ea0ed5a","system_id":"levelo_inurba_marseille","lat":43.22515,"lon":5.3477,"is_reserved":false,"is_disabled":false,"rental_uris":{"android":"levelo://app?vid=b28aa0a0-791c-4a08-9a16-c7bf6ea0ed5a","ios":"levelo://app?vid=b28aa0a0-791c-4a08-9a16-c7bf6ea0ed5a"},"vehicle_type_id":"4","last_reported":1751998533,"current_range_meters":19200,"station_id":"st_cvj5dfep6f1abm77gieg","pricing_plan_id":"cebpf4jnsgd1na2vs0mg"},{"bike_id":"4f60dbbe-f529-41c7-b0f2-4d9a6ab4ba1d","system_id":"levelo_inurba_marseille","lat":43.29541,"lon":5.38544,"is_reserved":false,"is_disabled":false,"rental_uris":{"android":"levelo://app?vid=4f60dbbe-f529-41c7-b0f2-4d9a6ab4ba1d","ios":"levelo://app?vid=4f60dbbe-f529-41c7-b0f2-4d9a6ab4ba1d"},"vehicle_type_id":"4","last_reported":1751998533,"current_range_meters":19600,"station_id":"ce4bgih2rcd13ifvqba0","pricing_plan_id":"cebpf4jnsgd1na2vs0mg"},{"bike_id":"681d2c45-8a35-4b97-b91d-783f49090aff","system_id":"levelo_inurba_marseille","lat":43.30311,"lon":5.39185,"is_reserved":false,"is_disabled":false,"rental_uris":{"android":"levelo://app?vid=681d2c45-8a35-4b97-b91d-783f49090aff","ios":"levelo://app?vid=681d2c45-8a35-4b97-b91d-783f49090aff"},"vehicle_type_id":"4","last_reported":1751998533,"current_range_meters":19600,"station_id":"ce4bgkh2rcd13ifvqbk0","pricing_plan_id":"cebpf4jnsgd1na2vs0mg"},{"bike_id":"82377c1a-cb9f-425a-bd9a-f8472efaf9e4","system_id":"levelo_inurba_marseille","lat":43.314841,"lon":5.373106,"is_reserved":false,"is_disabled":false,"rental_uris":{"android":"levelo://app?vid=82377c1a-cb9f-425a-bd9a-f8472efaf9e4","ios":"levelo://app?vid=82377c1a-cb9f-425a-bd9a-f8472efaf9e4"},"vehicle_type_id":"4","last_reported":1751998533,"current_range_meters":19600,"station_id":"ce4bgt12rcd13ifvqcd0","pricing_plan_id":"cebpf4jnsgd1na2vs0mg"},{"bike_id":"0ed1d933-050c-4673-b65e-b5be6554e15f","system_id":"levelo_inurba_marseille","lat":43.30267,"lon":5.40082,"is_reserved":false,"is_disabled":false,"rental_uris":{"android":"levelo://app?vid=0ed1d933-050c-4673-b65e-b5be6554e15f","ios":"levelo://app?vid=0ed1d933-050c-4673-b65e-b5be6554e15f"},"vehicle_type_id":"4","last_reported":1751998533,"current_range_meters":19600,"station_id":"ce4bgvh2rcd13ifvqcs0","pricing_plan_id":"cebpf4jnsgd1na2vs0mg"},{"bike_id":"adb4acb0-9f9f-4801-b3fa-444321509f1d","system_id":"levelo_inurba_marseille","lat":43.30314,"lon":5.4043,"is_reserved":false,"is_disabled":false,"rental_uris":{"android":"levelo://app?vid=adb4acb0-9f9f-4801-b3fa-444321509f1d","ios":"levelo://app?vid=adb4acb0-9f9f-4801-b3fa-444321509f1d"},"vehicle_type_id":"4","last_reported":1751998533,"current_range_meters":19600,"station_id":"ce4bh012rcd13ifvqd10","pricing_plan_id":"cebpf4jnsgd1na2vs0mg"},{"bike_id":"f3b4b381-5400-499d-b8b4-38c65b4da584","system_id":"levelo_inurba_marseille","lat":43.294411,"lon":5.386346,"is_reserved":false,"is_disabled":false,"rental_uris":{"android":"levelo://app?vid=f3b4b381-5400-499d-b8b4-38c65b4da584","ios":"levelo://app?vid=f3b4b381-5400-499d-b8b4-38c65b4da584"},"vehicle_type_id":"4","last_reported":1751998533,"current_range_meters":19600,"station_id":"ce4bh2h2rcd13ifvqdh0","pricing_plan_id":"cebpf4jnsgd1na2vs0mg"},{"bike_id":"2b459895-8084-4ac8-a9da-9da0a88d4d3e","system_id":"levelo_inurba_marseille","lat":43.28945,"lon":5.363833,"is_reserved":false,"is_disabled":false,"rental_uris":{"android":"levelo://app?vid=2b459895-8084-4ac8-a9da-9da0a88d4d3e","ios":"levelo://app?vid=2b459895-8084-4ac8-a9da-9da0a88d4d3e"},"vehicle_type_id":"4","last_reported":1751998533,"current_range_meters":19600,"station_id":"ce4bhc92rcd13ifvqetg","pricing_plan_id":"cebpf4jnsgd1na2vs0mg"},{"bike_id":"40829e95-68ce-4017-b576-23273eb4b132","system_id":"levelo_inurba_marseille","lat":43.286207,"lon":5.351193,"is_reserved":false,"is_disabled":false,"rental_uris":{"android":"levelo://app?vid=40829e95-68ce-4017-b576-23273eb4b132","ios":"levelo://app?vid=40829e95-68ce-4017-b576-23273eb4b132"},"vehicle_type_id":"4","last_reported":1751998533,"current_range_meters":19600,"station_id":"ce4bhch2rcd13ifvqeug","pricing_plan_id":"cebpf4jnsgd1na2vs0mg"},{"bike_id":"0f1794a0-d27a-483a-a2d8-0c1e5247dca3","system_id":"levelo_inurba_marseille","lat":43.28154,"lon":5.42608,"is_reserved":false,"is_disabled":false,"rental_uris":{"android":"levelo://app?vid=0f1794a0-d27a-483a-a2d8-0c1e5247dca3","ios":"levelo://app?vid=0f1794a0-d27a-483a-a2d8-0c1e5247dca3"},"vehicle_type_id":"4","last_reported":1751998533,"current_range_meters":19600,"station_id":"ce4bhnh2rcd13ifvqgug","pricing_plan_id":"cebpf4jnsgd1na2vs0mg"},{"bike_id":"8f23a290-a217-4982-909d-672e302f92c1","system_id":"levelo_inurba_marseille","lat":43.281579,"lon":5.426452,"is_reserved":false,"is_disabled":false,"rental_uris":{"android":"levelo://app?vid=8f23a290-a217-4982-909d-672e302f92c1","ios":"levelo://app?vid=8f23a290-a217-4982-909d-672e302f92c1"},"vehicle_type_id":"4","last_reported":1751998533,"current_range_meters":19600,"station_id":"ce4bhnh2rcd13ifvqgug","pricing_plan_id":"cebpf4jnsgd1na2vs0mg"},{"bike_id":"aa84c30c-7c9c-49bb-b086-1f78593d075f","system_id":"levelo_inurba_marseille","lat":43.34144,"lon":5.40892,"is_reserved":false,"is_disabled":false,"rental_uris":{"android":"levelo://app?vid=aa84c30c-7c9c-49bb-b086-1f78593d075f","ios":"levelo://app?vid=aa84c30c-7c9c-49bb-b086-1f78593d075f"},"vehicle_type_id":"4","last_reported":1751998533,"current_range_meters":19600,"station_id":"ce4bhqh2rcd13ifvqhlg","pricing_plan_id":"cebpf4jnsgd1na2vs0mg"},{"bike_id":"6e5c2657-ccb8-4153-8b94-2143bc427a03","system_id":"levelo_inurba_marseille","lat":43.22514,"lon":5.34748,"is_reserved":false,"is_disabled":false,"rental_uris":{"android":"levelo://app?vid=6e5c2657-ccb8-4153-8b94-2143bc427a03","ios":"levelo://app?vid=6e5c2657-ccb8-4153-8b94-2143bc427a03"},"vehicle_type_id":"4","last_reported":1751998533,"current_range_meters":19600,"station_id":"st_cvj5dfep6f1abm77gieg","pricing_plan_id":"cebpf4jnsgd1na2vs0mg"},{"bike_id":"1be39311-cfa5-4cbb-b93d-fb0870d6e611","system_id":"levelo_inurba_marseille","lat":43.211944,"lon":5.350736,"is_reserved":false,"is_disabled":false,"rental_uris":{"android":"levelo://app?vid=1be39311-cfa5-4cbb-b93d-fb0870d6e611","ios":"levelo://app?vid=1be39311-cfa5-4cbb-b93d-fb0870d6e611"},"vehicle_type_id":"4","last_reported":1751998533,"current_range_meters":19600,"station_id":"st_cvj6sg6p6f1abm77japg","pricing_plan_id":"cebpf4jnsgd1na2vs0mg"},{"bike_id":"320f2a33-deaa-4e0a-a3d5-c39ce8ad680a","system_id":"levelo_inurba_marseille","lat":43.31554,"lon":5.3741,"is_reserved":false,"is_disabled":false,"rental_uris":{"android":"levelo://app?vid=320f2a33-deaa-4e0a-a3d5-c39ce8ad680a","ios":"levelo://app?vid=320f2a33-deaa-4e0a-a3d5-c39ce8ad680a"},"vehicle_type_id":"4","last_reported":1751998533,"current_range_meters":20000,"station_id":"","pricing_plan_id":"cebpf4jnsgd1na2vs0mg"},{"bike_id":"306ce1a6-757b-4897-8796-d879ee9a33eb","system_id":"levelo_inurba_marseille","lat":43.298,"lon":5.4006,"is_reserved":false,"is_disabled":false,"rental_uris":{"android":"levelo://app?vid=306ce1a6-757b-4897-8796-d879ee9a33eb","ios":"levelo://app?vid=306ce1a6-757b-4897-8796-d879ee9a33eb"},"vehicle_type_id":"4","last_reported":1751998533,"current_range_meters":20000,"station_id":"","pricing_plan_id":"cebpf4jnsgd1na2vs0mg"},{"bike_id":"f27050f7-3855-43bb-ba88-2fc6481925c4","system_id":"levelo_inurba_marseille","lat":43.276061,"lon":5.361018,"is_reserved":false,"is_disabled":false,"rental_uris":{"android":"levelo://app?vid=f27050f7-3855-43bb-ba88-2fc6481925c4","ios":"levelo://app?vid=f27050f7-3855-43bb-ba88-2fc6481925c4"},"vehicle_type_id":"4","last_reported":1751998533,"current_range_meters":20000,"station_id":"ce4bgj92rcd13ifvqbe0","pricing_plan_id":"cebpf4jnsgd1na2vs0mg"},{"bike_id":"469628ff-6bc7-4157-a149-d13b6cae7630","system_id":"levelo_inurba_marseille","lat":43.29206,"lon":5.39321,"is_reserved":false,"is_disabled":false,"rental_uris":{"android":"levelo://app?vid=469628ff-6bc7-4157-a149-d13b6cae7630","ios":"levelo://app?vid=469628ff-6bc7-4157-a149-d13b6cae7630"},"vehicle_type_id":"4","last_reported":1751998533,"current_range_meters":20000,"station_id":"ce4bh192rcd13ifvqdd0","pricing_plan_id":"cebpf4jnsgd1na2vs0mg"},{"bike_id":"edf2fa60-54e0-4ca1-bb61-3c9dc96a93be","system_id":"levelo_inurba_marseille","lat":43.29035,"lon":5.38654,"is_reserved":false,"is_disabled":false,"rental_uris":{"android":"levelo://app?vid=edf2fa60-54e0-4ca1-bb61-3c9dc96a93be","ios":"levelo://app?vid=edf2fa60-54e0-4ca1-bb61-3c9dc96a93be"},"vehicle_type_id":"4","last_reported":1751998533,"current_range_meters":20000,"station_id":"ce4bh4p2rcd13ifvqe0g","pricing_plan_id":"cebpf4jnsgd1na2vs0mg"},{"bike_id":"a1f570ec-b21a-42c4-be08-29e0f6d9d15b","system_id":"levelo_inurba_marseille","lat":43.25719,"lon":5.41113,"is_reserved":false,"is_disabled":false,"rental_uris":{"android":"levelo://app?vid=a1f570ec-b21a-42c4-be08-29e0f6d9d15b","ios":"levelo://app?vid=a1f570ec-b21a-42c4-be08-29e0f6d9d15b"},"vehicle_type_id":"4","last_reported":1751998533,"current_range_meters":20000,"station_id":"ce4bhkp2rcd13ifvqgd0","pricing_plan_id":"cebpf4jnsgd1na2vs0mg"},{"bike_id":"b362a853-d0a8-4a93-b0d9-3bb2a140b012","system_id":"levelo_inurba_marseille","lat":43.29977,"lon":5.38488,"is_reserved":false,"is_disabled":false,"rental_uris":{"android":"levelo://app?vid=b362a853-d0a8-4a93-b0d9-3bb2a140b012","ios":"levelo://app?vid=b362a853-d0a8-4a93-b0d9-3bb2a140b012"},"vehicle_type_id":"4","last_reported":1751998533,"current_range_meters":20400,"station_id":"ce4bgj92rcd13ifvqbd0","pricing_plan_id":"cebpf4jnsgd1na2vs0mg"},{"bike_id":"297f5ee4-6165-4254-bba2-3b187d72cfdd","system_id":"levelo_inurba_marseille","lat":43.30284,"lon":5.37692,"is_reserved":false,"is_disabled":false,"rental_uris":{"android":"levelo://app?vid=297f5ee4-6165-4254-bba2-3b187d72cfdd","ios":"levelo://app?vid=297f5ee4-6165-4254-bba2-3b187d72cfdd"},"vehicle_type_id":"4","last_reported":1751998533,"current_range_meters":20400,"station_id":"ce4bguh2rcd13ifvqcj0","pricing_plan_id":"cebpf4jnsgd1na2vs0mg"},{"bike_id":"15b874f4-f431-4a56-8334-a85c3b914ec5","system_id":"levelo_inurba_marseille","lat":43.30944,"lon":5.39037,"is_reserved":false,"is_disabled":false,"rental_uris":{"android":"levelo://app?vid=15b874f4-f431-4a56-8334-a85c3b914ec5","ios":"levelo://app?vid=15b874f4-f431-4a56-8334-a85c3b914ec5"},"vehicle_type_id":"4","last_reported":1751998533,"current_range_meters":20400,"station_id":"ce4bgup2rcd13ifvqco0","pricing_plan_id":"cebpf4jnsgd1na2vs0mg"},{"bike_id":"915ba1dc-144d-41a2-8b45-9ddc8b4eb1ad","system_id":"levelo_inurba_marseille","lat":43.30946,"lon":5.39042,"is_reserved":false,"is_disabled":false,"rental_uris":{"android":"levelo://app?vid=915ba1dc-144d-41a2-8b45-9ddc8b4eb1ad","ios":"levelo://app?vid=915ba1dc-144d-41a2-8b45-9ddc8b4eb1ad"},"vehicle_type_id":"4","last_reported":1751998533,"current_range_meters":20400,"station_id":"ce4bgup2rcd13ifvqco0","pricing_plan_id":"cebpf4jnsgd1na2vs0mg"},{"bike_id":"01a9c9ca-2be1-4edd-a3d0-4a2649787e1f","system_id":"levelo_inurba_marseille","lat":43.28413,"lon":5.34985,"is_reserved":false,"is_disabled":false,"rental_uris":{"android":"levelo://app?vid=01a9c9ca-2be1-4edd-a3d0-4a2649787e1f","ios":"levelo://app?vid=01a9c9ca-2be1-4edd-a3d0-4a2649787e1f"},"vehicle_type_id":"4","last_reported":1751998533,"current_range_meters":20400,"station_id":"ce4bhbh2rcd13ifvqepg","pricing_plan_id":"cebpf4jnsgd1na2vs0mg"},{"bike_id":"5bed0d45-631d-4b51-bf21-315438cd51cd","system_id":"levelo_inurba_marseille","lat":43.28154,"lon":5.42637,"is_reserved":false,"is_disabled":false,"rental_uris":{"android":"levelo://app?vid=5bed0d45-631d-4b51-bf21-315438cd51cd","ios":"levelo://app?vid=5bed0d45-631d-4b51-bf21-315438cd51cd"},"vehicle_type_id":"4","last_reported":1751998533,"current_range_meters":20400,"station_id":"ce4bhnh2rcd13ifvqgug","pricing_plan_id":"cebpf4jnsgd1na2vs0mg"},{"bike_id":"0b5bf08b-ea64-48cc-8bb7-bdb9a9149db5","system_id":"levelo_inurba_marseille","lat":43.27988,"lon":5.41663,"is_reserved":false,"is_disabled":false,"rental_uris":{"android":"levelo://app?vid=0b5bf08b-ea64-48cc-8bb7-bdb9a9149db5","ios":"levelo://app?vid=0b5bf08b-ea64-48cc-8bb7-bdb9a9149db5"},"vehicle_type_id":"4","last_reported":1751998533,"current_range_meters":20400,"station_id":"ce4bho12rcd13ifvqh1g","pricing_plan_id":"cebpf4jnsgd1na2vs0mg"},{"bike_id":"999f2a33-af15-4ca0-853a-d2550f2d6574","system_id":"levelo_inurba_marseille","lat":43.23446,"lon":5.35914,"is_reserved":false,"is_disabled":false,"rental_uris":{"android":"levelo://app?vid=999f2a33-af15-4ca0-853a-d2550f2d6574","ios":"levelo://app?vid=999f2a33-af15-4ca0-853a-d2550f2d6574"},"vehicle_type_id":"4","last_reported":1751998533,"current_range_meters":20800,"station_id":"","pricing_plan_id":"cebpf4jnsgd1na2vs0mg"},{"bike_id":"ef6369c3-b18b-4036-80cc-bac0136367b1","system_id":"levelo_inurba_marseille","lat":43.295959,"lon":5.381027,"is_reserved":false,"is_disabled":false,"rental_uris":{"android":"levelo://app?vid=ef6369c3-b18b-4036-80cc-bac0136367b1","ios":"levelo://app?vid=ef6369c3-b18b-4036-80cc-bac0136367b1"},"vehicle_type_id":"4","last_reported":1751998533,"current_range_meters":20800,"station_id":"ce4bgl12rcd13ifvqbo0","pricing_plan_id":"cebpf4jnsgd1na2vs0mg"},{"bike_id":"1e2312dd-fd35-4380-ad39-45c81c555427","system_id":"levelo_inurba_marseille","lat":43.31268,"lon":5.40165,"is_reserved":false,"is_disabled":false,"rental_uris":{"android":"levelo://app?vid=1e2312dd-fd35-4380-ad39-45c81c555427","ios":"levelo://app?vid=1e2312dd-fd35-4380-ad39-45c81c555427"},"vehicle_type_id":"4","last_reported":1751998533,"current_range_meters":20800,"station_id":"ce4bh092rcd13ifvqd30","pricing_plan_id":"cebpf4jnsgd1na2vs0mg"},{"bike_id":"687b107e-70fb-4b51-be47-3ba0e481f05f","system_id":"levelo_inurba_marseille","lat":43.28862,"lon":5.39317,"is_reserved":false,"is_disabled":false,"rental_uris":{"android":"levelo://app?vid=687b107e-70fb-4b51-be47-3ba0e481f05f","ios":"levelo://app?vid=687b107e-70fb-4b51-be47-3ba0e481f05f"},"vehicle_type_id":"4","last_reported":1751998533,"current_range_meters":20800,"station_id":"ce4bh2p2rcd13ifvqdi0","pricing_plan_id":"cebpf4jnsgd1na2vs0mg"},{"bike_id":"5907ebd0-def1-4434-8ec9-1f17d3361e4f","system_id":"levelo_inurba_marseille","lat":43.292651,"lon":5.384363,"is_reserved":false,"is_disabled":false,"rental_uris":{"android":"levelo://app?vid=5907ebd0-def1-4434-8ec9-1f17d3361e4f","ios":"levelo://app?vid=5907ebd0-def1-4434-8ec9-1f17d3361e4f"},"vehicle_type_id":"4","last_reported":1751998533,"current_range_meters":20800,"station_id":"ce4bh692rcd13ifvqea0","pricing_plan_id":"cebpf4jnsgd1na2vs0mg"},{"bike_id":"9c12a694-97c9-4155-aacf-fb8283bd9f0b","system_id":"levelo_inurba_marseille","lat":43.29192,"lon":5.35801,"is_reserved":false,"is_disabled":false,"rental_uris":{"android":"levelo://app?vid=9c12a694-97c9-4155-aacf-fb8283bd9f0b","ios":"levelo://app?vid=9c12a694-97c9-4155-aacf-fb8283bd9f0b"},"vehicle_type_id":"4","last_reported":1751998533,"current_range_meters":20800,"station_id":"ce4bhb12rcd13ifvqel0","pricing_plan_id":"cebpf4jnsgd1na2vs0mg"},{"bike_id":"b7bd0a60-0d63-49eb-b04b-3c6e4ea787e2","system_id":"levelo_inurba_marseille","lat":43.28622,"lon":5.35112,"is_reserved":false,"is_disabled":false,"rental_uris":{"android":"levelo://app?vid=b7bd0a60-0d63-49eb-b04b-3c6e4ea787e2","ios":"levelo://app?vid=b7bd0a60-0d63-49eb-b04b-3c6e4ea787e2"},"vehicle_type_id":"4","last_reported":1751998533,"current_range_meters":20800,"station_id":"ce4bhch2rcd13ifvqeug","pricing_plan_id":"cebpf4jnsgd1na2vs0mg"},{"bike_id":"d0f7282a-3e02-4420-8f10-c4fc690cba38","system_id":"levelo_inurba_marseille","lat":43.274231,"lon":5.394061,"is_reserved":false,"is_disabled":false,"rental_uris":{"android":"levelo://app?vid=d0f7282a-3e02-4420-8f10-c4fc690cba38","ios":"levelo://app?vid=d0f7282a-3e02-4420-8f10-c4fc690cba38"},"vehicle_type_id":"4","last_reported":1751998533,"current_range_meters":20800,"station_id":"ce4bhdp2rcd13ifvqf20","pricing_plan_id":"cebpf4jnsgd1na2vs0mg"},{"bike_id":"40fa92fc-f934-431e-b290-17833f63b829","system_id":"levelo_inurba_marseille","lat":43.23206,"lon":5.35546,"is_reserved":false,"is_disabled":false,"rental_uris":{"android":"levelo://app?vid=40fa92fc-f934-431e-b290-17833f63b829","ios":"levelo://app?vid=40fa92fc-f934-431e-b290-17833f63b829"},"vehicle_type_id":"4","last_reported":1751998533,"current_range_meters":20800,"station_id":"ce4bhu92rcd13ifvqi70","pricing_plan_id":"cebpf4jnsgd1na2vs0mg"},{"bike_id":"c0735136-e0f1-410b-b7bc-03f3deffba27","system_id":"levelo_inurba_marseille","lat":43.21743,"lon":5.34606,"is_reserved":false,"is_disabled":false,"rental_uris":{"android":"levelo://app?vid=c0735136-e0f1-410b-b7bc-03f3deffba27","ios":"levelo://app?vid=c0735136-e0f1-410b-b7bc-03f3deffba27"},"vehicle_type_id":"4","last_reported":1751998533,"current_range_meters":20800,"station_id":"st_cvj6r9ubvosntc0bgbag","pricing_plan_id":"cebpf4jnsgd1na2vs0mg"},{"bike_id":"611061b1-5584-4d44-9ef4-c48249efad9e","system_id":"levelo_inurba_marseille","lat":43.30445,"lon":5.38883,"is_reserved":false,"is_disabled":false,"rental_uris":{"android":"levelo://app?vid=611061b1-5584-4d44-9ef4-c48249efad9e","ios":"levelo://app?vid=611061b1-5584-4d44-9ef4-c48249efad9e"},"vehicle_type_id":"4","last_reported":1751998533,"current_range_meters":21600,"station_id":"ce4bgk12rcd13ifvqbi0","pricing_plan_id":"cebpf4jnsgd1na2vs0mg"},{"bike_id":"5ae08e6e-bcfb-4a6e-8766-f63ab6319e77","system_id":"levelo_inurba_marseille","lat":43.30607,"lon":5.37219,"is_reserved":false,"is_disabled":false,"rental_uris":{"android":"levelo://app?vid=5ae08e6e-bcfb-4a6e-8766-f63ab6319e77","ios":"levelo://app?vid=5ae08e6e-bcfb-4a6e-8766-f63ab6319e77"},"vehicle_type_id":"4","last_reported":1751998533,"current_range_meters":21600,"station_id":"ce4bgqh2rcd13ifvqc4g","pricing_plan_id":"cebpf4jnsgd1na2vs0mg"},{"bike_id":"b62e1fb6-abb4-409e-a0b2-6665b666acad","system_id":"levelo_inurba_marseille","lat":43.28422,"lon":5.34979,"is_reserved":false,"is_disabled":false,"rental_uris":{"android":"levelo://app?vid=b62e1fb6-abb4-409e-a0b2-6665b666acad","ios":"levelo://app?vid=b62e1fb6-abb4-409e-a0b2-6665b666acad"},"vehicle_type_id":"4","last_reported":1751998533,"current_range_meters":21600,"station_id":"ce4bhbh2rcd13ifvqepg","pricing_plan_id":"cebpf4jnsgd1na2vs0mg"},{"bike_id":"36c387ea-be50-4028-8ecc-21605fe3e879","system_id":"levelo_inurba_marseille","lat":43.29203,"lon":5.42647,"is_reserved":false,"is_disabled":false,"rental_uris":{"android":"levelo://app?vid=36c387ea-be50-4028-8ecc-21605fe3e879","ios":"levelo://app?vid=36c387ea-be50-4028-8ecc-21605fe3e879"},"vehicle_type_id":"4","last_reported":1751998533,"current_range_meters":22000,"station_id":"","pricing_plan_id":"cebpf4jnsgd1na2vs0mg"},{"bike_id":"56a05be5-0260-4f80-ac65-f183eb624249","system_id":"levelo_inurba_marseille","lat":43.29971,"lon":5.3849,"is_reserved":false,"is_disabled":false,"rental_uris":{"android":"levelo://app?vid=56a05be5-0260-4f80-ac65-f183eb624249","ios":"levelo://app?vid=56a05be5-0260-4f80-ac65-f183eb624249"},"vehicle_type_id":"4","last_reported":1751998533,"current_range_meters":22000,"station_id":"ce4bgj92rcd13ifvqbd0","pricing_plan_id":"cebpf4jnsgd1na2vs0mg"},{"bike_id":"03ae7549-435d-4c2c-8546-0d1df0f4e265","system_id":"levelo_inurba_marseille","lat":43.30768,"lon":5.37647,"is_reserved":false,"is_disabled":false,"rental_uris":{"android":"levelo://app?vid=03ae7549-435d-4c2c-8546-0d1df0f4e265","ios":"levelo://app?vid=03ae7549-435d-4c2c-8546-0d1df0f4e265"},"vehicle_type_id":"4","last_reported":1751998533,"current_range_meters":22000,"station_id":"ce4bgv92rcd13ifvqcq0","pricing_plan_id":"cebpf4jnsgd1na2vs0mg"},{"bike_id":"6426cdb8-d14e-4ba2-9a73-46daf7b17199","system_id":"levelo_inurba_marseille","lat":43.28411,"lon":5.37522,"is_reserved":false,"is_disabled":false,"rental_uris":{"android":"levelo://app?vid=6426cdb8-d14e-4ba2-9a73-46daf7b17199","ios":"levelo://app?vid=6426cdb8-d14e-4ba2-9a73-46daf7b17199"},"vehicle_type_id":"4","last_reported":1751998533,"current_range_meters":22000,"station_id":"ce4bh412rcd13ifvqds0","pricing_plan_id":"cebpf4jnsgd1na2vs0mg"},{"bike_id":"cfe3457b-fb4d-40e7-8713-798c85d2cb1d","system_id":"levelo_inurba_marseille","lat":43.29042,"lon":5.35913,"is_reserved":false,"is_disabled":false,"rental_uris":{"android":"levelo://app?vid=cfe3457b-fb4d-40e7-8713-798c85d2cb1d","ios":"levelo://app?vid=cfe3457b-fb4d-40e7-8713-798c85d2cb1d"},"vehicle_type_id":"4","last_reported":1751998533,"current_range_meters":22000,"station_id":"ce4bha92rcd13ifvqeg0","pricing_plan_id":"cebpf4jnsgd1na2vs0mg"},{"bike_id":"ca12a506-1346-4e93-a8f1-18086a38a0a6","system_id":"levelo_inurba_marseille","lat":43.284576,"lon":5.358901,"is_reserved":false,"is_disabled":false,"rental_uris":{"android":"levelo://app?vid=ca12a506-1346-4e93-a8f1-18086a38a0a6","ios":"levelo://app?vid=ca12a506-1346-4e93-a8f1-18086a38a0a6"},"vehicle_type_id":"4","last_reported":1751998533,"current_range_meters":22000,"station_id":"ce4bhah2rcd13ifvqei0","pricing_plan_id":"cebpf4jnsgd1na2vs0mg"},{"bike_id":"b9ef7de8-d7be-4270-a9bf-812a72f297b2","system_id":"levelo_inurba_marseille","lat":43.27917,"lon":5.39576,"is_reserved":false,"is_disabled":false,"rental_uris":{"android":"levelo://app?vid=b9ef7de8-d7be-4270-a9bf-812a72f297b2","ios":"levelo://app?vid=b9ef7de8-d7be-4270-a9bf-812a72f297b2"},"vehicle_type_id":"4","last_reported":1751998533,"current_range_meters":22000,"station_id":"ce4bhf92rcd13ifvqf40","pricing_plan_id":"cebpf4jnsgd1na2vs0mg"},{"bike_id":"b1a6e3b3-fe34-4cec-8082-dfe042dd1679","system_id":"levelo_inurba_marseille","lat":43.28156,"lon":5.42633,"is_reserved":false,"is_disabled":false,"rental_uris":{"android":"levelo://app?vid=b1a6e3b3-fe34-4cec-8082-dfe042dd1679","ios":"levelo://app?vid=b1a6e3b3-fe34-4cec-8082-dfe042dd1679"},"vehicle_type_id":"4","last_reported":1751998533,"current_range_meters":22000,"station_id":"ce4bhnh2rcd13ifvqgug","pricing_plan_id":"cebpf4jnsgd1na2vs0mg"},{"bike_id":"87d13c3c-9453-4492-8a8f-f2b4c8e828c6","system_id":"levelo_inurba_marseille","lat":43.26177,"lon":5.37049,"is_reserved":false,"is_disabled":false,"rental_uris":{"android":"levelo://app?vid=87d13c3c-9453-4492-8a8f-f2b4c8e828c6","ios":"levelo://app?vid=87d13c3c-9453-4492-8a8f-f2b4c8e828c6"},"vehicle_type_id":"4","last_reported":1751998533,"current_range_meters":22400,"station_id":"","pricing_plan_id":"cebpf4jnsgd1na2vs0mg"},{"bike_id":"894cdb87-1980-4f02-ac49-fb8a1c1c3bc2","system_id":"levelo_inurba_marseille","lat":43.29197,"lon":5.35804,"is_reserved":false,"is_disabled":false,"rental_uris":{"android":"levelo://app?vid=894cdb87-1980-4f02-ac49-fb8a1c1c3bc2","ios":"levelo://app?vid=894cdb87-1980-4f02-ac49-fb8a1c1c3bc2"},"vehicle_type_id":"4","last_reported":1751998533,"current_range_meters":22400,"station_id":"ce4bhb12rcd13ifvqel0","pricing_plan_id":"cebpf4jnsgd1na2vs0mg"},{"bike_id":"6e9716e5-c0d5-438f-b23a-2ef57ecba8cc","system_id":"levelo_inurba_marseille","lat":43.24395,"lon":5.37048,"is_reserved":false,"is_disabled":false,"rental_uris":{"android":"levelo://app?vid=6e9716e5-c0d5-438f-b23a-2ef57ecba8cc","ios":"levelo://app?vid=6e9716e5-c0d5-438f-b23a-2ef57ecba8cc"},"vehicle_type_id":"4","last_reported":1751998533,"current_range_meters":22400,"station_id":"ce4bhhh2rcd13ifvqfk0","pricing_plan_id":"cebpf4jnsgd1na2vs0mg"},{"bike_id":"7dca372b-d367-4777-b1b5-ae03ce30f23a","system_id":"levelo_inurba_marseille","lat":43.2439,"lon":5.37059,"is_reserved":false,"is_disabled":false,"rental_uris":{"android":"levelo://app?vid=7dca372b-d367-4777-b1b5-ae03ce30f23a","ios":"levelo://app?vid=7dca372b-d367-4777-b1b5-ae03ce30f23a"},"vehicle_type_id":"4","last_reported":1751998533,"current_range_meters":22400,"station_id":"ce4bhhh2rcd13ifvqfk0","pricing_plan_id":"cebpf4jnsgd1na2vs0mg"},{"bike_id":"ef6311b9-c394-4e85-b3f2-bf62d7fa6877","system_id":"levelo_inurba_marseille","lat":43.245477,"lon":5.395235,"is_reserved":false,"is_disabled":false,"rental_uris":{"android":"levelo://app?vid=ef6311b9-c394-4e85-b3f2-bf62d7fa6877","ios":"levelo://app?vid=ef6311b9-c394-4e85-b3f2-bf62d7fa6877"},"vehicle_type_id":"4","last_reported":1751998533,"current_range_meters":22400,"station_id":"ce4bhlp2rcd13ifvqgjg","pricing_plan_id":"cebpf4jnsgd1na2vs0mg"},