{"last_updated":1737378987,"ttl":60,"version":"2.2","data":{"bikes":[{"bike_id":"d2ec807b-8552-42be-9ebd-455f939901ca","system_id":"levelo_inurba_marseille","lat":43.29796,"lon":5.38079,"is_reserved":false,"is_disabled":false,"rental_uris":{"android":"levelo://app?vid=d2ec807b-8552-42be-9ebd-455f939901ca","ios":"levelo://app?vid=d2ec807b-8552-42be-9ebd-455f939901ca"},"vehicle_type_id":"4","last_reported":1737378987,"current_range_meters":38800,"station_id":"ce4bgip2rcd13ifvqbb0","pricing_plan_id":"cebpf4jnsgd1na2vs0mg"},{"bike_id":"976d939b-a82d-41e6-abb4-e25496ddb17f","system_id":"levelo_inurba_marseille","lat":43.2593,"lon":5.40886,"is_reserved":false,"is_disabled":false,"rental_uris":{"android":"levelo://app?vid=976d939b-a82d-41e6-abb4-e25496ddb17f","ios":"levelo://app?vid=976d939b-a82d-41e6-abb4-e25496ddb17f"},"vehicle_type_id":"4","last_reported":1737378987,"current_range_meters":28000,"station_id":"ce4bhm92rcd13ifvqglg","pricing_plan_id":"cebpf4jnsgd1na2vs0mg"},{"bike_id":"54699930-2dbc-4d91-ab1b-41cfe810e817","system_id":"levelo_inurba_marseille","lat":43.29179,"lon":5.39366,"is_reserved":false,"is_disabled":true,"rental_uris":{"android":"levelo://app?vid=54699930-2dbc-4d91-ab1b-41cfe810e817","ios":"levelo://app?vid=54699930-2dbc-4d91-ab1b-41cfe810e817"},"vehicle_type_id":"4","last_reported":1737378987,"current_range_meters":0,"station_id":"","pricing_plan_id":"cebpf4jnsgd1na2vs0mg"},{"bike_id":"c9cb5626-9ec6-485d-b7cc-b84352d74cf6","system_id":"levelo_inurba_marseille","lat":43.28718,"lon":5.37931,"is_reserved":false,"is_disabled":false,"rental_uris":{"android":"levelo://app?vid=c9cb5626-9ec6-485d-b7cc-b84352d74cf6","ios":"levelo://app?vid=c9cb5626-9ec6-485d-b7cc-b84352d74cf6"},"vehicle_type_id":"4","last_reported":1737378987,"current_range_meters":38400,"station_id":"ce4bh9p2rcd13ifvqec0","pricing_plan_id":"cebpf4jnsgd1na2vs0mg"},{"bike_id":"26d92998-8ba2-4647-a669-43b8de185c89","system_id":"levelo_inurba_marseille","lat":43.23051,"lon":5.35493,"is_reserved":false,"is_disabled":false,"rental_uris":{"android":"levelo://app?vid=26d92998-8ba2-4647-a669-43b8de185c89","ios":"levelo://app?vid=26d92998-8ba2-4647-a669-43b8de185c89"},"vehicle_type_id":"4","last_reported":1737378987,"current_range_meters":18800,"station_id":"cpo3342slgdg3j2ifvpg","pricing_plan_id":"cebpf4jnsgd1na2vs0mg"},{"bike_id":"ec4894cd-0a3a-434d-92df-423031c2e095","system_id":"levelo_inurba_marseille","lat":43.29433,"lon":5.39757,"is_reserved":false,"is_disabled":false,"rental_uris":{"android":"levelo://app?vid=ec4894cd-0a3a-434d-92df-423031c2e095","ios":"levelo://app?vid=ec4894cd-0a3a-434d-92df-423031c2e095"},"vehicle_type_id":"4","last_reported":1737378987,"current_range_meters":10800,"station_id":"ce4bh3h2rcd13ifvqdo0","pricing_plan_id":"cebpf4jnsgd1na2vs0mg"},{"bike_id":"70ac5e43-1a65-4943-bf4c-9459b26a7429","system_id":"levelo_inurba_marseille","lat":43.25719,"lon":5.4107,"is_reserved":false,"is_disabled":false,"rental_uris":{"android":"levelo://app?vid=70ac5e43-1a65-4943-bf4c-9459b26a7429","ios":"levelo://app?vid=70ac5e43-1a65-4943-bf4c-9459b26a7429"},"vehicle_type_id":"4","last_reported":1737378987,"current_range_meters":16000,"station_id":"ce4bhkp2rcd13ifvqgd0","pricing_plan_id":"cebpf4jnsgd1na2vs0mg"},{"bike_id":"d5dbe44f-35b4-4f05-805b-cd9f7edc068d","system_id":"levelo_inurba_marseille","lat":43.26489,"lon":5.39537,"is_reserved":false,"is_disabled":false,"rental_uris":{"android":"levelo://app?vid=d5dbe44f-35b4-4f05-805b-cd9f7edc068d","ios":"levelo://app?vid=d5dbe44f-35b4-4f05-805b-cd9f7edc068d"},"vehicle_type_id":"4","last_reported":1737378987,"current_range_meters":24400,"station_id":"ce4bhi12rcd13ifvqfq0","pricing_plan_id":"cebpf4jnsgd1na2vs0mg"},{"bike_id":"31e9f273-27fb-42c5-a2ab-e14778dffa3c","system_id":"levelo_inurba_marseille","lat":43.28928,"lon":5.36636,"is_reserved":false,"is_disabled":false,"rental_uris":{"android":"levelo://app?vid=31e9f273-27fb-42c5-a2ab-e14778dffa3c","ios":"levelo://app?vid=31e9f273-27fb-42c5-a2ab-e14778dffa3c"},"vehicle_type_id":"4","last_reported":1737378987,"current_range_meters":37600,"station_id":"ce4bhap2rcd13ifvqek0","pricing_plan_id":"cebpf4jnsgd1na2vs0mg"},{"bike_id":"89c60171-e7c9-486b-9ccc-9e4795e53faf","system_id":"levelo_inurba_marseille","lat":43.3362,"lon":5.41021,"is_reserved":false,"is_disabled":true,"rental_uris":{"android":"levelo://app?vid=89c60171-e7c9-486b-9ccc-9e4795e53faf","ios":"levelo://app?vid=89c60171-e7c9-486b-9ccc-9e4795e53faf"},"vehicle_type_id":"4","last_reported":1737378987,"current_range_meters":0,"station_id":"ce4bhqh2rcd13ifvqhmg","pricing_plan_id":"cebpf4jnsgd1na2vs0mg"},{"bike_id":"cd302cab-5b48-4489-bbb2-e76c626da4d9","system_id":"levelo_inurba_marseille","lat":43.28948,"lon":5.36398,"is_reserved":false,"is_disabled":true,"rental_uris":{"android":"levelo://app?vid=cd302cab-5b48-4489-bbb2-e76c626da4d9","ios":"levelo://app?vid=cd302cab-5b48-4489-bbb2-e76c626da4d9"},"vehicle_type_id":"4","last_reported":1737378987,"current_range_meters":2800,"station_id":"ce4bhc92rcd13ifvqetg","pricing_plan_id":"cebpf4jnsgd1na2vs0mg"},{"bike_id":"e3d5a69f-7604-4ab5-bfce-dc9cf0dd7b56","system_id":"levelo_inurba_marseille","lat":43.29568,"lon":5.39988,"is_reserved":false,"is_disabled":true,"rental_uris":{"android":"levelo://app?vid=e3d5a69f-7604-4ab5-bfce-dc9cf0dd7b56","ios":"levelo://app?vid=e3d5a69f-7604-4ab5-bfce-dc9cf0dd7b56"},"vehicle_type_id":"4","last_reported":1737378987,"current_range_meters":38800,"station_id":"ce4bh312rcd13ifvqdj0","pricing_plan_id":"cebpf4jnsgd1na2vs0mg"},{"bike_id":"d464ea6d-e3aa-4c44-9525-c3eb8f6e450a","system_id":"levelo_inurba_marseille","lat":43.3054,"lon":5.36552,"is_reserved":false,"is_disabled":false,"rental_uris":{"android":"levelo://app?vid=d464ea6d-e3aa-4c44-9525-c3eb8f6e450a","ios":"levelo://app?vid=d464ea6d-e3aa-4c44-9525-c3eb8f6e450a"},"vehicle_type_id":"4","last_reported":1737378987,"current_range_meters":30800,"station_id":"ce4bgs12rcd13ifvqcag","pricing_plan_id":"cebpf4jnsgd1na2vs0mg"},{"bike_id":"9e684055-1014-419f-b942-a47f37584c9c","system_id":"levelo_inurba_marseille","lat":43.268,"lon":5.39447,"is_reserved":false,"is_disabled":false,"rental_uris":{"android":"levelo://app?vid=9e684055-1014-419f-b942-a47f37584c9c","ios":"levelo://app?vid=9e684055-1014-419f-b942-a47f37584c9c"},"vehicle_type_id":"4","last_reported":1737378987,"current_range_meters":32000,"station_id":"ce4bhh12rcd13ifvqfg0","pricing_plan_id":"cebpf4jnsgd1na2vs0mg"},{"bike_id":"cb6acc65-5525-40d4-bab1-4ad8f3a7aa53","system_id":"levelo_inurba_marseille","lat":43.27303,"lon":5.39091,"is_reserved":false,"is_disabled":false,"rental_uris":{"android":"levelo://app?vid=cb6acc65-5525-40d4-bab1-4ad8f3a7aa53","ios":"levelo://app?vid=cb6acc65-5525-40d4-bab1-4ad8f3a7aa53"},"vehicle_type_id":"4","last_reported":1737378987,"current_range_meters":39200,"station_id":"ce4bhgp2rcd13ifvqfe0","pricing_plan_id":"cebpf4jnsgd1na2vs0mg"},{"bike_id":"600820bc-aa44-49e9-9c60-da23ea689e84","system_id":"levelo_inurba_marseille","lat":43.28973,"lon":5.37836,"is_reserved":false,"is_disabled":false,"rental_uris":{"android":"levelo://app?vid=600820bc-aa44-49e9-9c60-da23ea689e84","ios":"levelo://app?vid=600820bc-aa44-49e9-9c60-da23ea689e84"},"vehicle_type_id":"4","last_reported":1737378987,"current_range_meters":25600,"station_id":"ce4bh9p2rcd13ifvqed0","pricing_plan_id":"cebpf4jnsgd1na2vs0mg"},{"bike_id":"763ed4fc-16fd-47a0-aedf-62c028daa66f","system_id":"levelo_inurba_marseille","lat":43.36385,"lon":5.3558,"is_reserved":false,"is_disabled":false,"rental_uris":{"android":"levelo://app?vid=763ed4fc-16fd-47a0-aedf-62c028daa66f","ios":"levelo://app?vid=763ed4fc-16fd-47a0-aedf-62c028daa66f"},"vehicle_type_id":"4","last_reported":1737378987,"current_range_meters":8800,"station_id":"","pricing_plan_id":"cebpf4jnsgd1na2vs0mg"},{"bike_id":"54e47bbf-d358-4fc6-9623-23d2eb6b92a9","system_id":"levelo_inurba_marseille","lat":43.276747,"lon":5.388474,"is_reserved":false,"is_disabled":true,"rental_uris":{"android":"levelo://app?vid=54e47bbf-d358-4fc6-9623-23d2eb6b92a9","ios":"levelo://app?vid=54e47bbf-d358-4fc6-9623-23d2eb6b92a9"},"vehicle_type_id":"4","last_reported":1737378987,"current_range_meters":16800,"station_id":"","pricing_plan_id":"cebpf4jnsgd1na2vs0mg"},{"bike_id":"a2771881-b956-4a9a-9bc9-a89642d437c9","system_id":"levelo_inurba_marseille","lat":43.23195,"lon":5.35556,"is_reserved":false,"is_disabled":false,"rental_uris":{"android":"levelo://app?vid=a2771881-b956-4a9a-9bc9-a89642d437c9","ios":"levelo://app?vid=a2771881-b956-4a9a-9bc9-a89642d437c9"},"vehicle_type_id":"4","last_reported":1737378987,"current_range_meters":39200,"station_id":"ce4bhu92rcd13ifvqi70","pricing_plan_id":"cebpf4jnsgd1na2vs0mg"},{"bike_id":"3b26ab37-3b51-49df-bcb5-b23c8b5b2a76","system_id":"levelo_inurba_marseille","lat":43.32121,"lon":5.3677,"is_reserved":false,"is_disabled":false,"rental_uris":{"android":"levelo://app?vid=3b26ab37-3b51-49df-bcb5-b23c8b5b2a76","ios":"levelo://app?vid=3b26ab37-3b51-49df-bcb5-b23c8b5b2a76"},"vehicle_type_id":"4","last_reported":1737378987,"current_range_meters":18000,"station_id":"ce4bhrh2rcd13ifvqhug","pricing_plan_id":"cebpf4jnsgd1na2vs0mg"},{"bike_id":"3cac2131-518c-4320-b74a-8cad5cadc431","system_id":"levelo_inurba_marseille","lat":43.28979,"lon":5.37826,"is_reserved":false,"is_disabled":false,"rental_uris":{"android":"levelo://app?vid=3cac2131-518c-4320-b74a-8cad5cadc431","ios":"levelo://app?vid=3cac2131-518c-4320-b74a-8cad5cadc431"},"vehicle_type_id":"4","last_reported":1737378987,"current_range_meters":39200,"station_id":"ce4bh9p2rcd13ifvqed0","pricing_plan_id":"cebpf4jnsgd1na2vs0mg"},{"bike_id":"43b2003f-3bfe-48b5-9d2a-33b80c14b10b","system_id":"levelo_inurba_marseille","lat":43.32537,"lon":5.4145,"is_reserved":false,"is_disabled":false,"rental_uris":{"android":"levelo://app?vid=43b2003f-3bfe-48b5-9d2a-33b80c14b10b","ios":"levelo://app?vid=43b2003f-3bfe-48b5-9d2a-33b80c14b10b"},"vehicle_type_id":"4","last_reported":1737378987,"current_range_meters":11200,"station_id":"ce4bhq12rcd13ifvqhhg","pricing_plan_id":"cebpf4jnsgd1na2vs0mg"},{"bike_id":"f3c94274-f861-4c89-8bb1-1ebe1a531935","system_id":"levelo_inurba_marseille","lat":43.2502,"lon":5.38916,"is_reserved":false,"is_disabled":false,"rental_uris":{"android":"levelo://app?vid=f3c94274-f861-4c89-8bb1-1ebe1a531935","ios":"levelo://app?vid=f3c94274-f861-4c89-8bb1-1ebe1a531935"},"vehicle_type_id":"4","last_reported":1737378987,"current_range_meters":34000,"station_id":"ce4bhgp2rcd13ifvqfd0","pricing_plan_id":"cebpf4jnsgd1na2vs0mg"},{"bike_id":"4398cd74-9c5e-450c-8318-72f5963bff28","system_id":"levelo_inurba_marseille","lat":43.30548,"lon":5.36525,"is_reserved":false,"is_disabled":false,"rental_uris":{"android":"levelo://app?vid=4398cd74-9c5e-450c-8318-72f5963bff28","ios":"levelo://app?vid=4398cd74-9c5e-450c-8318-72f5963bff28"},"vehicle_type_id":"4","last_reported":1737378987,"current_range_meters":34800,"station_id":"ce4bgs12rcd13ifvqcag","pricing_plan_id":"cebpf4jnsgd1na2vs0mg"},{"bike_id":"ea820ade-d81d-428e-82b9-7f165f7e8e75","system_id":"levelo_inurba_marseille","lat":43.32366,"lon":5.36774,"is_reserved":false,"is_disabled":false,"rental_uris":{"android":"levelo://app?vid=ea820ade-d81d-428e-82b9-7f165f7e8e75","ios":"levelo://app?vid=ea820ade-d81d-428e-82b9-7f165f7e8e75"},"vehicle_type_id":"4","last_reported":1737378987,"current_range_meters":10000,"station_id":"ce4bhsh2rcd13ifvqi2g","pricing_plan_id":"cebpf4jnsgd1na2vs0mg"},{"bike_id":"c29020e0-83ef-4b06-ac4f-c4422257f84a","system_id":"levelo_inurba_marseille","lat":43.3639,"lon":5.35609,"is_reserved":false,"is_disabled":false,"rental_uris":{"android":"levelo://app?vid=c29020e0-83ef-4b06-ac4f-c4422257f84a","ios":"levelo://app?vid=c29020e0-83ef-4b06-ac4f-c4422257f84a"},"vehicle_type_id":"4","last_reported":1737378987,"current_range_meters":13600,"station_id":"","pricing_plan_id":"cebpf4jnsgd1na2vs0mg"},{"bike_id":"fbc9fbdc-44d5-477b-bfc5-9890b7fe1b8f","system_id":"levelo_inurba_marseille","lat":43.2707,"lon":5.42272,"is_reserved":false,"is_disabled":false,"rental_uris":{"android":"levelo://app?vid=fbc9fbdc-44d5-477b-bfc5-9890b7fe1b8f","ios":"levelo://app?vid=fbc9fbdc-44d5-477b-bfc5-9890b7fe1b8f"},"vehicle_type_id":"4","last_reported":1737378987,"current_range_meters":30800,"station_id":"ce4bhk92rcd13ifvqgb0","pricing_plan_id":"cebpf4jnsgd1na2vs0mg"},{"bike_id":"307a86f7-b40b-4fa4-85df-bffd9864657e","system_id":"levelo_inurba_marseille","lat":43.26791,"lon":5.3941,"is_reserved":false,"is_disabled":false,"rental_uris":{"android":"levelo://app?vid=307a86f7-b40b-4fa4-85df-bffd9864657e","ios":"levelo://app?vid=307a86f7-b40b-4fa4-85df-bffd9864657e"},"vehicle_type_id":"4","last_reported":1737378987,"current_range_meters":37600,"station_id":"ce4bhh12rcd13ifvqfg0","pricing_plan_id":"cebpf4jnsgd1na2vs0mg"},{"bike_id":"2134fa96-3287-49a0-8c4d-ce46e95d9fc9","system_id":"levelo_inurba_marseille","lat":43.25937,"lon":5.40908,"is_reserved":false,"is_disabled":false,"rental_uris":{"android":"levelo://app?vid=2134fa96-3287-49a0-8c4d-ce46e95d9fc9","ios":"levelo://app?vid=2134fa96-3287-49a0-8c4d-ce46e95d9fc9"},"vehicle_type_id":"4","last_reported":1737378987,"current_range_meters":28800,"station_id":"ce4bhm92rcd13ifvqglg","pricing_plan_id":"cebpf4jnsgd1na2vs0mg"},{"bike_id":"6bf5bd29-3e54-437a-9020-86384919dc04","system_id":"levelo_inurba_marseille","lat":43.32298,"lon":5.38282,"is_reserved":false,"is_disabled":false,"rental_uris":{"android":"levelo://app?vid=6bf5bd29-3e54-437a-9020-86384919dc04","ios":"levelo://app?vid=6bf5bd29-3e54-437a-9020-86384919dc04"},"vehicle_type_id":"4","last_reported":1737378987,"current_range_meters":38800,"station_id":"ce4bhr12rcd13ifvqhqg","pricing_plan_id":"cebpf4jnsgd1na2vs0mg"},{"bike_id":"56bf8793-4172-4794-9d80-08c5198febc0","system_id":"levelo_inurba_marseille","lat":43.29774,"lon":5.36578,"is_reserved":false,"is_disabled":false,"rental_uris":{"android":"levelo://app?vid=56bf8793-4172-4794-9d80-08c5198febc0","ios":"levelo://app?vid=56bf8793-4172-4794-9d80-08c5198febc0"},"vehicle_type_id":"4","last_reported":1737378987,"current_range_meters":25600,"station_id":"ce4bgn12rcd13ifvqbt0","pricing_plan_id":"cebpf4jnsgd1na2vs0mg"},{"bike_id":"c26bb43c-9a6f-4633-a114-b1704b400a4e","system_id":"levelo_inurba_marseille","lat":43.28029,"lon":5.36948,"is_reserved":false,"is_disabled":false,"rental_uris":{"android":"levelo://app?vid=c26bb43c-9a6f-4633-a114-b1704b400a4e","ios":"levelo://app?vid=c26bb43c-9a6f-4633-a114-b1704b400a4e"},"vehicle_type_id":"4","last_reported":1737378987,"current_range_meters":38400,"station_id":"ce4bha12rcd13ifvqef0","pricing_plan_id":"cebpf4jnsgd1na2vs0mg"},{"bike_id":"cc9c7977-0b7b-496b-8da8-be6e92cdaf91","system_id":"levelo_inurba_marseille","lat":43.26558,"lon":5.37267,"is_reserved":false,"is_disabled":false,"rental_uris":{"android":"levelo://app?vid=cc9c7977-0b7b-496b-8da8-be6e92cdaf91","ios":"levelo://app?vid=cc9c7977-0b7b-496b-8da8-be6e92cdaf91"},"vehicle_type_id":"4","last_reported":1737378987,"current_range_meters":23200,"station_id":"ce4bhg12rcd13ifvqf70","pricing_plan_id":"cebpf4jnsgd1na2vs0mg"},{"bike_id":"04e7f6b2-1170-476d-8eb7-54bc6ab7d23c","system_id":"levelo_inurba_marseille","lat":43.244,"lon":5.37036,"is_reserved":false,"is_disabled":false,"rental_uris":{"android":"levelo://app?vid=04e7f6b2-1170-476d-8eb7-54bc6ab7d23c","ios":"levelo://app?vid=04e7f6b2-1170-476d-8eb7-54bc6ab7d23c"},"vehicle_type_id":"4","last_reported":1737378987,"current_range_meters":34000,"station_id":"ce4bhhh2rcd13ifvqfk0","pricing_plan_id":"cebpf4jnsgd1na2vs0mg"},{"bike_id":"90b353d5-f873-46d7-a580-568d07301096","system_id":"levelo_inurba_marseille","lat":43.26873,"lon":5.3937,"is_reserved":false,"is_disabled":false,"rental_uris":{"android":"levelo://app?vid=90b353d5-f873-46d7-a580-568d07301096","ios":"levelo://app?vid=90b353d5-f873-46d7-a580-568d07301096"},"vehicle_type_id":"4","last_reported":1737378987,"current_range_meters":13600,"station_id":"","pricing_plan_id":"cebpf4jnsgd1na2vs0mg"},{"bike_id":"93286c9c-996e-4acd-a021-157def215515","system_id":"levelo_inurba_marseille","lat":43.2738,"lon":5.36257,"is_reserved":false,"is_disabled":false,"rental_uris":{"android":"levelo://app?vid=93286c9c-996e-4acd-a021-157def215515","ios":"levelo://app?vid=93286c9c-996e-4acd-a021-157def215515"},"vehicle_type_id":"4","last_reported":1737378987,"current_range_meters":8000,"station_id":"ce4bhbh2rcd13ifvqeo0","pricing_plan_id":"cebpf4jnsgd1na2vs0mg"},{"bike_id":"98c1d16b-6b2e-42fc-9091-c80c2614bdd1","system_id":"levelo_inurba_marseille","lat":43.28151,"lon":5.42649,"is_reserved":false,"is_disabled":false,"rental_uris":{"android":"levelo://app?vid=98c1d16b-6b2e-42fc-9091-c80c2614bdd1","ios":"levelo://app?vid=98c1d16b-6b2e-42fc-9091-c80c2614bdd1"},"vehicle_type_id":"4","last_reported":1737378987,"current_range_meters":6800,"station_id":"ce4bhnh2rcd13ifvqgug","pricing_plan_id":"cebpf4jnsgd1na2vs0mg"},{"bike_id":"1d380783-b8e7-4ad2-ac4b-fb3cfd34f749","system_id":"levelo_inurba_marseille","lat":43.29678,"lon":5.37303,"is_reserved":false,"is_disabled":false,"rental_uris":{"android":"levelo://app?vid=1d380783-b8e7-4ad2-ac4b-fb3cfd34f749","ios":"levelo://app?vid=1d380783-b8e7-4ad2-ac4b-fb3cfd34f749"},"vehicle_type_id":"4","last_reported":1737378987,"current_range_meters":19600,"station_id":"ce4bgk12rcd13ifvqbj0","pricing_plan_id":"cebpf4jnsgd1na2vs0mg"},{"bike_id":"c8fe6bd0-5be5-4ede-8e98-69d8c19fd7cf","system_id":"levelo_inurba_marseille","lat":43.23151,"lon":5.43719,"is_reserved":false,"is_disabled":false,"rental_uris":{"android":"levelo://app?vid=c8fe6bd0-5be5-4ede-8e98-69d8c19fd7cf","ios":"levelo://app?vid=c8fe6bd0-5be5-4ede-8e98-69d8c19fd7cf"},"vehicle_type_id":"4","last_reported":1737378987,"current_range_meters":38800,"station_id":"ce4bhmp2rcd13ifvqgog","pricing_plan_id":"cebpf4jnsgd1na2vs0mg"},{"bike_id":"0ba594b9-370d-41dd-a201-c793bb16d47e","system_id":"levelo_inurba_marseille","lat":43.24806,"lon":5.37456,"is_reserved":false,"is_disabled":false,"rental_uris":{"android":"levelo://app?vid=0ba594b9-370d-41dd-a201-c793bb16d47e","ios":"levelo://app?vid=0ba594b9-370d-41dd-a201-c793bb16d47e"},"vehicle_type_id":"4","last_reported":1737378987,"current_range_meters":25600,"station_id":"ce4bhgh2rcd13ifvqfb0","pricing_plan_id":"cebpf4jnsgd1na2vs0mg"},{"bike_id":"57b0e606-8fdf-401d-8223-87c7978ca31e","system_id":"levelo_inurba_marseille","lat":43.26238,"lon":5.40458,"is_reserved":false,"is_disabled":false,"rental_uris":{"android":"levelo://app?vid=57b0e606-8fdf-401d-8223-87c7978ca31e","ios":"levelo://app?vid=57b0e606-8fdf-401d-8223-87c7978ca31e"},"vehicle_type_id":"4","last_reported":1737378987,"current_range_meters":30800,"station_id":"","pricing_plan_id":"cebpf4jnsgd1na2vs0mg"},{"bike_id":"d6dda788-2ee0-45e5-a6fd-f8b98f248df1","system_id":"levelo_inurba_marseille","lat":43.231487,"lon":5.437198,"is_reserved":false,"is_disabled":false,"rental_uris":{"android":"levelo://app?vid=d6dda788-2ee0-45e5-a6fd-f8b98f248df1","ios":"levelo://app?vid=d6dda788-2ee0-45e5-a6fd-f8b98f248df1"},"vehicle_type_id":"4","last_reported":1737378987,"current_range_meters":39200,"station_id":"ce4bhmp2rcd13ifvqgog","pricing_plan_id":"cebpf4jnsgd1na2vs0mg"},{"bike_id":"54faa076-f87a-449b-9aaf-c46a9bd845cd","system_id":"levelo_inurba_marseille","lat":43.287013,"lon":5.379467,"is_reserved":false,"is_disabled":false,"rental_uris":{"android":"levelo://app?vid=54faa076-f87a-449b-9aaf-c46a9bd845cd","ios":"levelo://app?vid=54faa076-f87a-449b-9aaf-c46a9bd845cd"},"vehicle_type_id":"4","last_reported":1737378987,"current_range_meters":35200,"station_id":"ce4bh9p2rcd13ifvqec0","pricing_plan_id":"cebpf4jnsgd1na2vs0mg"},{"bike_id":"4a9d10b6-a533-4600-91b8-e95d96a89724","system_id":"levelo_inurba_marseille","lat":43.30139,"lon":5.37422,"is_reserved":false,"is_disabled":false,"rental_uris":{"android":"levelo://app?vid=4a9d10b6-a533-4600-91b8-e95d96a89724","ios":"levelo://app?vid=4a9d10b6-a533-4600-91b8-e95d96a89724"},"vehicle_type_id":"4","last_reported":1737378987,"current_range_meters":34000,"station_id":"ce4bgs92rcd13ifvqcc0","pricing_plan_id":"cebpf4jnsgd1na2vs0mg"},{"bike_id":"0fc5fdc3-8ada-4230-a1ac-e56e275f647e","system_id":"levelo_inurba_marseille","lat":43.29038,"lon":5.38656,"is_reserved":false,"is_disabled":false,"rental_uris":{"android":"levelo://app?vid=0fc5fdc3-8ada-4230-a1ac-e56e275f647e","ios":"levelo://app?vid=0fc5fdc3-8ada-4230-a1ac-e56e275f647e"},"vehicle_type_id":"4","last_reported":1737378987,"current_range_meters":18000,"station_id":"ce4bh4p2rcd13ifvqe0g","pricing_plan_id":"cebpf4jnsgd1na2vs0mg"},{"bike_id":"c0ca7781-c364-4c57-8944-068415c5e26a","system_id":"levelo_inurba_marseille","lat":43.30527,"lon":5.36712,"is_reserved":false,"is_disabled":false,"rental_uris":{"android":"levelo://app?vid=c0ca7781-c364-4c57-8944-068415c5e26a","ios":"levelo://app?vid=c0ca7781-c364-4c57-8944-068415c5e26a"},"vehicle_type_id":"4","last_reported":1737378987,"current_range_meters":24400,"station_id":"ce4bgrp2rcd13ifvqc9g","pricing_plan_id":"cebpf4jnsgd1na2vs0mg"},{"bike_id":"cea80681-e52c-4742-85ca-4a7b202634a3","system_id":"levelo_inurba_marseille","lat":43.29551,"lon":5.42296,"is_reserved":false,"is_disabled":false,"rental_uris":{"android":"levelo://app?vid=cea80681-e52c-4742-85ca-4a7b202634a3","ios":"levelo://app?vid=cea80681-e52c-4742-85ca-4a7b202634a3"},"vehicle_type_id":"4","last_reported":1737378987,"current_range_meters":14400,"station_id":"ce4bhph2rcd13ifvqhdg","pricing_plan_id":"cebpf4jnsgd1na2vs0mg"},{"bike_id":"0c0a37e5-044f-498b-b68f-b13ea4f758bf","system_id":"levelo_inurba_marseille","lat":43.31498,"lon":5.37298,"is_reserved":false,"is_disabled":true,"rental_uris":{"android":"levelo://app?vid=0c0a37e5-044f-498b-b68f-b13ea4f758bf","ios":"levelo://app?vid=0c0a37e5-044f-498b-b68f-b13ea4f758bf"},"vehicle_type_id":"4","last_reported":1737378987,"current_range_meters":33600,"station_id":"ce4bgt12rcd13ifvqcd0","pricing_plan_id":"cebpf4jnsgd1na2vs0mg"},{"bike_id":"33894d47-927f-41e1-a254-e20c60e4b726","system_id":"levelo_inurba_marseille","lat":43.29609,"lon":5.38099,"is_reserved":false,"is_disabled":false,"rental_uris":{"android":"levelo://app?vid=33894d47-927f-41e1-a254-e20c60e4b726","ios":"levelo://app?vid=33894d47-927f-41e1-a254-e20c60e4b726"},"vehicle_type_id":"4","last_reported":1737378987,"current_range_meters":17200,"station_id":"ce4bgl12rcd13ifvqbo0","pricing_plan_id":"cebpf4jnsgd1na2vs0mg"},{"bike_id":"c1cc1952-6a42-49b5-8d00-e16ec63d816f","system_id":"levelo_inurba_marseille","lat":43.29278,"lon":5.40121,"is_reserved":false,"is_disabled":false,"rental_uris":{"android":"levelo://app?vid=c1cc1952-6a42-49b5-8d00-e16ec63d816f","ios":"levelo://app?vid=c1cc1952-6a42-49b5-8d00-e16ec63d816f"},"vehicle_type_id":"4","last_reported":1737378987,"current_range_meters":17600,"station_id":"ce4bh312rcd13ifvqdk0","pricing_plan_id":"cebpf4jnsgd1na2vs0mg"},{"bike_id":"3860f79b-6390-4baa-9962-103869425bc6","system_id":"levelo_inurba_marseille","lat":43.29908,"lon":5.43658,"is_reserved":false,"is_disabled":false,"rental_uris":{"android":"levelo://app?vid=3860f79b-6390-4baa-9962-103869425bc6","ios":"levelo://app?vid=3860f79b-6390-4baa-9962-103869425bc6"},"vehicle_type_id":"4","last_reported":1737378987,"current_range_meters":17600,"station_id":"ce4bhpp2rcd13ifvqhfg","pricing_plan_id":"cebpf4jnsgd1na2vs0mg"},{"bike_id":"ea1cdbba-4df8-426e-b444-d7f5f7428eb7","system_id":"levelo_inurba_marseille","lat":43.24663,"lon":5.38164,"is_reserved":false,"is_disabled":false,"rental_uris":{"android":"levelo://app?vid=ea1cdbba-4df8-426e-b444-d7f5f7428eb7","ios":"levelo://app?vid=ea1cdbba-4df8-426e-b444-d7f5f7428eb7"},"vehicle_type_id":"4","last_reported":1737378987,"current_range_meters":30400,"station_id":"ce4bhih2rcd13ifvqfr0","pricing_plan_id":"cebpf4jnsgd1na2vs0mg"},{"bike_id":"4523c115-aa82-45ad-9992-b42a5408204f","system_id":"levelo_inurba_marseille","lat":43.29908,"lon":5.38133,"is_reserved":false,"is_disabled":false,"rental_uris":{"android":"levelo://app?vid=4523c115-aa82-45ad-9992-b42a5408204f","ios":"levelo://app?vid=4523c115-aa82-45ad-9992-b42a5408204f"},"vehicle_type_id":"4","last_reported":1737378987,"current_range_meters":38800,"station_id":"ce4bgj12rcd13ifvqbc0","pricing_plan_id":"cebpf4jnsgd1na2vs0mg"},{"bike_id":"9b189d65-d17a-40c0-9cde-10ec8621a677","system_id":"levelo_inurba_marseille","lat":43.27994,"lon":5.4001,"is_reserved":false,"is_disabled":false,"rental_uris":{"android":"levelo://app?vid=9b189d65-d17a-40c0-9cde-10ec8621a677","ios":"levelo://app?vid=9b189d65-d17a-40c0-9cde-10ec8621a677"},"vehicle_type_id":"4","last_reported":1737378987,"current_range_meters":35200,"station_id":"ce4bho92rcd13ifvqh4g","pricing_plan_id":"cebpf4jnsgd1na2vs0mg"},{"bike_id":"ca8aa51d-4833-4c77-8009-59b7c07323a3","system_id":"levelo_inurba_marseille","lat":43.32364,"lon":5.3677,"is_reserved":false,"is_disabled":false,"rental_uris":{"android":"levelo://app?vid=ca8aa51d-4833-4c77-8009-59b7c07323a3","ios":"levelo://app?vid=ca8aa51d-4833-4c77-8009-59b7c07323a3"},"vehicle_type_id":"4","last_reported":1737378987,"current_range_meters":32400,"station_id":"ce4bhsh2rcd13ifvqi2g","pricing_plan_id":"cebpf4jnsgd1na2vs0mg"},{"bike_id":"fb0f7618-8f79-4d53-8e45-14f473a05e16","system_id":"levelo_inurba_marseille","lat":43.29304,"lon":5.37436,"is_reserved":false,"is_disabled":false,"rental_uris":{"android":"levelo://app?vid=fb0f7618-8f79-4d53-8e45-14f473a05e16","ios":"levelo://app?vid=fb0f7618-8f79-4d53-8e45-14f473a05e16"},"vehicle_type_id":"4","last_reported":1737378987,"current_range_meters":28400,"station_id":"ce4bgi12rcd13ifvqb70","pricing_plan_id":"cebpf4jnsgd1na2vs0mg"},{"bike_id":"49edd341-1744-445c-b1f6-ec80c4f617c5","system_id":"levelo_inurba_marseille","lat":43.27084,"lon":5.42279,"is_reserved":false,"is_disabled":false,"rental_uris":{"android":"levelo://app?vid=49edd341-1744-445c-b1f6-ec80c4f617c5","ios":"levelo://app?vid=49edd341-1744-445c-b1f6-ec80c4f617c5"},"vehicle_type_id":"4","last_reported":1737378987,"current_range_meters":38800,"station_id":"ce4bhk92rcd13ifvqgb0","pricing_plan_id":"cebpf4jnsgd1na2vs0mg"},{"bike_id":"51379e9f-1ebd-43ee-bd84-6927ab606473","system_id":"levelo_inurba_marseille","lat":43.24168,"lon":5.36421,"is_reserved":false,"is_disabled":false,"rental_uris":{"android":"levelo://app?vid=51379e9f-1ebd-43ee-bd84-6927ab606473","ios":"levelo://app?vid=51379e9f-1ebd-43ee-bd84-6927ab606473"},"vehicle_type_id":"4","last_reported":1737378987,"current_range_meters":22400,"station_id":"cpo36qri1sfpv3e86is0","pricing_plan_id":"cebpf4jnsgd1na2vs0mg"},{"bike_id":"57d9fa47-e597-4ea4-913f-9b45079bd718","system_id":"levelo_inurba_marseille","lat":43.33025,"lon":5.39045,"is_reserved":false,"is_disabled":false,"rental_uris":{"android":"levelo://app?vid=57d9fa47-e597-4ea4-913f-9b45079bd718","ios":"levelo://app?vid=57d9fa47-e597-4ea4-913f-9b45079bd718"},"vehicle_type_id":"4","last_reported":1737378987,"current_range_meters":38800,"station_id":"ce4bhr92rcd13ifvqhrg","pricing_plan_id":"cebpf4jnsgd1na2vs0mg"},{"bike_id":"a6817152-9db4-45be-84b1-a30b6bbc47cf","system_id":"levelo_inurba_marseille","lat":43.24172,"lon":5.39729,"is_reserved":false,"is_disabled":false,"rental_uris":{"android":"levelo://app?vid=a6817152-9db4-45be-84b1-a30b6bbc47cf","ios":"levelo://app?vid=a6817152-9db4-45be-84b1-a30b6bbc47cf"},"vehicle_type_id":"4","last_reported":1737378987,"current_range_meters":38800,"station_id":"ce4bhn12rcd13ifvqgpg","pricing_plan_id":"cebpf4jnsgd1na2vs0mg"},{"bike_id":"d7b57092-5089-4c4a-819e-bef9772d11d8","system_id":"levelo_inurba_marseille","lat":43.31788,"lon":5.37799,"is_reserved":false,"is_disabled":false,"rental_uris":{"android":"levelo://app?vid=d7b57092-5089-4c4a-819e-bef9772d11d8","ios":"levelo://app?vid=d7b57092-5089-4c4a-819e-bef9772d11d8"},"vehicle_type_id":"4","last_reported":1737378987,"current_range_meters":28400,"station_id":"","pricing_plan_id":"cebpf4jnsgd1na2vs0mg"},{"bike_id":"68c5d845-2aa3-4979-8379-6c87fd695ddf","system_id":"levelo_inurba_marseille","lat":43.26066,"lon":5.39399,"is_reserved":false,"is_disabled":false,"rental_uris":{"android":"levelo://app?vid=68c5d845-2aa3-4979-8379-6c87fd695ddf","ios":"levelo://app?vid=68c5d845-2aa3-4979-8379-6c87fd695ddf"},"vehicle_type_id":"4","last_reported":1737378987,"current_range_meters":38800,"station_id":"ce4bhh92rcd13ifvqfj0","pricing_plan_id":"cebpf4jnsgd1na2vs0mg"},{"bike_id":"970eacc2-5e8f-4753-aa3e-5d8cafb72393","system_id":"levelo_inurba_marseille","lat":43.25923,"lon":5.409,"is_reserved":false,"is_disabled":false,"rental_uris":{"android":"levelo://app?vid=970eacc2-5e8f-4753-aa3e-5d8cafb72393","ios":"levelo://app?vid=970eacc2-5e8f-4753-aa3e-5d8cafb72393"},"vehicle_type_id":"4","last_reported":1737378987,"current_range_meters":31200,"station_id":"ce4bhm92rcd13ifvqglg","pricing_plan_id":"cebpf4jnsgd1na2vs0mg"},{"bike_id":"ae35589b-d85c-4f9a-b98c-9bc44748a230","system_id":"levelo_inurba_marseille","lat":43.25707,"lon":5.41131,"is_reserved":false,"is_disabled":false,"rental_uris":{"android":"levelo://app?vid=ae35589b-d85c-4f9a-b98c-9bc44748a230","ios":"levelo://app?vid=ae35589b-d85c-4f9a-b98c-9bc44748a230"},"vehicle_type_id":"4","last_reported":1737378987,"current_range_meters":16000,"station_id":"ce4bhkp2rcd13ifvqgd0","pricing_plan_id":"cebpf4jnsgd1na2vs0mg"},{"bike_id":"23448747-67cc-4306-ac89-6147c0e28237","system_id":"levelo_inurba_marseille","lat":43.27492,"lon":5.42451,"is_reserved":false,"is_disabled":false,"rental_uris":{"android":"levelo://app?vid=23448747-67cc-4306-ac89-6147c0e28237","ios":"levelo://app?vid=23448747-67cc-4306-ac89-6147c0e28237"},"vehicle_type_id":"4","last_reported":1737378987,"current_range_meters":16800,"station_id":"ce4bhn92rcd13ifvqgrg","pricing_plan_id":"cebpf4jnsgd1na2vs0mg"},{"bike_id":"4104cbba-088f-4383-b2a0-261d17699731","system_id":"levelo_inurba_marseille","lat":43.23986,"lon":5.36602,"is_reserved":false,"is_disabled":false,"rental_uris":{"android":"levelo://app?vid=4104cbba-088f-4383-b2a0-261d17699731","ios":"levelo://app?vid=4104cbba-088f-4383-b2a0-261d17699731"},"vehicle_type_id":"4","last_reported":1737378987,"current_range_meters":32400,"station_id":"ce4bhi12rcd13ifvqfp0","pricing_plan_id":"cebpf4jnsgd1na2vs0mg"},{"bike_id":"b1b4440e-2605-4446-8d29-c03fbda65311","system_id":"levelo_inurba_marseille","lat":43.30804,"lon":5.38176,"is_reserved":false,"is_disabled":false,"rental_uris":{"android":"levelo://app?vid=b1b4440e-2605-4446-8d29-c03fbda65311","ios":"levelo://app?vid=b1b4440e-2605-4446-8d29-c03fbda65311"},"vehicle_type_id":"4","last_reported":1737378987,"current_range_meters":9600,"station_id":"ce4bgt12rcd13ifvqce0","pricing_plan_id":"cebpf4jnsgd1na2vs0mg"},{"bike_id":"8483c77e-c09d-48d8-9ab4-114290886c4c","system_id":"levelo_inurba_marseille","lat":43.31188,"lon":5.38707,"is_reserved":false,"is_disabled":false,"rental_uris":{"android":"levelo://app?vid=8483c77e-c09d-48d8-9ab4-114290886c4c","ios":"levelo://app?vid=8483c77e-c09d-48d8-9ab4-114290886c4c"},"vehicle_type_id":"4","last_reported":1737378987,"current_range_meters":32000,"station_id":"ce4bgv12rcd13ifvqcp0","pricing_plan_id":"cebpf4jnsgd1na2vs0mg"},{"bike_id":"e769477c-b503-4bb8-b7d3-b7f7ff9ddf2d","system_id":"levelo_inurba_marseille","lat":43.292055,"lon":5.369092,"is_reserved":false,"is_disabled":false,"rental_uris":{"android":"levelo://app?vid=e769477c-b503-4bb8-b7d3-b7f7ff9ddf2d","ios":"levelo://app?vid=e769477c-b503-4bb8-b7d3-b7f7ff9ddf2d"},"vehicle_type_id":"4","last_reported":1737378987,"current_range_meters":16000,"station_id":"","pricing_plan_id":"cebpf4jnsgd1na2vs0mg"},{"bike_id":"28ef1c1e-dd89-43e8-817b-9b489831397b","system_id":"levelo_inurba_marseille","lat":43.27116,"lon":5.39618,"is_reserved":false,"is_disabled":true,"rental_uris":{"android":"levelo://app?vid=28ef1c1e-dd89-43e8-817b-9b489831397b","ios":"levelo://app?vid=28ef1c1e-dd89-43e8-817b-9b489831397b"},"vehicle_type_id":"4","last_reported":1737378987,"current_range_meters":0,"station_id":"","pricing_plan_id":"cebpf4jnsgd1na2vs0mg"},{"bike_id":"a090d58d-a1fb-4921-bd15-f1d1e2db9ea4","system_id":"levelo_inurba_marseille","lat":43.2417,"lon":5.39732,"is_reserved":false,"is_disabled":false,"rental_uris":{"android":"levelo://app?vid=a090d58d-a1fb-4921-bd15-f1d1e2db9ea4","ios":"levelo://app?vid=a090d58d-a1fb-4921-bd15-f1d1e2db9ea4"},"vehicle_type_id":"4","last_reported":1737378987,"current_range_meters":27200,"station_id":"ce4bhn12rcd13ifvqgpg","pricing_plan_id":"cebpf4jnsgd1na2vs0mg"},{"bike_id":"b8c33cc5-e538-44b1-a7f5-a0c6163b2176","system_id":"levelo_inurba_marseille","lat":43.27209,"lon":5.39193,"is_reserved":false,"is_disabled":false,"rental_uris":{"android":"levelo://app?vid=b8c33cc5-e538-44b1-a7f5-a0c6163b2176","ios":"levelo://app?vid=b8c33cc5-e538-44b1-a7f5-a0c6163b2176"},"vehicle_type_id":"4","last_reported":1737378987,"current_range_meters":26800,"station_id":"ce4bhhp2rcd13ifvqfm0","pricing_plan_id":"cebpf4jnsgd1na2vs0mg"},{"bike_id":"973357c8-dead-42ca-92e9-500225bc994c","system_id":"levelo_inurba_marseille","lat":43.33025,"lon":5.39046,"is_reserved":false,"is_disabled":false,"rental_uris":{"android":"levelo://app?vid=973357c8-dead-42ca-92e9-500225bc994c","ios":"levelo://app?vid=973357c8-dead-42ca-92e9-500225bc994c"},"vehicle_type_id":"4","last_reported":1737378987,"current_range_meters":36000,"station_id":"ce4bhr92rcd13ifvqhrg","pricing_plan_id":"cebpf4jnsgd1na2vs0mg"},{"bike_id":"4ae41f7d-b4e2-4bab-8aec-8596641bac6c","system_id":"levelo_inurba_marseille","lat":43.29981,"lon":5.37188,"is_reserved":false,"is_disabled":false,"rental_uris":{"android":"levelo://app?vid=4ae41f7d-b4e2-4bab-8aec-8596641bac6c","ios":"levelo://app?vid=4ae41f7d-b4e2-4bab-8aec-8596641bac6c"},"vehicle_type_id":"4","last_reported":1737378987,"current_range_meters":36400,"station_id":"ce4bgr92rcd13ifvqc7g","pricing_plan_id":"cebpf4jnsgd1na2vs0mg"},{"bike_id":"e362fcac-a1c2-40b0-99b0-8310143e8a12","system_id":"levelo_inurba_marseille","lat":43.31334,"lon":5.39735,"is_reserved":false,"is_disabled":false,"rental_uris":{"android":"levelo://app?vid=e362fcac-a1c2-40b0-99b0-8310143e8a12","ios":"levelo://app?vid=e362fcac-a1c2-40b0-99b0-8310143e8a12"},"vehicle_type_id":"4","last_reported":1737378987,"current_range_meters":39200,"station_id":"ce4bgvp2rcd13ifvqcu0","pricing_plan_id":"cebpf4jnsgd1na2vs0mg"},{"bike_id":"4ca0c0a8-ebec-4495-a31b-51805b75ee6d","system_id":"levelo_inurba_marseille","lat":43.246537,"lon":5.388851,"is_reserved":false,"is_disabled":false,"rental_uris":{"android":"levelo://app?vid=4ca0c0a8-ebec-4495-a31b-51805b75ee6d","ios":"levelo://app?vid=4ca0c0a8-ebec-4495-a31b-51805b75ee6d"},"vehicle_type_id":"4","last_reported":1737378987,"current_range_meters":39200,"station_id":"ce4bhg12rcd13ifvqf60","pricing_plan_id":"cebpf4jnsgd1na2vs0mg"},{"bike_id":"572111e7-56a7-4348-acc2-ff87890d28e9","system_id":"levelo_inurba_marseille","lat":43.29524,"lon":5.38544,"is_reserved":false,"is_disabled":false,"rental_uris":{"android":"levelo://app?vid=572111e7-56a7-4348-acc2-ff87890d28e9","ios":"levelo://app?vid=572111e7-56a7-4348-acc2-ff87890d28e9"},"vehicle_type_id":"4","last_reported":1737378987,"current_range_meters":32400,"station_id":"ce4bgih2rcd13ifvqba0","pricing_plan_id":"cebpf4jnsgd1na2vs0mg"},{"bike_id":"a7a8bfe3-2e6a-4e78-86fb-6c86c3f971ac","system_id":"levelo_inurba_marseille","lat":43.29213,"lon":5.36083,"is_reserved":false,"is_disabled":false,"rental_uris":{"android":"levelo://app?vid=a7a8bfe3-2e6a-4e78-86fb-6c86c3f971ac","ios":"levelo://app?vid=a7a8bfe3-2e6a-4e78-86fb-6c86c3f971ac"},"vehicle_type_id":"4","last_reported":1737378987,"current_range_meters":34800,"station_id":"ce4bhbh2rcd13ifvqeqg","pricing_plan_id":"cebpf4jnsgd1na2vs0mg"},{"bike_id":"4bfa3751-2adf-4e24-ad92-d28f2c20305c","system_id":"levelo_inurba_marseille","lat":43.26788,"lon":5.39415,"is_reserved":false,"is_disabled":false,"rental_uris":{"android":"levelo://app?vid=4bfa3751-2adf-4e24-ad92-d28f2c20305c","ios":"levelo://app?vid=4bfa3751-2adf-4e24-ad92-d28f2c20305c"},"vehicle_type_id":"4","last_reported":1737378987,"current_range_meters":38000,"station_id":"ce4bhh12rcd13ifvqfg0","pricing_plan_id":"cebpf4jnsgd1na2vs0mg"},{"bike_id":"26376a94-6528-4fdf-8409-26b3583fac75","system_id":"levelo_inurba_marseille","lat":43.24371,"lon":5.37066,"is_reserved":false,"is_disabled":false,"rental_uris":{"android":"levelo://app?vid=26376a94-6528-4fdf-8409-26b3583fac75","ios":"levelo://app?vid=26376a94-6528-4fdf-8409-26b3583fac75"},"vehicle_type_id":"4","last_reported":1737378987,"current_range_meters":22800,"station_id":"ce4bhhh2rcd13ifvqfk0","pricing_plan_id":"cebpf4jnsgd1na2vs0mg"},{"bike_id":"01a07bd9-36a1-4c19-a88b-7c9e3a6ee490","system_id":"levelo_inurba_marseille","lat":43.25088,"lon":5.39523,"is_reserved":false,"is_disabled":false,"rental_uris":{"android":"levelo://app?vid=01a07bd9-36a1-4c19-a88b-7c9e3a6ee490","ios":"levelo://app?vid=01a07bd9-36a1-4c19-a88b-7c9e3a6ee490"},"vehicle_type_id":"4","last_reported":1737378987,"current_range_meters":28800,"station_id":"ce4bhm12rcd13ifvqgkg","pricing_plan_id":"cebpf4jnsgd1na2vs0mg"},{"bike_id":"30868fb9-be18-4137-b148-fea1b914be52","system_id":"levelo_inurba_marseille","lat":43.28011,"lon":5.40016,"is_reserved":false,"is_disabled":false,"rental_uris":{"android":"levelo://app?vid=30868fb9-be18-4137-b148-fea1b914be52","ios":"levelo://app?vid=30868fb9-be18-4137-b148-fea1b914be52"},"vehicle_type_id":"4","last_reported":1737378987,"current_range_meters":37600,"station_id":"ce4bho92rcd13ifvqh4g","pricing_plan_id":"cebpf4jnsgd1na2vs0mg"},{"bike_id":"c5152281-b637-470d-9252-45d007798180","system_id":"levelo_inurba_marseille","lat":43.313656,"lon":5.384938,"is_reserved":false,"is_disabled":false,"rental_uris":{"android":"levelo://app?vid=c5152281-b637-470d-9252-45d007798180","ios":"levelo://app?vid=c5152281-b637-470d-9252-45d007798180"},"vehicle_type_id":"4","last_reported":1737378987,"current_range_meters":20000,"station_id":"ce4bgt92rcd13ifvqcf0","pricing_plan_id":"cebpf4jnsgd1na2vs0mg"},{"bike_id":"feb887f9-80e3-4b95-8fc9-ff53457d3008","system_id":"levelo_inurba_marseille","lat":43.29101,"lon":5.38111,"is_reserved":false,"is_disabled":false,"rental_uris":{"android":"levelo://app?vid=feb887f9-80e3-4b95-8fc9-ff53457d3008","ios":"levelo://app?vid=feb887f9-80e3-4b95-8fc9-ff53457d3008"},"vehicle_type_id":"4","last_reported":1737378987,"current_range_meters":16000,"station_id":"ce4bh512rcd13ifvqe2g","pricing_plan_id":"cebpf4jnsgd1na2vs0mg"},{"bike_id":"72591a78-afbc-45de-bf88-03c50cc421aa","system_id":"levelo_inurba_marseille","lat":43.28856,"lon":5.39314,"is_reserved":false,"is_disabled":false,"rental_uris":{"android":"levelo://app?vid=72591a78-afbc-45de-bf88-03c50cc421aa","ios":"levelo://app?vid=72591a78-afbc-45de-bf88-03c50cc421aa"},"vehicle_type_id":"4","last_reported":1737378987,"current_range_meters":38000,"station_id":"ce4bh2p2rcd13ifvqdi0","pricing_plan_id":"cebpf4jnsgd1na2vs0mg"},{"bike_id":"c42268c0-a5e0-42b8-b874-93ef21576df8","system_id":"levelo_inurba_marseille","lat":43.281483,"lon":5.426481,"is_reserved":false,"is_disabled":false,"rental_uris":{"android":"levelo://app?vid=c42268c0-a5e0-42b8-b874-93ef21576df8","ios":"levelo://app?vid=c42268c0-a5e0-42b8-b874-93ef21576df8"},"vehicle_type_id":"4","last_reported":1737378987,"current_range_meters":24000,"station_id":"ce4bhnh2rcd13ifvqgug","pricing_plan_id":"cebpf4jnsgd1na2vs0mg"},{"bike_id":"77192f79-2b12-4ff4-874e-f5cab7df388a","system_id":"levelo_inurba_marseille","lat":43.2876,"lon":5.35199,"is_reserved":false,"is_disabled":true,"rental_uris":{"android":"levelo://app?vid=77192f79-2b12-4ff4-874e-f5cab7df388a","ios":"levelo://app?vid=77192f79-2b12-4ff4-874e-f5cab7df388a"},"vehicle_type_id":"4","last_reported":1737378987,"current_range_meters":33200,"station_id":"","pricing_plan_id":"cebpf4jnsgd1na2vs0mg"},{"bike_id":"37e24f29-f9e5-4fbd-966f-119335fd695e","system_id":"levelo_inurba_marseille","lat":43.24054,"lon":5.37728,"is_reserved":false,"is_disabled":false,"rental_uris":{"android":"levelo://app?vid=37e24f29-f9e5-4fbd-966f-119335fd695e","ios":"levelo://app?vid=37e24f29-f9e5-4fbd-966f-119335fd695e"},"vehicle_type_id":"4","last_reported":1737378987,"current_range_meters":39200,"station_id":"ce4bhnp2rcd13ifvqgvg","pricing_plan_id":"cebpf4jnsgd1na2vs0mg"},{"bike_id":"f6477394-37ad-474b-869e-23ecf9fee49a","system_id":"levelo_inurba_marseille","lat":43.24178,"lon":5.39734,"is_reserved":false,"is_disabled":false,"rental_uris":{"android":"levelo://app?vid=f6477394-37ad-474b-869e-23ecf9fee49a","ios":"levelo://app?vid=f6477394-37ad-474b-869e-23ecf9fee49a"},"vehicle_type_id":"4","last_reported":1737378987,"current_range_meters":38800,"station_id":"ce4bhn12rcd13ifvqgpg","pricing_plan_id":"cebpf4jnsgd1na2vs0mg"},{"bike_id":"01e6e722-f692-47ad-9954-e66b12f335ac","system_id":"levelo_inurba_marseille","lat":43.29973,"lon":5.37195,"is_reserved":false,"is_disabled":false,"rental_uris":{"android":"levelo://app?vid=01e6e722-f692-47ad-9954-e66b12f335ac","ios":"levelo://app?vid=01e6e722-f692-47ad-9954-e66b12f335ac"},"vehicle_type_id":"4","last_reported":1737378987,"current_range_meters":16800,"station_id":"ce4bgr92rcd13ifvqc7g","pricing_plan_id":"cebpf4jnsgd1na2vs0mg"},{"bike_id":"9cc846b2-8092-44ff-8ebf-175cb64fb66a","system_id":"levelo_inurba_marseille","lat":43.27561,"lon":5.38434,"is_reserved":false,"is_disabled":false,"rental_uris":{"android":"levelo://app?vid=9cc846b2-8092-44ff-8ebf-175cb64fb66a","ios":"levelo://app?vid=9cc846b2-8092-44ff-8ebf-175cb64fb66a"},"vehicle_type_id":"4","last_reported":1737378987,"current_range_meters":18800,"station_id":"ce4bhh92rcd13ifvqfi0","pricing_plan_id":"cebpf4jnsgd1na2vs0mg"},{"bike_id":"6fd85c9c-5cad-4352-a248-92582e23a8ce","system_id":"levelo_inurba_marseille","lat":43.29963,"lon":5.37184,"is_reserved":false,"is_disabled":false,"rental_uris":{"android":"levelo://app?vid=6fd85c9c-5cad-4352-a248-92582e23a8ce","ios":"levelo://app?vid=6fd85c9c-5cad-4352-a248-92582e23a8ce"},"vehicle_type_id":"4","last_reported":1737378987,"current_range_meters":37600,"station_id":"ce4bgr92rcd13ifvqc7g","pricing_plan_id":"cebpf4jnsgd1na2vs0mg"},{"bike_id":"49ec1c53-8b1b-4aab-9bfa-c7c99f891f25","system_id":"levelo_inurba_marseille","lat":43.28619,"lon":5.35101,"is_reserved":false,"is_disabled":false,"rental_uris":{"android":"levelo://app?vid=49ec1c53-8b1b-4aab-9bfa-c7c99f891f25","ios":"levelo://app?vid=49ec1c53-8b1b-4aab-9bfa-c7c99f891f25"},"vehicle_type_id":"4","last_reported":1737378987,"current_range_meters":38800,"station_id":"ce4bhch2rcd13ifvqeug","pricing_plan_id":"cebpf4jnsgd1na2vs0mg"},{"bike_id":"4e7cfeff-a917-4d27-a68c-da24c7b49659","system_id":"levelo_inurba_marseille","lat":43.24167,"lon":5.39742,"is_reserved":false,"is_disabled":false,"rental_uris":{"android":"levelo://app?vid=4e7cfeff-a917-4d27-a68c-da24c7b49659","ios":"levelo://app?vid=4e7cfeff-a917-4d27-a68c-da24c7b49659"},"vehicle_type_id":"4","last_reported":1737378987,"current_range_meters":38800,"station_id":"ce4bhn12rcd13ifvqgpg","pricing_plan_id":"cebpf4jnsgd1na2vs0mg"},{"bike_id":"5c355f1f-2346-434b-b0b1-1dbab4b16da7","system_id":"levelo_inurba_marseille","lat":43.30923,"lon":5.36831,"is_reserved":false,"is_disabled":false,"rental_uris":{"android":"levelo://app?vid=5c355f1f-2346-434b-b0b1-1dbab4b16da7","ios":"levelo://app?vid=5c355f1f-2346-434b-b0b1-1dbab4b16da7"},"vehicle_type_id":"4","last_reported":1737378987,"current_range_meters":38800,"station_id":"ce4bgn92rcd13ifvqbvg","pricing_plan_id":"cebpf4jnsgd1na2vs0mg"},{"bike_id":"9ca01bcf-df23-49a2-8a13-5b2e4b44a6f3","system_id":"levelo_inurba_marseille","lat":43.29618,"lon":5.37158,"is_reserved":false,"is_disabled":false,"rental_uris":{"android":"levelo://app?vid=9ca01bcf-df23-49a2-8a13-5b2e4b44a6f3","ios":"levelo://app?vid=9ca01bcf-df23-49a2-8a13-5b2e4b44a6f3"},"vehicle_type_id":"4","last_reported":1737378987,"current_range_meters":20800,"station_id":"ce4bgnh2rcd13ifvqc0g","pricing_plan_id":"cebpf4jnsgd1na2vs0mg"},{"bike_id":"32c787de-90a2-4b26-8e28-584af39ce073","system_id":"levelo_inurba_marseille","lat":43.24175,"lon":5.39727,"is_reserved":false,"is_disabled":false,"rental_uris":{"android":"levelo://app?vid=32c787de-90a2-4b26-8e28-584af39ce073","ios":"levelo://app?vid=32c787de-90a2-4b26-8e28-584af39ce073"},"vehicle_type_id":"4","last_reported":1737378987,"current_range_meters":28000,"station_id":"ce4bhn12rcd13ifvqgpg","pricing_plan_id":"cebpf4jnsgd1na2vs0mg"},{"bike_id":"1cde7a51-3b7c-4062-80e8-e4e198aaeeee","system_id":"levelo_inurba_marseille","lat":43.27909,"lon":5.38017,"is_reserved":false,"is_disabled":false,"rental_uris":{"android":"levelo://app?vid=1cde7a51-3b7c-4062-80e8-e4e198aaeeee","ios":"levelo://app?vid=1cde7a51-3b7c-4062-80e8-e4e198aaeeee"},"vehicle_type_id":"4","last_reported":1737378987,"current_range_meters":24400,"station_id":"ce4bhf92rcd13ifvqf50","pricing_plan_id":"cebpf4jnsgd1na2vs0mg"},{"bike_id":"0897e627-1690-4b1c-984d-29cb463c9770","system_id":"levelo_inurba_marseille","lat":43.31889,"lon":5.40736,"is_reserved":false,"is_disabled":false,"rental_uris":{"android":"levelo://app?vid=0897e627-1690-4b1c-984d-29cb463c9770","ios":"levelo://app?vid=0897e627-1690-4b1c-984d-29cb463c9770"},"vehicle_type_id":"4","last_reported":1737378987,"current_range_meters":38800,"station_id":"ce4bhq12rcd13ifvqhig","pricing_plan_id":"cebpf4jnsgd1na2vs0mg"},{"bike_id":"80bcc3e7-77de-44a5-8965-f19acb6d7452","system_id":"levelo_inurba_marseille","lat":43.33019,"lon":5.39066,"is_reserved":false,"is_disabled":false,"rental_uris":{"android":"levelo://app?vid=80bcc3e7-77de-44a5-8965-f19acb6d7452","ios":"levelo://app?vid=80bcc3e7-77de-44a5-8965-f19acb6d7452"},"vehicle_type_id":"4","last_reported":1737378987,"current_range_meters":38800,"station_id":"ce4bhr92rcd13ifvqhrg","pricing_plan_id":"cebpf4jnsgd1na2vs0mg"},{"bike_id":"0d01758f-10fa-466b-8319-e5ec6f220364","system_id":"levelo_inurba_marseille","lat":43.29066,"lon":5.37168,"is_reserved":false,"is_disabled":false,"rental_uris":{"android":"levelo://app?vid=0d01758f-10fa-466b-8319-e5ec6f220364","ios":"levelo://app?vid=0d01758f-10fa-466b-8319-e5ec6f220364"},"vehicle_type_id":"4","last_reported":1737378987,"current_range_meters":32400,"station_id":"ce4bh5p2rcd13ifvqe4g","pricing_plan_id":"cebpf4jnsgd1na2vs0mg"},{"bike_id":"f0172799-105e-48fc-9d46-8f62723cda5b","system_id":"levelo_inurba_marseille","lat":43.27497,"lon":5.42447,"is_reserved":false,"is_disabled":false,"rental_uris":{"android":"levelo://app?vid=f0172799-105e-48fc-9d46-8f62723cda5b","ios":"levelo://app?vid=f0172799-105e-48fc-9d46-8f62723cda5b"},"vehicle_type_id":"4","last_reported":1737378987,"current_range_meters":30000,"station_id":"ce4bhn92rcd13ifvqgrg","pricing_plan_id":"cebpf4jnsgd1na2vs0mg"},{"bike_id":"0f9502e1-eaf5-4b8a-b146-cc2e05e77720","system_id":"levelo_inurba_marseille","lat":43.32365,"lon":5.38885,"is_reserved":false,"is_disabled":false,"rental_uris":{"android":"levelo://app?vid=0f9502e1-eaf5-4b8a-b146-cc2e05e77720","ios":"levelo://app?vid=0f9502e1-eaf5-4b8a-b146-cc2e05e77720"},"vehicle_type_id":"4","last_reported":1737378987,"current_range_meters":5600,"station_id":"ce4bhqp2rcd13ifvqhog","pricing_plan_id":"cebpf4jnsgd1na2vs0mg"},{"bike_id":"30f156b8-7cc4-4167-b6e0-be274f83aa91","system_id":"levelo_inurba_marseille","lat":43.30477,"lon":5.37915,"is_reserved":false,"is_disabled":false,"rental_uris":{"android":"levelo://app?vid=30f156b8-7cc4-4167-b6e0-be274f83aa91","ios":"levelo://app?vid=30f156b8-7cc4-4167-b6e0-be274f83aa91"},"vehicle_type_id":"4","last_reported":1737378987,"current_range_meters":30000,"station_id":"ce4bgup2rcd13ifvqcn0","pricing_plan_id":"cebpf4jnsgd1na2vs0mg"},{"bike_id":"b887ec45-2824-4a19-a327-1b38cefbc7dc","system_id":"levelo_inurba_marseille","lat":43.30906,"lon":5.36846,"is_reserved":false,"is_disabled":false,"rental_uris":{"android":"levelo://app?vid=b887ec45-2824-4a19-a327-1b38cefbc7dc","ios":"levelo://app?vid=b887ec45-2824-4a19-a327-1b38cefbc7dc"},"vehicle_type_id":"4","last_reported":1737378987,"current_range_meters":35200,"station_id":"ce4bgn92rcd13ifvqbvg","pricing_plan_id":"cebpf4jnsgd1na2vs0mg"},{"bike_id":"e7118011-2d04-4b34-9604-f463992b4c02","system_id":"levelo_inurba_marseille","lat":43.24081,"lon":5.37751,"is_reserved":false,"is_disabled":false,"rental_uris":{"android":"levelo://app?vid=e7118011-2d04-4b34-9604-f463992b4c02","ios":"levelo://app?vid=e7118011-2d04-4b34-9604-f463992b4c02"},"vehicle_type_id":"4","last_reported":1737378987,"current_range_meters":38800,"station_id":"ce4bhnp2rcd13ifvqgvg","pricing_plan_id":"cebpf4jnsgd1na2vs0mg"},{"bike_id":"0c11c35e-9afb-4760-bb00-355cf266c369","system_id":"levelo_inurba_marseille","lat":43.3054,"lon":5.36697,"is_reserved":false,"is_disabled":false,"rental_uris":{"android":"levelo://app?vid=0c11c35e-9afb-4760-bb00-355cf266c369","ios":"levelo://app?vid=0c11c35e-9afb-4760-bb00-355cf266c369"},"vehicle_type_id":"4","last_reported":1737378987,"current_range_meters":10800,"station_id":"ce4bgrp2rcd13ifvqc9g","pricing_plan_id":"cebpf4jnsgd1na2vs0mg"},{"bike_id":"43ab6a6e-18b0-45a2-bdfd-26946078537a","system_id":"levelo_inurba_marseille","lat":43.25012,"lon":5.3892,"is_reserved":false,"is_disabled":false,"rental_uris":{"android":"levelo://app?vid=43ab6a6e-18b0-45a2-bdfd-26946078537a","ios":"levelo://app?vid=43ab6a6e-18b0-45a2-bdfd-26946078537a"},"vehicle_type_id":"4","last_reported":1737378987,"current_range_meters":37600,"station_id":"ce4bhgp2rcd13ifvqfd0","pricing_plan_id":"cebpf4jnsgd1na2vs0mg"},{"bike_id":"bd4b9ed9-f06c-4ea1-b149-539e9d0eb579","system_id":"levelo_inurba_marseille","lat":43.30463,"lon":5.37909,"is_reserved":false,"is_disabled":false,"rental_uris":{"android":"levelo://app?vid=bd4b9ed9-f06c-4ea1-b149-539e9d0eb579","ios":"levelo://app?vid=bd4b9ed9-f06c-4ea1-b149-539e9d0eb579"},"vehicle_type_id":"4","last_reported":1737378987,"current_range_meters":30800,"station_id":"ce4bgup2rcd13ifvqcn0","pricing_plan_id":"cebpf4jnsgd1na2vs0mg"},{"bike_id":"46a15612-d5ab-4a84-a976-a240caa05a1a","system_id":"levelo_inurba_marseille","lat":43.27206,"lon":5.39179,"is_reserved":false,"is_disabled":false,"rental_uris":{"android":"levelo://app?vid=46a15612-d5ab-4a84-a976-a240caa05a1a","ios":"levelo://app?vid=46a15612-d5ab-4a84-a976-a240caa05a1a"},"vehicle_type_id":"4","last_reported":1737378987,"current_range_meters":17200,"station_id":"ce4bhhp2rcd13ifvqfm0","pricing_plan_id":"cebpf4jnsgd1na2vs0mg"},{"bike_id":"bae3bf97-853b-49ad-a38b-84f10e11ed28","system_id":"levelo_inurba_marseille","lat":43.29041,"lon":5.39962,"is_reserved":false,"is_disabled":false,"rental_uris":{"android":"levelo://app?vid=bae3bf97-853b-49ad-a38b-84f10e11ed28","ios":"levelo://app?vid=bae3bf97-853b-49ad-a38b-84f10e11ed28"},"vehicle_type_id":"4","last_reported":1737378987,"current_range_meters":6800,"station_id":"ce4bh392rcd13ifvqdm0","pricing_plan_id":"cebpf4jnsgd1na2vs0mg"},{"bike_id":"5862fe32-2491-454d-aed5-ca418e6275af","system_id":"levelo_inurba_marseille","lat":43.30547,"lon":5.36514,"is_reserved":false,"is_disabled":false,"rental_uris":{"android":"levelo://app?vid=5862fe32-2491-454d-aed5-ca418e6275af","ios":"levelo://app?vid=5862fe32-2491-454d-aed5-ca418e6275af"},"vehicle_type_id":"4","last_reported":1737378987,"current_range_meters":21600,"station_id":"ce4bgs12rcd13ifvqcag","pricing_plan_id":"cebpf4jnsgd1na2vs0mg"},{"bike_id":"de1a1fd3-f285-46b1-81f7-15c98f26fab3","system_id":"levelo_inurba_marseille","lat":43.29217,"lon":5.36056,"is_reserved":false,"is_disabled":true,"rental_uris":{"android":"levelo://app?vid=de1a1fd3-f285-46b1-81f7-15c98f26fab3","ios":"levelo://app?vid=de1a1fd3-f285-46b1-81f7-15c98f26fab3"},"vehicle_type_id":"4","last_reported":1737378987,"current_range_meters":0,"station_id":"ce4bhbh2rcd13ifvqeqg","pricing_plan_id":"cebpf4jnsgd1na2vs0mg"},{"bike_id":"5c29aaf4-4fcc-4063-a3b7-f0a84df955dc","system_id":"levelo_inurba_marseille","lat":43.29601,"lon":5.37743,"is_reserved":false,"is_disabled":false,"rental_uris":{"android":"levelo://app?vid=5c29aaf4-4fcc-4063-a3b7-f0a84df955dc","ios":"levelo://app?vid=5c29aaf4-4fcc-4063-a3b7-f0a84df955dc"},"vehicle_type_id":"4","last_reported":1737378987,"current_range_meters":38800,"station_id":"ce4bgi92rcd13ifvqb90","pricing_plan_id":"cebpf4jnsgd1na2vs0mg"},{"bike_id":"f50c355d-0a75-47b0-b4cf-cd0ad431856e","system_id":"levelo_inurba_marseille","lat":43.30156,"lon":5.38088,"is_reserved":false,"is_disabled":false,"rental_uris":{"android":"levelo://app?vid=f50c355d-0a75-47b0-b4cf-cd0ad431856e","ios":"levelo://app?vid=f50c355d-0a75-47b0-b4cf-cd0ad431856e"},"vehicle_type_id":"4","last_reported":1737378987,"current_range_meters":38800,"station_id":"ce4bgjp2rcd13ifvqbh0","pricing_plan_id":"cebpf4jnsgd1na2vs0mg"},{"bike_id":"090fdfe6-6c2f-4f10-ba87-76b4a56d7c7e","system_id":"levelo_inurba_marseille","lat":43.27056,"lon":5.40269,"is_reserved":false,"is_disabled":false,"rental_uris":{"android":"levelo://app?vid=090fdfe6-6c2f-4f10-ba87-76b4a56d7c7e","ios":"levelo://app?vid=090fdfe6-6c2f-4f10-ba87-76b4a56d7c7e"},"vehicle_type_id":"4","last_reported":1737378987,"current_range_meters":8800,"station_id":"ce4bhk92rcd13ifvqgc0","pricing_plan_id":"cebpf4jnsgd1na2vs0mg"},{"bike_id":"b5c7c556-4380-4b0b-9ac9-b912d1911894","system_id":"levelo_inurba_marseille","lat":43.30273,"lon":5.37712,"is_reserved":false,"is_disabled":false,"rental_uris":{"android":"levelo://app?vid=b5c7c556-4380-4b0b-9ac9-b912d1911894","ios":"levelo://app?vid=b5c7c556-4380-4b0b-9ac9-b912d1911894"},"vehicle_type_id":"4","last_reported":1737378987,"current_range_meters":38800,"station_id":"ce4bguh2rcd13ifvqcj0","pricing_plan_id":"cebpf4jnsgd1na2vs0mg"},{"bike_id":"3f7438ea-a3cd-44dc-9aab-ffb58f912c10","system_id":"levelo_inurba_marseille","lat":43.28728,"lon":5.37917,"is_reserved":false,"is_disabled":false,"rental_uris":{"android":"levelo://app?vid=3f7438ea-a3cd-44dc-9aab-ffb58f912c10","ios":"levelo://app?vid=3f7438ea-a3cd-44dc-9aab-ffb58f912c10"},"vehicle_type_id":"4","last_reported":1737378987,"current_range_meters":38800,"station_id":"ce4bh9p2rcd13ifvqec0","pricing_plan_id":"cebpf4jnsgd1na2vs0mg"},{"bike_id":"4c125914-984c-4fb8-a531-5d4db028d8c5","system_id":"levelo_inurba_marseille","lat":43.30455,"lon":5.37901,"is_reserved":false,"is_disabled":false,"rental_uris":{"android":"levelo://app?vid=4c125914-984c-4fb8-a531-5d4db028d8c5","ios":"levelo://app?vid=4c125914-984c-4fb8-a531-5d4db028d8c5"},"vehicle_type_id":"4","last_reported":1737378987,"current_range_meters":30400,"station_id":"ce4bgup2rcd13ifvqcn0","pricing_plan_id":"cebpf4jnsgd1na2vs0mg"},{"bike_id":"0e91b70c-1e42-4d65-a90a-72cbd40954b0","system_id":"levelo_inurba_marseille","lat":43.32367,"lon":5.3678,"is_reserved":false,"is_disabled":false,"rental_uris":{"android":"levelo://app?vid=0e91b70c-1e42-4d65-a90a-72cbd40954b0","ios":"levelo://app?vid=0e91b70c-1e42-4d65-a90a-72cbd40954b0"},"vehicle_type_id":"4","last_reported":1737378987,"current_range_meters":38000,"station_id":"ce4bhsh2rcd13ifvqi2g","pricing_plan_id":"cebpf4jnsgd1na2vs0mg"},{"bike_id":"e8194518-41d1-4ce5-a0c3-252a66967041","system_id":"levelo_inurba_marseille","lat":43.28931,"lon":5.36644,"is_reserved":false,"is_disabled":false,"rental_uris":{"android":"levelo://app?vid=e8194518-41d1-4ce5-a0c3-252a66967041","ios":"levelo://app?vid=e8194518-41d1-4ce5-a0c3-252a66967041"},"vehicle_type_id":"4","last_reported":1737378987,"current_range_meters":8400,"station_id":"ce4bhap2rcd13ifvqek0","pricing_plan_id":"cebpf4jnsgd1na2vs0mg"},{"bike_id":"809cb738-c150-49d8-8dbb-7ac1d2ee4312","system_id":"levelo_inurba_marseille","lat":43.30216,"lon":5.36633,"is_reserved":false,"is_disabled":false,"rental_uris":{"android":"levelo://app?vid=809cb738-c150-49d8-8dbb-7ac1d2ee4312","ios":"levelo://app?vid=809cb738-c150-49d8-8dbb-7ac1d2ee4312"},"vehicle_type_id":"4","last_reported":1737378987,"current_range_meters":38800,"station_id":"ce4bgrh2rcd13ifvqc8g","pricing_plan_id":"cebpf4jnsgd1na2vs0mg"},{"bike_id":"1b8f9de1-f115-4d0c-84a2-5367753ca9a1","system_id":"levelo_inurba_marseille","lat":43.29434,"lon":5.39768,"is_reserved":false,"is_disabled":false,"rental_uris":{"android":"levelo://app?vid=1b8f9de1-f115-4d0c-84a2-5367753ca9a1","ios":"levelo://app?vid=1b8f9de1-f115-4d0c-84a2-5367753ca9a1"},"vehicle_type_id":"4","last_reported":1737378987,"current_range_meters":16800,"station_id":"ce4bh3h2rcd13ifvqdo0","pricing_plan_id":"cebpf4jnsgd1na2vs0mg"},{"bike_id":"6c1d4f31-5b07-4b76-9037-ee76905f6f29","system_id":"levelo_inurba_marseille","lat":43.27492,"lon":5.42454,"is_reserved":false,"is_disabled":false,"rental_uris":{"android":"levelo://app?vid=6c1d4f31-5b07-4b76-9037-ee76905f6f29","ios":"levelo://app?vid=6c1d4f31-5b07-4b76-9037-ee76905f6f29"},"vehicle_type_id":"4","last_reported":1737378987,"current_range_meters":32000,"station_id":"ce4bhn92rcd13ifvqgrg","pricing_plan_id":"cebpf4jnsgd1na2vs0mg"},{"bike_id":"da3a7eb9-5fa6-49b3-9e5b-6452969eedf1","system_id":"levelo_inurba_marseille","lat":43.24407,"lon":5.37064,"is_reserved":false,"is_disabled":true,"rental_uris":{"android":"levelo://app?vid=da3a7eb9-5fa6-49b3-9e5b-6452969eedf1","ios":"levelo://app?vid=da3a7eb9-5fa6-49b3-9e5b-6452969eedf1"},"vehicle_type_id":"4","last_reported":1737378987,"current_range_meters":22800,"station_id":"ce4bhhh2rcd13ifvqfk0","pricing_plan_id":"cebpf4jnsgd1na2vs0mg"},{"bike_id":"46fff60c-da93-4e15-9cbf-bedd254fc83d","system_id":"levelo_inurba_marseille","lat":43.2293,"lon":5.35377,"is_reserved":false,"is_disabled":false,"rental_uris":{"android":"levelo://app?vid=46fff60c-da93-4e15-9cbf-bedd254fc83d","ios":"levelo://app?vid=46fff60c-da93-4e15-9cbf-bedd254fc83d"},"vehicle_type_id":"4","last_reported":1737378987,"current_range_meters":12400,"station_id":"cpo3532slgdg3j2ikp40","pricing_plan_id":"cebpf4jnsgd1na2vs0mg"},{"bike_id":"c794189e-3a65-49aa-9a35-e35fe7ab7107","system_id":"levelo_inurba_marseille","lat":43.31881,"lon":5.40734,"is_reserved":false,"is_disabled":false,"rental_uris":{"android":"levelo://app?vid=c794189e-3a65-49aa-9a35-e35fe7ab7107","ios":"levelo://app?vid=c794189e-3a65-49aa-9a35-e35fe7ab7107"},"vehicle_type_id":"4","last_reported":1737378987,"current_range_meters":20000,"station_id":"ce4bhq12rcd13ifvqhig","pricing_plan_id":"cebpf4jnsgd1na2vs0mg"},{"bike_id":"9655d6d8-6520-428a-b6a8-15fb54284888","system_id":"levelo_inurba_marseille","lat":43.29525,"lon":5.394,"is_reserved":false,"is_disabled":false,"rental_uris":{"android":"levelo://app?vid=9655d6d8-6520-428a-b6a8-15fb54284888","ios":"levelo://app?vid=9655d6d8-6520-428a-b6a8-15fb54284888"},"vehicle_type_id":"4","last_reported":1737378987,"current_range_meters":33200,"station_id":"ce4bh292rcd13ifvqdf0","pricing_plan_id":"cebpf4jnsgd1na2vs0mg"},{"bike_id":"5d6cd589-cd8a-4a7a-8ea0-0f6e117e94fd","system_id":"levelo_inurba_marseille","lat":43.24808,"lon":5.37461,"is_reserved":false,"is_disabled":false,"rental_uris":{"android":"levelo://app?vid=5d6cd589-cd8a-4a7a-8ea0-0f6e117e94fd","ios":"levelo://app?vid=5d6cd589-cd8a-4a7a-8ea0-0f6e117e94fd"},"vehicle_type_id":"4","last_reported":1737378987,"current_range_meters":32000,"station_id":"ce4bhgh2rcd13ifvqfb0","pricing_plan_id":"cebpf4jnsgd1na2vs0mg"},{"bike_id":"ec7f9570-3731-4a29-927f-ecd403f9746f","system_id":"levelo_inurba_marseille","lat":43.27945,"lon":5.41046,"is_reserved":false,"is_disabled":false,"rental_uris":{"android":"levelo://app?vid=ec7f9570-3731-4a29-927f-ecd403f9746f","ios":"levelo://app?vid=ec7f9570-3731-4a29-927f-ecd403f9746f"},"vehicle_type_id":"4","last_reported":1737378987,"current_range_meters":24000,"station_id":"ce4bhnp2rcd13ifvqh0g","pricing_plan_id":"cebpf4jnsgd1na2vs0mg"},{"bike_id":"06815d35-757d-4280-814a-8dba22433ced","system_id":"levelo_inurba_marseille","lat":43.27065,"lon":5.42279,"is_reserved":false,"is_disabled":false,"rental_uris":{"android":"levelo://app?vid=06815d35-757d-4280-814a-8dba22433ced","ios":"levelo://app?vid=06815d35-757d-4280-814a-8dba22433ced"},"vehicle_type_id":"4","last_reported":1737378987,"current_range_meters":36800,"station_id":"ce4bhk92rcd13ifvqgb0","pricing_plan_id":"cebpf4jnsgd1na2vs0mg"},{"bike_id":"5b803ccc-6fa0-4438-84e0-0db3cb044978","system_id":"levelo_inurba_marseille","lat":43.29529,"lon":5.37504,"is_reserved":false,"is_disabled":false,"rental_uris":{"android":"levelo://app?vid=5b803ccc-6fa0-4438-84e0-0db3cb044978","ios":"levelo://app?vid=5b803ccc-6fa0-4438-84e0-0db3cb044978"},"vehicle_type_id":"4","last_reported":1737378987,"current_range_meters":24400,"station_id":"ce4bgkp2rcd13ifvqbmg","pricing_plan_id":"cebpf4jnsgd1na2vs0mg"},{"bike_id":"069c18c5-90c7-49ea-ab0e-e2d921f6660e","system_id":"levelo_inurba_marseille","lat":43.29291,"lon":5.40121,"is_reserved":false,"is_disabled":false,"rental_uris":{"android":"levelo://app?vid=069c18c5-90c7-49ea-ab0e-e2d921f6660e","ios":"levelo://app?vid=069c18c5-90c7-49ea-ab0e-e2d921f6660e"},"vehicle_type_id":"4","last_reported":1737378987,"current_range_meters":33200,"station_id":"ce4bh312rcd13ifvqdk0","pricing_plan_id":"cebpf4jnsgd1na2vs0mg"},{"bike_id":"7a956b0b-b8f6-4389-bb50-97bccab2a50c","system_id":"levelo_inurba_marseille","lat":43.25932,"lon":5.40885,"is_reserved":false,"is_disabled":false,"rental_uris":{"android":"levelo://app?vid=7a956b0b-b8f6-4389-bb50-97bccab2a50c","ios":"levelo://app?vid=7a956b0b-b8f6-4389-bb50-97bccab2a50c"},"vehicle_type_id":"4","last_reported":1737378987,"current_range_meters":38800,"station_id":"ce4bhm92rcd13ifvqglg","pricing_plan_id":"cebpf4jnsgd1na2vs0mg"},{"bike_id":"bf965889-8479-49f1-a05f-1a9c2813d841","system_id":"levelo_inurba_marseille","lat":43.27905,"lon":5.38021,"is_reserved":false,"is_disabled":false,"rental_uris":{"android":"levelo://app?vid=bf965889-8479-49f1-a05f-1a9c2813d841","ios":"levelo://app?vid=bf965889-8479-49f1-a05f-1a9c2813d841"},"vehicle_type_id":"4","last_reported":1737378987,"current_range_meters":17600,"station_id":"ce4bhf92rcd13ifvqf50","pricing_plan_id":"cebpf4jnsgd1na2vs0mg"},{"bike_id":"a80b852c-67f7-4f92-bf4d-54e70b44a4b9","system_id":"levelo_inurba_marseille","lat":43.29841,"lon":5.36269,"is_reserved":false,"is_disabled":false,"rental_uris":{"android":"levelo://app?vid=a80b852c-67f7-4f92-bf4d-54e70b44a4b9","ios":"levelo://app?vid=a80b852c-67f7-4f92-bf4d-54e70b44a4b9"},"vehicle_type_id":"4","last_reported":1737378987,"current_range_meters":38800,"station_id":"ce4bgpp2rcd13ifvqc3g","pricing_plan_id":"cebpf4jnsgd1na2vs0mg"},{"bike_id":"e6756df9-0434-4060-9b7a-23ac21659d75","system_id":"levelo_inurba_marseille","lat":43.2942,"lon":5.38622,"is_reserved":false,"is_disabled":false,"rental_uris":{"android":"levelo://app?vid=e6756df9-0434-4060-9b7a-23ac21659d75","ios":"levelo://app?vid=e6756df9-0434-4060-9b7a-23ac21659d75"},"vehicle_type_id":"4","last_reported":1737378987,"current_range_meters":38800,"station_id":"ce4bh2h2rcd13ifvqdh0","pricing_plan_id":"cebpf4jnsgd1na2vs0mg"},{"bike_id":"1fff2a9f-023a-43ec-bd02-633596668a23","system_id":"levelo_inurba_marseille","lat":43.2964,"lon":5.37174,"is_reserved":false,"is_disabled":false,"rental_uris":{"android":"levelo://app?vid=1fff2a9f-023a-43ec-bd02-633596668a23","ios":"levelo://app?vid=1fff2a9f-023a-43ec-bd02-633596668a23"},"vehicle_type_id":"4","last_reported":1737378987,"current_range_meters":38800,"station_id":"ce4bgnh2rcd13ifvqc0g","pricing_plan_id":"cebpf4jnsgd1na2vs0mg"},{"bike_id":"3afb7c89-7f1f-4cf5-9622-433969cb6266","system_id":"levelo_inurba_marseille","lat":43.32368,"lon":5.38886,"is_reserved":false,"is_disabled":false,"rental_uris":{"android":"levelo://app?vid=3afb7c89-7f1f-4cf5-9622-433969cb6266","ios":"levelo://app?vid=3afb7c89-7f1f-4cf5-9622-433969cb6266"},"vehicle_type_id":"4","last_reported":1737378987,"current_range_meters":22400,"station_id":"ce4bhqp2rcd13ifvqhog","pricing_plan_id":"cebpf4jnsgd1na2vs0mg"},{"bike_id":"caec49c2-334a-4285-be8f-474f16339db8","system_id":"levelo_inurba_marseille","lat":43.29418,"lon":5.38623,"is_reserved":false,"is_disabled":false,"rental_uris":{"android":"levelo://app?vid=caec49c2-334a-4285-be8f-474f16339db8","ios":"levelo://app?vid=caec49c2-334a-4285-be8f-474f16339db8"},"vehicle_type_id":"4","last_reported":1737378987,"current_range_meters":24800,"station_id":"ce4bh2h2rcd13ifvqdh0","pricing_plan_id":"cebpf4jnsgd1na2vs0mg"},{"bike_id":"21be22f2-2425-40b9-889d-c4456d1287ae","system_id":"levelo_inurba_marseille","lat":43.27839,"lon":5.39215,"is_reserved":false,"is_disabled":false,"rental_uris":{"android":"levelo://app?vid=21be22f2-2425-40b9-889d-c4456d1287ae","ios":"levelo://app?vid=21be22f2-2425-40b9-889d-c4456d1287ae"},"vehicle_type_id":"4","last_reported":1737378987,"current_range_meters":27200,"station_id":"ce4bhjp2rcd13ifvqga0","pricing_plan_id":"cebpf4jnsgd1na2vs0mg"},{"bike_id":"2c891db4-ec2b-4391-a283-6f21e456c36c","system_id":"levelo_inurba_marseille","lat":43.24067,"lon":5.37762,"is_reserved":false,"is_disabled":false,"rental_uris":{"android":"levelo://app?vid=2c891db4-ec2b-4391-a283-6f21e456c36c","ios":"levelo://app?vid=2c891db4-ec2b-4391-a283-6f21e456c36c"},"vehicle_type_id":"4","last_reported":1737378987,"current_range_meters":39200,"station_id":"ce4bhnp2rcd13ifvqgvg","pricing_plan_id":"cebpf4jnsgd1na2vs0mg"},{"bike_id":"e274159c-9d85-4e90-b9c4-fcc879511945","system_id":"levelo_inurba_marseille","lat":43.33021,"lon":5.39034,"is_reserved":false,"is_disabled":true,"rental_uris":{"android":"levelo://app?vid=e274159c-9d85-4e90-b9c4-fcc879511945","ios":"levelo://app?vid=e274159c-9d85-4e90-b9c4-fcc879511945"},"vehicle_type_id":"4","last_reported":1737378987,"current_range_meters":1600,"station_id":"ce4bhr92rcd13ifvqhrg","pricing_plan_id":"cebpf4jnsgd1na2vs0mg"},{"bike_id":"f2390374-e060-4fe1-bcfa-cb2711193e58","system_id":"levelo_inurba_marseille","lat":43.25083,"lon":5.3952,"is_reserved":false,"is_disabled":false,"rental_uris":{"android":"levelo://app?vid=f2390374-e060-4fe1-bcfa-cb2711193e58","ios":"levelo://app?vid=f2390374-e060-4fe1-bcfa-cb2711193e58"},"vehicle_type_id":"4","last_reported":1737378987,"current_range_meters":35600,"station_id":"ce4bhm12rcd13ifvqgkg","pricing_plan_id":"cebpf4jnsgd1na2vs0mg"},{"bike_id":"0f8104d8-ae0e-40b2-9d64-c24deeb12b25","system_id":"levelo_inurba_marseille","lat":43.306687,"lon":5.369327,"is_reserved":false,"is_disabled":false,"rental_uris":{"android":"levelo://app?vid=0f8104d8-ae0e-40b2-9d64-c24deeb12b25","ios":"levelo://app?vid=0f8104d8-ae0e-40b2-9d64-c24deeb12b25"},"vehicle_type_id":"4","last_reported":1737378987,"current_range_meters":24400,"station_id":"","pricing_plan_id":"cebpf4jnsgd1na2vs0mg"},{"bike_id":"6fa96e81-a119-436e-b985-1cf31a85cc4c","system_id":"levelo_inurba_marseille","lat":43.27912,"lon":5.38014,"is_reserved":false,"is_disabled":false,"rental_uris":{"android":"levelo://app?vid=6fa96e81-a119-436e-b985-1cf31a85cc4c","ios":"levelo://app?vid=6fa96e81-a119-436e-b985-1cf31a85cc4c"},"vehicle_type_id":"4","last_reported":1737378987,"current_range_meters":16000,"station_id":"ce4bhf92rcd13ifvqf50","pricing_plan_id":"cebpf4jnsgd1na2vs0mg"},{"bike_id":"0ce76e19-efa4-4fa2-87dc-0852b0947166","system_id":"levelo_inurba_marseille","lat":43.27492,"lon":5.42457,"is_reserved":false,"is_disabled":false,"rental_uris":{"android":"levelo://app?vid=0ce76e19-efa4-4fa2-87dc-0852b0947166","ios":"levelo://app?vid=0ce76e19-efa4-4fa2-87dc-0852b0947166"},"vehicle_type_id":"4","last_reported":1737378987,"current_range_meters":8000,"station_id":"ce4bhn92rcd13ifvqgrg","pricing_plan_id":"cebpf4jnsgd1na2vs0mg"},{"bike_id":"e768d22a-471b-44a7-9c0b-92942b2bfa50","system_id":"levelo_inurba_marseille","lat":43.243922,"lon":5.370594,"is_reserved":false,"is_disabled":false,"rental_uris":{"android":"levelo://app?vid=e768d22a-471b-44a7-9c0b-92942b2bfa50","ios":"levelo://app?vid=e768d22a-471b-44a7-9c0b-92942b2bfa50"},"vehicle_type_id":"4","last_reported":1737378987,"current_range_meters":28000,"station_id":"ce4bhhh2rcd13ifvqfk0","pricing_plan_id":"cebpf4jnsgd1na2vs0mg"},{"bike_id":"29709dd5-89d5-4afa-843d-98e99f944858","system_id":"levelo_inurba_marseille","lat":43.2999,"lon":5.37169,"is_reserved":false,"is_disabled":false,"rental_uris":{"android":"levelo://app?vid=29709dd5-89d5-4afa-843d-98e99f944858","ios":"levelo://app?vid=29709dd5-89d5-4afa-843d-98e99f944858"},"vehicle_type_id":"4","last_reported":1737378987,"current_range_meters":38800,"station_id":"ce4bgr92rcd13ifvqc7g","pricing_plan_id":"cebpf4jnsgd1na2vs0mg"},{"bike_id":"432dd31d-cc41-4b41-a4f4-a795e2e3aa37","system_id":"levelo_inurba_marseille","lat":43.298,"lon":5.38092,"is_reserved":false,"is_disabled":false,"rental_uris":{"android":"levelo://app?vid=432dd31d-cc41-4b41-a4f4-a795e2e3aa37","ios":"levelo://app?vid=432dd31d-cc41-4b41-a4f4-a795e2e3aa37"},"vehicle_type_id":"4","last_reported":1737378987,"current_range_meters":32800,"station_id":"ce4bgip2rcd13ifvqbb0","pricing_plan_id":"cebpf4jnsgd1na2vs0mg"},{"bike_id":"5e339aa2-ed7e-44c6-9974-2fdc1901c1ee","system_id":"levelo_inurba_marseille","lat":43.31756,"lon":5.39018,"is_reserved":false,"is_disabled":false,"rental_uris":{"android":"levelo://app?vid=5e339aa2-ed7e-44c6-9974-2fdc1901c1ee","ios":"levelo://app?vid=5e339aa2-ed7e-44c6-9974-2fdc1901c1ee"},"vehicle_type_id":"4","last_reported":1737378987,"current_range_meters":10800,"station_id":"ce4bhqp2rcd13ifvqhng","pricing_plan_id":"cebpf4jnsgd1na2vs0mg"},{"bike_id":"934f5896-b057-4efb-9f42-e7f88173ac1d","system_id":"levelo_inurba_marseille","lat":43.27321,"lon":5.39082,"is_reserved":false,"is_disabled":false,"rental_uris":{"android":"levelo://app?vid=934f5896-b057-4efb-9f42-e7f88173ac1d","ios":"levelo://app?vid=934f5896-b057-4efb-9f42-e7f88173ac1d"},"vehicle_type_id":"4","last_reported":1737378987,"current_range_meters":24000,"station_id":"ce4bhgp2rcd13ifvqfe0","pricing_plan_id":"cebpf4jnsgd1na2vs0mg"},{"bike_id":"f1381ec5-5631-48ce-98d1-b10c591c959f","system_id":"levelo_inurba_marseille","lat":43.27998,"lon":5.40016,"is_reserved":false,"is_disabled":false,"rental_uris":{"android":"levelo://app?vid=f1381ec5-5631-48ce-98d1-b10c591c959f","ios":"levelo://app?vid=f1381ec5-5631-48ce-98d1-b10c591c959f"},"vehicle_type_id":"4","last_reported":1737378987,"current_range_meters":20800,"station_id":"ce4bho92rcd13ifvqh4g","pricing_plan_id":"cebpf4jnsgd1na2vs0mg"},{"bike_id":"0e37a4bd-7850-41b7-91e1-556e8b5c7017","system_id":"levelo_inurba_marseille","lat":43.28146,"lon":5.42649,"is_reserved":false,"is_disabled":false,"rental_uris":{"android":"levelo://app?vid=0e37a4bd-7850-41b7-91e1-556e8b5c7017","ios":"levelo://app?vid=0e37a4bd-7850-41b7-91e1-556e8b5c7017"},"vehicle_type_id":"4","last_reported":1737378987,"current_range_meters":30000,"station_id":"ce4bhnh2rcd13ifvqgug","pricing_plan_id":"cebpf4jnsgd1na2vs0mg"},{"bike_id":"4ad51266-48e4-4d1b-8631-93a7a7c83fc9","system_id":"levelo_inurba_marseille","lat":43.30209,"lon":5.39462,"is_reserved":false,"is_disabled":false,"rental_uris":{"android":"levelo://app?vid=4ad51266-48e4-4d1b-8631-93a7a7c83fc9","ios":"levelo://app?vid=4ad51266-48e4-4d1b-8631-93a7a7c83fc9"},"vehicle_type_id":"4","last_reported":1737378987,"current_range_meters":12400,"station_id":"ce4bh0p2rcd13ifvqd70","pricing_plan_id":"cebpf4jnsgd1na2vs0mg"},{"bike_id":"726d19e3-8e15-462e-b816-e1720b7842d5","system_id":"levelo_inurba_marseille","lat":43.26778,"lon":5.39421,"is_reserved":false,"is_disabled":false,"rental_uris":{"android":"levelo://app?vid=726d19e3-8e15-462e-b816-e1720b7842d5","ios":"levelo://app?vid=726d19e3-8e15-462e-b816-e1720b7842d5"},"vehicle_type_id":"4","last_reported":1737378987,"current_range_meters":28000,"station_id":"ce4bhh12rcd13ifvqfg0","pricing_plan_id":"cebpf4jnsgd1na2vs0mg"},{"bike_id":"0fb4a906-1210-425c-8246-71b92a62dd57","system_id":"levelo_inurba_marseille","lat":43.32538,"lon":5.41468,"is_reserved":false,"is_disabled":false,"rental_uris":{"android":"levelo://app?vid=0fb4a906-1210-425c-8246-71b92a62dd57","ios":"levelo://app?vid=0fb4a906-1210-425c-8246-71b92a62dd57"},"vehicle_type_id":"4","last_reported":1737378987,"current_range_meters":35200,"station_id":"ce4bhq12rcd13ifvqhhg","pricing_plan_id":"cebpf4jnsgd1na2vs0mg"},{"bike_id":"5957b55c-bbf3-4d79-a9fa-182e34bda710","system_id":"levelo_inurba_marseille","lat":43.2668,"lon":5.40285,"is_reserved":false,"is_disabled":false,"rental_uris":{"android":"levelo://app?vid=5957b55c-bbf3-4d79-a9fa-182e34bda710","ios":"levelo://app?vid=5957b55c-bbf3-4d79-a9fa-182e34bda710"},"vehicle_type_id":"4","last_reported":1737378987,"current_range_meters":10000,"station_id":"","pricing_plan_id":"cebpf4jnsgd1na2vs0mg"},{"bike_id":"85ecc783-1dcd-4d7b-9945-51ef75ced28d","system_id":"levelo_inurba_marseille","lat":43.30299,"lon":5.3689,"is_reserved":false,"is_disabled":false,"rental_uris":{"android":"levelo://app?vid=85ecc783-1dcd-4d7b-9945-51ef75ced28d","ios":"levelo://app?vid=85ecc783-1dcd-4d7b-9945-51ef75ced28d"},"vehicle_type_id":"4","last_reported":1737378987,"current_range_meters":12400,"station_id":"ce4bgqh2rcd13ifvqc5g","pricing_plan_id":"cebpf4jnsgd1na2vs0mg"},{"bike_id":"f9b8259b-d590-4eb6-9928-0aa21c2990b1","system_id":"levelo_inurba_marseille","lat":43.28061,"lon":5.39666,"is_reserved":false,"is_disabled":false,"rental_uris":{"android":"levelo://app?vid=f9b8259b-d590-4eb6-9928-0aa21c2990b1","ios":"levelo://app?vid=f9b8259b-d590-4eb6-9928-0aa21c2990b1"},"vehicle_type_id":"4","last_reported":1737378987,"current_range_meters":20000,"station_id":"ce4bho12rcd13ifvqh2g","pricing_plan_id":"cebpf4jnsgd1na2vs0mg"},{"bike_id":"668f9767-c78d-438a-96bb-c0760f782967","system_id":"levelo_inurba_marseille","lat":43.26222,"lon":5.37926,"is_reserved":false,"is_disabled":false,"rental_uris":{"android":"levelo://app?vid=668f9767-c78d-438a-96bb-c0760f782967","ios":"levelo://app?vid=668f9767-c78d-438a-96bb-c0760f782967"},"vehicle_type_id":"4","last_reported":1737378987,"current_range_meters":32000,"station_id":"ce4bhjp2rcd13ifvqg90","pricing_plan_id":"cebpf4jnsgd1na2vs0mg"},{"bike_id":"b4fa5c01-cecc-49e4-9482-65309291a760","system_id":"levelo_inurba_marseille","lat":43.2499,"lon":5.38932,"is_reserved":false,"is_disabled":false,"rental_uris":{"android":"levelo://app?vid=b4fa5c01-cecc-49e4-9482-65309291a760","ios":"levelo://app?vid=b4fa5c01-cecc-49e4-9482-65309291a760"},"vehicle_type_id":"4","last_reported":1737378987,"current_range_meters":33200,"station_id":"ce4bhgp2rcd13ifvqfd0","pricing_plan_id":"cebpf4jnsgd1na2vs0mg"},{"bike_id":"508fb08a-89ba-4f4d-a1a9-980afbb62692","system_id":"levelo_inurba_marseille","lat":43.29285,"lon":5.36841,"is_reserved":false,"is_disabled":false,"rental_uris":{"android":"levelo://app?vid=508fb08a-89ba-4f4d-a1a9-980afbb62692","ios":"levelo://app?vid=508fb08a-89ba-4f4d-a1a9-980afbb62692"},"vehicle_type_id":"4","last_reported":1737378987,"current_range_meters":34000,"station_id":"ce4bhbp2rcd13ifvqesg","pricing_plan_id":"cebpf4jnsgd1na2vs0mg"},{"bike_id":"4f40d972-06fd-42b6-87d8-47b7f66628c5","system_id":"levelo_inurba_marseille","lat":43.23964,"lon":5.36638,"is_reserved":false,"is_disabled":false,"rental_uris":{"android":"levelo://app?vid=4f40d972-06fd-42b6-87d8-47b7f66628c5","ios":"levelo://app?vid=4f40d972-06fd-42b6-87d8-47b7f66628c5"},"vehicle_type_id":"4","last_reported":1737378987,"current_range_meters":6400,"station_id":"ce4bhi12rcd13ifvqfp0","pricing_plan_id":"cebpf4jnsgd1na2vs0mg"},{"bike_id":"a53a497d-ccde-403c-9698-5dddfd2c6208","system_id":"levelo_inurba_marseille","lat":43.24072,"lon":5.37758,"is_reserved":false,"is_disabled":false,"rental_uris":{"android":"levelo://app?vid=a53a497d-ccde-403c-9698-5dddfd2c6208","ios":"levelo://app?vid=a53a497d-ccde-403c-9698-5dddfd2c6208"},"vehicle_type_id":"4","last_reported":1737378987,"current_range_meters":36800,"station_id":"ce4bhnp2rcd13ifvqgvg","pricing_plan_id":"cebpf4jnsgd1na2vs0mg"},{"bike_id":"e9a66914-5b83-4153-97ca-555de5004504","system_id":"levelo_inurba_marseille","lat":43.31337,"lon":5.36714,"is_reserved":false,"is_disabled":false,"rental_uris":{"android":"levelo://app?vid=e9a66914-5b83-4153-97ca-555de5004504","ios":"levelo://app?vid=e9a66914-5b83-4153-97ca-555de5004504"},"vehicle_type_id":"4","last_reported":1737378987,"current_range_meters":18000,"station_id":"ce4bgr92rcd13ifvqc6g","pricing_plan_id":"cebpf4jnsgd1na2vs0mg"},{"bike_id":"55ffbcd1-eef7-48c6-8e1e-15dc3a2da4c1","system_id":"levelo_inurba_marseille","lat":43.28148,"lon":5.42639,"is_reserved":false,"is_disabled":false,"rental_uris":{"android":"levelo://app?vid=55ffbcd1-eef7-48c6-8e1e-15dc3a2da4c1","ios":"levelo://app?vid=55ffbcd1-eef7-48c6-8e1e-15dc3a2da4c1"},"vehicle_type_id":"4","last_reported":1737378987,"current_range_meters":26800,"station_id":"ce4bhnh2rcd13ifvqgug","pricing_plan_id":"cebpf4jnsgd1na2vs0mg"},{"bike_id":"c92cbb9f-5a8c-4f30-b00a-221ba31b944d","system_id":"levelo_inurba_marseille","lat":43.28423,"lon":5.34997,"is_reserved":false,"is_disabled":true,"rental_uris":{"android":"levelo://app?vid=c92cbb9f-5a8c-4f30-b00a-221ba31b944d","ios":"levelo://app?vid=c92cbb9f-5a8c-4f30-b00a-221ba31b944d"},"vehicle_type_id":"4","last_reported":1737378987,"current_range_meters":27200,"station_id":"ce4bhbh2rcd13ifvqepg","pricing_plan_id":"cebpf4jnsgd1na2vs0mg"},{"bike_id":"4405fe6e-bd2d-4fbe-9acf-bde9a26ee98b","system_id":"levelo_inurba_marseille","lat":43.3205,"lon":5.41545,"is_reserved":false,"is_disabled":false,"rental_uris":{"android":"levelo://app?vid=4405fe6e-bd2d-4fbe-9acf-bde9a26ee98b","ios":"levelo://app?vid=4405fe6e-bd2d-4fbe-9acf-bde9a26ee98b"},"vehicle_type_id":"4","last_reported":1737378987,"current_range_meters":18800,"station_id":"ce4bhq92rcd13ifvqhkg","pricing_plan_id":"cebpf4jnsgd1na2vs0mg"},{"bike_id":"c95773ea-3deb-4fd7-a02c-5d580aadf1b9","system_id":"levelo_inurba_marseille","lat":43.29316,"lon":5.37152,"is_reserved":false,"is_disabled":false,"rental_uris":{"android":"levelo://app?vid=c95773ea-3deb-4fd7-a02c-5d580aadf1b9","ios":"levelo://app?vid=c95773ea-3deb-4fd7-a02c-5d580aadf1b9"},"vehicle_type_id":"4","last_reported":1737378987,"current_range_meters":35600,"station_id":"ce4bgh92rcd13ifvqb40","pricing_plan_id":"cebpf4jnsgd1na2vs0mg"},{"bike_id":"2398b642-cd0a-4a16-abf3-3ac0b4a8c4a8","system_id":"levelo_inurba_marseille","lat":43.32468,"lon":5.36604,"is_reserved":false,"is_disabled":false,"rental_uris":{"android":"levelo://app?vid=2398b642-cd0a-4a16-abf3-3ac0b4a8c4a8","ios":"levelo://app?vid=2398b642-cd0a-4a16-abf3-3ac0b4a8c4a8"},"vehicle_type_id":"4","last_reported":1737378987,"current_range_meters":16000,"station_id":"ce4bhs12rcd13ifvqhvg","pricing_plan_id":"cebpf4jnsgd1na2vs0mg"},{"bike_id":"8338e30c-ee05-4f1f-82b9-a421d9f7a1ec","system_id":"levelo_inurba_marseille","lat":43.26965,"lon":5.38627,"is_reserved":false,"is_disabled":false,"rental_uris":{"android":"levelo://app?vid=8338e30c-ee05-4f1f-82b9-a421d9f7a1ec","ios":"levelo://app?vid=8338e30c-ee05-4f1f-82b9-a421d9f7a1ec"},"vehicle_type_id":"4","last_reported":1737378987,"current_range_meters":34800,"station_id":"ce4bhh92rcd13ifvqfh0","pricing_plan_id":"cebpf4jnsgd1na2vs0mg"},{"bike_id":"837bce4e-a7bd-4659-ac4a-3e7a7f8d3275","system_id":"levelo_inurba_marseille","lat":43.29908,"lon":5.38147,"is_reserved":false,"is_disabled":false,"rental_uris":{"android":"levelo://app?vid=837bce4e-a7bd-4659-ac4a-3e7a7f8d3275","ios":"levelo://app?vid=837bce4e-a7bd-4659-ac4a-3e7a7f8d3275"},"vehicle_type_id":"4","last_reported":1737378987,"current_range_meters":38400,"station_id":"ce4bgj12rcd13ifvqbc0","pricing_plan_id":"cebpf4jnsgd1na2vs0mg"},{"bike_id":"3133a507-5996-4484-a064-80f7bc3eca44","system_id":"levelo_inurba_marseille","lat":43.30321,"lon":5.40442,"is_reserved":false,"is_disabled":false,"rental_uris":{"android":"levelo://app?vid=3133a507-5996-4484-a064-80f7bc3eca44","ios":"levelo://app?vid=3133a507-5996-4484-a064-80f7bc3eca44"},"vehicle_type_id":"4","last_reported":1737378987,"current_range_meters":19600,"station_id":"ce4bh012rcd13ifvqd10","pricing_plan_id":"cebpf4jnsgd1na2vs0mg"},{"bike_id":"187a71e0-c1c3-4e71-8a26-0d48a596fe6b","system_id":"levelo_inurba_marseille","lat":43.25077,"lon":5.39527,"is_reserved":false,"is_disabled":false,"rental_uris":{"android":"levelo://app?vid=187a71e0-c1c3-4e71-8a26-0d48a596fe6b","ios":"levelo://app?vid=187a71e0-c1c3-4e71-8a26-0d48a596fe6b"},"vehicle_type_id":"4","last_reported":1737378987,"current_range_meters":30400,"station_id":"ce4bhm12rcd13ifvqgkg","pricing_plan_id":"cebpf4jnsgd1na2vs0mg"},{"bike_id":"aeeb7245-8a7c-4b79-b9ac-efca69f7818a","system_id":"levelo_inurba_marseille","lat":43.321096,"lon":5.36786,"is_reserved":false,"is_disabled":false,"rental_uris":{"android":"levelo://app?vid=aeeb7245-8a7c-4b79-b9ac-efca69f7818a","ios":"levelo://app?vid=aeeb7245-8a7c-4b79-b9ac-efca69f7818a"},"vehicle_type_id":"4","last_reported":1737378987,"current_range_meters":16000,"station_id":"ce4bhrh2rcd13ifvqhug","pricing_plan_id":"cebpf4jnsgd1na2vs0mg"},{"bike_id":"de34e565-00c6-4e74-886d-15951c671661","system_id":"levelo_inurba_marseille","lat":43.29048,"lon":5.39961,"is_reserved":false,"is_disabled":false,"rental_uris":{"android":"levelo://app?vid=de34e565-00c6-4e74-886d-15951c671661","ios":"levelo://app?vid=de34e565-00c6-4e74-886d-15951c671661"},"vehicle_type_id":"4","last_reported":1737378987,"current_range_meters":38800,"station_id":"ce4bh392rcd13ifvqdm0","pricing_plan_id":"cebpf4jnsgd1na2vs0mg"},{"bike_id":"9eb335b9-be9e-4d87-ab11-b7aad1d486a4","system_id":"levelo_inurba_marseille","lat":43.23152,"lon":5.43726,"is_reserved":false,"is_disabled":false,"rental_uris":{"android":"levelo://app?vid=9eb335b9-be9e-4d87-ab11-b7aad1d486a4","ios":"levelo://app?vid=9eb335b9-be9e-4d87-ab11-b7aad1d486a4"},"vehicle_type_id":"4","last_reported":1737378987,"current_range_meters":38000,"station_id":"ce4bhmp2rcd13ifvqgog","pricing_plan_id":"cebpf4jnsgd1na2vs0mg"},{"bike_id":"c545f56d-e86e-4a68-8ceb-abc1233e3e9c","system_id":"levelo_inurba_marseille","lat":43.3254,"lon":5.41435,"is_reserved":false,"is_disabled":false,"rental_uris":{"android":"levelo://app?vid=c545f56d-e86e-4a68-8ceb-abc1233e3e9c","ios":"levelo://app?vid=c545f56d-e86e-4a68-8ceb-abc1233e3e9c"},"vehicle_type_id":"4","last_reported":1737378987,"current_range_meters":28000,"station_id":"ce4bhq12rcd13ifvqhhg","pricing_plan_id":"cebpf4jnsgd1na2vs0mg"},{"bike_id":"2a0c7ace-241e-43f2-a6fd-4f5ea3a79063","system_id":"levelo_inurba_marseille","lat":43.31241,"lon":5.387195,"is_reserved":false,"is_disabled":false,"rental_uris":{"android":"levelo://app?vid=2a0c7ace-241e-43f2-a6fd-4f5ea3a79063","ios":"levelo://app?vid=2a0c7ace-241e-43f2-a6fd-4f5ea3a79063"},"vehicle_type_id":"4","last_reported":1737378987,"current_range_meters":6400,"station_id":"ce4bgt12rcd13ifvqcd0","pricing_plan_id":"cebpf4jnsgd1na2vs0mg"},{"bike_id":"703438ea-576b-4b38-85dd-11153e806ffb","system_id":"levelo_inurba_marseille","lat":43.27617,"lon":5.36117,"is_reserved":false,"is_disabled":false,"rental_uris":{"android":"levelo://app?vid=703438ea-576b-4b38-85dd-11153e806ffb","ios":"levelo://app?vid=703438ea-576b-4b38-85dd-11153e806ffb"},"vehicle_type_id":"4","last_reported":1737378987,"current_range_meters":39200,"station_id":"ce4bgj92rcd13ifvqbe0","pricing_plan_id":"cebpf4jnsgd1na2vs0mg"},{"bike_id":"5434439c-80a7-45ef-8e7d-a897cb833684","system_id":"levelo_inurba_marseille","lat":43.32421,"lon":5.36767,"is_reserved":false,"is_disabled":false,"rental_uris":{"android":"levelo://app?vid=5434439c-80a7-45ef-8e7d-a897cb833684","ios":"levelo://app?vid=5434439c-80a7-45ef-8e7d-a897cb833684"},"vehicle_type_id":"4","last_reported":1737378987,"current_range_meters":7200,"station_id":"","pricing_plan_id":"cebpf4jnsgd1na2vs0mg"},{"bike_id":"6a90710c-c516-4c6e-ae5f-b292940a7c14","system_id":"levelo_inurba_marseille","lat":43.29572,"lon":5.37523,"is_reserved":false,"is_disabled":false,"rental_uris":{"android":"levelo://app?vid=6a90710c-c516-4c6e-ae5f-b292940a7c14","ios":"levelo://app?vid=6a90710c-c516-4c6e-ae5f-b292940a7c14"},"vehicle_type_id":"4","last_reported":1737378987,"current_range_meters":27200,"station_id":"ce4bgh92rcd13ifvqb50","pricing_plan_id":"cebpf4jnsgd1na2vs0mg"},{"bike_id":"11fd930d-55ad-45a3-834b-9225c6541090","system_id":"levelo_inurba_marseille","lat":43.32476,"lon":5.36572,"is_reserved":false,"is_disabled":false,"rental_uris":{"android":"levelo://app?vid=11fd930d-55ad-45a3-834b-9225c6541090","ios":"levelo://app?vid=11fd930d-55ad-45a3-834b-9225c6541090"},"vehicle_type_id":"4","last_reported":1737378987,"current_range_meters":32000,"station_id":"ce4bhs12rcd13ifvqhvg","pricing_plan_id":"cebpf4jnsgd1na2vs0mg"},{"bike_id":"df00be52-92ae-4aee-985f-60baf0786455","system_id":"levelo_inurba_marseille","lat":43.27617,"lon":5.36111,"is_reserved":false,"is_disabled":false,"rental_uris":{"android":"levelo://app?vid=df00be52-92ae-4aee-985f-60baf0786455","ios":"levelo://app?vid=df00be52-92ae-4aee-985f-60baf0786455"},"vehicle_type_id":"4","last_reported":1737378987,"current_range_meters":24000,"station_id":"ce4bgj92rcd13ifvqbe0","pricing_plan_id":"cebpf4jnsgd1na2vs0mg"},{"bike_id":"50267a36-8428-4ee1-ac27-ac6a771a71af","system_id":"levelo_inurba_marseille","lat":43.33682,"lon":5.35584,"is_reserved":false,"is_disabled":true,"rental_uris":{"android":"levelo://app?vid=50267a36-8428-4ee1-ac27-ac6a771a71af","ios":"levelo://app?vid=50267a36-8428-4ee1-ac27-ac6a771a71af"},"vehicle_type_id":"4","last_reported":1737378987,"current_range_meters":800,"station_id":"","pricing_plan_id":"cebpf4jnsgd1na2vs0mg"},{"bike_id":"f5863b18-13a1-4c6e-92de-5668ea912ad3","system_id":"levelo_inurba_marseille","lat":43.26234,"lon":5.40439,"is_reserved":false,"is_disabled":true,"rental_uris":{"android":"levelo://app?vid=f5863b18-13a1-4c6e-92de-5668ea912ad3","ios":"levelo://app?vid=f5863b18-13a1-4c6e-92de-5668ea912ad3"},"vehicle_type_id":"4","last_reported":1737378987,"current_range_meters":0,"station_id":"","pricing_plan_id":"cebpf4jnsgd1na2vs0mg"},{"bike_id":"cf049ddd-38e4-4b30-b7de-6a43638ea252","system_id":"levelo_inurba_marseille","lat":43.27482,"lon":5.4245,"is_reserved":false,"is_disabled":false,"rental_uris":{"android":"levelo://app?vid=cf049ddd-38e4-4b30-b7de-6a43638ea252","ios":"levelo://app?vid=cf049ddd-38e4-4b30-b7de-6a43638ea252"},"vehicle_type_id":"4","last_reported":1737378987,"current_range_meters":36800,"station_id":"ce4bhn92rcd13ifvqgrg","pricing_plan_id":"cebpf4jnsgd1na2vs0mg"},{"bike_id":"eb6fcbf2-4dba-4dcc-a3a1-6b992d95097c","system_id":"levelo_inurba_marseille","lat":43.23972,"lon":5.3663,"is_reserved":false,"is_disabled":false,"rental_uris":{"android":"levelo://app?vid=eb6fcbf2-4dba-4dcc-a3a1-6b992d95097c","ios":"levelo://app?vid=eb6fcbf2-4dba-4dcc-a3a1-6b992d95097c"},"vehicle_type_id":"4","last_reported":1737378987,"current_range_meters":28000,"station_id":"ce4bhi12rcd13ifvqfp0","pricing_plan_id":"cebpf4jnsgd1na2vs0mg"},{"bike_id":"98625e41-0e51-4963-86cb-a6c6b49ecfc7","system_id":"levelo_inurba_marseille","lat":43.31765,"lon":5.39018,"is_reserved":false,"is_disabled":false,"rental_uris":{"android":"levelo://app?vid=98625e41-0e51-4963-86cb-a6c6b49ecfc7","ios":"levelo://app?vid=98625e41-0e51-4963-86cb-a6c6b49ecfc7"},"vehicle_type_id":"4","last_reported":1737378987,"current_range_meters":4400,"station_id":"ce4bhqp2rcd13ifvqhng","pricing_plan_id":"cebpf4jnsgd1na2vs0mg"},{"bike_id":"701ad8a5-4a2f-4eda-bee4-d8f2c0da4dac","system_id":"levelo_inurba_marseille","lat":43.298708,"lon":5.389136,"is_reserved":false,"is_disabled":true,"rental_uris":{"android":"levelo://app?vid=701ad8a5-4a2f-4eda-bee4-d8f2c0da4dac","ios":"levelo://app?vid=701ad8a5-4a2f-4eda-bee4-d8f2c0da4dac"},"vehicle_type_id":"4","last_reported":1737378987,"current_range_meters":25600,"station_id":"ce4bh392rcd13ifvqdl0","pricing_plan_id":"cebpf4jnsgd1na2vs0mg"},{"bike_id":"c7cc3d8a-71da-4ee2-a75b-e00177e5ac9a","system_id":"levelo_inurba_marseille","lat":43.26565,"lon":5.37288,"is_reserved":false,"is_disabled":false,"rental_uris":{"android":"levelo://app?vid=c7cc3d8a-71da-4ee2-a75b-e00177e5ac9a","ios":"levelo://app?vid=c7cc3d8a-71da-4ee2-a75b-e00177e5ac9a"},"vehicle_type_id":"4","last_reported":1737378987,"current_range_meters":38800,"station_id":"ce4bhg12rcd13ifvqf70","pricing_plan_id":"cebpf4jnsgd1na2vs0mg"},{"bike_id":"310291eb-51c1-4d9b-a9e0-6140421d3b91","system_id":"levelo_inurba_marseille","lat":43.26966,"lon":5.38148,"is_reserved":false,"is_disabled":false,"rental_uris":{"android":"levelo://app?vid=310291eb-51c1-4d9b-a9e0-6140421d3b91","ios":"levelo://app?vid=310291eb-51c1-4d9b-a9e0-6140421d3b91"},"vehicle_type_id":"4","last_reported":1737378987,"current_range_meters":10800,"station_id":"ce4bhf92rcd13ifvqf50","pricing_plan_id":"cebpf4jnsgd1na2vs0mg"},{"bike_id":"4fe58642-8ec3-4f25-a4fc-eb5dc3dc47a8","system_id":"levelo_inurba_marseille","lat":43.33542,"lon":5.3613,"is_reserved":false,"is_disabled":true,"rental_uris":{"android":"levelo://app?vid=4fe58642-8ec3-4f25-a4fc-eb5dc3dc47a8","ios":"levelo://app?vid=4fe58642-8ec3-4f25-a4fc-eb5dc3dc47a8"},"vehicle_type_id":"4","last_reported":1737378987,"current_range_meters":25600,"station_id":"","pricing_plan_id":"cebpf4jnsgd1na2vs0mg"},{"bike_id":"9cccd2ff-b864-466b-83c6-b52ec2815836","system_id":"levelo_inurba_marseille","lat":43.25698,"lon":5.41128,"is_reserved":false,"is_disabled":false,"rental_uris":{"android":"levelo://app?vid=9cccd2ff-b864-466b-83c6-b52ec2815836","ios":"levelo://app?vid=9cccd2ff-b864-466b-83c6-b52ec2815836"},"vehicle_type_id":"4","last_reported":1737378987,"current_range_meters":32400,"station_id":"ce4bhkp2rcd13ifvqgd0","pricing_plan_id":"cebpf4jnsgd1na2vs0mg"},{"bike_id":"8ba3986b-3e7d-44d2-b647-aea26edf2089","system_id":"levelo_inurba_marseille","lat":43.30539,"lon":5.36701,"is_reserved":false,"is_disabled":false,"rental_uris":{"android":"levelo://app?vid=8ba3986b-3e7d-44d2-b647-aea26edf2089","ios":"levelo://app?vid=8ba3986b-3e7d-44d2-b647-aea26edf2089"},"vehicle_type_id":"4","last_reported":1737378987,"current_range_meters":11200,"station_id":"ce4bgrp2rcd13ifvqc9g","pricing_plan_id":"cebpf4jnsgd1na2vs0mg"},{"bike_id":"26d9ca9f-42b6-4fd2-bd1c-abc472b20b7f","system_id":"levelo_inurba_marseille","lat":43.27369,"lon":5.36261,"is_reserved":false,"is_disabled":false,"rental_uris":{"android":"levelo://app?vid=26d9ca9f-42b6-4fd2-bd1c-abc472b20b7f","ios":"levelo://app?vid=26d9ca9f-42b6-4fd2-bd1c-abc472b20b7f"},"vehicle_type_id":"4","last_reported":1737378987,"current_range_meters":35600,"station_id":"ce4bhbh2rcd13ifvqeo0","pricing_plan_id":"cebpf4jnsgd1na2vs0mg"},{"bike_id":"b5b91842-f1aa-4bba-964f-7a9484225fb0","system_id":"levelo_inurba_marseille","lat":43.25858,"lon":5.39906,"is_reserved":false,"is_disabled":false,"rental_uris":{"android":"levelo://app?vid=b5b91842-f1aa-4bba-964f-7a9484225fb0","ios":"levelo://app?vid=b5b91842-f1aa-4bba-964f-7a9484225fb0"},"vehicle_type_id":"4","last_reported":1737378987,"current_range_meters":38800,"station_id":"ce4bhl92rcd13ifvqghg","pricing_plan_id":"cebpf4jnsgd1na2vs0mg"},{"bike_id":"d93f7db5-a745-4a7d-979a-723fda422ed0","system_id":"levelo_inurba_marseille","lat":43.31492,"lon":5.37308,"is_reserved":false,"is_disabled":false,"rental_uris":{"android":"levelo://app?vid=d93f7db5-a745-4a7d-979a-723fda422ed0","ios":"levelo://app?vid=d93f7db5-a745-4a7d-979a-723fda422ed0"},"vehicle_type_id":"4","last_reported":1737378987,"current_range_meters":38800,"station_id":"ce4bgt12rcd13ifvqcd0","pricing_plan_id":"cebpf4jnsgd1na2vs0mg"},{"bike_id":"13a9853e-21c2-4d7a-8ae7-af374064a8b8","system_id":"levelo_inurba_marseille","lat":43.31799,"lon":5.374,"is_reserved":false,"is_disabled":false,"rental_uris":{"android":"levelo://app?vid=13a9853e-21c2-4d7a-8ae7-af374064a8b8","ios":"levelo://app?vid=13a9853e-21c2-4d7a-8ae7-af374064a8b8"},"vehicle_type_id":"4","last_reported":1737378987,"current_range_meters":22000,"station_id":"","pricing_plan_id":"cebpf4jnsgd1na2vs0mg"},{"bike_id":"60b7d049-237a-4dbd-ad0c-436ecde1802f","system_id":"levelo_inurba_marseille","lat":43.232,"lon":5.35558,"is_reserved":false,"is_disabled":false,"rental_uris":{"android":"levelo://app?vid=60b7d049-237a-4dbd-ad0c-436ecde1802f","ios":"levelo://app?vid=60b7d049-237a-4dbd-ad0c-436ecde1802f"},"vehicle_type_id":"4","last_reported":1737378987,"current_range_meters":24800,"station_id":"ce4bhu92rcd13ifvqi70","pricing_plan_id":"cebpf4jnsgd1na2vs0mg"},{"bike_id":"118d8acc-7373-4c07-b70f-a31c57077087","system_id":"levelo_inurba_marseille","lat":43.31496,"lon":5.3731,"is_reserved":false,"is_disabled":false,"rental_uris":{"android":"levelo://app?vid=118d8acc-7373-4c07-b70f-a31c57077087","ios":"levelo://app?vid=118d8acc-7373-4c07-b70f-a31c57077087"},"vehicle_type_id":"4","last_reported":1737378987,"current_range_meters":28400,"station_id":"ce4bgt12rcd13ifvqcd0","pricing_plan_id":"cebpf4jnsgd1na2vs0mg"},{"bike_id":"23a5b3f4-0f7a-4a4e-8090-ef0fdae8d7e5","system_id":"levelo_inurba_marseille","lat":43.32474,"lon":5.36587,"is_reserved":false,"is_disabled":false,"rental_uris":{"android":"levelo://app?vid=23a5b3f4-0f7a-4a4e-8090-ef0fdae8d7e5","ios":"levelo://app?vid=23a5b3f4-0f7a-4a4e-8090-ef0fdae8d7e5"},"vehicle_type_id":"4","last_reported":1737378987,"current_range_meters":14800,"station_id":"ce4bhs12rcd13ifvqhvg","pricing_plan_id":"cebpf4jnsgd1na2vs0mg"},{"bike_id":"cdcea886-7f2c-4b2d-adbd-5ee872de5944","system_id":"levelo_inurba_marseille","lat":43.304962,"lon":5.379658,"is_reserved":false,"is_disabled":false,"rental_uris":{"android":"levelo://app?vid=cdcea886-7f2c-4b2d-adbd-5ee872de5944","ios":"levelo://app?vid=cdcea886-7f2c-4b2d-adbd-5ee872de5944"},"vehicle_type_id":"4","last_reported":1737378987,"current_range_meters":8000,"station_id":"","pricing_plan_id":"cebpf4jnsgd1na2vs0mg"},{"bike_id":"e53b2507-6614-42f0-97ea-66eebc4709af","system_id":"levelo_inurba_marseille","lat":43.24803,"lon":5.37453,"is_reserved":false,"is_disabled":false,"rental_uris":{"android":"levelo://app?vid=e53b2507-6614-42f0-97ea-66eebc4709af","ios":"levelo://app?vid=e53b2507-6614-42f0-97ea-66eebc4709af"},"vehicle_type_id":"4","last_reported":1737378987,"current_range_meters":39200,"station_id":"ce4bhgh2rcd13ifvqfb0","pricing_plan_id":"cebpf4jnsgd1na2vs0mg"},{"bike_id":"8a3a0fcc-7ef4-44c2-a48f-4191b9c60868","system_id":"levelo_inurba_marseille","lat":43.32478,"lon":5.36549,"is_reserved":false,"is_disabled":false,"rental_uris":{"android":"levelo://app?vid=8a3a0fcc-7ef4-44c2-a48f-4191b9c60868","ios":"levelo://app?vid=8a3a0fcc-7ef4-44c2-a48f-4191b9c60868"},"vehicle_type_id":"4","last_reported":1737378987,"current_range_meters":4400,"station_id":"ce4bhs12rcd13ifvqhvg","pricing_plan_id":"cebpf4jnsgd1na2vs0mg"},{"bike_id":"423ace4f-d89a-418c-9d4d-6b96b1d05757","system_id":"levelo_inurba_marseille","lat":43.29896,"lon":5.37471,"is_reserved":false,"is_disabled":false,"rental_uris":{"android":"levelo://app?vid=423ace4f-d89a-418c-9d4d-6b96b1d05757","ios":"levelo://app?vid=423ace4f-d89a-418c-9d4d-6b96b1d05757"},"vehicle_type_id":"4","last_reported":1737378987,"current_range_meters":3200,"station_id":"ce4bgjh2rcd13ifvqbg0","pricing_plan_id":"cebpf4jnsgd1na2vs0mg"},{"bike_id":"c73224c5-8662-473f-8844-f010af6d2952","system_id":"levelo_inurba_marseille","lat":43.27194,"lon":5.40986,"is_reserved":false,"is_disabled":false,"rental_uris":{"android":"levelo://app?vid=c73224c5-8662-473f-8844-f010af6d2952","ios":"levelo://app?vid=c73224c5-8662-473f-8844-f010af6d2952"},"vehicle_type_id":"4","last_reported":1737378987,"current_range_meters":28800,"station_id":"ce4bhl12rcd13ifvqgf0","pricing_plan_id":"cebpf4jnsgd1na2vs0mg"},{"bike_id":"95b517d0-9dcf-47f9-8053-773bec6e6a69","system_id":"levelo_inurba_marseille","lat":43.26695,"lon":5.39531,"is_reserved":false,"is_disabled":false,"rental_uris":{"android":"levelo://app?vid=95b517d0-9dcf-47f9-8053-773bec6e6a69","ios":"levelo://app?vid=95b517d0-9dcf-47f9-8053-773bec6e6a69"},"vehicle_type_id":"4","last_reported":1737378987,"current_range_meters":8400,"station_id":"","pricing_plan_id":"cebpf4jnsgd1na2vs0mg"},{"bike_id":"ef6995fd-e68e-4985-8c9d-7187adb30bbc","system_id":"levelo_inurba_marseille","lat":43.24652,"lon":5.38908,"is_reserved":false,"is_disabled":false,"rental_uris":{"android":"levelo://app?vid=ef6995fd-e68e-4985-8c9d-7187adb30bbc","ios":"levelo://app?vid=ef6995fd-e68e-4985-8c9d-7187adb30bbc"},"vehicle_type_id":"4","last_reported":1737378987,"current_range_meters":38800,"station_id":"ce4bhg12rcd13ifvqf60","pricing_plan_id":"cebpf4jnsgd1na2vs0mg"},{"bike_id":"1bb34617-4618-423d-9c21-ab7d7e29d889","system_id":"levelo_inurba_marseille","lat":43.29037,"lon":5.39965,"is_reserved":false,"is_disabled":false,"rental_uris":{"android":"levelo://app?vid=1bb34617-4618-423d-9c21-ab7d7e29d889","ios":"levelo://app?vid=1bb34617-4618-423d-9c21-ab7d7e29d889"},"vehicle_type_id":"4","last_reported":1737378987,"current_range_meters":26800,"station_id":"ce4bh392rcd13ifvqdm0","pricing_plan_id":"cebpf4jnsgd1na2vs0mg"},{"bike_id":"47ad60ef-9d71-4c2b-9c0f-48487854fa86","system_id":"levelo_inurba_marseille","lat":43.29651,"lon":5.37177,"is_reserved":false,"is_disabled":false,"rental_uris":{"android":"levelo://app?vid=47ad60ef-9d71-4c2b-9c0f-48487854fa86","ios":"levelo://app?vid=47ad60ef-9d71-4c2b-9c0f-48487854fa86"},"vehicle_type_id":"4","last_reported":1737378987,"current_range_meters":38400,"station_id":"ce4bgnh2rcd13ifvqc0g","pricing_plan_id":"cebpf4jnsgd1na2vs0mg"},{"bike_id":"185a18be-256a-449f-b1ce-9c4168fef013","system_id":"levelo_inurba_marseille","lat":43.26566,"lon":5.3901,"is_reserved":false,"is_disabled":false,"rental_uris":{"android":"levelo://app?vid=185a18be-256a-449f-b1ce-9c4168fef013","ios":"levelo://app?vid=185a18be-256a-449f-b1ce-9c4168fef013"},"vehicle_type_id":"4","last_reported":1737378987,"current_range_meters":20000,"station_id":"ce4bhe12rcd13ifvqf30","pricing_plan_id":"cebpf4jnsgd1na2vs0mg"},{"bike_id":"9ddd4fad-e6cd-4c62-b9ad-05275d7fbfc1","system_id":"levelo_inurba_marseille","lat":43.27494,"lon":5.4245,"is_reserved":false,"is_disabled":false,"rental_uris":{"android":"levelo://app?vid=9ddd4fad-e6cd-4c62-b9ad-05275d7fbfc1","ios":"levelo://app?vid=9ddd4fad-e6cd-4c62-b9ad-05275d7fbfc1"},"vehicle_type_id":"4","last_reported":1737378987,"current_range_meters":19600,"station_id":"ce4bhn92rcd13ifvqgrg","pricing_plan_id":"cebpf4jnsgd1na2vs0mg"},{"bike_id":"b9714942-6669-482c-91f3-a89014ba1447","system_id":"levelo_inurba_marseille","lat":43.30895,"lon":5.36852,"is_reserved":false,"is_disabled":false,"rental_uris":{"android":"levelo://app?vid=b9714942-6669-482c-91f3-a89014ba1447","ios":"levelo://app?vid=b9714942-6669-482c-91f3-a89014ba1447"},"vehicle_type_id":"4","last_reported":1737378987,"current_range_meters":33200,"station_id":"ce4bgn92rcd13ifvqbvg","pricing_plan_id":"cebpf4jnsgd1na2vs0mg"},{"bike_id":"202e79a8-237c-46a9-9026-5c40c313c8a4","system_id":"levelo_inurba_marseille","lat":43.29305,"lon":5.37437,"is_reserved":false,"is_disabled":false,"rental_uris":{"android":"levelo://app?vid=202e79a8-237c-46a9-9026-5c40c313c8a4","ios":"levelo://app?vid=202e79a8-237c-46a9-9026-5c40c313c8a4"},"vehicle_type_id":"4","last_reported":1737378987,"current_range_meters":20000,"station_id":"ce4bgi12rcd13ifvqb70","pricing_plan_id":"cebpf4jnsgd1na2vs0mg"},{"bike_id":"153ca213-b4e0-4ad1-91ba-a42081c94330","system_id":"levelo_inurba_marseille","lat":43.28701,"lon":5.3793,"is_reserved":false,"is_disabled":false,"rental_uris":{"android":"levelo://app?vid=153ca213-b4e0-4ad1-91ba-a42081c94330","ios":"levelo://app?vid=153ca213-b4e0-4ad1-91ba-a42081c94330"},"vehicle_type_id":"4","last_reported":1737378987,"current_range_meters":28800,"station_id":"ce4bh9p2rcd13ifvqec0","pricing_plan_id":"cebpf4jnsgd1na2vs0mg"},{"bike_id":"432c47ae-0380-4e8c-833a-83a413fc293f","system_id":"levelo_inurba_marseille","lat":43.28142,"lon":5.42661,"is_reserved":false,"is_disabled":false,"rental_uris":{"android":"levelo://app?vid=432c47ae-0380-4e8c-833a-83a413fc293f","ios":"levelo://app?vid=432c47ae-0380-4e8c-833a-83a413fc293f"},"vehicle_type_id":"4","last_reported":1737378987,"current_range_meters":27600,"station_id":"ce4bhnh2rcd13ifvqgug","pricing_plan_id":"cebpf4jnsgd1na2vs0mg"},{"bike_id":"4dda61a9-3829-4ace-85ae-49fcc3ca21e5","system_id":"levelo_inurba_marseille","lat":43.23147,"lon":5.43708,"is_reserved":false,"is_disabled":false,"rental_uris":{"android":"levelo://app?vid=4dda61a9-3829-4ace-85ae-49fcc3ca21e5","ios":"levelo://app?vid=4dda61a9-3829-4ace-85ae-49fcc3ca21e5"},"vehicle_type_id":"4","last_reported":1737378987,"current_range_meters":18000,"station_id":"ce4bhmp2rcd13ifvqgog","pricing_plan_id":"cebpf4jnsgd1na2vs0mg"},{"bike_id":"c3a502cf-8ade-4420-87b0-051a6b1ff1d3","system_id":"levelo_inurba_marseille","lat":43.29422,"lon":5.38628,"is_reserved":false,"is_disabled":false,"rental_uris":{"android":"levelo://app?vid=c3a502cf-8ade-4420-87b0-051a6b1ff1d3","ios":"levelo://app?vid=c3a502cf-8ade-4420-87b0-051a6b1ff1d3"},