{"last_updated":1771230884,"ttl":60,"version":"2.2","data":{"bikes":[{"bike_id":"cc9d49a9-78fd-4f5f-9bf8-78f75fe0124f","system_id":"levelo_inurba_marseille","lat":43.246497,"lon":5.388872,"is_reserved":false,"is_disabled":true,"rental_uris":{"android":"levelo://app?vid=cc9d49a9-78fd-4f5f-9bf8-78f75fe0124f","ios":"levelo://app?vid=cc9d49a9-78fd-4f5f-9bf8-78f75fe0124f"},"vehicle_type_id":"4","last_reported":1771230885,"current_range_meters":9200,"station_id":"ce4bhg12rcd13ifvqf60","pricing_plan_id":"cebpf4jnsgd1na2vs0mg"},{"bike_id":"5b117328-0b0e-49a5-8c93-2f707e332119","system_id":"levelo_inurba_marseille","lat":43.27609,"lon":5.36124,"is_reserved":false,"is_disabled":false,"rental_uris":{"android":"levelo://app?vid=5b117328-0b0e-49a5-8c93-2f707e332119","ios":"levelo://app?vid=5b117328-0b0e-49a5-8c93-2f707e332119"},"vehicle_type_id":"4","last_reported":1771230885,"current_range_meters":39200,"station_id":"ce4bgj92rcd13ifvqbe0","pricing_plan_id":"cebpf4jnsgd1na2vs0mg"},{"bike_id":"08d07d0e-dcac-4228-bab0-2d6292ee03a2","system_id":"levelo_inurba_marseille","lat":43.337444,"lon":5.374475,"is_reserved":false,"is_disabled":true,"rental_uris":{"android":"levelo://app?vid=08d07d0e-dcac-4228-bab0-2d6292ee03a2","ios":"levelo://app?vid=08d07d0e-dcac-4228-bab0-2d6292ee03a2"},"vehicle_type_id":"4","last_reported":1771230885,"current_range_meters":16000,"station_id":"","pricing_plan_id":"cebpf4jnsgd1na2vs0mg"},{"bike_id":"76132435-5045-4bd2-a5fb-d0563882e711","system_id":"levelo_inurba_marseille","lat":43.30078,"lon":5.39088,"is_reserved":false,"is_disabled":false,"rental_uris":{"android":"levelo://app?vid=76132435-5045-4bd2-a5fb-d0563882e711","ios":"levelo://app?vid=76132435-5045-4bd2-a5fb-d0563882e711"},"vehicle_type_id":"4","last_reported":1771230885,"current_range_meters":39200,"station_id":"ce4bh192rcd13ifvqdb0","pricing_plan_id":"cebpf4jnsgd1na2vs0mg"},{"bike_id":"249b4bcc-b037-406e-a42d-16f49123d9cd","system_id":"levelo_inurba_marseille","lat":43.30123,"lon":5.36664,"is_reserved":false,"is_disabled":false,"rental_uris":{"android":"levelo://app?vid=249b4bcc-b037-406e-a42d-16f49123d9cd","ios":"levelo://app?vid=249b4bcc-b037-406e-a42d-16f49123d9cd"},"vehicle_type_id":"4","last_reported":1771230885,"current_range_meters":12800,"station_id":"ce4bgrh2rcd13ifvqc8g","pricing_plan_id":"cebpf4jnsgd1na2vs0mg"},{"bike_id":"d7118046-cefa-4587-89ed-6c45cd917a4f","system_id":"levelo_inurba_marseille","lat":43.23968,"lon":5.36616,"is_reserved":false,"is_disabled":false,"rental_uris":{"android":"levelo://app?vid=d7118046-cefa-4587-89ed-6c45cd917a4f","ios":"levelo://app?vid=d7118046-cefa-4587-89ed-6c45cd917a4f"},"vehicle_type_id":"4","last_reported":1771230885,"current_range_meters":21600,"station_id":"ce4bhi12rcd13ifvqfp0","pricing_plan_id":"cebpf4jnsgd1na2vs0mg"},{"bike_id":"a13fe990-6c4a-435a-961f-20dee661e516","system_id":"levelo_inurba_marseille","lat":43.31355,"lon":5.36716,"is_reserved":false,"is_disabled":false,"rental_uris":{"android":"levelo://app?vid=a13fe990-6c4a-435a-961f-20dee661e516","ios":"levelo://app?vid=a13fe990-6c4a-435a-961f-20dee661e516"},"vehicle_type_id":"4","last_reported":1771230885,"current_range_meters":39200,"station_id":"ce4bgr92rcd13ifvqc6g","pricing_plan_id":"cebpf4jnsgd1na2vs0mg"},{"bike_id":"da741c06-35ce-436f-a47f-9d88cf45600f","system_id":"levelo_inurba_marseille","lat":43.2894,"lon":5.39659,"is_reserved":false,"is_disabled":true,"rental_uris":{"android":"levelo://app?vid=da741c06-35ce-436f-a47f-9d88cf45600f","ios":"levelo://app?vid=da741c06-35ce-436f-a47f-9d88cf45600f"},"vehicle_type_id":"4","last_reported":1771230885,"current_range_meters":17200,"station_id":"ce4bh3h2rcd13ifvqdn0","pricing_plan_id":"cebpf4jnsgd1na2vs0mg"},{"bike_id":"6e07964d-6fe0-4880-a3fa-e2373dfa83a6","system_id":"levelo_inurba_marseille","lat":43.33167,"lon":5.37684,"is_reserved":false,"is_disabled":false,"rental_uris":{"android":"levelo://app?vid=6e07964d-6fe0-4880-a3fa-e2373dfa83a6","ios":"levelo://app?vid=6e07964d-6fe0-4880-a3fa-e2373dfa83a6"},"vehicle_type_id":"4","last_reported":1771230885,"current_range_meters":32000,"station_id":"st_d46cu089ee8s73dldbu0","pricing_plan_id":"cebpf4jnsgd1na2vs0mg"},{"bike_id":"ab2171ac-c6cc-4d84-a4b5-83416484fd82","system_id":"levelo_inurba_marseille","lat":43.30154,"lon":5.38028,"is_reserved":false,"is_disabled":true,"rental_uris":{"android":"levelo://app?vid=ab2171ac-c6cc-4d84-a4b5-83416484fd82","ios":"levelo://app?vid=ab2171ac-c6cc-4d84-a4b5-83416484fd82"},"vehicle_type_id":"4","last_reported":1771230885,"current_range_meters":17200,"station_id":"ce4bgjp2rcd13ifvqbh0","pricing_plan_id":"cebpf4jnsgd1na2vs0mg"},{"bike_id":"33e04ab4-8566-4c76-a0fd-aad45455c18f","system_id":"levelo_inurba_marseille","lat":43.24745,"lon":5.37503,"is_reserved":false,"is_disabled":false,"rental_uris":{"android":"levelo://app?vid=33e04ab4-8566-4c76-a0fd-aad45455c18f","ios":"levelo://app?vid=33e04ab4-8566-4c76-a0fd-aad45455c18f"},"vehicle_type_id":"4","last_reported":1771230885,"current_range_meters":38800,"station_id":"","pricing_plan_id":"cebpf4jnsgd1na2vs0mg"},{"bike_id":"ddd6d63e-cae1-40a5-a1c8-c6689068e65c","system_id":"levelo_inurba_marseille","lat":43.26523,"lon":5.37339,"is_reserved":false,"is_disabled":false,"rental_uris":{"android":"levelo://app?vid=ddd6d63e-cae1-40a5-a1c8-c6689068e65c","ios":"levelo://app?vid=ddd6d63e-cae1-40a5-a1c8-c6689068e65c"},"vehicle_type_id":"4","last_reported":1771230885,"current_range_meters":39200,"station_id":"ce4bhg12rcd13ifvqf70","pricing_plan_id":"cebpf4jnsgd1na2vs0mg"},{"bike_id":"21dad158-c679-436c-89c8-cc36c7b585be","system_id":"levelo_inurba_marseille","lat":43.2986,"lon":5.37364,"is_reserved":false,"is_disabled":true,"rental_uris":{"android":"levelo://app?vid=21dad158-c679-436c-89c8-cc36c7b585be","ios":"levelo://app?vid=21dad158-c679-436c-89c8-cc36c7b585be"},"vehicle_type_id":"4","last_reported":1771230885,"current_range_meters":12800,"station_id":"","pricing_plan_id":"cebpf4jnsgd1na2vs0mg"},{"bike_id":"ba2f6109-6dd2-4f22-99e1-12358684d151","system_id":"levelo_inurba_marseille","lat":43.25934,"lon":5.40891,"is_reserved":false,"is_disabled":false,"rental_uris":{"android":"levelo://app?vid=ba2f6109-6dd2-4f22-99e1-12358684d151","ios":"levelo://app?vid=ba2f6109-6dd2-4f22-99e1-12358684d151"},"vehicle_type_id":"4","last_reported":1771230885,"current_range_meters":19200,"station_id":"ce4bhm92rcd13ifvqglg","pricing_plan_id":"cebpf4jnsgd1na2vs0mg"},{"bike_id":"a24de0ea-9252-472d-acc5-87f0fa9008bb","system_id":"levelo_inurba_marseille","lat":43.304207,"lon":5.412811,"is_reserved":false,"is_disabled":false,"rental_uris":{"android":"levelo://app?vid=a24de0ea-9252-472d-acc5-87f0fa9008bb","ios":"levelo://app?vid=a24de0ea-9252-472d-acc5-87f0fa9008bb"},"vehicle_type_id":"4","last_reported":1771230885,"current_range_meters":13600,"station_id":"ce4bhop2rcd13ifvqh8g","pricing_plan_id":"cebpf4jnsgd1na2vs0mg"},{"bike_id":"737b445b-d830-4a72-8221-63d3a5ac7bdc","system_id":"levelo_inurba_marseille","lat":43.30311,"lon":5.36893,"is_reserved":false,"is_disabled":false,"rental_uris":{"android":"levelo://app?vid=737b445b-d830-4a72-8221-63d3a5ac7bdc","ios":"levelo://app?vid=737b445b-d830-4a72-8221-63d3a5ac7bdc"},"vehicle_type_id":"4","last_reported":1771230885,"current_range_meters":32000,"station_id":"ce4bgqh2rcd13ifvqc5g","pricing_plan_id":"cebpf4jnsgd1na2vs0mg"},{"bike_id":"63fc5420-e59e-4f54-b745-b29e7c0ee16c","system_id":"levelo_inurba_marseille","lat":43.27205,"lon":5.39207,"is_reserved":false,"is_disabled":true,"rental_uris":{"android":"levelo://app?vid=63fc5420-e59e-4f54-b745-b29e7c0ee16c","ios":"levelo://app?vid=63fc5420-e59e-4f54-b745-b29e7c0ee16c"},"vehicle_type_id":"4","last_reported":1771230885,"current_range_meters":9200,"station_id":"ce4bhhp2rcd13ifvqfm0","pricing_plan_id":"cebpf4jnsgd1na2vs0mg"},{"bike_id":"1a53623d-2622-472e-9c76-225e0c7aaffd","system_id":"levelo_inurba_marseille","lat":43.28672,"lon":5.38666,"is_reserved":false,"is_disabled":false,"rental_uris":{"android":"levelo://app?vid=1a53623d-2622-472e-9c76-225e0c7aaffd","ios":"levelo://app?vid=1a53623d-2622-472e-9c76-225e0c7aaffd"},"vehicle_type_id":"4","last_reported":1771230885,"current_range_meters":30000,"station_id":"ce4bh492rcd13ifvqdug","pricing_plan_id":"cebpf4jnsgd1na2vs0mg"},{"bike_id":"25b3ed16-870d-420e-8e25-29606227028a","system_id":"levelo_inurba_marseille","lat":43.31114,"lon":5.37771,"is_reserved":false,"is_disabled":false,"rental_uris":{"android":"levelo://app?vid=25b3ed16-870d-420e-8e25-29606227028a","ios":"levelo://app?vid=25b3ed16-870d-420e-8e25-29606227028a"},"vehicle_type_id":"4","last_reported":1771230885,"current_range_meters":29600,"station_id":"ce4bgt92rcd13ifvqcg0","pricing_plan_id":"cebpf4jnsgd1na2vs0mg"},{"bike_id":"9f69e078-6e7e-418b-a83d-2a6c15c9748b","system_id":"levelo_inurba_marseille","lat":43.24962,"lon":5.40461,"is_reserved":false,"is_disabled":false,"rental_uris":{"android":"levelo://app?vid=9f69e078-6e7e-418b-a83d-2a6c15c9748b","ios":"levelo://app?vid=9f69e078-6e7e-418b-a83d-2a6c15c9748b"},"vehicle_type_id":"4","last_reported":1771230885,"current_range_meters":29600,"station_id":"st_d2ngiaodas8pm72gd1h0","pricing_plan_id":"cebpf4jnsgd1na2vs0mg"},{"bike_id":"05410587-b482-4fdf-9b03-646f6d5cb761","system_id":"levelo_inurba_marseille","lat":43.23807,"lon":5.36631,"is_reserved":false,"is_disabled":false,"rental_uris":{"android":"levelo://app?vid=05410587-b482-4fdf-9b03-646f6d5cb761","ios":"levelo://app?vid=05410587-b482-4fdf-9b03-646f6d5cb761"},"vehicle_type_id":"4","last_reported":1771230885,"current_range_meters":34000,"station_id":"ce4bhi12rcd13ifvqfp0","pricing_plan_id":"cebpf4jnsgd1na2vs0mg"},{"bike_id":"8d13f02f-c6ca-440d-87fb-8fa7316dbdf2","system_id":"levelo_inurba_marseille","lat":43.29547,"lon":5.37504,"is_reserved":false,"is_disabled":true,"rental_uris":{"android":"levelo://app?vid=8d13f02f-c6ca-440d-87fb-8fa7316dbdf2","ios":"levelo://app?vid=8d13f02f-c6ca-440d-87fb-8fa7316dbdf2"},"vehicle_type_id":"4","last_reported":1771230885,"current_range_meters":38400,"station_id":"ce4bgh92rcd13ifvqb50","pricing_plan_id":"cebpf4jnsgd1na2vs0mg"},{"bike_id":"bfa1512b-b451-4888-b440-e31e8511cf31","system_id":"levelo_inurba_marseille","lat":43.28966,"lon":5.36633,"is_reserved":false,"is_disabled":true,"rental_uris":{"android":"levelo://app?vid=bfa1512b-b451-4888-b440-e31e8511cf31","ios":"levelo://app?vid=bfa1512b-b451-4888-b440-e31e8511cf31"},"vehicle_type_id":"4","last_reported":1771230885,"current_range_meters":27200,"station_id":"","pricing_plan_id":"cebpf4jnsgd1na2vs0mg"},{"bike_id":"e3b32c52-dc82-4135-af2a-b9cb794cfa1d","system_id":"levelo_inurba_marseille","lat":43.27208,"lon":5.39181,"is_reserved":false,"is_disabled":true,"rental_uris":{"android":"levelo://app?vid=e3b32c52-dc82-4135-af2a-b9cb794cfa1d","ios":"levelo://app?vid=e3b32c52-dc82-4135-af2a-b9cb794cfa1d"},"vehicle_type_id":"4","last_reported":1771230885,"current_range_meters":28400,"station_id":"ce4bhdp2rcd13ifvqf20","pricing_plan_id":"cebpf4jnsgd1na2vs0mg"},{"bike_id":"6be9b2af-67ac-4936-b1f5-021f59ac2378","system_id":"levelo_inurba_marseille","lat":43.29559,"lon":5.37514,"is_reserved":false,"is_disabled":false,"rental_uris":{"android":"levelo://app?vid=6be9b2af-67ac-4936-b1f5-021f59ac2378","ios":"levelo://app?vid=6be9b2af-67ac-4936-b1f5-021f59ac2378"},"vehicle_type_id":"4","last_reported":1771230885,"current_range_meters":38400,"station_id":"ce4bgh92rcd13ifvqb50","pricing_plan_id":"cebpf4jnsgd1na2vs0mg"},{"bike_id":"268b09e1-26f0-432c-9316-9bc5f1c54efb","system_id":"levelo_inurba_marseille","lat":43.32431,"lon":5.36555,"is_reserved":false,"is_disabled":false,"rental_uris":{"android":"levelo://app?vid=268b09e1-26f0-432c-9316-9bc5f1c54efb","ios":"levelo://app?vid=268b09e1-26f0-432c-9316-9bc5f1c54efb"},"vehicle_type_id":"4","last_reported":1771230885,"current_range_meters":30400,"station_id":"","pricing_plan_id":"cebpf4jnsgd1na2vs0mg"},{"bike_id":"96ba3f4f-0e70-4352-8e6b-4135d6897805","system_id":"levelo_inurba_marseille","lat":43.25505,"lon":5.37665,"is_reserved":false,"is_disabled":true,"rental_uris":{"android":"levelo://app?vid=96ba3f4f-0e70-4352-8e6b-4135d6897805","ios":"levelo://app?vid=96ba3f4f-0e70-4352-8e6b-4135d6897805"},"vehicle_type_id":"4","last_reported":1771230885,"current_range_meters":0,"station_id":"ce4bhh12rcd13ifvqff0","pricing_plan_id":"cebpf4jnsgd1na2vs0mg"},{"bike_id":"bbfef9ce-d112-4da7-a443-00b56ec1c9fe","system_id":"levelo_inurba_marseille","lat":43.24174,"lon":5.36389,"is_reserved":false,"is_disabled":true,"rental_uris":{"android":"levelo://app?vid=bbfef9ce-d112-4da7-a443-00b56ec1c9fe","ios":"levelo://app?vid=bbfef9ce-d112-4da7-a443-00b56ec1c9fe"},"vehicle_type_id":"4","last_reported":1771230885,"current_range_meters":12400,"station_id":"cpo36qri1sfpv3e86is0","pricing_plan_id":"cebpf4jnsgd1na2vs0mg"},{"bike_id":"061752af-7085-465f-bbfa-580f169e8c94","system_id":"levelo_inurba_marseille","lat":43.26488,"lon":5.39543,"is_reserved":false,"is_disabled":false,"rental_uris":{"android":"levelo://app?vid=061752af-7085-465f-bbfa-580f169e8c94","ios":"levelo://app?vid=061752af-7085-465f-bbfa-580f169e8c94"},"vehicle_type_id":"4","last_reported":1771230885,"current_range_meters":36400,"station_id":"ce4bhi12rcd13ifvqfq0","pricing_plan_id":"cebpf4jnsgd1na2vs0mg"},{"bike_id":"666c2a43-d493-4718-ad5d-96a2c264043e","system_id":"levelo_inurba_marseille","lat":43.27399,"lon":5.39391,"is_reserved":false,"is_disabled":false,"rental_uris":{"android":"levelo://app?vid=666c2a43-d493-4718-ad5d-96a2c264043e","ios":"levelo://app?vid=666c2a43-d493-4718-ad5d-96a2c264043e"},"vehicle_type_id":"4","last_reported":1771230885,"current_range_meters":36800,"station_id":"ce4bhdp2rcd13ifvqf20","pricing_plan_id":"cebpf4jnsgd1na2vs0mg"},{"bike_id":"982dc22c-bee8-4457-9768-e8714792c052","system_id":"levelo_inurba_marseille","lat":43.263757,"lon":5.410746,"is_reserved":false,"is_disabled":false,"rental_uris":{"android":"levelo://app?vid=982dc22c-bee8-4457-9768-e8714792c052","ios":"levelo://app?vid=982dc22c-bee8-4457-9768-e8714792c052"},"vehicle_type_id":"4","last_reported":1771230885,"current_range_meters":30400,"station_id":"st_d4e5ca6na9uc73bfl5fg","pricing_plan_id":"cebpf4jnsgd1na2vs0mg"},{"bike_id":"a9f2149b-2298-440c-945d-cc79a967d975","system_id":"levelo_inurba_marseille","lat":43.29024,"lon":5.37556,"is_reserved":false,"is_disabled":false,"rental_uris":{"android":"levelo://app?vid=a9f2149b-2298-440c-945d-cc79a967d975","ios":"levelo://app?vid=a9f2149b-2298-440c-945d-cc79a967d975"},"vehicle_type_id":"4","last_reported":1771230885,"current_range_meters":20000,"station_id":"ce4bh692rcd13ifvqe90","pricing_plan_id":"cebpf4jnsgd1na2vs0mg"},{"bike_id":"e3e00f58-24c8-44b1-89e2-c7c99d8afdf6","system_id":"levelo_inurba_marseille","lat":43.33047,"lon":5.37588,"is_reserved":false,"is_disabled":false,"rental_uris":{"android":"levelo://app?vid=e3e00f58-24c8-44b1-89e2-c7c99d8afdf6","ios":"levelo://app?vid=e3e00f58-24c8-44b1-89e2-c7c99d8afdf6"},"vehicle_type_id":"4","last_reported":1771230885,"current_range_meters":9200,"station_id":"","pricing_plan_id":"cebpf4jnsgd1na2vs0mg"},{"bike_id":"36d4aa89-1d70-446e-a7ee-3cdfbee9db51","system_id":"levelo_inurba_marseille","lat":43.33574,"lon":5.41034,"is_reserved":false,"is_disabled":false,"rental_uris":{"android":"levelo://app?vid=36d4aa89-1d70-446e-a7ee-3cdfbee9db51","ios":"levelo://app?vid=36d4aa89-1d70-446e-a7ee-3cdfbee9db51"},"vehicle_type_id":"4","last_reported":1771230885,"current_range_meters":33200,"station_id":"ce4bhqh2rcd13ifvqhmg","pricing_plan_id":"cebpf4jnsgd1na2vs0mg"},{"bike_id":"7f04637a-bf75-484c-b0dc-13e8e1dd6ab9","system_id":"levelo_inurba_marseille","lat":43.2465,"lon":5.4165,"is_reserved":false,"is_disabled":false,"rental_uris":{"android":"levelo://app?vid=7f04637a-bf75-484c-b0dc-13e8e1dd6ab9","ios":"levelo://app?vid=7f04637a-bf75-484c-b0dc-13e8e1dd6ab9"},"vehicle_type_id":"4","last_reported":1771230885,"current_range_meters":6400,"station_id":"","pricing_plan_id":"cebpf4jnsgd1na2vs0mg"},{"bike_id":"016ec4b9-5b18-4f93-bf29-7317575450df","system_id":"levelo_inurba_marseille","lat":43.24058,"lon":5.37752,"is_reserved":false,"is_disabled":false,"rental_uris":{"android":"levelo://app?vid=016ec4b9-5b18-4f93-bf29-7317575450df","ios":"levelo://app?vid=016ec4b9-5b18-4f93-bf29-7317575450df"},"vehicle_type_id":"4","last_reported":1771230885,"current_range_meters":40000,"station_id":"ce4bhnp2rcd13ifvqgvg","pricing_plan_id":"cebpf4jnsgd1na2vs0mg"},{"bike_id":"9ac858d8-6e0b-46d0-8417-da385caf7f13","system_id":"levelo_inurba_marseille","lat":43.31137,"lon":5.36855,"is_reserved":false,"is_disabled":false,"rental_uris":{"android":"levelo://app?vid=9ac858d8-6e0b-46d0-8417-da385caf7f13","ios":"levelo://app?vid=9ac858d8-6e0b-46d0-8417-da385caf7f13"},"vehicle_type_id":"4","last_reported":1771230885,"current_range_meters":28800,"station_id":"ce4bgl92rcd13ifvqbq0","pricing_plan_id":"cebpf4jnsgd1na2vs0mg"},{"bike_id":"45d3d412-e5a3-49ab-a6aa-5380c5fa9960","system_id":"levelo_inurba_marseille","lat":43.2669,"lon":5.38259,"is_reserved":false,"is_disabled":false,"rental_uris":{"android":"levelo://app?vid=45d3d412-e5a3-49ab-a6aa-5380c5fa9960","ios":"levelo://app?vid=45d3d412-e5a3-49ab-a6aa-5380c5fa9960"},"vehicle_type_id":"4","last_reported":1771230885,"current_range_meters":26000,"station_id":"ce4bhg92rcd13ifvqf90","pricing_plan_id":"cebpf4jnsgd1na2vs0mg"},{"bike_id":"ea6f91f1-8345-4d79-80a1-7613ddd94cc0","system_id":"levelo_inurba_marseille","lat":43.30152,"lon":5.381,"is_reserved":false,"is_disabled":false,"rental_uris":{"android":"levelo://app?vid=ea6f91f1-8345-4d79-80a1-7613ddd94cc0","ios":"levelo://app?vid=ea6f91f1-8345-4d79-80a1-7613ddd94cc0"},"vehicle_type_id":"4","last_reported":1771230885,"current_range_meters":34000,"station_id":"ce4bgjp2rcd13ifvqbh0","pricing_plan_id":"cebpf4jnsgd1na2vs0mg"},{"bike_id":"e8f313d3-cb8c-4234-89fd-4e327a904bf9","system_id":"levelo_inurba_marseille","lat":43.2455,"lon":5.39513,"is_reserved":false,"is_disabled":false,"rental_uris":{"android":"levelo://app?vid=e8f313d3-cb8c-4234-89fd-4e327a904bf9","ios":"levelo://app?vid=e8f313d3-cb8c-4234-89fd-4e327a904bf9"},"vehicle_type_id":"4","last_reported":1771230885,"current_range_meters":9200,"station_id":"ce4bhlp2rcd13ifvqgjg","pricing_plan_id":"cebpf4jnsgd1na2vs0mg"},{"bike_id":"5f89c1ea-3f82-477d-a0eb-611ca3d87d1b","system_id":"levelo_inurba_marseille","lat":43.30161,"lon":5.36652,"is_reserved":false,"is_disabled":false,"rental_uris":{"android":"levelo://app?vid=5f89c1ea-3f82-477d-a0eb-611ca3d87d1b","ios":"levelo://app?vid=5f89c1ea-3f82-477d-a0eb-611ca3d87d1b"},"vehicle_type_id":"4","last_reported":1771230885,"current_range_meters":40000,"station_id":"ce4bgrh2rcd13ifvqc8g","pricing_plan_id":"cebpf4jnsgd1na2vs0mg"},{"bike_id":"0233da03-d920-43f3-995b-699543cf085f","system_id":"levelo_inurba_marseille","lat":43.250057,"lon":5.38925,"is_reserved":false,"is_disabled":false,"rental_uris":{"android":"levelo://app?vid=0233da03-d920-43f3-995b-699543cf085f","ios":"levelo://app?vid=0233da03-d920-43f3-995b-699543cf085f"},"vehicle_type_id":"4","last_reported":1771230885,"current_range_meters":30000,"station_id":"ce4bhgp2rcd13ifvqfd0","pricing_plan_id":"cebpf4jnsgd1na2vs0mg"},{"bike_id":"231e4fd8-db8b-46aa-b775-c1940ba2346d","system_id":"levelo_inurba_marseille","lat":43.30882,"lon":5.37177,"is_reserved":false,"is_disabled":false,"rental_uris":{"android":"levelo://app?vid=231e4fd8-db8b-46aa-b775-c1940ba2346d","ios":"levelo://app?vid=231e4fd8-db8b-46aa-b775-c1940ba2346d"},"vehicle_type_id":"4","last_reported":1771230885,"current_range_meters":36400,"station_id":"ce4bguh2rcd13ifvqckg","pricing_plan_id":"cebpf4jnsgd1na2vs0mg"},{"bike_id":"4257ce27-d4f9-4a49-a222-c5a5ef7fd7bc","system_id":"levelo_inurba_marseille","lat":43.28003,"lon":5.40015,"is_reserved":false,"is_disabled":false,"rental_uris":{"android":"levelo://app?vid=4257ce27-d4f9-4a49-a222-c5a5ef7fd7bc","ios":"levelo://app?vid=4257ce27-d4f9-4a49-a222-c5a5ef7fd7bc"},"vehicle_type_id":"4","last_reported":1771230885,"current_range_meters":21600,"station_id":"ce4bho92rcd13ifvqh4g","pricing_plan_id":"cebpf4jnsgd1na2vs0mg"},{"bike_id":"504d0a5c-6d34-4e6e-b049-b85598e8a815","system_id":"levelo_inurba_marseille","lat":43.29193,"lon":5.36073,"is_reserved":false,"is_disabled":false,"rental_uris":{"android":"levelo://app?vid=504d0a5c-6d34-4e6e-b049-b85598e8a815","ios":"levelo://app?vid=504d0a5c-6d34-4e6e-b049-b85598e8a815"},"vehicle_type_id":"4","last_reported":1771230885,"current_range_meters":39200,"station_id":"ce4bhbh2rcd13ifvqeqg","pricing_plan_id":"cebpf4jnsgd1na2vs0mg"},{"bike_id":"8d6535f0-b219-41a9-a5bf-28d07bb13e74","system_id":"levelo_inurba_marseille","lat":43.31282,"lon":5.36931,"is_reserved":false,"is_disabled":false,"rental_uris":{"android":"levelo://app?vid=8d6535f0-b219-41a9-a5bf-28d07bb13e74","ios":"levelo://app?vid=8d6535f0-b219-41a9-a5bf-28d07bb13e74"},"vehicle_type_id":"4","last_reported":1771230885,"current_range_meters":18000,"station_id":"ce4bgl92rcd13ifvqbq0","pricing_plan_id":"cebpf4jnsgd1na2vs0mg"},{"bike_id":"1d87a2f0-b907-4722-bbbb-2312cade9594","system_id":"levelo_inurba_marseille","lat":43.29543,"lon":5.37516,"is_reserved":false,"is_disabled":true,"rental_uris":{"android":"levelo://app?vid=1d87a2f0-b907-4722-bbbb-2312cade9594","ios":"levelo://app?vid=1d87a2f0-b907-4722-bbbb-2312cade9594"},"vehicle_type_id":"4","last_reported":1771230885,"current_range_meters":32400,"station_id":"ce4bgkp2rcd13ifvqbmg","pricing_plan_id":"cebpf4jnsgd1na2vs0mg"},{"bike_id":"f56b6e75-070e-4148-9d41-956869c01c1e","system_id":"levelo_inurba_marseille","lat":43.29236,"lon":5.36048,"is_reserved":false,"is_disabled":false,"rental_uris":{"android":"levelo://app?vid=f56b6e75-070e-4148-9d41-956869c01c1e","ios":"levelo://app?vid=f56b6e75-070e-4148-9d41-956869c01c1e"},"vehicle_type_id":"4","last_reported":1771230885,"current_range_meters":39200,"station_id":"ce4bhbh2rcd13ifvqeqg","pricing_plan_id":"cebpf4jnsgd1na2vs0mg"},{"bike_id":"ef43f5b3-0267-470e-a7be-73b400aa2eff","system_id":"levelo_inurba_marseille","lat":43.25114,"lon":5.40328,"is_reserved":false,"is_disabled":true,"rental_uris":{"android":"levelo://app?vid=ef43f5b3-0267-470e-a7be-73b400aa2eff","ios":"levelo://app?vid=ef43f5b3-0267-470e-a7be-73b400aa2eff"},"vehicle_type_id":"4","last_reported":1771230885,"current_range_meters":35200,"station_id":"ce4bhlh2rcd13ifvqgig","pricing_plan_id":"cebpf4jnsgd1na2vs0mg"},{"bike_id":"cfe73147-2c12-4c2d-b6d2-081b77c2e21d","system_id":"levelo_inurba_marseille","lat":43.25007,"lon":5.38942,"is_reserved":false,"is_disabled":false,"rental_uris":{"android":"levelo://app?vid=cfe73147-2c12-4c2d-b6d2-081b77c2e21d","ios":"levelo://app?vid=cfe73147-2c12-4c2d-b6d2-081b77c2e21d"},"vehicle_type_id":"4","last_reported":1771230885,"current_range_meters":32000,"station_id":"ce4bhgp2rcd13ifvqfd0","pricing_plan_id":"cebpf4jnsgd1na2vs0mg"},{"bike_id":"28555cbc-0afd-453d-99d5-95e852c8f522","system_id":"levelo_inurba_marseille","lat":43.32069,"lon":5.41566,"is_reserved":false,"is_disabled":false,"rental_uris":{"android":"levelo://app?vid=28555cbc-0afd-453d-99d5-95e852c8f522","ios":"levelo://app?vid=28555cbc-0afd-453d-99d5-95e852c8f522"},"vehicle_type_id":"4","last_reported":1771230885,"current_range_meters":38000,"station_id":"ce4bhq92rcd13ifvqhkg","pricing_plan_id":"cebpf4jnsgd1na2vs0mg"},{"bike_id":"2ae41cc9-8601-41ee-bdd0-1817bceb0544","system_id":"levelo_inurba_marseille","lat":43.28441,"lon":5.39185,"is_reserved":false,"is_disabled":true,"rental_uris":{"android":"levelo://app?vid=2ae41cc9-8601-41ee-bdd0-1817bceb0544","ios":"levelo://app?vid=2ae41cc9-8601-41ee-bdd0-1817bceb0544"},"vehicle_type_id":"4","last_reported":1771230885,"current_range_meters":36800,"station_id":"ce4bhoh2rcd13ifvqh5g","pricing_plan_id":"cebpf4jnsgd1na2vs0mg"},{"bike_id":"0b0789f1-2101-4ca6-aa0d-1c6c4b892a3a","system_id":"levelo_inurba_marseille","lat":43.3055,"lon":5.36526,"is_reserved":false,"is_disabled":false,"rental_uris":{"android":"levelo://app?vid=0b0789f1-2101-4ca6-aa0d-1c6c4b892a3a","ios":"levelo://app?vid=0b0789f1-2101-4ca6-aa0d-1c6c4b892a3a"},"vehicle_type_id":"4","last_reported":1771230885,"current_range_meters":38400,"station_id":"ce4bgs12rcd13ifvqcag","pricing_plan_id":"cebpf4jnsgd1na2vs0mg"},{"bike_id":"47b15c83-9612-4d28-a1f1-c4a600bb7f5c","system_id":"levelo_inurba_marseille","lat":43.331953,"lon":5.376859,"is_reserved":false,"is_disabled":false,"rental_uris":{"android":"levelo://app?vid=47b15c83-9612-4d28-a1f1-c4a600bb7f5c","ios":"levelo://app?vid=47b15c83-9612-4d28-a1f1-c4a600bb7f5c"},"vehicle_type_id":"4","last_reported":1771230885,"current_range_meters":16400,"station_id":"st_d46cu089ee8s73dldbu0","pricing_plan_id":"cebpf4jnsgd1na2vs0mg"},{"bike_id":"3b4377ca-fc09-4041-8519-6fa3dd2f3815","system_id":"levelo_inurba_marseille","lat":43.26066,"lon":5.39393,"is_reserved":false,"is_disabled":false,"rental_uris":{"android":"levelo://app?vid=3b4377ca-fc09-4041-8519-6fa3dd2f3815","ios":"levelo://app?vid=3b4377ca-fc09-4041-8519-6fa3dd2f3815"},"vehicle_type_id":"4","last_reported":1771230885,"current_range_meters":12000,"station_id":"ce4bhh92rcd13ifvqfj0","pricing_plan_id":"cebpf4jnsgd1na2vs0mg"},{"bike_id":"d893ff2d-a733-4eca-b9b8-b232908e55ad","system_id":"levelo_inurba_marseille","lat":43.28942,"lon":5.36657,"is_reserved":false,"is_disabled":false,"rental_uris":{"android":"levelo://app?vid=d893ff2d-a733-4eca-b9b8-b232908e55ad","ios":"levelo://app?vid=d893ff2d-a733-4eca-b9b8-b232908e55ad"},"vehicle_type_id":"4","last_reported":1771230885,"current_range_meters":21600,"station_id":"ce4bhap2rcd13ifvqek0","pricing_plan_id":"cebpf4jnsgd1na2vs0mg"},{"bike_id":"696ee3fc-6fd6-40e8-ac11-8ebbf4ab59d1","system_id":"levelo_inurba_marseille","lat":43.24949,"lon":5.40509,"is_reserved":false,"is_disabled":true,"rental_uris":{"android":"levelo://app?vid=696ee3fc-6fd6-40e8-ac11-8ebbf4ab59d1","ios":"levelo://app?vid=696ee3fc-6fd6-40e8-ac11-8ebbf4ab59d1"},"vehicle_type_id":"4","last_reported":1771230885,"current_range_meters":30400,"station_id":"st_d2ngiaodas8pm72gd1h0","pricing_plan_id":"cebpf4jnsgd1na2vs0mg"},{"bike_id":"158a12e2-f5db-4197-93ba-5db6e42be1b0","system_id":"levelo_inurba_marseille","lat":43.2906,"lon":5.35927,"is_reserved":false,"is_disabled":false,"rental_uris":{"android":"levelo://app?vid=158a12e2-f5db-4197-93ba-5db6e42be1b0","ios":"levelo://app?vid=158a12e2-f5db-4197-93ba-5db6e42be1b0"},"vehicle_type_id":"4","last_reported":1771230885,"current_range_meters":39200,"station_id":"ce4bha92rcd13ifvqeg0","pricing_plan_id":"cebpf4jnsgd1na2vs0mg"},{"bike_id":"063f653a-a02e-48ab-b671-a1d0f66830cf","system_id":"levelo_inurba_marseille","lat":43.30586,"lon":5.365724,"is_reserved":false,"is_disabled":false,"rental_uris":{"android":"levelo://app?vid=063f653a-a02e-48ab-b671-a1d0f66830cf","ios":"levelo://app?vid=063f653a-a02e-48ab-b671-a1d0f66830cf"},"vehicle_type_id":"4","last_reported":1771230885,"current_range_meters":22000,"station_id":"ce4bgs12rcd13ifvqcag","pricing_plan_id":"cebpf4jnsgd1na2vs0mg"},{"bike_id":"efd1bca4-aeb2-4ad8-a618-461ec75a7bd0","system_id":"levelo_inurba_marseille","lat":43.31229,"lon":5.368573,"is_reserved":false,"is_disabled":false,"rental_uris":{"android":"levelo://app?vid=efd1bca4-aeb2-4ad8-a618-461ec75a7bd0","ios":"levelo://app?vid=efd1bca4-aeb2-4ad8-a618-461ec75a7bd0"},"vehicle_type_id":"4","last_reported":1771230885,"current_range_meters":39200,"station_id":"ce4bgl92rcd13ifvqbq0","pricing_plan_id":"cebpf4jnsgd1na2vs0mg"},{"bike_id":"e664fd31-d5e7-4335-a3ad-a97794856ca1","system_id":"levelo_inurba_marseille","lat":43.32378,"lon":5.36727,"is_reserved":false,"is_disabled":false,"rental_uris":{"android":"levelo://app?vid=e664fd31-d5e7-4335-a3ad-a97794856ca1","ios":"levelo://app?vid=e664fd31-d5e7-4335-a3ad-a97794856ca1"},"vehicle_type_id":"4","last_reported":1771230885,"current_range_meters":20000,"station_id":"ce4bhsh2rcd13ifvqi2g","pricing_plan_id":"cebpf4jnsgd1na2vs0mg"},{"bike_id":"9a3c19aa-d5b5-4290-b356-d5a9a83b4ebe","system_id":"levelo_inurba_marseille","lat":43.27509,"lon":5.42447,"is_reserved":false,"is_disabled":false,"rental_uris":{"android":"levelo://app?vid=9a3c19aa-d5b5-4290-b356-d5a9a83b4ebe","ios":"levelo://app?vid=9a3c19aa-d5b5-4290-b356-d5a9a83b4ebe"},"vehicle_type_id":"4","last_reported":1771230885,"current_range_meters":9600,"station_id":"ce4bhn92rcd13ifvqgrg","pricing_plan_id":"cebpf4jnsgd1na2vs0mg"},{"bike_id":"db4a7dc2-3c3c-4598-940e-bfe7a89f8102","system_id":"levelo_inurba_marseille","lat":43.286607,"lon":5.386631,"is_reserved":false,"is_disabled":true,"rental_uris":{"android":"levelo://app?vid=db4a7dc2-3c3c-4598-940e-bfe7a89f8102","ios":"levelo://app?vid=db4a7dc2-3c3c-4598-940e-bfe7a89f8102"},"vehicle_type_id":"4","last_reported":1771230885,"current_range_meters":0,"station_id":"ce4bh492rcd13ifvqdug","pricing_plan_id":"cebpf4jnsgd1na2vs0mg"},{"bike_id":"4dcbf679-cdd4-4ee9-878d-44ab492dd40a","system_id":"levelo_inurba_marseille","lat":43.29215,"lon":5.36063,"is_reserved":false,"is_disabled":false,"rental_uris":{"android":"levelo://app?vid=4dcbf679-cdd4-4ee9-878d-44ab492dd40a","ios":"levelo://app?vid=4dcbf679-cdd4-4ee9-878d-44ab492dd40a"},"vehicle_type_id":"4","last_reported":1771230885,"current_range_meters":39200,"station_id":"ce4bhbh2rcd13ifvqeqg","pricing_plan_id":"cebpf4jnsgd1na2vs0mg"},{"bike_id":"c515fab1-0290-4a3e-938a-d73ababb61f8","system_id":"levelo_inurba_marseille","lat":43.25937,"lon":5.40913,"is_reserved":false,"is_disabled":false,"rental_uris":{"android":"levelo://app?vid=c515fab1-0290-4a3e-938a-d73ababb61f8","ios":"levelo://app?vid=c515fab1-0290-4a3e-938a-d73ababb61f8"},"vehicle_type_id":"4","last_reported":1771230885,"current_range_meters":20400,"station_id":"ce4bhm92rcd13ifvqglg","pricing_plan_id":"cebpf4jnsgd1na2vs0mg"},{"bike_id":"9a71aafb-3414-42bb-a93e-c329b1fce7db","system_id":"levelo_inurba_marseille","lat":43.25802,"lon":5.39446,"is_reserved":false,"is_disabled":false,"rental_uris":{"android":"levelo://app?vid=9a71aafb-3414-42bb-a93e-c329b1fce7db","ios":"levelo://app?vid=9a71aafb-3414-42bb-a93e-c329b1fce7db"},"vehicle_type_id":"4","last_reported":1771230885,"current_range_meters":33200,"station_id":"ce4bhip2rcd13ifvqft0","pricing_plan_id":"cebpf4jnsgd1na2vs0mg"},{"bike_id":"96763947-68cd-4330-b5c4-17a1c4b9aa5b","system_id":"levelo_inurba_marseille","lat":43.31683,"lon":5.39218,"is_reserved":false,"is_disabled":false,"rental_uris":{"android":"levelo://app?vid=96763947-68cd-4330-b5c4-17a1c4b9aa5b","ios":"levelo://app?vid=96763947-68cd-4330-b5c4-17a1c4b9aa5b"},"vehicle_type_id":"4","last_reported":1771230885,"current_range_meters":30800,"station_id":"","pricing_plan_id":"cebpf4jnsgd1na2vs0mg"},{"bike_id":"e87ad34e-b4b7-4a8f-8d1d-9fcdf7787f23","system_id":"levelo_inurba_marseille","lat":43.27497,"lon":5.42457,"is_reserved":false,"is_disabled":false,"rental_uris":{"android":"levelo://app?vid=e87ad34e-b4b7-4a8f-8d1d-9fcdf7787f23","ios":"levelo://app?vid=e87ad34e-b4b7-4a8f-8d1d-9fcdf7787f23"},"vehicle_type_id":"4","last_reported":1771230885,"current_range_meters":30400,"station_id":"ce4bhn92rcd13ifvqgrg","pricing_plan_id":"cebpf4jnsgd1na2vs0mg"},{"bike_id":"40a2d767-9a8e-4aa3-bded-343bcd3a8041","system_id":"levelo_inurba_marseille","lat":43.24164,"lon":5.36399,"is_reserved":false,"is_disabled":false,"rental_uris":{"android":"levelo://app?vid=40a2d767-9a8e-4aa3-bded-343bcd3a8041","ios":"levelo://app?vid=40a2d767-9a8e-4aa3-bded-343bcd3a8041"},"vehicle_type_id":"4","last_reported":1771230885,"current_range_meters":8400,"station_id":"cpo36qri1sfpv3e86is0","pricing_plan_id":"cebpf4jnsgd1na2vs0mg"},{"bike_id":"bbaf3f17-a1db-4506-b20b-06b45d8a1835","system_id":"levelo_inurba_marseille","lat":43.31708,"lon":5.43705,"is_reserved":false,"is_disabled":false,"rental_uris":{"android":"levelo://app?vid=bbaf3f17-a1db-4506-b20b-06b45d8a1835","ios":"levelo://app?vid=bbaf3f17-a1db-4506-b20b-06b45d8a1835"},"vehicle_type_id":"4","last_reported":1771230885,"current_range_meters":30400,"station_id":"ce4bhp92rcd13ifvqhcg","pricing_plan_id":"cebpf4jnsgd1na2vs0mg"},{"bike_id":"39df9018-deef-4887-8d63-2341b5b85f51","system_id":"levelo_inurba_marseille","lat":43.25125,"lon":5.40336,"is_reserved":false,"is_disabled":false,"rental_uris":{"android":"levelo://app?vid=39df9018-deef-4887-8d63-2341b5b85f51","ios":"levelo://app?vid=39df9018-deef-4887-8d63-2341b5b85f51"},"vehicle_type_id":"4","last_reported":1771230885,"current_range_meters":11600,"station_id":"ce4bhlh2rcd13ifvqgig","pricing_plan_id":"cebpf4jnsgd1na2vs0mg"},{"bike_id":"e1a41d86-efda-45ff-bb0a-2249e0e34799","system_id":"levelo_inurba_marseille","lat":43.31048,"lon":5.37178,"is_reserved":false,"is_disabled":false,"rental_uris":{"android":"levelo://app?vid=e1a41d86-efda-45ff-bb0a-2249e0e34799","ios":"levelo://app?vid=e1a41d86-efda-45ff-bb0a-2249e0e34799"},"vehicle_type_id":"4","last_reported":1771230885,"current_range_meters":34000,"station_id":"st_d4kl2rp97mjs73e7tdfg","pricing_plan_id":"cebpf4jnsgd1na2vs0mg"},{"bike_id":"43f035d9-d732-4a69-b26a-7792a8fc80f0","system_id":"levelo_inurba_marseille","lat":43.24545,"lon":5.39528,"is_reserved":false,"is_disabled":true,"rental_uris":{"android":"levelo://app?vid=43f035d9-d732-4a69-b26a-7792a8fc80f0","ios":"levelo://app?vid=43f035d9-d732-4a69-b26a-7792a8fc80f0"},"vehicle_type_id":"4","last_reported":1771230885,"current_range_meters":6400,"station_id":"","pricing_plan_id":"cebpf4jnsgd1na2vs0mg"},{"bike_id":"8e4d0fb2-0b0a-434c-902e-d3ab3497cc31","system_id":"levelo_inurba_marseille","lat":43.281486,"lon":5.426416,"is_reserved":false,"is_disabled":false,"rental_uris":{"android":"levelo://app?vid=8e4d0fb2-0b0a-434c-902e-d3ab3497cc31","ios":"levelo://app?vid=8e4d0fb2-0b0a-434c-902e-d3ab3497cc31"},"vehicle_type_id":"4","last_reported":1771230885,"current_range_meters":38000,"station_id":"ce4bhnh2rcd13ifvqgug","pricing_plan_id":"cebpf4jnsgd1na2vs0mg"},{"bike_id":"9c9302ed-c2af-40cd-9047-f491de3d893a","system_id":"levelo_inurba_marseille","lat":43.24633,"lon":5.43156,"is_reserved":false,"is_disabled":false,"rental_uris":{"android":"levelo://app?vid=9c9302ed-c2af-40cd-9047-f491de3d893a","ios":"levelo://app?vid=9c9302ed-c2af-40cd-9047-f491de3d893a"},"vehicle_type_id":"4","last_reported":1771230885,"current_range_meters":17200,"station_id":"st_d2m6c4gdas8pm72e190g","pricing_plan_id":"cebpf4jnsgd1na2vs0mg"},{"bike_id":"2d55974f-a159-4a96-a215-e44d5d35787a","system_id":"levelo_inurba_marseille","lat":43.29933,"lon":5.41312,"is_reserved":false,"is_disabled":false,"rental_uris":{"android":"levelo://app?vid=2d55974f-a159-4a96-a215-e44d5d35787a","ios":"levelo://app?vid=2d55974f-a159-4a96-a215-e44d5d35787a"},"vehicle_type_id":"4","last_reported":1771230885,"current_range_meters":26000,"station_id":"ce4bhp12rcd13ifvqh9g","pricing_plan_id":"cebpf4jnsgd1na2vs0mg"},{"bike_id":"addd33a1-5186-4324-b702-4ac89f3f7ce6","system_id":"levelo_inurba_marseille","lat":43.26054,"lon":5.3939,"is_reserved":false,"is_disabled":false,"rental_uris":{"android":"levelo://app?vid=addd33a1-5186-4324-b702-4ac89f3f7ce6","ios":"levelo://app?vid=addd33a1-5186-4324-b702-4ac89f3f7ce6"},"vehicle_type_id":"4","last_reported":1771230885,"current_range_meters":33200,"station_id":"ce4bhh92rcd13ifvqfj0","pricing_plan_id":"cebpf4jnsgd1na2vs0mg"},{"bike_id":"faceb145-d7b6-4c89-9421-78897fc5e9e8","system_id":"levelo_inurba_marseille","lat":43.27613,"lon":5.36112,"is_reserved":false,"is_disabled":false,"rental_uris":{"android":"levelo://app?vid=faceb145-d7b6-4c89-9421-78897fc5e9e8","ios":"levelo://app?vid=faceb145-d7b6-4c89-9421-78897fc5e9e8"},"vehicle_type_id":"4","last_reported":1771230885,"current_range_meters":14800,"station_id":"ce4bgj92rcd13ifvqbe0","pricing_plan_id":"cebpf4jnsgd1na2vs0mg"},{"bike_id":"80c7f836-a8db-44e1-bb1c-88d929dfe374","system_id":"levelo_inurba_marseille","lat":43.30213,"lon":5.36606,"is_reserved":false,"is_disabled":false,"rental_uris":{"android":"levelo://app?vid=80c7f836-a8db-44e1-bb1c-88d929dfe374","ios":"levelo://app?vid=80c7f836-a8db-44e1-bb1c-88d929dfe374"},"vehicle_type_id":"4","last_reported":1771230885,"current_range_meters":17200,"station_id":"ce4bgrh2rcd13ifvqc8g","pricing_plan_id":"cebpf4jnsgd1na2vs0mg"},{"bike_id":"62728ec9-b823-4810-8ffb-f72b795c94dd","system_id":"levelo_inurba_marseille","lat":43.30148,"lon":5.38094,"is_reserved":false,"is_disabled":false,"rental_uris":{"android":"levelo://app?vid=62728ec9-b823-4810-8ffb-f72b795c94dd","ios":"levelo://app?vid=62728ec9-b823-4810-8ffb-f72b795c94dd"},"vehicle_type_id":"4","last_reported":1771230885,"current_range_meters":33200,"station_id":"ce4bgjp2rcd13ifvqbh0","pricing_plan_id":"cebpf4jnsgd1na2vs0mg"},{"bike_id":"a6ca00c1-11c2-4395-a327-ada3897176d6","system_id":"levelo_inurba_marseille","lat":43.313473,"lon":5.36716,"is_reserved":false,"is_disabled":false,"rental_uris":{"android":"levelo://app?vid=a6ca00c1-11c2-4395-a327-ada3897176d6","ios":"levelo://app?vid=a6ca00c1-11c2-4395-a327-ada3897176d6"},"vehicle_type_id":"4","last_reported":1771230885,"current_range_meters":37600,"station_id":"ce4bgr92rcd13ifvqc6g","pricing_plan_id":"cebpf4jnsgd1na2vs0mg"},{"bike_id":"f1d3cb18-3e77-410c-8050-d7a9df5b766d","system_id":"levelo_inurba_marseille","lat":43.29014,"lon":5.38124,"is_reserved":false,"is_disabled":false,"rental_uris":{"android":"levelo://app?vid=f1d3cb18-3e77-410c-8050-d7a9df5b766d","ios":"levelo://app?vid=f1d3cb18-3e77-410c-8050-d7a9df5b766d"},"vehicle_type_id":"4","last_reported":1771230885,"current_range_meters":34000,"station_id":"ce4bh4p2rcd13ifvqe1g","pricing_plan_id":"cebpf4jnsgd1na2vs0mg"},{"bike_id":"dcb46e53-479a-4eb4-80ee-4c4b8b773271","system_id":"levelo_inurba_marseille","lat":43.28696,"lon":5.35504,"is_reserved":false,"is_disabled":true,"rental_uris":{"android":"levelo://app?vid=dcb46e53-479a-4eb4-80ee-4c4b8b773271","ios":"levelo://app?vid=dcb46e53-479a-4eb4-80ee-4c4b8b773271"},"vehicle_type_id":"4","last_reported":1771230885,"current_range_meters":3600,"station_id":"","pricing_plan_id":"cebpf4jnsgd1na2vs0mg"},{"bike_id":"adc4a473-0ec7-4a67-b51b-5b1e4f2d64b5","system_id":"levelo_inurba_marseille","lat":43.26194,"lon":5.37462,"is_reserved":false,"is_disabled":false,"rental_uris":{"android":"levelo://app?vid=adc4a473-0ec7-4a67-b51b-5b1e4f2d64b5","ios":"levelo://app?vid=adc4a473-0ec7-4a67-b51b-5b1e4f2d64b5"},"vehicle_type_id":"4","last_reported":1771230885,"current_range_meters":39200,"station_id":"ce4bhgp2rcd13ifvqfc0","pricing_plan_id":"cebpf4jnsgd1na2vs0mg"},{"bike_id":"e65ac263-6241-43e7-92ba-48415d5c9a31","system_id":"levelo_inurba_marseille","lat":43.24178,"lon":5.39727,"is_reserved":false,"is_disabled":true,"rental_uris":{"android":"levelo://app?vid=e65ac263-6241-43e7-92ba-48415d5c9a31","ios":"levelo://app?vid=e65ac263-6241-43e7-92ba-48415d5c9a31"},"vehicle_type_id":"4","last_reported":1771230885,"current_range_meters":0,"station_id":"ce4bhn12rcd13ifvqgpg","pricing_plan_id":"cebpf4jnsgd1na2vs0mg"},{"bike_id":"ab0801ce-4ad4-42db-b231-96b1eae9863c","system_id":"levelo_inurba_marseille","lat":43.29618,"lon":5.37721,"is_reserved":false,"is_disabled":false,"rental_uris":{"android":"levelo://app?vid=ab0801ce-4ad4-42db-b231-96b1eae9863c","ios":"levelo://app?vid=ab0801ce-4ad4-42db-b231-96b1eae9863c"},"vehicle_type_id":"4","last_reported":1771230885,"current_range_meters":23200,"station_id":"ce4bgi92rcd13ifvqb90","pricing_plan_id":"cebpf4jnsgd1na2vs0mg"},{"bike_id":"ee520404-8764-4e6d-9db7-583906d777d1","system_id":"levelo_inurba_marseille","lat":43.28627,"lon":5.35102,"is_reserved":false,"is_disabled":false,"rental_uris":{"android":"levelo://app?vid=ee520404-8764-4e6d-9db7-583906d777d1","ios":"levelo://app?vid=ee520404-8764-4e6d-9db7-583906d777d1"},"vehicle_type_id":"4","last_reported":1771230885,"current_range_meters":24800,"station_id":"ce4bhch2rcd13ifvqeug","pricing_plan_id":"cebpf4jnsgd1na2vs0mg"},{"bike_id":"d7b9bab2-8c15-4f04-b30d-9182fb77c28b","system_id":"levelo_inurba_marseille","lat":43.27486,"lon":5.42451,"is_reserved":false,"is_disabled":false,"rental_uris":{"android":"levelo://app?vid=d7b9bab2-8c15-4f04-b30d-9182fb77c28b","ios":"levelo://app?vid=d7b9bab2-8c15-4f04-b30d-9182fb77c28b"},"vehicle_type_id":"4","last_reported":1771230885,"current_range_meters":17200,"station_id":"ce4bhn92rcd13ifvqgrg","pricing_plan_id":"cebpf4jnsgd1na2vs0mg"},{"bike_id":"71e296c3-1046-40a1-a888-17201925c142","system_id":"levelo_inurba_marseille","lat":43.25114,"lon":5.40316,"is_reserved":false,"is_disabled":false,"rental_uris":{"android":"levelo://app?vid=71e296c3-1046-40a1-a888-17201925c142","ios":"levelo://app?vid=71e296c3-1046-40a1-a888-17201925c142"},"vehicle_type_id":"4","last_reported":1771230885,"current_range_meters":38000,"station_id":"ce4bhlh2rcd13ifvqgig","pricing_plan_id":"cebpf4jnsgd1na2vs0mg"},{"bike_id":"3cd8e674-f2df-4abf-b06c-c0245679bc5d","system_id":"levelo_inurba_marseille","lat":43.30936,"lon":5.36853,"is_reserved":false,"is_disabled":false,"rental_uris":{"android":"levelo://app?vid=3cd8e674-f2df-4abf-b06c-c0245679bc5d","ios":"levelo://app?vid=3cd8e674-f2df-4abf-b06c-c0245679bc5d"},"vehicle_type_id":"4","last_reported":1771230885,"current_range_meters":30000,"station_id":"ce4bgn92rcd13ifvqbvg","pricing_plan_id":"cebpf4jnsgd1na2vs0mg"},{"bike_id":"c1009b7a-d4e9-4514-8771-76f5baf181b7","system_id":"levelo_inurba_marseille","lat":43.30549,"lon":5.36526,"is_reserved":false,"is_disabled":false,"rental_uris":{"android":"levelo://app?vid=c1009b7a-d4e9-4514-8771-76f5baf181b7","ios":"levelo://app?vid=c1009b7a-d4e9-4514-8771-76f5baf181b7"},"vehicle_type_id":"4","last_reported":1771230885,"current_range_meters":28400,"station_id":"ce4bgs12rcd13ifvqcag","pricing_plan_id":"cebpf4jnsgd1na2vs0mg"},{"bike_id":"dab14c9b-51ba-42ac-9d33-248a97e4b330","system_id":"levelo_inurba_marseille","lat":43.29533,"lon":5.37524,"is_reserved":false,"is_disabled":false,"rental_uris":{"android":"levelo://app?vid=dab14c9b-51ba-42ac-9d33-248a97e4b330","ios":"levelo://app?vid=dab14c9b-51ba-42ac-9d33-248a97e4b330"},"vehicle_type_id":"4","last_reported":1771230885,"current_range_meters":18000,"station_id":"ce4bgkp2rcd13ifvqbmg","pricing_plan_id":"cebpf4jnsgd1na2vs0mg"},{"bike_id":"0217db1f-0b8d-4169-8245-e2f8644b01fd","system_id":"levelo_inurba_marseille","lat":43.289,"lon":5.36703,"is_reserved":false,"is_disabled":false,"rental_uris":{"android":"levelo://app?vid=0217db1f-0b8d-4169-8245-e2f8644b01fd","ios":"levelo://app?vid=0217db1f-0b8d-4169-8245-e2f8644b01fd"},"vehicle_type_id":"4","last_reported":1771230885,"current_range_meters":16000,"station_id":"ce4bhap2rcd13ifvqek0","pricing_plan_id":"cebpf4jnsgd1na2vs0mg"},{"bike_id":"6e14feb7-753c-4804-bdc9-e912ef41a703","system_id":"levelo_inurba_marseille","lat":43.24388,"lon":5.37057,"is_reserved":false,"is_disabled":false,"rental_uris":{"android":"levelo://app?vid=6e14feb7-753c-4804-bdc9-e912ef41a703","ios":"levelo://app?vid=6e14feb7-753c-4804-bdc9-e912ef41a703"},"vehicle_type_id":"4","last_reported":1771230885,"current_range_meters":30000,"station_id":"ce4bhhh2rcd13ifvqfk0","pricing_plan_id":"cebpf4jnsgd1na2vs0mg"},{"bike_id":"e5257838-6818-4682-b3f7-42c143427319","system_id":"levelo_inurba_marseille","lat":43.2446,"lon":5.42544,"is_reserved":false,"is_disabled":false,"rental_uris":{"android":"levelo://app?vid=e5257838-6818-4682-b3f7-42c143427319","ios":"levelo://app?vid=e5257838-6818-4682-b3f7-42c143427319"},"vehicle_type_id":"4","last_reported":1771230885,"current_range_meters":26800,"station_id":"st_d4a3vfp97mjs738cd8kg","pricing_plan_id":"cebpf4jnsgd1na2vs0mg"},{"bike_id":"2c10c273-3ece-42a8-a3de-8891e7b99ee4","system_id":"levelo_inurba_marseille","lat":43.28482,"lon":5.38547,"is_reserved":false,"is_disabled":false,"rental_uris":{"android":"levelo://app?vid=2c10c273-3ece-42a8-a3de-8891e7b99ee4","ios":"levelo://app?vid=2c10c273-3ece-42a8-a3de-8891e7b99ee4"},"vehicle_type_id":"4","last_reported":1771230885,"current_range_meters":40000,"station_id":"ce4bh8p2rcd13ifvqeb0","pricing_plan_id":"cebpf4jnsgd1na2vs0mg"},{"bike_id":"50c45979-538f-4aa7-abe8-f5216751af5e","system_id":"levelo_inurba_marseille","lat":43.301699,"lon":5.366106,"is_reserved":false,"is_disabled":false,"rental_uris":{"android":"levelo://app?vid=50c45979-538f-4aa7-abe8-f5216751af5e","ios":"levelo://app?vid=50c45979-538f-4aa7-abe8-f5216751af5e"},"vehicle_type_id":"4","last_reported":1771230885,"current_range_meters":36400,"station_id":"ce4bgrh2rcd13ifvqc8g","pricing_plan_id":"cebpf4jnsgd1na2vs0mg"},{"bike_id":"937f3d25-b848-495b-a330-e41b28ba6403","system_id":"levelo_inurba_marseille","lat":43.2408,"lon":5.37747,"is_reserved":false,"is_disabled":false,"rental_uris":{"android":"levelo://app?vid=937f3d25-b848-495b-a330-e41b28ba6403","ios":"levelo://app?vid=937f3d25-b848-495b-a330-e41b28ba6403"},"vehicle_type_id":"4","last_reported":1771230885,"current_range_meters":40000,"station_id":"ce4bhnp2rcd13ifvqgvg","pricing_plan_id":"cebpf4jnsgd1na2vs0mg"},{"bike_id":"b84857a7-e995-4ca0-8158-ac5be3d97163","system_id":"levelo_inurba_marseille","lat":43.29278,"lon":5.3684,"is_reserved":false,"is_disabled":false,"rental_uris":{"android":"levelo://app?vid=b84857a7-e995-4ca0-8158-ac5be3d97163","ios":"levelo://app?vid=b84857a7-e995-4ca0-8158-ac5be3d97163"},"vehicle_type_id":"4","last_reported":1771230885,"current_range_meters":36400,"station_id":"ce4bhbp2rcd13ifvqesg","pricing_plan_id":"cebpf4jnsgd1na2vs0mg"},{"bike_id":"4f63221f-ab8e-47aa-80f2-25a9d4bd482b","system_id":"levelo_inurba_marseille","lat":43.251196,"lon":5.40333,"is_reserved":false,"is_disabled":false,"rental_uris":{"android":"levelo://app?vid=4f63221f-ab8e-47aa-80f2-25a9d4bd482b","ios":"levelo://app?vid=4f63221f-ab8e-47aa-80f2-25a9d4bd482b"},"vehicle_type_id":"4","last_reported":1771230885,"current_range_meters":8400,"station_id":"ce4bhlh2rcd13ifvqgig","pricing_plan_id":"cebpf4jnsgd1na2vs0mg"},{"bike_id":"c2e0171d-635e-411f-baed-162224680996","system_id":"levelo_inurba_marseille","lat":43.26683,"lon":5.38267,"is_reserved":false,"is_disabled":false,"rental_uris":{"android":"levelo://app?vid=c2e0171d-635e-411f-baed-162224680996","ios":"levelo://app?vid=c2e0171d-635e-411f-baed-162224680996"},"vehicle_type_id":"4","last_reported":1771230885,"current_range_meters":35600,"station_id":"ce4bhg92rcd13ifvqf90","pricing_plan_id":"cebpf4jnsgd1na2vs0mg"},{"bike_id":"351f418a-c609-4d6c-9b41-d7b555ca76f3","system_id":"levelo_inurba_marseille","lat":43.32479,"lon":5.36568,"is_reserved":false,"is_disabled":false,"rental_uris":{"android":"levelo://app?vid=351f418a-c609-4d6c-9b41-d7b555ca76f3","ios":"levelo://app?vid=351f418a-c609-4d6c-9b41-d7b555ca76f3"},"vehicle_type_id":"4","last_reported":1771230885,"current_range_meters":20000,"station_id":"ce4bhs12rcd13ifvqhvg","pricing_plan_id":"cebpf4jnsgd1na2vs0mg"},{"bike_id":"74c5db5c-ad41-4f03-8e8e-9cde4313fee5","system_id":"levelo_inurba_marseille","lat":43.29558,"lon":5.37514,"is_reserved":false,"is_disabled":false,"rental_uris":{"android":"levelo://app?vid=74c5db5c-ad41-4f03-8e8e-9cde4313fee5","ios":"levelo://app?vid=74c5db5c-ad41-4f03-8e8e-9cde4313fee5"},"vehicle_type_id":"4","last_reported":1771230885,"current_range_meters":39200,"station_id":"ce4bgh92rcd13ifvqb50","pricing_plan_id":"cebpf4jnsgd1na2vs0mg"},{"bike_id":"6c86eda7-889e-443a-85f7-298bb9e9311c","system_id":"levelo_inurba_marseille","lat":43.289105,"lon":5.384075,"is_reserved":false,"is_disabled":true,"rental_uris":{"android":"levelo://app?vid=6c86eda7-889e-443a-85f7-298bb9e9311c","ios":"levelo://app?vid=6c86eda7-889e-443a-85f7-298bb9e9311c"},"vehicle_type_id":"4","last_reported":1771230885,"current_range_meters":26800,"station_id":"ce4bh612rcd13ifvqe6g","pricing_plan_id":"cebpf4jnsgd1na2vs0mg"},{"bike_id":"8e71ac91-0568-45e8-9b6a-a8c9ae9c07db","system_id":"levelo_inurba_marseille","lat":43.31195,"lon":5.36845,"is_reserved":false,"is_disabled":false,"rental_uris":{"android":"levelo://app?vid=8e71ac91-0568-45e8-9b6a-a8c9ae9c07db","ios":"levelo://app?vid=8e71ac91-0568-45e8-9b6a-a8c9ae9c07db"},"vehicle_type_id":"4","last_reported":1771230885,"current_range_meters":39200,"station_id":"ce4bgl92rcd13ifvqbq0","pricing_plan_id":"cebpf4jnsgd1na2vs0mg"},{"bike_id":"e52a1b18-0cdc-40e8-ba6f-2547d2061d85","system_id":"levelo_inurba_marseille","lat":43.30731,"lon":5.42448,"is_reserved":false,"is_disabled":false,"rental_uris":{"android":"levelo://app?vid=e52a1b18-0cdc-40e8-ba6f-2547d2061d85","ios":"levelo://app?vid=e52a1b18-0cdc-40e8-ba6f-2547d2061d85"},"vehicle_type_id":"4","last_reported":1771230885,"current_range_meters":8800,"station_id":"st_cvj6ca6bvosntc0bfgr0","pricing_plan_id":"cebpf4jnsgd1na2vs0mg"},{"bike_id":"e442f200-afef-478e-8575-d8056ddaaaa3","system_id":"levelo_inurba_marseille","lat":43.21742,"lon":5.34609,"is_reserved":false,"is_disabled":false,"rental_uris":{"android":"levelo://app?vid=e442f200-afef-478e-8575-d8056ddaaaa3","ios":"levelo://app?vid=e442f200-afef-478e-8575-d8056ddaaaa3"},"vehicle_type_id":"4","last_reported":1771230885,"current_range_meters":36000,"station_id":"st_cvj6r9ubvosntc0bgbag","pricing_plan_id":"cebpf4jnsgd1na2vs0mg"},{"bike_id":"515e69f0-7e0f-43d7-80ab-32b52b99020c","system_id":"levelo_inurba_marseille","lat":43.27388,"lon":5.39414,"is_reserved":false,"is_disabled":false,"rental_uris":{"android":"levelo://app?vid=515e69f0-7e0f-43d7-80ab-32b52b99020c","ios":"levelo://app?vid=515e69f0-7e0f-43d7-80ab-32b52b99020c"},"vehicle_type_id":"4","last_reported":1771230885,"current_range_meters":24400,"station_id":"ce4bhdp2rcd13ifvqf20","pricing_plan_id":"cebpf4jnsgd1na2vs0mg"},{"bike_id":"6c9d2f17-7703-4a46-b1ed-4636c6788f94","system_id":"levelo_inurba_marseille","lat":43.3054,"lon":5.36564,"is_reserved":false,"is_disabled":false,"rental_uris":{"android":"levelo://app?vid=6c9d2f17-7703-4a46-b1ed-4636c6788f94","ios":"levelo://app?vid=6c9d2f17-7703-4a46-b1ed-4636c6788f94"},"vehicle_type_id":"4","last_reported":1771230885,"current_range_meters":16800,"station_id":"ce4bgs12rcd13ifvqcag","pricing_plan_id":"cebpf4jnsgd1na2vs0mg"},{"bike_id":"d639211d-aaf1-4624-82a8-69cd6e860d35","system_id":"levelo_inurba_marseille","lat":43.28486,"lon":5.48393,"is_reserved":false,"is_disabled":false,"rental_uris":{"android":"levelo://app?vid=d639211d-aaf1-4624-82a8-69cd6e860d35","ios":"levelo://app?vid=d639211d-aaf1-4624-82a8-69cd6e860d35"},"vehicle_type_id":"4","last_reported":1771230885,"current_range_meters":35600,"station_id":"st_d3svhcjqgbts73a3dn0g","pricing_plan_id":"cebpf4jnsgd1na2vs0mg"},{"bike_id":"5921a887-9a7a-4308-927c-167c45306256","system_id":"levelo_inurba_marseille","lat":43.27169,"lon":5.40989,"is_reserved":false,"is_disabled":true,"rental_uris":{"android":"levelo://app?vid=5921a887-9a7a-4308-927c-167c45306256","ios":"levelo://app?vid=5921a887-9a7a-4308-927c-167c45306256"},"vehicle_type_id":"4","last_reported":1771230885,"current_range_meters":39200,"station_id":"ce4bhl12rcd13ifvqgf0","pricing_plan_id":"cebpf4jnsgd1na2vs0mg"},{"bike_id":"cf07e6f1-dc12-49c3-b328-c7bc76c7a3a8","system_id":"levelo_inurba_marseille","lat":43.29534,"lon":5.37514,"is_reserved":false,"is_disabled":false,"rental_uris":{"android":"levelo://app?vid=cf07e6f1-dc12-49c3-b328-c7bc76c7a3a8","ios":"levelo://app?vid=cf07e6f1-dc12-49c3-b328-c7bc76c7a3a8"},"vehicle_type_id":"4","last_reported":1771230885,"current_range_meters":12400,"station_id":"ce4bgkp2rcd13ifvqbmg","pricing_plan_id":"cebpf4jnsgd1na2vs0mg"},{"bike_id":"c7f2ec22-a521-426d-8fc1-fe462d2718e7","system_id":"levelo_inurba_marseille","lat":43.22551,"lon":5.41626,"is_reserved":false,"is_disabled":false,"rental_uris":{"android":"levelo://app?vid=c7f2ec22-a521-426d-8fc1-fe462d2718e7","ios":"levelo://app?vid=c7f2ec22-a521-426d-8fc1-fe462d2718e7"},"vehicle_type_id":"4","last_reported":1771230885,"current_range_meters":10800,"station_id":"st_d2o4gvlbi1j2169b742g","pricing_plan_id":"cebpf4jnsgd1na2vs0mg"},{"bike_id":"81dc3211-2d32-43a3-ab66-e02093023e2f","system_id":"levelo_inurba_marseille","lat":43.28409,"lon":5.35007,"is_reserved":false,"is_disabled":false,"rental_uris":{"android":"levelo://app?vid=81dc3211-2d32-43a3-ab66-e02093023e2f","ios":"levelo://app?vid=81dc3211-2d32-43a3-ab66-e02093023e2f"},"vehicle_type_id":"4","last_reported":1771230885,"current_range_meters":12400,"station_id":"ce4bhbh2rcd13ifvqepg","pricing_plan_id":"cebpf4jnsgd1na2vs0mg"},{"bike_id":"26efeaeb-45ad-456c-8f71-142f8b7edd3d","system_id":"levelo_inurba_marseille","lat":43.30577,"lon":5.36698,"is_reserved":false,"is_disabled":false,"rental_uris":{"android":"levelo://app?vid=26efeaeb-45ad-456c-8f71-142f8b7edd3d","ios":"levelo://app?vid=26efeaeb-45ad-456c-8f71-142f8b7edd3d"},"vehicle_type_id":"4","last_reported":1771230885,"current_range_meters":38400,"station_id":"ce4bgrp2rcd13ifvqc9g","pricing_plan_id":"cebpf4jnsgd1na2vs0mg"},{"bike_id":"d004dfa6-5530-4c78-aa84-86af20db8f46","system_id":"levelo_inurba_marseille","lat":43.30973,"lon":5.39067,"is_reserved":false,"is_disabled":false,"rental_uris":{"android":"levelo://app?vid=d004dfa6-5530-4c78-aa84-86af20db8f46","ios":"levelo://app?vid=d004dfa6-5530-4c78-aa84-86af20db8f46"},"vehicle_type_id":"4","last_reported":1771230885,"current_range_meters":32400,"station_id":"ce4bgup2rcd13ifvqco0","pricing_plan_id":"cebpf4jnsgd1na2vs0mg"},{"bike_id":"bb1fbe0a-a8f2-401c-9697-7b00dee2e90e","system_id":"levelo_inurba_marseille","lat":43.31379,"lon":5.38501,"is_reserved":false,"is_disabled":false,"rental_uris":{"android":"levelo://app?vid=bb1fbe0a-a8f2-401c-9697-7b00dee2e90e","ios":"levelo://app?vid=bb1fbe0a-a8f2-401c-9697-7b00dee2e90e"},"vehicle_type_id":"4","last_reported":1771230885,"current_range_meters":34000,"station_id":"ce4bgt92rcd13ifvqcf0","pricing_plan_id":"cebpf4jnsgd1na2vs0mg"},{"bike_id":"91963fa7-078a-4377-aa2a-ad5c4f33ceaf","system_id":"levelo_inurba_marseille","lat":43.30306,"lon":5.36886,"is_reserved":false,"is_disabled":false,"rental_uris":{"android":"levelo://app?vid=91963fa7-078a-4377-aa2a-ad5c4f33ceaf","ios":"levelo://app?vid=91963fa7-078a-4377-aa2a-ad5c4f33ceaf"},"vehicle_type_id":"4","last_reported":1771230885,"current_range_meters":29600,"station_id":"ce4bgqh2rcd13ifvqc5g","pricing_plan_id":"cebpf4jnsgd1na2vs0mg"},{"bike_id":"d4c65e86-e8ab-44ba-a8a9-8e759dc3c54f","system_id":"levelo_inurba_marseille","lat":43.29202,"lon":5.35813,"is_reserved":false,"is_disabled":false,"rental_uris":{"android":"levelo://app?vid=d4c65e86-e8ab-44ba-a8a9-8e759dc3c54f","ios":"levelo://app?vid=d4c65e86-e8ab-44ba-a8a9-8e759dc3c54f"},"vehicle_type_id":"4","last_reported":1771230885,"current_range_meters":38400,"station_id":"ce4bhb12rcd13ifvqel0","pricing_plan_id":"cebpf4jnsgd1na2vs0mg"},{"bike_id":"80c9dbcb-473b-420b-ac23-7cbf46b34802","system_id":"levelo_inurba_marseille","lat":43.25941,"lon":5.40915,"is_reserved":false,"is_disabled":false,"rental_uris":{"android":"levelo://app?vid=80c9dbcb-473b-420b-ac23-7cbf46b34802","ios":"levelo://app?vid=80c9dbcb-473b-420b-ac23-7cbf46b34802"},"vehicle_type_id":"4","last_reported":1771230885,"current_range_meters":9200,"station_id":"ce4bhm92rcd13ifvqglg","pricing_plan_id":"cebpf4jnsgd1na2vs0mg"},{"bike_id":"22eb71bc-c666-42cd-a133-d91bdf7e2451","system_id":"levelo_inurba_marseille","lat":43.31258,"lon":5.36863,"is_reserved":false,"is_disabled":false,"rental_uris":{"android":"levelo://app?vid=22eb71bc-c666-42cd-a133-d91bdf7e2451","ios":"levelo://app?vid=22eb71bc-c666-42cd-a133-d91bdf7e2451"},"vehicle_type_id":"4","last_reported":1771230885,"current_range_meters":39200,"station_id":"ce4bgl92rcd13ifvqbq0","pricing_plan_id":"cebpf4jnsgd1na2vs0mg"},{"bike_id":"426a14db-c2f0-47b1-898a-19021c5a141d","system_id":"levelo_inurba_marseille","lat":43.26509,"lon":5.395125,"is_reserved":false,"is_disabled":false,"rental_uris":{"android":"levelo://app?vid=426a14db-c2f0-47b1-898a-19021c5a141d","ios":"levelo://app?vid=426a14db-c2f0-47b1-898a-19021c5a141d"},"vehicle_type_id":"4","last_reported":1771230885,"current_range_meters":27200,"station_id":"ce4bhi12rcd13ifvqfq0","pricing_plan_id":"cebpf4jnsgd1na2vs0mg"},{"bike_id":"665dfa78-442d-48aa-856d-24e1743781b1","system_id":"levelo_inurba_marseille","lat":43.24685,"lon":5.38158,"is_reserved":false,"is_disabled":true,"rental_uris":{"android":"levelo://app?vid=665dfa78-442d-48aa-856d-24e1743781b1","ios":"levelo://app?vid=665dfa78-442d-48aa-856d-24e1743781b1"},"vehicle_type_id":"4","last_reported":1771230885,"current_range_meters":18000,"station_id":"ce4bhih2rcd13ifvqfr0","pricing_plan_id":"cebpf4jnsgd1na2vs0mg"},{"bike_id":"738fdc4b-6f95-4425-b86f-9c36e982b094","system_id":"levelo_inurba_marseille","lat":43.2532,"lon":5.42207,"is_reserved":false,"is_disabled":false,"rental_uris":{"android":"levelo://app?vid=738fdc4b-6f95-4425-b86f-9c36e982b094","ios":"levelo://app?vid=738fdc4b-6f95-4425-b86f-9c36e982b094"},"vehicle_type_id":"4","last_reported":1771230885,"current_range_meters":4800,"station_id":"st_d2m65c5bi1j21697t3ng","pricing_plan_id":"cebpf4jnsgd1na2vs0mg"},{"bike_id":"9f3d1892-dd5c-42ec-8442-7c76069d38b3","system_id":"levelo_inurba_marseille","lat":43.33608,"lon":5.4103,"is_reserved":false,"is_disabled":false,"rental_uris":{"android":"levelo://app?vid=9f3d1892-dd5c-42ec-8442-7c76069d38b3","ios":"levelo://app?vid=9f3d1892-dd5c-42ec-8442-7c76069d38b3"},"vehicle_type_id":"4","last_reported":1771230885,"current_range_meters":12400,"station_id":"ce4bhqh2rcd13ifvqhmg","pricing_plan_id":"cebpf4jnsgd1na2vs0mg"},{"bike_id":"ab099b5d-a36c-4b39-b54f-8fdad1227588","system_id":"levelo_inurba_marseille","lat":43.31035,"lon":5.37185,"is_reserved":false,"is_disabled":false,"rental_uris":{"android":"levelo://app?vid=ab099b5d-a36c-4b39-b54f-8fdad1227588","ios":"levelo://app?vid=ab099b5d-a36c-4b39-b54f-8fdad1227588"},"vehicle_type_id":"4","last_reported":1771230885,"current_range_meters":8800,"station_id":"st_d4kl2rp97mjs73e7tdfg","pricing_plan_id":"cebpf4jnsgd1na2vs0mg"},{"bike_id":"bd6611ce-f7cd-494c-a774-4a5ac620e401","system_id":"levelo_inurba_marseille","lat":43.28284,"lon":5.35073,"is_reserved":false,"is_disabled":true,"rental_uris":{"android":"levelo://app?vid=bd6611ce-f7cd-494c-a774-4a5ac620e401","ios":"levelo://app?vid=bd6611ce-f7cd-494c-a774-4a5ac620e401"},"vehicle_type_id":"4","last_reported":1771230885,"current_range_meters":38400,"station_id":"ce4bhbp2rcd13ifvqerg","pricing_plan_id":"cebpf4jnsgd1na2vs0mg"},{"bike_id":"105a098b-9265-4075-a3f0-0a756d485350","system_id":"levelo_inurba_marseille","lat":43.3024,"lon":5.40091,"is_reserved":false,"is_disabled":true,"rental_uris":{"android":"levelo://app?vid=105a098b-9265-4075-a3f0-0a756d485350","ios":"levelo://app?vid=105a098b-9265-4075-a3f0-0a756d485350"},"vehicle_type_id":"4","last_reported":1771230885,"current_range_meters":26800,"station_id":"ce4bgvh2rcd13ifvqcs0","pricing_plan_id":"cebpf4jnsgd1na2vs0mg"},{"bike_id":"0fbe9b61-af6b-4ea3-8cb0-96dab142f627","system_id":"levelo_inurba_marseille","lat":43.32492,"lon":5.36585,"is_reserved":false,"is_disabled":false,"rental_uris":{"android":"levelo://app?vid=0fbe9b61-af6b-4ea3-8cb0-96dab142f627","ios":"levelo://app?vid=0fbe9b61-af6b-4ea3-8cb0-96dab142f627"},"vehicle_type_id":"4","last_reported":1771230885,"current_range_meters":27200,"station_id":"ce4bhs12rcd13ifvqhvg","pricing_plan_id":"cebpf4jnsgd1na2vs0mg"},{"bike_id":"62675a50-3dcc-4bc2-96c3-fb467381d548","system_id":"levelo_inurba_marseille","lat":43.31308,"lon":5.36887,"is_reserved":false,"is_disabled":false,"rental_uris":{"android":"levelo://app?vid=62675a50-3dcc-4bc2-96c3-fb467381d548","ios":"levelo://app?vid=62675a50-3dcc-4bc2-96c3-fb467381d548"},"vehicle_type_id":"4","last_reported":1771230885,"current_range_meters":12000,"station_id":"","pricing_plan_id":"cebpf4jnsgd1na2vs0mg"},{"bike_id":"b848b13f-a5a8-497c-bf73-42ffb911f77e","system_id":"levelo_inurba_marseille","lat":43.284774,"lon":5.484025,"is_reserved":false,"is_disabled":false,"rental_uris":{"android":"levelo://app?vid=b848b13f-a5a8-497c-bf73-42ffb911f77e","ios":"levelo://app?vid=b848b13f-a5a8-497c-bf73-42ffb911f77e"},"vehicle_type_id":"4","last_reported":1771230885,"current_range_meters":22000,"station_id":"st_d3svhcjqgbts73a3dn0g","pricing_plan_id":"cebpf4jnsgd1na2vs0mg"},{"bike_id":"ffca88d7-f232-4f6a-b002-c46bcf2da788","system_id":"levelo_inurba_marseille","lat":43.29578,"lon":5.374963,"is_reserved":false,"is_disabled":false,"rental_uris":{"android":"levelo://app?vid=ffca88d7-f232-4f6a-b002-c46bcf2da788","ios":"levelo://app?vid=ffca88d7-f232-4f6a-b002-c46bcf2da788"},"vehicle_type_id":"4","last_reported":1771230885,"current_range_meters":26000,"station_id":"ce4bgh92rcd13ifvqb50","pricing_plan_id":"cebpf4jnsgd1na2vs0mg"},{"bike_id":"bd65881a-c67d-4bbe-8994-4c4229c6c91d","system_id":"levelo_inurba_marseille","lat":43.324797,"lon":5.365587,"is_reserved":false,"is_disabled":false,"rental_uris":{"android":"levelo://app?vid=bd65881a-c67d-4bbe-8994-4c4229c6c91d","ios":"levelo://app?vid=bd65881a-c67d-4bbe-8994-4c4229c6c91d"},"vehicle_type_id":"4","last_reported":1771230885,"current_range_meters":26000,"station_id":"ce4bhs12rcd13ifvqhvg","pricing_plan_id":"cebpf4jnsgd1na2vs0mg"},{"bike_id":"c18594fb-3ea0-493e-9570-f1f8cca8409b","system_id":"levelo_inurba_marseille","lat":43.326635,"lon":5.409834,"is_reserved":false,"is_disabled":false,"rental_uris":{"android":"levelo://app?vid=c18594fb-3ea0-493e-9570-f1f8cca8409b","ios":"levelo://app?vid=c18594fb-3ea0-493e-9570-f1f8cca8409b"},"vehicle_type_id":"4","last_reported":1771230885,"current_range_meters":8400,"station_id":"ce4bhpp2rcd13ifvqhgg","pricing_plan_id":"cebpf4jnsgd1na2vs0mg"},{"bike_id":"b9d273e4-f6a1-4547-a51b-74bbb29d1520","system_id":"levelo_inurba_marseille","lat":43.32111,"lon":5.36766,"is_reserved":false,"is_disabled":false,"rental_uris":{"android":"levelo://app?vid=b9d273e4-f6a1-4547-a51b-74bbb29d1520","ios":"levelo://app?vid=b9d273e4-f6a1-4547-a51b-74bbb29d1520"},"vehicle_type_id":"4","last_reported":1771230885,"current_range_meters":26000,"station_id":"ce4bhrh2rcd13ifvqhug","pricing_plan_id":"cebpf4jnsgd1na2vs0mg"},{"bike_id":"a20361fa-695a-40fe-a30c-6ec341f0fe26","system_id":"levelo_inurba_marseille","lat":43.31248,"lon":5.36862,"is_reserved":false,"is_disabled":false,"rental_uris":{"android":"levelo://app?vid=a20361fa-695a-40fe-a30c-6ec341f0fe26","ios":"levelo://app?vid=a20361fa-695a-40fe-a30c-6ec341f0fe26"},"vehicle_type_id":"4","last_reported":1771230885,"current_range_meters":9200,"station_id":"ce4bgl92rcd13ifvqbq0","pricing_plan_id":"cebpf4jnsgd1na2vs0mg"},{"bike_id":"c914e886-e8fe-40a0-a72c-6af0f03e82ff","system_id":"levelo_inurba_marseille","lat":43.26223,"lon":5.3744,"is_reserved":false,"is_disabled":false,"rental_uris":{"android":"levelo://app?vid=c914e886-e8fe-40a0-a72c-6af0f03e82ff","ios":"levelo://app?vid=c914e886-e8fe-40a0-a72c-6af0f03e82ff"},"vehicle_type_id":"4","last_reported":1771230885,"current_range_meters":32000,"station_id":"ce4bhgp2rcd13ifvqfc0","pricing_plan_id":"cebpf4jnsgd1na2vs0mg"},{"bike_id":"8bacfe06-2533-44e0-a69f-203ac93e791e","system_id":"levelo_inurba_marseille","lat":43.30137,"lon":5.37402,"is_reserved":false,"is_disabled":false,"rental_uris":{"android":"levelo://app?vid=8bacfe06-2533-44e0-a69f-203ac93e791e","ios":"levelo://app?vid=8bacfe06-2533-44e0-a69f-203ac93e791e"},"vehicle_type_id":"4","last_reported":1771230885,"current_range_meters":18000,"station_id":"ce4bgs92rcd13ifvqcc0","pricing_plan_id":"cebpf4jnsgd1na2vs0mg"},{"bike_id":"e888998d-3079-4932-85a5-aa3d01763fcb","system_id":"levelo_inurba_marseille","lat":43.32362,"lon":5.3891,"is_reserved":false,"is_disabled":false,"rental_uris":{"android":"levelo://app?vid=e888998d-3079-4932-85a5-aa3d01763fcb","ios":"levelo://app?vid=e888998d-3079-4932-85a5-aa3d01763fcb"},"vehicle_type_id":"4","last_reported":1771230885,"current_range_meters":30400,"station_id":"ce4bhqp2rcd13ifvqhog","pricing_plan_id":"cebpf4jnsgd1na2vs0mg"},{"bike_id":"1fc27415-53f3-4de0-ae6d-620fad2e52a7","system_id":"levelo_inurba_marseille","lat":43.27991,"lon":5.41662,"is_reserved":false,"is_disabled":false,"rental_uris":{"android":"levelo://app?vid=1fc27415-53f3-4de0-ae6d-620fad2e52a7","ios":"levelo://app?vid=1fc27415-53f3-4de0-ae6d-620fad2e52a7"},"vehicle_type_id":"4","last_reported":1771230885,"current_range_meters":10800,"station_id":"ce4bho12rcd13ifvqh1g","pricing_plan_id":"cebpf4jnsgd1na2vs0mg"},{"bike_id":"14096945-3ed2-4921-943f-a03af03f353e","system_id":"levelo_inurba_marseille","lat":43.25564,"lon":5.3825,"is_reserved":false,"is_disabled":false,"rental_uris":{"android":"levelo://app?vid=14096945-3ed2-4921-943f-a03af03f353e","ios":"levelo://app?vid=14096945-3ed2-4921-943f-a03af03f353e"},"vehicle_type_id":"4","last_reported":1771230885,"current_range_meters":27200,"station_id":"ce4bhih2rcd13ifvqfs0","pricing_plan_id":"cebpf4jnsgd1na2vs0mg"},{"bike_id":"b5d50a85-871a-40c4-af22-58870467e75b","system_id":"levelo_inurba_marseille","lat":43.27217,"lon":5.39198,"is_reserved":false,"is_disabled":false,"rental_uris":{"android":"levelo://app?vid=b5d50a85-871a-40c4-af22-58870467e75b","ios":"levelo://app?vid=b5d50a85-871a-40c4-af22-58870467e75b"},"vehicle_type_id":"4","last_reported":1771230885,"current_range_meters":3200,"station_id":"ce4bhhp2rcd13ifvqfm0","pricing_plan_id":"cebpf4jnsgd1na2vs0mg"},{"bike_id":"a61146ea-5261-4841-ba17-742a5abf0e82","system_id":"levelo_inurba_marseille","lat":43.31711,"lon":5.40435,"is_reserved":false,"is_disabled":false,"rental_uris":{"android":"levelo://app?vid=a61146ea-5261-4841-ba17-742a5abf0e82","ios":"levelo://app?vid=a61146ea-5261-4841-ba17-742a5abf0e82"},"vehicle_type_id":"4","last_reported":1771230885,"current_range_meters":17600,"station_id":"ce4bh012rcd13ifvqd00","pricing_plan_id":"cebpf4jnsgd1na2vs0mg"},{"bike_id":"82ff31fa-b07f-4a5c-8124-fcb11257a59f","system_id":"levelo_inurba_marseille","lat":43.28981,"lon":5.37837,"is_reserved":false,"is_disabled":false,"rental_uris":{"android":"levelo://app?vid=82ff31fa-b07f-4a5c-8124-fcb11257a59f","ios":"levelo://app?vid=82ff31fa-b07f-4a5c-8124-fcb11257a59f"},"vehicle_type_id":"4","last_reported":1771230885,"current_range_meters":24400,"station_id":"ce4bh9p2rcd13ifvqed0","pricing_plan_id":"cebpf4jnsgd1na2vs0mg"},{"bike_id":"8dec5347-1be6-4152-8c8c-8bab081e0581","system_id":"levelo_inurba_marseille","lat":43.27415,"lon":5.39396,"is_reserved":false,"is_disabled":false,"rental_uris":{"android":"levelo://app?vid=8dec5347-1be6-4152-8c8c-8bab081e0581","ios":"levelo://app?vid=8dec5347-1be6-4152-8c8c-8bab081e0581"},"vehicle_type_id":"4","last_reported":1771230885,"current_range_meters":39200,"station_id":"ce4bhdp2rcd13ifvqf20","pricing_plan_id":"cebpf4jnsgd1na2vs0mg"},{"bike_id":"2ad7655b-8229-441b-96b5-358ff67b20ec","system_id":"levelo_inurba_marseille","lat":43.29147,"lon":5.40039,"is_reserved":false,"is_disabled":false,"rental_uris":{"android":"levelo://app?vid=2ad7655b-8229-441b-96b5-358ff67b20ec","ios":"levelo://app?vid=2ad7655b-8229-441b-96b5-358ff67b20ec"},"vehicle_type_id":"4","last_reported":1771230885,"current_range_meters":40000,"station_id":"ce4bh392rcd13ifvqdm0","pricing_plan_id":"cebpf4jnsgd1na2vs0mg"},{"bike_id":"a1f4772c-94a4-4230-b4fd-d036b61b8790","system_id":"levelo_inurba_marseille","lat":43.31523,"lon":5.38058,"is_reserved":false,"is_disabled":false,"rental_uris":{"android":"levelo://app?vid=a1f4772c-94a4-4230-b4fd-d036b61b8790","ios":"levelo://app?vid=a1f4772c-94a4-4230-b4fd-d036b61b8790"},"vehicle_type_id":"4","last_reported":1771230885,"current_range_meters":30800,"station_id":"ce4bhsp2rcd13ifvqi50","pricing_plan_id":"cebpf4jnsgd1na2vs0mg"},{"bike_id":"c9b76f97-4777-40f7-8438-ab341a9656e1","system_id":"levelo_inurba_marseille","lat":43.29843,"lon":5.36284,"is_reserved":false,"is_disabled":false,"rental_uris":{"android":"levelo://app?vid=c9b76f97-4777-40f7-8438-ab341a9656e1","ios":"levelo://app?vid=c9b76f97-4777-40f7-8438-ab341a9656e1"},"vehicle_type_id":"4","last_reported":1771230885,"current_range_meters":39200,"station_id":"ce4bgpp2rcd13ifvqc3g","pricing_plan_id":"cebpf4jnsgd1na2vs0mg"},{"bike_id":"ee2b5071-ed9e-4264-a26d-fa5dc69516d9","system_id":"levelo_inurba_marseille","lat":43.2918,"lon":5.35822,"is_reserved":false,"is_disabled":false,"rental_uris":{"android":"levelo://app?vid=ee2b5071-ed9e-4264-a26d-fa5dc69516d9","ios":"levelo://app?vid=ee2b5071-ed9e-4264-a26d-fa5dc69516d9"},"vehicle_type_id":"4","last_reported":1771230885,"current_range_meters":14800,"station_id":"ce4bhb12rcd13ifvqel0","pricing_plan_id":"cebpf4jnsgd1na2vs0mg"},{"bike_id":"73cf0315-c238-4d9b-87bc-4dd3ca32bc9a","system_id":"levelo_inurba_marseille","lat":43.31059,"lon":5.3718,"is_reserved":false,"is_disabled":false,"rental_uris":{"android":"levelo://app?vid=73cf0315-c238-4d9b-87bc-4dd3ca32bc9a","ios":"levelo://app?vid=73cf0315-c238-4d9b-87bc-4dd3ca32bc9a"},"vehicle_type_id":"4","last_reported":1771230885,"current_range_meters":24000,"station_id":"st_d4kl2rp97mjs73e7tdfg","pricing_plan_id":"cebpf4jnsgd1na2vs0mg"},{"bike_id":"196e509c-f0de-4ce9-b80b-e00a1cb9acd5","system_id":"levelo_inurba_marseille","lat":43.28,"lon":5.41626,"is_reserved":false,"is_disabled":false,"rental_uris":{"android":"levelo://app?vid=196e509c-f0de-4ce9-b80b-e00a1cb9acd5","ios":"levelo://app?vid=196e509c-f0de-4ce9-b80b-e00a1cb9acd5"},"vehicle_type_id":"4","last_reported":1771230885,"current_range_meters":24800,"station_id":"ce4bho12rcd13ifvqh1g","pricing_plan_id":"cebpf4jnsgd1na2vs0mg"},{"bike_id":"29aaeded-6fbf-4914-8e01-d1b40b6726f9","system_id":"levelo_inurba_marseille","lat":43.26188,"lon":5.37446,"is_reserved":false,"is_disabled":false,"rental_uris":{"android":"levelo://app?vid=29aaeded-6fbf-4914-8e01-d1b40b6726f9","ios":"levelo://app?vid=29aaeded-6fbf-4914-8e01-d1b40b6726f9"},"vehicle_type_id":"4","last_reported":1771230885,"current_range_meters":11200,"station_id":"ce4bhgp2rcd13ifvqfc0","pricing_plan_id":"cebpf4jnsgd1na2vs0mg"},{"bike_id":"a6e4eec4-81e5-40e5-8444-a387e909be31","system_id":"levelo_inurba_marseille","lat":43.29286,"lon":5.38481,"is_reserved":false,"is_disabled":false,"rental_uris":{"android":"levelo://app?vid=a6e4eec4-81e5-40e5-8444-a387e909be31","ios":"levelo://app?vid=a6e4eec4-81e5-40e5-8444-a387e909be31"},"vehicle_type_id":"4","last_reported":1771230885,"current_range_meters":4000,"station_id":"","pricing_plan_id":"cebpf4jnsgd1na2vs0mg"},{"bike_id":"f4b3252e-d05c-4d9f-bef4-68d0830260bc","system_id":"levelo_inurba_marseille","lat":43.30131,"lon":5.37406,"is_reserved":false,"is_disabled":false,"rental_uris":{"android":"levelo://app?vid=f4b3252e-d05c-4d9f-bef4-68d0830260bc","ios":"levelo://app?vid=f4b3252e-d05c-4d9f-bef4-68d0830260bc"},"vehicle_type_id":"4","last_reported":1771230885,"current_range_meters":27200,"station_id":"ce4bgs92rcd13ifvqcc0","pricing_plan_id":"cebpf4jnsgd1na2vs0mg"},{"bike_id":"18b069ad-cc52-4807-aeb7-a8b1dfae5cca","system_id":"levelo_inurba_marseille","lat":43.28432,"lon":5.34974,"is_reserved":false,"is_disabled":false,"rental_uris":{"android":"levelo://app?vid=18b069ad-cc52-4807-aeb7-a8b1dfae5cca","ios":"levelo://app?vid=18b069ad-cc52-4807-aeb7-a8b1dfae5cca"},"vehicle_type_id":"4","last_reported":1771230885,"current_range_meters":8000,"station_id":"ce4bhbh2rcd13ifvqepg","pricing_plan_id":"cebpf4jnsgd1na2vs0mg"},{"bike_id":"8919023d-8f7d-4885-abde-e46ab377a055","system_id":"levelo_inurba_marseille","lat":43.2848,"lon":5.38429,"is_reserved":false,"is_disabled":false,"rental_uris":{"android":"levelo://app?vid=8919023d-8f7d-4885-abde-e46ab377a055","ios":"levelo://app?vid=8919023d-8f7d-4885-abde-e46ab377a055"},"vehicle_type_id":"4","last_reported":1771230885,"current_range_meters":39200,"station_id":"ce4bh512rcd13ifvqe3g","pricing_plan_id":"cebpf4jnsgd1na2vs0mg"},{"bike_id":"cdb31bb4-370c-491d-8d68-0dceed9d9223","system_id":"levelo_inurba_marseille","lat":43.33556,"lon":5.37414,"is_reserved":false,"is_disabled":false,"rental_uris":{"android":"levelo://app?vid=cdb31bb4-370c-491d-8d68-0dceed9d9223","ios":"levelo://app?vid=cdb31bb4-370c-491d-8d68-0dceed9d9223"},"vehicle_type_id":"4","last_reported":1771230885,"current_range_meters":33200,"station_id":"st_d46tts09ee8s73dlu43g","pricing_plan_id":"cebpf4jnsgd1na2vs0mg"},{"bike_id":"f8193003-5b33-4380-b07e-3719336a3d0c","system_id":"levelo_inurba_marseille","lat":43.27942,"lon":5.41052,"is_reserved":false,"is_disabled":false,"rental_uris":{"android":"levelo://app?vid=f8193003-5b33-4380-b07e-3719336a3d0c","ios":"levelo://app?vid=f8193003-5b33-4380-b07e-3719336a3d0c"},"vehicle_type_id":"4","last_reported":1771230885,"current_range_meters":12800,"station_id":"ce4bhnp2rcd13ifvqh0g","pricing_plan_id":"cebpf4jnsgd1na2vs0mg"},{"bike_id":"303b4144-16be-4c28-a25b-80abad99aab4","system_id":"levelo_inurba_marseille","lat":43.293,"lon":5.36846,"is_reserved":false,"is_disabled":false,"rental_uris":{"android":"levelo://app?vid=303b4144-16be-4c28-a25b-80abad99aab4","ios":"levelo://app?vid=303b4144-16be-4c28-a25b-80abad99aab4"},"vehicle_type_id":"4","last_reported":1771230885,"current_range_meters":29600,"station_id":"ce4bhbp2rcd13ifvqesg","pricing_plan_id":"cebpf4jnsgd1na2vs0mg"},{"bike_id":"eea61ef8-a327-4dc2-8365-cc3ec10beb2f","system_id":"levelo_inurba_marseille","lat":43.27065,"lon":5.38316,"is_reserved":false,"is_disabled":false,"rental_uris":{"android":"levelo://app?vid=eea61ef8-a327-4dc2-8365-cc3ec10beb2f","ios":"levelo://app?vid=eea61ef8-a327-4dc2-8365-cc3ec10beb2f"},"vehicle_type_id":"4","last_reported":1771230885,"current_range_meters":30400,"station_id":"st_d3n2fo6cfp8s73cte1j0","pricing_plan_id":"cebpf4jnsgd1na2vs0mg"},{"bike_id":"d2ed726d-49b0-4277-8a21-0f15f6cd9ff9","system_id":"levelo_inurba_marseille","lat":43.27498,"lon":5.42461,"is_reserved":false,"is_disabled":false,"rental_uris":{"android":"levelo://app?vid=d2ed726d-49b0-4277-8a21-0f15f6cd9ff9","ios":"levelo://app?vid=d2ed726d-49b0-4277-8a21-0f15f6cd9ff9"},"vehicle_type_id":"4","last_reported":1771230885,"current_range_meters":17600,"station_id":"ce4bhn92rcd13ifvqgrg","pricing_plan_id":"cebpf4jnsgd1na2vs0mg"},{"bike_id":"d0af0967-4f64-45d2-aeab-b15286d65704","system_id":"levelo_inurba_marseille","lat":43.33125,"lon":5.39271,"is_reserved":false,"is_disabled":false,"rental_uris":{"android":"levelo://app?vid=d0af0967-4f64-45d2-aeab-b15286d65704","ios":"levelo://app?vid=d0af0967-4f64-45d2-aeab-b15286d65704"},"vehicle_type_id":"4","last_reported":1771230885,"current_range_meters":26000,"station_id":"","pricing_plan_id":"cebpf4jnsgd1na2vs0mg"},{"bike_id":"7c11e683-0ef8-4bac-8048-16f7653ced54","system_id":"levelo_inurba_marseille","lat":43.28621,"lon":5.35099,"is_reserved":false,"is_disabled":false,"rental_uris":{"android":"levelo://app?vid=7c11e683-0ef8-4bac-8048-16f7653ced54","ios":"levelo://app?vid=7c11e683-0ef8-4bac-8048-16f7653ced54"},"vehicle_type_id":"4","last_reported":1771230885,"current_range_meters":17200,"station_id":"ce4bhch2rcd13ifvqeug","pricing_plan_id":"cebpf4jnsgd1na2vs0mg"},{"bike_id":"4932e24b-f2ef-4e1d-8d26-86e9c422ae44","system_id":"levelo_inurba_marseille","lat":43.32122,"lon":5.36771,"is_reserved":false,"is_disabled":false,"rental_uris":{"android":"levelo://app?vid=4932e24b-f2ef-4e1d-8d26-86e9c422ae44","ios":"levelo://app?vid=4932e24b-f2ef-4e1d-8d26-86e9c422ae44"},"vehicle_type_id":"4","last_reported":1771230885,"current_range_meters":27200,"station_id":"ce4bhrh2rcd13ifvqhug","pricing_plan_id":"cebpf4jnsgd1na2vs0mg"},{"bike_id":"8d70ffb1-4825-4857-834d-ae10bebbcea9","system_id":"levelo_inurba_marseille","lat":43.29118,"lon":5.40128,"is_reserved":false,"is_disabled":false,"rental_uris":{"android":"levelo://app?vid=8d70ffb1-4825-4857-834d-ae10bebbcea9","ios":"levelo://app?vid=8d70ffb1-4825-4857-834d-ae10bebbcea9"},"vehicle_type_id":"4","last_reported":1771230885,"current_range_meters":30400,"station_id":"ce4bh392rcd13ifvqdm0","pricing_plan_id":"cebpf4jnsgd1na2vs0mg"},{"bike_id":"55c65c5b-03f9-45d4-bb05-1a7b0bc5890c","system_id":"levelo_inurba_marseille","lat":43.33581,"lon":5.4099,"is_reserved":false,"is_disabled":false,"rental_uris":{"android":"levelo://app?vid=55c65c5b-03f9-45d4-bb05-1a7b0bc5890c","ios":"levelo://app?vid=55c65c5b-03f9-45d4-bb05-1a7b0bc5890c"},"vehicle_type_id":"4","last_reported":1771230885,"current_range_meters":33200,"station_id":"ce4bhqh2rcd13ifvqhmg","pricing_plan_id":"cebpf4jnsgd1na2vs0mg"},{"bike_id":"06b0e8ea-5721-4b06-a488-b9703e22c1ac","system_id":"levelo_inurba_marseille","lat":43.286218,"lon":5.351039,"is_reserved":false,"is_disabled":false,"rental_uris":{"android":"levelo://app?vid=06b0e8ea-5721-4b06-a488-b9703e22c1ac","ios":"levelo://app?vid=06b0e8ea-5721-4b06-a488-b9703e22c1ac"},"vehicle_type_id":"4","last_reported":1771230885,"current_range_meters":4000,"station_id":"ce4bhch2rcd13ifvqeug","pricing_plan_id":"cebpf4jnsgd1na2vs0mg"},{"bike_id":"616b704e-7d16-4e17-a28f-67c31fbd5cd3","system_id":"levelo_inurba_marseille","lat":43.30931,"lon":5.3685,"is_reserved":false,"is_disabled":false,"rental_uris":{"android":"levelo://app?vid=616b704e-7d16-4e17-a28f-67c31fbd5cd3","ios":"levelo://app?vid=616b704e-7d16-4e17-a28f-67c31fbd5cd3"},"vehicle_type_id":"4","last_reported":1771230885,"current_range_meters":33200,"station_id":"ce4bgn92rcd13ifvqbvg","pricing_plan_id":"cebpf4jnsgd1na2vs0mg"},{"bike_id":"9a868836-8073-418b-87ef-ac75ac8e2e05","system_id":"levelo_inurba_marseille","lat":43.31402,"lon":5.36692,"is_reserved":false,"is_disabled":false,"rental_uris":{"android":"levelo://app?vid=9a868836-8073-418b-87ef-ac75ac8e2e05","ios":"levelo://app?vid=9a868836-8073-418b-87ef-ac75ac8e2e05"},"vehicle_type_id":"4","last_reported":1771230885,"current_range_meters":37600,"station_id":"","pricing_plan_id":"cebpf4jnsgd1na2vs0mg"},{"bike_id":"bd0e99a1-4162-41ae-b356-8cc729f7fd82","system_id":"levelo_inurba_marseille","lat":43.23976,"lon":5.3663,"is_reserved":false,"is_disabled":false,"rental_uris":{"android":"levelo://app?vid=bd0e99a1-4162-41ae-b356-8cc729f7fd82","ios":"levelo://app?vid=bd0e99a1-4162-41ae-b356-8cc729f7fd82"},"vehicle_type_id":"4","last_reported":1771230885,"current_range_meters":9200,"station_id":"ce4bhi12rcd13ifvqfp0","pricing_plan_id":"cebpf4jnsgd1na2vs0mg"},{"bike_id":"3d69156c-572f-4b50-bfc8-dd5d9f6e75cc","system_id":"levelo_inurba_marseille","lat":43.25089,"lon":5.39512,"is_reserved":false,"is_disabled":true,"rental_uris":{"android":"levelo://app?vid=3d69156c-572f-4b50-bfc8-dd5d9f6e75cc","ios":"levelo://app?vid=3d69156c-572f-4b50-bfc8-dd5d9f6e75cc"},"vehicle_type_id":"4","last_reported":1771230885,"current_range_meters":8800,"station_id":"ce4bhm12rcd13ifvqgkg","pricing_plan_id":"cebpf4jnsgd1na2vs0mg"},{"bike_id":"fd76e098-63f4-492b-a459-89bd3be608cb","system_id":"levelo_inurba_marseille","lat":43.2455,"lon":5.39523,"is_reserved":false,"is_disabled":false,"rental_uris":{"android":"levelo://app?vid=fd76e098-63f4-492b-a459-89bd3be608cb","ios":"levelo://app?vid=fd76e098-63f4-492b-a459-89bd3be608cb"},"vehicle_type_id":"4","last_reported":1771230885,"current_range_meters":38000,"station_id":"ce4bhlp2rcd13ifvqgjg","pricing_plan_id":"cebpf4jnsgd1na2vs0mg"},{"bike_id":"5dfa813e-f9ca-45a6-9eda-c32bff3eea66","system_id":"levelo_inurba_marseille","lat":43.24395,"lon":5.37046,"is_reserved":false,"is_disabled":true,"rental_uris":{"android":"levelo://app?vid=5dfa813e-f9ca-45a6-9eda-c32bff3eea66","ios":"levelo://app?vid=5dfa813e-f9ca-45a6-9eda-c32bff3eea66"},"vehicle_type_id":"4","last_reported":1771230885,"current_range_meters":24800,"station_id":"ce4bhhh2rcd13ifvqfk0","pricing_plan_id":"cebpf4jnsgd1na2vs0mg"},{"bike_id":"7e5392f3-a67b-424e-a0c9-2a977c447c25","system_id":"levelo_inurba_marseille","lat":43.24054,"lon":5.37739,"is_reserved":false,"is_disabled":false,"rental_uris":{"android":"levelo://app?vid=7e5392f3-a67b-424e-a0c9-2a977c447c25","ios":"levelo://app?vid=7e5392f3-a67b-424e-a0c9-2a977c447c25"},"vehicle_type_id":"4","last_reported":1771230885,"current_range_meters":24800,"station_id":"ce4bhnp2rcd13ifvqgvg","pricing_plan_id":"cebpf4jnsgd1na2vs0mg"},{"bike_id":"934f790d-76eb-4645-b594-378370de8196","system_id":"levelo_inurba_marseille","lat":43.30138,"lon":5.38096,"is_reserved":false,"is_disabled":false,"rental_uris":{"android":"levelo://app?vid=934f790d-76eb-4645-b594-378370de8196","ios":"levelo://app?vid=934f790d-76eb-4645-b594-378370de8196"},"vehicle_type_id":"4","last_reported":1771230885,"current_range_meters":38400,"station_id":"ce4bgjp2rcd13ifvqbh0","pricing_plan_id":"cebpf4jnsgd1na2vs0mg"},{"bike_id":"b46161f1-e7ec-4cb9-92f2-dc2b4e46716b","system_id":"levelo_inurba_marseille","lat":43.30551,"lon":5.36535,"is_reserved":false,"is_disabled":false,"rental_uris":{"android":"levelo://app?vid=b46161f1-e7ec-4cb9-92f2-dc2b4e46716b","ios":"levelo://app?vid=b46161f1-e7ec-4cb9-92f2-dc2b4e46716b"},"vehicle_type_id":"4","last_reported":1771230885,"current_range_meters":13600,"station_id":"ce4bgs12rcd13ifvqcag","pricing_plan_id":"cebpf4jnsgd1na2vs0mg"},{"bike_id":"420cfe74-f9fd-4625-bcb5-cf2a00a9458e","system_id":"levelo_inurba_marseille","lat":43.30944,"lon":5.39041,"is_reserved":false,"is_disabled":false,"rental_uris":{"android":"levelo://app?vid=420cfe74-f9fd-4625-bcb5-cf2a00a9458e","ios":"levelo://app?vid=420cfe74-f9fd-4625-bcb5-cf2a00a9458e"},"vehicle_type_id":"4","last_reported":1771230885,"current_range_meters":10800,"station_id":"ce4bgup2rcd13ifvqco0","pricing_plan_id":"cebpf4jnsgd1na2vs0mg"},{"bike_id":"821fb0be-7499-4473-8aa4-d25dd4bfdb68","system_id":"levelo_inurba_marseille","lat":43.269484,"lon":5.386217,"is_reserved":false,"is_disabled":true,"rental_uris":{"android":"levelo://app?vid=821fb0be-7499-4473-8aa4-d25dd4bfdb68","ios":"levelo://app?vid=821fb0be-7499-4473-8aa4-d25dd4bfdb68"},"vehicle_type_id":"4","last_reported":1771230885,"current_range_meters":30400,"station_id":"ce4bhh92rcd13ifvqfh0","pricing_plan_id":"cebpf4jnsgd1na2vs0mg"},{"bike_id":"e70e0676-153d-400d-9abb-92f5933a611c","system_id":"levelo_inurba_marseille","lat":43.24068,"lon":5.37725,"is_reserved":false,"is_disabled":false,"rental_uris":{"android":"levelo://app?vid=e70e0676-153d-400d-9abb-92f5933a611c","ios":"levelo://app?vid=e70e0676-153d-400d-9abb-92f5933a611c"},"vehicle_type_id":"4","last_reported":1771230885,"current_range_meters":32000,"station_id":"ce4bhnp2rcd13ifvqgvg","pricing_plan_id":"cebpf4jnsgd1na2vs0mg"},{"bike_id":"aab1f510-8226-43d7-a5c8-ac2808d65c0b","system_id":"levelo_inurba_marseille","lat":43.27212,"lon":5.40967,"is_reserved":false,"is_disabled":false,"rental_uris":{"android":"levelo://app?vid=aab1f510-8226-43d7-a5c8-ac2808d65c0b","ios":"levelo://app?vid=aab1f510-8226-43d7-a5c8-ac2808d65c0b"},"vehicle_type_id":"4","last_reported":1771230885,"current_range_meters":26000,"station_id":"","pricing_plan_id":"cebpf4jnsgd1na2vs0mg"},{"bike_id":"66c6f93c-a08b-4071-82ef-3029409742dd","system_id":"levelo_inurba_marseille","lat":43.29566,"lon":5.37532,"is_reserved":false,"is_disabled":false,"rental_uris":{"android":"levelo://app?vid=66c6f93c-a08b-4071-82ef-3029409742dd","ios":"levelo://app?vid=66c6f93c-a08b-4071-82ef-3029409742dd"},"vehicle_type_id":"4","last_reported":1771230885,"current_range_meters":11200,"station_id":"ce4bgh92rcd13ifvqb50","pricing_plan_id":"cebpf4jnsgd1na2vs0mg"},{"bike_id":"1c22f7a6-9a8b-4720-a4f3-42877a227b89","system_id":"levelo_inurba_marseille","lat":43.24094,"lon":5.37753,"is_reserved":false,"is_disabled":false,"rental_uris":{"android":"levelo://app?vid=1c22f7a6-9a8b-4720-a4f3-42877a227b89","ios":"levelo://app?vid=1c22f7a6-9a8b-4720-a4f3-42877a227b89"},"vehicle_type_id":"4","last_reported":1771230885,"current_range_meters":27600,"station_id":"ce4bhnp2rcd13ifvqgvg","pricing_plan_id":"cebpf4jnsgd1na2vs0mg"},{"bike_id":"9f09070f-e097-4b74-98ad-aa6af97315f7","system_id":"levelo_inurba_marseille","lat":43.258615,"lon":5.39903,"is_reserved":false,"is_disabled":false,"rental_uris":{"android":"levelo://app?vid=9f09070f-e097-4b74-98ad-aa6af97315f7","ios":"levelo://app?vid=9f09070f-e097-4b74-98ad-aa6af97315f7"},"vehicle_type_id":"4","last_reported":1771230885,"current_range_meters":29600,"station_id":"ce4bhl92rcd13ifvqghg","pricing_plan_id":"cebpf4jnsgd1na2vs0mg"},{"bike_id":"33da8187-3eb8-4f3e-970f-0ece9caa0bce","system_id":"levelo_inurba_marseille","lat":43.24943,"lon":5.40506,"is_reserved":false,"is_disabled":false,"rental_uris":{"android":"levelo://app?vid=33da8187-3eb8-4f3e-970f-0ece9caa0bce","ios":"levelo://app?vid=33da8187-3eb8-4f3e-970f-0ece9caa0bce"},"vehicle_type_id":"4","last_reported":1771230885,"current_range_meters":33600,"station_id":"st_d2ngiaodas8pm72gd1h0","pricing_plan_id":"cebpf4jnsgd1na2vs0mg"},{"bike_id":"4abae059-0948-4a8a-adf3-ab924239d0d3","system_id":"levelo_inurba_marseille","lat":43.2606,"lon":5.39415,"is_reserved":false,"is_disabled":false,"rental_uris":{"android":"levelo://app?vid=4abae059-0948-4a8a-adf3-ab924239d0d3","ios":"levelo://app?vid=4abae059-0948-4a8a-adf3-ab924239d0d3"},"vehicle_type_id":"4","last_reported":1771230885,"current_range_meters":40000,"station_id":"ce4bhh92rcd13ifvqfj0","pricing_plan_id":"cebpf4jnsgd1na2vs0mg"},{"bike_id":"b07086f2-1315-4da8-a2c3-b1eadd8d2568","system_id":"levelo_inurba_marseille","lat":43.2826,"lon":5.35071,"is_reserved":false,"is_disabled":false,"rental_uris":{"android":"levelo://app?vid=b07086f2-1315-4da8-a2c3-b1eadd8d2568","ios":"levelo://app?vid=b07086f2-1315-4da8-a2c3-b1eadd8d2568"},"vehicle_type_id":"4","last_reported":1771230885,"current_range_meters":20000,"station_id":"ce4bhbp2rcd13ifvqerg","pricing_plan_id":"cebpf4jnsgd1na2vs0mg"},{"bike_id":"63d4a3d0-6c6d-4f7a-9f57-7e8e22ec883c","system_id":"levelo_inurba_marseille","lat":43.26555,"lon":5.37291,"is_reserved":false,"is_disabled":false,"rental_uris":{"android":"levelo://app?vid=63d4a3d0-6c6d-4f7a-9f57-7e8e22ec883c","ios":"levelo://app?vid=63d4a3d0-6c6d-4f7a-9f57-7e8e22ec883c"},"vehicle_type_id":"4","last_reported":1771230885,"current_range_meters":20800,"station_id":"ce4bhg12rcd13ifvqf70","pricing_plan_id":"cebpf4jnsgd1na2vs0mg"},{"bike_id":"9f22dc2b-9bfa-4dc2-8901-6587541840c7","system_id":"levelo_inurba_marseille","lat":43.30601,"lon":5.37294,"is_reserved":false,"is_disabled":false,"rental_uris":{"android":"levelo://app?vid=9f22dc2b-9bfa-4dc2-8901-6587541840c7","ios":"levelo://app?vid=9f22dc2b-9bfa-4dc2-8901-6587541840c7"},"vehicle_type_id":"4","last_reported":1771230885,"current_range_meters":24400,"station_id":"","pricing_plan_id":"cebpf4jnsgd1na2vs0mg"},{"bike_id":"a0086cb1-4402-4fb3-a23f-af0eb34bf57a","system_id":"levelo_inurba_marseille","lat":43.29266,"lon":5.40916,"is_reserved":false,"is_disabled":false,"rental_uris":{"android":"levelo://app?vid=a0086cb1-4402-4fb3-a23f-af0eb34bf57a","ios":"levelo://app?vid=a0086cb1-4402-4fb3-a23f-af0eb34bf57a"},"vehicle_type_id":"4","last_reported":1771230885,"current_range_meters":32800,"station_id":"ce4bh192rcd13ifvqdc0","pricing_plan_id":"cebpf4jnsgd1na2vs0mg"},{"bike_id":"185c435d-ad1f-4775-a4d3-87a9d5d9c111","system_id":"levelo_inurba_marseille","lat":43.26216,"lon":5.40449,"is_reserved":false,"is_disabled":false,"rental_uris":{"android":"levelo://app?vid=185c435d-ad1f-4775-a4d3-87a9d5d9c111","ios":"levelo://app?vid=185c435d-ad1f-4775-a4d3-87a9d5d9c111"},"vehicle_type_id":"4","last_reported":1771230885,"current_range_meters":6400,"station_id":"ce4bhmh2rcd13ifvqgmg","pricing_plan_id":"cebpf4jnsgd1na2vs0mg"},{"bike_id":"62e690f0-63f6-474d-98ba-c3ee77f6bd18","system_id":"levelo_inurba_marseille","lat":43.29576,"lon":5.43916,"is_reserved":false,"is_disabled":false,"rental_uris":{"android":"levelo://app?vid=62e690f0-63f6-474d-98ba-c3ee77f6bd18","ios":"levelo://app?vid=62e690f0-63f6-474d-98ba-c3ee77f6bd18"},"vehicle_type_id":"4","last_reported":1771230885,"current_range_meters":28400,"station_id":"","pricing_plan_id":"cebpf4jnsgd1na2vs0mg"},{"bike_id":"bf095d30-de1b-4172-b488-990340bc8efd","system_id":"levelo_inurba_marseille","lat":43.26801,"lon":5.39461,"is_reserved":false,"is_disabled":false,"rental_uris":{"android":"levelo://app?vid=bf095d30-de1b-4172-b488-990340bc8efd","ios":"levelo://app?vid=bf095d30-de1b-4172-b488-990340bc8efd"},"vehicle_type_id":"4","last_reported":1771230885,"current_range_meters":26000,"station_id":"","pricing_plan_id":"cebpf4jnsgd1na2vs0mg"},{"bike_id":"79c3f43c-8643-4476-956b-ec124659f30d","system_id":"levelo_inurba_marseille","lat":43.3044,"lon":5.36868,"is_reserved":false,"is_disabled":false,"rental_uris":{"android":"levelo://app?vid=79c3f43c-8643-4476-956b-ec124659f30d","ios":"levelo://app?vid=79c3f43c-8643-4476-956b-ec124659f30d"},"vehicle_type_id":"4","last_reported":1771230885,"current_range_meters":23200,"station_id":"","pricing_plan_id":"cebpf4jnsgd1na2vs0mg"},{"bike_id":"1b6fe9e1-bb7d-4a28-9e75-d35fea5945e3","system_id":"levelo_inurba_marseille","lat":43.27918,"lon":5.39594,"is_reserved":false,"is_disabled":false,"rental_uris":{"android":"levelo://app?vid=1b6fe9e1-bb7d-4a28-9e75-d35fea5945e3","ios":"levelo://app?vid=1b6fe9e1-bb7d-4a28-9e75-d35fea5945e3"},"vehicle_type_id":"4","last_reported":1771230885,"current_range_meters":39200,"station_id":"ce4bhf92rcd13ifvqf40","pricing_plan_id":"cebpf4jnsgd1na2vs0mg"},{"bike_id":"c27094ba-e66d-429a-9a50-62d0067fc9b7","system_id":"levelo_inurba_marseille","lat":43.31607,"lon":5.38396,"is_reserved":false,"is_disabled":false,"rental_uris":{"android":"levelo://app?vid=c27094ba-e66d-429a-9a50-62d0067fc9b7","ios":"levelo://app?vid=c27094ba-e66d-429a-9a50-62d0067fc9b7"},"vehicle_type_id":"4","last_reported":1771230885,"current_range_meters":27600,"station_id":"","pricing_plan_id":"cebpf4jnsgd1na2vs0mg"},{"bike_id":"45b209b0-f7ec-4530-b801-53212625f98e","system_id":"levelo_inurba_marseille","lat":43.26074,"lon":5.3939,"is_reserved":false,"is_disabled":false,"rental_uris":{"android":"levelo://app?vid=45b209b0-f7ec-4530-b801-53212625f98e","ios":"levelo://app?vid=45b209b0-f7ec-4530-b801-53212625f98e"},"vehicle_type_id":"4","last_reported":1771230885,"current_range_meters":3200,"station_id":"ce4bhh92rcd13ifvqfj0","pricing_plan_id":"cebpf4jnsgd1na2vs0mg"},{"bike_id":"40fd0452-0ae6-42bf-907f-bb1c4484b081","system_id":"levelo_inurba_marseille","lat":43.28009,"lon":5.38692,"is_reserved":false,"is_disabled":true,"rental_uris":{"android":"levelo://app?vid=40fd0452-0ae6-42bf-907f-bb1c4484b081","ios":"levelo://app?vid=40fd0452-0ae6-42bf-907f-bb1c4484b081"},"vehicle_type_id":"4","last_reported":1771230885,"current_range_meters":26800,"station_id":"","pricing_plan_id":"cebpf4jnsgd1na2vs0mg"},{"bike_id":"d372ddf4-25e4-4090-b847-2210a5057d33","system_id":"levelo_inurba_marseille","lat":43.29538,"lon":5.37506,"is_reserved":false,"is_disabled":false,"rental_uris":{"android":"levelo://app?vid=d372ddf4-25e4-4090-b847-2210a5057d33","ios":"levelo://app?vid=d372ddf4-25e4-4090-b847-2210a5057d33"},"vehicle_type_id":"4","last_reported":1771230885,"current_range_meters":12800,"station_id":"ce4bgkp2rcd13ifvqbmg","pricing_plan_id":"cebpf4jnsgd1na2vs0mg"},{"bike_id":"32ed40c9-744d-409e-a96a-8003db7b771d","system_id":"levelo_inurba_marseille","lat":43.25344,"lon":5.4216,"is_reserved":false,"is_disabled":false,"rental_uris":{"android":"levelo://app?vid=32ed40c9-744d-409e-a96a-8003db7b771d","ios":"levelo://app?vid=32ed40c9-744d-409e-a96a-8003db7b771d"},"vehicle_type_id":"4","last_reported":1771230885,"current_range_meters":22000,"station_id":"st_d2m65c5bi1j21697t3ng","pricing_plan_id":"cebpf4jnsgd1na2vs0mg"},{"bike_id":"dd4a6420-383a-4ab8-ac21-1bd0a3a00aa7","system_id":"levelo_inurba_marseille","lat":43.26194,"lon":5.3748,"is_reserved":false,"is_disabled":false,"rental_uris":{"android":"levelo://app?vid=dd4a6420-383a-4ab8-ac21-1bd0a3a00aa7","ios":"levelo://app?vid=dd4a6420-383a-4ab8-ac21-1bd0a3a00aa7"},"vehicle_type_id":"4","last_reported":1771230885,"current_range_meters":39200,"station_id":"ce4bhgp2rcd13ifvqfc0","pricing_plan_id":"cebpf4jnsgd1na2vs0mg"},{"bike_id":"d529137c-678d-49a9-bacc-b89f9072d3c8","system_id":"levelo_inurba_marseille","lat":43.30732,"lon":5.42443,"is_reserved":false,"is_disabled":false,"rental_uris":{"android":"levelo://app?vid=d529137c-678d-49a9-bacc-b89f9072d3c8","ios":"levelo://app?vid=d529137c-678d-49a9-bacc-b89f9072d3c8"},"vehicle_type_id":"4","last_reported":1771230885,"current_range_meters":36800,"station_id":"st_cvj6ca6bvosntc0bfgr0","pricing_plan_id":"cebpf4jnsgd1na2vs0mg"},{"bike_id":"70b09dd4-0ae4-48e2-87f3-46d153bf19b6","system_id":"levelo_inurba_marseille","lat":43.2338,"lon":5.41248,"is_reserved":false,"is_disabled":true,"rental_uris":{"android":"levelo://app?vid=70b09dd4-0ae4-48e2-87f3-46d153bf19b6","ios":"levelo://app?vid=70b09dd4-0ae4-48e2-87f3-46d153bf19b6"},"vehicle_type_id":"4","last_reported":1771230885,"current_range_meters":0,"station_id":"","pricing_plan_id":"cebpf4jnsgd1na2vs0mg"},{"bike_id":"c7fbcb26-f0c5-485b-bedf-94d07ace569a","system_id":"levelo_inurba_marseille","lat":43.26799,"lon":5.40269,"is_reserved":false,"is_disabled":false,"rental_uris":{"android":"levelo://app?vid=c7fbcb26-f0c5-485b-bedf-94d07ace569a","ios":"levelo://app?vid=c7fbcb26-f0c5-485b-bedf-94d07ace569a"},"vehicle_type_id":"4","last_reported":1771230885,"current_range_meters":38400,"station_id":"ce501612rcd8frsf0b60","pricing_plan_id":"cebpf4jnsgd1na2vs0mg"},{"bike_id":"88f1f13a-b9f4-42bb-928f-bb3ba59d1110","system_id":"levelo_inurba_marseille","lat":43.29156,"lon":5.37156,"is_reserved":false,"is_disabled":false,"rental_uris":{"android":"levelo://app?vid=88f1f13a-b9f4-42bb-928f-bb3ba59d1110","ios":"levelo://app?vid=88f1f13a-b9f4-42bb-928f-bb3ba59d1110"},"vehicle_type_id":"4","last_reported":1771230885,"current_range_meters":33200,"station_id":"ce4bha92rcd13ifvqeh0","pricing_plan_id":"cebpf4jnsgd1na2vs0mg"},{"bike_id":"74f62393-4bd9-47e9-8d53-461792093662","system_id":"levelo_inurba_marseille","lat":43.29812,"lon":5.44067,"is_reserved":false,"is_disabled":false,"rental_uris":{"android":"levelo://app?vid=74f62393-4bd9-47e9-8d53-461792093662","ios":"levelo://app?vid=74f62393-4bd9-47e9-8d53-461792093662"},"vehicle_type_id":"4","last_reported":1771230885,"current_range_meters":13600,"station_id":"st_d3jp68qikq2c7381ktn0","pricing_plan_id":"cebpf4jnsgd1na2vs0mg"},{"bike_id":"56c54700-a4f9-48ac-a713-549a92b0ac87","system_id":"levelo_inurba_marseille","lat":43.30336,"lon":5.37708,"is_reserved":false,"is_disabled":false,"rental_uris":{"android":"levelo://app?vid=56c54700-a4f9-48ac-a713-549a92b0ac87","ios":"levelo://app?vid=56c54700-a4f9-48ac-a713-549a92b0ac87"},"vehicle_type_id":"4","last_reported":1771230885,"current_range_meters":37600,"station_id":"ce4bguh2rcd13ifvqcj0","pricing_plan_id":"cebpf4jnsgd1na2vs0mg"},{"bike_id":"d90668f2-3d76-4a55-8e2b-8622ac164718","system_id":"levelo_inurba_marseille","lat":43.31342,"lon":5.36726,"is_reserved":false,"is_disabled":false,"rental_uris":{"android":"levelo://app?vid=d90668f2-3d76-4a55-8e2b-8622ac164718","ios":"levelo://app?vid=d90668f2-3d76-4a55-8e2b-8622ac164718"},"vehicle_type_id":"4","last_reported":1771230885,"current_range_meters":30400,"station_id":"ce4bgr92rcd13ifvqc6g","pricing_plan_id":"cebpf4jnsgd1na2vs0mg"},{"bike_id":"5bd6cd7e-2667-487a-9751-de00cd46a5cd","system_id":"levelo_inurba_marseille","lat":43.24803,"lon":5.37457,"is_reserved":false,"is_disabled":false,"rental_uris":{"android":"levelo://app?vid=5bd6cd7e-2667-487a-9751-de00cd46a5cd","ios":"levelo://app?vid=5bd6cd7e-2667-487a-9751-de00cd46a5cd"},"vehicle_type_id":"4","last_reported":1771230885,"current_range_meters":38400,"station_id":"ce4bhgh2rcd13ifvqfb0","pricing_plan_id":"cebpf4jnsgd1na2vs0mg"},{"bike_id":"aa53388d-33cb-4514-b6c9-278a0bfc20dc","system_id":"levelo_inurba_marseille","lat":43.30536,"lon":5.36514,"is_reserved":false,"is_disabled":false,"rental_uris":{"android":"levelo://app?vid=aa53388d-33cb-4514-b6c9-278a0bfc20dc","ios":"levelo://app?vid=aa53388d-33cb-4514-b6c9-278a0bfc20dc"},"vehicle_type_id":"4","last_reported":1771230885,"current_range_meters":22000,"station_id":"ce4bgs12rcd13ifvqcag","pricing_plan_id":"cebpf4jnsgd1na2vs0mg"},{"bike_id":"54aae8c4-15d0-4687-a4f0-186be8357f1b","system_id":"levelo_inurba_marseille","lat":43.28185,"lon":5.42626,"is_reserved":false,"is_disabled":false,"rental_uris":{"android":"levelo://app?vid=54aae8c4-15d0-4687-a4f0-186be8357f1b","ios":"levelo://app?vid=54aae8c4-15d0-4687-a4f0-186be8357f1b"},"vehicle_type_id":"4","last_reported":1771230885,"current_range_meters":9200,"station_id":"ce4bhnh2rcd13ifvqgug","pricing_plan_id":"cebpf4jnsgd1na2vs0mg"},{"bike_id":"7b98c235-0244-47c2-abcd-938e92a50d9c","system_id":"levelo_inurba_marseille","lat":43.29897,"lon":5.39748,"is_reserved":false,"is_disabled":false,"rental_uris":{"android":"levelo://app?vid=7b98c235-0244-47c2-abcd-938e92a50d9c","ios":"levelo://app?vid=7b98c235-0244-47c2-abcd-938e92a50d9c"},"vehicle_type_id":"4","last_reported":1771230885,"current_range_meters":36800,"station_id":"ce4bh0h2rcd13ifvqd50","pricing_plan_id":"cebpf4jnsgd1na2vs0mg"},{"bike_id":"70a1b306-21bc-4fbe-b39b-6e3db45bd926","system_id":"levelo_inurba_marseille","lat":43.29848,"lon":5.36285,"is_reserved":false,"is_disabled":false,"rental_uris":{"android":"levelo://app?vid=70a1b306-21bc-4fbe-b39b-6e3db45bd926","ios":"levelo://app?vid=70a1b306-21bc-4fbe-b39b-6e3db45bd926"},"vehicle_type_id":"4","last_reported":1771230885,"current_range_meters":33600,"station_id":"ce4bgpp2rcd13ifvqc3g","pricing_plan_id":"cebpf4jnsgd1na2vs0mg"},{"bike_id":"b2a7a129-8c84-48f1-9ebe-5055737ebaa0","system_id":"levelo_inurba_marseille","lat":43.30165,"lon":5.38084,"is_reserved":false,"is_disabled":false,"rental_uris":{"android":"levelo://app?vid=b2a7a129-8c84-48f1-9ebe-5055737ebaa0","ios":"levelo://app?vid=b2a7a129-8c84-48f1-9ebe-5055737ebaa0"},"vehicle_type_id":"4","last_reported":1771230885,"current_range_meters":39200,"station_id":"ce4bgjp2rcd13ifvqbh0","pricing_plan_id":"cebpf4jnsgd1na2vs0mg"},{"bike_id":"01cbf6ce-9b49-4434-8185-65cef7d9f5ba","system_id":"levelo_inurba_marseille","lat":43.30183,"lon":5.36629,"is_reserved":false,"is_disabled":false,"rental_uris":{"android":"levelo://app?vid=01cbf6ce-9b49-4434-8185-65cef7d9f5ba","ios":"levelo://app?vid=01cbf6ce-9b49-4434-8185-65cef7d9f5ba"},"vehicle_type_id":"4","last_reported":1771230885,"current_range_meters":36000,"station_id":"ce4bgrh2rcd13ifvqc8g","pricing_plan_id":"cebpf4jnsgd1na2vs0mg"},{"bike_id":"d857b41f-3bf8-4665-b483-e66e8d4b99fd","system_id":"levelo_inurba_marseille","lat":43.25559,"lon":5.38262,"is_reserved":false,"is_disabled":false,"rental_uris":{"android":"levelo://app?vid=d857b41f-3bf8-4665-b483-e66e8d4b99fd","ios":"levelo://app?vid=d857b41f-3bf8-4665-b483-e66e8d4b99fd"},"vehicle_type_id":"4","last_reported":1771230885,"current_range_meters":29600,"station_id":"ce4bhih2rcd13ifvqfs0","pricing_plan_id":"cebpf4jnsgd1na2vs0mg"},{"bike_id":"b66e0ad4-8ae9-49f3-9245-06bfaa860ce3","system_id":"levelo_inurba_marseille","lat":43.30895,"lon":5.36873,"is_reserved":false,"is_disabled":false,"rental_uris":{"android":"levelo://app?vid=b66e0ad4-8ae9-49f3-9245-06bfaa860ce3","ios":"levelo://app?vid=b66e0ad4-8ae9-49f3-9245-06bfaa860ce3"},"vehicle_type_id":"4","last_reported":1771230885,"current_range_meters":39200,"station_id":"ce4bgn92rcd13ifvqbvg","pricing_plan_id":"cebpf4jnsgd1na2vs0mg"},{"bike_id":"888f48dc-3b79-41ff-b7fc-95bbedbf90a7","system_id":"levelo_inurba_marseille","lat":43.29852,"lon":5.36281,"is_reserved":false,"is_disabled":false,"rental_uris":{"android":"levelo://app?vid=888f48dc-3b79-41ff-b7fc-95bbedbf90a7","ios":"levelo://app?vid=888f48dc-3b79-41ff-b7fc-95bbedbf90a7"},"vehicle_type_id":"4","last_reported":1771230885,"current_range_meters":33600,"station_id":"ce4bgpp2rcd13ifvqc3g","pricing_plan_id":"cebpf4jnsgd1na2vs0mg"},{"bike_id":"cd60cdd4-7033-456d-b7f2-bf0012889541","system_id":"levelo_inurba_marseille","lat":43.25939,"lon":5.40913,"is_reserved":false,"is_disabled":false,"rental_uris":{"android":"levelo://app?vid=cd60cdd4-7033-456d-b7f2-bf0012889541","ios":"levelo://app?vid=cd60cdd4-7033-456d-b7f2-bf0012889541"},"vehicle_type_id":"4","last_reported":1771230885,"current_range_meters":26000,"station_id":"ce4bhm92rcd13ifvqglg","pricing_plan_id":"cebpf4jnsgd1na2vs0mg"},{"bike_id":"b8ac35e3-3fdd-4fd1-ad7b-7c28653e64a7","system_id":"levelo_inurba_marseille","lat":43.25588,"lon":5.3823,"is_reserved":false,"is_disabled":false,"rental_uris":{"android":"levelo://app?vid=b8ac35e3-3fdd-4fd1-ad7b-7c28653e64a7","ios":"levelo://app?vid=b8ac35e3-3fdd-4fd1-ad7b-7c28653e64a7"},"vehicle_type_id":"4","last_reported":1771230885,"current_range_meters":39200,"station_id":"ce4bhih2rcd13ifvqfs0","pricing_plan_id":"cebpf4jnsgd1na2vs0mg"},