{"last_updated":1701461246,"ttl":30,"version":"2.2","data":{"bikes":[{"bike_id":"dbd05b85-1368-4e66-8a6c-4df601b46fa8","system_id":"levelo_inurba_marseille","lat":43.312239,"lon":5.368562,"is_reserved":false,"is_disabled":false,"rental_uris":{"android":"levelo://app?vid=dbd05b85-1368-4e66-8a6c-4df601b46fa8","ios":"levelo://app?vid=dbd05b85-1368-4e66-8a6c-4df601b46fa8"},"vehicle_type_id":"4","last_reported":1701461247,"current_range_meters":13200,"station_id":"ce4bgl92rcd13ifvqbq0","pricing_plan_id":"free"},{"bike_id":"3b70541b-c94b-40c4-a8af-6d33ea678dc9","system_id":"levelo_inurba_marseille","lat":43.312314,"lon":5.368505,"is_reserved":false,"is_disabled":false,"rental_uris":{"android":"levelo://app?vid=3b70541b-c94b-40c4-a8af-6d33ea678dc9","ios":"levelo://app?vid=3b70541b-c94b-40c4-a8af-6d33ea678dc9"},"vehicle_type_id":"4","last_reported":1701461247,"current_range_meters":0,"station_id":"ce4bgl92rcd13ifvqbq0","pricing_plan_id":"free"},{"bike_id":"97f73756-389a-4110-8528-f45293d1e928","system_id":"levelo_inurba_marseille","lat":43.305712,"lon":5.365641,"is_reserved":false,"is_disabled":false,"rental_uris":{"android":"levelo://app?vid=97f73756-389a-4110-8528-f45293d1e928","ios":"levelo://app?vid=97f73756-389a-4110-8528-f45293d1e928"},"vehicle_type_id":"4","last_reported":1701461247,"current_range_meters":22800,"station_id":"ce4bgs12rcd13ifvqcag","pricing_plan_id":"free"},{"bike_id":"bd183d24-2e35-43a1-8f8a-d0b99db187d1","system_id":"levelo_inurba_marseille","lat":43.305989,"lon":5.37225,"is_reserved":false,"is_disabled":false,"rental_uris":{"android":"levelo://app?vid=bd183d24-2e35-43a1-8f8a-d0b99db187d1","ios":"levelo://app?vid=bd183d24-2e35-43a1-8f8a-d0b99db187d1"},"vehicle_type_id":"4","last_reported":1701461247,"current_range_meters":27200,"station_id":"ce4bgqh2rcd13ifvqc4g","pricing_plan_id":"free"},{"bike_id":"37595ae2-f5a5-4dd3-a59a-837f8a601c13","system_id":"levelo_inurba_marseille","lat":43.31127,"lon":5.3776,"is_reserved":false,"is_disabled":false,"rental_uris":{"android":"levelo://app?vid=37595ae2-f5a5-4dd3-a59a-837f8a601c13","ios":"levelo://app?vid=37595ae2-f5a5-4dd3-a59a-837f8a601c13"},"vehicle_type_id":"4","last_reported":1701461247,"current_range_meters":29200,"station_id":"ce4bgt92rcd13ifvqcg0","pricing_plan_id":"free"},{"bike_id":"7bdbcfe9-924e-49e5-849f-fb7276f261aa","system_id":"levelo_inurba_marseille","lat":43.310566,"lon":5.37749,"is_reserved":false,"is_disabled":false,"rental_uris":{"android":"levelo://app?vid=7bdbcfe9-924e-49e5-849f-fb7276f261aa","ios":"levelo://app?vid=7bdbcfe9-924e-49e5-849f-fb7276f261aa"},"vehicle_type_id":"4","last_reported":1701461247,"current_range_meters":9600,"station_id":"","pricing_plan_id":"free"},{"bike_id":"dd1525d2-ca37-4f4c-b1d7-2f34c8b7125c","system_id":"levelo_inurba_marseille","lat":43.31118,"lon":5.37774,"is_reserved":false,"is_disabled":false,"rental_uris":{"android":"levelo://app?vid=dd1525d2-ca37-4f4c-b1d7-2f34c8b7125c","ios":"levelo://app?vid=dd1525d2-ca37-4f4c-b1d7-2f34c8b7125c"},"vehicle_type_id":"4","last_reported":1701461247,"current_range_meters":800,"station_id":"ce4bgt92rcd13ifvqcg0","pricing_plan_id":"free"},{"bike_id":"f3e78d26-def7-4e22-ad54-42ee11372ec6","system_id":"levelo_inurba_marseille","lat":43.30439,"lon":5.36753,"is_reserved":false,"is_disabled":false,"rental_uris":{"android":"levelo://app?vid=f3e78d26-def7-4e22-ad54-42ee11372ec6","ios":"levelo://app?vid=f3e78d26-def7-4e22-ad54-42ee11372ec6"},"vehicle_type_id":"4","last_reported":1701461247,"current_range_meters":27200,"station_id":"","pricing_plan_id":"free"},{"bike_id":"cfd3bb51-5657-4943-be4a-4ca2f802bb01","system_id":"levelo_inurba_marseille","lat":43.308144,"lon":5.376566,"is_reserved":false,"is_disabled":false,"rental_uris":{"android":"levelo://app?vid=cfd3bb51-5657-4943-be4a-4ca2f802bb01","ios":"levelo://app?vid=cfd3bb51-5657-4943-be4a-4ca2f802bb01"},"vehicle_type_id":"4","last_reported":1701461247,"current_range_meters":14000,"station_id":"ce4bgv92rcd13ifvqcq0","pricing_plan_id":"free"},{"bike_id":"1543f747-0cbd-4321-a65f-547a55674136","system_id":"levelo_inurba_marseille","lat":43.32043,"lon":5.37176,"is_reserved":false,"is_disabled":false,"rental_uris":{"android":"levelo://app?vid=1543f747-0cbd-4321-a65f-547a55674136","ios":"levelo://app?vid=1543f747-0cbd-4321-a65f-547a55674136"},"vehicle_type_id":"4","last_reported":1701461247,"current_range_meters":0,"station_id":"","pricing_plan_id":"free"},{"bike_id":"fbebf1b9-6f9b-40e0-97f3-8c0e3f6a72fb","system_id":"levelo_inurba_marseille","lat":43.307945,"lon":5.376487,"is_reserved":false,"is_disabled":false,"rental_uris":{"android":"levelo://app?vid=fbebf1b9-6f9b-40e0-97f3-8c0e3f6a72fb","ios":"levelo://app?vid=fbebf1b9-6f9b-40e0-97f3-8c0e3f6a72fb"},"vehicle_type_id":"4","last_reported":1701461247,"current_range_meters":28000,"station_id":"ce4bgv92rcd13ifvqcq0","pricing_plan_id":"free"},{"bike_id":"f427a2c3-6e4a-446b-ae2f-9be8aa7f4122","system_id":"levelo_inurba_marseille","lat":43.31719,"lon":5.376813,"is_reserved":false,"is_disabled":false,"rental_uris":{"android":"levelo://app?vid=f427a2c3-6e4a-446b-ae2f-9be8aa7f4122","ios":"levelo://app?vid=f427a2c3-6e4a-446b-ae2f-9be8aa7f4122"},"vehicle_type_id":"4","last_reported":1701461247,"current_range_meters":800,"station_id":"","pricing_plan_id":"free"},{"bike_id":"e913f328-1e31-4c22-bd87-f809ea246de4","system_id":"levelo_inurba_marseille","lat":43.317168,"lon":5.376883,"is_reserved":false,"is_disabled":false,"rental_uris":{"android":"levelo://app?vid=e913f328-1e31-4c22-bd87-f809ea246de4","ios":"levelo://app?vid=e913f328-1e31-4c22-bd87-f809ea246de4"},"vehicle_type_id":"4","last_reported":1701461247,"current_range_meters":3200,"station_id":"","pricing_plan_id":"free"},{"bike_id":"0ec1a967-8e34-408a-8d14-d5309bbcdba6","system_id":"levelo_inurba_marseille","lat":43.317075,"lon":5.377367,"is_reserved":false,"is_disabled":false,"rental_uris":{"android":"levelo://app?vid=0ec1a967-8e34-408a-8d14-d5309bbcdba6","ios":"levelo://app?vid=0ec1a967-8e34-408a-8d14-d5309bbcdba6"},"vehicle_type_id":"4","last_reported":1701461247,"current_range_meters":20400,"station_id":"ce4bgth2rcd13ifvqch0","pricing_plan_id":"free"},{"bike_id":"bb803cde-80b8-4673-8473-73e1dc612ec3","system_id":"levelo_inurba_marseille","lat":43.31718,"lon":5.37734,"is_reserved":false,"is_disabled":false,"rental_uris":{"android":"levelo://app?vid=bb803cde-80b8-4673-8473-73e1dc612ec3","ios":"levelo://app?vid=bb803cde-80b8-4673-8473-73e1dc612ec3"},"vehicle_type_id":"4","last_reported":1701461247,"current_range_meters":2000,"station_id":"ce4bgth2rcd13ifvqch0","pricing_plan_id":"free"},{"bike_id":"fb6fd937-527b-4585-9058-0dfdc6436ac8","system_id":"levelo_inurba_marseille","lat":43.31351,"lon":5.37909,"is_reserved":false,"is_disabled":false,"rental_uris":{"android":"levelo://app?vid=fb6fd937-527b-4585-9058-0dfdc6436ac8","ios":"levelo://app?vid=fb6fd937-527b-4585-9058-0dfdc6436ac8"},"vehicle_type_id":"4","last_reported":1701461247,"current_range_meters":24400,"station_id":"","pricing_plan_id":"free"},{"bike_id":"47e238b5-1c84-42cb-9323-dfcf3a813b12","system_id":"levelo_inurba_marseille","lat":43.30459,"lon":5.37322,"is_reserved":false,"is_disabled":false,"rental_uris":{"android":"levelo://app?vid=47e238b5-1c84-42cb-9323-dfcf3a813b12","ios":"levelo://app?vid=47e238b5-1c84-42cb-9323-dfcf3a813b12"},"vehicle_type_id":"4","last_reported":1701461247,"current_range_meters":0,"station_id":"","pricing_plan_id":"free"},{"bike_id":"593babd9-c3d2-4b6a-af9f-be560bf08fbf","system_id":"levelo_inurba_marseille","lat":43.30865,"lon":5.378953,"is_reserved":false,"is_disabled":false,"rental_uris":{"android":"levelo://app?vid=593babd9-c3d2-4b6a-af9f-be560bf08fbf","ios":"levelo://app?vid=593babd9-c3d2-4b6a-af9f-be560bf08fbf"},"vehicle_type_id":"4","last_reported":1701461247,"current_range_meters":5200,"station_id":"","pricing_plan_id":"free"},{"bike_id":"dbc70b8f-cc70-4a34-89d6-292966d6a2ef","system_id":"levelo_inurba_marseille","lat":43.301939,"lon":5.366286,"is_reserved":false,"is_disabled":false,"rental_uris":{"android":"levelo://app?vid=dbc70b8f-cc70-4a34-89d6-292966d6a2ef","ios":"levelo://app?vid=dbc70b8f-cc70-4a34-89d6-292966d6a2ef"},"vehicle_type_id":"4","last_reported":1701461247,"current_range_meters":21600,"station_id":"ce4bgrh2rcd13ifvqc8g","pricing_plan_id":"free"},{"bike_id":"d5efbc1d-f545-44d6-9fc1-c484568cb00e","system_id":"levelo_inurba_marseille","lat":43.30802,"lon":5.38148,"is_reserved":false,"is_disabled":false,"rental_uris":{"android":"levelo://app?vid=d5efbc1d-f545-44d6-9fc1-c484568cb00e","ios":"levelo://app?vid=d5efbc1d-f545-44d6-9fc1-c484568cb00e"},"vehicle_type_id":"4","last_reported":1701461247,"current_range_meters":20400,"station_id":"ce4bgt12rcd13ifvqce0","pricing_plan_id":"free"},{"bike_id":"8e7c37c3-a4e8-4177-9bd1-032f3f46bc66","system_id":"levelo_inurba_marseille","lat":43.285856,"lon":5.350771,"is_reserved":false,"is_disabled":false,"rental_uris":{"android":"levelo://app?vid=8e7c37c3-a4e8-4177-9bd1-032f3f46bc66","ios":"levelo://app?vid=8e7c37c3-a4e8-4177-9bd1-032f3f46bc66"},"vehicle_type_id":"4","last_reported":1701461247,"current_range_meters":6400,"station_id":"ce4bhch2rcd13ifvqeug","pricing_plan_id":"free"},{"bike_id":"347c15c4-2f48-4f3c-8f20-ebb06ceb5d3e","system_id":"levelo_inurba_marseille","lat":43.304606,"lon":5.379026,"is_reserved":false,"is_disabled":false,"rental_uris":{"android":"levelo://app?vid=347c15c4-2f48-4f3c-8f20-ebb06ceb5d3e","ios":"levelo://app?vid=347c15c4-2f48-4f3c-8f20-ebb06ceb5d3e"},"vehicle_type_id":"4","last_reported":1701461247,"current_range_meters":5600,"station_id":"ce4bgup2rcd13ifvqcn0","pricing_plan_id":"free"},{"bike_id":"884fdde6-52c0-4cc3-84fa-17ecdce89ba7","system_id":"levelo_inurba_marseille","lat":43.304606,"lon":5.379026,"is_reserved":false,"is_disabled":false,"rental_uris":{"android":"levelo://app?vid=884fdde6-52c0-4cc3-84fa-17ecdce89ba7","ios":"levelo://app?vid=884fdde6-52c0-4cc3-84fa-17ecdce89ba7"},"vehicle_type_id":"4","last_reported":1701461247,"current_range_meters":9600,"station_id":"ce4bgup2rcd13ifvqcn0","pricing_plan_id":"free"},{"bike_id":"a6475a8a-11b3-4af0-85f3-fd2cabbfdd22","system_id":"levelo_inurba_marseille","lat":43.324771,"lon":5.36557,"is_reserved":false,"is_disabled":false,"rental_uris":{"android":"levelo://app?vid=a6475a8a-11b3-4af0-85f3-fd2cabbfdd22","ios":"levelo://app?vid=a6475a8a-11b3-4af0-85f3-fd2cabbfdd22"},"vehicle_type_id":"4","last_reported":1701461247,"current_range_meters":21200,"station_id":"ce4bhs12rcd13ifvqhvg","pricing_plan_id":"free"},{"bike_id":"19dcde97-826d-4c77-b8cf-d90ba7f775b0","system_id":"levelo_inurba_marseille","lat":43.324877,"lon":5.365611,"is_reserved":false,"is_disabled":false,"rental_uris":{"android":"levelo://app?vid=19dcde97-826d-4c77-b8cf-d90ba7f775b0","ios":"levelo://app?vid=19dcde97-826d-4c77-b8cf-d90ba7f775b0"},"vehicle_type_id":"4","last_reported":1701461247,"current_range_meters":17200,"station_id":"ce4bhs12rcd13ifvqhvg","pricing_plan_id":"free"},{"bike_id":"2275aca5-3158-4c2c-8022-ca5d2714bc86","system_id":"levelo_inurba_marseille","lat":43.319997,"lon":5.381594,"is_reserved":false,"is_disabled":false,"rental_uris":{"android":"levelo://app?vid=2275aca5-3158-4c2c-8022-ca5d2714bc86","ios":"levelo://app?vid=2275aca5-3158-4c2c-8022-ca5d2714bc86"},"vehicle_type_id":"4","last_reported":1701461247,"current_range_meters":18000,"station_id":"ce4bhr12rcd13ifvqhpg","pricing_plan_id":"free"},{"bike_id":"9fdb7f97-586d-42d2-befd-15216ba2e422","system_id":"levelo_inurba_marseille","lat":43.31183,"lon":5.38523,"is_reserved":false,"is_disabled":false,"rental_uris":{"android":"levelo://app?vid=9fdb7f97-586d-42d2-befd-15216ba2e422","ios":"levelo://app?vid=9fdb7f97-586d-42d2-befd-15216ba2e422"},"vehicle_type_id":"4","last_reported":1701461247,"current_range_meters":4000,"station_id":"","pricing_plan_id":"free"},{"bike_id":"a6832b6f-ad73-45de-8f50-4e6960f4ed73","system_id":"levelo_inurba_marseille","lat":43.299222,"lon":5.365554,"is_reserved":false,"is_disabled":false,"rental_uris":{"android":"levelo://app?vid=a6832b6f-ad73-45de-8f50-4e6960f4ed73","ios":"levelo://app?vid=a6832b6f-ad73-45de-8f50-4e6960f4ed73"},"vehicle_type_id":"4","last_reported":1701461247,"current_range_meters":9600,"station_id":"ce4bgm92rcd13ifvqbr0","pricing_plan_id":"free"},{"bike_id":"748d12ab-8e09-4ecd-b2d2-cbe0ea9624f6","system_id":"levelo_inurba_marseille","lat":43.298565,"lon":5.367612,"is_reserved":false,"is_disabled":false,"rental_uris":{"android":"levelo://app?vid=748d12ab-8e09-4ecd-b2d2-cbe0ea9624f6","ios":"levelo://app?vid=748d12ab-8e09-4ecd-b2d2-cbe0ea9624f6"},"vehicle_type_id":"4","last_reported":1701461247,"current_range_meters":9600,"station_id":"","pricing_plan_id":"free"},{"bike_id":"4a4eb50c-75bb-4e6b-9faa-8e5527e44948","system_id":"levelo_inurba_marseille","lat":43.311604,"lon":5.386748,"is_reserved":false,"is_disabled":false,"rental_uris":{"android":"levelo://app?vid=4a4eb50c-75bb-4e6b-9faa-8e5527e44948","ios":"levelo://app?vid=4a4eb50c-75bb-4e6b-9faa-8e5527e44948"},"vehicle_type_id":"4","last_reported":1701461247,"current_range_meters":7600,"station_id":"ce4bgv12rcd13ifvqcp0","pricing_plan_id":"free"},{"bike_id":"b7e0d70e-6c47-439d-92cb-98d6724cbc26","system_id":"levelo_inurba_marseille","lat":43.311722,"lon":5.387247,"is_reserved":false,"is_disabled":false,"rental_uris":{"android":"levelo://app?vid=b7e0d70e-6c47-439d-92cb-98d6724cbc26","ios":"levelo://app?vid=b7e0d70e-6c47-439d-92cb-98d6724cbc26"},"vehicle_type_id":"4","last_reported":1701461247,"current_range_meters":14400,"station_id":"ce4bgv12rcd13ifvqcp0","pricing_plan_id":"free"},{"bike_id":"53dce8b2-ffe2-483e-8295-3f3a92b086d6","system_id":"levelo_inurba_marseille","lat":43.299243,"lon":5.374807,"is_reserved":false,"is_disabled":false,"rental_uris":{"android":"levelo://app?vid=53dce8b2-ffe2-483e-8295-3f3a92b086d6","ios":"levelo://app?vid=53dce8b2-ffe2-483e-8295-3f3a92b086d6"},"vehicle_type_id":"4","last_reported":1701461247,"current_range_meters":6400,"station_id":"ce4bgjh2rcd13ifvqbg0","pricing_plan_id":"free"},{"bike_id":"8224db32-2e9c-40d9-89eb-4ebb8ae3b7b7","system_id":"levelo_inurba_marseille","lat":43.311722,"lon":5.387247,"is_reserved":false,"is_disabled":false,"rental_uris":{"android":"levelo://app?vid=8224db32-2e9c-40d9-89eb-4ebb8ae3b7b7","ios":"levelo://app?vid=8224db32-2e9c-40d9-89eb-4ebb8ae3b7b7"},"vehicle_type_id":"4","last_reported":1701461247,"current_range_meters":26400,"station_id":"ce4bgv12rcd13ifvqcp0","pricing_plan_id":"free"},{"bike_id":"3e59f0ae-ca9d-4a09-a202-9d69510971f2","system_id":"levelo_inurba_marseille","lat":43.311722,"lon":5.387247,"is_reserved":false,"is_disabled":false,"rental_uris":{"android":"levelo://app?vid=3e59f0ae-ca9d-4a09-a202-9d69510971f2","ios":"levelo://app?vid=3e59f0ae-ca9d-4a09-a202-9d69510971f2"},"vehicle_type_id":"4","last_reported":1701461247,"current_range_meters":26800,"station_id":"ce4bgv12rcd13ifvqcp0","pricing_plan_id":"free"},{"bike_id":"e9c2a1db-09ba-458a-8020-96222a840fa4","system_id":"levelo_inurba_marseille","lat":43.322872,"lon":5.382756,"is_reserved":false,"is_disabled":false,"rental_uris":{"android":"levelo://app?vid=e9c2a1db-09ba-458a-8020-96222a840fa4","ios":"levelo://app?vid=e9c2a1db-09ba-458a-8020-96222a840fa4"},"vehicle_type_id":"4","last_reported":1701461247,"current_range_meters":26400,"station_id":"ce4bhr12rcd13ifvqhqg","pricing_plan_id":"free"},{"bike_id":"cf758772-2103-4c5d-9248-cfc6a1d99cd2","system_id":"levelo_inurba_marseille","lat":43.322872,"lon":5.382756,"is_reserved":false,"is_disabled":false,"rental_uris":{"android":"levelo://app?vid=cf758772-2103-4c5d-9248-cfc6a1d99cd2","ios":"levelo://app?vid=cf758772-2103-4c5d-9248-cfc6a1d99cd2"},"vehicle_type_id":"4","last_reported":1701461247,"current_range_meters":30000,"station_id":"ce4bhr12rcd13ifvqhqg","pricing_plan_id":"free"},{"bike_id":"65073be3-64d5-4947-9113-fd11101b78dd","system_id":"levelo_inurba_marseille","lat":43.322872,"lon":5.382756,"is_reserved":false,"is_disabled":false,"rental_uris":{"android":"levelo://app?vid=65073be3-64d5-4947-9113-fd11101b78dd","ios":"levelo://app?vid=65073be3-64d5-4947-9113-fd11101b78dd"},"vehicle_type_id":"4","last_reported":1701461247,"current_range_meters":11600,"station_id":"ce4bhr12rcd13ifvqhqg","pricing_plan_id":"free"},{"bike_id":"38b36a3d-7fa0-425f-884d-37f0109ceebf","system_id":"levelo_inurba_marseille","lat":43.328328,"lon":5.366912,"is_reserved":false,"is_disabled":false,"rental_uris":{"android":"levelo://app?vid=38b36a3d-7fa0-425f-884d-37f0109ceebf","ios":"levelo://app?vid=38b36a3d-7fa0-425f-884d-37f0109ceebf"},"vehicle_type_id":"4","last_reported":1701461247,"current_range_meters":16400,"station_id":"ce4bhs92rcd13ifvqi0g","pricing_plan_id":"free"},{"bike_id":"5983625d-69f5-485f-a399-daec2999c965","system_id":"levelo_inurba_marseille","lat":43.32151,"lon":5.385735,"is_reserved":false,"is_disabled":false,"rental_uris":{"android":"levelo://app?vid=5983625d-69f5-485f-a399-daec2999c965","ios":"levelo://app?vid=5983625d-69f5-485f-a399-daec2999c965"},"vehicle_type_id":"4","last_reported":1701461247,"current_range_meters":5200,"station_id":"","pricing_plan_id":"free"},{"bike_id":"d1b54edb-4179-477c-bd05-036dd4f393fe","system_id":"levelo_inurba_marseille","lat":43.295962,"lon":5.368228,"is_reserved":false,"is_disabled":false,"rental_uris":{"android":"levelo://app?vid=d1b54edb-4179-477c-bd05-036dd4f393fe","ios":"levelo://app?vid=d1b54edb-4179-477c-bd05-036dd4f393fe"},"vehicle_type_id":"4","last_reported":1701461247,"current_range_meters":5600,"station_id":"","pricing_plan_id":"free"},{"bike_id":"2ad4e93f-2c1f-4d9b-b179-6e45d74d4b9f","system_id":"levelo_inurba_marseille","lat":43.296129,"lon":5.370777,"is_reserved":false,"is_disabled":false,"rental_uris":{"android":"levelo://app?vid=2ad4e93f-2c1f-4d9b-b179-6e45d74d4b9f","ios":"levelo://app?vid=2ad4e93f-2c1f-4d9b-b179-6e45d74d4b9f"},"vehicle_type_id":"4","last_reported":1701461247,"current_range_meters":22400,"station_id":"ce4bgnh2rcd13ifvqc0g","pricing_plan_id":"free"},{"bike_id":"a2732641-05a6-48be-90e2-3e760fdc6319","system_id":"levelo_inurba_marseille","lat":43.29573,"lon":5.367355,"is_reserved":false,"is_disabled":false,"rental_uris":{"android":"levelo://app?vid=a2732641-05a6-48be-90e2-3e760fdc6319","ios":"levelo://app?vid=a2732641-05a6-48be-90e2-3e760fdc6319"},"vehicle_type_id":"4","last_reported":1701461247,"current_range_meters":28400,"station_id":"ce4bgph2rcd13ifvqc2g","pricing_plan_id":"free"},{"bike_id":"90832b4a-250f-4588-8ffa-574d665d9f3f","system_id":"levelo_inurba_marseille","lat":43.299028,"lon":5.381509,"is_reserved":false,"is_disabled":false,"rental_uris":{"android":"levelo://app?vid=90832b4a-250f-4588-8ffa-574d665d9f3f","ios":"levelo://app?vid=90832b4a-250f-4588-8ffa-574d665d9f3f"},"vehicle_type_id":"4","last_reported":1701461247,"current_range_meters":28400,"station_id":"ce4bgj12rcd13ifvqbc0","pricing_plan_id":"free"},{"bike_id":"081d548b-c7c8-42e0-bf59-51b377596c46","system_id":"levelo_inurba_marseille","lat":43.309589,"lon":5.390258,"is_reserved":false,"is_disabled":false,"rental_uris":{"android":"levelo://app?vid=081d548b-c7c8-42e0-bf59-51b377596c46","ios":"levelo://app?vid=081d548b-c7c8-42e0-bf59-51b377596c46"},"vehicle_type_id":"4","last_reported":1701461247,"current_range_meters":9600,"station_id":"ce4bgup2rcd13ifvqco0","pricing_plan_id":"free"},{"bike_id":"99263d35-6055-4dd7-9f57-42166970aeba","system_id":"levelo_inurba_marseille","lat":43.317552,"lon":5.390148,"is_reserved":false,"is_disabled":false,"rental_uris":{"android":"levelo://app?vid=99263d35-6055-4dd7-9f57-42166970aeba","ios":"levelo://app?vid=99263d35-6055-4dd7-9f57-42166970aeba"},"vehicle_type_id":"4","last_reported":1701461247,"current_range_meters":31200,"station_id":"ce4bhqp2rcd13ifvqhng","pricing_plan_id":"free"},{"bike_id":"5eebde41-d813-42ca-853a-89467823109f","system_id":"levelo_inurba_marseille","lat":43.298037,"lon":5.381066,"is_reserved":false,"is_disabled":false,"rental_uris":{"android":"levelo://app?vid=5eebde41-d813-42ca-853a-89467823109f","ios":"levelo://app?vid=5eebde41-d813-42ca-853a-89467823109f"},"vehicle_type_id":"4","last_reported":1701461247,"current_range_meters":14400,"station_id":"ce4bgip2rcd13ifvqbb0","pricing_plan_id":"free"},{"bike_id":"695da423-68f7-44ee-9d43-e664c982dbf1","system_id":"levelo_inurba_marseille","lat":43.298037,"lon":5.381066,"is_reserved":false,"is_disabled":false,"rental_uris":{"android":"levelo://app?vid=695da423-68f7-44ee-9d43-e664c982dbf1","ios":"levelo://app?vid=695da423-68f7-44ee-9d43-e664c982dbf1"},"vehicle_type_id":"4","last_reported":1701461247,"current_range_meters":4400,"station_id":"ce4bgip2rcd13ifvqbb0","pricing_plan_id":"free"},{"bike_id":"50f67406-dd64-4032-8ac6-d271616935a9","system_id":"levelo_inurba_marseille","lat":43.304274,"lon":5.388873,"is_reserved":false,"is_disabled":false,"rental_uris":{"android":"levelo://app?vid=50f67406-dd64-4032-8ac6-d271616935a9","ios":"levelo://app?vid=50f67406-dd64-4032-8ac6-d271616935a9"},"vehicle_type_id":"4","last_reported":1701461247,"current_range_meters":27200,"station_id":"ce4bgk12rcd13ifvqbi0","pricing_plan_id":"free"},{"bike_id":"a761b250-bad7-4e7a-bffc-ea57d5a98d23","system_id":"levelo_inurba_marseille","lat":43.304274,"lon":5.388873,"is_reserved":false,"is_disabled":false,"rental_uris":{"android":"levelo://app?vid=a761b250-bad7-4e7a-bffc-ea57d5a98d23","ios":"levelo://app?vid=a761b250-bad7-4e7a-bffc-ea57d5a98d23"},"vehicle_type_id":"4","last_reported":1701461247,"current_range_meters":20800,"station_id":"ce4bgk12rcd13ifvqbi0","pricing_plan_id":"free"},{"bike_id":"13ca97e5-82b5-4e06-8d78-e9793b7e594e","system_id":"levelo_inurba_marseille","lat":43.297142,"lon":5.379705,"is_reserved":false,"is_disabled":false,"rental_uris":{"android":"levelo://app?vid=13ca97e5-82b5-4e06-8d78-e9793b7e594e","ios":"levelo://app?vid=13ca97e5-82b5-4e06-8d78-e9793b7e594e"},"vehicle_type_id":"4","last_reported":1701461247,"current_range_meters":22000,"station_id":"","pricing_plan_id":"free"},{"bike_id":"c512db0a-2011-4a14-b253-594b911565f3","system_id":"levelo_inurba_marseille","lat":43.296263,"lon":5.377094,"is_reserved":false,"is_disabled":false,"rental_uris":{"android":"levelo://app?vid=c512db0a-2011-4a14-b253-594b911565f3","ios":"levelo://app?vid=c512db0a-2011-4a14-b253-594b911565f3"},"vehicle_type_id":"4","last_reported":1701461247,"current_range_meters":30800,"station_id":"ce4bgi92rcd13ifvqb90","pricing_plan_id":"free"},{"bike_id":"81c81765-686e-4ef8-8ba0-60d7276501a3","system_id":"levelo_inurba_marseille","lat":43.323684,"lon":5.387669,"is_reserved":false,"is_disabled":false,"rental_uris":{"android":"levelo://app?vid=81c81765-686e-4ef8-8ba0-60d7276501a3","ios":"levelo://app?vid=81c81765-686e-4ef8-8ba0-60d7276501a3"},"vehicle_type_id":"4","last_reported":1701461247,"current_range_meters":25200,"station_id":"","pricing_plan_id":"free"},{"bike_id":"eaa0e7e7-2390-47fa-909b-7b240952cbef","system_id":"levelo_inurba_marseille","lat":43.31959,"lon":5.39201,"is_reserved":false,"is_disabled":false,"rental_uris":{"android":"levelo://app?vid=eaa0e7e7-2390-47fa-909b-7b240952cbef","ios":"levelo://app?vid=eaa0e7e7-2390-47fa-909b-7b240952cbef"},"vehicle_type_id":"4","last_reported":1701461247,"current_range_meters":18000,"station_id":"","pricing_plan_id":"free"},{"bike_id":"ca6ed24c-6a2d-43b7-b14b-287cfbd968f9","system_id":"levelo_inurba_marseille","lat":43.29601,"lon":5.381084,"is_reserved":false,"is_disabled":false,"rental_uris":{"android":"levelo://app?vid=ca6ed24c-6a2d-43b7-b14b-287cfbd968f9","ios":"levelo://app?vid=ca6ed24c-6a2d-43b7-b14b-287cfbd968f9"},"vehicle_type_id":"4","last_reported":1701461247,"current_range_meters":18400,"station_id":"ce4bgl12rcd13ifvqbo0","pricing_plan_id":"free"},{"bike_id":"e19d129b-0591-4f65-8a50-42c72af5d9df","system_id":"levelo_inurba_marseille","lat":43.293259,"lon":5.371586,"is_reserved":false,"is_disabled":false,"rental_uris":{"android":"levelo://app?vid=e19d129b-0591-4f65-8a50-42c72af5d9df","ios":"levelo://app?vid=e19d129b-0591-4f65-8a50-42c72af5d9df"},"vehicle_type_id":"4","last_reported":1701461247,"current_range_meters":30400,"station_id":"ce4bgh92rcd13ifvqb40","pricing_plan_id":"free"},{"bike_id":"49e75bf8-07b2-46ad-b675-97704a329ade","system_id":"levelo_inurba_marseille","lat":43.293009,"lon":5.374584,"is_reserved":false,"is_disabled":false,"rental_uris":{"android":"levelo://app?vid=49e75bf8-07b2-46ad-b675-97704a329ade","ios":"levelo://app?vid=49e75bf8-07b2-46ad-b675-97704a329ade"},"vehicle_type_id":"4","last_reported":1701461247,"current_range_meters":22000,"station_id":"ce4bgi12rcd13ifvqb70","pricing_plan_id":"free"},{"bike_id":"d685d47e-e0d1-4562-b76e-1ac066851adf","system_id":"levelo_inurba_marseille","lat":43.305994,"lon":5.393687,"is_reserved":false,"is_disabled":false,"rental_uris":{"android":"levelo://app?vid=d685d47e-e0d1-4562-b76e-1ac066851adf","ios":"levelo://app?vid=d685d47e-e0d1-4562-b76e-1ac066851adf"},"vehicle_type_id":"4","last_reported":1701461247,"current_range_meters":6000,"station_id":"ce4bh0p2rcd13ifvqd80","pricing_plan_id":"free"},{"bike_id":"5cae2d5a-0ec9-4ec2-ab38-acacad1ce4d1","system_id":"levelo_inurba_marseille","lat":43.293009,"lon":5.374584,"is_reserved":false,"is_disabled":false,"rental_uris":{"android":"levelo://app?vid=5cae2d5a-0ec9-4ec2-ab38-acacad1ce4d1","ios":"levelo://app?vid=5cae2d5a-0ec9-4ec2-ab38-acacad1ce4d1"},"vehicle_type_id":"4","last_reported":1701461247,"current_range_meters":15200,"station_id":"ce4bgi12rcd13ifvqb70","pricing_plan_id":"free"},{"bike_id":"a544d410-5955-4d77-99d4-1fda9deb4ebe","system_id":"levelo_inurba_marseille","lat":43.293009,"lon":5.374584,"is_reserved":false,"is_disabled":false,"rental_uris":{"android":"levelo://app?vid=a544d410-5955-4d77-99d4-1fda9deb4ebe","ios":"levelo://app?vid=a544d410-5955-4d77-99d4-1fda9deb4ebe"},"vehicle_type_id":"4","last_reported":1701461247,"current_range_meters":0,"station_id":"ce4bgi12rcd13ifvqb70","pricing_plan_id":"free"},{"bike_id":"dfa48503-c98a-48e1-8da1-3bb53f8d9ac8","system_id":"levelo_inurba_marseille","lat":43.2936,"lon":5.37835,"is_reserved":false,"is_disabled":false,"rental_uris":{"android":"levelo://app?vid=dfa48503-c98a-48e1-8da1-3bb53f8d9ac8","ios":"levelo://app?vid=dfa48503-c98a-48e1-8da1-3bb53f8d9ac8"},"vehicle_type_id":"4","last_reported":1701461247,"current_range_meters":27600,"station_id":"ce4bgjh2rcd13ifvqbf0","pricing_plan_id":"free"},{"bike_id":"0c62275d-9acd-4599-a53f-082d040efc51","system_id":"levelo_inurba_marseille","lat":43.291675,"lon":5.371583,"is_reserved":false,"is_disabled":false,"rental_uris":{"android":"levelo://app?vid=0c62275d-9acd-4599-a53f-082d040efc51","ios":"levelo://app?vid=0c62275d-9acd-4599-a53f-082d040efc51"},"vehicle_type_id":"4","last_reported":1701461247,"current_range_meters":7200,"station_id":"ce4bha92rcd13ifvqeh0","pricing_plan_id":"free"},{"bike_id":"4085160c-12de-43ea-a9df-97220504a800","system_id":"levelo_inurba_marseille","lat":43.291994,"lon":5.357886,"is_reserved":false,"is_disabled":false,"rental_uris":{"android":"levelo://app?vid=4085160c-12de-43ea-a9df-97220504a800","ios":"levelo://app?vid=4085160c-12de-43ea-a9df-97220504a800"},"vehicle_type_id":"4","last_reported":1701461247,"current_range_meters":15200,"station_id":"ce4bhb12rcd13ifvqel0","pricing_plan_id":"free"},{"bike_id":"5ef592fd-3b7c-477a-89cb-c74f4cfac1c8","system_id":"levelo_inurba_marseille","lat":43.313291,"lon":5.396838,"is_reserved":false,"is_disabled":false,"rental_uris":{"android":"levelo://app?vid=5ef592fd-3b7c-477a-89cb-c74f4cfac1c8","ios":"levelo://app?vid=5ef592fd-3b7c-477a-89cb-c74f4cfac1c8"},"vehicle_type_id":"4","last_reported":1701461247,"current_range_meters":11600,"station_id":"ce4bgvp2rcd13ifvqcu0","pricing_plan_id":"free"},{"bike_id":"82cf2d5f-932b-4512-9fe2-1666ac2aea16","system_id":"levelo_inurba_marseille","lat":43.309038,"lon":5.396546,"is_reserved":false,"is_disabled":false,"rental_uris":{"android":"levelo://app?vid=82cf2d5f-932b-4512-9fe2-1666ac2aea16","ios":"levelo://app?vid=82cf2d5f-932b-4512-9fe2-1666ac2aea16"},"vehicle_type_id":"4","last_reported":1701461247,"current_range_meters":23600,"station_id":"ce4bh012rcd13ifvqcv0","pricing_plan_id":"free"},{"bike_id":"1ebab775-0bbf-4712-a043-174a53e00f34","system_id":"levelo_inurba_marseille","lat":43.309047,"lon":5.396551,"is_reserved":false,"is_disabled":false,"rental_uris":{"android":"levelo://app?vid=1ebab775-0bbf-4712-a043-174a53e00f34","ios":"levelo://app?vid=1ebab775-0bbf-4712-a043-174a53e00f34"},"vehicle_type_id":"4","last_reported":1701461247,"current_range_meters":12400,"station_id":"ce4bh012rcd13ifvqcv0","pricing_plan_id":"free"},{"bike_id":"1988d50f-9a60-4aa9-9c18-a9b22d5b56ba","system_id":"levelo_inurba_marseille","lat":43.309047,"lon":5.396551,"is_reserved":false,"is_disabled":false,"rental_uris":{"android":"levelo://app?vid=1988d50f-9a60-4aa9-9c18-a9b22d5b56ba","ios":"levelo://app?vid=1988d50f-9a60-4aa9-9c18-a9b22d5b56ba"},"vehicle_type_id":"4","last_reported":1701461247,"current_range_meters":17600,"station_id":"ce4bh012rcd13ifvqcv0","pricing_plan_id":"free"},{"bike_id":"71ba5b0c-0814-4406-8799-787bb2c613e7","system_id":"levelo_inurba_marseille","lat":43.29529,"lon":5.385581,"is_reserved":false,"is_disabled":false,"rental_uris":{"android":"levelo://app?vid=71ba5b0c-0814-4406-8799-787bb2c613e7","ios":"levelo://app?vid=71ba5b0c-0814-4406-8799-787bb2c613e7"},"vehicle_type_id":"4","last_reported":1701461247,"current_range_meters":7200,"station_id":"ce4bgih2rcd13ifvqba0","pricing_plan_id":"free"},{"bike_id":"7d3054d5-bda0-4174-9edd-8e479cc58523","system_id":"levelo_inurba_marseille","lat":43.29529,"lon":5.385581,"is_reserved":false,"is_disabled":false,"rental_uris":{"android":"levelo://app?vid=7d3054d5-bda0-4174-9edd-8e479cc58523","ios":"levelo://app?vid=7d3054d5-bda0-4174-9edd-8e479cc58523"},"vehicle_type_id":"4","last_reported":1701461247,"current_range_meters":20400,"station_id":"ce4bgih2rcd13ifvqba0","pricing_plan_id":"free"},{"bike_id":"09468143-1539-4353-94db-572ec72f797d","system_id":"levelo_inurba_marseille","lat":43.29529,"lon":5.385581,"is_reserved":false,"is_disabled":false,"rental_uris":{"android":"levelo://app?vid=09468143-1539-4353-94db-572ec72f797d","ios":"levelo://app?vid=09468143-1539-4353-94db-572ec72f797d"},"vehicle_type_id":"4","last_reported":1701461247,"current_range_meters":0,"station_id":"ce4bgih2rcd13ifvqba0","pricing_plan_id":"free"},{"bike_id":"2bc01fd6-93a9-4684-991e-967318a4c5ec","system_id":"levelo_inurba_marseille","lat":43.29536,"lon":5.38551,"is_reserved":false,"is_disabled":false,"rental_uris":{"android":"levelo://app?vid=2bc01fd6-93a9-4684-991e-967318a4c5ec","ios":"levelo://app?vid=2bc01fd6-93a9-4684-991e-967318a4c5ec"},"vehicle_type_id":"4","last_reported":1701461247,"current_range_meters":0,"station_id":"ce4bgih2rcd13ifvqba0","pricing_plan_id":"free"},{"bike_id":"df2c0a23-d2f6-44ed-affd-5ef46aaa99b8","system_id":"levelo_inurba_marseille","lat":43.290779,"lon":5.371482,"is_reserved":false,"is_disabled":false,"rental_uris":{"android":"levelo://app?vid=df2c0a23-d2f6-44ed-affd-5ef46aaa99b8","ios":"levelo://app?vid=df2c0a23-d2f6-44ed-affd-5ef46aaa99b8"},"vehicle_type_id":"4","last_reported":1701461247,"current_range_meters":19600,"station_id":"ce4bh5p2rcd13ifvqe4g","pricing_plan_id":"free"},{"bike_id":"e80575a2-873b-44d4-b787-07b861f6ef6e","system_id":"levelo_inurba_marseille","lat":43.294153,"lon":5.386305,"is_reserved":false,"is_disabled":false,"rental_uris":{"android":"levelo://app?vid=e80575a2-873b-44d4-b787-07b861f6ef6e","ios":"levelo://app?vid=e80575a2-873b-44d4-b787-07b861f6ef6e"},"vehicle_type_id":"4","last_reported":1701461247,"current_range_meters":3600,"station_id":"ce4bh2h2rcd13ifvqdh0","pricing_plan_id":"free"},{"bike_id":"3cda4364-d2cf-46c1-a18f-9f11fd7d1bac","system_id":"levelo_inurba_marseille","lat":43.29414,"lon":5.38622,"is_reserved":false,"is_disabled":false,"rental_uris":{"android":"levelo://app?vid=3cda4364-d2cf-46c1-a18f-9f11fd7d1bac","ios":"levelo://app?vid=3cda4364-d2cf-46c1-a18f-9f11fd7d1bac"},"vehicle_type_id":"4","last_reported":1701461247,"current_range_meters":13200,"station_id":"ce4bh2h2rcd13ifvqdh0","pricing_plan_id":"free"},{"bike_id":"68205c71-7469-4da8-9e6b-445a9d0c308e","system_id":"levelo_inurba_marseille","lat":43.292642,"lon":5.384254,"is_reserved":false,"is_disabled":false,"rental_uris":{"android":"levelo://app?vid=68205c71-7469-4da8-9e6b-445a9d0c308e","ios":"levelo://app?vid=68205c71-7469-4da8-9e6b-445a9d0c308e"},"vehicle_type_id":"4","last_reported":1701461247,"current_range_meters":3200,"station_id":"ce4bh692rcd13ifvqea0","pricing_plan_id":"free"},{"bike_id":"c98725ba-0c48-4966-a95e-c04cda06e863","system_id":"levelo_inurba_marseille","lat":43.292747,"lon":5.38438,"is_reserved":false,"is_disabled":false,"rental_uris":{"android":"levelo://app?vid=c98725ba-0c48-4966-a95e-c04cda06e863","ios":"levelo://app?vid=c98725ba-0c48-4966-a95e-c04cda06e863"},"vehicle_type_id":"4","last_reported":1701461247,"current_range_meters":23600,"station_id":"ce4bh692rcd13ifvqea0","pricing_plan_id":"free"},{"bike_id":"f250396e-2593-42d5-81d6-086fbbb9873a","system_id":"levelo_inurba_marseille","lat":43.292642,"lon":5.384254,"is_reserved":false,"is_disabled":false,"rental_uris":{"android":"levelo://app?vid=f250396e-2593-42d5-81d6-086fbbb9873a","ios":"levelo://app?vid=f250396e-2593-42d5-81d6-086fbbb9873a"},"vehicle_type_id":"4","last_reported":1701461247,"current_range_meters":21200,"station_id":"ce4bh692rcd13ifvqea0","pricing_plan_id":"free"},{"bike_id":"1ae43b1c-8034-4daa-9ab5-c52a642da9b3","system_id":"levelo_inurba_marseille","lat":43.292642,"lon":5.384254,"is_reserved":false,"is_disabled":false,"rental_uris":{"android":"levelo://app?vid=1ae43b1c-8034-4daa-9ab5-c52a642da9b3","ios":"levelo://app?vid=1ae43b1c-8034-4daa-9ab5-c52a642da9b3"},"vehicle_type_id":"4","last_reported":1701461247,"current_range_meters":0,"station_id":"ce4bh692rcd13ifvqea0","pricing_plan_id":"free"},{"bike_id":"3d4ccb71-4ea0-47e4-8f80-dff2b6f9de84","system_id":"levelo_inurba_marseille","lat":43.292642,"lon":5.384254,"is_reserved":false,"is_disabled":false,"rental_uris":{"android":"levelo://app?vid=3d4ccb71-4ea0-47e4-8f80-dff2b6f9de84","ios":"levelo://app?vid=3d4ccb71-4ea0-47e4-8f80-dff2b6f9de84"},"vehicle_type_id":"4","last_reported":1701461247,"current_range_meters":1200,"station_id":"ce4bh692rcd13ifvqea0","pricing_plan_id":"free"},{"bike_id":"ef6528b8-3788-428c-9baf-94345ffa9073","system_id":"levelo_inurba_marseille","lat":43.292642,"lon":5.384254,"is_reserved":false,"is_disabled":false,"rental_uris":{"android":"levelo://app?vid=ef6528b8-3788-428c-9baf-94345ffa9073","ios":"levelo://app?vid=ef6528b8-3788-428c-9baf-94345ffa9073"},"vehicle_type_id":"4","last_reported":1701461247,"current_range_meters":17200,"station_id":"ce4bh692rcd13ifvqea0","pricing_plan_id":"free"},{"bike_id":"b6b497ae-bacb-4be6-9743-bf3a87879d8b","system_id":"levelo_inurba_marseille","lat":43.292644,"lon":5.384257,"is_reserved":false,"is_disabled":false,"rental_uris":{"android":"levelo://app?vid=b6b497ae-bacb-4be6-9743-bf3a87879d8b","ios":"levelo://app?vid=b6b497ae-bacb-4be6-9743-bf3a87879d8b"},"vehicle_type_id":"4","last_reported":1701461247,"current_range_meters":4000,"station_id":"ce4bh692rcd13ifvqea0","pricing_plan_id":"free"},{"bike_id":"fd001bd8-e34f-47e7-b828-a7df40341238","system_id":"levelo_inurba_marseille","lat":43.292642,"lon":5.384254,"is_reserved":false,"is_disabled":false,"rental_uris":{"android":"levelo://app?vid=fd001bd8-e34f-47e7-b828-a7df40341238","ios":"levelo://app?vid=fd001bd8-e34f-47e7-b828-a7df40341238"},"vehicle_type_id":"4","last_reported":1701461247,"current_range_meters":16800,"station_id":"ce4bh692rcd13ifvqea0","pricing_plan_id":"free"},{"bike_id":"5d228252-f123-4bc6-a0ad-1ea94ccad875","system_id":"levelo_inurba_marseille","lat":43.33041,"lon":5.38911,"is_reserved":false,"is_disabled":false,"rental_uris":{"android":"levelo://app?vid=5d228252-f123-4bc6-a0ad-1ea94ccad875","ios":"levelo://app?vid=5d228252-f123-4bc6-a0ad-1ea94ccad875"},"vehicle_type_id":"4","last_reported":1701461247,"current_range_meters":17200,"station_id":"ce4bhr92rcd13ifvqhrg","pricing_plan_id":"free"},{"bike_id":"90408da1-0be5-41e7-a5d4-4fb647bb89a6","system_id":"levelo_inurba_marseille","lat":43.330409,"lon":5.389172,"is_reserved":false,"is_disabled":false,"rental_uris":{"android":"levelo://app?vid=90408da1-0be5-41e7-a5d4-4fb647bb89a6","ios":"levelo://app?vid=90408da1-0be5-41e7-a5d4-4fb647bb89a6"},"vehicle_type_id":"4","last_reported":1701461247,"current_range_meters":22400,"station_id":"ce4bhr92rcd13ifvqhrg","pricing_plan_id":"free"},{"bike_id":"fdf81e70-cd7a-458e-8a98-f3c2c46540a5","system_id":"levelo_inurba_marseille","lat":43.290103,"lon":5.356114,"is_reserved":false,"is_disabled":false,"rental_uris":{"android":"levelo://app?vid=fdf81e70-cd7a-458e-8a98-f3c2c46540a5","ios":"levelo://app?vid=fdf81e70-cd7a-458e-8a98-f3c2c46540a5"},"vehicle_type_id":"4","last_reported":1701461247,"current_range_meters":11200,"station_id":"ce4bhb92rcd13ifvqen0","pricing_plan_id":"free"},{"bike_id":"86c52503-1f63-431d-807a-0d5d9c2b5184","system_id":"levelo_inurba_marseille","lat":43.330442,"lon":5.389148,"is_reserved":false,"is_disabled":false,"rental_uris":{"android":"levelo://app?vid=86c52503-1f63-431d-807a-0d5d9c2b5184","ios":"levelo://app?vid=86c52503-1f63-431d-807a-0d5d9c2b5184"},"vehicle_type_id":"4","last_reported":1701461247,"current_range_meters":24400,"station_id":"ce4bhr92rcd13ifvqhrg","pricing_plan_id":"free"},{"bike_id":"bbb77f23-6b76-4dd7-bbcc-7b0208ae261e","system_id":"levelo_inurba_marseille","lat":43.290995,"lon":5.381361,"is_reserved":false,"is_disabled":false,"rental_uris":{"android":"levelo://app?vid=bbb77f23-6b76-4dd7-bbcc-7b0208ae261e","ios":"levelo://app?vid=bbb77f23-6b76-4dd7-bbcc-7b0208ae261e"},"vehicle_type_id":"4","last_reported":1701461247,"current_range_meters":19600,"station_id":"ce4bh512rcd13ifvqe2g","pricing_plan_id":"free"},{"bike_id":"ed0efd79-f7ca-44db-a2fb-7f847a41eb3e","system_id":"levelo_inurba_marseille","lat":43.295169,"lon":5.390426,"is_reserved":false,"is_disabled":false,"rental_uris":{"android":"levelo://app?vid=ed0efd79-f7ca-44db-a2fb-7f847a41eb3e","ios":"levelo://app?vid=ed0efd79-f7ca-44db-a2fb-7f847a41eb3e"},"vehicle_type_id":"4","last_reported":1701461247,"current_range_meters":28000,"station_id":"ce4bh3p2rcd13ifvqdp0","pricing_plan_id":"free"},{"bike_id":"6f424339-f358-454e-ad59-55cd388761df","system_id":"levelo_inurba_marseille","lat":43.2901,"lon":5.381269,"is_reserved":false,"is_disabled":false,"rental_uris":{"android":"levelo://app?vid=6f424339-f358-454e-ad59-55cd388761df","ios":"levelo://app?vid=6f424339-f358-454e-ad59-55cd388761df"},"vehicle_type_id":"4","last_reported":1701461247,"current_range_meters":10400,"station_id":"ce4bh4p2rcd13ifvqe1g","pricing_plan_id":"free"},{"bike_id":"fdc2fc9e-2f29-4c49-bcea-7a560d4446be","system_id":"levelo_inurba_marseille","lat":43.33052,"lon":5.3906,"is_reserved":false,"is_disabled":false,"rental_uris":{"android":"levelo://app?vid=fdc2fc9e-2f29-4c49-bcea-7a560d4446be","ios":"levelo://app?vid=fdc2fc9e-2f29-4c49-bcea-7a560d4446be"},"vehicle_type_id":"4","last_reported":1701461247,"current_range_meters":11600,"station_id":"","pricing_plan_id":"free"},{"bike_id":"f71bec80-1512-44cd-95d2-3d7fdee5df30","system_id":"levelo_inurba_marseille","lat":43.33051,"lon":5.390647,"is_reserved":false,"is_disabled":false,"rental_uris":{"android":"levelo://app?vid=f71bec80-1512-44cd-95d2-3d7fdee5df30","ios":"levelo://app?vid=f71bec80-1512-44cd-95d2-3d7fdee5df30"},"vehicle_type_id":"4","last_reported":1701461247,"current_range_meters":14800,"station_id":"","pricing_plan_id":"free"},{"bike_id":"657654d5-df25-4b54-88a4-3e60fba54ff2","system_id":"levelo_inurba_marseille","lat":43.309371,"lon":5.401449,"is_reserved":false,"is_disabled":false,"rental_uris":{"android":"levelo://app?vid=657654d5-df25-4b54-88a4-3e60fba54ff2","ios":"levelo://app?vid=657654d5-df25-4b54-88a4-3e60fba54ff2"},"vehicle_type_id":"4","last_reported":1701461247,"current_range_meters":5200,"station_id":"ce4bgvp2rcd13ifvqct0","pricing_plan_id":"free"},{"bike_id":"d57a9538-7d44-4e0d-bfd7-236037c7db0c","system_id":"levelo_inurba_marseille","lat":43.30642,"lon":5.401031,"is_reserved":false,"is_disabled":false,"rental_uris":{"android":"levelo://app?vid=d57a9538-7d44-4e0d-bfd7-236037c7db0c","ios":"levelo://app?vid=d57a9538-7d44-4e0d-bfd7-236037c7db0c"},"vehicle_type_id":"4","last_reported":1701461247,"current_range_meters":3200,"station_id":"ce4bh112rcd13ifvqda0","pricing_plan_id":"free"},{"bike_id":"b4c1aa2e-4d41-4d24-b2bb-d7385c0eb780","system_id":"levelo_inurba_marseille","lat":43.309352,"lon":5.401457,"is_reserved":false,"is_disabled":false,"rental_uris":{"android":"levelo://app?vid=b4c1aa2e-4d41-4d24-b2bb-d7385c0eb780","ios":"levelo://app?vid=b4c1aa2e-4d41-4d24-b2bb-d7385c0eb780"},"vehicle_type_id":"4","last_reported":1701461247,"current_range_meters":30000,"station_id":"ce4bgvp2rcd13ifvqct0","pricing_plan_id":"free"},{"bike_id":"38025600-443e-43a8-8800-d7d7bfaaeb0d","system_id":"levelo_inurba_marseille","lat":43.312609,"lon":5.401662,"is_reserved":false,"is_disabled":false,"rental_uris":{"android":"levelo://app?vid=38025600-443e-43a8-8800-d7d7bfaaeb0d","ios":"levelo://app?vid=38025600-443e-43a8-8800-d7d7bfaaeb0d"},"vehicle_type_id":"4","last_reported":1701461247,"current_range_meters":4400,"station_id":"ce4bh092rcd13ifvqd30","pricing_plan_id":"free"},{"bike_id":"4d2a9e0f-ee97-450b-a787-b1f222dcb3fa","system_id":"levelo_inurba_marseille","lat":43.33752,"lon":5.37447,"is_reserved":false,"is_disabled":false,"rental_uris":{"android":"levelo://app?vid=4d2a9e0f-ee97-450b-a787-b1f222dcb3fa","ios":"levelo://app?vid=4d2a9e0f-ee97-450b-a787-b1f222dcb3fa"},"vehicle_type_id":"4","last_reported":1701461247,"current_range_meters":28000,"station_id":"","pricing_plan_id":"free"},{"bike_id":"01bdb905-19d1-43c9-bdb1-9718f69f28c6","system_id":"levelo_inurba_marseille","lat":43.33754,"lon":5.37435,"is_reserved":false,"is_disabled":false,"rental_uris":{"android":"levelo://app?vid=01bdb905-19d1-43c9-bdb1-9718f69f28c6","ios":"levelo://app?vid=01bdb905-19d1-43c9-bdb1-9718f69f28c6"},"vehicle_type_id":"4","last_reported":1701461247,"current_range_meters":19200,"station_id":"","pricing_plan_id":"free"},{"bike_id":"920728c3-d140-4eb7-9410-cfa127aa414b","system_id":"levelo_inurba_marseille","lat":43.33756,"lon":5.37438,"is_reserved":false,"is_disabled":false,"rental_uris":{"android":"levelo://app?vid=920728c3-d140-4eb7-9410-cfa127aa414b","ios":"levelo://app?vid=920728c3-d140-4eb7-9410-cfa127aa414b"},"vehicle_type_id":"4","last_reported":1701461247,"current_range_meters":28400,"station_id":"","pricing_plan_id":"free"},{"bike_id":"1cb3288c-2360-4421-bee9-817939cff32b","system_id":"levelo_inurba_marseille","lat":43.337524,"lon":5.374614,"is_reserved":false,"is_disabled":false,"rental_uris":{"android":"levelo://app?vid=1cb3288c-2360-4421-bee9-817939cff32b","ios":"levelo://app?vid=1cb3288c-2360-4421-bee9-817939cff32b"},"vehicle_type_id":"4","last_reported":1701461247,"current_range_meters":31600,"station_id":"","pricing_plan_id":"free"},{"bike_id":"94907f9a-2d73-4196-93bb-c5df451ea335","system_id":"levelo_inurba_marseille","lat":43.33762,"lon":5.37441,"is_reserved":false,"is_disabled":false,"rental_uris":{"android":"levelo://app?vid=94907f9a-2d73-4196-93bb-c5df451ea335","ios":"levelo://app?vid=94907f9a-2d73-4196-93bb-c5df451ea335"},"vehicle_type_id":"4","last_reported":1701461247,"current_range_meters":24400,"station_id":"","pricing_plan_id":"free"},{"bike_id":"339e8297-d14f-4866-b1f9-0c7caea3c54e","system_id":"levelo_inurba_marseille","lat":43.3376,"lon":5.37458,"is_reserved":false,"is_disabled":false,"rental_uris":{"android":"levelo://app?vid=339e8297-d14f-4866-b1f9-0c7caea3c54e","ios":"levelo://app?vid=339e8297-d14f-4866-b1f9-0c7caea3c54e"},"vehicle_type_id":"4","last_reported":1701461247,"current_range_meters":28800,"station_id":"","pricing_plan_id":"free"},{"bike_id":"ecd63a1f-9f52-43ce-8d2e-72d6d963d5f1","system_id":"levelo_inurba_marseille","lat":43.30642,"lon":5.401031,"is_reserved":false,"is_disabled":false,"rental_uris":{"android":"levelo://app?vid=ecd63a1f-9f52-43ce-8d2e-72d6d963d5f1","ios":"levelo://app?vid=ecd63a1f-9f52-43ce-8d2e-72d6d963d5f1"},"vehicle_type_id":"4","last_reported":1701461247,"current_range_meters":23600,"station_id":"ce4bh112rcd13ifvqda0","pricing_plan_id":"free"},{"bike_id":"3b198d43-72ef-4135-8019-b1e33447ab96","system_id":"levelo_inurba_marseille","lat":43.28853,"lon":5.37838,"is_reserved":false,"is_disabled":false,"rental_uris":{"android":"levelo://app?vid=3b198d43-72ef-4135-8019-b1e33447ab96","ios":"levelo://app?vid=3b198d43-72ef-4135-8019-b1e33447ab96"},"vehicle_type_id":"4","last_reported":1701461247,"current_range_meters":9200,"station_id":"ce4bhf92rcd13ifvqf50","pricing_plan_id":"free"},{"bike_id":"ecd35b54-70ca-40a4-95a6-2ffe2d32d5e3","system_id":"levelo_inurba_marseille","lat":43.28727,"lon":5.36078,"is_reserved":false,"is_disabled":false,"rental_uris":{"android":"levelo://app?vid=ecd35b54-70ca-40a4-95a6-2ffe2d32d5e3","ios":"levelo://app?vid=ecd35b54-70ca-40a4-95a6-2ffe2d32d5e3"},"vehicle_type_id":"4","last_reported":1701461247,"current_range_meters":2000,"station_id":"cki0cbj6b192h4jlfktg","pricing_plan_id":"free"},{"bike_id":"6e7e7930-c941-4aa6-bdfb-06048d0dcabb","system_id":"levelo_inurba_marseille","lat":43.28727,"lon":5.36078,"is_reserved":false,"is_disabled":false,"rental_uris":{"android":"levelo://app?vid=6e7e7930-c941-4aa6-bdfb-06048d0dcabb","ios":"levelo://app?vid=6e7e7930-c941-4aa6-bdfb-06048d0dcabb"},"vehicle_type_id":"4","last_reported":1701461247,"current_range_meters":30400,"station_id":"cki0cbj6b192h4jlfktg","pricing_plan_id":"free"},{"bike_id":"d27a50e8-78f6-40af-ba67-5e866b035351","system_id":"levelo_inurba_marseille","lat":43.286961,"lon":5.373785,"is_reserved":false,"is_disabled":false,"rental_uris":{"android":"levelo://app?vid=d27a50e8-78f6-40af-ba67-5e866b035351","ios":"levelo://app?vid=d27a50e8-78f6-40af-ba67-5e866b035351"},"vehicle_type_id":"4","last_reported":1701461247,"current_range_meters":22400,"station_id":"ce4bh3p2rcd13ifvqdq0","pricing_plan_id":"free"},{"bike_id":"29308607-8792-49e1-9b09-bcb4e4821a86","system_id":"levelo_inurba_marseille","lat":43.286591,"lon":5.363346,"is_reserved":false,"is_disabled":false,"rental_uris":{"android":"levelo://app?vid=29308607-8792-49e1-9b09-bcb4e4821a86","ios":"levelo://app?vid=29308607-8792-49e1-9b09-bcb4e4821a86"},"vehicle_type_id":"4","last_reported":1701461247,"current_range_meters":3200,"station_id":"ce4bhah2rcd13ifvqej0","pricing_plan_id":"free"},{"bike_id":"995885c4-1e08-4b89-9da2-9093ccecfafe","system_id":"levelo_inurba_marseille","lat":43.298681,"lon":5.397225,"is_reserved":false,"is_disabled":false,"rental_uris":{"android":"levelo://app?vid=995885c4-1e08-4b89-9da2-9093ccecfafe","ios":"levelo://app?vid=995885c4-1e08-4b89-9da2-9093ccecfafe"},"vehicle_type_id":"4","last_reported":1701461247,"current_range_meters":21200,"station_id":"ce4bh0h2rcd13ifvqd50","pricing_plan_id":"free"},{"bike_id":"69f39dd5-818c-4732-8797-7bb15283cdf3","system_id":"levelo_inurba_marseille","lat":43.295196,"lon":5.39397,"is_reserved":false,"is_disabled":false,"rental_uris":{"android":"levelo://app?vid=69f39dd5-818c-4732-8797-7bb15283cdf3","ios":"levelo://app?vid=69f39dd5-818c-4732-8797-7bb15283cdf3"},"vehicle_type_id":"4","last_reported":1701461247,"current_range_meters":3200,"station_id":"ce4bh292rcd13ifvqdf0","pricing_plan_id":"free"},{"bike_id":"77b19786-000e-4ef6-8998-1db42e31864f","system_id":"levelo_inurba_marseille","lat":43.290375,"lon":5.386455,"is_reserved":false,"is_disabled":false,"rental_uris":{"android":"levelo://app?vid=77b19786-000e-4ef6-8998-1db42e31864f","ios":"levelo://app?vid=77b19786-000e-4ef6-8998-1db42e31864f"},"vehicle_type_id":"4","last_reported":1701461247,"current_range_meters":20000,"station_id":"ce4bh4p2rcd13ifvqe0g","pricing_plan_id":"free"},{"bike_id":"c8182120-47a8-4fb5-aa91-9167f401ce66","system_id":"levelo_inurba_marseille","lat":43.302759,"lon":5.400793,"is_reserved":false,"is_disabled":false,"rental_uris":{"android":"levelo://app?vid=c8182120-47a8-4fb5-aa91-9167f401ce66","ios":"levelo://app?vid=c8182120-47a8-4fb5-aa91-9167f401ce66"},"vehicle_type_id":"4","last_reported":1701461247,"current_range_meters":12400,"station_id":"ce4bgvh2rcd13ifvqcs0","pricing_plan_id":"free"},{"bike_id":"f3a7aad6-b85c-48e3-aa75-04cd1800258d","system_id":"levelo_inurba_marseille","lat":43.290345,"lon":5.38646,"is_reserved":false,"is_disabled":false,"rental_uris":{"android":"levelo://app?vid=f3a7aad6-b85c-48e3-aa75-04cd1800258d","ios":"levelo://app?vid=f3a7aad6-b85c-48e3-aa75-04cd1800258d"},"vehicle_type_id":"4","last_reported":1701461247,"current_range_meters":12800,"station_id":"ce4bh4p2rcd13ifvqe0g","pricing_plan_id":"free"},{"bike_id":"a9927d13-5485-448a-b206-084918469ea7","system_id":"levelo_inurba_marseille","lat":43.302759,"lon":5.400793,"is_reserved":false,"is_disabled":false,"rental_uris":{"android":"levelo://app?vid=a9927d13-5485-448a-b206-084918469ea7","ios":"levelo://app?vid=a9927d13-5485-448a-b206-084918469ea7"},"vehicle_type_id":"4","last_reported":1701461247,"current_range_meters":28400,"station_id":"ce4bgvh2rcd13ifvqcs0","pricing_plan_id":"free"},{"bike_id":"3c0a753d-1f58-4601-b7e3-26a10723a306","system_id":"levelo_inurba_marseille","lat":43.302759,"lon":5.400793,"is_reserved":false,"is_disabled":false,"rental_uris":{"android":"levelo://app?vid=3c0a753d-1f58-4601-b7e3-26a10723a306","ios":"levelo://app?vid=3c0a753d-1f58-4601-b7e3-26a10723a306"},"vehicle_type_id":"4","last_reported":1701461247,"current_range_meters":30400,"station_id":"ce4bgvh2rcd13ifvqcs0","pricing_plan_id":"free"},{"bike_id":"6ec219dd-e2f0-43e6-97be-b9ed2327cf64","system_id":"levelo_inurba_marseille","lat":43.286039,"lon":5.370679,"is_reserved":false,"is_disabled":false,"rental_uris":{"android":"levelo://app?vid=6ec219dd-e2f0-43e6-97be-b9ed2327cf64","ios":"levelo://app?vid=6ec219dd-e2f0-43e6-97be-b9ed2327cf64"},"vehicle_type_id":"4","last_reported":1701461247,"current_range_meters":29200,"station_id":"ce4bht12rcd13ifvqi60","pricing_plan_id":"free"},{"bike_id":"51e80092-f709-463a-96a2-8b25587b914d","system_id":"levelo_inurba_marseille","lat":43.286039,"lon":5.370681,"is_reserved":false,"is_disabled":false,"rental_uris":{"android":"levelo://app?vid=51e80092-f709-463a-96a2-8b25587b914d","ios":"levelo://app?vid=51e80092-f709-463a-96a2-8b25587b914d"},"vehicle_type_id":"4","last_reported":1701461247,"current_range_meters":27600,"station_id":"ce4bht12rcd13ifvqi60","pricing_plan_id":"free"},{"bike_id":"ab0a5040-9b0b-456e-9bc8-b22c631ba1b2","system_id":"levelo_inurba_marseille","lat":43.28805,"lon":5.35238,"is_reserved":false,"is_disabled":false,"rental_uris":{"android":"levelo://app?vid=ab0a5040-9b0b-456e-9bc8-b22c631ba1b2","ios":"levelo://app?vid=ab0a5040-9b0b-456e-9bc8-b22c631ba1b2"},"vehicle_type_id":"4","last_reported":1701461247,"current_range_meters":0,"station_id":"","pricing_plan_id":"free"},{"bike_id":"ff495e2c-aa20-44c7-923c-e1b0f585e3c5","system_id":"levelo_inurba_marseille","lat":43.295194,"lon":5.39397,"is_reserved":false,"is_disabled":false,"rental_uris":{"android":"levelo://app?vid=ff495e2c-aa20-44c7-923c-e1b0f585e3c5","ios":"levelo://app?vid=ff495e2c-aa20-44c7-923c-e1b0f585e3c5"},"vehicle_type_id":"4","last_reported":1701461247,"current_range_meters":6800,"station_id":"ce4bh292rcd13ifvqdf0","pricing_plan_id":"free"},{"bike_id":"23aa48d9-ab37-4f7c-8484-2fa8d1c10775","system_id":"levelo_inurba_marseille","lat":43.316517,"lon":5.404375,"is_reserved":false,"is_disabled":false,"rental_uris":{"android":"levelo://app?vid=23aa48d9-ab37-4f7c-8484-2fa8d1c10775","ios":"levelo://app?vid=23aa48d9-ab37-4f7c-8484-2fa8d1c10775"},"vehicle_type_id":"4","last_reported":1701461247,"current_range_meters":14800,"station_id":"ce4bh012rcd13ifvqd00","pricing_plan_id":"free"},{"bike_id":"4a6b19d4-187e-4b11-82bd-74b59717c15f","system_id":"levelo_inurba_marseille","lat":43.291994,"lon":5.392907,"is_reserved":false,"is_disabled":false,"rental_uris":{"android":"levelo://app?vid=4a6b19d4-187e-4b11-82bd-74b59717c15f","ios":"levelo://app?vid=4a6b19d4-187e-4b11-82bd-74b59717c15f"},"vehicle_type_id":"4","last_reported":1701461247,"current_range_meters":26800,"station_id":"ce4bh192rcd13ifvqdd0","pricing_plan_id":"free"},{"bike_id":"189622c6-31d0-4222-82db-9ef7fb206284","system_id":"levelo_inurba_marseille","lat":43.284534,"lon":5.358662,"is_reserved":false,"is_disabled":false,"rental_uris":{"android":"levelo://app?vid=189622c6-31d0-4222-82db-9ef7fb206284","ios":"levelo://app?vid=189622c6-31d0-4222-82db-9ef7fb206284"},"vehicle_type_id":"4","last_reported":1701461247,"current_range_meters":3600,"station_id":"ce4bhah2rcd13ifvqei0","pricing_plan_id":"free"},{"bike_id":"6876ca3c-4536-4659-b150-3e9e6d87cd51","system_id":"levelo_inurba_marseille","lat":43.284534,"lon":5.358662,"is_reserved":false,"is_disabled":false,"rental_uris":{"android":"levelo://app?vid=6876ca3c-4536-4659-b150-3e9e6d87cd51","ios":"levelo://app?vid=6876ca3c-4536-4659-b150-3e9e6d87cd51"},"vehicle_type_id":"4","last_reported":1701461247,"current_range_meters":800,"station_id":"ce4bhah2rcd13ifvqei0","pricing_plan_id":"free"},{"bike_id":"40a0085e-25ea-4e01-afe8-763f8766a50e","system_id":"levelo_inurba_marseille","lat":43.28611,"lon":5.35102,"is_reserved":false,"is_disabled":false,"rental_uris":{"android":"levelo://app?vid=40a0085e-25ea-4e01-afe8-763f8766a50e","ios":"levelo://app?vid=40a0085e-25ea-4e01-afe8-763f8766a50e"},"vehicle_type_id":"4","last_reported":1701461247,"current_range_meters":11200,"station_id":"ce4bhch2rcd13ifvqeug","pricing_plan_id":"free"},{"bike_id":"9247c1ba-ed52-409e-9234-7afafc69c39c","system_id":"levelo_inurba_marseille","lat":43.283998,"lon":5.375062,"is_reserved":false,"is_disabled":false,"rental_uris":{"android":"levelo://app?vid=9247c1ba-ed52-409e-9234-7afafc69c39c","ios":"levelo://app?vid=9247c1ba-ed52-409e-9234-7afafc69c39c"},"vehicle_type_id":"4","last_reported":1701461247,"current_range_meters":14400,"station_id":"ce4bh412rcd13ifvqds0","pricing_plan_id":"free"},{"bike_id":"cd4fb0a3-232c-445a-9598-e1a70e2ada2e","system_id":"levelo_inurba_marseille","lat":43.283998,"lon":5.375062,"is_reserved":false,"is_disabled":false,"rental_uris":{"android":"levelo://app?vid=cd4fb0a3-232c-445a-9598-e1a70e2ada2e","ios":"levelo://app?vid=cd4fb0a3-232c-445a-9598-e1a70e2ada2e"},"vehicle_type_id":"4","last_reported":1701461247,"current_range_meters":31200,"station_id":"ce4bh412rcd13ifvqds0","pricing_plan_id":"free"},{"bike_id":"54328ae2-d175-4455-8539-0920784dc633","system_id":"levelo_inurba_marseille","lat":43.319179,"lon":5.407725,"is_reserved":false,"is_disabled":false,"rental_uris":{"android":"levelo://app?vid=54328ae2-d175-4455-8539-0920784dc633","ios":"levelo://app?vid=54328ae2-d175-4455-8539-0920784dc633"},"vehicle_type_id":"4","last_reported":1701461247,"current_range_meters":26000,"station_id":"ce4bhq12rcd13ifvqhig","pricing_plan_id":"free"},{"bike_id":"7f458fab-3a0c-4609-8310-733ff5bbba57","system_id":"levelo_inurba_marseille","lat":43.33717,"lon":5.391857,"is_reserved":false,"is_disabled":false,"rental_uris":{"android":"levelo://app?vid=7f458fab-3a0c-4609-8310-733ff5bbba57","ios":"levelo://app?vid=7f458fab-3a0c-4609-8310-733ff5bbba57"},"vehicle_type_id":"4","last_reported":1701461247,"current_range_meters":30000,"station_id":"ce4bhr92rcd13ifvqhsg","pricing_plan_id":"free"},{"bike_id":"f99fc4d8-709b-4cee-a32c-2cdd6f1e8b1e","system_id":"levelo_inurba_marseille","lat":43.337168,"lon":5.391825,"is_reserved":false,"is_disabled":false,"rental_uris":{"android":"levelo://app?vid=f99fc4d8-709b-4cee-a32c-2cdd6f1e8b1e","ios":"levelo://app?vid=f99fc4d8-709b-4cee-a32c-2cdd6f1e8b1e"},"vehicle_type_id":"4","last_reported":1701461247,"current_range_meters":26400,"station_id":"ce4bhr92rcd13ifvqhsg","pricing_plan_id":"free"},{"bike_id":"4bb6a732-3198-4b5d-8b1f-8af66a927600","system_id":"levelo_inurba_marseille","lat":43.284787,"lon":5.384116,"is_reserved":false,"is_disabled":false,"rental_uris":{"android":"levelo://app?vid=4bb6a732-3198-4b5d-8b1f-8af66a927600","ios":"levelo://app?vid=4bb6a732-3198-4b5d-8b1f-8af66a927600"},"vehicle_type_id":"4","last_reported":1701461247,"current_range_meters":18000,"station_id":"ce4bh512rcd13ifvqe3g","pricing_plan_id":"free"},{"bike_id":"4f980d0f-11d5-47b2-841d-cd0f520f6450","system_id":"levelo_inurba_marseille","lat":43.283494,"lon":5.380945,"is_reserved":false,"is_disabled":false,"rental_uris":{"android":"levelo://app?vid=4f980d0f-11d5-47b2-841d-cd0f520f6450","ios":"levelo://app?vid=4f980d0f-11d5-47b2-841d-cd0f520f6450"},"vehicle_type_id":"4","last_reported":1701461247,"current_range_meters":2400,"station_id":"ce4bh412rcd13ifvqdr0","pricing_plan_id":"free"},{"bike_id":"0f0400f6-b772-4029-a961-0e04687a92e9","system_id":"levelo_inurba_marseille","lat":43.292724,"lon":5.401131,"is_reserved":false,"is_disabled":false,"rental_uris":{"android":"levelo://app?vid=0f0400f6-b772-4029-a961-0e04687a92e9","ios":"levelo://app?vid=0f0400f6-b772-4029-a961-0e04687a92e9"},"vehicle_type_id":"4","last_reported":1701461247,"current_range_meters":28000,"station_id":"ce4bh312rcd13ifvqdk0","pricing_plan_id":"free"},{"bike_id":"57e7bd02-4f97-471d-8d10-b6d874e6ee38","system_id":"levelo_inurba_marseille","lat":43.292724,"lon":5.401131,"is_reserved":false,"is_disabled":false,"rental_uris":{"android":"levelo://app?vid=57e7bd02-4f97-471d-8d10-b6d874e6ee38","ios":"levelo://app?vid=57e7bd02-4f97-471d-8d10-b6d874e6ee38"},"vehicle_type_id":"4","last_reported":1701461247,"current_range_meters":24000,"station_id":"ce4bh312rcd13ifvqdk0","pricing_plan_id":"free"},{"bike_id":"69881fbf-c0ea-49af-a1fc-762bfb1388e1","system_id":"levelo_inurba_marseille","lat":43.282754,"lon":5.350519,"is_reserved":false,"is_disabled":false,"rental_uris":{"android":"levelo://app?vid=69881fbf-c0ea-49af-a1fc-762bfb1388e1","ios":"levelo://app?vid=69881fbf-c0ea-49af-a1fc-762bfb1388e1"},"vehicle_type_id":"4","last_reported":1701461247,"current_range_meters":14800,"station_id":"ce4bhbp2rcd13ifvqerg","pricing_plan_id":"free"},{"bike_id":"6865a707-d9ab-4350-9051-bc71241eff13","system_id":"levelo_inurba_marseille","lat":43.283502,"lon":5.386471,"is_reserved":false,"is_disabled":false,"rental_uris":{"android":"levelo://app?vid=6865a707-d9ab-4350-9051-bc71241eff13","ios":"levelo://app?vid=6865a707-d9ab-4350-9051-bc71241eff13"},"vehicle_type_id":"4","last_reported":1701461247,"current_range_meters":17600,"station_id":"ce4bh492rcd13ifvqdvg","pricing_plan_id":"free"},{"bike_id":"da9c69a8-f034-4bc4-bd6f-19169039de2b","system_id":"levelo_inurba_marseille","lat":43.280382,"lon":5.369291,"is_reserved":false,"is_disabled":false,"rental_uris":{"android":"levelo://app?vid=da9c69a8-f034-4bc4-bd6f-19169039de2b","ios":"levelo://app?vid=da9c69a8-f034-4bc4-bd6f-19169039de2b"},"vehicle_type_id":"4","last_reported":1701461247,"current_range_meters":24000,"station_id":"ce4bha12rcd13ifvqef0","pricing_plan_id":"free"},{"bike_id":"9ff2d483-5fca-4b5b-9dd9-8b57d41f165b","system_id":"levelo_inurba_marseille","lat":43.281044,"lon":5.378308,"is_reserved":false,"is_disabled":false,"rental_uris":{"android":"levelo://app?vid=9ff2d483-5fca-4b5b-9dd9-8b57d41f165b","ios":"levelo://app?vid=9ff2d483-5fca-4b5b-9dd9-8b57d41f165b"},"vehicle_type_id":"4","last_reported":1701461247,"current_range_meters":11600,"station_id":"ce4bha12rcd13ifvqee0","pricing_plan_id":"free"},{"bike_id":"2fd7a7a9-7d3f-40a7-943b-58eb9afc5c16","system_id":"levelo_inurba_marseille","lat":43.284462,"lon":5.392121,"is_reserved":false,"is_disabled":false,"rental_uris":{"android":"levelo://app?vid=2fd7a7a9-7d3f-40a7-943b-58eb9afc5c16","ios":"levelo://app?vid=2fd7a7a9-7d3f-40a7-943b-58eb9afc5c16"},"vehicle_type_id":"4","last_reported":1701461247,"current_range_meters":31200,"station_id":"ce4bhoh2rcd13ifvqh5g","pricing_plan_id":"free"},{"bike_id":"98566b56-b107-4de8-8ed0-86ccaaf6fb00","system_id":"levelo_inurba_marseille","lat":43.284462,"lon":5.392121,"is_reserved":false,"is_disabled":false,"rental_uris":{"android":"levelo://app?vid=98566b56-b107-4de8-8ed0-86ccaaf6fb00","ios":"levelo://app?vid=98566b56-b107-4de8-8ed0-86ccaaf6fb00"},"vehicle_type_id":"4","last_reported":1701461247,"current_range_meters":29200,"station_id":"ce4bhoh2rcd13ifvqh5g","pricing_plan_id":"free"},{"bike_id":"a3bc5e4f-2a64-4eac-991d-483a11dec586","system_id":"levelo_inurba_marseille","lat":43.285742,"lon":5.395004,"is_reserved":false,"is_disabled":false,"rental_uris":{"android":"levelo://app?vid=a3bc5e4f-2a64-4eac-991d-483a11dec586","ios":"levelo://app?vid=a3bc5e4f-2a64-4eac-991d-483a11dec586"},"vehicle_type_id":"4","last_reported":1701461247,"current_range_meters":800,"station_id":"ce4bh292rcd13ifvqdg0","pricing_plan_id":"free"},{"bike_id":"fe41732f-9332-487d-842d-4d127bb3f35e","system_id":"levelo_inurba_marseille","lat":43.326605,"lon":5.409903,"is_reserved":false,"is_disabled":false,"rental_uris":{"android":"levelo://app?vid=fe41732f-9332-487d-842d-4d127bb3f35e","ios":"levelo://app?vid=fe41732f-9332-487d-842d-4d127bb3f35e"},"vehicle_type_id":"4","last_reported":1701461247,"current_range_meters":24000,"station_id":"ce4bhpp2rcd13ifvqhgg","pricing_plan_id":"free"},{"bike_id":"96496c0a-f1aa-4bd5-b562-e791274ad1b2","system_id":"levelo_inurba_marseille","lat":43.326605,"lon":5.409903,"is_reserved":false,"is_disabled":false,"rental_uris":{"android":"levelo://app?vid=96496c0a-f1aa-4bd5-b562-e791274ad1b2","ios":"levelo://app?vid=96496c0a-f1aa-4bd5-b562-e791274ad1b2"},"vehicle_type_id":"4","last_reported":1701461247,"current_range_meters":26400,"station_id":"ce4bhpp2rcd13ifvqhgg","pricing_plan_id":"free"},{"bike_id":"8fbf3d61-038c-4d2e-a745-775230905bcc","system_id":"levelo_inurba_marseille","lat":43.27989,"lon":5.38717,"is_reserved":false,"is_disabled":false,"rental_uris":{"android":"levelo://app?vid=8fbf3d61-038c-4d2e-a745-775230905bcc","ios":"levelo://app?vid=8fbf3d61-038c-4d2e-a745-775230905bcc"},"vehicle_type_id":"4","last_reported":1701461247,"current_range_meters":0,"station_id":"ce4bhg12rcd13ifvqf80","pricing_plan_id":"free"},{"bike_id":"e413c7df-efb7-4671-81d7-e39429837733","system_id":"levelo_inurba_marseille","lat":43.299579,"lon":5.413255,"is_reserved":false,"is_disabled":false,"rental_uris":{"android":"levelo://app?vid=e413c7df-efb7-4671-81d7-e39429837733","ios":"levelo://app?vid=e413c7df-efb7-4671-81d7-e39429837733"},"vehicle_type_id":"4","last_reported":1701461247,"current_range_meters":29600,"station_id":"ce4bhp12rcd13ifvqh9g","pricing_plan_id":"free"},{"bike_id":"43ddbb4f-8847-44db-8978-d0c4917886f9","system_id":"levelo_inurba_marseille","lat":43.299577,"lon":5.413277,"is_reserved":false,"is_disabled":false,"rental_uris":{"android":"levelo://app?vid=43ddbb4f-8847-44db-8978-d0c4917886f9","ios":"levelo://app?vid=43ddbb4f-8847-44db-8978-d0c4917886f9"},"vehicle_type_id":"4","last_reported":1701461247,"current_range_meters":27600,"station_id":"ce4bhp12rcd13ifvqh9g","pricing_plan_id":"free"},{"bike_id":"adf23f10-f42b-469f-8b4b-fb5e0704b0cd","system_id":"levelo_inurba_marseille","lat":43.292571,"lon":5.409107,"is_reserved":false,"is_disabled":false,"rental_uris":{"android":"levelo://app?vid=adf23f10-f42b-469f-8b4b-fb5e0704b0cd","ios":"levelo://app?vid=adf23f10-f42b-469f-8b4b-fb5e0704b0cd"},"vehicle_type_id":"4","last_reported":1701461247,"current_range_meters":20800,"station_id":"ce4bh192rcd13ifvqdc0","pricing_plan_id":"free"},{"bike_id":"526b28c0-af5c-4ca6-a2cb-18f0c4599abf","system_id":"levelo_inurba_marseille","lat":43.292647,"lon":5.409162,"is_reserved":false,"is_disabled":false,"rental_uris":{"android":"levelo://app?vid=526b28c0-af5c-4ca6-a2cb-18f0c4599abf","ios":"levelo://app?vid=526b28c0-af5c-4ca6-a2cb-18f0c4599abf"},"vehicle_type_id":"4","last_reported":1701461247,"current_range_meters":22800,"station_id":"","pricing_plan_id":"free"},{"bike_id":"50f7840e-a9cf-4f40-b946-216ee75649a2","system_id":"levelo_inurba_marseille","lat":43.27623,"lon":5.36098,"is_reserved":false,"is_disabled":false,"rental_uris":{"android":"levelo://app?vid=50f7840e-a9cf-4f40-b946-216ee75649a2","ios":"levelo://app?vid=50f7840e-a9cf-4f40-b946-216ee75649a2"},"vehicle_type_id":"4","last_reported":1701461247,"current_range_meters":2400,"station_id":"","pricing_plan_id":"free"},{"bike_id":"df7fb786-3a0f-4ca8-9200-5934e980f116","system_id":"levelo_inurba_marseille","lat":43.27618,"lon":5.361009,"is_reserved":false,"is_disabled":false,"rental_uris":{"android":"levelo://app?vid=df7fb786-3a0f-4ca8-9200-5934e980f116","ios":"levelo://app?vid=df7fb786-3a0f-4ca8-9200-5934e980f116"},"vehicle_type_id":"4","last_reported":1701461247,"current_range_meters":16800,"station_id":"ce4bgj92rcd13ifvqbe0","pricing_plan_id":"free"},{"bike_id":"662d7ac0-b60c-4589-b775-59c466096683","system_id":"levelo_inurba_marseille","lat":43.325233,"lon":5.414318,"is_reserved":false,"is_disabled":false,"rental_uris":{"android":"levelo://app?vid=662d7ac0-b60c-4589-b775-59c466096683","ios":"levelo://app?vid=662d7ac0-b60c-4589-b775-59c466096683"},"vehicle_type_id":"4","last_reported":1701461247,"current_range_meters":28800,"station_id":"ce4bhq12rcd13ifvqhhg","pricing_plan_id":"free"},{"bike_id":"588bedd9-e80a-4873-95ad-ba22112ed985","system_id":"levelo_inurba_marseille","lat":43.280784,"lon":5.396622,"is_reserved":false,"is_disabled":false,"rental_uris":{"android":"levelo://app?vid=588bedd9-e80a-4873-95ad-ba22112ed985","ios":"levelo://app?vid=588bedd9-e80a-4873-95ad-ba22112ed985"},"vehicle_type_id":"4","last_reported":1701461247,"current_range_meters":21600,"station_id":"ce4bho12rcd13ifvqh2g","pricing_plan_id":"free"},{"bike_id":"a94b3eb5-5797-4123-b454-69efb440c0b9","system_id":"levelo_inurba_marseille","lat":43.280784,"lon":5.396622,"is_reserved":false,"is_disabled":false,"rental_uris":{"android":"levelo://app?vid=a94b3eb5-5797-4123-b454-69efb440c0b9","ios":"levelo://app?vid=a94b3eb5-5797-4123-b454-69efb440c0b9"},"vehicle_type_id":"4","last_reported":1701461247,"current_range_meters":28000,"station_id":"ce4bho12rcd13ifvqh2g","pricing_plan_id":"free"},{"bike_id":"7cda6506-1dca-4d1f-b208-0241def2b98e","system_id":"levelo_inurba_marseille","lat":43.303837,"lon":5.418724,"is_reserved":false,"is_disabled":false,"rental_uris":{"android":"levelo://app?vid=7cda6506-1dca-4d1f-b208-0241def2b98e","ios":"levelo://app?vid=7cda6506-1dca-4d1f-b208-0241def2b98e"},"vehicle_type_id":"4","last_reported":1701461247,"current_range_meters":14000,"station_id":"ce4bhop2rcd13ifvqh7g","pricing_plan_id":"free"},{"bike_id":"dad9420d-36bf-47cb-8906-3c62e7ceb4b7","system_id":"levelo_inurba_marseille","lat":43.3035,"lon":5.41875,"is_reserved":false,"is_disabled":false,"rental_uris":{"android":"levelo://app?vid=dad9420d-36bf-47cb-8906-3c62e7ceb4b7","ios":"levelo://app?vid=dad9420d-36bf-47cb-8906-3c62e7ceb4b7"},"vehicle_type_id":"4","last_reported":1701461247,"current_range_meters":19600,"station_id":"ce4bhop2rcd13ifvqh7g","pricing_plan_id":"free"},{"bike_id":"ae81a803-fec5-4b93-9ab4-4d8a4c5332eb","system_id":"levelo_inurba_marseille","lat":43.303837,"lon":5.418724,"is_reserved":false,"is_disabled":false,"rental_uris":{"android":"levelo://app?vid=ae81a803-fec5-4b93-9ab4-4d8a4c5332eb","ios":"levelo://app?vid=ae81a803-fec5-4b93-9ab4-4d8a4c5332eb"},"vehicle_type_id":"4","last_reported":1701461247,"current_range_meters":25600,"station_id":"ce4bhop2rcd13ifvqh7g","pricing_plan_id":"free"},{"bike_id":"ae130eb3-69a3-4569-9978-7e5ec544228e","system_id":"levelo_inurba_marseille","lat":43.303837,"lon":5.418724,"is_reserved":false,"is_disabled":false,"rental_uris":{"android":"levelo://app?vid=ae130eb3-69a3-4569-9978-7e5ec544228e","ios":"levelo://app?vid=ae130eb3-69a3-4569-9978-7e5ec544228e"},"vehicle_type_id":"4","last_reported":1701461247,"current_range_meters":29600,"station_id":"ce4bhop2rcd13ifvqh7g","pricing_plan_id":"free"},{"bike_id":"4289f372-a9f0-4f7f-9b07-12bedb672879","system_id":"levelo_inurba_marseille","lat":43.33612,"lon":5.410321,"is_reserved":false,"is_disabled":false,"rental_uris":{"android":"levelo://app?vid=4289f372-a9f0-4f7f-9b07-12bedb672879","ios":"levelo://app?vid=4289f372-a9f0-4f7f-9b07-12bedb672879"},"vehicle_type_id":"4","last_reported":1701461247,"current_range_meters":16400,"station_id":"ce4bhqh2rcd13ifvqhmg","pricing_plan_id":"free"},{"bike_id":"9019d7f6-4837-44df-8f80-0029f66cfbdb","system_id":"levelo_inurba_marseille","lat":43.275625,"lon":5.384392,"is_reserved":false,"is_disabled":false,"rental_uris":{"android":"levelo://app?vid=9019d7f6-4837-44df-8f80-0029f66cfbdb","ios":"levelo://app?vid=9019d7f6-4837-44df-8f80-0029f66cfbdb"},"vehicle_type_id":"4","last_reported":1701461247,"current_range_meters":8800,"station_id":"ce4bhh92rcd13ifvqfi0","pricing_plan_id":"free"},{"bike_id":"3308079f-d65b-4f92-9cc6-a28a1f6a4d2c","system_id":"levelo_inurba_marseille","lat":43.275625,"lon":5.384392,"is_reserved":false,"is_disabled":false,"rental_uris":{"android":"levelo://app?vid=3308079f-d65b-4f92-9cc6-a28a1f6a4d2c","ios":"levelo://app?vid=3308079f-d65b-4f92-9cc6-a28a1f6a4d2c"},"vehicle_type_id":"4","last_reported":1701461247,"current_range_meters":26000,"station_id":"ce4bhh92rcd13ifvqfi0","pricing_plan_id":"free"},{"bike_id":"68d5dc71-9c41-49fb-a8f8-ddd8faabb783","system_id":"levelo_inurba_marseille","lat":43.276771,"lon":5.388799,"is_reserved":false,"is_disabled":false,"rental_uris":{"android":"levelo://app?vid=68d5dc71-9c41-49fb-a8f8-ddd8faabb783","ios":"levelo://app?vid=68d5dc71-9c41-49fb-a8f8-ddd8faabb783"},"vehicle_type_id":"4","last_reported":1701461247,"current_range_meters":28400,"station_id":"ce4bhi12rcd13ifvqfo0","pricing_plan_id":"free"},{"bike_id":"9db12440-6564-4c16-8d07-3176be8380ca","system_id":"levelo_inurba_marseille","lat":43.279952,"lon":5.400085,"is_reserved":false,"is_disabled":false,"rental_uris":{"android":"levelo://app?vid=9db12440-6564-4c16-8d07-3176be8380ca","ios":"levelo://app?vid=9db12440-6564-4c16-8d07-3176be8380ca"},"vehicle_type_id":"4","last_reported":1701461247,"current_range_meters":22800,"station_id":"ce4bho92rcd13ifvqh4g","pricing_plan_id":"free"},{"bike_id":"8b95fa19-34cb-496e-ada5-cf4ce57829c5","system_id":"levelo_inurba_marseille","lat":43.279952,"lon":5.400085,"is_reserved":false,"is_disabled":false,"rental_uris":{"android":"levelo://app?vid=8b95fa19-34cb-496e-ada5-cf4ce57829c5","ios":"levelo://app?vid=8b95fa19-34cb-496e-ada5-cf4ce57829c5"},"vehicle_type_id":"4","last_reported":1701461247,"current_range_meters":32000,"station_id":"ce4bho92rcd13ifvqh4g","pricing_plan_id":"free"},{"bike_id":"b83f0b9f-1486-435e-97de-ebbda5a8317d","system_id":"levelo_inurba_marseille","lat":43.279975,"lon":5.40009,"is_reserved":false,"is_disabled":false,"rental_uris":{"android":"levelo://app?vid=b83f0b9f-1486-435e-97de-ebbda5a8317d","ios":"levelo://app?vid=b83f0b9f-1486-435e-97de-ebbda5a8317d"},"vehicle_type_id":"4","last_reported":1701461247,"current_range_meters":26800,"station_id":"ce4bho92rcd13ifvqh4g","pricing_plan_id":"free"},{"bike_id":"2008ad1c-c3ed-4aab-a90a-ec11e3a4e262","system_id":"levelo_inurba_marseille","lat":43.279952,"lon":5.400085,"is_reserved":false,"is_disabled":false,"rental_uris":{"android":"levelo://app?vid=2008ad1c-c3ed-4aab-a90a-ec11e3a4e262","ios":"levelo://app?vid=2008ad1c-c3ed-4aab-a90a-ec11e3a4e262"},"vehicle_type_id":"4","last_reported":1701461247,"current_range_meters":23200,"station_id":"ce4bho92rcd13ifvqh4g","pricing_plan_id":"free"},{"bike_id":"db7ffdb9-f10e-41dc-9854-cecf34a3d463","system_id":"levelo_inurba_marseille","lat":43.279952,"lon":5.400085,"is_reserved":false,"is_disabled":false,"rental_uris":{"android":"levelo://app?vid=db7ffdb9-f10e-41dc-9854-cecf34a3d463","ios":"levelo://app?vid=db7ffdb9-f10e-41dc-9854-cecf34a3d463"},"vehicle_type_id":"4","last_reported":1701461247,"current_range_meters":32000,"station_id":"ce4bho92rcd13ifvqh4g","pricing_plan_id":"free"},{"bike_id":"ae645cb6-ae73-4a2b-b68b-451085ca3cdc","system_id":"levelo_inurba_marseille","lat":43.279952,"lon":5.400085,"is_reserved":false,"is_disabled":false,"rental_uris":{"android":"levelo://app?vid=ae645cb6-ae73-4a2b-b68b-451085ca3cdc","ios":"levelo://app?vid=ae645cb6-ae73-4a2b-b68b-451085ca3cdc"},"vehicle_type_id":"4","last_reported":1701461247,"current_range_meters":26400,"station_id":"ce4bho92rcd13ifvqh4g","pricing_plan_id":"free"},{"bike_id":"33918e0d-cdb0-4611-a687-3272d72d60a6","system_id":"levelo_inurba_marseille","lat":43.3253,"lon":5.42129,"is_reserved":false,"is_disabled":false,"rental_uris":{"android":"levelo://app?vid=33918e0d-cdb0-4611-a687-3272d72d60a6","ios":"levelo://app?vid=33918e0d-cdb0-4611-a687-3272d72d60a6"},"vehicle_type_id":"4","last_reported":1701461247,"current_range_meters":27200,"station_id":"","pricing_plan_id":"free"},{"bike_id":"894f6494-585b-4b1b-a39f-39b137cf17d0","system_id":"levelo_inurba_marseille","lat":43.310785,"lon":5.424305,"is_reserved":false,"is_disabled":false,"rental_uris":{"android":"levelo://app?vid=894f6494-585b-4b1b-a39f-39b137cf17d0","ios":"levelo://app?vid=894f6494-585b-4b1b-a39f-39b137cf17d0"},"vehicle_type_id":"4","last_reported":1701461247,"current_range_meters":12400,"station_id":"ce4bhp92rcd13ifvqhag","pricing_plan_id":"free"},{"bike_id":"a458be37-b437-4b6f-aef1-9977da7e9abb","system_id":"levelo_inurba_marseille","lat":43.295511,"lon":5.422926,"is_reserved":false,"is_disabled":false,"rental_uris":{"android":"levelo://app?vid=a458be37-b437-4b6f-aef1-9977da7e9abb","ios":"levelo://app?vid=a458be37-b437-4b6f-aef1-9977da7e9abb"},"vehicle_type_id":"4","last_reported":1701461247,"current_range_meters":28400,"station_id":"ce4bhph2rcd13ifvqhdg","pricing_plan_id":"free"},{"bike_id":"2fd3642f-f043-47ed-8015-d904c8b402fd","system_id":"levelo_inurba_marseille","lat":43.272121,"lon":5.391382,"is_reserved":false,"is_disabled":false,"rental_uris":{"android":"levelo://app?vid=2fd3642f-f043-47ed-8015-d904c8b402fd","ios":"levelo://app?vid=2fd3642f-f043-47ed-8015-d904c8b402fd"},"vehicle_type_id":"4","last_reported":1701461247,"current_range_meters":0,"station_id":"ce4bhhp2rcd13ifvqfm0","pricing_plan_id":"free"},{"bike_id":"fa2a8fc9-e894-4299-a01f-f3d0f59305f5","system_id":"levelo_inurba_marseille","lat":43.269467,"lon":5.386439,"is_reserved":false,"is_disabled":false,"rental_uris":{"android":"levelo://app?vid=fa2a8fc9-e894-4299-a01f-f3d0f59305f5","ios":"levelo://app?vid=fa2a8fc9-e894-4299-a01f-f3d0f59305f5"},"vehicle_type_id":"4","last_reported":1701461247,"current_range_meters":2800,"station_id":"ce4bhh92rcd13ifvqfh0","pricing_plan_id":"free"},{"bike_id":"f9ab5cd7-f0da-47e9-a4ad-44592cec429d","system_id":"levelo_inurba_marseille","lat":43.269319,"lon":5.389397,"is_reserved":false,"is_disabled":false,"rental_uris":{"android":"levelo://app?vid=f9ab5cd7-f0da-47e9-a4ad-44592cec429d","ios":"levelo://app?vid=f9ab5cd7-f0da-47e9-a4ad-44592cec429d"},"vehicle_type_id":"4","last_reported":1701461247,"current_range_meters":18400,"station_id":"ce4bhhh2rcd13ifvqfl0","pricing_plan_id":"free"},{"bike_id":"721fef02-6abb-4524-8eb3-db26f11caed2","system_id":"levelo_inurba_marseille","lat":43.269319,"lon":5.389397,"is_reserved":false,"is_disabled":false,"rental_uris":{"android":"levelo://app?vid=721fef02-6abb-4524-8eb3-db26f11caed2","ios":"levelo://app?vid=721fef02-6abb-4524-8eb3-db26f11caed2"},"vehicle_type_id":"4","last_reported":1701461247,"current_range_meters":22800,"station_id":"ce4bhhh2rcd13ifvqfl0","pricing_plan_id":"free"},{"bike_id":"7b1dcdf9-0085-40f9-8480-4c0a836e34c4","system_id":"levelo_inurba_marseille","lat":43.269319,"lon":5.389397,"is_reserved":false,"is_disabled":false,"rental_uris":{"android":"levelo://app?vid=7b1dcdf9-0085-40f9-8480-4c0a836e34c4","ios":"levelo://app?vid=7b1dcdf9-0085-40f9-8480-4c0a836e34c4"},"vehicle_type_id":"4","last_reported":1701461247,"current_range_meters":30000,"station_id":"ce4bhhh2rcd13ifvqfl0","pricing_plan_id":"free"},{"bike_id":"55b33a5c-1177-4dd9-b3a0-e993463bd4e2","system_id":"levelo_inurba_marseille","lat":43.308051,"lon":5.43527,"is_reserved":false,"is_disabled":false,"rental_uris":{"android":"levelo://app?vid=55b33a5c-1177-4dd9-b3a0-e993463bd4e2","ios":"levelo://app?vid=55b33a5c-1177-4dd9-b3a0-e993463bd4e2"},"vehicle_type_id":"4","last_reported":1701461247,"current_range_meters":14400,"station_id":"ce4bhph2rcd13ifvqheg","pricing_plan_id":"free"},{"bike_id":"92311913-f3a0-413e-bbcf-fb6d37d5230a","system_id":"levelo_inurba_marseille","lat":43.308051,"lon":5.43527,"is_reserved":false,"is_disabled":false,"rental_uris":{"android":"levelo://app?vid=92311913-f3a0-413e-bbcf-fb6d37d5230a","ios":"levelo://app?vid=92311913-f3a0-413e-bbcf-fb6d37d5230a"},"vehicle_type_id":"4","last_reported":1701461247,"current_range_meters":20800,"station_id":"ce4bhph2rcd13ifvqheg","pricing_plan_id":"free"},{"bike_id":"c71160fc-c7b7-4c0b-8b7c-da5014dcb825","system_id":"levelo_inurba_marseille","lat":43.317104,"lon":5.436818,"is_reserved":false,"is_disabled":false,"rental_uris":{"android":"levelo://app?vid=c71160fc-c7b7-4c0b-8b7c-da5014dcb825","ios":"levelo://app?vid=c71160fc-c7b7-4c0b-8b7c-da5014dcb825"},"vehicle_type_id":"4","last_reported":1701461247,"current_range_meters":28000,"station_id":"ce4bhp92rcd13ifvqhcg","pricing_plan_id":"free"},{"bike_id":"2b87fdbf-f5bd-4121-a834-8f5c9bf88e9d","system_id":"levelo_inurba_marseille","lat":43.271388,"lon":5.409269,"is_reserved":false,"is_disabled":false,"rental_uris":{"android":"levelo://app?vid=2b87fdbf-f5bd-4121-a834-8f5c9bf88e9d","ios":"levelo://app?vid=2b87fdbf-f5bd-4121-a834-8f5c9bf88e9d"},"vehicle_type_id":"4","last_reported":1701461247,"current_range_meters":12000,"station_id":"ce4bhl12rcd13ifvqgf0","pricing_plan_id":"free"},{"bike_id":"64ac9a22-2cf9-4141-a288-3e6209d010e8","system_id":"levelo_inurba_marseille","lat":43.271368,"lon":5.40928,"is_reserved":false,"is_disabled":false,"rental_uris":{"android":"levelo://app?vid=64ac9a22-2cf9-4141-a288-3e6209d010e8","ios":"levelo://app?vid=64ac9a22-2cf9-4141-a288-3e6209d010e8"},"vehicle_type_id":"4","last_reported":1701461247,"current_range_meters":31200,"station_id":"ce4bhl12rcd13ifvqgf0","pricing_plan_id":"free"},{"bike_id":"6d5827bb-e379-4067-bb3f-6136611daee9","system_id":"levelo_inurba_marseille","lat":43.298768,"lon":5.43643,"is_reserved":false,"is_disabled":false,"rental_uris":{"android":"levelo://app?vid=6d5827bb-e379-4067-bb3f-6136611daee9","ios":"levelo://app?vid=6d5827bb-e379-4067-bb3f-6136611daee9"},"vehicle_type_id":"4","last_reported":1701461247,"current_range_meters":31200,"station_id":"ce4bhpp2rcd13ifvqhfg","pricing_plan_id":"free"},{"bike_id":"d3df04f1-aa36-401c-b9f0-16ea3bba87de","system_id":"levelo_inurba_marseille","lat":43.28152,"lon":5.42644,"is_reserved":false,"is_disabled":false,"rental_uris":{"android":"levelo://app?vid=d3df04f1-aa36-401c-b9f0-16ea3bba87de","ios":"levelo://app?vid=d3df04f1-aa36-401c-b9f0-16ea3bba87de"},"vehicle_type_id":"4","last_reported":1701461247,"current_range_meters":16400,"station_id":"ce4bhnh2rcd13ifvqgug","pricing_plan_id":"free"},{"bike_id":"a265f57d-2203-4406-8278-bc194922c399","system_id":"levelo_inurba_marseille","lat":43.28151,"lon":5.42644,"is_reserved":false,"is_disabled":false,"rental_uris":{"android":"levelo://app?vid=a265f57d-2203-4406-8278-bc194922c399","ios":"levelo://app?vid=a265f57d-2203-4406-8278-bc194922c399"},"vehicle_type_id":"4","last_reported":1701461247,"current_range_meters":30000,"station_id":"ce4bhnh2rcd13ifvqgug","pricing_plan_id":"free"},{"bike_id":"3de40b48-7293-4590-b1e4-a9c54e991d0a","system_id":"levelo_inurba_marseille","lat":43.2815,"lon":5.42644,"is_reserved":false,"is_disabled":false,"rental_uris":{"android":"levelo://app?vid=3de40b48-7293-4590-b1e4-a9c54e991d0a","ios":"levelo://app?vid=3de40b48-7293-4590-b1e4-a9c54e991d0a"},"vehicle_type_id":"4","last_reported":1701461247,"current_range_meters":18400,"station_id":"ce4bhnh2rcd13ifvqgug","pricing_plan_id":"free"},{"bike_id":"b802834e-51f4-41a4-96cb-c31681473515","system_id":"levelo_inurba_marseille","lat":43.281544,"lon":5.426508,"is_reserved":false,"is_disabled":false,"rental_uris":{"android":"levelo://app?vid=b802834e-51f4-41a4-96cb-c31681473515","ios":"levelo://app?vid=b802834e-51f4-41a4-96cb-c31681473515"},"vehicle_type_id":"4","last_reported":1701461247,"current_range_meters":31200,"station_id":"ce4bhnh2rcd13ifvqgug","pricing_plan_id":"free"},{"bike_id":"3532a786-7312-4db1-88be-2e5e8a274941","system_id":"levelo_inurba_marseille","lat":43.28156,"lon":5.42655,"is_reserved":false,"is_disabled":false,"rental_uris":{"android":"levelo://app?vid=3532a786-7312-4db1-88be-2e5e8a274941","ios":"levelo://app?vid=3532a786-7312-4db1-88be-2e5e8a274941"},"vehicle_type_id":"4","last_reported":1701461247,"current_range_meters":26800,"station_id":"ce4bhnh2rcd13ifvqgug","pricing_plan_id":"free"},{"bike_id":"8260938c-99a0-41e0-9eca-ebe62e09f8e6","system_id":"levelo_inurba_marseille","lat":43.259009,"lon":5.40929,"is_reserved":false,"is_disabled":false,"rental_uris":{"android":"levelo://app?vid=8260938c-99a0-41e0-9eca-ebe62e09f8e6","ios":"levelo://app?vid=8260938c-99a0-41e0-9eca-ebe62e09f8e6"},"vehicle_type_id":"4","last_reported":1701461247,"current_range_meters":22400,"station_id":"ce4bhm92rcd13ifvqglg","pricing_plan_id":"free"},{"bike_id":"08b64681-f98c-4572-9311-c069d61e9dd0","system_id":"levelo_inurba_marseille","lat":43.275028,"lon":5.424534,"is_reserved":false,"is_disabled":false,"rental_uris":{"android":"levelo://app?vid=08b64681-f98c-4572-9311-c069d61e9dd0","ios":"levelo://app?vid=08b64681-f98c-4572-9311-c069d61e9dd0"},"vehicle_type_id":"4","last_reported":1701461247,"current_range_meters":25200,"station_id":"ce4bhn92rcd13ifvqgrg","pricing_plan_id":"free"},{"bike_id":"1ee39fb4-b865-44cf-8520-8eabf78fc881","system_id":"levelo_inurba_marseille","lat":43.255868,"lon":5.382215,"is_reserved":false,"is_disabled":false,"rental_uris":{"android":"levelo://app?vid=1ee39fb4-b865-44cf-8520-8eabf78fc881","ios":"levelo://app?vid=1ee39fb4-b865-44cf-8520-8eabf78fc881"},"vehicle_type_id":"4","last_reported":1701461247,"current_range_meters":20400,"station_id":"ce4bhih2rcd13ifvqfs0","pricing_plan_id":"free"},{"bike_id":"6b55de0b-bf22-4d3b-bb7b-9bfacee3cb65","system_id":"levelo_inurba_marseille","lat":43.270721,"lon":5.422764,"is_reserved":false,"is_disabled":false,"rental_uris":{"android":"levelo://app?vid=6b55de0b-bf22-4d3b-bb7b-9bfacee3cb65","ios":"levelo://app?vid=6b55de0b-bf22-4d3b-bb7b-9bfacee3cb65"},"vehicle_type_id":"4","last_reported":1701461247,"current_range_meters":13600,"station_id":"ce4bhk92rcd13ifvqgb0","pricing_plan_id":"free"},{"bike_id":"5b0369f5-05ce-40c3-8ddb-77f04ee5dfdd","system_id":"levelo_inurba_marseille","lat":43.258658,"lon":5.398935,"is_reserved":false,"is_disabled":false,"rental_uris":{"android":"levelo://app?vid=5b0369f5-05ce-40c3-8ddb-77f04ee5dfdd","ios":"levelo://app?vid=5b0369f5-05ce-40c3-8ddb-77f04ee5dfdd"},"vehicle_type_id":"4","last_reported":1701461247,"current_range_meters":21200,"station_id":"ce4bhl92rcd13ifvqghg","pricing_plan_id":"free"},{"bike_id":"638c450d-fe2b-47af-8d81-6c99b98f170c","system_id":"levelo_inurba_marseille","lat":43.258658,"lon":5.398935,"is_reserved":false,"is_disabled":false,"rental_uris":{"android":"levelo://app?vid=638c450d-fe2b-47af-8d81-6c99b98f170c","ios":"levelo://app?vid=638c450d-fe2b-47af-8d81-6c99b98f170c"},"vehicle_type_id":"4","last_reported":1701461247,"current_range_meters":400,"station_id":"ce4bhl92rcd13ifvqghg","pricing_plan_id":"free"},{"bike_id":"729abadc-3418-4366-b69d-e163e2b280af","system_id":"levelo_inurba_marseille","lat":43.25869,"lon":5.39899,"is_reserved":false,"is_disabled":false,"rental_uris":{"android":"levelo://app?vid=729abadc-3418-4366-b69d-e163e2b280af","ios":"levelo://app?vid=729abadc-3418-4366-b69d-e163e2b280af"},"vehicle_type_id":"4","last_reported":1701461247,"current_range_meters":24000,"station_id":"ce4bhl92rcd13ifvqghg","pricing_plan_id":"free"},{"bike_id":"2b2132ba-38ac-4539-8b12-2216245cc958","system_id":"levelo_inurba_marseille","lat":43.250009,"lon":5.389195,"is_reserved":false,"is_disabled":false,"rental_uris":{"android":"levelo://app?vid=2b2132ba-38ac-4539-8b12-2216245cc958","ios":"levelo://app?vid=2b2132ba-38ac-4539-8b12-2216245cc958"},"vehicle_type_id":"4","last_reported":1701461247,"current_range_meters":11200,"station_id":"ce4bhgp2rcd13ifvqfd0","pricing_plan_id":"free"},{"bike_id":"7aa24d96-c95d-4468-a02b-494a7d7dd09e","system_id":"levelo_inurba_marseille","lat":43.250788,"lon":5.395159,"is_reserved":false,"is_disabled":false,"rental_uris":{"android":"levelo://app?vid=7aa24d96-c95d-4468-a02b-494a7d7dd09e","ios":"levelo://app?vid=7aa24d96-c95d-4468-a02b-494a7d7dd09e"},"vehicle_type_id":"4","last_reported":1701461247,"current_range_meters":12800,"station_id":"ce4bhm12rcd13ifvqgkg","pricing_plan_id":"free"},{"bike_id":"7b86737e-88b6-402e-953d-d66f821e4367","system_id":"levelo_inurba_marseille","lat":43.25078,"lon":5.39522,"is_reserved":false,"is_disabled":false,"rental_uris":{"android":"levelo://app?vid=7b86737e-88b6-402e-953d-d66f821e4367","ios":"levelo://app?vid=7b86737e-88b6-402e-953d-d66f821e4367"},"vehicle_type_id":"4","last_reported":1701461247,"current_range_meters":31200,"station_id":"ce4bhm12rcd13ifvqgkg","pricing_plan_id":"free"},{"bike_id":"dc806c7b-b393-4b62-adfa-58492f62e060","system_id":"levelo_inurba_marseille","lat":43.25102,"lon":5.403214,"is_reserved":false,"is_disabled":false,"rental_uris":{"android":"levelo://app?vid=dc806c7b-b393-4b62-adfa-58492f62e060","ios":"levelo://app?vid=dc806c7b-b393-4b62-adfa-58492f62e060"},"vehicle_type_id":"4","last_reported":1701461247,"current_range_meters":31200,"station_id":"ce4bhlh2rcd13ifvqgig","pricing_plan_id":"free"},{"bike_id":"ab26e3db-b606-424a-8283-725e324be160","system_id":"levelo_inurba_marseille","lat":43.25103,"lon":5.40325,"is_reserved":false,"is_disabled":false,"rental_uris":{"android":"levelo://app?vid=ab26e3db-b606-424a-8283-725e324be160","ios":"levelo://app?vid=ab26e3db-b606-424a-8283-725e324be160"},"vehicle_type_id":"4","last_reported":1701461247,"current_range_meters":20400,"station_id":"ce4bhlh2rcd13ifvqgig","pricing_plan_id":"free"},{"bike_id":"8615dbd1-cadd-4e7d-bee4-bf0527cf620d","system_id":"levelo_inurba_marseille","lat":43.246461,"lon":5.389014,"is_reserved":false,"is_disabled":false,"rental_uris":{"android":"levelo://app?vid=8615dbd1-cadd-4e7d-bee4-bf0527cf620d","ios":"levelo://app?vid=8615dbd1-cadd-4e7d-bee4-bf0527cf620d"},"vehicle_type_id":"4","last_reported":1701461247,"current_range_meters":22800,"station_id":"ce4bhg12rcd13ifvqf60","pricing_plan_id":"free"},{"bike_id":"e7aad632-367b-4496-9cef-bcfeaf0ec9a0","system_id":"levelo_inurba_marseille","lat":43.246461,"lon":5.389014,"is_reserved":false,"is_disabled":false,"rental_uris":{"android":"levelo://app?vid=e7aad632-367b-4496-9cef-bcfeaf0ec9a0","ios":"levelo://app?vid=e7aad632-367b-4496-9cef-bcfeaf0ec9a0"},"vehicle_type_id":"4","last_reported":1701461247,"current_range_meters":30800,"station_id":"ce4bhg12rcd13ifvqf60","pricing_plan_id":"free"},{"bike_id":"32bbdb1e-977b-47d6-99fc-61a4811802d7","system_id":"levelo_inurba_marseille","lat":43.243884,"lon":5.370737,"is_reserved":false,"is_disabled":false,"rental_uris":{"android":"levelo://app?vid=32bbdb1e-977b-47d6-99fc-61a4811802d7","ios":"levelo://app?vid=32bbdb1e-977b-47d6-99fc-61a4811802d7"},"vehicle_type_id":"4","last_reported":1701461247,"current_range_meters":20400,"station_id":"ce4bhhh2rcd13ifvqfk0","pricing_plan_id":"free"},{"bike_id":"3cecf076-6f72-4dc3-9539-81b4e6b7ee6a","system_id":"levelo_inurba_marseille","lat":43.243884,"lon":5.370736,"is_reserved":false,"is_disabled":false,"rental_uris":{"android":"levelo://app?vid=3cecf076-6f72-4dc3-9539-81b4e6b7ee6a","ios":"levelo://app?vid=3cecf076-6f72-4dc3-9539-81b4e6b7ee6a"},"vehicle_type_id":"4","last_reported":1701461247,"current_range_meters":18400,"station_id":"ce4bhhh2rcd13ifvqfk0","pricing_plan_id":"free"},{"bike_id":"41a0ba48-f911-45e8-8910-5a34922b0d4c","system_id":"levelo_inurba_marseille","lat":43.243884,"lon":5.370737,"is_reserved":false,"is_disabled":false,"rental_uris":{"android":"levelo://app?vid=41a0ba48-f911-45e8-8910-5a34922b0d4c","ios":"levelo://app?vid=41a0ba48-f911-45e8-8910-5a34922b0d4c"},"vehicle_type_id":"4","last_reported":1701461247,"current_range_meters":26800,"station_id":"ce4bhhh2rcd13ifvqfk0","pricing_plan_id":"free"},{"bike_id":"f818bf21-118e-429b-bc85-4d7039994aa7","system_id":"levelo_inurba_marseille","lat":43.243884,"lon":5.370737,"is_reserved":false,"is_disabled":false,"rental_uris":{"android":"levelo://app?vid=f818bf21-118e-429b-bc85-4d7039994aa7","ios":"levelo://app?vid=f818bf21-118e-429b-bc85-4d7039994aa7"},"vehicle_type_id":"4","last_reported":1701461247,"current_range_meters":13200,"station_id":"ce4bhhh2rcd13ifvqfk0","pricing_plan_id":"free"},{"bike_id":"311269c7-73e5-44dd-9e19-cf1037a422fa","system_id":"levelo_inurba_marseille","lat":43.243884,"lon":5.370736,"is_reserved":false,"is_disabled":false,"rental_uris":{"android":"levelo://app?vid=311269c7-73e5-44dd-9e19-cf1037a422fa","ios":"levelo://app?vid=311269c7-73e5-44dd-9e19-cf1037a422fa"},"vehicle_type_id":"4","last_reported":1701461247,"current_range_meters":31200,"station_id":"ce4bhhh2rcd13ifvqfk0","pricing_plan_id":"free"},{"bike_id":"8a6d21ee-8178-4f32-b8d1-754b3c0d95f1","system_id":"levelo_inurba_marseille","lat":43.245581,"lon":5.395069,"is_reserved":false,"is_disabled":false,"rental_uris":{"android":"levelo://app?vid=8a6d21ee-8178-4f32-b8d1-754b3c0d95f1","ios":"levelo://app?vid=8a6d21ee-8178-4f32-b8d1-754b3c0d95f1"},"vehicle_type_id":"4","last_reported":1701461247,"current_range_meters":31200,"station_id":"ce4bhlp2rcd13ifvqgjg","pricing_plan_id":"free"},{"bike_id":"2a1f8f75-f29e-422e-a076-97f855d3f109","system_id":"levelo_inurba_marseille","lat":43.24074,"lon":5.37756,"is_reserved":false,"is_disabled":false,"rental_uris":{"android":"levelo://app?vid=2a1f8f75-f29e-422e-a076-97f855d3f109","ios":"levelo://app?vid=2a1f8f75-f29e-422e-a076-97f855d3f109"},"vehicle_type_id":"4","last_reported":1701461247,"current_range_meters":0,"station_id":"ce4bhnp2rcd13ifvqgvg","pricing_plan_id":"free"},{"bike_id":"c320971b-307b-46ea-a8df-b9a289f62a9e","system_id":"levelo_inurba_marseille","lat":43.239588,"lon":5.366238,"is_reserved":false,"is_disabled":false,"rental_uris":{"android":"levelo://app?vid=c320971b-307b-46ea-a8df-b9a289f62a9e","ios":"levelo://app?vid=c320971b-307b-46ea-a8df-b9a289f62a9e"},"vehicle_type_id":"4","last_reported":1701461247,"current_range_meters":18000,"station_id":"ce4bhi12rcd13ifvqfp0","pricing_plan_id":"free"},{"bike_id":"cd2806e3-7a91-44f5-9e97-e41c2a460e29","system_id":"levelo_inurba_marseille","lat":43.241782,"lon":5.397264,"is_reserved":false,"is_disabled":false,"rental_uris":{"android":"levelo://app?vid=cd2806e3-7a91-44f5-9e97-e41c2a460e29","ios":"levelo://app?vid=cd2806e3-7a91-44f5-9e97-e41c2a460e29"},"vehicle_type_id":"4","last_reported":1701461247,"current_range_meters":2000,"station_id":"ce4bhn12rcd13ifvqgpg","pricing_plan_id":"free"},{"bike_id":"86294a0d-8f1d-4865-beb1-fcf61ca9bd07","system_id":"levelo_inurba_marseille","lat":43.241782,"lon":5.397264,"is_reserved":false,"is_disabled":false,"rental_uris":{"android":"levelo://app?vid=86294a0d-8f1d-4865-beb1-fcf61ca9bd07","ios":"levelo://app?vid=86294a0d-8f1d-4865-beb1-fcf61ca9bd07"},"vehicle_type_id":"4","last_reported":1701461247,"current_range_meters":28400,"station_id":"ce4bhn12rcd13ifvqgpg","pricing_plan_id":"free"},{"bike_id":"cf3102c4-88e0-4a41-86b7-69a76932d3e6","system_id":"levelo_inurba_marseille","lat":43.231923,"lon":5.355545,"is_reserved":false,"is_disabled":false,"rental_uris":{"android":"levelo://app?vid=cf3102c4-88e0-4a41-86b7-69a76932d3e6","ios":"levelo://app?vid=cf3102c4-88e0-4a41-86b7-69a76932d3e6"},"vehicle_type_id":"4","last_reported":1701461247,"current_range_meters":31200,"station_id":"ce4bhu92rcd13ifvqi70","pricing_plan_id":"free"},{"bike_id":"6462fbc5-ceb8-47e3-b56d-fc1e69bef19f","system_id":"levelo_inurba_marseille","lat":43.231919,"lon":5.355532,"is_reserved":false,"is_disabled":false,"rental_uris":{"android":"levelo://app?vid=6462fbc5-ceb8-47e3-b56d-fc1e69bef19f","ios":"levelo://app?vid=6462fbc5-ceb8-47e3-b56d-fc1e69bef19f"},"vehicle_type_id":"4","last_reported":1701461247,"current_range_meters":31200,"station_id":"ce4bhu92rcd13ifvqi70","pricing_plan_id":"free"},{"bike_id":"6382809b-45d0-4ad2-8be7-697249f82077","system_id":"levelo_inurba_marseille","lat":43.231919,"lon":5.355532,"is_reserved":false,"is_disabled":false,"rental_uris":{"android":"levelo://app?vid=6382809b-45d0-4ad2-8be7-697249f82077","ios":"levelo://app?vid=6382809b-45d0-4ad2-8be7-697249f82077"},"vehicle_type_id":"4","last_reported":1701461247,"current_range_meters":31200,"station_id":"ce4bhu92rcd13ifvqi70","pricing_plan_id":"free"},{"bike_id":"d919cd84-7675-4a37-b94c-3ba2519b645c","system_id":"levelo_inurba_marseille","lat":43.231919,"lon":5.355532,"is_reserved":false,"is_disabled":false,"rental_uris":{"android":"levelo://app?vid=d919cd84-7675-4a37-b94c-3ba2519b645c","ios":"levelo://app?vid=d919cd84-7675-4a37-b94c-3ba2519b645c"},"vehicle_type_id":"4","last_reported":1701461247,"current_range_meters":27600,"station_id":"ce4bhu92rcd13ifvqi70","pricing_plan_id":"free"},{"bike_id":"9dc97c96-8e15-4d34-bc42-2b10dd83e9f4","system_id":"levelo_inurba_marseille","lat":43.231932,"lon":5.355559,"is_reserved":false,"is_disabled":false,"rental_uris":{"android":"levelo://app?vid=9dc97c96-8e15-4d34-bc42-2b10dd83e9f4","ios":"levelo://app?vid=9dc97c96-8e15-4d34-bc42-2b10dd83e9f4"},"vehicle_type_id":"4","last_reported":1701461247,"current_range_meters":22400,"station_id":"","pricing_plan_id":"free"},{"bike_id":"1eeab9a5-d341-4bc8-8d21-ee151ff9d9b2","system_id":"levelo_inurba_marseille","lat":43.231924,"lon":5.399944,"is_reserved":false,"is_disabled":false,"rental_uris":{"android":"levelo://app?vid=1eeab9a5-d341-4bc8-8d21-ee151ff9d9b2","ios":"levelo://app?vid=1eeab9a5-d341-4bc8-8d21-ee151ff9d9b2"},"vehicle_type_id":"4","last_reported":1701461247,"current_range_meters":21200,"station_id":"ce4bhn12rcd13ifvqgqg","pricing_plan_id":"free"},{"bike_id":"d000766e-0cd3-41c9-b7fb-980286eca45c","system_id":"levelo_inurba_marseille","lat":43.231793,"lon":5.400044,"is_reserved":false,"is_disabled":false,"rental_uris":{"android":"levelo://app?vid=d000766e-0cd3-41c9-b7fb-980286eca45c","ios":"levelo://app?vid=d000766e-0cd3-41c9-b7fb-980286eca45c"},"vehicle_type_id":"4","last_reported":1701461247,"current_range_meters":26400,"station_id":"ce4bhn12rcd13ifvqgqg","pricing_plan_id":"free"},{"bike_id":"22bd98e3-c33f-4c44-ae2b-f96729d36f4f","system_id":"levelo_inurba_marseille","lat":43.23187,"lon":5.39995,"is_reserved":false,"is_disabled":false,"rental_uris":{"android":"levelo://app?vid=22bd98e3-c33f-4c44-ae2b-f96729d36f4f","ios":"levelo://app?vid=22bd98e3-c33f-4c44-ae2b-f96729d36f4f"},"vehicle_type_id":"4","last_reported":1701461247,"current_range_meters":31200,"station_id":"ce4bhn12rcd13ifvqgqg","pricing_plan_id":"free"},{"bike_id":"179bc0fb-370c-4234-b30f-9121ae3c4192","system_id":"levelo_inurba_marseille","lat":43.231794,"lon":5.400052,"is_reserved":false,"is_disabled":false,"rental_uris":{"android":"levelo://app?vid=179bc0fb-370c-4234-b30f-9121ae3c4192","ios":"levelo://app?vid=179bc0fb-370c-4234-b30f-9121ae3c4192"},"vehicle_type_id":"4","last_reported":1701461247,"current_range_meters":30800,"station_id":"ce4bhn12rcd13ifvqgqg","pricing_plan_id":"free"},{"bike_id":"c1c188af-0df9-4dda-bb7c-f0d571578d31","system_id":"levelo_inurba_marseille","lat":43.231794,"lon":5.400052,"is_reserved":false,"is_disabled":false,"rental_uris":{"android":"levelo://app?vid=c1c188af-0df9-4dda-bb7c-f0d571578d31","ios":"levelo://app?vid=c1c188af-0df9-4dda-bb7c-f0d571578d31"},"vehicle_type_id":"4","last_reported":1701461247,"current_range_meters":28400,"station_id":"ce4bhn12rcd13ifvqgqg","pricing_plan_id":"free"},{"bike_id":"d0b35396-6769-42d4-8160-8b44cb829902","system_id":"levelo_inurba_marseille","lat":43.231793,"lon":5.400044,"is_reserved":false,"is_disabled":false,"rental_uris":{"android":"levelo://app?vid=d0b35396-6769-42d4-8160-8b44cb829902","ios":"levelo://app?vid=d0b35396-6769-42d4-8160-8b44cb829902"},"vehicle_type_id":"4","last_reported":1701461247,"current_range_meters":31600,"station_id":"ce4bhn12rcd13ifvqgqg","pricing_plan_id":"free"},{"bike_id":"457c552c-8af5-4b7b-9f6b-8c901265a623","system_id":"levelo_inurba_marseille","lat":43.231793,"lon":5.400044,"is_reserved":false,"is_disabled":false,"rental_uris":{"android":"levelo://app?vid=457c552c-8af5-4b7b-9f6b-8c901265a623","ios":"levelo://app?vid=457c552c-8af5-4b7b-9f6b-8c901265a623"},"vehicle_type_id":"4","last_reported":1701461247,"current_range_meters":29200,"station_id":"ce4bhn12rcd13ifvqgqg","pricing_plan_id":"free"},{"bike_id":"bfb1ccb5-dfa1-425d-901e-02799fedd445","system_id":"levelo_inurba_marseille","lat":43.231797,"lon":5.399977,"is_reserved":false,"is_disabled":false,"rental_uris":{"android":"levelo://app?vid=bfb1ccb5-dfa1-425d-901e-02799fedd445","ios":"levelo://app?vid=bfb1ccb5-dfa1-425d-901e-02799fedd445"},"vehicle_type_id":"4","last_reported":1701461247,"current_range_meters":13200,"station_id":"ce4bhn12rcd13ifvqgqg","pricing_plan_id":"free"}]}}