{"last_updated":1746565760,"ttl":60,"version":"2.2","data":{"bikes":[{"bike_id":"6f79836f-d619-469a-96b7-0d2eef2efa07","system_id":"levelo_inurba_marseille","lat":43.29078,"lon":5.3717,"is_reserved":false,"is_disabled":false,"rental_uris":{"android":"levelo://app?vid=6f79836f-d619-469a-96b7-0d2eef2efa07","ios":"levelo://app?vid=6f79836f-d619-469a-96b7-0d2eef2efa07"},"vehicle_type_id":"4","last_reported":1746565761,"current_range_meters":2800,"station_id":"ce4bh5p2rcd13ifvqe4g","pricing_plan_id":"cebpf4jnsgd1na2vs0mg"},{"bike_id":"57080614-ae11-44bc-86e2-e8daf805b60b","system_id":"levelo_inurba_marseille","lat":43.28624,"lon":5.35097,"is_reserved":false,"is_disabled":true,"rental_uris":{"android":"levelo://app?vid=57080614-ae11-44bc-86e2-e8daf805b60b","ios":"levelo://app?vid=57080614-ae11-44bc-86e2-e8daf805b60b"},"vehicle_type_id":"4","last_reported":1746565761,"current_range_meters":2800,"station_id":"ce4bhch2rcd13ifvqeug","pricing_plan_id":"cebpf4jnsgd1na2vs0mg"},{"bike_id":"482344f1-460c-48ea-83dd-01b9a385e5cf","system_id":"levelo_inurba_marseille","lat":43.30675,"lon":5.36867,"is_reserved":false,"is_disabled":false,"rental_uris":{"android":"levelo://app?vid=482344f1-460c-48ea-83dd-01b9a385e5cf","ios":"levelo://app?vid=482344f1-460c-48ea-83dd-01b9a385e5cf"},"vehicle_type_id":"4","last_reported":1746565761,"current_range_meters":3200,"station_id":"","pricing_plan_id":"cebpf4jnsgd1na2vs0mg"},{"bike_id":"7922a503-fdff-44a5-b624-95e6d0214995","system_id":"levelo_inurba_marseille","lat":43.23962,"lon":5.36639,"is_reserved":false,"is_disabled":false,"rental_uris":{"android":"levelo://app?vid=7922a503-fdff-44a5-b624-95e6d0214995","ios":"levelo://app?vid=7922a503-fdff-44a5-b624-95e6d0214995"},"vehicle_type_id":"4","last_reported":1746565761,"current_range_meters":3200,"station_id":"ce4bhi12rcd13ifvqfp0","pricing_plan_id":"cebpf4jnsgd1na2vs0mg"},{"bike_id":"df6054af-c6a6-4441-b7c3-517b65379c98","system_id":"levelo_inurba_marseille","lat":43.28859,"lon":5.35849,"is_reserved":false,"is_disabled":false,"rental_uris":{"android":"levelo://app?vid=df6054af-c6a6-4441-b7c3-517b65379c98","ios":"levelo://app?vid=df6054af-c6a6-4441-b7c3-517b65379c98"},"vehicle_type_id":"4","last_reported":1746565761,"current_range_meters":3200,"station_id":"ce4bhb12rcd13ifvqem0","pricing_plan_id":"cebpf4jnsgd1na2vs0mg"},{"bike_id":"8e843937-a69b-4d38-8b0f-e697e97e9cae","system_id":"levelo_inurba_marseille","lat":43.28404,"lon":5.37523,"is_reserved":false,"is_disabled":false,"rental_uris":{"android":"levelo://app?vid=8e843937-a69b-4d38-8b0f-e697e97e9cae","ios":"levelo://app?vid=8e843937-a69b-4d38-8b0f-e697e97e9cae"},"vehicle_type_id":"4","last_reported":1746565761,"current_range_meters":3200,"station_id":"ce4bh412rcd13ifvqds0","pricing_plan_id":"cebpf4jnsgd1na2vs0mg"},{"bike_id":"a15cb11a-2f57-495d-a3b2-26c6be06970d","system_id":"levelo_inurba_marseille","lat":43.29527,"lon":5.39041,"is_reserved":false,"is_disabled":false,"rental_uris":{"android":"levelo://app?vid=a15cb11a-2f57-495d-a3b2-26c6be06970d","ios":"levelo://app?vid=a15cb11a-2f57-495d-a3b2-26c6be06970d"},"vehicle_type_id":"4","last_reported":1746565761,"current_range_meters":3200,"station_id":"ce4bh3p2rcd13ifvqdp0","pricing_plan_id":"cebpf4jnsgd1na2vs0mg"},{"bike_id":"46ca4198-4f53-41bb-96d4-f7d938ef9908","system_id":"levelo_inurba_marseille","lat":43.29798,"lon":5.40401,"is_reserved":false,"is_disabled":false,"rental_uris":{"android":"levelo://app?vid=46ca4198-4f53-41bb-96d4-f7d938ef9908","ios":"levelo://app?vid=46ca4198-4f53-41bb-96d4-f7d938ef9908"},"vehicle_type_id":"4","last_reported":1746565761,"current_range_meters":3200,"station_id":"ce4bh112rcd13ifvqd90","pricing_plan_id":"cebpf4jnsgd1na2vs0mg"},{"bike_id":"c01da6e5-a67b-43da-9bf4-9c34b9326ad0","system_id":"levelo_inurba_marseille","lat":43.29269,"lon":5.36832,"is_reserved":false,"is_disabled":true,"rental_uris":{"android":"levelo://app?vid=c01da6e5-a67b-43da-9bf4-9c34b9326ad0","ios":"levelo://app?vid=c01da6e5-a67b-43da-9bf4-9c34b9326ad0"},"vehicle_type_id":"4","last_reported":1746565761,"current_range_meters":3600,"station_id":"ce4bhbp2rcd13ifvqesg","pricing_plan_id":"cebpf4jnsgd1na2vs0mg"},{"bike_id":"07279b5f-51d6-4d72-8baa-03cbedf122cb","system_id":"levelo_inurba_marseille","lat":43.23138,"lon":5.43723,"is_reserved":false,"is_disabled":false,"rental_uris":{"android":"levelo://app?vid=07279b5f-51d6-4d72-8baa-03cbedf122cb","ios":"levelo://app?vid=07279b5f-51d6-4d72-8baa-03cbedf122cb"},"vehicle_type_id":"4","last_reported":1746565761,"current_range_meters":3600,"station_id":"ce4bhmp2rcd13ifvqgog","pricing_plan_id":"cebpf4jnsgd1na2vs0mg"},{"bike_id":"bbf5b4c6-e101-48e8-99db-2b186a71a096","system_id":"levelo_inurba_marseille","lat":43.28707,"lon":5.37384,"is_reserved":false,"is_disabled":false,"rental_uris":{"android":"levelo://app?vid=bbf5b4c6-e101-48e8-99db-2b186a71a096","ios":"levelo://app?vid=bbf5b4c6-e101-48e8-99db-2b186a71a096"},"vehicle_type_id":"4","last_reported":1746565761,"current_range_meters":4000,"station_id":"ce4bh3p2rcd13ifvqdq0","pricing_plan_id":"cebpf4jnsgd1na2vs0mg"},{"bike_id":"b11db490-2254-4d6b-9859-32622ecf85c0","system_id":"levelo_inurba_marseille","lat":43.28346,"lon":5.38096,"is_reserved":false,"is_disabled":false,"rental_uris":{"android":"levelo://app?vid=b11db490-2254-4d6b-9859-32622ecf85c0","ios":"levelo://app?vid=b11db490-2254-4d6b-9859-32622ecf85c0"},"vehicle_type_id":"4","last_reported":1746565761,"current_range_meters":4000,"station_id":"ce4bh412rcd13ifvqdr0","pricing_plan_id":"cebpf4jnsgd1na2vs0mg"},{"bike_id":"81074030-7cfd-4f12-851b-556c137e0c8a","system_id":"levelo_inurba_marseille","lat":43.25587,"lon":5.38228,"is_reserved":false,"is_disabled":false,"rental_uris":{"android":"levelo://app?vid=81074030-7cfd-4f12-851b-556c137e0c8a","ios":"levelo://app?vid=81074030-7cfd-4f12-851b-556c137e0c8a"},"vehicle_type_id":"4","last_reported":1746565761,"current_range_meters":4000,"station_id":"ce4bhih2rcd13ifvqfs0","pricing_plan_id":"cebpf4jnsgd1na2vs0mg"},{"bike_id":"9afdaa32-5437-40bb-b5dc-0e42f55a33ee","system_id":"levelo_inurba_marseille","lat":43.25383,"lon":5.41868,"is_reserved":false,"is_disabled":false,"rental_uris":{"android":"levelo://app?vid=9afdaa32-5437-40bb-b5dc-0e42f55a33ee","ios":"levelo://app?vid=9afdaa32-5437-40bb-b5dc-0e42f55a33ee"},"vehicle_type_id":"4","last_reported":1746565761,"current_range_meters":4400,"station_id":"","pricing_plan_id":"cebpf4jnsgd1na2vs0mg"},{"bike_id":"3b6d0d5a-ef6d-4dae-ab94-89e2c820cc2f","system_id":"levelo_inurba_marseille","lat":43.28485,"lon":5.38528,"is_reserved":false,"is_disabled":true,"rental_uris":{"android":"levelo://app?vid=3b6d0d5a-ef6d-4dae-ab94-89e2c820cc2f","ios":"levelo://app?vid=3b6d0d5a-ef6d-4dae-ab94-89e2c820cc2f"},"vehicle_type_id":"4","last_reported":1746565761,"current_range_meters":4400,"station_id":"ce4bh8p2rcd13ifvqeb0","pricing_plan_id":"cebpf4jnsgd1na2vs0mg"},{"bike_id":"416f578b-a76d-4698-b5ca-69135ef4b579","system_id":"levelo_inurba_marseille","lat":43.24166,"lon":5.36391,"is_reserved":false,"is_disabled":false,"rental_uris":{"android":"levelo://app?vid=416f578b-a76d-4698-b5ca-69135ef4b579","ios":"levelo://app?vid=416f578b-a76d-4698-b5ca-69135ef4b579"},"vehicle_type_id":"4","last_reported":1746565761,"current_range_meters":4800,"station_id":"cpo36qri1sfpv3e86is0","pricing_plan_id":"cebpf4jnsgd1na2vs0mg"},{"bike_id":"b4fb5917-65cd-4586-99be-5ddc06be1cf6","system_id":"levelo_inurba_marseille","lat":43.308011,"lon":5.435256,"is_reserved":false,"is_disabled":false,"rental_uris":{"android":"levelo://app?vid=b4fb5917-65cd-4586-99be-5ddc06be1cf6","ios":"levelo://app?vid=b4fb5917-65cd-4586-99be-5ddc06be1cf6"},"vehicle_type_id":"4","last_reported":1746565761,"current_range_meters":5600,"station_id":"ce4bhph2rcd13ifvqheg","pricing_plan_id":"cebpf4jnsgd1na2vs0mg"},{"bike_id":"83cc1842-773c-46bc-8be1-caa63d83c3c2","system_id":"levelo_inurba_marseille","lat":43.25917,"lon":5.39556,"is_reserved":false,"is_disabled":false,"rental_uris":{"android":"levelo://app?vid=83cc1842-773c-46bc-8be1-caa63d83c3c2","ios":"levelo://app?vid=83cc1842-773c-46bc-8be1-caa63d83c3c2"},"vehicle_type_id":"4","last_reported":1746565761,"current_range_meters":5600,"station_id":"","pricing_plan_id":"cebpf4jnsgd1na2vs0mg"},{"bike_id":"29135c7c-c157-43cd-9a2d-1210fb043fe6","system_id":"levelo_inurba_marseille","lat":43.24805,"lon":5.37453,"is_reserved":false,"is_disabled":false,"rental_uris":{"android":"levelo://app?vid=29135c7c-c157-43cd-9a2d-1210fb043fe6","ios":"levelo://app?vid=29135c7c-c157-43cd-9a2d-1210fb043fe6"},"vehicle_type_id":"4","last_reported":1746565761,"current_range_meters":5600,"station_id":"ce4bhgh2rcd13ifvqfb0","pricing_plan_id":"cebpf4jnsgd1na2vs0mg"},{"bike_id":"da4db7c8-9628-41c4-85a1-6b1345b283ed","system_id":"levelo_inurba_marseille","lat":43.30868,"lon":5.39606,"is_reserved":false,"is_disabled":false,"rental_uris":{"android":"levelo://app?vid=da4db7c8-9628-41c4-85a1-6b1345b283ed","ios":"levelo://app?vid=da4db7c8-9628-41c4-85a1-6b1345b283ed"},"vehicle_type_id":"4","last_reported":1746565761,"current_range_meters":6000,"station_id":"","pricing_plan_id":"cebpf4jnsgd1na2vs0mg"},{"bike_id":"a38c2d49-7988-4ef8-83e8-42a2504085da","system_id":"levelo_inurba_marseille","lat":43.24521,"lon":5.41217,"is_reserved":false,"is_disabled":false,"rental_uris":{"android":"levelo://app?vid=a38c2d49-7988-4ef8-83e8-42a2504085da","ios":"levelo://app?vid=a38c2d49-7988-4ef8-83e8-42a2504085da"},"vehicle_type_id":"4","last_reported":1746565761,"current_range_meters":6000,"station_id":"","pricing_plan_id":"cebpf4jnsgd1na2vs0mg"},{"bike_id":"11fd4e8c-4e38-43c7-985c-677a5bb90b16","system_id":"levelo_inurba_marseille","lat":43.28857,"lon":5.35845,"is_reserved":false,"is_disabled":false,"rental_uris":{"android":"levelo://app?vid=11fd4e8c-4e38-43c7-985c-677a5bb90b16","ios":"levelo://app?vid=11fd4e8c-4e38-43c7-985c-677a5bb90b16"},"vehicle_type_id":"4","last_reported":1746565761,"current_range_meters":6000,"station_id":"ce4bhb12rcd13ifvqem0","pricing_plan_id":"cebpf4jnsgd1na2vs0mg"},{"bike_id":"8776f495-6227-49ef-9d8d-b6a3970d5aa3","system_id":"levelo_inurba_marseille","lat":43.2971,"lon":5.36616,"is_reserved":false,"is_disabled":false,"rental_uris":{"android":"levelo://app?vid=8776f495-6227-49ef-9d8d-b6a3970d5aa3","ios":"levelo://app?vid=8776f495-6227-49ef-9d8d-b6a3970d5aa3"},"vehicle_type_id":"4","last_reported":1746565761,"current_range_meters":6000,"station_id":"ce4bgn12rcd13ifvqbt0","pricing_plan_id":"cebpf4jnsgd1na2vs0mg"},{"bike_id":"484f2dde-c737-4875-a80e-8af8034b62f6","system_id":"levelo_inurba_marseille","lat":43.29038,"lon":5.39964,"is_reserved":false,"is_disabled":false,"rental_uris":{"android":"levelo://app?vid=484f2dde-c737-4875-a80e-8af8034b62f6","ios":"levelo://app?vid=484f2dde-c737-4875-a80e-8af8034b62f6"},"vehicle_type_id":"4","last_reported":1746565761,"current_range_meters":6400,"station_id":"ce4bh392rcd13ifvqdm0","pricing_plan_id":"cebpf4jnsgd1na2vs0mg"},{"bike_id":"e7b4a1bf-aaf9-4eb3-8e46-504b56d0163d","system_id":"levelo_inurba_marseille","lat":43.2808,"lon":5.3966,"is_reserved":false,"is_disabled":false,"rental_uris":{"android":"levelo://app?vid=e7b4a1bf-aaf9-4eb3-8e46-504b56d0163d","ios":"levelo://app?vid=e7b4a1bf-aaf9-4eb3-8e46-504b56d0163d"},"vehicle_type_id":"4","last_reported":1746565761,"current_range_meters":6000,"station_id":"ce4bho12rcd13ifvqh2g","pricing_plan_id":"cebpf4jnsgd1na2vs0mg"},{"bike_id":"1d594d9c-17b4-48ef-b68d-5ef71585393a","system_id":"levelo_inurba_marseille","lat":43.29971,"lon":5.38487,"is_reserved":false,"is_disabled":false,"rental_uris":{"android":"levelo://app?vid=1d594d9c-17b4-48ef-b68d-5ef71585393a","ios":"levelo://app?vid=1d594d9c-17b4-48ef-b68d-5ef71585393a"},"vehicle_type_id":"4","last_reported":1746565761,"current_range_meters":6800,"station_id":"ce4bgj92rcd13ifvqbd0","pricing_plan_id":"cebpf4jnsgd1na2vs0mg"},{"bike_id":"fd956ff8-8a52-4a69-a7f8-8a39f53f35f8","system_id":"levelo_inurba_marseille","lat":43.2944,"lon":5.39748,"is_reserved":false,"is_disabled":false,"rental_uris":{"android":"levelo://app?vid=fd956ff8-8a52-4a69-a7f8-8a39f53f35f8","ios":"levelo://app?vid=fd956ff8-8a52-4a69-a7f8-8a39f53f35f8"},"vehicle_type_id":"4","last_reported":1746565761,"current_range_meters":6800,"station_id":"ce4bh3h2rcd13ifvqdo0","pricing_plan_id":"cebpf4jnsgd1na2vs0mg"},{"bike_id":"7b9cae71-2eda-467a-94f7-92ae2ae2ee90","system_id":"levelo_inurba_marseille","lat":43.30146,"lon":5.37422,"is_reserved":false,"is_disabled":false,"rental_uris":{"android":"levelo://app?vid=7b9cae71-2eda-467a-94f7-92ae2ae2ee90","ios":"levelo://app?vid=7b9cae71-2eda-467a-94f7-92ae2ae2ee90"},"vehicle_type_id":"4","last_reported":1746565761,"current_range_meters":6800,"station_id":"ce4bgs92rcd13ifvqcc0","pricing_plan_id":"cebpf4jnsgd1na2vs0mg"},{"bike_id":"4c4575ed-d05c-4b47-9318-3651232ca82e","system_id":"levelo_inurba_marseille","lat":43.30429,"lon":5.39747,"is_reserved":false,"is_disabled":false,"rental_uris":{"android":"levelo://app?vid=4c4575ed-d05c-4b47-9318-3651232ca82e","ios":"levelo://app?vid=4c4575ed-d05c-4b47-9318-3651232ca82e"},"vehicle_type_id":"4","last_reported":1746565761,"current_range_meters":6800,"station_id":"ce4bh092rcd13ifvqd20","pricing_plan_id":"cebpf4jnsgd1na2vs0mg"},{"bike_id":"f58e2bf4-1fef-49a3-99e4-4f5bba038ba7","system_id":"levelo_inurba_marseille","lat":43.29703,"lon":5.36873,"is_reserved":false,"is_disabled":false,"rental_uris":{"android":"levelo://app?vid=f58e2bf4-1fef-49a3-99e4-4f5bba038ba7","ios":"levelo://app?vid=f58e2bf4-1fef-49a3-99e4-4f5bba038ba7"},"vehicle_type_id":"4","last_reported":1746565761,"current_range_meters":6800,"station_id":"","pricing_plan_id":"cebpf4jnsgd1na2vs0mg"},{"bike_id":"9e9814d3-bfed-4449-9d33-d6668052a7d4","system_id":"levelo_inurba_marseille","lat":43.29268,"lon":5.37608,"is_reserved":false,"is_disabled":false,"rental_uris":{"android":"levelo://app?vid=9e9814d3-bfed-4449-9d33-d6668052a7d4","ios":"levelo://app?vid=9e9814d3-bfed-4449-9d33-d6668052a7d4"},"vehicle_type_id":"4","last_reported":1746565761,"current_range_meters":6800,"station_id":"ce4bgi12rcd13ifvqb80","pricing_plan_id":"cebpf4jnsgd1na2vs0mg"},{"bike_id":"709618cb-d407-443d-bbd3-af4ff4c03d0e","system_id":"levelo_inurba_marseille","lat":43.29703,"lon":5.36614,"is_reserved":false,"is_disabled":false,"rental_uris":{"android":"levelo://app?vid=709618cb-d407-443d-bbd3-af4ff4c03d0e","ios":"levelo://app?vid=709618cb-d407-443d-bbd3-af4ff4c03d0e"},"vehicle_type_id":"4","last_reported":1746565761,"current_range_meters":7200,"station_id":"ce4bgn12rcd13ifvqbt0","pricing_plan_id":"cebpf4jnsgd1na2vs0mg"},{"bike_id":"c75fd31f-cb0f-4d3b-a1e2-7d1cddc73f27","system_id":"levelo_inurba_marseille","lat":43.29195,"lon":5.39317,"is_reserved":false,"is_disabled":false,"rental_uris":{"android":"levelo://app?vid=c75fd31f-cb0f-4d3b-a1e2-7d1cddc73f27","ios":"levelo://app?vid=c75fd31f-cb0f-4d3b-a1e2-7d1cddc73f27"},"vehicle_type_id":"4","last_reported":1746565761,"current_range_meters":7200,"station_id":"ce4bh192rcd13ifvqdd0","pricing_plan_id":"cebpf4jnsgd1na2vs0mg"},{"bike_id":"56b911ec-d1c1-4ea7-8f7c-e870a47647ed","system_id":"levelo_inurba_marseille","lat":43.28112,"lon":5.35162,"is_reserved":false,"is_disabled":false,"rental_uris":{"android":"levelo://app?vid=56b911ec-d1c1-4ea7-8f7c-e870a47647ed","ios":"levelo://app?vid=56b911ec-d1c1-4ea7-8f7c-e870a47647ed"},"vehicle_type_id":"4","last_reported":1746565761,"current_range_meters":7200,"station_id":"","pricing_plan_id":"cebpf4jnsgd1na2vs0mg"},{"bike_id":"6e2c21db-0baa-4ede-8c9b-539f044fc0a6","system_id":"levelo_inurba_marseille","lat":43.2808,"lon":5.39658,"is_reserved":false,"is_disabled":false,"rental_uris":{"android":"levelo://app?vid=6e2c21db-0baa-4ede-8c9b-539f044fc0a6","ios":"levelo://app?vid=6e2c21db-0baa-4ede-8c9b-539f044fc0a6"},"vehicle_type_id":"4","last_reported":1746565761,"current_range_meters":7200,"station_id":"ce4bho12rcd13ifvqh2g","pricing_plan_id":"cebpf4jnsgd1na2vs0mg"},{"bike_id":"bc303945-6678-4274-a47d-4c68703574ba","system_id":"levelo_inurba_marseille","lat":43.28071,"lon":5.39641,"is_reserved":false,"is_disabled":false,"rental_uris":{"android":"levelo://app?vid=bc303945-6678-4274-a47d-4c68703574ba","ios":"levelo://app?vid=bc303945-6678-4274-a47d-4c68703574ba"},"vehicle_type_id":"4","last_reported":1746565761,"current_range_meters":7200,"station_id":"ce4bho12rcd13ifvqh2g","pricing_plan_id":"cebpf4jnsgd1na2vs0mg"},{"bike_id":"9d8f73eb-df09-4699-86a7-d631e2319093","system_id":"levelo_inurba_marseille","lat":43.262696,"lon":5.374422,"is_reserved":false,"is_disabled":false,"rental_uris":{"android":"levelo://app?vid=9d8f73eb-df09-4699-86a7-d631e2319093","ios":"levelo://app?vid=9d8f73eb-df09-4699-86a7-d631e2319093"},"vehicle_type_id":"4","last_reported":1746565761,"current_range_meters":8000,"station_id":"","pricing_plan_id":"cebpf4jnsgd1na2vs0mg"},{"bike_id":"aa048b98-548a-4d76-b0b3-979708e484e4","system_id":"levelo_inurba_marseille","lat":43.27567,"lon":5.3842,"is_reserved":false,"is_disabled":false,"rental_uris":{"android":"levelo://app?vid=aa048b98-548a-4d76-b0b3-979708e484e4","ios":"levelo://app?vid=aa048b98-548a-4d76-b0b3-979708e484e4"},"vehicle_type_id":"4","last_reported":1746565761,"current_range_meters":8000,"station_id":"ce4bhh92rcd13ifvqfi0","pricing_plan_id":"cebpf4jnsgd1na2vs0mg"},{"bike_id":"8f843165-7f9e-4e4d-9e42-d76abdb85ae4","system_id":"levelo_inurba_marseille","lat":43.29794,"lon":5.38111,"is_reserved":false,"is_disabled":true,"rental_uris":{"android":"levelo://app?vid=8f843165-7f9e-4e4d-9e42-d76abdb85ae4","ios":"levelo://app?vid=8f843165-7f9e-4e4d-9e42-d76abdb85ae4"},"vehicle_type_id":"4","last_reported":1746565761,"current_range_meters":8400,"station_id":"ce4bgip2rcd13ifvqbb0","pricing_plan_id":"cebpf4jnsgd1na2vs0mg"},{"bike_id":"47956ac4-b384-4e4d-8f86-d31ccfb14679","system_id":"levelo_inurba_marseille","lat":43.26202,"lon":5.37451,"is_reserved":false,"is_disabled":true,"rental_uris":{"android":"levelo://app?vid=47956ac4-b384-4e4d-8f86-d31ccfb14679","ios":"levelo://app?vid=47956ac4-b384-4e4d-8f86-d31ccfb14679"},"vehicle_type_id":"4","last_reported":1746565761,"current_range_meters":8400,"station_id":"ce4bhgp2rcd13ifvqfc0","pricing_plan_id":"cebpf4jnsgd1na2vs0mg"},{"bike_id":"9ea63d8c-fb3e-4d59-a765-19f95486125a","system_id":"levelo_inurba_marseille","lat":43.30806,"lon":5.43515,"is_reserved":false,"is_disabled":false,"rental_uris":{"android":"levelo://app?vid=9ea63d8c-fb3e-4d59-a765-19f95486125a","ios":"levelo://app?vid=9ea63d8c-fb3e-4d59-a765-19f95486125a"},"vehicle_type_id":"4","last_reported":1746565761,"current_range_meters":8400,"station_id":"ce4bhph2rcd13ifvqheg","pricing_plan_id":"cebpf4jnsgd1na2vs0mg"},{"bike_id":"c2fff035-6128-402a-b38b-ebc94261b3d8","system_id":"levelo_inurba_marseille","lat":43.21203,"lon":5.35079,"is_reserved":false,"is_disabled":false,"rental_uris":{"android":"levelo://app?vid=c2fff035-6128-402a-b38b-ebc94261b3d8","ios":"levelo://app?vid=c2fff035-6128-402a-b38b-ebc94261b3d8"},"vehicle_type_id":"4","last_reported":1746565761,"current_range_meters":8400,"station_id":"st_cvj6sg6p6f1abm77japg","pricing_plan_id":"cebpf4jnsgd1na2vs0mg"},{"bike_id":"6e3c6a7f-22fc-4508-b06d-ebb3d18f9191","system_id":"levelo_inurba_marseille","lat":43.30992,"lon":5.41739,"is_reserved":false,"is_disabled":false,"rental_uris":{"android":"levelo://app?vid=6e3c6a7f-22fc-4508-b06d-ebb3d18f9191","ios":"levelo://app?vid=6e3c6a7f-22fc-4508-b06d-ebb3d18f9191"},"vehicle_type_id":"4","last_reported":1746565761,"current_range_meters":8400,"station_id":"","pricing_plan_id":"cebpf4jnsgd1na2vs0mg"},{"bike_id":"0c377d9d-9a3a-47a7-9944-6039314b5e15","system_id":"levelo_inurba_marseille","lat":43.245894,"lon":5.404988,"is_reserved":false,"is_disabled":false,"rental_uris":{"android":"levelo://app?vid=0c377d9d-9a3a-47a7-9944-6039314b5e15","ios":"levelo://app?vid=0c377d9d-9a3a-47a7-9944-6039314b5e15"},"vehicle_type_id":"4","last_reported":1746565761,"current_range_meters":8400,"station_id":"","pricing_plan_id":"cebpf4jnsgd1na2vs0mg"},{"bike_id":"503569af-07db-461f-918e-29f89d0c1c24","system_id":"levelo_inurba_marseille","lat":43.225066,"lon":5.34779,"is_reserved":false,"is_disabled":false,"rental_uris":{"android":"levelo://app?vid=503569af-07db-461f-918e-29f89d0c1c24","ios":"levelo://app?vid=503569af-07db-461f-918e-29f89d0c1c24"},"vehicle_type_id":"4","last_reported":1746565761,"current_range_meters":8400,"station_id":"st_cvj5dfep6f1abm77gieg","pricing_plan_id":"cebpf4jnsgd1na2vs0mg"},{"bike_id":"3e2241d9-e2db-4d74-bb69-083241de632a","system_id":"levelo_inurba_marseille","lat":43.283773,"lon":5.38628,"is_reserved":false,"is_disabled":false,"rental_uris":{"android":"levelo://app?vid=3e2241d9-e2db-4d74-bb69-083241de632a","ios":"levelo://app?vid=3e2241d9-e2db-4d74-bb69-083241de632a"},"vehicle_type_id":"4","last_reported":1746565761,"current_range_meters":8800,"station_id":"ce4bh492rcd13ifvqdvg","pricing_plan_id":"cebpf4jnsgd1na2vs0mg"},{"bike_id":"baa819ed-6c62-4637-8cd5-16e9cb19c879","system_id":"levelo_inurba_marseille","lat":43.25887,"lon":5.39898,"is_reserved":false,"is_disabled":false,"rental_uris":{"android":"levelo://app?vid=baa819ed-6c62-4637-8cd5-16e9cb19c879","ios":"levelo://app?vid=baa819ed-6c62-4637-8cd5-16e9cb19c879"},"vehicle_type_id":"4","last_reported":1746565761,"current_range_meters":8800,"station_id":"ce4bhl92rcd13ifvqghg","pricing_plan_id":"cebpf4jnsgd1na2vs0mg"},{"bike_id":"bab57e29-1b43-40e7-87ee-968e5ea56319","system_id":"levelo_inurba_marseille","lat":43.32363,"lon":5.38896,"is_reserved":false,"is_disabled":false,"rental_uris":{"android":"levelo://app?vid=bab57e29-1b43-40e7-87ee-968e5ea56319","ios":"levelo://app?vid=bab57e29-1b43-40e7-87ee-968e5ea56319"},"vehicle_type_id":"4","last_reported":1746565761,"current_range_meters":8800,"station_id":"ce4bhqp2rcd13ifvqhog","pricing_plan_id":"cebpf4jnsgd1na2vs0mg"},{"bike_id":"6dd18995-0ae9-40d9-b83a-3adb99440e78","system_id":"levelo_inurba_marseille","lat":43.28067,"lon":5.3964,"is_reserved":false,"is_disabled":false,"rental_uris":{"android":"levelo://app?vid=6dd18995-0ae9-40d9-b83a-3adb99440e78","ios":"levelo://app?vid=6dd18995-0ae9-40d9-b83a-3adb99440e78"},"vehicle_type_id":"4","last_reported":1746565761,"current_range_meters":8800,"station_id":"ce4bho12rcd13ifvqh2g","pricing_plan_id":"cebpf4jnsgd1na2vs0mg"},{"bike_id":"21467e1f-9652-43ef-8d38-195aa628bdb7","system_id":"levelo_inurba_marseille","lat":43.32003,"lon":5.3815,"is_reserved":false,"is_disabled":false,"rental_uris":{"android":"levelo://app?vid=21467e1f-9652-43ef-8d38-195aa628bdb7","ios":"levelo://app?vid=21467e1f-9652-43ef-8d38-195aa628bdb7"},"vehicle_type_id":"4","last_reported":1746565761,"current_range_meters":8800,"station_id":"ce4bhr12rcd13ifvqhpg","pricing_plan_id":"cebpf4jnsgd1na2vs0mg"},{"bike_id":"90f9f509-4cdb-403b-ab8c-f54670a6e1e7","system_id":"levelo_inurba_marseille","lat":43.30471,"lon":5.3791,"is_reserved":false,"is_disabled":false,"rental_uris":{"android":"levelo://app?vid=90f9f509-4cdb-403b-ab8c-f54670a6e1e7","ios":"levelo://app?vid=90f9f509-4cdb-403b-ab8c-f54670a6e1e7"},"vehicle_type_id":"4","last_reported":1746565761,"current_range_meters":8400,"station_id":"ce4bgup2rcd13ifvqcn0","pricing_plan_id":"cebpf4jnsgd1na2vs0mg"},{"bike_id":"c9592205-9409-4f74-aed1-7c4141a58caa","system_id":"levelo_inurba_marseille","lat":43.27153,"lon":5.36361,"is_reserved":false,"is_disabled":false,"rental_uris":{"android":"levelo://app?vid=c9592205-9409-4f74-aed1-7c4141a58caa","ios":"levelo://app?vid=c9592205-9409-4f74-aed1-7c4141a58caa"},"vehicle_type_id":"4","last_reported":1746565761,"current_range_meters":9200,"station_id":"","pricing_plan_id":"cebpf4jnsgd1na2vs0mg"},{"bike_id":"04b18225-fd5e-4795-ba7e-3d3418a93656","system_id":"levelo_inurba_marseille","lat":43.25713,"lon":5.41113,"is_reserved":false,"is_disabled":false,"rental_uris":{"android":"levelo://app?vid=04b18225-fd5e-4795-ba7e-3d3418a93656","ios":"levelo://app?vid=04b18225-fd5e-4795-ba7e-3d3418a93656"},"vehicle_type_id":"4","last_reported":1746565761,"current_range_meters":9200,"station_id":"ce4bhkp2rcd13ifvqgd0","pricing_plan_id":"cebpf4jnsgd1na2vs0mg"},{"bike_id":"fe000479-7714-4cfc-af9c-b8190a462b2c","system_id":"levelo_inurba_marseille","lat":43.31195,"lon":5.3961,"is_reserved":false,"is_disabled":false,"rental_uris":{"android":"levelo://app?vid=fe000479-7714-4cfc-af9c-b8190a462b2c","ios":"levelo://app?vid=fe000479-7714-4cfc-af9c-b8190a462b2c"},"vehicle_type_id":"4","last_reported":1746565761,"current_range_meters":9200,"station_id":"","pricing_plan_id":"cebpf4jnsgd1na2vs0mg"},{"bike_id":"d108b806-868c-4858-8429-01fac6c201b0","system_id":"levelo_inurba_marseille","lat":43.28461,"lon":5.3589,"is_reserved":false,"is_disabled":false,"rental_uris":{"android":"levelo://app?vid=d108b806-868c-4858-8429-01fac6c201b0","ios":"levelo://app?vid=d108b806-868c-4858-8429-01fac6c201b0"},"vehicle_type_id":"4","last_reported":1746565761,"current_range_meters":9200,"station_id":"ce4bhah2rcd13ifvqei0","pricing_plan_id":"cebpf4jnsgd1na2vs0mg"},{"bike_id":"943d0601-5d73-468b-922c-7ef604961a21","system_id":"levelo_inurba_marseille","lat":43.212,"lon":5.35086,"is_reserved":false,"is_disabled":false,"rental_uris":{"android":"levelo://app?vid=943d0601-5d73-468b-922c-7ef604961a21","ios":"levelo://app?vid=943d0601-5d73-468b-922c-7ef604961a21"},"vehicle_type_id":"4","last_reported":1746565761,"current_range_meters":9200,"station_id":"st_cvj6sg6p6f1abm77japg","pricing_plan_id":"cebpf4jnsgd1na2vs0mg"},{"bike_id":"934592e9-d06e-4c95-8d4e-847b06115897","system_id":"levelo_inurba_marseille","lat":43.297074,"lon":5.366048,"is_reserved":false,"is_disabled":false,"rental_uris":{"android":"levelo://app?vid=934592e9-d06e-4c95-8d4e-847b06115897","ios":"levelo://app?vid=934592e9-d06e-4c95-8d4e-847b06115897"},"vehicle_type_id":"4","last_reported":1746565761,"current_range_meters":9200,"station_id":"ce4bgn12rcd13ifvqbt0","pricing_plan_id":"cebpf4jnsgd1na2vs0mg"},{"bike_id":"5e64a698-d714-4d99-8261-db4d12b9f278","system_id":"levelo_inurba_marseille","lat":43.307568,"lon":5.371972,"is_reserved":false,"is_disabled":false,"rental_uris":{"android":"levelo://app?vid=5e64a698-d714-4d99-8261-db4d12b9f278","ios":"levelo://app?vid=5e64a698-d714-4d99-8261-db4d12b9f278"},"vehicle_type_id":"4","last_reported":1746565761,"current_range_meters":9600,"station_id":"","pricing_plan_id":"cebpf4jnsgd1na2vs0mg"},{"bike_id":"fc453207-e37b-4b13-ae20-4430b65eb533","system_id":"levelo_inurba_marseille","lat":43.32442,"lon":5.39127,"is_reserved":false,"is_disabled":true,"rental_uris":{"android":"levelo://app?vid=fc453207-e37b-4b13-ae20-4430b65eb533","ios":"levelo://app?vid=fc453207-e37b-4b13-ae20-4430b65eb533"},"vehicle_type_id":"4","last_reported":1746565761,"current_range_meters":9600,"station_id":"","pricing_plan_id":"cebpf4jnsgd1na2vs0mg"},{"bike_id":"695bf3fa-3472-4eab-8fb5-affa49f43da8","system_id":"levelo_inurba_marseille","lat":43.27824,"lon":5.40723,"is_reserved":false,"is_disabled":false,"rental_uris":{"android":"levelo://app?vid=695bf3fa-3472-4eab-8fb5-affa49f43da8","ios":"levelo://app?vid=695bf3fa-3472-4eab-8fb5-affa49f43da8"},"vehicle_type_id":"4","last_reported":1746565761,"current_range_meters":9600,"station_id":"ce4bhnh2rcd13ifvqgtg","pricing_plan_id":"cebpf4jnsgd1na2vs0mg"},{"bike_id":"72e7dff2-1a91-4866-b62c-e8a870064796","system_id":"levelo_inurba_marseille","lat":43.30288,"lon":5.37705,"is_reserved":false,"is_disabled":false,"rental_uris":{"android":"levelo://app?vid=72e7dff2-1a91-4866-b62c-e8a870064796","ios":"levelo://app?vid=72e7dff2-1a91-4866-b62c-e8a870064796"},"vehicle_type_id":"4","last_reported":1746565761,"current_range_meters":9600,"station_id":"ce4bguh2rcd13ifvqcj0","pricing_plan_id":"cebpf4jnsgd1na2vs0mg"},{"bike_id":"01fcec95-3428-4909-8b09-3e9bffa7dbcf","system_id":"levelo_inurba_marseille","lat":43.24811,"lon":5.3745,"is_reserved":false,"is_disabled":false,"rental_uris":{"android":"levelo://app?vid=01fcec95-3428-4909-8b09-3e9bffa7dbcf","ios":"levelo://app?vid=01fcec95-3428-4909-8b09-3e9bffa7dbcf"},"vehicle_type_id":"4","last_reported":1746565761,"current_range_meters":10000,"station_id":"ce4bhgh2rcd13ifvqfb0","pricing_plan_id":"cebpf4jnsgd1na2vs0mg"},{"bike_id":"53c8b1b2-4b02-49f2-ae20-0c98fe726c23","system_id":"levelo_inurba_marseille","lat":43.28707,"lon":5.39982,"is_reserved":false,"is_disabled":false,"rental_uris":{"android":"levelo://app?vid=53c8b1b2-4b02-49f2-ae20-0c98fe726c23","ios":"levelo://app?vid=53c8b1b2-4b02-49f2-ae20-0c98fe726c23"},"vehicle_type_id":"4","last_reported":1746565761,"current_range_meters":10000,"station_id":"ce4bho92rcd13ifvqh3g","pricing_plan_id":"cebpf4jnsgd1na2vs0mg"},{"bike_id":"e0958a16-a452-4b60-a67a-6763663068b7","system_id":"levelo_inurba_marseille","lat":43.26229,"lon":5.4045,"is_reserved":false,"is_disabled":false,"rental_uris":{"android":"levelo://app?vid=e0958a16-a452-4b60-a67a-6763663068b7","ios":"levelo://app?vid=e0958a16-a452-4b60-a67a-6763663068b7"},"vehicle_type_id":"4","last_reported":1746565761,"current_range_meters":10000,"station_id":"ce4bhmh2rcd13ifvqgmg","pricing_plan_id":"cebpf4jnsgd1na2vs0mg"},{"bike_id":"3f84d55c-f7b3-443f-a8ba-1f83ba8291a2","system_id":"levelo_inurba_marseille","lat":43.21192,"lon":5.35081,"is_reserved":false,"is_disabled":false,"rental_uris":{"android":"levelo://app?vid=3f84d55c-f7b3-443f-a8ba-1f83ba8291a2","ios":"levelo://app?vid=3f84d55c-f7b3-443f-a8ba-1f83ba8291a2"},"vehicle_type_id":"4","last_reported":1746565761,"current_range_meters":10000,"station_id":"st_cvj6sg6p6f1abm77japg","pricing_plan_id":"cebpf4jnsgd1na2vs0mg"},{"bike_id":"bc0631ed-8e5a-4a7a-a924-e66c5efc3e6b","system_id":"levelo_inurba_marseille","lat":43.310672,"lon":5.38359,"is_reserved":false,"is_disabled":false,"rental_uris":{"android":"levelo://app?vid=bc0631ed-8e5a-4a7a-a924-e66c5efc3e6b","ios":"levelo://app?vid=bc0631ed-8e5a-4a7a-a924-e66c5efc3e6b"},"vehicle_type_id":"4","last_reported":1746565761,"current_range_meters":10800,"station_id":"ce4bgv92rcd13ifvqcr0","pricing_plan_id":"cebpf4jnsgd1na2vs0mg"},{"bike_id":"1e6ef1b5-4779-4cb6-b6c7-5c78c344b341","system_id":"levelo_inurba_marseille","lat":43.23183,"lon":5.40004,"is_reserved":false,"is_disabled":false,"rental_uris":{"android":"levelo://app?vid=1e6ef1b5-4779-4cb6-b6c7-5c78c344b341","ios":"levelo://app?vid=1e6ef1b5-4779-4cb6-b6c7-5c78c344b341"},"vehicle_type_id":"4","last_reported":1746565761,"current_range_meters":10800,"station_id":"ce4bhn12rcd13ifvqgqg","pricing_plan_id":"cebpf4jnsgd1na2vs0mg"},{"bike_id":"54b46741-8284-4ace-92ab-407b5aa505d3","system_id":"levelo_inurba_marseille","lat":43.28738,"lon":5.36077,"is_reserved":false,"is_disabled":false,"rental_uris":{"android":"levelo://app?vid=54b46741-8284-4ace-92ab-407b5aa505d3","ios":"levelo://app?vid=54b46741-8284-4ace-92ab-407b5aa505d3"},"vehicle_type_id":"4","last_reported":1746565761,"current_range_meters":10800,"station_id":"cki0cbj6b192h4jlfktg","pricing_plan_id":"cebpf4jnsgd1na2vs0mg"},{"bike_id":"98f166c7-5e33-4802-89b0-96064d90148d","system_id":"levelo_inurba_marseille","lat":43.31888,"lon":5.4074,"is_reserved":false,"is_disabled":false,"rental_uris":{"android":"levelo://app?vid=98f166c7-5e33-4802-89b0-96064d90148d","ios":"levelo://app?vid=98f166c7-5e33-4802-89b0-96064d90148d"},"vehicle_type_id":"4","last_reported":1746565761,"current_range_meters":13600,"station_id":"ce4bhq12rcd13ifvqhig","pricing_plan_id":"cebpf4jnsgd1na2vs0mg"},{"bike_id":"5bca7523-1029-4617-8127-9d50cb240d8b","system_id":"levelo_inurba_marseille","lat":43.2998,"lon":5.37177,"is_reserved":false,"is_disabled":false,"rental_uris":{"android":"levelo://app?vid=5bca7523-1029-4617-8127-9d50cb240d8b","ios":"levelo://app?vid=5bca7523-1029-4617-8127-9d50cb240d8b"},"vehicle_type_id":"4","last_reported":1746565761,"current_range_meters":10800,"station_id":"ce4bgr92rcd13ifvqc7g","pricing_plan_id":"cebpf4jnsgd1na2vs0mg"},{"bike_id":"4d41f66c-f615-49b2-a6d7-735e22d421fb","system_id":"levelo_inurba_marseille","lat":43.231863,"lon":5.399834,"is_reserved":false,"is_disabled":false,"rental_uris":{"android":"levelo://app?vid=4d41f66c-f615-49b2-a6d7-735e22d421fb","ios":"levelo://app?vid=4d41f66c-f615-49b2-a6d7-735e22d421fb"},"vehicle_type_id":"4","last_reported":1746565761,"current_range_meters":10800,"station_id":"ce4bhn12rcd13ifvqgqg","pricing_plan_id":"cebpf4jnsgd1na2vs0mg"},{"bike_id":"75d9ab83-3595-419d-bb5a-f10c48f5e2ea","system_id":"levelo_inurba_marseille","lat":43.28942,"lon":5.39636,"is_reserved":false,"is_disabled":false,"rental_uris":{"android":"levelo://app?vid=75d9ab83-3595-419d-bb5a-f10c48f5e2ea","ios":"levelo://app?vid=75d9ab83-3595-419d-bb5a-f10c48f5e2ea"},"vehicle_type_id":"4","last_reported":1746565761,"current_range_meters":10800,"station_id":"ce4bh3h2rcd13ifvqdn0","pricing_plan_id":"cebpf4jnsgd1na2vs0mg"},{"bike_id":"cb292e3d-408a-477e-a962-2120a4f8cf6f","system_id":"levelo_inurba_marseille","lat":43.30142,"lon":5.38782,"is_reserved":false,"is_disabled":false,"rental_uris":{"android":"levelo://app?vid=cb292e3d-408a-477e-a962-2120a4f8cf6f","ios":"levelo://app?vid=cb292e3d-408a-477e-a962-2120a4f8cf6f"},"vehicle_type_id":"4","last_reported":1746565761,"current_range_meters":10800,"station_id":"ce4bghh2rcd13ifvqb60","pricing_plan_id":"cebpf4jnsgd1na2vs0mg"},{"bike_id":"bd3b2178-bd6a-4801-b79f-10fa8392d3d4","system_id":"levelo_inurba_marseille","lat":43.31228,"lon":5.36877,"is_reserved":false,"is_disabled":false,"rental_uris":{"android":"levelo://app?vid=bd3b2178-bd6a-4801-b79f-10fa8392d3d4","ios":"levelo://app?vid=bd3b2178-bd6a-4801-b79f-10fa8392d3d4"},"vehicle_type_id":"4","last_reported":1746565761,"current_range_meters":10800,"station_id":"ce4bgl92rcd13ifvqbq0","pricing_plan_id":"cebpf4jnsgd1na2vs0mg"},{"bike_id":"aa0ff8ba-f75a-4963-8e38-b1ad71967fad","system_id":"levelo_inurba_marseille","lat":43.26511,"lon":5.39528,"is_reserved":false,"is_disabled":false,"rental_uris":{"android":"levelo://app?vid=aa0ff8ba-f75a-4963-8e38-b1ad71967fad","ios":"levelo://app?vid=aa0ff8ba-f75a-4963-8e38-b1ad71967fad"},"vehicle_type_id":"4","last_reported":1746565761,"current_range_meters":11200,"station_id":"ce4bhi12rcd13ifvqfq0","pricing_plan_id":"cebpf4jnsgd1na2vs0mg"},{"bike_id":"b4bac287-3615-423a-bca2-a11fb80cb066","system_id":"levelo_inurba_marseille","lat":43.23048,"lon":5.3549,"is_reserved":false,"is_disabled":false,"rental_uris":{"android":"levelo://app?vid=b4bac287-3615-423a-bca2-a11fb80cb066","ios":"levelo://app?vid=b4bac287-3615-423a-bca2-a11fb80cb066"},"vehicle_type_id":"4","last_reported":1746565761,"current_range_meters":11200,"station_id":"cpo3342slgdg3j2ifvpg","pricing_plan_id":"cebpf4jnsgd1na2vs0mg"},{"bike_id":"fca4041b-1ef1-4b11-9213-a441d7a48468","system_id":"levelo_inurba_marseille","lat":43.31226,"lon":5.3686,"is_reserved":false,"is_disabled":false,"rental_uris":{"android":"levelo://app?vid=fca4041b-1ef1-4b11-9213-a441d7a48468","ios":"levelo://app?vid=fca4041b-1ef1-4b11-9213-a441d7a48468"},"vehicle_type_id":"4","last_reported":1746565761,"current_range_meters":11200,"station_id":"ce4bgl92rcd13ifvqbq0","pricing_plan_id":"cebpf4jnsgd1na2vs0mg"},{"bike_id":"2d34c47c-7e86-4bb4-ab5f-8da030cb95d8","system_id":"levelo_inurba_marseille","lat":43.26252,"lon":5.40467,"is_reserved":false,"is_disabled":false,"rental_uris":{"android":"levelo://app?vid=2d34c47c-7e86-4bb4-ab5f-8da030cb95d8","ios":"levelo://app?vid=2d34c47c-7e86-4bb4-ab5f-8da030cb95d8"},"vehicle_type_id":"4","last_reported":1746565761,"current_range_meters":11600,"station_id":"ce4bhmh2rcd13ifvqgmg","pricing_plan_id":"cebpf4jnsgd1na2vs0mg"},{"bike_id":"8fce7349-008c-4255-982b-9b41c6a74c7f","system_id":"levelo_inurba_marseille","lat":43.30442,"lon":5.38886,"is_reserved":false,"is_disabled":false,"rental_uris":{"android":"levelo://app?vid=8fce7349-008c-4255-982b-9b41c6a74c7f","ios":"levelo://app?vid=8fce7349-008c-4255-982b-9b41c6a74c7f"},"vehicle_type_id":"4","last_reported":1746565761,"current_range_meters":11600,"station_id":"ce4bgk12rcd13ifvqbi0","pricing_plan_id":"cebpf4jnsgd1na2vs0mg"},{"bike_id":"5d77c07c-f046-426c-ace2-022105fda209","system_id":"levelo_inurba_marseille","lat":43.2886,"lon":5.35854,"is_reserved":false,"is_disabled":false,"rental_uris":{"android":"levelo://app?vid=5d77c07c-f046-426c-ace2-022105fda209","ios":"levelo://app?vid=5d77c07c-f046-426c-ace2-022105fda209"},"vehicle_type_id":"4","last_reported":1746565761,"current_range_meters":12000,"station_id":"ce4bhb12rcd13ifvqem0","pricing_plan_id":"cebpf4jnsgd1na2vs0mg"},{"bike_id":"065dfa79-5129-4665-ba10-4a802102a715","system_id":"levelo_inurba_marseille","lat":43.31728,"lon":5.42384,"is_reserved":false,"is_disabled":false,"rental_uris":{"android":"levelo://app?vid=065dfa79-5129-4665-ba10-4a802102a715","ios":"levelo://app?vid=065dfa79-5129-4665-ba10-4a802102a715"},"vehicle_type_id":"4","last_reported":1746565761,"current_range_meters":12000,"station_id":"ce4bhp92rcd13ifvqhbg","pricing_plan_id":"cebpf4jnsgd1na2vs0mg"},{"bike_id":"dc242d17-6735-41e8-b93f-707d3dcba7c0","system_id":"levelo_inurba_marseille","lat":43.317217,"lon":5.424083,"is_reserved":false,"is_disabled":false,"rental_uris":{"android":"levelo://app?vid=dc242d17-6735-41e8-b93f-707d3dcba7c0","ios":"levelo://app?vid=dc242d17-6735-41e8-b93f-707d3dcba7c0"},"vehicle_type_id":"4","last_reported":1746565761,"current_range_meters":12000,"station_id":"ce4bhp92rcd13ifvqhbg","pricing_plan_id":"cebpf4jnsgd1na2vs0mg"},{"bike_id":"4e04aed0-6c86-40b1-ab2c-63f50d8c0333","system_id":"levelo_inurba_marseille","lat":43.27822,"lon":5.40724,"is_reserved":false,"is_disabled":true,"rental_uris":{"android":"levelo://app?vid=4e04aed0-6c86-40b1-ab2c-63f50d8c0333","ios":"levelo://app?vid=4e04aed0-6c86-40b1-ab2c-63f50d8c0333"},"vehicle_type_id":"4","last_reported":1746565761,"current_range_meters":12000,"station_id":"ce4bhnh2rcd13ifvqgtg","pricing_plan_id":"cebpf4jnsgd1na2vs0mg"},{"bike_id":"084e446d-94e6-48a4-8a45-501eaaf97335","system_id":"levelo_inurba_marseille","lat":43.29792,"lon":5.39361,"is_reserved":false,"is_disabled":false,"rental_uris":{"android":"levelo://app?vid=084e446d-94e6-48a4-8a45-501eaaf97335","ios":"levelo://app?vid=084e446d-94e6-48a4-8a45-501eaaf97335"},"vehicle_type_id":"4","last_reported":1746565761,"current_range_meters":12000,"station_id":"chh1huq6cuj3fo74tm60","pricing_plan_id":"cebpf4jnsgd1na2vs0mg"},{"bike_id":"73f162ba-8afc-4341-9619-a2a4975c80f4","system_id":"levelo_inurba_marseille","lat":43.29278,"lon":5.40123,"is_reserved":false,"is_disabled":false,"rental_uris":{"android":"levelo://app?vid=73f162ba-8afc-4341-9619-a2a4975c80f4","ios":"levelo://app?vid=73f162ba-8afc-4341-9619-a2a4975c80f4"},"vehicle_type_id":"4","last_reported":1746565761,"current_range_meters":12000,"station_id":"ce4bh312rcd13ifvqdk0","pricing_plan_id":"cebpf4jnsgd1na2vs0mg"},{"bike_id":"cbb5eb6d-ce39-47b4-a4cb-03cd47241b3f","system_id":"levelo_inurba_marseille","lat":43.297871,"lon":5.3934,"is_reserved":false,"is_disabled":false,"rental_uris":{"android":"levelo://app?vid=cbb5eb6d-ce39-47b4-a4cb-03cd47241b3f","ios":"levelo://app?vid=cbb5eb6d-ce39-47b4-a4cb-03cd47241b3f"},"vehicle_type_id":"4","last_reported":1746565761,"current_range_meters":12000,"station_id":"chh1huq6cuj3fo74tm60","pricing_plan_id":"cebpf4jnsgd1na2vs0mg"},{"bike_id":"a6360162-9249-4ffa-8aff-4b37e3643b14","system_id":"levelo_inurba_marseille","lat":43.30598,"lon":5.3724,"is_reserved":false,"is_disabled":false,"rental_uris":{"android":"levelo://app?vid=a6360162-9249-4ffa-8aff-4b37e3643b14","ios":"levelo://app?vid=a6360162-9249-4ffa-8aff-4b37e3643b14"},"vehicle_type_id":"4","last_reported":1746565761,"current_range_meters":12400,"station_id":"ce4bgqh2rcd13ifvqc4g","pricing_plan_id":"cebpf4jnsgd1na2vs0mg"},{"bike_id":"741922f7-49ff-4751-a228-5a73f2c8c24d","system_id":"levelo_inurba_marseille","lat":43.24176,"lon":5.36399,"is_reserved":false,"is_disabled":false,"rental_uris":{"android":"levelo://app?vid=741922f7-49ff-4751-a228-5a73f2c8c24d","ios":"levelo://app?vid=741922f7-49ff-4751-a228-5a73f2c8c24d"},"vehicle_type_id":"4","last_reported":1746565761,"current_range_meters":12400,"station_id":"cpo36qri1sfpv3e86is0","pricing_plan_id":"cebpf4jnsgd1na2vs0mg"},{"bike_id":"963aeaaf-16ab-4ca6-896c-a412c968ec60","system_id":"levelo_inurba_marseille","lat":43.28961,"lon":5.36383,"is_reserved":false,"is_disabled":true,"rental_uris":{"android":"levelo://app?vid=963aeaaf-16ab-4ca6-896c-a412c968ec60","ios":"levelo://app?vid=963aeaaf-16ab-4ca6-896c-a412c968ec60"},"vehicle_type_id":"4","last_reported":1746565761,"current_range_meters":12400,"station_id":"ce4bhc92rcd13ifvqetg","pricing_plan_id":"cebpf4jnsgd1na2vs0mg"},{"bike_id":"2f9869ca-0c03-451a-9ef5-f4dfb1f32f83","system_id":"levelo_inurba_marseille","lat":43.27915,"lon":5.39582,"is_reserved":false,"is_disabled":false,"rental_uris":{"android":"levelo://app?vid=2f9869ca-0c03-451a-9ef5-f4dfb1f32f83","ios":"levelo://app?vid=2f9869ca-0c03-451a-9ef5-f4dfb1f32f83"},"vehicle_type_id":"4","last_reported":1746565761,"current_range_meters":12400,"station_id":"ce4bhf92rcd13ifvqf40","pricing_plan_id":"cebpf4jnsgd1na2vs0mg"},{"bike_id":"13eee6b8-30df-4b65-9748-df928dab70d9","system_id":"levelo_inurba_marseille","lat":43.34141,"lon":5.40899,"is_reserved":false,"is_disabled":false,"rental_uris":{"android":"levelo://app?vid=13eee6b8-30df-4b65-9748-df928dab70d9","ios":"levelo://app?vid=13eee6b8-30df-4b65-9748-df928dab70d9"},"vehicle_type_id":"4","last_reported":1746565761,"current_range_meters":12400,"station_id":"ce4bhqh2rcd13ifvqhlg","pricing_plan_id":"cebpf4jnsgd1na2vs0mg"},{"bike_id":"8a5554a2-b62f-4371-8d49-519ad97fb9f1","system_id":"levelo_inurba_marseille","lat":43.330157,"lon":5.390337,"is_reserved":false,"is_disabled":false,"rental_uris":{"android":"levelo://app?vid=8a5554a2-b62f-4371-8d49-519ad97fb9f1","ios":"levelo://app?vid=8a5554a2-b62f-4371-8d49-519ad97fb9f1"},"vehicle_type_id":"4","last_reported":1746565761,"current_range_meters":12400,"station_id":"ce4bhr92rcd13ifvqhrg","pricing_plan_id":"cebpf4jnsgd1na2vs0mg"},{"bike_id":"103aca32-0fbf-40b2-b132-b29169d81158","system_id":"levelo_inurba_marseille","lat":43.29043,"lon":5.39962,"is_reserved":false,"is_disabled":false,"rental_uris":{"android":"levelo://app?vid=103aca32-0fbf-40b2-b132-b29169d81158","ios":"levelo://app?vid=103aca32-0fbf-40b2-b132-b29169d81158"},"vehicle_type_id":"4","last_reported":1746565761,"current_range_meters":12800,"station_id":"ce4bh392rcd13ifvqdm0","pricing_plan_id":"cebpf4jnsgd1na2vs0mg"},{"bike_id":"e5309a2a-412b-4893-bc74-b9bd83a40a8e","system_id":"levelo_inurba_marseille","lat":43.27667,"lon":5.38859,"is_reserved":false,"is_disabled":false,"rental_uris":{"android":"levelo://app?vid=e5309a2a-412b-4893-bc74-b9bd83a40a8e","ios":"levelo://app?vid=e5309a2a-412b-4893-bc74-b9bd83a40a8e"},"vehicle_type_id":"4","last_reported":1746565761,"current_range_meters":12800,"station_id":"ce4bhi12rcd13ifvqfo0","pricing_plan_id":"cebpf4jnsgd1na2vs0mg"},{"bike_id":"c0c9b625-2ed9-4025-8036-243e1cf4c3d6","system_id":"levelo_inurba_marseille","lat":43.251215,"lon":5.403235,"is_reserved":false,"is_disabled":false,"rental_uris":{"android":"levelo://app?vid=c0c9b625-2ed9-4025-8036-243e1cf4c3d6","ios":"levelo://app?vid=c0c9b625-2ed9-4025-8036-243e1cf4c3d6"},"vehicle_type_id":"4","last_reported":1746565761,"current_range_meters":12800,"station_id":"ce4bhlh2rcd13ifvqgig","pricing_plan_id":"cebpf4jnsgd1na2vs0mg"},{"bike_id":"cd0c41d2-a837-425d-ab44-baf4ceed15ea","system_id":"levelo_inurba_marseille","lat":43.320553,"lon":5.415333,"is_reserved":false,"is_disabled":false,"rental_uris":{"android":"levelo://app?vid=cd0c41d2-a837-425d-ab44-baf4ceed15ea","ios":"levelo://app?vid=cd0c41d2-a837-425d-ab44-baf4ceed15ea"},"vehicle_type_id":"4","last_reported":1746565761,"current_range_meters":12800,"station_id":"ce4bhq92rcd13ifvqhkg","pricing_plan_id":"cebpf4jnsgd1na2vs0mg"},{"bike_id":"f1442852-f71a-448f-b6c6-c6128acec5d3","system_id":"levelo_inurba_marseille","lat":43.30662,"lon":5.40082,"is_reserved":false,"is_disabled":true,"rental_uris":{"android":"levelo://app?vid=f1442852-f71a-448f-b6c6-c6128acec5d3","ios":"levelo://app?vid=f1442852-f71a-448f-b6c6-c6128acec5d3"},"vehicle_type_id":"4","last_reported":1746565761,"current_range_meters":13600,"station_id":"ce4bh112rcd13ifvqda0","pricing_plan_id":"cebpf4jnsgd1na2vs0mg"},{"bike_id":"5ca0cdd3-986b-405d-a3f7-122ee59b5450","system_id":"levelo_inurba_marseille","lat":43.286584,"lon":5.363524,"is_reserved":false,"is_disabled":false,"rental_uris":{"android":"levelo://app?vid=5ca0cdd3-986b-405d-a3f7-122ee59b5450","ios":"levelo://app?vid=5ca0cdd3-986b-405d-a3f7-122ee59b5450"},"vehicle_type_id":"4","last_reported":1746565761,"current_range_meters":13600,"station_id":"ce4bhah2rcd13ifvqej0","pricing_plan_id":"cebpf4jnsgd1na2vs0mg"},{"bike_id":"43fec331-5dbe-4fa7-9b37-9757078cd140","system_id":"levelo_inurba_marseille","lat":43.288487,"lon":5.358423,"is_reserved":false,"is_disabled":true,"rental_uris":{"android":"levelo://app?vid=43fec331-5dbe-4fa7-9b37-9757078cd140","ios":"levelo://app?vid=43fec331-5dbe-4fa7-9b37-9757078cd140"},"vehicle_type_id":"4","last_reported":1746565761,"current_range_meters":13600,"station_id":"ce4bhb12rcd13ifvqem0","pricing_plan_id":"cebpf4jnsgd1na2vs0mg"},{"bike_id":"c65b64f5-a38f-4b33-a48f-6bb6c6b32a53","system_id":"levelo_inurba_marseille","lat":43.211878,"lon":5.350877,"is_reserved":false,"is_disabled":false,"rental_uris":{"android":"levelo://app?vid=c65b64f5-a38f-4b33-a48f-6bb6c6b32a53","ios":"levelo://app?vid=c65b64f5-a38f-4b33-a48f-6bb6c6b32a53"},"vehicle_type_id":"4","last_reported":1746565761,"current_range_meters":13600,"station_id":"st_cvj6sg6p6f1abm77japg","pricing_plan_id":"cebpf4jnsgd1na2vs0mg"},{"bike_id":"0f0bb485-e23f-418f-811a-87e1ff8dd8f6","system_id":"levelo_inurba_marseille","lat":43.28464,"lon":5.35889,"is_reserved":false,"is_disabled":false,"rental_uris":{"android":"levelo://app?vid=0f0bb485-e23f-418f-811a-87e1ff8dd8f6","ios":"levelo://app?vid=0f0bb485-e23f-418f-811a-87e1ff8dd8f6"},"vehicle_type_id":"4","last_reported":1746565761,"current_range_meters":13600,"station_id":"ce4bhah2rcd13ifvqei0","pricing_plan_id":"cebpf4jnsgd1na2vs0mg"},{"bike_id":"6f803c13-d253-462e-8469-9e06945b3684","system_id":"levelo_inurba_marseille","lat":43.27621,"lon":5.36104,"is_reserved":false,"is_disabled":false,"rental_uris":{"android":"levelo://app?vid=6f803c13-d253-462e-8469-9e06945b3684","ios":"levelo://app?vid=6f803c13-d253-462e-8469-9e06945b3684"},"vehicle_type_id":"4","last_reported":1746565761,"current_range_meters":13600,"station_id":"ce4bgj92rcd13ifvqbe0","pricing_plan_id":"cebpf4jnsgd1na2vs0mg"},{"bike_id":"73b5c333-97cd-43b6-9d08-007bad2ca597","system_id":"levelo_inurba_marseille","lat":43.32287,"lon":5.382852,"is_reserved":false,"is_disabled":false,"rental_uris":{"android":"levelo://app?vid=73b5c333-97cd-43b6-9d08-007bad2ca597","ios":"levelo://app?vid=73b5c333-97cd-43b6-9d08-007bad2ca597"},"vehicle_type_id":"4","last_reported":1746565761,"current_range_meters":14000,"station_id":"ce4bhr12rcd13ifvqhqg","pricing_plan_id":"cebpf4jnsgd1na2vs0mg"},{"bike_id":"131ea923-a9e4-4334-bf96-a995488d45d0","system_id":"levelo_inurba_marseille","lat":43.32656,"lon":5.40994,"is_reserved":false,"is_disabled":false,"rental_uris":{"android":"levelo://app?vid=131ea923-a9e4-4334-bf96-a995488d45d0","ios":"levelo://app?vid=131ea923-a9e4-4334-bf96-a995488d45d0"},"vehicle_type_id":"4","last_reported":1746565761,"current_range_meters":14000,"station_id":"ce4bhpp2rcd13ifvqhgg","pricing_plan_id":"cebpf4jnsgd1na2vs0mg"},{"bike_id":"6f783098-ef72-4044-9ec6-09b510d07edd","system_id":"levelo_inurba_marseille","lat":43.28404,"lon":5.37523,"is_reserved":false,"is_disabled":false,"rental_uris":{"android":"levelo://app?vid=6f783098-ef72-4044-9ec6-09b510d07edd","ios":"levelo://app?vid=6f783098-ef72-4044-9ec6-09b510d07edd"},"vehicle_type_id":"4","last_reported":1746565761,"current_range_meters":14400,"station_id":"ce4bh412rcd13ifvqds0","pricing_plan_id":"cebpf4jnsgd1na2vs0mg"},{"bike_id":"95fe4314-2ffa-467b-b0b0-b716826e253d","system_id":"levelo_inurba_marseille","lat":43.26792,"lon":5.39393,"is_reserved":false,"is_disabled":false,"rental_uris":{"android":"levelo://app?vid=95fe4314-2ffa-467b-b0b0-b716826e253d","ios":"levelo://app?vid=95fe4314-2ffa-467b-b0b0-b716826e253d"},"vehicle_type_id":"4","last_reported":1746565761,"current_range_meters":14800,"station_id":"ce4bhh12rcd13ifvqfg0","pricing_plan_id":"cebpf4jnsgd1na2vs0mg"},{"bike_id":"acafae74-a8e7-4197-b1a8-0e266cc2b20a","system_id":"levelo_inurba_marseille","lat":43.29284,"lon":5.3687,"is_reserved":false,"is_disabled":false,"rental_uris":{"android":"levelo://app?vid=acafae74-a8e7-4197-b1a8-0e266cc2b20a","ios":"levelo://app?vid=acafae74-a8e7-4197-b1a8-0e266cc2b20a"},"vehicle_type_id":"4","last_reported":1746565761,"current_range_meters":14800,"station_id":"ce4bhbp2rcd13ifvqesg","pricing_plan_id":"cebpf4jnsgd1na2vs0mg"},{"bike_id":"cca4c5cc-43e7-433b-a0fb-3702c8125395","system_id":"levelo_inurba_marseille","lat":43.22934,"lon":5.35377,"is_reserved":false,"is_disabled":false,"rental_uris":{"android":"levelo://app?vid=cca4c5cc-43e7-433b-a0fb-3702c8125395","ios":"levelo://app?vid=cca4c5cc-43e7-433b-a0fb-3702c8125395"},"vehicle_type_id":"4","last_reported":1746565761,"current_range_meters":14800,"station_id":"cpo3532slgdg3j2ikp40","pricing_plan_id":"cebpf4jnsgd1na2vs0mg"},{"bike_id":"d802429b-fbe4-4966-926a-6af3f1d98ff2","system_id":"levelo_inurba_marseille","lat":43.29561,"lon":5.42301,"is_reserved":false,"is_disabled":false,"rental_uris":{"android":"levelo://app?vid=d802429b-fbe4-4966-926a-6af3f1d98ff2","ios":"levelo://app?vid=d802429b-fbe4-4966-926a-6af3f1d98ff2"},"vehicle_type_id":"4","last_reported":1746565761,"current_range_meters":14800,"station_id":"ce4bhph2rcd13ifvqhdg","pricing_plan_id":"cebpf4jnsgd1na2vs0mg"},{"bike_id":"dc35c703-bc73-49f4-8bf2-4e2793651c3a","system_id":"levelo_inurba_marseille","lat":43.29783,"lon":5.37114,"is_reserved":false,"is_disabled":false,"rental_uris":{"android":"levelo://app?vid=dc35c703-bc73-49f4-8bf2-4e2793651c3a","ios":"levelo://app?vid=dc35c703-bc73-49f4-8bf2-4e2793651c3a"},"vehicle_type_id":"4","last_reported":1746565761,"current_range_meters":14800,"station_id":"ce4bgop2rcd13ifvqc1g","pricing_plan_id":"cebpf4jnsgd1na2vs0mg"},{"bike_id":"05777be0-d2e1-4b71-8c20-31bdf8bdaa36","system_id":"levelo_inurba_marseille","lat":43.29254,"lon":5.37615,"is_reserved":false,"is_disabled":false,"rental_uris":{"android":"levelo://app?vid=05777be0-d2e1-4b71-8c20-31bdf8bdaa36","ios":"levelo://app?vid=05777be0-d2e1-4b71-8c20-31bdf8bdaa36"},"vehicle_type_id":"4","last_reported":1746565761,"current_range_meters":14800,"station_id":"ce4bgi12rcd13ifvqb80","pricing_plan_id":"cebpf4jnsgd1na2vs0mg"},{"bike_id":"3916ac97-5c80-429e-a8d8-f22eac2e38e9","system_id":"levelo_inurba_marseille","lat":43.28733,"lon":5.36078,"is_reserved":false,"is_disabled":false,"rental_uris":{"android":"levelo://app?vid=3916ac97-5c80-429e-a8d8-f22eac2e38e9","ios":"levelo://app?vid=3916ac97-5c80-429e-a8d8-f22eac2e38e9"},"vehicle_type_id":"4","last_reported":1746565761,"current_range_meters":15200,"station_id":"cki0cbj6b192h4jlfktg","pricing_plan_id":"cebpf4jnsgd1na2vs0mg"},{"bike_id":"7f856bea-364b-4518-bf34-39179da7e290","system_id":"levelo_inurba_marseille","lat":43.30913,"lon":5.36844,"is_reserved":false,"is_disabled":false,"rental_uris":{"android":"levelo://app?vid=7f856bea-364b-4518-bf34-39179da7e290","ios":"levelo://app?vid=7f856bea-364b-4518-bf34-39179da7e290"},"vehicle_type_id":"4","last_reported":1746565761,"current_range_meters":15200,"station_id":"ce4bgn92rcd13ifvqbvg","pricing_plan_id":"cebpf4jnsgd1na2vs0mg"},{"bike_id":"22c50e4b-4c75-45aa-abc7-d9da297fa048","system_id":"levelo_inurba_marseille","lat":43.28706,"lon":5.3999,"is_reserved":false,"is_disabled":false,"rental_uris":{"android":"levelo://app?vid=22c50e4b-4c75-45aa-abc7-d9da297fa048","ios":"levelo://app?vid=22c50e4b-4c75-45aa-abc7-d9da297fa048"},"vehicle_type_id":"4","last_reported":1746565761,"current_range_meters":15200,"station_id":"ce4bho92rcd13ifvqh3g","pricing_plan_id":"cebpf4jnsgd1na2vs0mg"},{"bike_id":"550d5e40-92bf-40e1-be80-cd1929768010","system_id":"levelo_inurba_marseille","lat":43.29586,"lon":5.3674,"is_reserved":false,"is_disabled":false,"rental_uris":{"android":"levelo://app?vid=550d5e40-92bf-40e1-be80-cd1929768010","ios":"levelo://app?vid=550d5e40-92bf-40e1-be80-cd1929768010"},"vehicle_type_id":"4","last_reported":1746565761,"current_range_meters":14800,"station_id":"ce4bgph2rcd13ifvqc2g","pricing_plan_id":"cebpf4jnsgd1na2vs0mg"},{"bike_id":"47d2fd70-6980-4296-bfaf-01fe22c02520","system_id":"levelo_inurba_marseille","lat":43.30808,"lon":5.43531,"is_reserved":false,"is_disabled":false,"rental_uris":{"android":"levelo://app?vid=47d2fd70-6980-4296-bfaf-01fe22c02520","ios":"levelo://app?vid=47d2fd70-6980-4296-bfaf-01fe22c02520"},"vehicle_type_id":"4","last_reported":1746565761,"current_range_meters":16000,"station_id":"ce4bhph2rcd13ifvqheg","pricing_plan_id":"cebpf4jnsgd1na2vs0mg"},{"bike_id":"ac839122-6771-4433-b879-a7b9d07db239","system_id":"levelo_inurba_marseille","lat":43.28935,"lon":5.36384,"is_reserved":false,"is_disabled":false,"rental_uris":{"android":"levelo://app?vid=ac839122-6771-4433-b879-a7b9d07db239","ios":"levelo://app?vid=ac839122-6771-4433-b879-a7b9d07db239"},"vehicle_type_id":"4","last_reported":1746565761,"current_range_meters":16000,"station_id":"ce4bhc92rcd13ifvqetg","pricing_plan_id":"cebpf4jnsgd1na2vs0mg"},{"bike_id":"01bc34ef-4554-4182-85ef-fb443c22e35a","system_id":"levelo_inurba_marseille","lat":43.26558,"lon":5.37281,"is_reserved":false,"is_disabled":false,"rental_uris":{"android":"levelo://app?vid=01bc34ef-4554-4182-85ef-fb443c22e35a","ios":"levelo://app?vid=01bc34ef-4554-4182-85ef-fb443c22e35a"},"vehicle_type_id":"4","last_reported":1746565761,"current_range_meters":16000,"station_id":"ce4bhg12rcd13ifvqf70","pricing_plan_id":"cebpf4jnsgd1na2vs0mg"},{"bike_id":"c761457c-43c6-4500-9aec-e5e2c152850c","system_id":"levelo_inurba_marseille","lat":43.3154,"lon":5.3803,"is_reserved":false,"is_disabled":true,"rental_uris":{"android":"levelo://app?vid=c761457c-43c6-4500-9aec-e5e2c152850c","ios":"levelo://app?vid=c761457c-43c6-4500-9aec-e5e2c152850c"},"vehicle_type_id":"4","last_reported":1746565761,"current_range_meters":16000,"station_id":"ce4bhsp2rcd13ifvqi50","pricing_plan_id":"cebpf4jnsgd1na2vs0mg"},{"bike_id":"e0df9d18-8933-4281-852b-3f3770a304d9","system_id":"levelo_inurba_marseille","lat":43.2657,"lon":5.38995,"is_reserved":false,"is_disabled":false,"rental_uris":{"android":"levelo://app?vid=e0df9d18-8933-4281-852b-3f3770a304d9","ios":"levelo://app?vid=e0df9d18-8933-4281-852b-3f3770a304d9"},"vehicle_type_id":"4","last_reported":1746565761,"current_range_meters":16000,"station_id":"ce4bhe12rcd13ifvqf30","pricing_plan_id":"cebpf4jnsgd1na2vs0mg"},{"bike_id":"49adf419-1d44-4ce4-8e45-39dfe254ee3e","system_id":"levelo_inurba_marseille","lat":43.287276,"lon":5.360978,"is_reserved":false,"is_disabled":false,"rental_uris":{"android":"levelo://app?vid=49adf419-1d44-4ce4-8e45-39dfe254ee3e","ios":"levelo://app?vid=49adf419-1d44-4ce4-8e45-39dfe254ee3e"},"vehicle_type_id":"4","last_reported":1746565761,"current_range_meters":16000,"station_id":"cki0cbj6b192h4jlfktg","pricing_plan_id":"cebpf4jnsgd1na2vs0mg"},{"bike_id":"b1a97ec7-993f-4a2d-83e7-6ed722a41c26","system_id":"levelo_inurba_marseille","lat":43.27844,"lon":5.39179,"is_reserved":false,"is_disabled":true,"rental_uris":{"android":"levelo://app?vid=b1a97ec7-993f-4a2d-83e7-6ed722a41c26","ios":"levelo://app?vid=b1a97ec7-993f-4a2d-83e7-6ed722a41c26"},"vehicle_type_id":"4","last_reported":1746565761,"current_range_meters":16000,"station_id":"ce4bhjp2rcd13ifvqga0","pricing_plan_id":"cebpf4jnsgd1na2vs0mg"},{"bike_id":"4299d56b-86ca-4649-92be-f3e730bb6d61","system_id":"levelo_inurba_marseille","lat":43.30135,"lon":5.3986,"is_reserved":false,"is_disabled":false,"rental_uris":{"android":"levelo://app?vid=4299d56b-86ca-4649-92be-f3e730bb6d61","ios":"levelo://app?vid=4299d56b-86ca-4649-92be-f3e730bb6d61"},"vehicle_type_id":"4","last_reported":1746565761,"current_range_meters":16000,"station_id":"ce4bh0h2rcd13ifvqd40","pricing_plan_id":"cebpf4jnsgd1na2vs0mg"},{"bike_id":"858eaade-540f-4e6d-90c6-0b267365dd5c","system_id":"levelo_inurba_marseille","lat":43.27992,"lon":5.4002,"is_reserved":false,"is_disabled":false,"rental_uris":{"android":"levelo://app?vid=858eaade-540f-4e6d-90c6-0b267365dd5c","ios":"levelo://app?vid=858eaade-540f-4e6d-90c6-0b267365dd5c"},"vehicle_type_id":"4","last_reported":1746565761,"current_range_meters":16000,"station_id":"ce4bho92rcd13ifvqh4g","pricing_plan_id":"cebpf4jnsgd1na2vs0mg"},{"bike_id":"b02dd700-e1d0-4736-93d7-81d9f5d4b73b","system_id":"levelo_inurba_marseille","lat":43.25082,"lon":5.40348,"is_reserved":false,"is_disabled":false,"rental_uris":{"android":"levelo://app?vid=b02dd700-e1d0-4736-93d7-81d9f5d4b73b","ios":"levelo://app?vid=b02dd700-e1d0-4736-93d7-81d9f5d4b73b"},"vehicle_type_id":"4","last_reported":1746565761,"current_range_meters":16000,"station_id":"ce4bhlh2rcd13ifvqgig","pricing_plan_id":"cebpf4jnsgd1na2vs0mg"},{"bike_id":"387a6276-06fd-4748-9222-63df581f8ac6","system_id":"levelo_inurba_marseille","lat":43.29505,"lon":5.38591,"is_reserved":false,"is_disabled":true,"rental_uris":{"android":"levelo://app?vid=387a6276-06fd-4748-9222-63df581f8ac6","ios":"levelo://app?vid=387a6276-06fd-4748-9222-63df581f8ac6"},"vehicle_type_id":"4","last_reported":1746565761,"current_range_meters":16000,"station_id":"ce4bgih2rcd13ifvqba0","pricing_plan_id":"cebpf4jnsgd1na2vs0mg"},{"bike_id":"2714f713-c769-4f6a-ac44-441a635e9cba","system_id":"levelo_inurba_marseille","lat":43.21606,"lon":5.34225,"is_reserved":false,"is_disabled":false,"rental_uris":{"android":"levelo://app?vid=2714f713-c769-4f6a-ac44-441a635e9cba","ios":"levelo://app?vid=2714f713-c769-4f6a-ac44-441a635e9cba"},"vehicle_type_id":"4","last_reported":1746565761,"current_range_meters":16000,"station_id":"","pricing_plan_id":"cebpf4jnsgd1na2vs0mg"},{"bike_id":"73d0b20d-ee4e-4653-a323-e2f6442058ec","system_id":"levelo_inurba_marseille","lat":43.2979,"lon":5.39345,"is_reserved":false,"is_disabled":false,"rental_uris":{"android":"levelo://app?vid=73d0b20d-ee4e-4653-a323-e2f6442058ec","ios":"levelo://app?vid=73d0b20d-ee4e-4653-a323-e2f6442058ec"},"vehicle_type_id":"4","last_reported":1746565761,"current_range_meters":16000,"station_id":"chh1huq6cuj3fo74tm60","pricing_plan_id":"cebpf4jnsgd1na2vs0mg"},{"bike_id":"7a917c71-5842-4d65-ab75-d50cc46af138","system_id":"levelo_inurba_marseille","lat":43.281,"lon":5.37838,"is_reserved":false,"is_disabled":false,"rental_uris":{"android":"levelo://app?vid=7a917c71-5842-4d65-ab75-d50cc46af138","ios":"levelo://app?vid=7a917c71-5842-4d65-ab75-d50cc46af138"},"vehicle_type_id":"4","last_reported":1746565761,"current_range_meters":16000,"station_id":"ce4bha12rcd13ifvqee0","pricing_plan_id":"cebpf4jnsgd1na2vs0mg"},{"bike_id":"a7f21edc-9501-428c-a05a-f7e070a0f89c","system_id":"levelo_inurba_marseille","lat":43.29189,"lon":5.35805,"is_reserved":false,"is_disabled":false,"rental_uris":{"android":"levelo://app?vid=a7f21edc-9501-428c-a05a-f7e070a0f89c","ios":"levelo://app?vid=a7f21edc-9501-428c-a05a-f7e070a0f89c"},"vehicle_type_id":"4","last_reported":1746565761,"current_range_meters":16400,"station_id":"ce4bhb12rcd13ifvqel0","pricing_plan_id":"cebpf4jnsgd1na2vs0mg"},{"bike_id":"e2d95a62-27f2-483b-871e-05c84b46aaa8","system_id":"levelo_inurba_marseille","lat":43.30803,"lon":5.43525,"is_reserved":false,"is_disabled":false,"rental_uris":{"android":"levelo://app?vid=e2d95a62-27f2-483b-871e-05c84b46aaa8","ios":"levelo://app?vid=e2d95a62-27f2-483b-871e-05c84b46aaa8"},"vehicle_type_id":"4","last_reported":1746565761,"current_range_meters":16400,"station_id":"ce4bhph2rcd13ifvqheg","pricing_plan_id":"cebpf4jnsgd1na2vs0mg"},{"bike_id":"71e48244-0e9e-472c-97f4-fee8eab9f6eb","system_id":"levelo_inurba_marseille","lat":43.27069,"lon":5.422813,"is_reserved":false,"is_disabled":false,"rental_uris":{"android":"levelo://app?vid=71e48244-0e9e-472c-97f4-fee8eab9f6eb","ios":"levelo://app?vid=71e48244-0e9e-472c-97f4-fee8eab9f6eb"},"vehicle_type_id":"4","last_reported":1746565761,"current_range_meters":16400,"station_id":"ce4bhk92rcd13ifvqgb0","pricing_plan_id":"cebpf4jnsgd1na2vs0mg"},{"bike_id":"d929bb9e-9fd0-49ee-90b1-47710abb426f","system_id":"levelo_inurba_marseille","lat":43.3093,"lon":5.40146,"is_reserved":false,"is_disabled":false,"rental_uris":{"android":"levelo://app?vid=d929bb9e-9fd0-49ee-90b1-47710abb426f","ios":"levelo://app?vid=d929bb9e-9fd0-49ee-90b1-47710abb426f"},"vehicle_type_id":"4","last_reported":1746565761,"current_range_meters":16800,"station_id":"ce4bgvp2rcd13ifvqct0","pricing_plan_id":"cebpf4jnsgd1na2vs0mg"},{"bike_id":"935ae290-3d87-4f29-b368-3964bb52437d","system_id":"levelo_inurba_marseille","lat":43.25495,"lon":5.37647,"is_reserved":false,"is_disabled":false,"rental_uris":{"android":"levelo://app?vid=935ae290-3d87-4f29-b368-3964bb52437d","ios":"levelo://app?vid=935ae290-3d87-4f29-b368-3964bb52437d"},"vehicle_type_id":"4","last_reported":1746565761,"current_range_meters":16800,"station_id":"ce4bhh12rcd13ifvqff0","pricing_plan_id":"cebpf4jnsgd1na2vs0mg"},{"bike_id":"8846df0e-6229-4ff4-8b0f-0a168920729a","system_id":"levelo_inurba_marseille","lat":43.26228,"lon":5.40452,"is_reserved":false,"is_disabled":false,"rental_uris":{"android":"levelo://app?vid=8846df0e-6229-4ff4-8b0f-0a168920729a","ios":"levelo://app?vid=8846df0e-6229-4ff4-8b0f-0a168920729a"},"vehicle_type_id":"4","last_reported":1746565761,"current_range_meters":16800,"station_id":"ce4bhmh2rcd13ifvqgmg","pricing_plan_id":"cebpf4jnsgd1na2vs0mg"},{"bike_id":"56f87824-a042-4d54-b0f5-5ee34b50a738","system_id":"levelo_inurba_marseille","lat":43.30586,"lon":5.37198,"is_reserved":false,"is_disabled":false,"rental_uris":{"android":"levelo://app?vid=56f87824-a042-4d54-b0f5-5ee34b50a738","ios":"levelo://app?vid=56f87824-a042-4d54-b0f5-5ee34b50a738"},"vehicle_type_id":"4","last_reported":1746565761,"current_range_meters":16800,"station_id":"ce4bgqh2rcd13ifvqc4g","pricing_plan_id":"cebpf4jnsgd1na2vs0mg"},{"bike_id":"ef917956-24f1-4d87-b62a-1d10e1025e64","system_id":"levelo_inurba_marseille","lat":43.31332,"lon":5.39685,"is_reserved":false,"is_disabled":false,"rental_uris":{"android":"levelo://app?vid=ef917956-24f1-4d87-b62a-1d10e1025e64","ios":"levelo://app?vid=ef917956-24f1-4d87-b62a-1d10e1025e64"},"vehicle_type_id":"4","last_reported":1746565761,"current_range_meters":16800,"station_id":"ce4bgvp2rcd13ifvqcu0","pricing_plan_id":"cebpf4jnsgd1na2vs0mg"},{"bike_id":"8f25bd7a-6222-4b79-a3b2-03e7666fda2b","system_id":"levelo_inurba_marseille","lat":43.27976,"lon":5.40062,"is_reserved":false,"is_disabled":false,"rental_uris":{"android":"levelo://app?vid=8f25bd7a-6222-4b79-a3b2-03e7666fda2b","ios":"levelo://app?vid=8f25bd7a-6222-4b79-a3b2-03e7666fda2b"},"vehicle_type_id":"4","last_reported":1746565761,"current_range_meters":16800,"station_id":"ce4bho92rcd13ifvqh4g","pricing_plan_id":"cebpf4jnsgd1na2vs0mg"},{"bike_id":"99384b63-988c-4f51-9128-c6b177fc3d65","system_id":"levelo_inurba_marseille","lat":43.28702,"lon":5.37394,"is_reserved":false,"is_disabled":false,"rental_uris":{"android":"levelo://app?vid=99384b63-988c-4f51-9128-c6b177fc3d65","ios":"levelo://app?vid=99384b63-988c-4f51-9128-c6b177fc3d65"},"vehicle_type_id":"4","last_reported":1746565761,"current_range_meters":17200,"station_id":"ce4bh3p2rcd13ifvqdq0","pricing_plan_id":"cebpf4jnsgd1na2vs0mg"},{"bike_id":"ac700e2e-c129-4f82-a3c3-f628077933a6","system_id":"levelo_inurba_marseille","lat":43.21191,"lon":5.3507,"is_reserved":false,"is_disabled":false,"rental_uris":{"android":"levelo://app?vid=ac700e2e-c129-4f82-a3c3-f628077933a6","ios":"levelo://app?vid=ac700e2e-c129-4f82-a3c3-f628077933a6"},"vehicle_type_id":"4","last_reported":1746565761,"current_range_meters":17200,"station_id":"st_cvj6sg6p6f1abm77japg","pricing_plan_id":"cebpf4jnsgd1na2vs0mg"},{"bike_id":"06b0d7b1-b175-4d54-877f-46f59b0c932d","system_id":"levelo_inurba_marseille","lat":43.2809,"lon":5.37865,"is_reserved":false,"is_disabled":false,"rental_uris":{"android":"levelo://app?vid=06b0d7b1-b175-4d54-877f-46f59b0c932d","ios":"levelo://app?vid=06b0d7b1-b175-4d54-877f-46f59b0c932d"},"vehicle_type_id":"4","last_reported":1746565761,"current_range_meters":17200,"station_id":"ce4bha12rcd13ifvqee0","pricing_plan_id":"cebpf4jnsgd1na2vs0mg"},{"bike_id":"018b22ba-1028-4c1a-af8e-27874d3368a5","system_id":"levelo_inurba_marseille","lat":43.27565,"lon":5.38441,"is_reserved":false,"is_disabled":false,"rental_uris":{"android":"levelo://app?vid=018b22ba-1028-4c1a-af8e-27874d3368a5","ios":"levelo://app?vid=018b22ba-1028-4c1a-af8e-27874d3368a5"},"vehicle_type_id":"4","last_reported":1746565761,"current_range_meters":17200,"station_id":"ce4bhh92rcd13ifvqfi0","pricing_plan_id":"cebpf4jnsgd1na2vs0mg"},{"bike_id":"cad73dbd-538c-461e-8f5d-9f9cb63b32c3","system_id":"levelo_inurba_marseille","lat":43.21188,"lon":5.35067,"is_reserved":false,"is_disabled":true,"rental_uris":{"android":"levelo://app?vid=cad73dbd-538c-461e-8f5d-9f9cb63b32c3","ios":"levelo://app?vid=cad73dbd-538c-461e-8f5d-9f9cb63b32c3"},"vehicle_type_id":"4","last_reported":1746565761,"current_range_meters":17200,"station_id":"st_cvj6sg6p6f1abm77japg","pricing_plan_id":"cebpf4jnsgd1na2vs0mg"},{"bike_id":"f45321ad-a54b-404d-981b-802d3c9e0607","system_id":"levelo_inurba_marseille","lat":43.21206,"lon":5.35083,"is_reserved":false,"is_disabled":true,"rental_uris":{"android":"levelo://app?vid=f45321ad-a54b-404d-981b-802d3c9e0607","ios":"levelo://app?vid=f45321ad-a54b-404d-981b-802d3c9e0607"},"vehicle_type_id":"4","last_reported":1746565761,"current_range_meters":17600,"station_id":"st_cvj6sg6p6f1abm77japg","pricing_plan_id":"cebpf4jnsgd1na2vs0mg"},{"bike_id":"c044905a-9276-4403-a037-39adb827ffc7","system_id":"levelo_inurba_marseille","lat":43.28374,"lon":5.38621,"is_reserved":false,"is_disabled":false,"rental_uris":{"android":"levelo://app?vid=c044905a-9276-4403-a037-39adb827ffc7","ios":"levelo://app?vid=c044905a-9276-4403-a037-39adb827ffc7"},"vehicle_type_id":"4","last_reported":1746565761,"current_range_meters":17600,"station_id":"ce4bh492rcd13ifvqdvg","pricing_plan_id":"cebpf4jnsgd1na2vs0mg"},{"bike_id":"cb349f0e-4ffd-48c0-8e50-21cbad52f9e1","system_id":"levelo_inurba_marseille","lat":43.30438,"lon":5.38883,"is_reserved":false,"is_disabled":false,"rental_uris":{"android":"levelo://app?vid=cb349f0e-4ffd-48c0-8e50-21cbad52f9e1","ios":"levelo://app?vid=cb349f0e-4ffd-48c0-8e50-21cbad52f9e1"},"vehicle_type_id":"4","last_reported":1746565761,"current_range_meters":17600,"station_id":"ce4bgk12rcd13ifvqbi0","pricing_plan_id":"cebpf4jnsgd1na2vs0mg"},{"bike_id":"2d3705dd-b1ef-406f-9d4f-efae5a05e415","system_id":"levelo_inurba_marseille","lat":43.279677,"lon":5.387323,"is_reserved":false,"is_disabled":false,"rental_uris":{"android":"levelo://app?vid=2d3705dd-b1ef-406f-9d4f-efae5a05e415","ios":"levelo://app?vid=2d3705dd-b1ef-406f-9d4f-efae5a05e415"},"vehicle_type_id":"4","last_reported":1746565761,"current_range_meters":17600,"station_id":"ce4bhg12rcd13ifvqf80","pricing_plan_id":"cebpf4jnsgd1na2vs0mg"},{"bike_id":"4fa44a4d-c738-41bc-9022-213fbeae4065","system_id":"levelo_inurba_marseille","lat":43.23194,"lon":5.39978,"is_reserved":false,"is_disabled":false,"rental_uris":{"android":"levelo://app?vid=4fa44a4d-c738-41bc-9022-213fbeae4065","ios":"levelo://app?vid=4fa44a4d-c738-41bc-9022-213fbeae4065"},"vehicle_type_id":"4","last_reported":1746565761,"current_range_meters":17600,"station_id":"ce4bhn12rcd13ifvqgqg","pricing_plan_id":"cebpf4jnsgd1na2vs0mg"},{"bike_id":"471cbd73-1299-4815-b02f-1d135c1945e5","system_id":"levelo_inurba_marseille","lat":43.276753,"lon":5.388843,"is_reserved":false,"is_disabled":false,"rental_uris":{"android":"levelo://app?vid=471cbd73-1299-4815-b02f-1d135c1945e5","ios":"levelo://app?vid=471cbd73-1299-4815-b02f-1d135c1945e5"},"vehicle_type_id":"4","last_reported":1746565761,"current_range_meters":18000,"station_id":"ce4bhi12rcd13ifvqfo0","pricing_plan_id":"cebpf4jnsgd1na2vs0mg"},{"bike_id":"c04f1f01-2a47-431a-af55-a6a468cec929","system_id":"levelo_inurba_marseille","lat":43.29868,"lon":5.39724,"is_reserved":false,"is_disabled":false,"rental_uris":{"android":"levelo://app?vid=c04f1f01-2a47-431a-af55-a6a468cec929","ios":"levelo://app?vid=c04f1f01-2a47-431a-af55-a6a468cec929"},"vehicle_type_id":"4","last_reported":1746565761,"current_range_meters":17600,"station_id":"ce4bh0h2rcd13ifvqd50","pricing_plan_id":"cebpf4jnsgd1na2vs0mg"},{"bike_id":"6e8c60a6-263d-4a80-b22f-5fcc78c0e535","system_id":"levelo_inurba_marseille","lat":43.2828,"lon":5.35058,"is_reserved":false,"is_disabled":false,"rental_uris":{"android":"levelo://app?vid=6e8c60a6-263d-4a80-b22f-5fcc78c0e535","ios":"levelo://app?vid=6e8c60a6-263d-4a80-b22f-5fcc78c0e535"},"vehicle_type_id":"4","last_reported":1746565761,"current_range_meters":18000,"station_id":"ce4bhbp2rcd13ifvqerg","pricing_plan_id":"cebpf4jnsgd1na2vs0mg"},{"bike_id":"2219bbd0-95e5-45eb-9f51-892d1f2b9e9e","system_id":"levelo_inurba_marseille","lat":43.31083,"lon":5.42422,"is_reserved":false,"is_disabled":false,"rental_uris":{"android":"levelo://app?vid=2219bbd0-95e5-45eb-9f51-892d1f2b9e9e","ios":"levelo://app?vid=2219bbd0-95e5-45eb-9f51-892d1f2b9e9e"},"vehicle_type_id":"4","last_reported":1746565761,"current_range_meters":18000,"station_id":"ce4bhp92rcd13ifvqhag","pricing_plan_id":"cebpf4jnsgd1na2vs0mg"},{"bike_id":"f3aa0816-16c7-4ec8-afdb-e4fe86c51929","system_id":"levelo_inurba_marseille","lat":43.29032,"lon":5.39973,"is_reserved":false,"is_disabled":false,"rental_uris":{"android":"levelo://app?vid=f3aa0816-16c7-4ec8-afdb-e4fe86c51929","ios":"levelo://app?vid=f3aa0816-16c7-4ec8-afdb-e4fe86c51929"},"vehicle_type_id":"4","last_reported":1746565761,"current_range_meters":18000,"station_id":"ce4bh392rcd13ifvqdm0","pricing_plan_id":"cebpf4jnsgd1na2vs0mg"},{"bike_id":"6a430b53-75fd-49d6-a395-a7dee0b23663","system_id":"levelo_inurba_marseille","lat":43.30904,"lon":5.37196,"is_reserved":false,"is_disabled":false,"rental_uris":{"android":"levelo://app?vid=6a430b53-75fd-49d6-a395-a7dee0b23663","ios":"levelo://app?vid=6a430b53-75fd-49d6-a395-a7dee0b23663"},"vehicle_type_id":"4","last_reported":1746565761,"current_range_meters":18000,"station_id":"ce4bguh2rcd13ifvqckg","pricing_plan_id":"cebpf4jnsgd1na2vs0mg"},{"bike_id":"e2f89092-6b39-44e2-a724-51d27e949794","system_id":"levelo_inurba_marseille","lat":43.30142,"lon":5.37424,"is_reserved":false,"is_disabled":false,"rental_uris":{"android":"levelo://app?vid=e2f89092-6b39-44e2-a724-51d27e949794","ios":"levelo://app?vid=e2f89092-6b39-44e2-a724-51d27e949794"},"vehicle_type_id":"4","last_reported":1746565761,"current_range_meters":18000,"station_id":"ce4bgs92rcd13ifvqcc0","pricing_plan_id":"cebpf4jnsgd1na2vs0mg"},{"bike_id":"42370694-61cd-4632-a312-5b57714a75f9","system_id":"levelo_inurba_marseille","lat":43.28728,"lon":5.36082,"is_reserved":false,"is_disabled":false,"rental_uris":{"android":"levelo://app?vid=42370694-61cd-4632-a312-5b57714a75f9","ios":"levelo://app?vid=42370694-61cd-4632-a312-5b57714a75f9"},"vehicle_type_id":"4","last_reported":1746565761,"current_range_meters":18800,"station_id":"cki0cbj6b192h4jlfktg","pricing_plan_id":"cebpf4jnsgd1na2vs0mg"},{"bike_id":"5b7c813e-8a01-4cab-bedc-2fef8b455485","system_id":"levelo_inurba_marseille","lat":43.294328,"lon":5.385994,"is_reserved":false,"is_disabled":true,"rental_uris":{"android":"levelo://app?vid=5b7c813e-8a01-4cab-bedc-2fef8b455485","ios":"levelo://app?vid=5b7c813e-8a01-4cab-bedc-2fef8b455485"},"vehicle_type_id":"4","last_reported":1746565761,"current_range_meters":18800,"station_id":"ce4bh2h2rcd13ifvqdh0","pricing_plan_id":"cebpf4jnsgd1na2vs0mg"},{"bike_id":"86aac975-5efa-4471-b431-8ed509ade609","system_id":"levelo_inurba_marseille","lat":43.28619,"lon":5.35107,"is_reserved":false,"is_disabled":false,"rental_uris":{"android":"levelo://app?vid=86aac975-5efa-4471-b431-8ed509ade609","ios":"levelo://app?vid=86aac975-5efa-4471-b431-8ed509ade609"},"vehicle_type_id":"4","last_reported":1746565761,"current_range_meters":18800,"station_id":"ce4bhch2rcd13ifvqeug","pricing_plan_id":"cebpf4jnsgd1na2vs0mg"},{"bike_id":"fd76d4ca-f3ad-4fc8-b8d8-1513582aff5f","system_id":"levelo_inurba_marseille","lat":43.22919,"lon":5.35399,"is_reserved":false,"is_disabled":false,"rental_uris":{"android":"levelo://app?vid=fd76d4ca-f3ad-4fc8-b8d8-1513582aff5f","ios":"levelo://app?vid=fd76d4ca-f3ad-4fc8-b8d8-1513582aff5f"},"vehicle_type_id":"4","last_reported":1746565761,"current_range_meters":18800,"station_id":"cpo3532slgdg3j2ikp40","pricing_plan_id":"cebpf4jnsgd1na2vs0mg"},{"bike_id":"d65d0766-26cf-45c8-8f81-a8af52328a54","system_id":"levelo_inurba_marseille","lat":43.28703,"lon":5.39985,"is_reserved":false,"is_disabled":false,"rental_uris":{"android":"levelo://app?vid=d65d0766-26cf-45c8-8f81-a8af52328a54","ios":"levelo://app?vid=d65d0766-26cf-45c8-8f81-a8af52328a54"},"vehicle_type_id":"4","last_reported":1746565761,"current_range_meters":18800,"station_id":"ce4bho92rcd13ifvqh3g","pricing_plan_id":"cebpf4jnsgd1na2vs0mg"},{"bike_id":"f8a55aa0-b180-407f-a72f-43a80e62e337","system_id":"levelo_inurba_marseille","lat":43.29257,"lon":5.40902,"is_reserved":false,"is_disabled":false,"rental_uris":{"android":"levelo://app?vid=f8a55aa0-b180-407f-a72f-43a80e62e337","ios":"levelo://app?vid=f8a55aa0-b180-407f-a72f-43a80e62e337"},"vehicle_type_id":"4","last_reported":1746565761,"current_range_meters":19200,"station_id":"ce4bh192rcd13ifvqdc0","pricing_plan_id":"cebpf4jnsgd1na2vs0mg"},{"bike_id":"564a8559-e173-432a-8058-3f0f17fe689a","system_id":"levelo_inurba_marseille","lat":43.29437,"lon":5.39758,"is_reserved":false,"is_disabled":false,"rental_uris":{"android":"levelo://app?vid=564a8559-e173-432a-8058-3f0f17fe689a","ios":"levelo://app?vid=564a8559-e173-432a-8058-3f0f17fe689a"},"vehicle_type_id":"4","last_reported":1746565761,"current_range_meters":19200,"station_id":"ce4bh3h2rcd13ifvqdo0","pricing_plan_id":"cebpf4jnsgd1na2vs0mg"},{"bike_id":"70e9affb-ae2b-41a9-b8f4-5c105ea25fa4","system_id":"levelo_inurba_marseille","lat":43.33729,"lon":5.39181,"is_reserved":false,"is_disabled":false,"rental_uris":{"android":"levelo://app?vid=70e9affb-ae2b-41a9-b8f4-5c105ea25fa4","ios":"levelo://app?vid=70e9affb-ae2b-41a9-b8f4-5c105ea25fa4"},"vehicle_type_id":"4","last_reported":1746565761,"current_range_meters":19200,"station_id":"ce4bhr92rcd13ifvqhsg","pricing_plan_id":"cebpf4jnsgd1na2vs0mg"},{"bike_id":"034f535c-17b3-4796-a376-287b2ebee2bc","system_id":"levelo_inurba_marseille","lat":43.24673,"lon":5.38135,"is_reserved":false,"is_disabled":false,"rental_uris":{"android":"levelo://app?vid=034f535c-17b3-4796-a376-287b2ebee2bc","ios":"levelo://app?vid=034f535c-17b3-4796-a376-287b2ebee2bc"},"vehicle_type_id":"4","last_reported":1746565761,"current_range_meters":19200,"station_id":"ce4bhih2rcd13ifvqfr0","pricing_plan_id":"cebpf4jnsgd1na2vs0mg"},{"bike_id":"f1f28b0f-935b-4011-870d-90a14d44b714","system_id":"levelo_inurba_marseille","lat":43.25091,"lon":5.39524,"is_reserved":false,"is_disabled":false,"rental_uris":{"android":"levelo://app?vid=f1f28b0f-935b-4011-870d-90a14d44b714","ios":"levelo://app?vid=f1f28b0f-935b-4011-870d-90a14d44b714"},"vehicle_type_id":"4","last_reported":1746565761,"current_range_meters":19200,"station_id":"ce4bhm12rcd13ifvqgkg","pricing_plan_id":"cebpf4jnsgd1na2vs0mg"},{"bike_id":"0fdbe4f9-0490-4806-ac66-d09cbf3a66e6","system_id":"levelo_inurba_marseille","lat":43.2956,"lon":5.42292,"is_reserved":false,"is_disabled":false,"rental_uris":{"android":"levelo://app?vid=0fdbe4f9-0490-4806-ac66-d09cbf3a66e6","ios":"levelo://app?vid=0fdbe4f9-0490-4806-ac66-d09cbf3a66e6"},"vehicle_type_id":"4","last_reported":1746565761,"current_range_meters":19200,"station_id":"ce4bhph2rcd13ifvqhdg","pricing_plan_id":"cebpf4jnsgd1na2vs0mg"},{"bike_id":"9fea40ee-58e7-4f14-a0c1-ccf652d2f21c","system_id":"levelo_inurba_marseille","lat":43.26933,"lon":5.38922,"is_reserved":false,"is_disabled":false,"rental_uris":{"android":"levelo://app?vid=9fea40ee-58e7-4f14-a0c1-ccf652d2f21c","ios":"levelo://app?vid=9fea40ee-58e7-4f14-a0c1-ccf652d2f21c"},"vehicle_type_id":"4","last_reported":1746565761,"current_range_meters":19200,"station_id":"ce4bhhh2rcd13ifvqfl0","pricing_plan_id":"cebpf4jnsgd1na2vs0mg"},{"bike_id":"3488de24-d248-4ccb-be5b-0f7cd36a3f68","system_id":"levelo_inurba_marseille","lat":43.24667,"lon":5.3816,"is_reserved":false,"is_disabled":false,"rental_uris":{"android":"levelo://app?vid=3488de24-d248-4ccb-be5b-0f7cd36a3f68","ios":"levelo://app?vid=3488de24-d248-4ccb-be5b-0f7cd36a3f68"},"vehicle_type_id":"4","last_reported":1746565761,"current_range_meters":19600,"station_id":"ce4bhih2rcd13ifvqfr0","pricing_plan_id":"cebpf4jnsgd1na2vs0mg"},{"bike_id":"11abe94b-e85e-478a-9094-6d825b77d58b","system_id":"levelo_inurba_marseille","lat":43.32029,"lon":5.38096,"is_reserved":false,"is_disabled":false,"rental_uris":{"android":"levelo://app?vid=11abe94b-e85e-478a-9094-6d825b77d58b","ios":"levelo://app?vid=11abe94b-e85e-478a-9094-6d825b77d58b"},"vehicle_type_id":"4","last_reported":1746565761,"current_range_meters":19600,"station_id":"","pricing_plan_id":"cebpf4jnsgd1na2vs0mg"},{"bike_id":"7254baed-a185-47a1-ad5c-684a201e2779","system_id":"levelo_inurba_marseille","lat":43.30146,"lon":5.39848,"is_reserved":false,"is_disabled":false,"rental_uris":{"android":"levelo://app?vid=7254baed-a185-47a1-ad5c-684a201e2779","ios":"levelo://app?vid=7254baed-a185-47a1-ad5c-684a201e2779"},"vehicle_type_id":"4","last_reported":1746565761,"current_range_meters":19600,"station_id":"ce4bh0h2rcd13ifvqd40","pricing_plan_id":"cebpf4jnsgd1na2vs0mg"},{"bike_id":"2ee6d4ec-d50f-4d7b-aa06-d1b37f8d56d6","system_id":"levelo_inurba_marseille","lat":43.29928,"lon":5.38128,"is_reserved":false,"is_disabled":false,"rental_uris":{"android":"levelo://app?vid=2ee6d4ec-d50f-4d7b-aa06-d1b37f8d56d6","ios":"levelo://app?vid=2ee6d4ec-d50f-4d7b-aa06-d1b37f8d56d6"},"vehicle_type_id":"4","last_reported":1746565761,"current_range_meters":19600,"station_id":"","pricing_plan_id":"cebpf4jnsgd1na2vs0mg"},{"bike_id":"63af6f78-57d5-4f3d-9494-a6d72ff84dc1","system_id":"levelo_inurba_marseille","lat":43.211874,"lon":5.350743,"is_reserved":false,"is_disabled":false,"rental_uris":{"android":"levelo://app?vid=63af6f78-57d5-4f3d-9494-a6d72ff84dc1","ios":"levelo://app?vid=63af6f78-57d5-4f3d-9494-a6d72ff84dc1"},"vehicle_type_id":"4","last_reported":1746565761,"current_range_meters":20000,"station_id":"st_cvj6sg6p6f1abm77japg","pricing_plan_id":"cebpf4jnsgd1na2vs0mg"},{"bike_id":"dcb156cb-d9f2-4dc1-9364-38b7fa9ff290","system_id":"levelo_inurba_marseille","lat":43.32283,"lon":5.38267,"is_reserved":false,"is_disabled":false,"rental_uris":{"android":"levelo://app?vid=dcb156cb-d9f2-4dc1-9364-38b7fa9ff290","ios":"levelo://app?vid=dcb156cb-d9f2-4dc1-9364-38b7fa9ff290"},"vehicle_type_id":"4","last_reported":1746565761,"current_range_meters":20000,"station_id":"ce4bhr12rcd13ifvqhqg","pricing_plan_id":"cebpf4jnsgd1na2vs0mg"},{"bike_id":"2db7a061-9ece-4d97-9604-8fd51132bfdb","system_id":"levelo_inurba_marseille","lat":43.29039,"lon":5.37561,"is_reserved":false,"is_disabled":false,"rental_uris":{"android":"levelo://app?vid=2db7a061-9ece-4d97-9604-8fd51132bfdb","ios":"levelo://app?vid=2db7a061-9ece-4d97-9604-8fd51132bfdb"},"vehicle_type_id":"4","last_reported":1746565761,"current_range_meters":20000,"station_id":"ce4bh692rcd13ifvqe90","pricing_plan_id":"cebpf4jnsgd1na2vs0mg"},{"bike_id":"1899f93c-ba11-4eca-9275-d2c455d2f3ce","system_id":"levelo_inurba_marseille","lat":43.28945,"lon":5.36391,"is_reserved":false,"is_disabled":false,"rental_uris":{"android":"levelo://app?vid=1899f93c-ba11-4eca-9275-d2c455d2f3ce","ios":"levelo://app?vid=1899f93c-ba11-4eca-9275-d2c455d2f3ce"},"vehicle_type_id":"4","last_reported":1746565761,"current_range_meters":20000,"station_id":"ce4bhc92rcd13ifvqetg","pricing_plan_id":"cebpf4jnsgd1na2vs0mg"},{"bike_id":"c7105b3e-81f0-4cc5-a710-2e71caa60471","system_id":"levelo_inurba_marseille","lat":43.294318,"lon":5.397642,"is_reserved":false,"is_disabled":true,"rental_uris":{"android":"levelo://app?vid=c7105b3e-81f0-4cc5-a710-2e71caa60471","ios":"levelo://app?vid=c7105b3e-81f0-4cc5-a710-2e71caa60471"},"vehicle_type_id":"4","last_reported":1746565761,"current_range_meters":20000,"station_id":"ce4bh3h2rcd13ifvqdo0","pricing_plan_id":"cebpf4jnsgd1na2vs0mg"},{"bike_id":"5a59007c-5c25-4676-ad30-1d1e86dee16a","system_id":"levelo_inurba_marseille","lat":43.29419,"lon":5.38621,"is_reserved":false,"is_disabled":false,"rental_uris":{"android":"levelo://app?vid=5a59007c-5c25-4676-ad30-1d1e86dee16a","ios":"levelo://app?vid=5a59007c-5c25-4676-ad30-1d1e86dee16a"},"vehicle_type_id":"4","last_reported":1746565761,"current_range_meters":20000,"station_id":"ce4bh2h2rcd13ifvqdh0","pricing_plan_id":"cebpf4jnsgd1na2vs0mg"},{"bike_id":"835fa9be-4891-4d75-831a-8d8595ffb9f6","system_id":"levelo_inurba_marseille","lat":43.284063,"lon":5.375143,"is_reserved":false,"is_disabled":false,"rental_uris":{"android":"levelo://app?vid=835fa9be-4891-4d75-831a-8d8595ffb9f6","ios":"levelo://app?vid=835fa9be-4891-4d75-831a-8d8595ffb9f6"},"vehicle_type_id":"4","last_reported":1746565761,"current_range_meters":19600,"station_id":"ce4bh412rcd13ifvqds0","pricing_plan_id":"cebpf4jnsgd1na2vs0mg"},{"bike_id":"a54190a1-1d56-46b5-baf5-0ca213f0cff7","system_id":"levelo_inurba_marseille","lat":43.26952,"lon":5.38629,"is_reserved":false,"is_disabled":false,"rental_uris":{"android":"levelo://app?vid=a54190a1-1d56-46b5-baf5-0ca213f0cff7","ios":"levelo://app?vid=a54190a1-1d56-46b5-baf5-0ca213f0cff7"},"vehicle_type_id":"4","last_reported":1746565761,"current_range_meters":20400,"station_id":"ce4bhh92rcd13ifvqfh0","pricing_plan_id":"cebpf4jnsgd1na2vs0mg"},{"bike_id":"60689545-5d60-47bd-8c83-dfeb87ae92a6","system_id":"levelo_inurba_marseille","lat":43.230568,"lon":5.354916,"is_reserved":false,"is_disabled":false,"rental_uris":{"android":"levelo://app?vid=60689545-5d60-47bd-8c83-dfeb87ae92a6","ios":"levelo://app?vid=60689545-5d60-47bd-8c83-dfeb87ae92a6"},"vehicle_type_id":"4","last_reported":1746565761,"current_range_meters":20400,"station_id":"cpo3342slgdg3j2ifvpg","pricing_plan_id":"cebpf4jnsgd1na2vs0mg"},{"bike_id":"7198c8b7-9ba3-490a-9521-e3c72cf5c43b","system_id":"levelo_inurba_marseille","lat":43.308919,"lon":5.39673,"is_reserved":false,"is_disabled":false,"rental_uris":{"android":"levelo://app?vid=7198c8b7-9ba3-490a-9521-e3c72cf5c43b","ios":"levelo://app?vid=7198c8b7-9ba3-490a-9521-e3c72cf5c43b"},"vehicle_type_id":"4","last_reported":1746565761,"current_range_meters":20400,"station_id":"ce4bh012rcd13ifvqcv0","pricing_plan_id":"cebpf4jnsgd1na2vs0mg"},{"bike_id":"259f3af3-79c9-447f-9ddf-4ef9f2059b0b","system_id":"levelo_inurba_marseille","lat":43.28348,"lon":5.381098,"is_reserved":false,"is_disabled":false,"rental_uris":{"android":"levelo://app?vid=259f3af3-79c9-447f-9ddf-4ef9f2059b0b","ios":"levelo://app?vid=259f3af3-79c9-447f-9ddf-4ef9f2059b0b"},"vehicle_type_id":"4","last_reported":1746565761,"current_range_meters":20400,"station_id":"ce4bh412rcd13ifvqdr0","pricing_plan_id":"cebpf4jnsgd1na2vs0mg"},{"bike_id":"4a734033-5540-4dbe-af34-d701958d9d43","system_id":"levelo_inurba_marseille","lat":43.29792,"lon":5.39346,"is_reserved":false,"is_disabled":false,"rental_uris":{"android":"levelo://app?vid=4a734033-5540-4dbe-af34-d701958d9d43","ios":"levelo://app?vid=4a734033-5540-4dbe-af34-d701958d9d43"},"vehicle_type_id":"4","last_reported":1746565761,"current_range_meters":20400,"station_id":"chh1huq6cuj3fo74tm60","pricing_plan_id":"cebpf4jnsgd1na2vs0mg"},{"bike_id":"4d4a19f0-3f3c-4767-9a4d-275e0e20e723","system_id":"levelo_inurba_marseille","lat":43.29796,"lon":5.39337,"is_reserved":false,"is_disabled":false,"rental_uris":{"android":"levelo://app?vid=4d4a19f0-3f3c-4767-9a4d-275e0e20e723","ios":"levelo://app?vid=4d4a19f0-3f3c-4767-9a4d-275e0e20e723"},"vehicle_type_id":"4","last_reported":1746565761,"current_range_meters":20800,"station_id":"chh1huq6cuj3fo74tm60","pricing_plan_id":"cebpf4jnsgd1na2vs0mg"},{"bike_id":"0dcdba9e-6d9b-4136-ae35-4e95c62beb9c","system_id":"levelo_inurba_marseille","lat":43.27056,"lon":5.40259,"is_reserved":false,"is_disabled":false,"rental_uris":{"android":"levelo://app?vid=0dcdba9e-6d9b-4136-ae35-4e95c62beb9c","ios":"levelo://app?vid=0dcdba9e-6d9b-4136-ae35-4e95c62beb9c"},"vehicle_type_id":"4","last_reported":1746565761,"current_range_meters":20800,"station_id":"ce4bhk92rcd13ifvqgc0","pricing_plan_id":"cebpf4jnsgd1na2vs0mg"},{"bike_id":"d858c7a6-0131-4b62-8ddf-64cddfafb029","system_id":"levelo_inurba_marseille","lat":43.31318,"lon":5.39683,"is_reserved":false,"is_disabled":false,"rental_uris":{"android":"levelo://app?vid=d858c7a6-0131-4b62-8ddf-64cddfafb029","ios":"levelo://app?vid=d858c7a6-0131-4b62-8ddf-64cddfafb029"},"vehicle_type_id":"4","last_reported":1746565761,"current_range_meters":20800,"station_id":"ce4bgvp2rcd13ifvqcu0","pricing_plan_id":"cebpf4jnsgd1na2vs0mg"},{"bike_id":"685704cb-7552-464b-9299-0fe4cf8f724e","system_id":"levelo_inurba_marseille","lat":43.28663,"lon":5.36355,"is_reserved":false,"is_disabled":false,"rental_uris":{"android":"levelo://app?vid=685704cb-7552-464b-9299-0fe4cf8f724e","ios":"levelo://app?vid=685704cb-7552-464b-9299-0fe4cf8f724e"},"vehicle_type_id":"4","last_reported":1746565761,"current_range_meters":20800,"station_id":"ce4bhah2rcd13ifvqej0","pricing_plan_id":"cebpf4jnsgd1na2vs0mg"},{"bike_id":"5d5c641c-76e8-4f2b-8904-d98863a077d6","system_id":"levelo_inurba_marseille","lat":43.294272,"lon":5.386078,"is_reserved":false,"is_disabled":true,"rental_uris":{"android":"levelo://app?vid=5d5c641c-76e8-4f2b-8904-d98863a077d6","ios":"levelo://app?vid=5d5c641c-76e8-4f2b-8904-d98863a077d6"},"vehicle_type_id":"4","last_reported":1746565761,"current_range_meters":20800,"station_id":"ce4bh2h2rcd13ifvqdh0","pricing_plan_id":"cebpf4jnsgd1na2vs0mg"},{"bike_id":"ac731ba8-5c74-445c-96e3-809a421a1f19","system_id":"levelo_inurba_marseille","lat":43.31885,"lon":5.40739,"is_reserved":false,"is_disabled":false,"rental_uris":{"android":"levelo://app?vid=ac731ba8-5c74-445c-96e3-809a421a1f19","ios":"levelo://app?vid=ac731ba8-5c74-445c-96e3-809a421a1f19"},"vehicle_type_id":"4","last_reported":1746565761,"current_range_meters":20800,"station_id":"ce4bhq12rcd13ifvqhig","pricing_plan_id":"cebpf4jnsgd1na2vs0mg"},{"bike_id":"5fde9f8f-7bfd-45cd-99fd-4f6020eb1e3f","system_id":"levelo_inurba_marseille","lat":43.30812,"lon":5.43519,"is_reserved":false,"is_disabled":false,"rental_uris":{"android":"levelo://app?vid=5fde9f8f-7bfd-45cd-99fd-4f6020eb1e3f","ios":"levelo://app?vid=5fde9f8f-7bfd-45cd-99fd-4f6020eb1e3f"},"vehicle_type_id":"4","last_reported":1746565761,"current_range_meters":20800,"station_id":"ce4bhph2rcd13ifvqheg","pricing_plan_id":"cebpf4jnsgd1na2vs0mg"},{"bike_id":"83d663c2-a11b-42aa-90fd-446a7f4dd7a7","system_id":"levelo_inurba_marseille","lat":43.29058,"lon":5.35919,"is_reserved":false,"is_disabled":false,"rental_uris":{"android":"levelo://app?vid=83d663c2-a11b-42aa-90fd-446a7f4dd7a7","ios":"levelo://app?vid=83d663c2-a11b-42aa-90fd-446a7f4dd7a7"},"vehicle_type_id":"4","last_reported":1746565761,"current_range_meters":21600,"station_id":"ce4bha92rcd13ifvqeg0","pricing_plan_id":"cebpf4jnsgd1na2vs0mg"},{"bike_id":"d9460a93-d03a-4f86-b0a8-f4536e1168ba","system_id":"levelo_inurba_marseille","lat":43.28849,"lon":5.35834,"is_reserved":false,"is_disabled":false,"rental_uris":{"android":"levelo://app?vid=d9460a93-d03a-4f86-b0a8-f4536e1168ba","ios":"levelo://app?vid=d9460a93-d03a-4f86-b0a8-f4536e1168ba"},"vehicle_type_id":"4","last_reported":1746565761,"current_range_meters":21600,"station_id":"ce4bhb12rcd13ifvqem0","pricing_plan_id":"cebpf4jnsgd1na2vs0mg"},{"bike_id":"005bc6b8-b6d5-4c37-b033-b624e03877f2","system_id":"levelo_inurba_marseille","lat":43.29995,"lon":5.37148,"is_reserved":false,"is_disabled":false,"rental_uris":{"android":"levelo://app?vid=005bc6b8-b6d5-4c37-b033-b624e03877f2","ios":"levelo://app?vid=005bc6b8-b6d5-4c37-b033-b624e03877f2"},"vehicle_type_id":"4","last_reported":1746565761,"current_range_meters":21600,"station_id":"ce4bgr92rcd13ifvqc7g","pricing_plan_id":"cebpf4jnsgd1na2vs0mg"},{"bike_id":"81245349-092f-4aaf-a908-4b656a270d55","system_id":"levelo_inurba_marseille","lat":43.30126,"lon":5.39861,"is_reserved":false,"is_disabled":false,"rental_uris":{"android":"levelo://app?vid=81245349-092f-4aaf-a908-4b656a270d55","ios":"levelo://app?vid=81245349-092f-4aaf-a908-4b656a270d55"},"vehicle_type_id":"4","last_reported":1746565761,"current_range_meters":21600,"station_id":"ce4bh0h2rcd13ifvqd40","pricing_plan_id":"cebpf4jnsgd1na2vs0mg"},{"bike_id":"b3946e53-8dbe-44a6-8f27-63fcb1d1ba74","system_id":"levelo_inurba_marseille","lat":43.30906,"lon":5.37186,"is_reserved":false,"is_disabled":false,"rental_uris":{"android":"levelo://app?vid=b3946e53-8dbe-44a6-8f27-63fcb1d1ba74","ios":"levelo://app?vid=b3946e53-8dbe-44a6-8f27-63fcb1d1ba74"},"vehicle_type_id":"4","last_reported":1746565761,"current_range_meters":21600,"station_id":"ce4bguh2rcd13ifvqckg","pricing_plan_id":"cebpf4jnsgd1na2vs0mg"},{"bike_id":"ef4bb3d9-2433-4c2f-b330-f7e1d9340a0e","system_id":"levelo_inurba_marseille","lat":43.31166,"lon":5.38727,"is_reserved":false,"is_disabled":false,"rental_uris":{"android":"levelo://app?vid=ef4bb3d9-2433-4c2f-b330-f7e1d9340a0e","ios":"levelo://app?vid=ef4bb3d9-2433-4c2f-b330-f7e1d9340a0e"},"vehicle_type_id":"4","last_reported":1746565761,"current_range_meters":20800,"station_id":"ce4bgv12rcd13ifvqcp0","pricing_plan_id":"cebpf4jnsgd1na2vs0mg"},{"bike_id":"d0af721c-4d1a-4f32-a6f7-a4b513470686","system_id":"levelo_inurba_marseille","lat":43.30649,"lon":5.40095,"is_reserved":false,"is_disabled":false,"rental_uris":{"android":"levelo://app?vid=d0af721c-4d1a-4f32-a6f7-a4b513470686","ios":"levelo://app?vid=d0af721c-4d1a-4f32-a6f7-a4b513470686"},"vehicle_type_id":"4","last_reported":1746565761,"current_range_meters":22000,"station_id":"ce4bh112rcd13ifvqda0","pricing_plan_id":"cebpf4jnsgd1na2vs0mg"},{"bike_id":"d5100ce8-dc7c-4305-896a-12a1cb76d6ad","system_id":"levelo_inurba_marseille","lat":43.29913,"lon":5.39753,"is_reserved":false,"is_disabled":false,"rental_uris":{"android":"levelo://app?vid=d5100ce8-dc7c-4305-896a-12a1cb76d6ad","ios":"levelo://app?vid=d5100ce8-dc7c-4305-896a-12a1cb76d6ad"},"vehicle_type_id":"4","last_reported":1746565761,"current_range_meters":22000,"station_id":"ce4bh0h2rcd13ifvqd50","pricing_plan_id":"cebpf4jnsgd1na2vs0mg"},{"bike_id":"8458efce-0c2b-4a47-882f-6a6c0ea88d73","system_id":"levelo_inurba_marseille","lat":43.29863,"lon":5.38914,"is_reserved":false,"is_disabled":true,"rental_uris":{"android":"levelo://app?vid=8458efce-0c2b-4a47-882f-6a6c0ea88d73","ios":"levelo://app?vid=8458efce-0c2b-4a47-882f-6a6c0ea88d73"},"vehicle_type_id":"4","last_reported":1746565761,"current_range_meters":22000,"station_id":"ce4bh392rcd13ifvqdl0","pricing_plan_id":"cebpf4jnsgd1na2vs0mg"},{"bike_id":"3edf938a-ff9b-4773-8c34-fefa98a0a01d","system_id":"levelo_inurba_marseille","lat":43.30794,"lon":5.3765,"is_reserved":false,"is_disabled":false,"rental_uris":{"android":"levelo://app?vid=3edf938a-ff9b-4773-8c34-fefa98a0a01d","ios":"levelo://app?vid=3edf938a-ff9b-4773-8c34-fefa98a0a01d"},"vehicle_type_id":"4","last_reported":1746565761,"current_range_meters":22000,"station_id":"ce4bgv92rcd13ifvqcq0","pricing_plan_id":"cebpf4jnsgd1na2vs0mg"},{"bike_id":"69c1bbf5-d3aa-42db-a38e-5b634c671ee3","system_id":"levelo_inurba_marseille","lat":43.27441,"lon":5.39408,"is_reserved":false,"is_disabled":false,"rental_uris":{"android":"levelo://app?vid=69c1bbf5-d3aa-42db-a38e-5b634c671ee3","ios":"levelo://app?vid=69c1bbf5-d3aa-42db-a38e-5b634c671ee3"},"vehicle_type_id":"4","last_reported":1746565761,"current_range_meters":20800,"station_id":"ce4bhdp2rcd13ifvqf20","pricing_plan_id":"cebpf4jnsgd1na2vs0mg"},{"bike_id":"e59eba90-f9cb-4e90-bc33-bd1f3c14fa0e","system_id":"levelo_inurba_marseille","lat":43.28458,"lon":5.35895,"is_reserved":false,"is_disabled":false,"rental_uris":{"android":"levelo://app?vid=e59eba90-f9cb-4e90-bc33-bd1f3c14fa0e","ios":"levelo://app?vid=e59eba90-f9cb-4e90-bc33-bd1f3c14fa0e"},"vehicle_type_id":"4","last_reported":1746565761,"current_range_meters":22000,"station_id":"ce4bhah2rcd13ifvqei0","pricing_plan_id":"cebpf4jnsgd1na2vs0mg"},{"bike_id":"f8f5d34f-6ccd-4c20-8e98-c71db3e6a2c7","system_id":"levelo_inurba_marseille","lat":43.306,"lon":5.37224,"is_reserved":false,"is_disabled":false,"rental_uris":{"android":"levelo://app?vid=f8f5d34f-6ccd-4c20-8e98-c71db3e6a2c7","ios":"levelo://app?vid=f8f5d34f-6ccd-4c20-8e98-c71db3e6a2c7"},"vehicle_type_id":"4","last_reported":1746565761,"current_range_meters":22400,"station_id":"ce4bgqh2rcd13ifvqc4g","pricing_plan_id":"cebpf4jnsgd1na2vs0mg"},{"bike_id":"8afa21a8-d8a4-4bf7-868e-605bb75db5cd","system_id":"levelo_inurba_marseille","lat":43.30433,"lon":5.38888,"is_reserved":false,"is_disabled":false,"rental_uris":{"android":"levelo://app?vid=8afa21a8-d8a4-4bf7-868e-605bb75db5cd","ios":"levelo://app?vid=8afa21a8-d8a4-4bf7-868e-605bb75db5cd"},"vehicle_type_id":"4","last_reported":1746565761,"current_range_meters":22400,"station_id":"ce4bgk12rcd13ifvqbi0","pricing_plan_id":"cebpf4jnsgd1na2vs0mg"},{"bike_id":"e8461d32-97a3-46df-bca7-513439d65118","system_id":"levelo_inurba_marseille","lat":43.28277,"lon":5.35061,"is_reserved":false,"is_disabled":false,"rental_uris":{"android":"levelo://app?vid=e8461d32-97a3-46df-bca7-513439d65118","ios":"levelo://app?vid=e8461d32-97a3-46df-bca7-513439d65118"},"vehicle_type_id":"4","last_reported":1746565761,"current_range_meters":22400,"station_id":"ce4bhbp2rcd13ifvqerg","pricing_plan_id":"cebpf4jnsgd1na2vs0mg"},{"bike_id":"04e54ba0-5fea-4083-b676-1ec16a471605","system_id":"levelo_inurba_marseille","lat":43.24811,"lon":5.37453,"is_reserved":false,"is_disabled":true,"rental_uris":{"android":"levelo://app?vid=04e54ba0-5fea-4083-b676-1ec16a471605","ios":"levelo://app?vid=04e54ba0-5fea-4083-b676-1ec16a471605"},"vehicle_type_id":"4","last_reported":1746565761,"current_range_meters":22400,"station_id":"ce4bhgh2rcd13ifvqfb0","pricing_plan_id":"cebpf4jnsgd1na2vs0mg"},{"bike_id":"a34495f2-1f95-4bb9-a540-92d3e34f5535","system_id":"levelo_inurba_marseille","lat":43.29478,"lon":5.39823,"is_reserved":false,"is_disabled":false,"rental_uris":{"android":"levelo://app?vid=a34495f2-1f95-4bb9-a540-92d3e34f5535","ios":"levelo://app?vid=a34495f2-1f95-4bb9-a540-92d3e34f5535"},"vehicle_type_id":"4","last_reported":1746565761,"current_range_meters":22000,"station_id":"ce4bh312rcd13ifvqdj0","pricing_plan_id":"cebpf4jnsgd1na2vs0mg"},{"bike_id":"4c70e0a9-dd2e-4dd7-806b-62d4d7a7949d","system_id":"levelo_inurba_marseille","lat":43.29536,"lon":5.39034,"is_reserved":false,"is_disabled":true,"rental_uris":{"android":"levelo://app?vid=4c70e0a9-dd2e-4dd7-806b-62d4d7a7949d","ios":"levelo://app?vid=4c70e0a9-dd2e-4dd7-806b-62d4d7a7949d"},"vehicle_type_id":"4","last_reported":1746565761,"current_range_meters":22000,"station_id":"ce4bh3p2rcd13ifvqdp0","pricing_plan_id":"cebpf4jnsgd1na2vs0mg"},{"bike_id":"908e51cf-859a-4c2d-98f5-b265648c251e","system_id":"levelo_inurba_marseille","lat":43.30434,"lon":5.3889,"is_reserved":false,"is_disabled":false,"rental_uris":{"android":"levelo://app?vid=908e51cf-859a-4c2d-98f5-b265648c251e","ios":"levelo://app?vid=908e51cf-859a-4c2d-98f5-b265648c251e"},"vehicle_type_id":"4","last_reported":1746565761,"current_range_meters":22400,"station_id":"ce4bgk12rcd13ifvqbi0","pricing_plan_id":"cebpf4jnsgd1na2vs0mg"},{"bike_id":"5b517524-63dc-42f8-a114-1e7eca769e72","system_id":"levelo_inurba_marseille","lat":43.29803,"lon":5.39334,"is_reserved":false,"is_disabled":false,"rental_uris":{"android":"levelo://app?vid=5b517524-63dc-42f8-a114-1e7eca769e72","ios":"levelo://app?vid=5b517524-63dc-42f8-a114-1e7eca769e72"},"vehicle_type_id":"4","last_reported":1746565761,"current_range_meters":22800,"station_id":"chh1huq6cuj3fo74tm60","pricing_plan_id":"cebpf4jnsgd1na2vs0mg"},{"bike_id":"0979447d-5079-43c7-89ae-867ea4b6aa61","system_id":"levelo_inurba_marseille","lat":43.3082,"lon":5.37612,"is_reserved":false,"is_disabled":false,"rental_uris":{"android":"levelo://app?vid=0979447d-5079-43c7-89ae-867ea4b6aa61","ios":"levelo://app?vid=0979447d-5079-43c7-89ae-867ea4b6aa61"},"vehicle_type_id":"4","last_reported":1746565761,"current_range_meters":22800,"station_id":"ce4bgv92rcd13ifvqcq0","pricing_plan_id":"cebpf4jnsgd1na2vs0mg"},{"bike_id":"c8a03e4d-b60b-44cb-a7af-cc0d50e4111f","system_id":"levelo_inurba_marseille","lat":43.30551,"lon":5.38414,"is_reserved":false,"is_disabled":false,"rental_uris":{"android":"levelo://app?vid=c8a03e4d-b60b-44cb-a7af-cc0d50e4111f","ios":"levelo://app?vid=c8a03e4d-b60b-44cb-a7af-cc0d50e4111f"},"vehicle_type_id":"4","last_reported":1746565761,"current_range_meters":22800,"station_id":"ce4bgg92rcd13ifvqb30","pricing_plan_id":"cebpf4jnsgd1na2vs0mg"},{"bike_id":"0f7a0e0f-57cc-4ed6-a5c9-3fe516e08bf6","system_id":"levelo_inurba_marseille","lat":43.27947,"lon":5.410477,"is_reserved":false,"is_disabled":false,"rental_uris":{"android":"levelo://app?vid=0f7a0e0f-57cc-4ed6-a5c9-3fe516e08bf6","ios":"levelo://app?vid=0f7a0e0f-57cc-4ed6-a5c9-3fe516e08bf6"},"vehicle_type_id":"4","last_reported":1746565761,"current_range_meters":22800,"station_id":"ce4bhnp2rcd13ifvqh0g","pricing_plan_id":"cebpf4jnsgd1na2vs0mg"},{"bike_id":"00cb75e2-d5d3-4c86-a9d4-326632597a8c","system_id":"levelo_inurba_marseille","lat":43.29972,"lon":5.3718,"is_reserved":false,"is_disabled":false,"rental_uris":{"android":"levelo://app?vid=00cb75e2-d5d3-4c86-a9d4-326632597a8c","ios":"levelo://app?vid=00cb75e2-d5d3-4c86-a9d4-326632597a8c"},"vehicle_type_id":"4","last_reported":1746565761,"current_range_meters":23200,"station_id":"ce4bgr92rcd13ifvqc7g","pricing_plan_id":"cebpf4jnsgd1na2vs0mg"},{"bike_id":"68e79dbd-c0ba-4570-bd6f-7be0206f4e2f","system_id":"levelo_inurba_marseille","lat":43.28333,"lon":5.38114,"is_reserved":false,"is_disabled":false,"rental_uris":{"android":"levelo://app?vid=68e79dbd-c0ba-4570-bd6f-7be0206f4e2f","ios":"levelo://app?vid=68e79dbd-c0ba-4570-bd6f-7be0206f4e2f"},"vehicle_type_id":"4","last_reported":1746565761,"current_range_meters":23200,"station_id":"ce4bh412rcd13ifvqdr0","pricing_plan_id":"cebpf4jnsgd1na2vs0mg"},{"bike_id":"7e450b57-8cdc-4dbc-8780-1123f3427ded","system_id":"levelo_inurba_marseille","lat":43.24647,"lon":5.38896,"is_reserved":false,"is_disabled":false,"rental_uris":{"android":"levelo://app?vid=7e450b57-8cdc-4dbc-8780-1123f3427ded","ios":"levelo://app?vid=7e450b57-8cdc-4dbc-8780-1123f3427ded"},"vehicle_type_id":"4","last_reported":1746565761,"current_range_meters":23200,"station_id":"ce4bhg12rcd13ifvqf60","pricing_plan_id":"cebpf4jnsgd1na2vs0mg"},{"bike_id":"4eef3890-f2ed-45dd-9785-2c7ccded5f90","system_id":"levelo_inurba_marseille","lat":43.24663,"lon":5.38152,"is_reserved":false,"is_disabled":false,"rental_uris":{"android":"levelo://app?vid=4eef3890-f2ed-45dd-9785-2c7ccded5f90","ios":"levelo://app?vid=4eef3890-f2ed-45dd-9785-2c7ccded5f90"},"vehicle_type_id":"4","last_reported":1746565761,"current_range_meters":23200,"station_id":"ce4bhih2rcd13ifvqfr0","pricing_plan_id":"cebpf4jnsgd1na2vs0mg"},{"bike_id":"d6256f8b-762b-4c3c-abf0-da6fff587491","system_id":"levelo_inurba_marseille","lat":43.28461,"lon":5.35889,"is_reserved":false,"is_disabled":false,"rental_uris":{"android":"levelo://app?vid=d6256f8b-762b-4c3c-abf0-da6fff587491","ios":"levelo://app?vid=d6256f8b-762b-4c3c-abf0-da6fff587491"},"vehicle_type_id":"4","last_reported":1746565761,"current_range_meters":23200,"station_id":"ce4bhah2rcd13ifvqei0","pricing_plan_id":"cebpf4jnsgd1na2vs0mg"},{"bike_id":"be14af02-7701-4605-b2d6-5fd0439029d8","system_id":"levelo_inurba_marseille","lat":43.211984,"lon":5.350726,"is_reserved":false,"is_disabled":false,"rental_uris":{"android":"levelo://app?vid=be14af02-7701-4605-b2d6-5fd0439029d8","ios":"levelo://app?vid=be14af02-7701-4605-b2d6-5fd0439029d8"},"vehicle_type_id":"4","last_reported":1746565761,"current_range_meters":23200,"station_id":"st_cvj6sg6p6f1abm77japg","pricing_plan_id":"cebpf4jnsgd1na2vs0mg"},