{"last_updated":1758571896,"ttl":60,"version":"2.2","data":{"bikes":[{"bike_id":"80689694-3fb8-416a-b032-3c4f6e193a48","system_id":"levelo_inurba_marseille","lat":43.29626,"lon":5.37724,"is_reserved":false,"is_disabled":false,"rental_uris":{"android":"levelo://app?vid=80689694-3fb8-416a-b032-3c4f6e193a48","ios":"levelo://app?vid=80689694-3fb8-416a-b032-3c4f6e193a48"},"vehicle_type_id":"4","last_reported":1758571896,"current_range_meters":2000,"station_id":"ce4bgi92rcd13ifvqb90","pricing_plan_id":"cebpf4jnsgd1na2vs0mg"},{"bike_id":"5b8373bb-23a9-4e3a-a648-8f59583a1e38","system_id":"levelo_inurba_marseille","lat":43.24925,"lon":5.39036,"is_reserved":false,"is_disabled":true,"rental_uris":{"android":"levelo://app?vid=5b8373bb-23a9-4e3a-a648-8f59583a1e38","ios":"levelo://app?vid=5b8373bb-23a9-4e3a-a648-8f59583a1e38"},"vehicle_type_id":"4","last_reported":1758571896,"current_range_meters":2800,"station_id":"","pricing_plan_id":"cebpf4jnsgd1na2vs0mg"},{"bike_id":"0f7caa9f-1d1a-40d7-9b4a-2f8720e63681","system_id":"levelo_inurba_marseille","lat":43.30831,"lon":5.37582,"is_reserved":false,"is_disabled":false,"rental_uris":{"android":"levelo://app?vid=0f7caa9f-1d1a-40d7-9b4a-2f8720e63681","ios":"levelo://app?vid=0f7caa9f-1d1a-40d7-9b4a-2f8720e63681"},"vehicle_type_id":"4","last_reported":1758571896,"current_range_meters":3200,"station_id":"","pricing_plan_id":"cebpf4jnsgd1na2vs0mg"},{"bike_id":"b32633c9-7221-4b52-9ca6-9f25e5346370","system_id":"levelo_inurba_marseille","lat":43.33604,"lon":5.40988,"is_reserved":false,"is_disabled":true,"rental_uris":{"android":"levelo://app?vid=b32633c9-7221-4b52-9ca6-9f25e5346370","ios":"levelo://app?vid=b32633c9-7221-4b52-9ca6-9f25e5346370"},"vehicle_type_id":"4","last_reported":1758571896,"current_range_meters":3200,"station_id":"ce4bhqh2rcd13ifvqhmg","pricing_plan_id":"cebpf4jnsgd1na2vs0mg"},{"bike_id":"08404615-e260-483b-89da-e7a437eb1bba","system_id":"levelo_inurba_marseille","lat":43.27949,"lon":5.41051,"is_reserved":false,"is_disabled":true,"rental_uris":{"android":"levelo://app?vid=08404615-e260-483b-89da-e7a437eb1bba","ios":"levelo://app?vid=08404615-e260-483b-89da-e7a437eb1bba"},"vehicle_type_id":"4","last_reported":1758571896,"current_range_meters":3600,"station_id":"ce4bhnp2rcd13ifvqh0g","pricing_plan_id":"cebpf4jnsgd1na2vs0mg"},{"bike_id":"6de0645d-67d1-4ecb-9bb6-cc7778ffe631","system_id":"levelo_inurba_marseille","lat":43.29424,"lon":5.39763,"is_reserved":false,"is_disabled":false,"rental_uris":{"android":"levelo://app?vid=6de0645d-67d1-4ecb-9bb6-cc7778ffe631","ios":"levelo://app?vid=6de0645d-67d1-4ecb-9bb6-cc7778ffe631"},"vehicle_type_id":"4","last_reported":1758571896,"current_range_meters":9200,"station_id":"ce4bh3h2rcd13ifvqdo0","pricing_plan_id":"cebpf4jnsgd1na2vs0mg"},{"bike_id":"a07a513e-e5a9-4481-8592-d991379bc662","system_id":"levelo_inurba_marseille","lat":43.337536,"lon":5.374536,"is_reserved":false,"is_disabled":false,"rental_uris":{"android":"levelo://app?vid=a07a513e-e5a9-4481-8592-d991379bc662","ios":"levelo://app?vid=a07a513e-e5a9-4481-8592-d991379bc662"},"vehicle_type_id":"4","last_reported":1758571896,"current_range_meters":4000,"station_id":"","pricing_plan_id":"cebpf4jnsgd1na2vs0mg"},{"bike_id":"a384e17d-9ccb-4328-a2ed-c9ade6fd8452","system_id":"levelo_inurba_marseille","lat":43.31124,"lon":5.3777,"is_reserved":false,"is_disabled":false,"rental_uris":{"android":"levelo://app?vid=a384e17d-9ccb-4328-a2ed-c9ade6fd8452","ios":"levelo://app?vid=a384e17d-9ccb-4328-a2ed-c9ade6fd8452"},"vehicle_type_id":"4","last_reported":1758571896,"current_range_meters":4400,"station_id":"ce4bgt92rcd13ifvqcg0","pricing_plan_id":"cebpf4jnsgd1na2vs0mg"},{"bike_id":"4db4070e-cf03-49a9-a7c0-ef627f701519","system_id":"levelo_inurba_marseille","lat":43.25116,"lon":5.40319,"is_reserved":false,"is_disabled":false,"rental_uris":{"android":"levelo://app?vid=4db4070e-cf03-49a9-a7c0-ef627f701519","ios":"levelo://app?vid=4db4070e-cf03-49a9-a7c0-ef627f701519"},"vehicle_type_id":"4","last_reported":1758571896,"current_range_meters":4800,"station_id":"ce4bhlh2rcd13ifvqgig","pricing_plan_id":"cebpf4jnsgd1na2vs0mg"},{"bike_id":"7dca2b31-2cda-4578-88f1-8a7409a051a1","system_id":"levelo_inurba_marseille","lat":43.3033,"lon":5.40429,"is_reserved":false,"is_disabled":false,"rental_uris":{"android":"levelo://app?vid=7dca2b31-2cda-4578-88f1-8a7409a051a1","ios":"levelo://app?vid=7dca2b31-2cda-4578-88f1-8a7409a051a1"},"vehicle_type_id":"4","last_reported":1758571896,"current_range_meters":5600,"station_id":"ce4bh012rcd13ifvqd10","pricing_plan_id":"cebpf4jnsgd1na2vs0mg"},{"bike_id":"2289a0ff-9c3e-4f79-ad38-4b41158d6057","system_id":"levelo_inurba_marseille","lat":43.29882,"lon":5.37911,"is_reserved":false,"is_disabled":false,"rental_uris":{"android":"levelo://app?vid=2289a0ff-9c3e-4f79-ad38-4b41158d6057","ios":"levelo://app?vid=2289a0ff-9c3e-4f79-ad38-4b41158d6057"},"vehicle_type_id":"4","last_reported":1758571896,"current_range_meters":5600,"station_id":"","pricing_plan_id":"cebpf4jnsgd1na2vs0mg"},{"bike_id":"55d1bc08-fd54-4a82-afc7-2adcaa7b1c4e","system_id":"levelo_inurba_marseille","lat":43.30042,"lon":5.37695,"is_reserved":false,"is_disabled":false,"rental_uris":{"android":"levelo://app?vid=55d1bc08-fd54-4a82-afc7-2adcaa7b1c4e","ios":"levelo://app?vid=55d1bc08-fd54-4a82-afc7-2adcaa7b1c4e"},"vehicle_type_id":"4","last_reported":1758571896,"current_range_meters":5600,"station_id":"","pricing_plan_id":"cebpf4jnsgd1na2vs0mg"},{"bike_id":"cbd74ae9-65b6-4a34-93a0-72bcf59add15","system_id":"levelo_inurba_marseille","lat":43.28939,"lon":5.38378,"is_reserved":false,"is_disabled":false,"rental_uris":{"android":"levelo://app?vid=cbd74ae9-65b6-4a34-93a0-72bcf59add15","ios":"levelo://app?vid=cbd74ae9-65b6-4a34-93a0-72bcf59add15"},"vehicle_type_id":"4","last_reported":1758571896,"current_range_meters":6000,"station_id":"ce4bh612rcd13ifvqe6g","pricing_plan_id":"cebpf4jnsgd1na2vs0mg"},{"bike_id":"31b71878-1476-4553-ae0c-38b8ce3416b3","system_id":"levelo_inurba_marseille","lat":43.2929,"lon":5.40118,"is_reserved":false,"is_disabled":false,"rental_uris":{"android":"levelo://app?vid=31b71878-1476-4553-ae0c-38b8ce3416b3","ios":"levelo://app?vid=31b71878-1476-4553-ae0c-38b8ce3416b3"},"vehicle_type_id":"4","last_reported":1758571896,"current_range_meters":6000,"station_id":"ce4bh312rcd13ifvqdk0","pricing_plan_id":"cebpf4jnsgd1na2vs0mg"},{"bike_id":"0ad5c6a5-8b05-4faa-8590-609348c11288","system_id":"levelo_inurba_marseille","lat":43.27846,"lon":5.40725,"is_reserved":false,"is_disabled":true,"rental_uris":{"android":"levelo://app?vid=0ad5c6a5-8b05-4faa-8590-609348c11288","ios":"levelo://app?vid=0ad5c6a5-8b05-4faa-8590-609348c11288"},"vehicle_type_id":"4","last_reported":1758571896,"current_range_meters":6400,"station_id":"ce4bhnh2rcd13ifvqgtg","pricing_plan_id":"cebpf4jnsgd1na2vs0mg"},{"bike_id":"68adab37-f5ad-4072-b58a-fe6c68285ca6","system_id":"levelo_inurba_marseille","lat":43.30603,"lon":5.37658,"is_reserved":false,"is_disabled":false,"rental_uris":{"android":"levelo://app?vid=68adab37-f5ad-4072-b58a-fe6c68285ca6","ios":"levelo://app?vid=68adab37-f5ad-4072-b58a-fe6c68285ca6"},"vehicle_type_id":"4","last_reported":1758571896,"current_range_meters":6400,"station_id":"","pricing_plan_id":"cebpf4jnsgd1na2vs0mg"},{"bike_id":"4f4e1fc2-7249-4b7a-8e66-ae93c261ced8","system_id":"levelo_inurba_marseille","lat":43.33772,"lon":5.374365,"is_reserved":false,"is_disabled":false,"rental_uris":{"android":"levelo://app?vid=4f4e1fc2-7249-4b7a-8e66-ae93c261ced8","ios":"levelo://app?vid=4f4e1fc2-7249-4b7a-8e66-ae93c261ced8"},"vehicle_type_id":"4","last_reported":1758571896,"current_range_meters":6400,"station_id":"","pricing_plan_id":"cebpf4jnsgd1na2vs0mg"},{"bike_id":"6ccbc8e0-0561-4783-9564-ec0e6e4c4497","system_id":"levelo_inurba_marseille","lat":43.29533,"lon":5.3855,"is_reserved":false,"is_disabled":false,"rental_uris":{"android":"levelo://app?vid=6ccbc8e0-0561-4783-9564-ec0e6e4c4497","ios":"levelo://app?vid=6ccbc8e0-0561-4783-9564-ec0e6e4c4497"},"vehicle_type_id":"4","last_reported":1758571896,"current_range_meters":6400,"station_id":"ce4bgih2rcd13ifvqba0","pricing_plan_id":"cebpf4jnsgd1na2vs0mg"},{"bike_id":"d855e038-3a75-4daf-bae3-0345e6185e94","system_id":"levelo_inurba_marseille","lat":43.28932,"lon":5.38396,"is_reserved":false,"is_disabled":false,"rental_uris":{"android":"levelo://app?vid=d855e038-3a75-4daf-bae3-0345e6185e94","ios":"levelo://app?vid=d855e038-3a75-4daf-bae3-0345e6185e94"},"vehicle_type_id":"4","last_reported":1758571896,"current_range_meters":5600,"station_id":"ce4bh612rcd13ifvqe6g","pricing_plan_id":"cebpf4jnsgd1na2vs0mg"},{"bike_id":"35e58ae7-40e5-4d86-9d99-68b307eff43f","system_id":"levelo_inurba_marseille","lat":43.27205,"lon":5.39198,"is_reserved":false,"is_disabled":true,"rental_uris":{"android":"levelo://app?vid=35e58ae7-40e5-4d86-9d99-68b307eff43f","ios":"levelo://app?vid=35e58ae7-40e5-4d86-9d99-68b307eff43f"},"vehicle_type_id":"4","last_reported":1758571896,"current_range_meters":6800,"station_id":"ce4bhhp2rcd13ifvqfm0","pricing_plan_id":"cebpf4jnsgd1na2vs0mg"},{"bike_id":"b6536b39-d494-42d8-975e-cdd406476798","system_id":"levelo_inurba_marseille","lat":43.26779,"lon":5.39423,"is_reserved":false,"is_disabled":true,"rental_uris":{"android":"levelo://app?vid=b6536b39-d494-42d8-975e-cdd406476798","ios":"levelo://app?vid=b6536b39-d494-42d8-975e-cdd406476798"},"vehicle_type_id":"4","last_reported":1758571896,"current_range_meters":6800,"station_id":"ce4bhh12rcd13ifvqfg0","pricing_plan_id":"cebpf4jnsgd1na2vs0mg"},{"bike_id":"31da6d07-e3a2-47a1-a54a-86217364c6ab","system_id":"levelo_inurba_marseille","lat":43.30958,"lon":5.39034,"is_reserved":false,"is_disabled":false,"rental_uris":{"android":"levelo://app?vid=31da6d07-e3a2-47a1-a54a-86217364c6ab","ios":"levelo://app?vid=31da6d07-e3a2-47a1-a54a-86217364c6ab"},"vehicle_type_id":"4","last_reported":1758571896,"current_range_meters":6800,"station_id":"ce4bgup2rcd13ifvqco0","pricing_plan_id":"cebpf4jnsgd1na2vs0mg"},{"bike_id":"fe3fd3ec-c652-4173-9e74-99984dbd1200","system_id":"levelo_inurba_marseille","lat":43.31452,"lon":5.39247,"is_reserved":false,"is_disabled":false,"rental_uris":{"android":"levelo://app?vid=fe3fd3ec-c652-4173-9e74-99984dbd1200","ios":"levelo://app?vid=fe3fd3ec-c652-4173-9e74-99984dbd1200"},"vehicle_type_id":"4","last_reported":1758571896,"current_range_meters":6800,"station_id":"","pricing_plan_id":"cebpf4jnsgd1na2vs0mg"},{"bike_id":"0dbc7da0-0362-4020-94e8-7c158950cbc3","system_id":"levelo_inurba_marseille","lat":43.27065,"lon":5.40257,"is_reserved":false,"is_disabled":true,"rental_uris":{"android":"levelo://app?vid=0dbc7da0-0362-4020-94e8-7c158950cbc3","ios":"levelo://app?vid=0dbc7da0-0362-4020-94e8-7c158950cbc3"},"vehicle_type_id":"4","last_reported":1758571896,"current_range_meters":7200,"station_id":"ce4bhk92rcd13ifvqgc0","pricing_plan_id":"cebpf4jnsgd1na2vs0mg"},{"bike_id":"f581ccb4-ae4a-44ef-9aee-8da2f62ff531","system_id":"levelo_inurba_marseille","lat":43.31244,"lon":5.36824,"is_reserved":false,"is_disabled":false,"rental_uris":{"android":"levelo://app?vid=f581ccb4-ae4a-44ef-9aee-8da2f62ff531","ios":"levelo://app?vid=f581ccb4-ae4a-44ef-9aee-8da2f62ff531"},"vehicle_type_id":"4","last_reported":1758571896,"current_range_meters":7200,"station_id":"ce4bgl92rcd13ifvqbq0","pricing_plan_id":"cebpf4jnsgd1na2vs0mg"},{"bike_id":"512380c4-b408-4c5d-a370-8ed3c327b288","system_id":"levelo_inurba_marseille","lat":43.29633,"lon":5.3811,"is_reserved":false,"is_disabled":false,"rental_uris":{"android":"levelo://app?vid=512380c4-b408-4c5d-a370-8ed3c327b288","ios":"levelo://app?vid=512380c4-b408-4c5d-a370-8ed3c327b288"},"vehicle_type_id":"4","last_reported":1758571896,"current_range_meters":7200,"station_id":"ce4bgl12rcd13ifvqbo0","pricing_plan_id":"cebpf4jnsgd1na2vs0mg"},{"bike_id":"fd80f60d-66fa-4360-bbd2-2212d3287d96","system_id":"levelo_inurba_marseille","lat":43.32489,"lon":5.36568,"is_reserved":false,"is_disabled":false,"rental_uris":{"android":"levelo://app?vid=fd80f60d-66fa-4360-bbd2-2212d3287d96","ios":"levelo://app?vid=fd80f60d-66fa-4360-bbd2-2212d3287d96"},"vehicle_type_id":"4","last_reported":1758571896,"current_range_meters":7200,"station_id":"ce4bhs12rcd13ifvqhvg","pricing_plan_id":"cebpf4jnsgd1na2vs0mg"},{"bike_id":"1b790372-5d34-489f-a29a-5f2319ad70e0","system_id":"levelo_inurba_marseille","lat":43.28261,"lon":5.35048,"is_reserved":false,"is_disabled":true,"rental_uris":{"android":"levelo://app?vid=1b790372-5d34-489f-a29a-5f2319ad70e0","ios":"levelo://app?vid=1b790372-5d34-489f-a29a-5f2319ad70e0"},"vehicle_type_id":"4","last_reported":1758571896,"current_range_meters":7200,"station_id":"ce4bhbp2rcd13ifvqerg","pricing_plan_id":"cebpf4jnsgd1na2vs0mg"},{"bike_id":"33ece521-1bc8-47d8-8169-d5a2234c118b","system_id":"levelo_inurba_marseille","lat":43.278383,"lon":5.392032,"is_reserved":false,"is_disabled":false,"rental_uris":{"android":"levelo://app?vid=33ece521-1bc8-47d8-8169-d5a2234c118b","ios":"levelo://app?vid=33ece521-1bc8-47d8-8169-d5a2234c118b"},"vehicle_type_id":"4","last_reported":1758571896,"current_range_meters":7200,"station_id":"ce4bhjp2rcd13ifvqga0","pricing_plan_id":"cebpf4jnsgd1na2vs0mg"},{"bike_id":"7d3f98ec-4393-48dd-970b-96fd0556807d","system_id":"levelo_inurba_marseille","lat":43.29284,"lon":5.4011,"is_reserved":false,"is_disabled":false,"rental_uris":{"android":"levelo://app?vid=7d3f98ec-4393-48dd-970b-96fd0556807d","ios":"levelo://app?vid=7d3f98ec-4393-48dd-970b-96fd0556807d"},"vehicle_type_id":"4","last_reported":1758571896,"current_range_meters":7200,"station_id":"ce4bh312rcd13ifvqdk0","pricing_plan_id":"cebpf4jnsgd1na2vs0mg"},{"bike_id":"8f3407a9-78f5-4a61-bfa8-6543913d816a","system_id":"levelo_inurba_marseille","lat":43.29577,"lon":5.39989,"is_reserved":false,"is_disabled":false,"rental_uris":{"android":"levelo://app?vid=8f3407a9-78f5-4a61-bfa8-6543913d816a","ios":"levelo://app?vid=8f3407a9-78f5-4a61-bfa8-6543913d816a"},"vehicle_type_id":"4","last_reported":1758571896,"current_range_meters":7200,"station_id":"ce4bh312rcd13ifvqdj0","pricing_plan_id":"cebpf4jnsgd1na2vs0mg"},{"bike_id":"4db7c616-471e-407f-819d-259d6bd2ab87","system_id":"levelo_inurba_marseille","lat":43.28476,"lon":5.38412,"is_reserved":false,"is_disabled":false,"rental_uris":{"android":"levelo://app?vid=4db7c616-471e-407f-819d-259d6bd2ab87","ios":"levelo://app?vid=4db7c616-471e-407f-819d-259d6bd2ab87"},"vehicle_type_id":"4","last_reported":1758571896,"current_range_meters":7200,"station_id":"ce4bh512rcd13ifvqe3g","pricing_plan_id":"cebpf4jnsgd1na2vs0mg"},{"bike_id":"eec26b2a-8dd1-4e3f-8c19-23ce392729df","system_id":"levelo_inurba_marseille","lat":43.32353,"lon":5.36747,"is_reserved":false,"is_disabled":false,"rental_uris":{"android":"levelo://app?vid=eec26b2a-8dd1-4e3f-8c19-23ce392729df","ios":"levelo://app?vid=eec26b2a-8dd1-4e3f-8c19-23ce392729df"},"vehicle_type_id":"4","last_reported":1758571896,"current_range_meters":8000,"station_id":"ce4bhsh2rcd13ifvqi2g","pricing_plan_id":"cebpf4jnsgd1na2vs0mg"},{"bike_id":"9278c8e4-f92e-4b80-9d1a-f8764c260a72","system_id":"levelo_inurba_marseille","lat":43.21748,"lon":5.34615,"is_reserved":false,"is_disabled":false,"rental_uris":{"android":"levelo://app?vid=9278c8e4-f92e-4b80-9d1a-f8764c260a72","ios":"levelo://app?vid=9278c8e4-f92e-4b80-9d1a-f8764c260a72"},"vehicle_type_id":"4","last_reported":1758571896,"current_range_meters":8400,"station_id":"st_cvj6r9ubvosntc0bgbag","pricing_plan_id":"cebpf4jnsgd1na2vs0mg"},{"bike_id":"a95a546a-691f-414b-9f19-eb455305a59b","system_id":"levelo_inurba_marseille","lat":43.21751,"lon":5.34605,"is_reserved":false,"is_disabled":false,"rental_uris":{"android":"levelo://app?vid=a95a546a-691f-414b-9f19-eb455305a59b","ios":"levelo://app?vid=a95a546a-691f-414b-9f19-eb455305a59b"},"vehicle_type_id":"4","last_reported":1758571896,"current_range_meters":8400,"station_id":"st_cvj6r9ubvosntc0bgbag","pricing_plan_id":"cebpf4jnsgd1na2vs0mg"},{"bike_id":"b8326fe6-4e46-4be4-be1e-880748c1dab4","system_id":"levelo_inurba_marseille","lat":43.30374,"lon":5.4248,"is_reserved":false,"is_disabled":false,"rental_uris":{"android":"levelo://app?vid=b8326fe6-4e46-4be4-be1e-880748c1dab4","ios":"levelo://app?vid=b8326fe6-4e46-4be4-be1e-880748c1dab4"},"vehicle_type_id":"4","last_reported":1758571896,"current_range_meters":8400,"station_id":"ce4bhoh2rcd13ifvqh6g","pricing_plan_id":"cebpf4jnsgd1na2vs0mg"},{"bike_id":"aba30b74-d7bf-426e-9d06-18587ca4acb9","system_id":"levelo_inurba_marseille","lat":43.29461,"lon":5.38135,"is_reserved":false,"is_disabled":false,"rental_uris":{"android":"levelo://app?vid=aba30b74-d7bf-426e-9d06-18587ca4acb9","ios":"levelo://app?vid=aba30b74-d7bf-426e-9d06-18587ca4acb9"},"vehicle_type_id":"4","last_reported":1758571896,"current_range_meters":8400,"station_id":"","pricing_plan_id":"cebpf4jnsgd1na2vs0mg"},{"bike_id":"501081e3-4516-4f55-8ca7-e92c3fb0e511","system_id":"levelo_inurba_marseille","lat":43.29302,"lon":5.37452,"is_reserved":false,"is_disabled":false,"rental_uris":{"android":"levelo://app?vid=501081e3-4516-4f55-8ca7-e92c3fb0e511","ios":"levelo://app?vid=501081e3-4516-4f55-8ca7-e92c3fb0e511"},"vehicle_type_id":"4","last_reported":1758571896,"current_range_meters":8400,"station_id":"ce4bgi12rcd13ifvqb70","pricing_plan_id":"cebpf4jnsgd1na2vs0mg"},{"bike_id":"b3ee816f-19cc-49a8-9318-eed4d78b7758","system_id":"levelo_inurba_marseille","lat":43.29163,"lon":5.38279,"is_reserved":false,"is_disabled":false,"rental_uris":{"android":"levelo://app?vid=b3ee816f-19cc-49a8-9318-eed4d78b7758","ios":"levelo://app?vid=b3ee816f-19cc-49a8-9318-eed4d78b7758"},"vehicle_type_id":"4","last_reported":1758571896,"current_range_meters":8400,"station_id":"","pricing_plan_id":"cebpf4jnsgd1na2vs0mg"},{"bike_id":"1922f547-3b9e-4793-b126-77546ed46a55","system_id":"levelo_inurba_marseille","lat":43.28487,"lon":5.38554,"is_reserved":false,"is_disabled":false,"rental_uris":{"android":"levelo://app?vid=1922f547-3b9e-4793-b126-77546ed46a55","ios":"levelo://app?vid=1922f547-3b9e-4793-b126-77546ed46a55"},"vehicle_type_id":"4","last_reported":1758571896,"current_range_meters":8400,"station_id":"ce4bh8p2rcd13ifvqeb0","pricing_plan_id":"cebpf4jnsgd1na2vs0mg"},{"bike_id":"76bbf107-7ec5-4826-b296-ab629ecd14ab","system_id":"levelo_inurba_marseille","lat":43.29805,"lon":5.42094,"is_reserved":false,"is_disabled":false,"rental_uris":{"android":"levelo://app?vid=76bbf107-7ec5-4826-b296-ab629ecd14ab","ios":"levelo://app?vid=76bbf107-7ec5-4826-b296-ab629ecd14ab"},"vehicle_type_id":"4","last_reported":1758571896,"current_range_meters":8400,"station_id":"","pricing_plan_id":"cebpf4jnsgd1na2vs0mg"},{"bike_id":"8a569a47-46ff-4e91-972f-c6991b590b75","system_id":"levelo_inurba_marseille","lat":43.30251,"lon":5.40062,"is_reserved":false,"is_disabled":true,"rental_uris":{"android":"levelo://app?vid=8a569a47-46ff-4e91-972f-c6991b590b75","ios":"levelo://app?vid=8a569a47-46ff-4e91-972f-c6991b590b75"},"vehicle_type_id":"4","last_reported":1758571896,"current_range_meters":8800,"station_id":"ce4bgvh2rcd13ifvqcs0","pricing_plan_id":"cebpf4jnsgd1na2vs0mg"},{"bike_id":"59362b21-e7ae-4d89-a581-7623f0cabe74","system_id":"levelo_inurba_marseille","lat":43.29005,"lon":5.35613,"is_reserved":false,"is_disabled":true,"rental_uris":{"android":"levelo://app?vid=59362b21-e7ae-4d89-a581-7623f0cabe74","ios":"levelo://app?vid=59362b21-e7ae-4d89-a581-7623f0cabe74"},"vehicle_type_id":"4","last_reported":1758571896,"current_range_meters":8800,"station_id":"ce4bhb92rcd13ifvqen0","pricing_plan_id":"cebpf4jnsgd1na2vs0mg"},{"bike_id":"57a554c8-313b-4697-ac11-481f5aecffc8","system_id":"levelo_inurba_marseille","lat":43.29172,"lon":5.37148,"is_reserved":false,"is_disabled":false,"rental_uris":{"android":"levelo://app?vid=57a554c8-313b-4697-ac11-481f5aecffc8","ios":"levelo://app?vid=57a554c8-313b-4697-ac11-481f5aecffc8"},"vehicle_type_id":"4","last_reported":1758571896,"current_range_meters":8800,"station_id":"ce4bha92rcd13ifvqeh0","pricing_plan_id":"cebpf4jnsgd1na2vs0mg"},{"bike_id":"9176512c-2cc1-4df2-a8e0-6be514fbcdbf","system_id":"levelo_inurba_marseille","lat":43.33748,"lon":5.37465,"is_reserved":false,"is_disabled":false,"rental_uris":{"android":"levelo://app?vid=9176512c-2cc1-4df2-a8e0-6be514fbcdbf","ios":"levelo://app?vid=9176512c-2cc1-4df2-a8e0-6be514fbcdbf"},"vehicle_type_id":"4","last_reported":1758571896,"current_range_meters":8800,"station_id":"","pricing_plan_id":"cebpf4jnsgd1na2vs0mg"},{"bike_id":"438ead59-de14-4fa0-a61d-03a70a4122ae","system_id":"levelo_inurba_marseille","lat":43.97285,"lon":4.89134,"is_reserved":false,"is_disabled":true,"rental_uris":{"android":"levelo://app?vid=438ead59-de14-4fa0-a61d-03a70a4122ae","ios":"levelo://app?vid=438ead59-de14-4fa0-a61d-03a70a4122ae"},"vehicle_type_id":"4","last_reported":1758571896,"current_range_meters":8800,"station_id":"","pricing_plan_id":"cebpf4jnsgd1na2vs0mg"},{"bike_id":"0402438e-d72b-4870-8e22-17facef5f22b","system_id":"levelo_inurba_marseille","lat":43.295906,"lon":5.391629,"is_reserved":false,"is_disabled":false,"rental_uris":{"android":"levelo://app?vid=0402438e-d72b-4870-8e22-17facef5f22b","ios":"levelo://app?vid=0402438e-d72b-4870-8e22-17facef5f22b"},"vehicle_type_id":"4","last_reported":1758571896,"current_range_meters":9200,"station_id":"","pricing_plan_id":"cebpf4jnsgd1na2vs0mg"},{"bike_id":"4b4433a1-5f03-46dc-9cde-98800859df22","system_id":"levelo_inurba_marseille","lat":43.26204,"lon":5.3793,"is_reserved":false,"is_disabled":false,"rental_uris":{"android":"levelo://app?vid=4b4433a1-5f03-46dc-9cde-98800859df22","ios":"levelo://app?vid=4b4433a1-5f03-46dc-9cde-98800859df22"},"vehicle_type_id":"4","last_reported":1758571896,"current_range_meters":9200,"station_id":"ce4bhjp2rcd13ifvqg90","pricing_plan_id":"cebpf4jnsgd1na2vs0mg"},{"bike_id":"eaa2be40-5e51-4540-8332-ff5bac26e77b","system_id":"levelo_inurba_marseille","lat":43.29608,"lon":5.37729,"is_reserved":false,"is_disabled":false,"rental_uris":{"android":"levelo://app?vid=eaa2be40-5e51-4540-8332-ff5bac26e77b","ios":"levelo://app?vid=eaa2be40-5e51-4540-8332-ff5bac26e77b"},"vehicle_type_id":"4","last_reported":1758571896,"current_range_meters":9200,"station_id":"ce4bgi92rcd13ifvqb90","pricing_plan_id":"cebpf4jnsgd1na2vs0mg"},{"bike_id":"b7de79dd-2c6b-4fd9-962e-cde448688395","system_id":"levelo_inurba_marseille","lat":43.29866,"lon":5.39735,"is_reserved":false,"is_disabled":false,"rental_uris":{"android":"levelo://app?vid=b7de79dd-2c6b-4fd9-962e-cde448688395","ios":"levelo://app?vid=b7de79dd-2c6b-4fd9-962e-cde448688395"},"vehicle_type_id":"4","last_reported":1758571896,"current_range_meters":9200,"station_id":"ce4bh0h2rcd13ifvqd50","pricing_plan_id":"cebpf4jnsgd1na2vs0mg"},{"bike_id":"ef29ce91-6822-4284-a8f2-f64e49f16aea","system_id":"levelo_inurba_marseille","lat":43.29523,"lon":5.38536,"is_reserved":false,"is_disabled":false,"rental_uris":{"android":"levelo://app?vid=ef29ce91-6822-4284-a8f2-f64e49f16aea","ios":"levelo://app?vid=ef29ce91-6822-4284-a8f2-f64e49f16aea"},"vehicle_type_id":"4","last_reported":1758571896,"current_range_meters":9200,"station_id":"ce4bgih2rcd13ifvqba0","pricing_plan_id":"cebpf4jnsgd1na2vs0mg"},{"bike_id":"8fc2af90-e224-4234-979d-2bc5b42d81c6","system_id":"levelo_inurba_marseille","lat":43.29268,"lon":5.38448,"is_reserved":false,"is_disabled":false,"rental_uris":{"android":"levelo://app?vid=8fc2af90-e224-4234-979d-2bc5b42d81c6","ios":"levelo://app?vid=8fc2af90-e224-4234-979d-2bc5b42d81c6"},"vehicle_type_id":"4","last_reported":1758571896,"current_range_meters":9200,"station_id":"ce4bh692rcd13ifvqea0","pricing_plan_id":"cebpf4jnsgd1na2vs0mg"},{"bike_id":"1acc509b-af85-4b58-bd74-e0c052811dd7","system_id":"levelo_inurba_marseille","lat":43.30284,"lon":5.396613,"is_reserved":false,"is_disabled":false,"rental_uris":{"android":"levelo://app?vid=1acc509b-af85-4b58-bd74-e0c052811dd7","ios":"levelo://app?vid=1acc509b-af85-4b58-bd74-e0c052811dd7"},"vehicle_type_id":"4","last_reported":1758571896,"current_range_meters":9600,"station_id":"","pricing_plan_id":"cebpf4jnsgd1na2vs0mg"},{"bike_id":"a15e48c8-16c3-437e-a237-62b9e19d84cb","system_id":"levelo_inurba_marseille","lat":43.21752,"lon":5.34599,"is_reserved":false,"is_disabled":false,"rental_uris":{"android":"levelo://app?vid=a15e48c8-16c3-437e-a237-62b9e19d84cb","ios":"levelo://app?vid=a15e48c8-16c3-437e-a237-62b9e19d84cb"},"vehicle_type_id":"4","last_reported":1758571896,"current_range_meters":9600,"station_id":"st_cvj6r9ubvosntc0bgbag","pricing_plan_id":"cebpf4jnsgd1na2vs0mg"},{"bike_id":"a86157b7-cfac-433a-ae95-58ad4ca399ba","system_id":"levelo_inurba_marseille","lat":43.29251,"lon":5.38443,"is_reserved":false,"is_disabled":false,"rental_uris":{"android":"levelo://app?vid=a86157b7-cfac-433a-ae95-58ad4ca399ba","ios":"levelo://app?vid=a86157b7-cfac-433a-ae95-58ad4ca399ba"},"vehicle_type_id":"4","last_reported":1758571896,"current_range_meters":9600,"station_id":"ce4bh692rcd13ifvqea0","pricing_plan_id":"cebpf4jnsgd1na2vs0mg"},{"bike_id":"5dd24075-722f-4979-91f7-41828ca0486f","system_id":"levelo_inurba_marseille","lat":43.29315,"lon":5.37155,"is_reserved":false,"is_disabled":false,"rental_uris":{"android":"levelo://app?vid=5dd24075-722f-4979-91f7-41828ca0486f","ios":"levelo://app?vid=5dd24075-722f-4979-91f7-41828ca0486f"},"vehicle_type_id":"4","last_reported":1758571896,"current_range_meters":10000,"station_id":"ce4bgh92rcd13ifvqb40","pricing_plan_id":"cebpf4jnsgd1na2vs0mg"},{"bike_id":"7a69a16f-467e-4090-a81a-8f6f5df7d6b2","system_id":"levelo_inurba_marseille","lat":43.29054,"lon":5.3716,"is_reserved":false,"is_disabled":false,"rental_uris":{"android":"levelo://app?vid=7a69a16f-467e-4090-a81a-8f6f5df7d6b2","ios":"levelo://app?vid=7a69a16f-467e-4090-a81a-8f6f5df7d6b2"},"vehicle_type_id":"4","last_reported":1758571896,"current_range_meters":10000,"station_id":"ce4bh5p2rcd13ifvqe4g","pricing_plan_id":"cebpf4jnsgd1na2vs0mg"},{"bike_id":"0ca405c5-50f7-42f0-ad59-fa4f401dba3d","system_id":"levelo_inurba_marseille","lat":43.24674,"lon":5.38165,"is_reserved":false,"is_disabled":true,"rental_uris":{"android":"levelo://app?vid=0ca405c5-50f7-42f0-ad59-fa4f401dba3d","ios":"levelo://app?vid=0ca405c5-50f7-42f0-ad59-fa4f401dba3d"},"vehicle_type_id":"4","last_reported":1758571896,"current_range_meters":10000,"station_id":"ce4bhih2rcd13ifvqfr0","pricing_plan_id":"cebpf4jnsgd1na2vs0mg"},{"bike_id":"340a68bc-1b00-41eb-88ce-156520866763","system_id":"levelo_inurba_marseille","lat":43.283398,"lon":5.381082,"is_reserved":false,"is_disabled":false,"rental_uris":{"android":"levelo://app?vid=340a68bc-1b00-41eb-88ce-156520866763","ios":"levelo://app?vid=340a68bc-1b00-41eb-88ce-156520866763"},"vehicle_type_id":"4","last_reported":1758571896,"current_range_meters":10000,"station_id":"ce4bh412rcd13ifvqdr0","pricing_plan_id":"cebpf4jnsgd1na2vs0mg"},{"bike_id":"88021389-b7ef-47cf-aece-e71127bef273","system_id":"levelo_inurba_marseille","lat":43.30373,"lon":5.42489,"is_reserved":false,"is_disabled":false,"rental_uris":{"android":"levelo://app?vid=88021389-b7ef-47cf-aece-e71127bef273","ios":"levelo://app?vid=88021389-b7ef-47cf-aece-e71127bef273"},"vehicle_type_id":"4","last_reported":1758571896,"current_range_meters":10000,"station_id":"ce4bhoh2rcd13ifvqh6g","pricing_plan_id":"cebpf4jnsgd1na2vs0mg"},{"bike_id":"393f4824-2049-4d74-bf48-45741e475fd3","system_id":"levelo_inurba_marseille","lat":43.29535,"lon":5.38543,"is_reserved":false,"is_disabled":false,"rental_uris":{"android":"levelo://app?vid=393f4824-2049-4d74-bf48-45741e475fd3","ios":"levelo://app?vid=393f4824-2049-4d74-bf48-45741e475fd3"},"vehicle_type_id":"4","last_reported":1758571896,"current_range_meters":10800,"station_id":"ce4bgih2rcd13ifvqba0","pricing_plan_id":"cebpf4jnsgd1na2vs0mg"},{"bike_id":"5abdf218-4f6f-43c0-9423-719e92d02d64","system_id":"levelo_inurba_marseille","lat":43.29536,"lon":5.38539,"is_reserved":false,"is_disabled":false,"rental_uris":{"android":"levelo://app?vid=5abdf218-4f6f-43c0-9423-719e92d02d64","ios":"levelo://app?vid=5abdf218-4f6f-43c0-9423-719e92d02d64"},"vehicle_type_id":"4","last_reported":1758571896,"current_range_meters":10800,"station_id":"ce4bgih2rcd13ifvqba0","pricing_plan_id":"cebpf4jnsgd1na2vs0mg"},{"bike_id":"6e417fed-8d43-4963-b52e-c54cd79d652e","system_id":"levelo_inurba_marseille","lat":43.30119,"lon":5.38765,"is_reserved":false,"is_disabled":true,"rental_uris":{"android":"levelo://app?vid=6e417fed-8d43-4963-b52e-c54cd79d652e","ios":"levelo://app?vid=6e417fed-8d43-4963-b52e-c54cd79d652e"},"vehicle_type_id":"4","last_reported":1758571896,"current_range_meters":10800,"station_id":"ce4bghh2rcd13ifvqb60","pricing_plan_id":"cebpf4jnsgd1na2vs0mg"},{"bike_id":"6910a784-9ded-46d2-a4b5-f5e004b10189","system_id":"levelo_inurba_marseille","lat":43.29258,"lon":5.38445,"is_reserved":false,"is_disabled":false,"rental_uris":{"android":"levelo://app?vid=6910a784-9ded-46d2-a4b5-f5e004b10189","ios":"levelo://app?vid=6910a784-9ded-46d2-a4b5-f5e004b10189"},"vehicle_type_id":"4","last_reported":1758571896,"current_range_meters":10800,"station_id":"ce4bh692rcd13ifvqea0","pricing_plan_id":"cebpf4jnsgd1na2vs0mg"},{"bike_id":"3b376b47-d2ca-45d9-a4e5-b1ca49240c53","system_id":"levelo_inurba_marseille","lat":43.3117,"lon":5.36745,"is_reserved":false,"is_disabled":false,"rental_uris":{"android":"levelo://app?vid=3b376b47-d2ca-45d9-a4e5-b1ca49240c53","ios":"levelo://app?vid=3b376b47-d2ca-45d9-a4e5-b1ca49240c53"},"vehicle_type_id":"4","last_reported":1758571896,"current_range_meters":11200,"station_id":"","pricing_plan_id":"cebpf4jnsgd1na2vs0mg"},{"bike_id":"e4ea16a5-702e-46c5-8e88-c5049e80a55f","system_id":"levelo_inurba_marseille","lat":43.28951,"lon":5.36396,"is_reserved":false,"is_disabled":false,"rental_uris":{"android":"levelo://app?vid=e4ea16a5-702e-46c5-8e88-c5049e80a55f","ios":"levelo://app?vid=e4ea16a5-702e-46c5-8e88-c5049e80a55f"},"vehicle_type_id":"4","last_reported":1758571896,"current_range_meters":11200,"station_id":"ce4bhc92rcd13ifvqetg","pricing_plan_id":"cebpf4jnsgd1na2vs0mg"},{"bike_id":"bc5bdce1-bf12-446e-b31e-3cfc29bb8dd1","system_id":"levelo_inurba_marseille","lat":43.29558,"lon":5.38174,"is_reserved":false,"is_disabled":false,"rental_uris":{"android":"levelo://app?vid=bc5bdce1-bf12-446e-b31e-3cfc29bb8dd1","ios":"levelo://app?vid=bc5bdce1-bf12-446e-b31e-3cfc29bb8dd1"},"vehicle_type_id":"4","last_reported":1758571896,"current_range_meters":11200,"station_id":"","pricing_plan_id":"cebpf4jnsgd1na2vs0mg"},{"bike_id":"18ff486e-5d0b-4171-ac26-f9fa06c69a06","system_id":"levelo_inurba_marseille","lat":43.27497,"lon":5.42443,"is_reserved":false,"is_disabled":false,"rental_uris":{"android":"levelo://app?vid=18ff486e-5d0b-4171-ac26-f9fa06c69a06","ios":"levelo://app?vid=18ff486e-5d0b-4171-ac26-f9fa06c69a06"},"vehicle_type_id":"4","last_reported":1758571896,"current_range_meters":11200,"station_id":"ce4bhn92rcd13ifvqgrg","pricing_plan_id":"cebpf4jnsgd1na2vs0mg"},{"bike_id":"b11b2329-2c7e-4aa7-bad5-398885a2c905","system_id":"levelo_inurba_marseille","lat":43.29527,"lon":5.38557,"is_reserved":false,"is_disabled":false,"rental_uris":{"android":"levelo://app?vid=b11b2329-2c7e-4aa7-bad5-398885a2c905","ios":"levelo://app?vid=b11b2329-2c7e-4aa7-bad5-398885a2c905"},"vehicle_type_id":"4","last_reported":1758571896,"current_range_meters":11200,"station_id":"ce4bgih2rcd13ifvqba0","pricing_plan_id":"cebpf4jnsgd1na2vs0mg"},{"bike_id":"9602260e-492a-4b1a-bb6e-bd603b0b3d42","system_id":"levelo_inurba_marseille","lat":43.29256,"lon":5.38445,"is_reserved":false,"is_disabled":false,"rental_uris":{"android":"levelo://app?vid=9602260e-492a-4b1a-bb6e-bd603b0b3d42","ios":"levelo://app?vid=9602260e-492a-4b1a-bb6e-bd603b0b3d42"},"vehicle_type_id":"4","last_reported":1758571896,"current_range_meters":11200,"station_id":"ce4bh692rcd13ifvqea0","pricing_plan_id":"cebpf4jnsgd1na2vs0mg"},{"bike_id":"1b9af745-c672-435d-8101-b615dd19068e","system_id":"levelo_inurba_marseille","lat":43.281,"lon":5.37845,"is_reserved":false,"is_disabled":false,"rental_uris":{"android":"levelo://app?vid=1b9af745-c672-435d-8101-b615dd19068e","ios":"levelo://app?vid=1b9af745-c672-435d-8101-b615dd19068e"},"vehicle_type_id":"4","last_reported":1758571896,"current_range_meters":11200,"station_id":"ce4bha12rcd13ifvqee0","pricing_plan_id":"cebpf4jnsgd1na2vs0mg"},{"bike_id":"7d73570a-4165-46a4-a4d9-6c3b91773a9c","system_id":"levelo_inurba_marseille","lat":43.22933,"lon":5.35371,"is_reserved":false,"is_disabled":false,"rental_uris":{"android":"levelo://app?vid=7d73570a-4165-46a4-a4d9-6c3b91773a9c","ios":"levelo://app?vid=7d73570a-4165-46a4-a4d9-6c3b91773a9c"},"vehicle_type_id":"4","last_reported":1758571896,"current_range_meters":11600,"station_id":"cpo3532slgdg3j2ikp40","pricing_plan_id":"cebpf4jnsgd1na2vs0mg"},{"bike_id":"94dc763b-5c60-4e8c-a6fc-573bcaf8f7f0","system_id":"levelo_inurba_marseille","lat":43.32491,"lon":5.36562,"is_reserved":false,"is_disabled":false,"rental_uris":{"android":"levelo://app?vid=94dc763b-5c60-4e8c-a6fc-573bcaf8f7f0","ios":"levelo://app?vid=94dc763b-5c60-4e8c-a6fc-573bcaf8f7f0"},"vehicle_type_id":"4","last_reported":1758571896,"current_range_meters":11600,"station_id":"ce4bhs12rcd13ifvqhvg","pricing_plan_id":"cebpf4jnsgd1na2vs0mg"},{"bike_id":"90e14a2d-1c9e-457a-a1d7-7257e3270581","system_id":"levelo_inurba_marseille","lat":43.27999,"lon":5.41661,"is_reserved":false,"is_disabled":true,"rental_uris":{"android":"levelo://app?vid=90e14a2d-1c9e-457a-a1d7-7257e3270581","ios":"levelo://app?vid=90e14a2d-1c9e-457a-a1d7-7257e3270581"},"vehicle_type_id":"4","last_reported":1758571896,"current_range_meters":11600,"station_id":"ce4bho12rcd13ifvqh1g","pricing_plan_id":"cebpf4jnsgd1na2vs0mg"},{"bike_id":"876179c2-88a9-44d1-b316-c2bd85d2a686","system_id":"levelo_inurba_marseille","lat":43.29512,"lon":5.38518,"is_reserved":false,"is_disabled":false,"rental_uris":{"android":"levelo://app?vid=876179c2-88a9-44d1-b316-c2bd85d2a686","ios":"levelo://app?vid=876179c2-88a9-44d1-b316-c2bd85d2a686"},"vehicle_type_id":"4","last_reported":1758571896,"current_range_meters":11600,"station_id":"ce4bgih2rcd13ifvqba0","pricing_plan_id":"cebpf4jnsgd1na2vs0mg"},{"bike_id":"40d91655-9e50-49ed-9f41-3a1ee828bbb7","system_id":"levelo_inurba_marseille","lat":43.24953,"lon":5.40481,"is_reserved":false,"is_disabled":false,"rental_uris":{"android":"levelo://app?vid=40d91655-9e50-49ed-9f41-3a1ee828bbb7","ios":"levelo://app?vid=40d91655-9e50-49ed-9f41-3a1ee828bbb7"},"vehicle_type_id":"4","last_reported":1758571896,"current_range_meters":12000,"station_id":"st_d2ngiaodas8pm72gd1h0","pricing_plan_id":"cebpf4jnsgd1na2vs0mg"},{"bike_id":"dc495131-9885-4579-af8a-e69205387433","system_id":"levelo_inurba_marseille","lat":43.29572,"lon":5.39968,"is_reserved":false,"is_disabled":false,"rental_uris":{"android":"levelo://app?vid=dc495131-9885-4579-af8a-e69205387433","ios":"levelo://app?vid=dc495131-9885-4579-af8a-e69205387433"},"vehicle_type_id":"4","last_reported":1758571896,"current_range_meters":12000,"station_id":"ce4bh312rcd13ifvqdj0","pricing_plan_id":"cebpf4jnsgd1na2vs0mg"},{"bike_id":"61770c49-cf1c-4cdb-8a76-b62d53617107","system_id":"levelo_inurba_marseille","lat":43.27464,"lon":5.3941,"is_reserved":false,"is_disabled":false,"rental_uris":{"android":"levelo://app?vid=61770c49-cf1c-4cdb-8a76-b62d53617107","ios":"levelo://app?vid=61770c49-cf1c-4cdb-8a76-b62d53617107"},"vehicle_type_id":"4","last_reported":1758571896,"current_range_meters":12000,"station_id":"","pricing_plan_id":"cebpf4jnsgd1na2vs0mg"},{"bike_id":"c733e7dc-50be-412b-be24-1c3b4a94d355","system_id":"levelo_inurba_marseille","lat":43.272972,"lon":5.390853,"is_reserved":false,"is_disabled":false,"rental_uris":{"android":"levelo://app?vid=c733e7dc-50be-412b-be24-1c3b4a94d355","ios":"levelo://app?vid=c733e7dc-50be-412b-be24-1c3b4a94d355"},"vehicle_type_id":"4","last_reported":1758571896,"current_range_meters":12000,"station_id":"ce4bhgp2rcd13ifvqfe0","pricing_plan_id":"cebpf4jnsgd1na2vs0mg"},{"bike_id":"9efad510-32cc-40f6-8add-a61b2ca9ef51","system_id":"levelo_inurba_marseille","lat":43.30218,"lon":5.39474,"is_reserved":false,"is_disabled":false,"rental_uris":{"android":"levelo://app?vid=9efad510-32cc-40f6-8add-a61b2ca9ef51","ios":"levelo://app?vid=9efad510-32cc-40f6-8add-a61b2ca9ef51"},"vehicle_type_id":"4","last_reported":1758571896,"current_range_meters":12000,"station_id":"ce4bh0p2rcd13ifvqd70","pricing_plan_id":"cebpf4jnsgd1na2vs0mg"},{"bike_id":"77eeb9b5-0e68-4a7b-b5d1-530ce6c04cd4","system_id":"levelo_inurba_marseille","lat":43.22936,"lon":5.35382,"is_reserved":false,"is_disabled":false,"rental_uris":{"android":"levelo://app?vid=77eeb9b5-0e68-4a7b-b5d1-530ce6c04cd4","ios":"levelo://app?vid=77eeb9b5-0e68-4a7b-b5d1-530ce6c04cd4"},"vehicle_type_id":"4","last_reported":1758571896,"current_range_meters":12000,"station_id":"cpo3532slgdg3j2ikp40","pricing_plan_id":"cebpf4jnsgd1na2vs0mg"},{"bike_id":"5bf622f2-8889-4c8b-bc74-869bf3d0e0d6","system_id":"levelo_inurba_marseille","lat":43.26227,"lon":5.40453,"is_reserved":false,"is_disabled":false,"rental_uris":{"android":"levelo://app?vid=5bf622f2-8889-4c8b-bc74-869bf3d0e0d6","ios":"levelo://app?vid=5bf622f2-8889-4c8b-bc74-869bf3d0e0d6"},"vehicle_type_id":"4","last_reported":1758571896,"current_range_meters":12000,"station_id":"ce4bhmh2rcd13ifvqgmg","pricing_plan_id":"cebpf4jnsgd1na2vs0mg"},{"bike_id":"6a077151-2089-47d0-bcd1-faf1c42cc7b3","system_id":"levelo_inurba_marseille","lat":43.28868,"lon":5.42518,"is_reserved":false,"is_disabled":false,"rental_uris":{"android":"levelo://app?vid=6a077151-2089-47d0-bcd1-faf1c42cc7b3","ios":"levelo://app?vid=6a077151-2089-47d0-bcd1-faf1c42cc7b3"},"vehicle_type_id":"4","last_reported":1758571896,"current_range_meters":12400,"station_id":"","pricing_plan_id":"cebpf4jnsgd1na2vs0mg"},{"bike_id":"51d92c87-aa59-4783-b818-f9c5a7eebd73","system_id":"levelo_inurba_marseille","lat":43.29544,"lon":5.37426,"is_reserved":false,"is_disabled":false,"rental_uris":{"android":"levelo://app?vid=51d92c87-aa59-4783-b818-f9c5a7eebd73","ios":"levelo://app?vid=51d92c87-aa59-4783-b818-f9c5a7eebd73"},"vehicle_type_id":"4","last_reported":1758571896,"current_range_meters":12400,"station_id":"","pricing_plan_id":"cebpf4jnsgd1na2vs0mg"},{"bike_id":"b5097eea-9912-4be2-9cf9-14c224c5fab6","system_id":"levelo_inurba_marseille","lat":43.231934,"lon":5.355539,"is_reserved":false,"is_disabled":false,"rental_uris":{"android":"levelo://app?vid=b5097eea-9912-4be2-9cf9-14c224c5fab6","ios":"levelo://app?vid=b5097eea-9912-4be2-9cf9-14c224c5fab6"},"vehicle_type_id":"4","last_reported":1758571896,"current_range_meters":12000,"station_id":"ce4bhu92rcd13ifvqi70","pricing_plan_id":"cebpf4jnsgd1na2vs0mg"},{"bike_id":"0b2230e3-adb9-421c-91b1-c113eb397705","system_id":"levelo_inurba_marseille","lat":43.28912,"lon":5.37654,"is_reserved":false,"is_disabled":false,"rental_uris":{"android":"levelo://app?vid=0b2230e3-adb9-421c-91b1-c113eb397705","ios":"levelo://app?vid=0b2230e3-adb9-421c-91b1-c113eb397705"},"vehicle_type_id":"4","last_reported":1758571896,"current_range_meters":12400,"station_id":"","pricing_plan_id":"cebpf4jnsgd1na2vs0mg"},{"bike_id":"2f192a87-efd6-45aa-a1b4-00579a42e480","system_id":"levelo_inurba_marseille","lat":43.27921,"lon":5.3958,"is_reserved":false,"is_disabled":false,"rental_uris":{"android":"levelo://app?vid=2f192a87-efd6-45aa-a1b4-00579a42e480","ios":"levelo://app?vid=2f192a87-efd6-45aa-a1b4-00579a42e480"},"vehicle_type_id":"4","last_reported":1758571896,"current_range_meters":12400,"station_id":"ce4bhf92rcd13ifvqf40","pricing_plan_id":"cebpf4jnsgd1na2vs0mg"},{"bike_id":"5b6b3b7d-c808-4e60-988f-97a17f8a001f","system_id":"levelo_inurba_marseille","lat":43.28393,"lon":5.37537,"is_reserved":false,"is_disabled":true,"rental_uris":{"android":"levelo://app?vid=5b6b3b7d-c808-4e60-988f-97a17f8a001f","ios":"levelo://app?vid=5b6b3b7d-c808-4e60-988f-97a17f8a001f"},"vehicle_type_id":"4","last_reported":1758571896,"current_range_meters":12800,"station_id":"ce4bh412rcd13ifvqds0","pricing_plan_id":"cebpf4jnsgd1na2vs0mg"},{"bike_id":"b2be2404-53eb-4f74-9829-8104df3de106","system_id":"levelo_inurba_marseille","lat":43.33603,"lon":5.3544,"is_reserved":false,"is_disabled":false,"rental_uris":{"android":"levelo://app?vid=b2be2404-53eb-4f74-9829-8104df3de106","ios":"levelo://app?vid=b2be2404-53eb-4f74-9829-8104df3de106"},"vehicle_type_id":"4","last_reported":1758571896,"current_range_meters":12800,"station_id":"","pricing_plan_id":"cebpf4jnsgd1na2vs0mg"},{"bike_id":"019c2967-2126-4f6c-b1ee-058cf8692138","system_id":"levelo_inurba_marseille","lat":43.29258,"lon":5.38448,"is_reserved":false,"is_disabled":false,"rental_uris":{"android":"levelo://app?vid=019c2967-2126-4f6c-b1ee-058cf8692138","ios":"levelo://app?vid=019c2967-2126-4f6c-b1ee-058cf8692138"},"vehicle_type_id":"4","last_reported":1758571896,"current_range_meters":13600,"station_id":"ce4bh692rcd13ifvqea0","pricing_plan_id":"cebpf4jnsgd1na2vs0mg"},{"bike_id":"94d430e6-52b3-4d21-80c9-c6dd4519a8fb","system_id":"levelo_inurba_marseille","lat":43.317743,"lon":5.382898,"is_reserved":false,"is_disabled":false,"rental_uris":{"android":"levelo://app?vid=94d430e6-52b3-4d21-80c9-c6dd4519a8fb","ios":"levelo://app?vid=94d430e6-52b3-4d21-80c9-c6dd4519a8fb"},"vehicle_type_id":"4","last_reported":1758571896,"current_range_meters":13600,"station_id":"","pricing_plan_id":"cebpf4jnsgd1na2vs0mg"},{"bike_id":"3bb425d0-4cb3-4bde-8649-a5fec2d1166a","system_id":"levelo_inurba_marseille","lat":43.31068,"lon":5.38353,"is_reserved":false,"is_disabled":false,"rental_uris":{"android":"levelo://app?vid=3bb425d0-4cb3-4bde-8649-a5fec2d1166a","ios":"levelo://app?vid=3bb425d0-4cb3-4bde-8649-a5fec2d1166a"},"vehicle_type_id":"4","last_reported":1758571896,"current_range_meters":13600,"station_id":"ce4bgv92rcd13ifvqcr0","pricing_plan_id":"cebpf4jnsgd1na2vs0mg"},{"bike_id":"287decd1-d801-41e9-87df-96c8a951912f","system_id":"levelo_inurba_marseille","lat":43.28937,"lon":5.36638,"is_reserved":false,"is_disabled":false,"rental_uris":{"android":"levelo://app?vid=287decd1-d801-41e9-87df-96c8a951912f","ios":"levelo://app?vid=287decd1-d801-41e9-87df-96c8a951912f"},"vehicle_type_id":"4","last_reported":1758571896,"current_range_meters":13600,"station_id":"ce4bhap2rcd13ifvqek0","pricing_plan_id":"cebpf4jnsgd1na2vs0mg"},{"bike_id":"27b0760d-df19-4858-82ad-d0c4a025109b","system_id":"levelo_inurba_marseille","lat":43.29531,"lon":5.38545,"is_reserved":false,"is_disabled":false,"rental_uris":{"android":"levelo://app?vid=27b0760d-df19-4858-82ad-d0c4a025109b","ios":"levelo://app?vid=27b0760d-df19-4858-82ad-d0c4a025109b"},"vehicle_type_id":"4","last_reported":1758571896,"current_range_meters":13600,"station_id":"ce4bgih2rcd13ifvqba0","pricing_plan_id":"cebpf4jnsgd1na2vs0mg"},{"bike_id":"7487d897-33a6-4e2d-90e5-7a696e1700ba","system_id":"levelo_inurba_marseille","lat":43.24185,"lon":5.39727,"is_reserved":false,"is_disabled":false,"rental_uris":{"android":"levelo://app?vid=7487d897-33a6-4e2d-90e5-7a696e1700ba","ios":"levelo://app?vid=7487d897-33a6-4e2d-90e5-7a696e1700ba"},"vehicle_type_id":"4","last_reported":1758571896,"current_range_meters":13600,"station_id":"ce4bhn12rcd13ifvqgpg","pricing_plan_id":"cebpf4jnsgd1na2vs0mg"},{"bike_id":"a8173706-8534-43a1-9d9b-728c64fdfe61","system_id":"levelo_inurba_marseille","lat":43.27229,"lon":5.39222,"is_reserved":false,"is_disabled":true,"rental_uris":{"android":"levelo://app?vid=a8173706-8534-43a1-9d9b-728c64fdfe61","ios":"levelo://app?vid=a8173706-8534-43a1-9d9b-728c64fdfe61"},"vehicle_type_id":"4","last_reported":1758571896,"current_range_meters":14000,"station_id":"ce4bhhp2rcd13ifvqfm0","pricing_plan_id":"cebpf4jnsgd1na2vs0mg"},{"bike_id":"eb14e0c2-3194-45ec-8471-2fc50af87dad","system_id":"levelo_inurba_marseille","lat":43.229333,"lon":5.353742,"is_reserved":false,"is_disabled":false,"rental_uris":{"android":"levelo://app?vid=eb14e0c2-3194-45ec-8471-2fc50af87dad","ios":"levelo://app?vid=eb14e0c2-3194-45ec-8471-2fc50af87dad"},"vehicle_type_id":"4","last_reported":1758571896,"current_range_meters":14000,"station_id":"cpo3532slgdg3j2ikp40","pricing_plan_id":"cebpf4jnsgd1na2vs0mg"},{"bike_id":"ef75d15d-c28a-4fe7-853a-ed887e41d629","system_id":"levelo_inurba_marseille","lat":43.21757,"lon":5.34598,"is_reserved":false,"is_disabled":false,"rental_uris":{"android":"levelo://app?vid=ef75d15d-c28a-4fe7-853a-ed887e41d629","ios":"levelo://app?vid=ef75d15d-c28a-4fe7-853a-ed887e41d629"},"vehicle_type_id":"4","last_reported":1758571896,"current_range_meters":14000,"station_id":"st_cvj6r9ubvosntc0bgbag","pricing_plan_id":"cebpf4jnsgd1na2vs0mg"},{"bike_id":"3e93349c-6864-45ee-97b2-b77ee952da83","system_id":"levelo_inurba_marseille","lat":43.24679,"lon":5.38156,"is_reserved":false,"is_disabled":false,"rental_uris":{"android":"levelo://app?vid=3e93349c-6864-45ee-97b2-b77ee952da83","ios":"levelo://app?vid=3e93349c-6864-45ee-97b2-b77ee952da83"},"vehicle_type_id":"4","last_reported":1758571896,"current_range_meters":14000,"station_id":"ce4bhih2rcd13ifvqfr0","pricing_plan_id":"cebpf4jnsgd1na2vs0mg"},{"bike_id":"37306240-1f8b-4d9d-950f-5144697742a5","system_id":"levelo_inurba_marseille","lat":43.287186,"lon":5.400011,"is_reserved":false,"is_disabled":true,"rental_uris":{"android":"levelo://app?vid=37306240-1f8b-4d9d-950f-5144697742a5","ios":"levelo://app?vid=37306240-1f8b-4d9d-950f-5144697742a5"},"vehicle_type_id":"4","last_reported":1758571896,"current_range_meters":14000,"station_id":"ce4bho92rcd13ifvqh3g","pricing_plan_id":"cebpf4jnsgd1na2vs0mg"},{"bike_id":"503a8f18-fa3d-43b2-af46-fcf76149ac95","system_id":"levelo_inurba_marseille","lat":43.27506,"lon":5.39515,"is_reserved":false,"is_disabled":false,"rental_uris":{"android":"levelo://app?vid=503a8f18-fa3d-43b2-af46-fcf76149ac95","ios":"levelo://app?vid=503a8f18-fa3d-43b2-af46-fcf76149ac95"},"vehicle_type_id":"4","last_reported":1758571896,"current_range_meters":14000,"station_id":"","pricing_plan_id":"cebpf4jnsgd1na2vs0mg"},{"bike_id":"f9e465b0-c8a1-4159-ad56-1dbeea5a881b","system_id":"levelo_inurba_marseille","lat":43.2885,"lon":5.39304,"is_reserved":false,"is_disabled":false,"rental_uris":{"android":"levelo://app?vid=f9e465b0-c8a1-4159-ad56-1dbeea5a881b","ios":"levelo://app?vid=f9e465b0-c8a1-4159-ad56-1dbeea5a881b"},"vehicle_type_id":"4","last_reported":1758571896,"current_range_meters":14400,"station_id":"ce4bh2p2rcd13ifvqdi0","pricing_plan_id":"cebpf4jnsgd1na2vs0mg"},{"bike_id":"2f30aeeb-74b2-4d24-8093-623ea49b0dc3","system_id":"levelo_inurba_marseille","lat":43.30307,"lon":5.39201,"is_reserved":false,"is_disabled":false,"rental_uris":{"android":"levelo://app?vid=2f30aeeb-74b2-4d24-8093-623ea49b0dc3","ios":"levelo://app?vid=2f30aeeb-74b2-4d24-8093-623ea49b0dc3"},"vehicle_type_id":"4","last_reported":1758571896,"current_range_meters":14400,"station_id":"ce4bgkh2rcd13ifvqbk0","pricing_plan_id":"cebpf4jnsgd1na2vs0mg"},{"bike_id":"e4482bd4-178c-4704-bd4f-831af977e1f8","system_id":"levelo_inurba_marseille","lat":43.29536,"lon":5.38567,"is_reserved":false,"is_disabled":false,"rental_uris":{"android":"levelo://app?vid=e4482bd4-178c-4704-bd4f-831af977e1f8","ios":"levelo://app?vid=e4482bd4-178c-4704-bd4f-831af977e1f8"},"vehicle_type_id":"4","last_reported":1758571896,"current_range_meters":14400,"station_id":"ce4bgih2rcd13ifvqba0","pricing_plan_id":"cebpf4jnsgd1na2vs0mg"},{"bike_id":"8dc69592-a229-4af4-b92c-de5588c3f590","system_id":"levelo_inurba_marseille","lat":43.31277,"lon":5.40168,"is_reserved":false,"is_disabled":false,"rental_uris":{"android":"levelo://app?vid=8dc69592-a229-4af4-b92c-de5588c3f590","ios":"levelo://app?vid=8dc69592-a229-4af4-b92c-de5588c3f590"},"vehicle_type_id":"4","last_reported":1758571896,"current_range_meters":14400,"station_id":"ce4bh092rcd13ifvqd30","pricing_plan_id":"cebpf4jnsgd1na2vs0mg"},{"bike_id":"34072093-f9b6-4017-998e-95b181d82c91","system_id":"levelo_inurba_marseille","lat":43.29466,"lon":5.38816,"is_reserved":false,"is_disabled":false,"rental_uris":{"android":"levelo://app?vid=34072093-f9b6-4017-998e-95b181d82c91","ios":"levelo://app?vid=34072093-f9b6-4017-998e-95b181d82c91"},"vehicle_type_id":"4","last_reported":1758571896,"current_range_meters":14400,"station_id":"","pricing_plan_id":"cebpf4jnsgd1na2vs0mg"},{"bike_id":"1dc0664d-bbc9-48d4-b7a9-aa5bd6be4dfc","system_id":"levelo_inurba_marseille","lat":43.24166,"lon":5.39694,"is_reserved":false,"is_disabled":false,"rental_uris":{"android":"levelo://app?vid=1dc0664d-bbc9-48d4-b7a9-aa5bd6be4dfc","ios":"levelo://app?vid=1dc0664d-bbc9-48d4-b7a9-aa5bd6be4dfc"},"vehicle_type_id":"4","last_reported":1758571896,"current_range_meters":14400,"station_id":"ce4bhn12rcd13ifvqgpg","pricing_plan_id":"cebpf4jnsgd1na2vs0mg"},{"bike_id":"30a45839-bcf9-4766-8e20-c8b30ef16a15","system_id":"levelo_inurba_marseille","lat":43.32337,"lon":5.40623,"is_reserved":false,"is_disabled":false,"rental_uris":{"android":"levelo://app?vid=30a45839-bcf9-4766-8e20-c8b30ef16a15","ios":"levelo://app?vid=30a45839-bcf9-4766-8e20-c8b30ef16a15"},"vehicle_type_id":"4","last_reported":1758571896,"current_range_meters":14800,"station_id":"ce4bhq92rcd13ifvqhjg","pricing_plan_id":"cebpf4jnsgd1na2vs0mg"},{"bike_id":"008ebb32-5aa8-426b-9d61-7ec90601a3e4","system_id":"levelo_inurba_marseille","lat":43.29544,"lon":5.38542,"is_reserved":false,"is_disabled":false,"rental_uris":{"android":"levelo://app?vid=008ebb32-5aa8-426b-9d61-7ec90601a3e4","ios":"levelo://app?vid=008ebb32-5aa8-426b-9d61-7ec90601a3e4"},"vehicle_type_id":"4","last_reported":1758571896,"current_range_meters":14800,"station_id":"ce4bgih2rcd13ifvqba0","pricing_plan_id":"cebpf4jnsgd1na2vs0mg"},{"bike_id":"85612e58-9d01-45bf-88f8-321480c3cf13","system_id":"levelo_inurba_marseille","lat":43.28459,"lon":5.35889,"is_reserved":false,"is_disabled":false,"rental_uris":{"android":"levelo://app?vid=85612e58-9d01-45bf-88f8-321480c3cf13","ios":"levelo://app?vid=85612e58-9d01-45bf-88f8-321480c3cf13"},"vehicle_type_id":"4","last_reported":1758571896,"current_range_meters":14800,"station_id":"ce4bhah2rcd13ifvqei0","pricing_plan_id":"cebpf4jnsgd1na2vs0mg"},{"bike_id":"47fe8ecd-0327-4d83-b8c0-ab7264c95b0b","system_id":"levelo_inurba_marseille","lat":43.245437,"lon":5.395246,"is_reserved":false,"is_disabled":false,"rental_uris":{"android":"levelo://app?vid=47fe8ecd-0327-4d83-b8c0-ab7264c95b0b","ios":"levelo://app?vid=47fe8ecd-0327-4d83-b8c0-ab7264c95b0b"},"vehicle_type_id":"4","last_reported":1758571896,"current_range_meters":14800,"station_id":"ce4bhlp2rcd13ifvqgjg","pricing_plan_id":"cebpf4jnsgd1na2vs0mg"},{"bike_id":"beb42e98-dff7-41f2-be88-1fa7f6f0819a","system_id":"levelo_inurba_marseille","lat":43.25337,"lon":5.42176,"is_reserved":false,"is_disabled":false,"rental_uris":{"android":"levelo://app?vid=beb42e98-dff7-41f2-be88-1fa7f6f0819a","ios":"levelo://app?vid=beb42e98-dff7-41f2-be88-1fa7f6f0819a"},"vehicle_type_id":"4","last_reported":1758571896,"current_range_meters":15200,"station_id":"st_d2m65c5bi1j21697t3ng","pricing_plan_id":"cebpf4jnsgd1na2vs0mg"},{"bike_id":"dd83bee8-c803-47e8-91dd-afab74068a08","system_id":"levelo_inurba_marseille","lat":43.2407,"lon":5.37755,"is_reserved":false,"is_disabled":false,"rental_uris":{"android":"levelo://app?vid=dd83bee8-c803-47e8-91dd-afab74068a08","ios":"levelo://app?vid=dd83bee8-c803-47e8-91dd-afab74068a08"},"vehicle_type_id":"4","last_reported":1758571896,"current_range_meters":15200,"station_id":"ce4bhnp2rcd13ifvqgvg","pricing_plan_id":"cebpf4jnsgd1na2vs0mg"},{"bike_id":"4519ded0-f3b9-42bd-af35-e69456d100e8","system_id":"levelo_inurba_marseille","lat":43.29299,"lon":5.38352,"is_reserved":false,"is_disabled":false,"rental_uris":{"android":"levelo://app?vid=4519ded0-f3b9-42bd-af35-e69456d100e8","ios":"levelo://app?vid=4519ded0-f3b9-42bd-af35-e69456d100e8"},"vehicle_type_id":"4","last_reported":1758571896,"current_range_meters":15200,"station_id":"","pricing_plan_id":"cebpf4jnsgd1na2vs0mg"},{"bike_id":"eba01587-aeed-4123-b2ce-9abc98879f91","system_id":"levelo_inurba_marseille","lat":43.27061,"lon":5.42271,"is_reserved":false,"is_disabled":true,"rental_uris":{"android":"levelo://app?vid=eba01587-aeed-4123-b2ce-9abc98879f91","ios":"levelo://app?vid=eba01587-aeed-4123-b2ce-9abc98879f91"},"vehicle_type_id":"4","last_reported":1758571896,"current_range_meters":16000,"station_id":"ce4bhk92rcd13ifvqgb0","pricing_plan_id":"cebpf4jnsgd1na2vs0mg"},{"bike_id":"2fcf9b17-d178-4614-ad3a-a722a4fe463d","system_id":"levelo_inurba_marseille","lat":43.31016,"lon":5.40078,"is_reserved":false,"is_disabled":false,"rental_uris":{"android":"levelo://app?vid=2fcf9b17-d178-4614-ad3a-a722a4fe463d","ios":"levelo://app?vid=2fcf9b17-d178-4614-ad3a-a722a4fe463d"},"vehicle_type_id":"4","last_reported":1758571896,"current_range_meters":16000,"station_id":"","pricing_plan_id":"cebpf4jnsgd1na2vs0mg"},{"bike_id":"3d2a051c-db7e-4fc1-9774-95d76b22d108","system_id":"levelo_inurba_marseille","lat":43.29264,"lon":5.38458,"is_reserved":false,"is_disabled":false,"rental_uris":{"android":"levelo://app?vid=3d2a051c-db7e-4fc1-9774-95d76b22d108","ios":"levelo://app?vid=3d2a051c-db7e-4fc1-9774-95d76b22d108"},"vehicle_type_id":"4","last_reported":1758571896,"current_range_meters":16400,"station_id":"ce4bh692rcd13ifvqea0","pricing_plan_id":"cebpf4jnsgd1na2vs0mg"},{"bike_id":"7de5da8a-e4bb-461f-939f-a54cb1c4c947","system_id":"levelo_inurba_marseille","lat":43.29261,"lon":5.38455,"is_reserved":false,"is_disabled":false,"rental_uris":{"android":"levelo://app?vid=7de5da8a-e4bb-461f-939f-a54cb1c4c947","ios":"levelo://app?vid=7de5da8a-e4bb-461f-939f-a54cb1c4c947"},"vehicle_type_id":"4","last_reported":1758571896,"current_range_meters":16000,"station_id":"ce4bh692rcd13ifvqea0","pricing_plan_id":"cebpf4jnsgd1na2vs0mg"},{"bike_id":"8cac3fdd-5ea7-4c4c-ae1f-15a49ee56f1c","system_id":"levelo_inurba_marseille","lat":43.26808,"lon":5.40271,"is_reserved":false,"is_disabled":false,"rental_uris":{"android":"levelo://app?vid=8cac3fdd-5ea7-4c4c-ae1f-15a49ee56f1c","ios":"levelo://app?vid=8cac3fdd-5ea7-4c4c-ae1f-15a49ee56f1c"},"vehicle_type_id":"4","last_reported":1758571896,"current_range_meters":16000,"station_id":"ce501612rcd8frsf0b60","pricing_plan_id":"cebpf4jnsgd1na2vs0mg"},{"bike_id":"e519d887-a19a-423d-b8a7-432adc3b605a","system_id":"levelo_inurba_marseille","lat":43.282201,"lon":5.390392,"is_reserved":false,"is_disabled":false,"rental_uris":{"android":"levelo://app?vid=e519d887-a19a-423d-b8a7-432adc3b605a","ios":"levelo://app?vid=e519d887-a19a-423d-b8a7-432adc3b605a"},"vehicle_type_id":"4","last_reported":1758571896,"current_range_meters":16000,"station_id":"ce4bhn92rcd13ifvqgsg","pricing_plan_id":"cebpf4jnsgd1na2vs0mg"},{"bike_id":"b39d4814-e9e4-4c28-8c50-525791cc33f5","system_id":"levelo_inurba_marseille","lat":43.29979,"lon":5.38535,"is_reserved":false,"is_disabled":true,"rental_uris":{"android":"levelo://app?vid=b39d4814-e9e4-4c28-8c50-525791cc33f5","ios":"levelo://app?vid=b39d4814-e9e4-4c28-8c50-525791cc33f5"},"vehicle_type_id":"4","last_reported":1758571896,"current_range_meters":16000,"station_id":"ce4bgj92rcd13ifvqbd0","pricing_plan_id":"cebpf4jnsgd1na2vs0mg"},{"bike_id":"385b6599-d75d-4283-964e-8e10ba698a60","system_id":"levelo_inurba_marseille","lat":43.28411,"lon":5.37511,"is_reserved":false,"is_disabled":false,"rental_uris":{"android":"levelo://app?vid=385b6599-d75d-4283-964e-8e10ba698a60","ios":"levelo://app?vid=385b6599-d75d-4283-964e-8e10ba698a60"},"vehicle_type_id":"4","last_reported":1758571896,"current_range_meters":16000,"station_id":"ce4bh412rcd13ifvqds0","pricing_plan_id":"cebpf4jnsgd1na2vs0mg"},{"bike_id":"5337dcdc-c6f5-44ae-a466-a1ebe14dfbb3","system_id":"levelo_inurba_marseille","lat":43.24169,"lon":5.36427,"is_reserved":false,"is_disabled":false,"rental_uris":{"android":"levelo://app?vid=5337dcdc-c6f5-44ae-a466-a1ebe14dfbb3","ios":"levelo://app?vid=5337dcdc-c6f5-44ae-a466-a1ebe14dfbb3"},"vehicle_type_id":"4","last_reported":1758571896,"current_range_meters":16000,"station_id":"cpo36qri1sfpv3e86is0","pricing_plan_id":"cebpf4jnsgd1na2vs0mg"},{"bike_id":"2284fa23-028e-4c0b-95e1-966ea6779a95","system_id":"levelo_inurba_marseille","lat":43.29533,"lon":5.3854,"is_reserved":false,"is_disabled":false,"rental_uris":{"android":"levelo://app?vid=2284fa23-028e-4c0b-95e1-966ea6779a95","ios":"levelo://app?vid=2284fa23-028e-4c0b-95e1-966ea6779a95"},"vehicle_type_id":"4","last_reported":1758571896,"current_range_meters":16000,"station_id":"ce4bgih2rcd13ifvqba0","pricing_plan_id":"cebpf4jnsgd1na2vs0mg"},{"bike_id":"99b1183f-236c-4121-a83a-06e414b681f1","system_id":"levelo_inurba_marseille","lat":43.28968,"lon":5.3782,"is_reserved":false,"is_disabled":false,"rental_uris":{"android":"levelo://app?vid=99b1183f-236c-4121-a83a-06e414b681f1","ios":"levelo://app?vid=99b1183f-236c-4121-a83a-06e414b681f1"},"vehicle_type_id":"4","last_reported":1758571896,"current_range_meters":16000,"station_id":"ce4bh9p2rcd13ifvqed0","pricing_plan_id":"cebpf4jnsgd1na2vs0mg"},{"bike_id":"8805ab6e-6f37-4330-b53d-36ca2a84c6b9","system_id":"levelo_inurba_marseille","lat":43.28104,"lon":5.3789,"is_reserved":false,"is_disabled":false,"rental_uris":{"android":"levelo://app?vid=8805ab6e-6f37-4330-b53d-36ca2a84c6b9","ios":"levelo://app?vid=8805ab6e-6f37-4330-b53d-36ca2a84c6b9"},"vehicle_type_id":"4","last_reported":1758571896,"current_range_meters":16000,"station_id":"ce4bha12rcd13ifvqee0","pricing_plan_id":"cebpf4jnsgd1na2vs0mg"},{"bike_id":"667ac0cb-e24e-4533-863a-1f39da01e97e","system_id":"levelo_inurba_marseille","lat":43.29272,"lon":5.36842,"is_reserved":false,"is_disabled":false,"rental_uris":{"android":"levelo://app?vid=667ac0cb-e24e-4533-863a-1f39da01e97e","ios":"levelo://app?vid=667ac0cb-e24e-4533-863a-1f39da01e97e"},"vehicle_type_id":"4","last_reported":1758571896,"current_range_meters":16000,"station_id":"ce4bhbp2rcd13ifvqesg","pricing_plan_id":"cebpf4jnsgd1na2vs0mg"},{"bike_id":"0d44ec6f-f962-411c-8477-a78e54b07bcf","system_id":"levelo_inurba_marseille","lat":43.29085,"lon":5.37207,"is_reserved":false,"is_disabled":false,"rental_uris":{"android":"levelo://app?vid=0d44ec6f-f962-411c-8477-a78e54b07bcf","ios":"levelo://app?vid=0d44ec6f-f962-411c-8477-a78e54b07bcf"},"vehicle_type_id":"4","last_reported":1758571896,"current_range_meters":16000,"station_id":"ce4bh5p2rcd13ifvqe4g","pricing_plan_id":"cebpf4jnsgd1na2vs0mg"},{"bike_id":"76395fb0-39b9-4418-b45f-5caf81c7a357","system_id":"levelo_inurba_marseille","lat":43.28457,"lon":5.35888,"is_reserved":false,"is_disabled":false,"rental_uris":{"android":"levelo://app?vid=76395fb0-39b9-4418-b45f-5caf81c7a357","ios":"levelo://app?vid=76395fb0-39b9-4418-b45f-5caf81c7a357"},"vehicle_type_id":"4","last_reported":1758571896,"current_range_meters":16000,"station_id":"ce4bhah2rcd13ifvqei0","pricing_plan_id":"cebpf4jnsgd1na2vs0mg"},{"bike_id":"bf878ec6-d729-4443-a3b4-9fa5cc136616","system_id":"levelo_inurba_marseille","lat":43.27604,"lon":5.42648,"is_reserved":false,"is_disabled":false,"rental_uris":{"android":"levelo://app?vid=bf878ec6-d729-4443-a3b4-9fa5cc136616","ios":"levelo://app?vid=bf878ec6-d729-4443-a3b4-9fa5cc136616"},"vehicle_type_id":"4","last_reported":1758571896,"current_range_meters":16400,"station_id":"","pricing_plan_id":"cebpf4jnsgd1na2vs0mg"},{"bike_id":"da64a509-72ad-45f0-a9bf-3cc012993de2","system_id":"levelo_inurba_marseille","lat":43.29707,"lon":5.36621,"is_reserved":false,"is_disabled":true,"rental_uris":{"android":"levelo://app?vid=da64a509-72ad-45f0-a9bf-3cc012993de2","ios":"levelo://app?vid=da64a509-72ad-45f0-a9bf-3cc012993de2"},"vehicle_type_id":"4","last_reported":1758571896,"current_range_meters":16400,"station_id":"ce4bgn12rcd13ifvqbt0","pricing_plan_id":"cebpf4jnsgd1na2vs0mg"},{"bike_id":"d4d1640f-69db-450c-91f4-d1c15bc15a9e","system_id":"levelo_inurba_marseille","lat":43.29317,"lon":5.37152,"is_reserved":false,"is_disabled":false,"rental_uris":{"android":"levelo://app?vid=d4d1640f-69db-450c-91f4-d1c15bc15a9e","ios":"levelo://app?vid=d4d1640f-69db-450c-91f4-d1c15bc15a9e"},"vehicle_type_id":"4","last_reported":1758571896,"current_range_meters":16400,"station_id":"ce4bgh92rcd13ifvqb40","pricing_plan_id":"cebpf4jnsgd1na2vs0mg"},{"bike_id":"7255c9c5-3022-4bd7-b7d9-a8ad071778ec","system_id":"levelo_inurba_marseille","lat":43.29956,"lon":5.41319,"is_reserved":false,"is_disabled":false,"rental_uris":{"android":"levelo://app?vid=7255c9c5-3022-4bd7-b7d9-a8ad071778ec","ios":"levelo://app?vid=7255c9c5-3022-4bd7-b7d9-a8ad071778ec"},"vehicle_type_id":"4","last_reported":1758571896,"current_range_meters":16400,"station_id":"ce4bhp12rcd13ifvqh9g","pricing_plan_id":"cebpf4jnsgd1na2vs0mg"},{"bike_id":"2a2f1ce0-5eb2-4ab6-a692-64d9649dcb94","system_id":"levelo_inurba_marseille","lat":43.22562,"lon":5.41641,"is_reserved":false,"is_disabled":false,"rental_uris":{"android":"levelo://app?vid=2a2f1ce0-5eb2-4ab6-a692-64d9649dcb94","ios":"levelo://app?vid=2a2f1ce0-5eb2-4ab6-a692-64d9649dcb94"},"vehicle_type_id":"4","last_reported":1758571896,"current_range_meters":16800,"station_id":"st_d2o4gvlbi1j2169b742g","pricing_plan_id":"cebpf4jnsgd1na2vs0mg"},{"bike_id":"978a8656-f1fd-4e92-a3a3-45d196fa6de0","system_id":"levelo_inurba_marseille","lat":43.26231,"lon":5.40421,"is_reserved":false,"is_disabled":false,"rental_uris":{"android":"levelo://app?vid=978a8656-f1fd-4e92-a3a3-45d196fa6de0","ios":"levelo://app?vid=978a8656-f1fd-4e92-a3a3-45d196fa6de0"},"vehicle_type_id":"4","last_reported":1758571896,"current_range_meters":16800,"station_id":"ce4bhmh2rcd13ifvqgmg","pricing_plan_id":"cebpf4jnsgd1na2vs0mg"},{"bike_id":"3a2f0200-19f6-4563-8356-bbb5c698396a","system_id":"levelo_inurba_marseille","lat":43.21754,"lon":5.34603,"is_reserved":false,"is_disabled":false,"rental_uris":{"android":"levelo://app?vid=3a2f0200-19f6-4563-8356-bbb5c698396a","ios":"levelo://app?vid=3a2f0200-19f6-4563-8356-bbb5c698396a"},"vehicle_type_id":"4","last_reported":1758571896,"current_range_meters":16800,"station_id":"st_cvj6r9ubvosntc0bgbag","pricing_plan_id":"cebpf4jnsgd1na2vs0mg"},{"bike_id":"61df8dbb-1e7c-4ae2-b89f-34682c26e327","system_id":"levelo_inurba_marseille","lat":43.30647,"lon":5.36704,"is_reserved":false,"is_disabled":false,"rental_uris":{"android":"levelo://app?vid=61df8dbb-1e7c-4ae2-b89f-34682c26e327","ios":"levelo://app?vid=61df8dbb-1e7c-4ae2-b89f-34682c26e327"},"vehicle_type_id":"4","last_reported":1758571896,"current_range_meters":16800,"station_id":"ce4bgrp2rcd13ifvqc9g","pricing_plan_id":"cebpf4jnsgd1na2vs0mg"},{"bike_id":"e7612908-1196-4d06-b5f1-fca12198c529","system_id":"levelo_inurba_marseille","lat":43.2572,"lon":5.411181,"is_reserved":false,"is_disabled":true,"rental_uris":{"android":"levelo://app?vid=e7612908-1196-4d06-b5f1-fca12198c529","ios":"levelo://app?vid=e7612908-1196-4d06-b5f1-fca12198c529"},"vehicle_type_id":"4","last_reported":1758571896,"current_range_meters":16800,"station_id":"ce4bhkp2rcd13ifvqgd0","pricing_plan_id":"cebpf4jnsgd1na2vs0mg"},{"bike_id":"37921a0e-44b0-4945-84df-e25486d4695c","system_id":"levelo_inurba_marseille","lat":43.28412,"lon":5.37522,"is_reserved":false,"is_disabled":false,"rental_uris":{"android":"levelo://app?vid=37921a0e-44b0-4945-84df-e25486d4695c","ios":"levelo://app?vid=37921a0e-44b0-4945-84df-e25486d4695c"},"vehicle_type_id":"4","last_reported":1758571896,"current_range_meters":17200,"station_id":"ce4bh412rcd13ifvqds0","pricing_plan_id":"cebpf4jnsgd1na2vs0mg"},{"bike_id":"0d93d80f-23fc-4b4f-918d-28fde704208b","system_id":"levelo_inurba_marseille","lat":43.24162,"lon":5.36396,"is_reserved":false,"is_disabled":false,"rental_uris":{"android":"levelo://app?vid=0d93d80f-23fc-4b4f-918d-28fde704208b","ios":"levelo://app?vid=0d93d80f-23fc-4b4f-918d-28fde704208b"},"vehicle_type_id":"4","last_reported":1758571896,"current_range_meters":17200,"station_id":"cpo36qri1sfpv3e86is0","pricing_plan_id":"cebpf4jnsgd1na2vs0mg"},{"bike_id":"7f66c4e6-9f4d-4bec-a1da-dab0803ea521","system_id":"levelo_inurba_marseille","lat":43.29261,"lon":5.36858,"is_reserved":false,"is_disabled":false,"rental_uris":{"android":"levelo://app?vid=7f66c4e6-9f4d-4bec-a1da-dab0803ea521","ios":"levelo://app?vid=7f66c4e6-9f4d-4bec-a1da-dab0803ea521"},"vehicle_type_id":"4","last_reported":1758571896,"current_range_meters":17200,"station_id":"ce4bhbp2rcd13ifvqesg","pricing_plan_id":"cebpf4jnsgd1na2vs0mg"},{"bike_id":"56829755-2fd9-4f79-8634-8b3689b344a9","system_id":"levelo_inurba_marseille","lat":43.293,"lon":5.3716,"is_reserved":false,"is_disabled":false,"rental_uris":{"android":"levelo://app?vid=56829755-2fd9-4f79-8634-8b3689b344a9","ios":"levelo://app?vid=56829755-2fd9-4f79-8634-8b3689b344a9"},"vehicle_type_id":"4","last_reported":1758571896,"current_range_meters":17200,"station_id":"ce4bgh92rcd13ifvqb40","pricing_plan_id":"cebpf4jnsgd1na2vs0mg"},{"bike_id":"18a05041-df0b-4871-a1b2-d886eafc146a","system_id":"levelo_inurba_marseille","lat":43.29112,"lon":5.38144,"is_reserved":false,"is_disabled":true,"rental_uris":{"android":"levelo://app?vid=18a05041-df0b-4871-a1b2-d886eafc146a","ios":"levelo://app?vid=18a05041-df0b-4871-a1b2-d886eafc146a"},"vehicle_type_id":"4","last_reported":1758571896,"current_range_meters":17200,"station_id":"ce4bh512rcd13ifvqe2g","pricing_plan_id":"cebpf4jnsgd1na2vs0mg"},{"bike_id":"6d3e23cf-4a62-4e7f-901c-90644df6518e","system_id":"levelo_inurba_marseille","lat":43.28103,"lon":5.37839,"is_reserved":false,"is_disabled":false,"rental_uris":{"android":"levelo://app?vid=6d3e23cf-4a62-4e7f-901c-90644df6518e","ios":"levelo://app?vid=6d3e23cf-4a62-4e7f-901c-90644df6518e"},"vehicle_type_id":"4","last_reported":1758571896,"current_range_meters":17200,"station_id":"ce4bha12rcd13ifvqee0","pricing_plan_id":"cebpf4jnsgd1na2vs0mg"},{"bike_id":"dc4348a9-1f63-45fb-aaaf-99f704d7881c","system_id":"levelo_inurba_marseille","lat":43.28705,"lon":5.37385,"is_reserved":false,"is_disabled":false,"rental_uris":{"android":"levelo://app?vid=dc4348a9-1f63-45fb-aaaf-99f704d7881c","ios":"levelo://app?vid=dc4348a9-1f63-45fb-aaaf-99f704d7881c"},"vehicle_type_id":"4","last_reported":1758571896,"current_range_meters":17200,"station_id":"ce4bh3p2rcd13ifvqdq0","pricing_plan_id":"cebpf4jnsgd1na2vs0mg"},{"bike_id":"7c0482c3-9253-4d1b-b4f3-be55cdb7721d","system_id":"levelo_inurba_marseille","lat":43.33757,"lon":5.37466,"is_reserved":false,"is_disabled":false,"rental_uris":{"android":"levelo://app?vid=7c0482c3-9253-4d1b-b4f3-be55cdb7721d","ios":"levelo://app?vid=7c0482c3-9253-4d1b-b4f3-be55cdb7721d"},"vehicle_type_id":"4","last_reported":1758571896,"current_range_meters":17600,"station_id":"","pricing_plan_id":"cebpf4jnsgd1na2vs0mg"},{"bike_id":"ed883389-1672-49b0-a5c4-8def0ee0fc42","system_id":"levelo_inurba_marseille","lat":43.27497,"lon":5.42452,"is_reserved":false,"is_disabled":false,"rental_uris":{"android":"levelo://app?vid=ed883389-1672-49b0-a5c4-8def0ee0fc42","ios":"levelo://app?vid=ed883389-1672-49b0-a5c4-8def0ee0fc42"},"vehicle_type_id":"4","last_reported":1758571896,"current_range_meters":17600,"station_id":"ce4bhn92rcd13ifvqgrg","pricing_plan_id":"cebpf4jnsgd1na2vs0mg"},{"bike_id":"eacf6cab-7b46-41a2-bdec-98874f91cc7f","system_id":"levelo_inurba_marseille","lat":43.22924,"lon":5.35386,"is_reserved":false,"is_disabled":false,"rental_uris":{"android":"levelo://app?vid=eacf6cab-7b46-41a2-bdec-98874f91cc7f","ios":"levelo://app?vid=eacf6cab-7b46-41a2-bdec-98874f91cc7f"},"vehicle_type_id":"4","last_reported":1758571896,"current_range_meters":17600,"station_id":"cpo3532slgdg3j2ikp40","pricing_plan_id":"cebpf4jnsgd1na2vs0mg"},{"bike_id":"7c0c5776-dabf-4c6a-a799-a8d90caca47b","system_id":"levelo_inurba_marseille","lat":43.29266,"lon":5.38439,"is_reserved":false,"is_disabled":false,"rental_uris":{"android":"levelo://app?vid=7c0c5776-dabf-4c6a-a799-a8d90caca47b","ios":"levelo://app?vid=7c0c5776-dabf-4c6a-a799-a8d90caca47b"},"vehicle_type_id":"4","last_reported":1758571896,"current_range_meters":17600,"station_id":"ce4bh692rcd13ifvqea0","pricing_plan_id":"cebpf4jnsgd1na2vs0mg"},{"bike_id":"7f63abf6-c351-4659-a653-d356862ac27b","system_id":"levelo_inurba_marseille","lat":43.25709,"lon":5.4112,"is_reserved":false,"is_disabled":false,"rental_uris":{"android":"levelo://app?vid=7f63abf6-c351-4659-a653-d356862ac27b","ios":"levelo://app?vid=7f63abf6-c351-4659-a653-d356862ac27b"},"vehicle_type_id":"4","last_reported":1758571896,"current_range_meters":17600,"station_id":"ce4bhkp2rcd13ifvqgd0","pricing_plan_id":"cebpf4jnsgd1na2vs0mg"},{"bike_id":"1fd71981-16ff-48a9-a84a-bf8e8eea0531","system_id":"levelo_inurba_marseille","lat":43.23194,"lon":5.39969,"is_reserved":false,"is_disabled":false,"rental_uris":{"android":"levelo://app?vid=1fd71981-16ff-48a9-a84a-bf8e8eea0531","ios":"levelo://app?vid=1fd71981-16ff-48a9-a84a-bf8e8eea0531"},"vehicle_type_id":"4","last_reported":1758571896,"current_range_meters":17600,"station_id":"ce4bhn12rcd13ifvqgqg","pricing_plan_id":"cebpf4jnsgd1na2vs0mg"},{"bike_id":"4616c6f4-78d9-401a-9bd0-ff87942ee32e","system_id":"levelo_inurba_marseille","lat":43.28108,"lon":5.37873,"is_reserved":false,"is_disabled":false,"rental_uris":{"android":"levelo://app?vid=4616c6f4-78d9-401a-9bd0-ff87942ee32e","ios":"levelo://app?vid=4616c6f4-78d9-401a-9bd0-ff87942ee32e"},"vehicle_type_id":"4","last_reported":1758571896,"current_range_meters":17600,"station_id":"ce4bha12rcd13ifvqee0","pricing_plan_id":"cebpf4jnsgd1na2vs0mg"},{"bike_id":"1964a7c4-f341-4518-b3f3-4cff78a650f1","system_id":"levelo_inurba_marseille","lat":43.32476,"lon":5.36568,"is_reserved":false,"is_disabled":false,"rental_uris":{"android":"levelo://app?vid=1964a7c4-f341-4518-b3f3-4cff78a650f1","ios":"levelo://app?vid=1964a7c4-f341-4518-b3f3-4cff78a650f1"},"vehicle_type_id":"4","last_reported":1758571896,"current_range_meters":17600,"station_id":"ce4bhs12rcd13ifvqhvg","pricing_plan_id":"cebpf4jnsgd1na2vs0mg"},{"bike_id":"4ebdc715-e70c-4658-84a1-b01cd0775d27","system_id":"levelo_inurba_marseille","lat":43.24163,"lon":5.3973,"is_reserved":false,"is_disabled":false,"rental_uris":{"android":"levelo://app?vid=4ebdc715-e70c-4658-84a1-b01cd0775d27","ios":"levelo://app?vid=4ebdc715-e70c-4658-84a1-b01cd0775d27"},"vehicle_type_id":"4","last_reported":1758571896,"current_range_meters":17600,"station_id":"ce4bhn12rcd13ifvqgpg","pricing_plan_id":"cebpf4jnsgd1na2vs0mg"},{"bike_id":"43d57fd4-047e-4ac8-97e5-ec9b96239472","system_id":"levelo_inurba_marseille","lat":43.33231,"lon":5.39821,"is_reserved":false,"is_disabled":false,"rental_uris":{"android":"levelo://app?vid=43d57fd4-047e-4ac8-97e5-ec9b96239472","ios":"levelo://app?vid=43d57fd4-047e-4ac8-97e5-ec9b96239472"},"vehicle_type_id":"4","last_reported":1758571896,"current_range_meters":17600,"station_id":"","pricing_plan_id":"cebpf4jnsgd1na2vs0mg"},{"bike_id":"e5d02fc2-d4d1-44d0-bace-b09d44d5304a","system_id":"levelo_inurba_marseille","lat":43.29265,"lon":5.3845,"is_reserved":false,"is_disabled":false,"rental_uris":{"android":"levelo://app?vid=e5d02fc2-d4d1-44d0-bace-b09d44d5304a","ios":"levelo://app?vid=e5d02fc2-d4d1-44d0-bace-b09d44d5304a"},"vehicle_type_id":"4","last_reported":1758571896,"current_range_meters":18000,"station_id":"ce4bh692rcd13ifvqea0","pricing_plan_id":"cebpf4jnsgd1na2vs0mg"},{"bike_id":"f9f6eeee-7962-4929-b948-a214524a3e98","system_id":"levelo_inurba_marseille","lat":43.26809,"lon":5.40288,"is_reserved":false,"is_disabled":false,"rental_uris":{"android":"levelo://app?vid=f9f6eeee-7962-4929-b948-a214524a3e98","ios":"levelo://app?vid=f9f6eeee-7962-4929-b948-a214524a3e98"},"vehicle_type_id":"4","last_reported":1758571896,"current_range_meters":18000,"station_id":"ce501612rcd8frsf0b60","pricing_plan_id":"cebpf4jnsgd1na2vs0mg"},{"bike_id":"e1c2b832-d2f3-465e-8590-d54c1cc2455a","system_id":"levelo_inurba_marseille","lat":43.26554,"lon":5.40327,"is_reserved":false,"is_disabled":false,"rental_uris":{"android":"levelo://app?vid=e1c2b832-d2f3-465e-8590-d54c1cc2455a","ios":"levelo://app?vid=e1c2b832-d2f3-465e-8590-d54c1cc2455a"},"vehicle_type_id":"4","last_reported":1758571896,"current_range_meters":18000,"station_id":"ce4bhmp2rcd13ifvqgng","pricing_plan_id":"cebpf4jnsgd1na2vs0mg"},{"bike_id":"dd38e859-c522-42a6-98fc-ca65304a6a7c","system_id":"levelo_inurba_marseille","lat":43.29035,"lon":5.38648,"is_reserved":false,"is_disabled":false,"rental_uris":{"android":"levelo://app?vid=dd38e859-c522-42a6-98fc-ca65304a6a7c","ios":"levelo://app?vid=dd38e859-c522-42a6-98fc-ca65304a6a7c"},"vehicle_type_id":"4","last_reported":1758571896,"current_range_meters":18000,"station_id":"ce4bh4p2rcd13ifvqe0g","pricing_plan_id":"cebpf4jnsgd1na2vs0mg"},{"bike_id":"06a24bce-028d-4b4a-b4a3-d45296145db5","system_id":"levelo_inurba_marseille","lat":43.28425,"lon":5.34991,"is_reserved":false,"is_disabled":true,"rental_uris":{"android":"levelo://app?vid=06a24bce-028d-4b4a-b4a3-d45296145db5","ios":"levelo://app?vid=06a24bce-028d-4b4a-b4a3-d45296145db5"},"vehicle_type_id":"4","last_reported":1758571896,"current_range_meters":18000,"station_id":"ce4bhch2rcd13ifvqeug","pricing_plan_id":"cebpf4jnsgd1na2vs0mg"},{"bike_id":"2a9f6ed3-dbfa-4eab-aebb-9fea83249571","system_id":"levelo_inurba_marseille","lat":43.28101,"lon":5.37843,"is_reserved":false,"is_disabled":false,"rental_uris":{"android":"levelo://app?vid=2a9f6ed3-dbfa-4eab-aebb-9fea83249571","ios":"levelo://app?vid=2a9f6ed3-dbfa-4eab-aebb-9fea83249571"},"vehicle_type_id":"4","last_reported":1758571896,"current_range_meters":18000,"station_id":"ce4bha12rcd13ifvqee0","pricing_plan_id":"cebpf4jnsgd1na2vs0mg"},{"bike_id":"fbbe8a6b-07d8-4985-bf8e-2675f11ccee9","system_id":"levelo_inurba_marseille","lat":43.308067,"lon":5.435254,"is_reserved":false,"is_disabled":false,"rental_uris":{"android":"levelo://app?vid=fbbe8a6b-07d8-4985-bf8e-2675f11ccee9","ios":"levelo://app?vid=fbbe8a6b-07d8-4985-bf8e-2675f11ccee9"},"vehicle_type_id":"4","last_reported":1758571896,"current_range_meters":18000,"station_id":"ce4bhph2rcd13ifvqheg","pricing_plan_id":"cebpf4jnsgd1na2vs0mg"},{"bike_id":"289731c5-0a7c-4698-a448-dee4759c591a","system_id":"levelo_inurba_marseille","lat":43.25338,"lon":5.4217,"is_reserved":false,"is_disabled":false,"rental_uris":{"android":"levelo://app?vid=289731c5-0a7c-4698-a448-dee4759c591a","ios":"levelo://app?vid=289731c5-0a7c-4698-a448-dee4759c591a"},"vehicle_type_id":"4","last_reported":1758571896,"current_range_meters":18000,"station_id":"st_d2m65c5bi1j21697t3ng","pricing_plan_id":"cebpf4jnsgd1na2vs0mg"},{"bike_id":"2187844a-f01a-4760-a838-74dd58c2bf00","system_id":"levelo_inurba_marseille","lat":43.29521,"lon":5.39396,"is_reserved":false,"is_disabled":false,"rental_uris":{"android":"levelo://app?vid=2187844a-f01a-4760-a838-74dd58c2bf00","ios":"levelo://app?vid=2187844a-f01a-4760-a838-74dd58c2bf00"},"vehicle_type_id":"4","last_reported":1758571896,"current_range_meters":18000,"station_id":"ce4bh292rcd13ifvqdf0","pricing_plan_id":"cebpf4jnsgd1na2vs0mg"},{"bike_id":"cabc4015-1ca1-4400-84b6-412061ece1ff","system_id":"levelo_inurba_marseille","lat":43.28112,"lon":5.37856,"is_reserved":false,"is_disabled":false,"rental_uris":{"android":"levelo://app?vid=cabc4015-1ca1-4400-84b6-412061ece1ff","ios":"levelo://app?vid=cabc4015-1ca1-4400-84b6-412061ece1ff"},"vehicle_type_id":"4","last_reported":1758571896,"current_range_meters":18000,"station_id":"ce4bha12rcd13ifvqee0","pricing_plan_id":"cebpf4jnsgd1na2vs0mg"},{"bike_id":"eafb13f9-294c-4888-822b-1fa8216e50b7","system_id":"levelo_inurba_marseille","lat":43.28723,"lon":5.37934,"is_reserved":false,"is_disabled":false,"rental_uris":{"android":"levelo://app?vid=eafb13f9-294c-4888-822b-1fa8216e50b7","ios":"levelo://app?vid=eafb13f9-294c-4888-822b-1fa8216e50b7"},"vehicle_type_id":"4","last_reported":1758571896,"current_range_meters":18800,"station_id":"ce4bh9p2rcd13ifvqec0","pricing_plan_id":"cebpf4jnsgd1na2vs0mg"},{"bike_id":"d24dd466-02ce-4a40-865e-e4b5699b5ac4","system_id":"levelo_inurba_marseille","lat":43.292636,"lon":5.384441,"is_reserved":false,"is_disabled":false,"rental_uris":{"android":"levelo://app?vid=d24dd466-02ce-4a40-865e-e4b5699b5ac4","ios":"levelo://app?vid=d24dd466-02ce-4a40-865e-e4b5699b5ac4"},"vehicle_type_id":"4","last_reported":1758571896,"current_range_meters":18800,"station_id":"","pricing_plan_id":"cebpf4jnsgd1na2vs0mg"},{"bike_id":"c33c18e3-223a-40d2-8351-4bce4afff813","system_id":"levelo_inurba_marseille","lat":43.29866,"lon":5.39733,"is_reserved":false,"is_disabled":false,"rental_uris":{"android":"levelo://app?vid=c33c18e3-223a-40d2-8351-4bce4afff813","ios":"levelo://app?vid=c33c18e3-223a-40d2-8351-4bce4afff813"},"vehicle_type_id":"4","last_reported":1758571896,"current_range_meters":18800,"station_id":"ce4bh0h2rcd13ifvqd50","pricing_plan_id":"cebpf4jnsgd1na2vs0mg"},{"bike_id":"e24a98c0-c017-4e05-ae5c-0af6755c74f9","system_id":"levelo_inurba_marseille","lat":43.29201,"lon":5.37133,"is_reserved":false,"is_disabled":false,"rental_uris":{"android":"levelo://app?vid=e24a98c0-c017-4e05-ae5c-0af6755c74f9","ios":"levelo://app?vid=e24a98c0-c017-4e05-ae5c-0af6755c74f9"},"vehicle_type_id":"4","last_reported":1758571896,"current_range_meters":18800,"station_id":"ce4bha92rcd13ifvqeh0","pricing_plan_id":"cebpf4jnsgd1na2vs0mg"},{"bike_id":"a57ec678-3f9e-4769-a06b-b0e36f8205fe","system_id":"levelo_inurba_marseille","lat":43.23199,"lon":5.39973,"is_reserved":false,"is_disabled":false,"rental_uris":{"android":"levelo://app?vid=a57ec678-3f9e-4769-a06b-b0e36f8205fe","ios":"levelo://app?vid=a57ec678-3f9e-4769-a06b-b0e36f8205fe"},"vehicle_type_id":"4","last_reported":1758571896,"current_range_meters":18800,"station_id":"ce4bhn12rcd13ifvqgqg","pricing_plan_id":"cebpf4jnsgd1na2vs0mg"},{"bike_id":"40d49a8c-e638-4879-9445-96d3b9cf3754","system_id":"levelo_inurba_marseille","lat":43.2897,"lon":5.37835,"is_reserved":false,"is_disabled":false,"rental_uris":{"android":"levelo://app?vid=40d49a8c-e638-4879-9445-96d3b9cf3754","ios":"levelo://app?vid=40d49a8c-e638-4879-9445-96d3b9cf3754"},"vehicle_type_id":"4","last_reported":1758571896,"current_range_meters":18000,"station_id":"ce4bh9p2rcd13ifvqed0","pricing_plan_id":"cebpf4jnsgd1na2vs0mg"},{"bike_id":"fd66a615-66cd-4cfa-850f-fc21d997e590","system_id":"levelo_inurba_marseille","lat":43.30263,"lon":5.37732,"is_reserved":false,"is_disabled":false,"rental_uris":{"android":"levelo://app?vid=fd66a615-66cd-4cfa-850f-fc21d997e590","ios":"levelo://app?vid=fd66a615-66cd-4cfa-850f-fc21d997e590"},"vehicle_type_id":"4","last_reported":1758571896,"current_range_meters":18000,"station_id":"ce4bguh2rcd13ifvqcj0","pricing_plan_id":"cebpf4jnsgd1na2vs0mg"},{"bike_id":"2f1a6508-86c5-4041-bd13-949a4101bc93","system_id":"levelo_inurba_marseille","lat":43.28153,"lon":5.42638,"is_reserved":false,"is_disabled":false,"rental_uris":{"android":"levelo://app?vid=2f1a6508-86c5-4041-bd13-949a4101bc93","ios":"levelo://app?vid=2f1a6508-86c5-4041-bd13-949a4101bc93"},"vehicle_type_id":"4","last_reported":1758571896,"current_range_meters":18000,"station_id":"ce4bhnh2rcd13ifvqgug","pricing_plan_id":"cebpf4jnsgd1na2vs0mg"},{"bike_id":"2a52b0bb-783a-489f-a7b9-793ba892f121","system_id":"levelo_inurba_marseille","lat":43.25332,"lon":5.42172,"is_reserved":false,"is_disabled":false,"rental_uris":{"android":"levelo://app?vid=2a52b0bb-783a-489f-a7b9-793ba892f121","ios":"levelo://app?vid=2a52b0bb-783a-489f-a7b9-793ba892f121"},"vehicle_type_id":"4","last_reported":1758571896,"current_range_meters":18800,"station_id":"st_d2m65c5bi1j21697t3ng","pricing_plan_id":"cebpf4jnsgd1na2vs0mg"},{"bike_id":"0521dc00-f91f-4dcc-888e-0417b27fcff0","system_id":"levelo_inurba_marseille","lat":43.2846,"lon":5.35889,"is_reserved":false,"is_disabled":false,"rental_uris":{"android":"levelo://app?vid=0521dc00-f91f-4dcc-888e-0417b27fcff0","ios":"levelo://app?vid=0521dc00-f91f-4dcc-888e-0417b27fcff0"},"vehicle_type_id":"4","last_reported":1758571896,"current_range_meters":18800,"station_id":"ce4bhah2rcd13ifvqei0","pricing_plan_id":"cebpf4jnsgd1na2vs0mg"},{"bike_id":"81779ee0-ac92-4725-9d1b-bc3c52262d5e","system_id":"levelo_inurba_marseille","lat":43.27071,"lon":5.42279,"is_reserved":false,"is_disabled":false,"rental_uris":{"android":"levelo://app?vid=81779ee0-ac92-4725-9d1b-bc3c52262d5e","ios":"levelo://app?vid=81779ee0-ac92-4725-9d1b-bc3c52262d5e"},"vehicle_type_id":"4","last_reported":1758571896,"current_range_meters":19200,"station_id":"ce4bhk92rcd13ifvqgb0","pricing_plan_id":"cebpf4jnsgd1na2vs0mg"},{"bike_id":"cc290a18-f11d-4b21-a6cc-97ff33be46d2","system_id":"levelo_inurba_marseille","lat":43.30323,"lon":5.39196,"is_reserved":false,"is_disabled":true,"rental_uris":{"android":"levelo://app?vid=cc290a18-f11d-4b21-a6cc-97ff33be46d2","ios":"levelo://app?vid=cc290a18-f11d-4b21-a6cc-97ff33be46d2"},"vehicle_type_id":"4","last_reported":1758571896,"current_range_meters":19200,"station_id":"ce4bgkh2rcd13ifvqbk0","pricing_plan_id":"cebpf4jnsgd1na2vs0mg"},{"bike_id":"300f7730-ca4c-4a6b-b091-02d6222aa11d","system_id":"levelo_inurba_marseille","lat":43.22931,"lon":5.3538,"is_reserved":false,"is_disabled":false,"rental_uris":{"android":"levelo://app?vid=300f7730-ca4c-4a6b-b091-02d6222aa11d","ios":"levelo://app?vid=300f7730-ca4c-4a6b-b091-02d6222aa11d"},"vehicle_type_id":"4","last_reported":1758571896,"current_range_meters":19200,"station_id":"cpo3532slgdg3j2ikp40","pricing_plan_id":"cebpf4jnsgd1na2vs0mg"},{"bike_id":"dddca5ef-4a33-499b-936a-6d8e6136a417","system_id":"levelo_inurba_marseille","lat":43.22937,"lon":5.35386,"is_reserved":false,"is_disabled":false,"rental_uris":{"android":"levelo://app?vid=dddca5ef-4a33-499b-936a-6d8e6136a417","ios":"levelo://app?vid=dddca5ef-4a33-499b-936a-6d8e6136a417"},"vehicle_type_id":"4","last_reported":1758571896,"current_range_meters":19200,"station_id":"cpo3532slgdg3j2ikp40","pricing_plan_id":"cebpf4jnsgd1na2vs0mg"},{"bike_id":"d5cc46b8-e2e3-449e-bae5-96857657ca74","system_id":"levelo_inurba_marseille","lat":43.25712,"lon":5.41113,"is_reserved":false,"is_disabled":false,"rental_uris":{"android":"levelo://app?vid=d5cc46b8-e2e3-449e-bae5-96857657ca74","ios":"levelo://app?vid=d5cc46b8-e2e3-449e-bae5-96857657ca74"},"vehicle_type_id":"4","last_reported":1758571896,"current_range_meters":19200,"station_id":"ce4bhkp2rcd13ifvqgd0","pricing_plan_id":"cebpf4jnsgd1na2vs0mg"},{"bike_id":"2a10047d-cde4-4adf-b11d-b8818c7913a4","system_id":"levelo_inurba_marseille","lat":43.25719,"lon":5.41124,"is_reserved":false,"is_disabled":false,"rental_uris":{"android":"levelo://app?vid=2a10047d-cde4-4adf-b11d-b8818c7913a4","ios":"levelo://app?vid=2a10047d-cde4-4adf-b11d-b8818c7913a4"},"vehicle_type_id":"4","last_reported":1758571896,"current_range_meters":19600,"station_id":"ce4bhkp2rcd13ifvqgd0","pricing_plan_id":"cebpf4jnsgd1na2vs0mg"},{"bike_id":"d006181b-b46b-4fea-8675-345ce0f130d6","system_id":"levelo_inurba_marseille","lat":43.30559,"lon":5.36654,"is_reserved":false,"is_disabled":false,"rental_uris":{"android":"levelo://app?vid=d006181b-b46b-4fea-8675-345ce0f130d6","ios":"levelo://app?vid=d006181b-b46b-4fea-8675-345ce0f130d6"},"vehicle_type_id":"4","last_reported":1758571896,"current_range_meters":19600,"station_id":"","pricing_plan_id":"cebpf4jnsgd1na2vs0mg"},{"bike_id":"e15e7425-1d2e-43f2-a937-42c73da66651","system_id":"levelo_inurba_marseille","lat":43.29543,"lon":5.38542,"is_reserved":false,"is_disabled":true,"rental_uris":{"android":"levelo://app?vid=e15e7425-1d2e-43f2-a937-42c73da66651","ios":"levelo://app?vid=e15e7425-1d2e-43f2-a937-42c73da66651"},"vehicle_type_id":"4","last_reported":1758571896,"current_range_meters":19600,"station_id":"ce4bgih2rcd13ifvqba0","pricing_plan_id":"cebpf4jnsgd1na2vs0mg"},{"bike_id":"902a85b4-786a-4a10-b45c-52ec35967b94","system_id":"levelo_inurba_marseille","lat":43.24068,"lon":5.37763,"is_reserved":false,"is_disabled":false,"rental_uris":{"android":"levelo://app?vid=902a85b4-786a-4a10-b45c-52ec35967b94","ios":"levelo://app?vid=902a85b4-786a-4a10-b45c-52ec35967b94"},"vehicle_type_id":"4","last_reported":1758571896,"current_range_meters":19600,"station_id":"ce4bhnp2rcd13ifvqgvg","pricing_plan_id":"cebpf4jnsgd1na2vs0mg"},{"bike_id":"c389ade3-b00a-4bc2-b2c8-c735274af62a","system_id":"levelo_inurba_marseille","lat":43.29439,"lon":5.3975,"is_reserved":false,"is_disabled":false,"rental_uris":{"android":"levelo://app?vid=c389ade3-b00a-4bc2-b2c8-c735274af62a","ios":"levelo://app?vid=c389ade3-b00a-4bc2-b2c8-c735274af62a"},"vehicle_type_id":"4","last_reported":1758571896,"current_range_meters":19600,"station_id":"ce4bh3h2rcd13ifvqdo0","pricing_plan_id":"cebpf4jnsgd1na2vs0mg"},{"bike_id":"7ae383a9-468d-4909-bab6-d7a75946e35d","system_id":"levelo_inurba_marseille","lat":43.28442,"lon":5.39187,"is_reserved":false,"is_disabled":false,"rental_uris":{"android":"levelo://app?vid=7ae383a9-468d-4909-bab6-d7a75946e35d","ios":"levelo://app?vid=7ae383a9-468d-4909-bab6-d7a75946e35d"},"vehicle_type_id":"4","last_reported":1758571896,"current_range_meters":19600,"station_id":"ce4bhoh2rcd13ifvqh5g","pricing_plan_id":"cebpf4jnsgd1na2vs0mg"},{"bike_id":"3c0fa725-f739-4599-965d-e73d3e7b2c8f","system_id":"levelo_inurba_marseille","lat":43.32376,"lon":5.36768,"is_reserved":false,"is_disabled":false,"rental_uris":{"android":"levelo://app?vid=3c0fa725-f739-4599-965d-e73d3e7b2c8f","ios":"levelo://app?vid=3c0fa725-f739-4599-965d-e73d3e7b2c8f"},"vehicle_type_id":"4","last_reported":1758571896,"current_range_meters":19600,"station_id":"ce4bhsh2rcd13ifvqi2g","pricing_plan_id":"cebpf4jnsgd1na2vs0mg"},{"bike_id":"35450425-2f77-4cc3-9bf2-34774855a5c4","system_id":"levelo_inurba_marseille","lat":43.25723,"lon":5.41111,"is_reserved":false,"is_disabled":true,"rental_uris":{"android":"levelo://app?vid=35450425-2f77-4cc3-9bf2-34774855a5c4","ios":"levelo://app?vid=35450425-2f77-4cc3-9bf2-34774855a5c4"},"vehicle_type_id":"4","last_reported":1758571896,"current_range_meters":20000,"station_id":"ce4bhkp2rcd13ifvqgd0","pricing_plan_id":"cebpf4jnsgd1na2vs0mg"},{"bike_id":"a60abba9-f9b8-477b-8786-175fc2b6218b","system_id":"levelo_inurba_marseille","lat":43.30872,"lon":5.3718,"is_reserved":false,"is_disabled":false,"rental_uris":{"android":"levelo://app?vid=a60abba9-f9b8-477b-8786-175fc2b6218b","ios":"levelo://app?vid=a60abba9-f9b8-477b-8786-175fc2b6218b"},"vehicle_type_id":"4","last_reported":1758571896,"current_range_meters":20000,"station_id":"ce4bguh2rcd13ifvqckg","pricing_plan_id":"cebpf4jnsgd1na2vs0mg"},{"bike_id":"8a291fc6-bc1f-48dd-aac3-327790aac9df","system_id":"levelo_inurba_marseille","lat":43.27918,"lon":5.39597,"is_reserved":false,"is_disabled":false,"rental_uris":{"android":"levelo://app?vid=8a291fc6-bc1f-48dd-aac3-327790aac9df","ios":"levelo://app?vid=8a291fc6-bc1f-48dd-aac3-327790aac9df"},"vehicle_type_id":"4","last_reported":1758571896,"current_range_meters":20000,"station_id":"ce4bhf92rcd13ifvqf40","pricing_plan_id":"cebpf4jnsgd1na2vs0mg"},{"bike_id":"0a16e023-280b-4b39-8f7f-f784f1083807","system_id":"levelo_inurba_marseille","lat":43.29268,"lon":5.38448,"is_reserved":false,"is_disabled":false,"rental_uris":{"android":"levelo://app?vid=0a16e023-280b-4b39-8f7f-f784f1083807","ios":"levelo://app?vid=0a16e023-280b-4b39-8f7f-f784f1083807"},"vehicle_type_id":"4","last_reported":1758571896,"current_range_meters":20000,"station_id":"ce4bh692rcd13ifvqea0","pricing_plan_id":"cebpf4jnsgd1na2vs0mg"},{"bike_id":"9feb0e0f-24fa-4463-b0f3-30472830c043","system_id":"levelo_inurba_marseille","lat":43.31757,"lon":5.39002,"is_reserved":false,"is_disabled":false,"rental_uris":{"android":"levelo://app?vid=9feb0e0f-24fa-4463-b0f3-30472830c043","ios":"levelo://app?vid=9feb0e0f-24fa-4463-b0f3-30472830c043"},"vehicle_type_id":"4","last_reported":1758571896,"current_range_meters":20400,"station_id":"ce4bhqp2rcd13ifvqhng","pricing_plan_id":"cebpf4jnsgd1na2vs0mg"},{"bike_id":"96b52191-cdd8-4909-9fad-4de0aaa5f927","system_id":"levelo_inurba_marseille","lat":43.30944,"lon":5.39043,"is_reserved":false,"is_disabled":true,"rental_uris":{"android":"levelo://app?vid=96b52191-cdd8-4909-9fad-4de0aaa5f927","ios":"levelo://app?vid=96b52191-cdd8-4909-9fad-4de0aaa5f927"},"vehicle_type_id":"4","last_reported":1758571896,"current_range_meters":20400,"station_id":"ce4bgup2rcd13ifvqco0","pricing_plan_id":"cebpf4jnsgd1na2vs0mg"},{"bike_id":"be2bce19-ee96-4df2-8c51-454cced10294","system_id":"levelo_inurba_marseille","lat":43.29047,"lon":5.35866,"is_reserved":false,"is_disabled":true,"rental_uris":{"android":"levelo://app?vid=be2bce19-ee96-4df2-8c51-454cced10294","ios":"levelo://app?vid=be2bce19-ee96-4df2-8c51-454cced10294"},"vehicle_type_id":"4","last_reported":1758571896,"current_range_meters":20400,"station_id":"ce4bha92rcd13ifvqeg0","pricing_plan_id":"cebpf4jnsgd1na2vs0mg"},{"bike_id":"39784f12-8791-4de1-9a8f-9e7291b8b2b8","system_id":"levelo_inurba_marseille","lat":43.25117,"lon":5.40316,"is_reserved":false,"is_disabled":true,"rental_uris":{"android":"levelo://app?vid=39784f12-8791-4de1-9a8f-9e7291b8b2b8","ios":"levelo://app?vid=39784f12-8791-4de1-9a8f-9e7291b8b2b8"},"vehicle_type_id":"4","last_reported":1758571896,"current_range_meters":20400,"station_id":"ce4bhlh2rcd13ifvqgig","pricing_plan_id":"cebpf4jnsgd1na2vs0mg"},{"bike_id":"31ce0716-1e59-46fe-9a33-16c3b81be277","system_id":"levelo_inurba_marseille","lat":43.28038,"lon":5.3694,"is_reserved":false,"is_disabled":false,"rental_uris":{"android":"levelo://app?vid=31ce0716-1e59-46fe-9a33-16c3b81be277","ios":"levelo://app?vid=31ce0716-1e59-46fe-9a33-16c3b81be277"},"vehicle_type_id":"4","last_reported":1758571896,"current_range_meters":20400,"station_id":"ce4bha12rcd13ifvqef0","pricing_plan_id":"cebpf4jnsgd1na2vs0mg"},{"bike_id":"177d90a3-662c-4acf-b05f-7ddaa2893218","system_id":"levelo_inurba_marseille","lat":43.29524,"lon":5.39046,"is_reserved":false,"is_disabled":false,"rental_uris":{"android":"levelo://app?vid=177d90a3-662c-4acf-b05f-7ddaa2893218","ios":"levelo://app?vid=177d90a3-662c-4acf-b05f-7ddaa2893218"},"vehicle_type_id":"4","last_reported":1758571896,"current_range_meters":20400,"station_id":"ce4bh3p2rcd13ifvqdp0","pricing_plan_id":"cebpf4jnsgd1na2vs0mg"},{"bike_id":"6e5460af-2f27-4a87-ba8c-3d86c35edff4","system_id":"levelo_inurba_marseille","lat":43.286753,"lon":5.386613,"is_reserved":false,"is_disabled":false,"rental_uris":{"android":"levelo://app?vid=6e5460af-2f27-4a87-ba8c-3d86c35edff4","ios":"levelo://app?vid=6e5460af-2f27-4a87-ba8c-3d86c35edff4"},"vehicle_type_id":"4","last_reported":1758571896,"current_range_meters":20400,"station_id":"ce4bh492rcd13ifvqdug","pricing_plan_id":"cebpf4jnsgd1na2vs0mg"},{"bike_id":"b76058d7-d72e-4cb7-9dd6-17aa187777ab","system_id":"levelo_inurba_marseille","lat":43.29267,"lon":5.38443,"is_reserved":false,"is_disabled":false,"rental_uris":{"android":"levelo://app?vid=b76058d7-d72e-4cb7-9dd6-17aa187777ab","ios":"levelo://app?vid=b76058d7-d72e-4cb7-9dd6-17aa187777ab"},"vehicle_type_id":"4","last_reported":1758571896,"current_range_meters":20400,"station_id":"ce4bh692rcd13ifvqea0","pricing_plan_id":"cebpf4jnsgd1na2vs0mg"},{"bike_id":"7e369899-bc1f-4cc0-924e-33018945dd99","system_id":"levelo_inurba_marseille","lat":43.25719,"lon":5.411207,"is_reserved":false,"is_disabled":false,"rental_uris":{"android":"levelo://app?vid=7e369899-bc1f-4cc0-924e-33018945dd99","ios":"levelo://app?vid=7e369899-bc1f-4cc0-924e-33018945dd99"},"vehicle_type_id":"4","last_reported":1758571896,"current_range_meters":20400,"station_id":"ce4bhkp2rcd13ifvqgd0","pricing_plan_id":"cebpf4jnsgd1na2vs0mg"},{"bike_id":"88dd6124-dfce-421f-b7f1-a7e4476a897a","system_id":"levelo_inurba_marseille","lat":43.31329,"lon":5.39689,"is_reserved":false,"is_disabled":false,"rental_uris":{"android":"levelo://app?vid=88dd6124-dfce-421f-b7f1-a7e4476a897a","ios":"levelo://app?vid=88dd6124-dfce-421f-b7f1-a7e4476a897a"},"vehicle_type_id":"4","last_reported":1758571896,"current_range_meters":20000,"station_id":"ce4bgvp2rcd13ifvqcu0","pricing_plan_id":"cebpf4jnsgd1na2vs0mg"},{"bike_id":"f091c1e9-c1e0-402d-983d-a850bd50ae3a","system_id":"levelo_inurba_marseille","lat":43.29523,"lon":5.39052,"is_reserved":false,"is_disabled":false,"rental_uris":{"android":"levelo://app?vid=f091c1e9-c1e0-402d-983d-a850bd50ae3a","ios":"levelo://app?vid=f091c1e9-c1e0-402d-983d-a850bd50ae3a"},"vehicle_type_id":"4","last_reported":1758571896,"current_range_meters":20400,"station_id":"ce4bh3p2rcd13ifvqdp0","pricing_plan_id":"cebpf4jnsgd1na2vs0mg"},{"bike_id":"43a81ac2-a057-4793-bb0b-530edb5c85ec","system_id":"levelo_inurba_marseille","lat":43.29249,"lon":5.38444,"is_reserved":false,"is_disabled":false,"rental_uris":{"android":"levelo://app?vid=43a81ac2-a057-4793-bb0b-530edb5c85ec","ios":"levelo://app?vid=43a81ac2-a057-4793-bb0b-530edb5c85ec"},"vehicle_type_id":"4","last_reported":1758571896,"current_range_meters":20400,"station_id":"ce4bh692rcd13ifvqea0","pricing_plan_id":"cebpf4jnsgd1na2vs0mg"},{"bike_id":"9b7ede26-625e-4df6-8445-72320047a48c","system_id":"levelo_inurba_marseille","lat":43.26556,"lon":5.40329,"is_reserved":false,"is_disabled":false,"rental_uris":{"android":"levelo://app?vid=9b7ede26-625e-4df6-8445-72320047a48c","ios":"levelo://app?vid=9b7ede26-625e-4df6-8445-72320047a48c"},"vehicle_type_id":"4","last_reported":1758571896,"current_range_meters":20800,"station_id":"ce4bhmp2rcd13ifvqgng","pricing_plan_id":"cebpf4jnsgd1na2vs0mg"},{"bike_id":"899f1480-b0cd-4658-a747-a39ddb0e846e","system_id":"levelo_inurba_marseille","lat":43.23197,"lon":5.35557,"is_reserved":false,"is_disabled":false,"rental_uris":{"android":"levelo://app?vid=899f1480-b0cd-4658-a747-a39ddb0e846e","ios":"levelo://app?vid=899f1480-b0cd-4658-a747-a39ddb0e846e"},"vehicle_type_id":"4","last_reported":1758571896,"current_range_meters":20400,"station_id":"ce4bhu92rcd13ifvqi70","pricing_plan_id":"cebpf4jnsgd1na2vs0mg"},{"bike_id":"aed48393-ace5-402a-b677-021838903366","system_id":"levelo_inurba_marseille","lat":43.25114,"lon":5.40329,"is_reserved":false,"is_disabled":false,"rental_uris":{"android":"levelo://app?vid=aed48393-ace5-402a-b677-021838903366","ios":"levelo://app?vid=aed48393-ace5-402a-b677-021838903366"},"vehicle_type_id":"4","last_reported":1758571896,"current_range_meters":20800,"station_id":"ce4bhlh2rcd13ifvqgig","pricing_plan_id":"cebpf4jnsgd1na2vs0mg"},{"bike_id":"1527b269-4266-420e-8a83-eb9566155e6e","system_id":"levelo_inurba_marseille","lat":43.27844,"lon":5.39207,"is_reserved":false,"is_disabled":false,"rental_uris":{"android":"levelo://app?vid=1527b269-4266-420e-8a83-eb9566155e6e","ios":"levelo://app?vid=1527b269-4266-420e-8a83-eb9566155e6e"},"vehicle_type_id":"4","last_reported":1758571896,"current_range_meters":20400,"station_id":"ce4bhjp2rcd13ifvqga0","pricing_plan_id":"cebpf4jnsgd1na2vs0mg"},{"bike_id":"7b260fde-1480-4cc6-963f-1556cc40139f","system_id":"levelo_inurba_marseille","lat":43.2953,"lon":5.38549,"is_reserved":false,"is_disabled":false,"rental_uris":{"android":"levelo://app?vid=7b260fde-1480-4cc6-963f-1556cc40139f","ios":"levelo://app?vid=7b260fde-1480-4cc6-963f-1556cc40139f"},"vehicle_type_id":"4","last_reported":1758571896,"current_range_meters":20800,"station_id":"ce4bgih2rcd13ifvqba0","pricing_plan_id":"cebpf4jnsgd1na2vs0mg"},{"bike_id":"8f63bb28-daf3-434a-b520-4ffc9e66dc1c","system_id":"levelo_inurba_marseille","lat":43.25613,"lon":5.4115,"is_reserved":false,"is_disabled":false,"rental_uris":{"android":"levelo://app?vid=8f63bb28-daf3-434a-b520-4ffc9e66dc1c","ios":"levelo://app?vid=8f63bb28-daf3-434a-b520-4ffc9e66dc1c"},"vehicle_type_id":"4","last_reported":1758571896,"current_range_meters":20800,"station_id":"","pricing_plan_id":"cebpf4jnsgd1na2vs0mg"},{"bike_id":"6aae674d-fbbf-49ea-9dff-2e7ffbb16aef","system_id":"levelo_inurba_marseille","lat":43.28036,"lon":5.36958,"is_reserved":false,"is_disabled":false,"rental_uris":{"android":"levelo://app?vid=6aae674d-fbbf-49ea-9dff-2e7ffbb16aef","ios":"levelo://app?vid=6aae674d-fbbf-49ea-9dff-2e7ffbb16aef"},"vehicle_type_id":"4","last_reported":1758571896,"current_range_meters":20800,"station_id":"ce4bha12rcd13ifvqef0","pricing_plan_id":"cebpf4jnsgd1na2vs0mg"},{"bike_id":"dbc3bb5e-5393-450d-9f92-3be139d5bcec","system_id":"levelo_inurba_marseille","lat":43.2944,"lon":5.39752,"is_reserved":false,"is_disabled":false,"rental_uris":{"android":"levelo://app?vid=dbc3bb5e-5393-450d-9f92-3be139d5bcec","ios":"levelo://app?vid=dbc3bb5e-5393-450d-9f92-3be139d5bcec"},"vehicle_type_id":"4","last_reported":1758571896,"current_range_meters":21600,"station_id":"ce4bh3h2rcd13ifvqdo0","pricing_plan_id":"cebpf4jnsgd1na2vs0mg"},{"bike_id":"7db9e7a4-d670-4568-beec-6fdc895b52c3","system_id":"levelo_inurba_marseille","lat":43.29035,"lon":5.38649,"is_reserved":false,"is_disabled":false,"rental_uris":{"android":"levelo://app?vid=7db9e7a4-d670-4568-beec-6fdc895b52c3","ios":"levelo://app?vid=7db9e7a4-d670-4568-beec-6fdc895b52c3"},"vehicle_type_id":"4","last_reported":1758571896,"current_range_meters":21600,"station_id":"ce4bh4p2rcd13ifvqe0g","pricing_plan_id":"cebpf4jnsgd1na2vs0mg"},{"bike_id":"6292aec5-f3da-4ec2-afc3-0fcaa5a068ce","system_id":"levelo_inurba_marseille","lat":43.30309,"lon":5.39203,"is_reserved":false,"is_disabled":true,"rental_uris":{"android":"levelo://app?vid=6292aec5-f3da-4ec2-afc3-0fcaa5a068ce","ios":"levelo://app?vid=6292aec5-f3da-4ec2-afc3-0fcaa5a068ce"},"vehicle_type_id":"4","last_reported":1758571896,"current_range_meters":21600,"station_id":"ce4bgkh2rcd13ifvqbk0","pricing_plan_id":"cebpf4jnsgd1na2vs0mg"},{"bike_id":"a5b18df1-c75c-4466-b09e-bfb9430e2bc9","system_id":"levelo_inurba_marseille","lat":43.28028,"lon":5.36947,"is_reserved":false,"is_disabled":false,"rental_uris":{"android":"levelo://app?vid=a5b18df1-c75c-4466-b09e-bfb9430e2bc9","ios":"levelo://app?vid=a5b18df1-c75c-4466-b09e-bfb9430e2bc9"},"vehicle_type_id":"4","last_reported":1758571896,"current_range_meters":21600,"station_id":"ce4bha12rcd13ifvqef0","pricing_plan_id":"cebpf4jnsgd1na2vs0mg"},{"bike_id":"6c87d2d8-edc5-4633-9377-e629de108da5","system_id":"levelo_inurba_marseille","lat":43.29609,"lon":5.37053,"is_reserved":false,"is_disabled":false,"rental_uris":{"android":"levelo://app?vid=6c87d2d8-edc5-4633-9377-e629de108da5","ios":"levelo://app?vid=6c87d2d8-edc5-4633-9377-e629de108da5"},"vehicle_type_id":"4","last_reported":1758571896,"current_range_meters":21600,"station_id":"","pricing_plan_id":"cebpf4jnsgd1na2vs0mg"},{"bike_id":"396649d1-8c17-4df3-aa3a-bf0d0c91c89b","system_id":"levelo_inurba_marseille","lat":43.26946,"lon":5.4027,"is_reserved":false,"is_disabled":false,"rental_uris":{"android":"levelo://app?vid=396649d1-8c17-4df3-aa3a-bf0d0c91c89b","ios":"levelo://app?vid=396649d1-8c17-4df3-aa3a-bf0d0c91c89b"},"vehicle_type_id":"4","last_reported":1758571896,"current_range_meters":21600,"station_id":"cjm6bp8fraef2m0cb0m0","pricing_plan_id":"cebpf4jnsgd1na2vs0mg"},{"bike_id":"e2017298-7010-4fcc-9644-9ccfb0f46125","system_id":"levelo_inurba_marseille","lat":43.30098,"lon":5.41529,"is_reserved":false,"is_disabled":false,"rental_uris":{"android":"levelo://app?vid=e2017298-7010-4fcc-9644-9ccfb0f46125","ios":"levelo://app?vid=e2017298-7010-4fcc-9644-9ccfb0f46125"},"vehicle_type_id":"4","last_reported":1758571896,"current_range_meters":21600,"station_id":"","pricing_plan_id":"cebpf4jnsgd1na2vs0mg"},{"bike_id":"8f3d3d72-9af2-4f9b-9b62-e82fc3d41eda","system_id":"levelo_inurba_marseille","lat":43.25336,"lon":5.42151,"is_reserved":false,"is_disabled":false,"rental_uris":{"android":"levelo://app?vid=8f3d3d72-9af2-4f9b-9b62-e82fc3d41eda","ios":"levelo://app?vid=8f3d3d72-9af2-4f9b-9b62-e82fc3d41eda"},"vehicle_type_id":"4","last_reported":1758571896,"current_range_meters":22000,"station_id":"st_d2m65c5bi1j21697t3ng","pricing_plan_id":"cebpf4jnsgd1na2vs0mg"},{"bike_id":"310b06b2-6287-457c-b411-beee0d320ef9","system_id":"levelo_inurba_marseille","lat":43.30444,"lon":5.38916,"is_reserved":false,"is_disabled":true,"rental_uris":{"android":"levelo://app?vid=310b06b2-6287-457c-b411-beee0d320ef9","ios":"levelo://app?vid=310b06b2-6287-457c-b411-beee0d320ef9"},"vehicle_type_id":"4","last_reported":1758571896,"current_range_meters":22000,"station_id":"ce4bgk12rcd13ifvqbi0","pricing_plan_id":"cebpf4jnsgd1na2vs0mg"},{"bike_id":"77ac341b-6623-4dc3-9f13-594ef6d706dc","system_id":"levelo_inurba_marseille","lat":43.3132,"lon":5.39699,"is_reserved":false,"is_disabled":false,"rental_uris":{"android":"levelo://app?vid=77ac341b-6623-4dc3-9f13-594ef6d706dc","ios":"levelo://app?vid=77ac341b-6623-4dc3-9f13-594ef6d706dc"},"vehicle_type_id":"4","last_reported":1758571896,"current_range_meters":22000,"station_id":"ce4bgvp2rcd13ifvqcu0","pricing_plan_id":"cebpf4jnsgd1na2vs0mg"},