{"last_updated":1751062231,"ttl":60,"version":"2.2","data":{"bikes":[{"bike_id":"3da29fb8-fc97-44c6-b9ac-31dd456b2fd4","system_id":"levelo_inurba_marseille","lat":43.33771,"lon":5.37424,"is_reserved":false,"is_disabled":true,"rental_uris":{"android":"levelo://app?vid=3da29fb8-fc97-44c6-b9ac-31dd456b2fd4","ios":"levelo://app?vid=3da29fb8-fc97-44c6-b9ac-31dd456b2fd4"},"vehicle_type_id":"4","last_reported":1751062231,"current_range_meters":0,"station_id":"","pricing_plan_id":"cebpf4jnsgd1na2vs0mg"},{"bike_id":"01861ad8-a8d7-4be6-816e-651927c87584","system_id":"levelo_inurba_marseille","lat":43.33751,"lon":5.37456,"is_reserved":false,"is_disabled":true,"rental_uris":{"android":"levelo://app?vid=01861ad8-a8d7-4be6-816e-651927c87584","ios":"levelo://app?vid=01861ad8-a8d7-4be6-816e-651927c87584"},"vehicle_type_id":"4","last_reported":1751062231,"current_range_meters":0,"station_id":"","pricing_plan_id":"cebpf4jnsgd1na2vs0mg"},{"bike_id":"d527aaef-dd77-4d55-8a3e-faf748ebc665","system_id":"levelo_inurba_marseille","lat":43.2613,"lon":5.417063,"is_reserved":false,"is_disabled":true,"rental_uris":{"android":"levelo://app?vid=d527aaef-dd77-4d55-8a3e-faf748ebc665","ios":"levelo://app?vid=d527aaef-dd77-4d55-8a3e-faf748ebc665"},"vehicle_type_id":"4","last_reported":1751062231,"current_range_meters":0,"station_id":"","pricing_plan_id":"cebpf4jnsgd1na2vs0mg"},{"bike_id":"a147e67d-e0b1-425e-bbda-ae9524df353e","system_id":"levelo_inurba_marseille","lat":43.337541,"lon":5.374577,"is_reserved":false,"is_disabled":true,"rental_uris":{"android":"levelo://app?vid=a147e67d-e0b1-425e-bbda-ae9524df353e","ios":"levelo://app?vid=a147e67d-e0b1-425e-bbda-ae9524df353e"},"vehicle_type_id":"4","last_reported":1751062231,"current_range_meters":0,"station_id":"","pricing_plan_id":"cebpf4jnsgd1na2vs0mg"},{"bike_id":"2c5ab5ef-6e3c-47bf-9405-4e96ff645858","system_id":"levelo_inurba_marseille","lat":43.34023,"lon":5.42916,"is_reserved":false,"is_disabled":true,"rental_uris":{"android":"levelo://app?vid=2c5ab5ef-6e3c-47bf-9405-4e96ff645858","ios":"levelo://app?vid=2c5ab5ef-6e3c-47bf-9405-4e96ff645858"},"vehicle_type_id":"4","last_reported":1751062231,"current_range_meters":0,"station_id":"","pricing_plan_id":"cebpf4jnsgd1na2vs0mg"},{"bike_id":"67a5051a-b32e-408a-8389-c22b54eb81f6","system_id":"levelo_inurba_marseille","lat":43.33061,"lon":5.4559,"is_reserved":false,"is_disabled":true,"rental_uris":{"android":"levelo://app?vid=67a5051a-b32e-408a-8389-c22b54eb81f6","ios":"levelo://app?vid=67a5051a-b32e-408a-8389-c22b54eb81f6"},"vehicle_type_id":"4","last_reported":1751062231,"current_range_meters":0,"station_id":"","pricing_plan_id":"cebpf4jnsgd1na2vs0mg"},{"bike_id":"4d064f95-6dcb-4234-9e98-7c70fbb74351","system_id":"levelo_inurba_marseille","lat":43.337444,"lon":5.374475,"is_reserved":false,"is_disabled":true,"rental_uris":{"android":"levelo://app?vid=4d064f95-6dcb-4234-9e98-7c70fbb74351","ios":"levelo://app?vid=4d064f95-6dcb-4234-9e98-7c70fbb74351"},"vehicle_type_id":"4","last_reported":1751062231,"current_range_meters":0,"station_id":"","pricing_plan_id":"cebpf4jnsgd1na2vs0mg"},{"bike_id":"446c66be-a677-44c2-9116-79a23398a824","system_id":"levelo_inurba_marseille","lat":43.27645,"lon":5.43178,"is_reserved":false,"is_disabled":true,"rental_uris":{"android":"levelo://app?vid=446c66be-a677-44c2-9116-79a23398a824","ios":"levelo://app?vid=446c66be-a677-44c2-9116-79a23398a824"},"vehicle_type_id":"4","last_reported":1751062231,"current_range_meters":0,"station_id":"","pricing_plan_id":"cebpf4jnsgd1na2vs0mg"},{"bike_id":"a86d2f9f-83d8-4f17-8422-d08e982c4a2a","system_id":"levelo_inurba_marseille","lat":43.29794,"lon":5.44831,"is_reserved":false,"is_disabled":true,"rental_uris":{"android":"levelo://app?vid=a86d2f9f-83d8-4f17-8422-d08e982c4a2a","ios":"levelo://app?vid=a86d2f9f-83d8-4f17-8422-d08e982c4a2a"},"vehicle_type_id":"4","last_reported":1751062231,"current_range_meters":0,"station_id":"","pricing_plan_id":"cebpf4jnsgd1na2vs0mg"},{"bike_id":"2315c627-494e-41a8-a12f-403d40de57ef","system_id":"levelo_inurba_marseille","lat":43.30138,"lon":5.40328,"is_reserved":false,"is_disabled":true,"rental_uris":{"android":"levelo://app?vid=2315c627-494e-41a8-a12f-403d40de57ef","ios":"levelo://app?vid=2315c627-494e-41a8-a12f-403d40de57ef"},"vehicle_type_id":"4","last_reported":1751062231,"current_range_meters":0,"station_id":"","pricing_plan_id":"cebpf4jnsgd1na2vs0mg"},{"bike_id":"a1ae4fee-cbeb-43dc-a969-5827f87e448d","system_id":"levelo_inurba_marseille","lat":43.383777,"lon":5.36558,"is_reserved":false,"is_disabled":true,"rental_uris":{"android":"levelo://app?vid=a1ae4fee-cbeb-43dc-a969-5827f87e448d","ios":"levelo://app?vid=a1ae4fee-cbeb-43dc-a969-5827f87e448d"},"vehicle_type_id":"4","last_reported":1751062231,"current_range_meters":0,"station_id":"","pricing_plan_id":"cebpf4jnsgd1na2vs0mg"},{"bike_id":"d6609b4f-333b-43c1-9ebe-8726f5e76e88","system_id":"levelo_inurba_marseille","lat":43.337444,"lon":5.374475,"is_reserved":false,"is_disabled":true,"rental_uris":{"android":"levelo://app?vid=d6609b4f-333b-43c1-9ebe-8726f5e76e88","ios":"levelo://app?vid=d6609b4f-333b-43c1-9ebe-8726f5e76e88"},"vehicle_type_id":"4","last_reported":1751062231,"current_range_meters":0,"station_id":"","pricing_plan_id":"cebpf4jnsgd1na2vs0mg"},{"bike_id":"b17b6606-336a-4606-9b65-af139c49de26","system_id":"levelo_inurba_marseille","lat":43.25662,"lon":5.42708,"is_reserved":false,"is_disabled":true,"rental_uris":{"android":"levelo://app?vid=b17b6606-336a-4606-9b65-af139c49de26","ios":"levelo://app?vid=b17b6606-336a-4606-9b65-af139c49de26"},"vehicle_type_id":"4","last_reported":1751062231,"current_range_meters":0,"station_id":"","pricing_plan_id":"cebpf4jnsgd1na2vs0mg"},{"bike_id":"9d3724b1-0dc8-4689-9d6a-55005a9503cb","system_id":"levelo_inurba_marseille","lat":43.28609,"lon":5.4282,"is_reserved":false,"is_disabled":true,"rental_uris":{"android":"levelo://app?vid=9d3724b1-0dc8-4689-9d6a-55005a9503cb","ios":"levelo://app?vid=9d3724b1-0dc8-4689-9d6a-55005a9503cb"},"vehicle_type_id":"4","last_reported":1751062231,"current_range_meters":0,"station_id":"","pricing_plan_id":"cebpf4jnsgd1na2vs0mg"},{"bike_id":"5c38a476-b9a1-4533-905d-0c480f282ca0","system_id":"levelo_inurba_marseille","lat":43.311669,"lon":5.38719,"is_reserved":false,"is_disabled":true,"rental_uris":{"android":"levelo://app?vid=5c38a476-b9a1-4533-905d-0c480f282ca0","ios":"levelo://app?vid=5c38a476-b9a1-4533-905d-0c480f282ca0"},"vehicle_type_id":"4","last_reported":1751062231,"current_range_meters":0,"station_id":"ce4bgv12rcd13ifvqcp0","pricing_plan_id":"cebpf4jnsgd1na2vs0mg"},{"bike_id":"d64f4c57-6b19-410f-8f3c-46eb51a4b442","system_id":"levelo_inurba_marseille","lat":43.30143,"lon":5.39864,"is_reserved":false,"is_disabled":true,"rental_uris":{"android":"levelo://app?vid=d64f4c57-6b19-410f-8f3c-46eb51a4b442","ios":"levelo://app?vid=d64f4c57-6b19-410f-8f3c-46eb51a4b442"},"vehicle_type_id":"4","last_reported":1751062231,"current_range_meters":0,"station_id":"ce4bh0h2rcd13ifvqd40","pricing_plan_id":"cebpf4jnsgd1na2vs0mg"},{"bike_id":"271a5da5-4035-470a-ba7c-aa58268e9930","system_id":"levelo_inurba_marseille","lat":43.21745,"lon":5.34621,"is_reserved":false,"is_disabled":true,"rental_uris":{"android":"levelo://app?vid=271a5da5-4035-470a-ba7c-aa58268e9930","ios":"levelo://app?vid=271a5da5-4035-470a-ba7c-aa58268e9930"},"vehicle_type_id":"4","last_reported":1751062231,"current_range_meters":0,"station_id":"ce4bhgh2rcd13ifvqfb0","pricing_plan_id":"cebpf4jnsgd1na2vs0mg"},{"bike_id":"6cc0b8c1-efa9-4455-b673-99d8f4d43b66","system_id":"levelo_inurba_marseille","lat":43.26209,"lon":5.37443,"is_reserved":false,"is_disabled":true,"rental_uris":{"android":"levelo://app?vid=6cc0b8c1-efa9-4455-b673-99d8f4d43b66","ios":"levelo://app?vid=6cc0b8c1-efa9-4455-b673-99d8f4d43b66"},"vehicle_type_id":"4","last_reported":1751062231,"current_range_meters":0,"station_id":"ce4bhgp2rcd13ifvqfc0","pricing_plan_id":"cebpf4jnsgd1na2vs0mg"},{"bike_id":"26ebc6e0-c6a1-4a69-afc3-9859ba2b993f","system_id":"levelo_inurba_marseille","lat":43.33612,"lon":5.41036,"is_reserved":false,"is_disabled":true,"rental_uris":{"android":"levelo://app?vid=26ebc6e0-c6a1-4a69-afc3-9859ba2b993f","ios":"levelo://app?vid=26ebc6e0-c6a1-4a69-afc3-9859ba2b993f"},"vehicle_type_id":"4","last_reported":1751062231,"current_range_meters":0,"station_id":"ce4bhqh2rcd13ifvqhmg","pricing_plan_id":"cebpf4jnsgd1na2vs0mg"},{"bike_id":"29ec4185-f87e-45a2-91e6-759a1d934b1c","system_id":"levelo_inurba_marseille","lat":43.21735,"lon":5.34647,"is_reserved":false,"is_disabled":true,"rental_uris":{"android":"levelo://app?vid=29ec4185-f87e-45a2-91e6-759a1d934b1c","ios":"levelo://app?vid=29ec4185-f87e-45a2-91e6-759a1d934b1c"},"vehicle_type_id":"4","last_reported":1751062231,"current_range_meters":0,"station_id":"st_cvj6r9ubvosntc0bgbag","pricing_plan_id":"cebpf4jnsgd1na2vs0mg"},{"bike_id":"f7458c08-0016-4c0a-87ab-e5383230060b","system_id":"levelo_inurba_marseille","lat":43.280357,"lon":5.356603,"is_reserved":false,"is_disabled":true,"rental_uris":{"android":"levelo://app?vid=f7458c08-0016-4c0a-87ab-e5383230060b","ios":"levelo://app?vid=f7458c08-0016-4c0a-87ab-e5383230060b"},"vehicle_type_id":"4","last_reported":1751062231,"current_range_meters":800,"station_id":"","pricing_plan_id":"cebpf4jnsgd1na2vs0mg"},{"bike_id":"3e5d0ae7-bac3-40ea-95d2-50ef1aae7bc7","system_id":"levelo_inurba_marseille","lat":43.26819,"lon":5.41628,"is_reserved":false,"is_disabled":true,"rental_uris":{"android":"levelo://app?vid=3e5d0ae7-bac3-40ea-95d2-50ef1aae7bc7","ios":"levelo://app?vid=3e5d0ae7-bac3-40ea-95d2-50ef1aae7bc7"},"vehicle_type_id":"4","last_reported":1751062231,"current_range_meters":800,"station_id":"","pricing_plan_id":"cebpf4jnsgd1na2vs0mg"},{"bike_id":"fcbc514f-309d-4020-bb49-af20b7ab981e","system_id":"levelo_inurba_marseille","lat":43.287018,"lon":0,"is_reserved":false,"is_disabled":true,"rental_uris":{"android":"levelo://app?vid=fcbc514f-309d-4020-bb49-af20b7ab981e","ios":"levelo://app?vid=fcbc514f-309d-4020-bb49-af20b7ab981e"},"vehicle_type_id":"4","last_reported":1751062231,"current_range_meters":800,"station_id":"ce4bh3p2rcd13ifvqdq0","pricing_plan_id":"cebpf4jnsgd1na2vs0mg"},{"bike_id":"8e140b3f-349e-44fe-b601-d0fa444baf28","system_id":"levelo_inurba_marseille","lat":43.24388,"lon":5.3707,"is_reserved":false,"is_disabled":true,"rental_uris":{"android":"levelo://app?vid=8e140b3f-349e-44fe-b601-d0fa444baf28","ios":"levelo://app?vid=8e140b3f-349e-44fe-b601-d0fa444baf28"},"vehicle_type_id":"4","last_reported":1751062231,"current_range_meters":1200,"station_id":"ce4bhhh2rcd13ifvqfk0","pricing_plan_id":"cebpf4jnsgd1na2vs0mg"},{"bike_id":"f58acfab-3581-478d-a4ac-f89540502c74","system_id":"levelo_inurba_marseille","lat":43.31115,"lon":5.37765,"is_reserved":false,"is_disabled":true,"rental_uris":{"android":"levelo://app?vid=f58acfab-3581-478d-a4ac-f89540502c74","ios":"levelo://app?vid=f58acfab-3581-478d-a4ac-f89540502c74"},"vehicle_type_id":"4","last_reported":1751062231,"current_range_meters":2000,"station_id":"ce4bgt92rcd13ifvqcg0","pricing_plan_id":"cebpf4jnsgd1na2vs0mg"},{"bike_id":"a381c803-9825-4fd7-8707-b2b3519e2a09","system_id":"levelo_inurba_marseille","lat":43.27372,"lon":5.36253,"is_reserved":false,"is_disabled":false,"rental_uris":{"android":"levelo://app?vid=a381c803-9825-4fd7-8707-b2b3519e2a09","ios":"levelo://app?vid=a381c803-9825-4fd7-8707-b2b3519e2a09"},"vehicle_type_id":"4","last_reported":1751062231,"current_range_meters":2800,"station_id":"ce4bhbh2rcd13ifvqeo0","pricing_plan_id":"cebpf4jnsgd1na2vs0mg"},{"bike_id":"9914805c-ff23-471d-90ae-6b390902c9da","system_id":"levelo_inurba_marseille","lat":43.30797,"lon":5.3817,"is_reserved":false,"is_disabled":false,"rental_uris":{"android":"levelo://app?vid=9914805c-ff23-471d-90ae-6b390902c9da","ios":"levelo://app?vid=9914805c-ff23-471d-90ae-6b390902c9da"},"vehicle_type_id":"4","last_reported":1751062231,"current_range_meters":3200,"station_id":"ce4bgt12rcd13ifvqce0","pricing_plan_id":"cebpf4jnsgd1na2vs0mg"},{"bike_id":"a7f4f136-a933-4517-8494-7489d9e4ebae","system_id":"levelo_inurba_marseille","lat":43.28845,"lon":5.39305,"is_reserved":false,"is_disabled":false,"rental_uris":{"android":"levelo://app?vid=a7f4f136-a933-4517-8494-7489d9e4ebae","ios":"levelo://app?vid=a7f4f136-a933-4517-8494-7489d9e4ebae"},"vehicle_type_id":"4","last_reported":1751062231,"current_range_meters":3200,"station_id":"ce4bh2p2rcd13ifvqdi0","pricing_plan_id":"cebpf4jnsgd1na2vs0mg"},{"bike_id":"0a1dd165-64e9-446b-bdb3-c2e4bad586fc","system_id":"levelo_inurba_marseille","lat":43.27923,"lon":5.39597,"is_reserved":false,"is_disabled":false,"rental_uris":{"android":"levelo://app?vid=0a1dd165-64e9-446b-bdb3-c2e4bad586fc","ios":"levelo://app?vid=0a1dd165-64e9-446b-bdb3-c2e4bad586fc"},"vehicle_type_id":"4","last_reported":1751062231,"current_range_meters":3600,"station_id":"ce4bhf92rcd13ifvqf40","pricing_plan_id":"cebpf4jnsgd1na2vs0mg"},{"bike_id":"f47876d7-9c85-474e-92c5-7a242e08b67c","system_id":"levelo_inurba_marseille","lat":43.30561,"lon":5.37556,"is_reserved":false,"is_disabled":false,"rental_uris":{"android":"levelo://app?vid=f47876d7-9c85-474e-92c5-7a242e08b67c","ios":"levelo://app?vid=f47876d7-9c85-474e-92c5-7a242e08b67c"},"vehicle_type_id":"4","last_reported":1751062231,"current_range_meters":4400,"station_id":"","pricing_plan_id":"cebpf4jnsgd1na2vs0mg"},{"bike_id":"77ed0e1c-b62b-40df-a2a1-41d0bc0db4c9","system_id":"levelo_inurba_marseille","lat":43.30253,"lon":5.40067,"is_reserved":false,"is_disabled":false,"rental_uris":{"android":"levelo://app?vid=77ed0e1c-b62b-40df-a2a1-41d0bc0db4c9","ios":"levelo://app?vid=77ed0e1c-b62b-40df-a2a1-41d0bc0db4c9"},"vehicle_type_id":"4","last_reported":1751062231,"current_range_meters":4400,"station_id":"ce4bgvh2rcd13ifvqcs0","pricing_plan_id":"cebpf4jnsgd1na2vs0mg"},{"bike_id":"fa5594a9-de83-4746-a3c3-d6d07c77f443","system_id":"levelo_inurba_marseille","lat":43.30651,"lon":5.40105,"is_reserved":false,"is_disabled":false,"rental_uris":{"android":"levelo://app?vid=fa5594a9-de83-4746-a3c3-d6d07c77f443","ios":"levelo://app?vid=fa5594a9-de83-4746-a3c3-d6d07c77f443"},"vehicle_type_id":"4","last_reported":1751062231,"current_range_meters":4400,"station_id":"ce4bh112rcd13ifvqda0","pricing_plan_id":"cebpf4jnsgd1na2vs0mg"},{"bike_id":"0d965e80-bc9c-42a3-80d3-38094111a020","system_id":"levelo_inurba_marseille","lat":43.29802,"lon":5.38119,"is_reserved":false,"is_disabled":false,"rental_uris":{"android":"levelo://app?vid=0d965e80-bc9c-42a3-80d3-38094111a020","ios":"levelo://app?vid=0d965e80-bc9c-42a3-80d3-38094111a020"},"vehicle_type_id":"4","last_reported":1751062231,"current_range_meters":4800,"station_id":"ce4bgip2rcd13ifvqbb0","pricing_plan_id":"cebpf4jnsgd1na2vs0mg"},{"bike_id":"824b6d8f-5272-4dd4-8600-dbb64904e83d","system_id":"levelo_inurba_marseille","lat":43.2942,"lon":5.38627,"is_reserved":false,"is_disabled":false,"rental_uris":{"android":"levelo://app?vid=824b6d8f-5272-4dd4-8600-dbb64904e83d","ios":"levelo://app?vid=824b6d8f-5272-4dd4-8600-dbb64904e83d"},"vehicle_type_id":"4","last_reported":1751062231,"current_range_meters":4800,"station_id":"ce4bh2h2rcd13ifvqdh0","pricing_plan_id":"cebpf4jnsgd1na2vs0mg"},{"bike_id":"864c5eef-93ea-4c36-be45-5aa3f0db5397","system_id":"levelo_inurba_marseille","lat":43.30516,"lon":5.36701,"is_reserved":false,"is_disabled":false,"rental_uris":{"android":"levelo://app?vid=864c5eef-93ea-4c36-be45-5aa3f0db5397","ios":"levelo://app?vid=864c5eef-93ea-4c36-be45-5aa3f0db5397"},"vehicle_type_id":"4","last_reported":1751062231,"current_range_meters":5600,"station_id":"ce4bgrp2rcd13ifvqc9g","pricing_plan_id":"cebpf4jnsgd1na2vs0mg"},{"bike_id":"43af7379-8edd-4b60-a729-fbe8b5f1723b","system_id":"levelo_inurba_marseille","lat":43.30144,"lon":5.37432,"is_reserved":false,"is_disabled":false,"rental_uris":{"android":"levelo://app?vid=43af7379-8edd-4b60-a729-fbe8b5f1723b","ios":"levelo://app?vid=43af7379-8edd-4b60-a729-fbe8b5f1723b"},"vehicle_type_id":"4","last_reported":1751062231,"current_range_meters":5600,"station_id":"ce4bgs92rcd13ifvqcc0","pricing_plan_id":"cebpf4jnsgd1na2vs0mg"},{"bike_id":"09d34f59-31e7-4ac0-bcf2-318721808cdb","system_id":"levelo_inurba_marseille","lat":43.30089,"lon":5.39079,"is_reserved":false,"is_disabled":false,"rental_uris":{"android":"levelo://app?vid=09d34f59-31e7-4ac0-bcf2-318721808cdb","ios":"levelo://app?vid=09d34f59-31e7-4ac0-bcf2-318721808cdb"},"vehicle_type_id":"4","last_reported":1751062231,"current_range_meters":5600,"station_id":"ce4bh192rcd13ifvqdb0","pricing_plan_id":"cebpf4jnsgd1na2vs0mg"},{"bike_id":"10bdaac3-f2c0-413c-bb56-00dcd6baf031","system_id":"levelo_inurba_marseille","lat":43.26497,"lon":5.39545,"is_reserved":false,"is_disabled":false,"rental_uris":{"android":"levelo://app?vid=10bdaac3-f2c0-413c-bb56-00dcd6baf031","ios":"levelo://app?vid=10bdaac3-f2c0-413c-bb56-00dcd6baf031"},"vehicle_type_id":"4","last_reported":1751062231,"current_range_meters":6000,"station_id":"ce4bhi12rcd13ifvqfq0","pricing_plan_id":"cebpf4jnsgd1na2vs0mg"},{"bike_id":"07d2abd9-e4e4-490c-a856-2c8b378eb3af","system_id":"levelo_inurba_marseille","lat":43.30791,"lon":5.38152,"is_reserved":false,"is_disabled":false,"rental_uris":{"android":"levelo://app?vid=07d2abd9-e4e4-490c-a856-2c8b378eb3af","ios":"levelo://app?vid=07d2abd9-e4e4-490c-a856-2c8b378eb3af"},"vehicle_type_id":"4","last_reported":1751062231,"current_range_meters":6400,"station_id":"ce4bgt12rcd13ifvqce0","pricing_plan_id":"cebpf4jnsgd1na2vs0mg"},{"bike_id":"1678e075-df3c-4276-bed6-a57df97494c7","system_id":"levelo_inurba_marseille","lat":43.28105,"lon":5.37839,"is_reserved":false,"is_disabled":false,"rental_uris":{"android":"levelo://app?vid=1678e075-df3c-4276-bed6-a57df97494c7","ios":"levelo://app?vid=1678e075-df3c-4276-bed6-a57df97494c7"},"vehicle_type_id":"4","last_reported":1751062231,"current_range_meters":6400,"station_id":"ce4bha12rcd13ifvqee0","pricing_plan_id":"cebpf4jnsgd1na2vs0mg"},{"bike_id":"7dfe0422-df83-4d75-8d15-3ceb90d0c0a5","system_id":"levelo_inurba_marseille","lat":43.30423,"lon":5.38889,"is_reserved":false,"is_disabled":false,"rental_uris":{"android":"levelo://app?vid=7dfe0422-df83-4d75-8d15-3ceb90d0c0a5","ios":"levelo://app?vid=7dfe0422-df83-4d75-8d15-3ceb90d0c0a5"},"vehicle_type_id":"4","last_reported":1751062231,"current_range_meters":6800,"station_id":"ce4bgk12rcd13ifvqbi0","pricing_plan_id":"cebpf4jnsgd1na2vs0mg"},{"bike_id":"94e84186-d780-461a-b647-8d1cf3f036ad","system_id":"levelo_inurba_marseille","lat":43.31682,"lon":5.3773,"is_reserved":false,"is_disabled":false,"rental_uris":{"android":"levelo://app?vid=94e84186-d780-461a-b647-8d1cf3f036ad","ios":"levelo://app?vid=94e84186-d780-461a-b647-8d1cf3f036ad"},"vehicle_type_id":"4","last_reported":1751062231,"current_range_meters":6800,"station_id":"ce4bgth2rcd13ifvqch0","pricing_plan_id":"cebpf4jnsgd1na2vs0mg"},{"bike_id":"112f3ea6-682d-436d-b01c-e8965f41d7f2","system_id":"levelo_inurba_marseille","lat":43.30892,"lon":5.3719,"is_reserved":false,"is_disabled":false,"rental_uris":{"android":"levelo://app?vid=112f3ea6-682d-436d-b01c-e8965f41d7f2","ios":"levelo://app?vid=112f3ea6-682d-436d-b01c-e8965f41d7f2"},"vehicle_type_id":"4","last_reported":1751062231,"current_range_meters":6800,"station_id":"ce4bguh2rcd13ifvqckg","pricing_plan_id":"cebpf4jnsgd1na2vs0mg"},{"bike_id":"b753e631-2673-4bd9-875a-4919ef98dfa0","system_id":"levelo_inurba_marseille","lat":43.29035,"lon":5.35922,"is_reserved":false,"is_disabled":false,"rental_uris":{"android":"levelo://app?vid=b753e631-2673-4bd9-875a-4919ef98dfa0","ios":"levelo://app?vid=b753e631-2673-4bd9-875a-4919ef98dfa0"},"vehicle_type_id":"4","last_reported":1751062231,"current_range_meters":6800,"station_id":"ce4bha92rcd13ifvqeg0","pricing_plan_id":"cebpf4jnsgd1na2vs0mg"},{"bike_id":"6cc7f1df-19b8-4aa4-a8d2-56dac642a60c","system_id":"levelo_inurba_marseille","lat":43.2872,"lon":5.36087,"is_reserved":false,"is_disabled":false,"rental_uris":{"android":"levelo://app?vid=6cc7f1df-19b8-4aa4-a8d2-56dac642a60c","ios":"levelo://app?vid=6cc7f1df-19b8-4aa4-a8d2-56dac642a60c"},"vehicle_type_id":"4","last_reported":1751062231,"current_range_meters":6800,"station_id":"cki0cbj6b192h4jlfktg","pricing_plan_id":"cebpf4jnsgd1na2vs0mg"},{"bike_id":"929b7b04-ef36-4dbe-b731-1b248f023971","system_id":"levelo_inurba_marseille","lat":43.29801,"lon":5.38118,"is_reserved":false,"is_disabled":false,"rental_uris":{"android":"levelo://app?vid=929b7b04-ef36-4dbe-b731-1b248f023971","ios":"levelo://app?vid=929b7b04-ef36-4dbe-b731-1b248f023971"},"vehicle_type_id":"4","last_reported":1751062231,"current_range_meters":7200,"station_id":"ce4bgip2rcd13ifvqbb0","pricing_plan_id":"cebpf4jnsgd1na2vs0mg"},{"bike_id":"df8a6035-b9b5-491d-a85f-eaed3be7d456","system_id":"levelo_inurba_marseille","lat":43.31223,"lon":5.36859,"is_reserved":false,"is_disabled":false,"rental_uris":{"android":"levelo://app?vid=df8a6035-b9b5-491d-a85f-eaed3be7d456","ios":"levelo://app?vid=df8a6035-b9b5-491d-a85f-eaed3be7d456"},"vehicle_type_id":"4","last_reported":1751062231,"current_range_meters":7200,"station_id":"ce4bgl92rcd13ifvqbq0","pricing_plan_id":"cebpf4jnsgd1na2vs0mg"},{"bike_id":"33864af8-a8c6-433d-9e21-40c23b504105","system_id":"levelo_inurba_marseille","lat":43.34145,"lon":5.40902,"is_reserved":false,"is_disabled":false,"rental_uris":{"android":"levelo://app?vid=33864af8-a8c6-433d-9e21-40c23b504105","ios":"levelo://app?vid=33864af8-a8c6-433d-9e21-40c23b504105"},"vehicle_type_id":"4","last_reported":1751062231,"current_range_meters":7200,"station_id":"ce4bhqh2rcd13ifvqhlg","pricing_plan_id":"cebpf4jnsgd1na2vs0mg"},{"bike_id":"447a5c07-2605-49a1-ab80-decdc56f8c4f","system_id":"levelo_inurba_marseille","lat":43.27954,"lon":5.35323,"is_reserved":false,"is_disabled":false,"rental_uris":{"android":"levelo://app?vid=447a5c07-2605-49a1-ab80-decdc56f8c4f","ios":"levelo://app?vid=447a5c07-2605-49a1-ab80-decdc56f8c4f"},"vehicle_type_id":"4","last_reported":1751062231,"current_range_meters":8000,"station_id":"","pricing_plan_id":"cebpf4jnsgd1na2vs0mg"},{"bike_id":"a1efc803-1520-45fc-9e03-1f27beb25e3d","system_id":"levelo_inurba_marseille","lat":43.30641,"lon":5.4007,"is_reserved":false,"is_disabled":false,"rental_uris":{"android":"levelo://app?vid=a1efc803-1520-45fc-9e03-1f27beb25e3d","ios":"levelo://app?vid=a1efc803-1520-45fc-9e03-1f27beb25e3d"},"vehicle_type_id":"4","last_reported":1751062231,"current_range_meters":8000,"station_id":"ce4bh112rcd13ifvqda0","pricing_plan_id":"cebpf4jnsgd1na2vs0mg"},{"bike_id":"67e2f842-3ad2-48d4-9c96-75ab1c71b366","system_id":"levelo_inurba_marseille","lat":43.27371,"lon":5.36262,"is_reserved":false,"is_disabled":false,"rental_uris":{"android":"levelo://app?vid=67e2f842-3ad2-48d4-9c96-75ab1c71b366","ios":"levelo://app?vid=67e2f842-3ad2-48d4-9c96-75ab1c71b366"},"vehicle_type_id":"4","last_reported":1751062231,"current_range_meters":8000,"station_id":"ce4bhbh2rcd13ifvqeo0","pricing_plan_id":"cebpf4jnsgd1na2vs0mg"},{"bike_id":"4b8da722-ee9e-48a4-a5e5-3a8a10364708","system_id":"levelo_inurba_marseille","lat":43.31196,"lon":5.37812,"is_reserved":false,"is_disabled":false,"rental_uris":{"android":"levelo://app?vid=4b8da722-ee9e-48a4-a5e5-3a8a10364708","ios":"levelo://app?vid=4b8da722-ee9e-48a4-a5e5-3a8a10364708"},"vehicle_type_id":"4","last_reported":1751062231,"current_range_meters":8400,"station_id":"","pricing_plan_id":"cebpf4jnsgd1na2vs0mg"},{"bike_id":"73a03650-973e-42b0-bad4-545481e15f73","system_id":"levelo_inurba_marseille","lat":43.31252,"lon":5.39068,"is_reserved":false,"is_disabled":false,"rental_uris":{"android":"levelo://app?vid=73a03650-973e-42b0-bad4-545481e15f73","ios":"levelo://app?vid=73a03650-973e-42b0-bad4-545481e15f73"},"vehicle_type_id":"4","last_reported":1751062231,"current_range_meters":8400,"station_id":"","pricing_plan_id":"cebpf4jnsgd1na2vs0mg"},{"bike_id":"05a071a7-b1f8-426a-8001-9c493780a4ed","system_id":"levelo_inurba_marseille","lat":43.29871,"lon":5.39727,"is_reserved":false,"is_disabled":false,"rental_uris":{"android":"levelo://app?vid=05a071a7-b1f8-426a-8001-9c493780a4ed","ios":"levelo://app?vid=05a071a7-b1f8-426a-8001-9c493780a4ed"},"vehicle_type_id":"4","last_reported":1751062231,"current_range_meters":8400,"station_id":"ce4bh0h2rcd13ifvqd50","pricing_plan_id":"cebpf4jnsgd1na2vs0mg"},{"bike_id":"79254cc8-a49a-4548-9588-af90db7340ff","system_id":"levelo_inurba_marseille","lat":43.29257,"lon":5.40907,"is_reserved":false,"is_disabled":false,"rental_uris":{"android":"levelo://app?vid=79254cc8-a49a-4548-9588-af90db7340ff","ios":"levelo://app?vid=79254cc8-a49a-4548-9588-af90db7340ff"},"vehicle_type_id":"4","last_reported":1751062231,"current_range_meters":8400,"station_id":"ce4bh192rcd13ifvqdc0","pricing_plan_id":"cebpf4jnsgd1na2vs0mg"},{"bike_id":"90b4d2ae-47a1-4744-8917-1491a5e2aea3","system_id":"levelo_inurba_marseille","lat":43.2876,"lon":5.448583,"is_reserved":false,"is_disabled":false,"rental_uris":{"android":"levelo://app?vid=90b4d2ae-47a1-4744-8917-1491a5e2aea3","ios":"levelo://app?vid=90b4d2ae-47a1-4744-8917-1491a5e2aea3"},"vehicle_type_id":"4","last_reported":1751062231,"current_range_meters":8800,"station_id":"","pricing_plan_id":"cebpf4jnsgd1na2vs0mg"},{"bike_id":"77673b0f-fa8d-4a5f-802e-e3125964cb45","system_id":"levelo_inurba_marseille","lat":43.31037,"lon":5.37682,"is_reserved":false,"is_disabled":false,"rental_uris":{"android":"levelo://app?vid=77673b0f-fa8d-4a5f-802e-e3125964cb45","ios":"levelo://app?vid=77673b0f-fa8d-4a5f-802e-e3125964cb45"},"vehicle_type_id":"4","last_reported":1751062231,"current_range_meters":8800,"station_id":"","pricing_plan_id":"cebpf4jnsgd1na2vs0mg"},{"bike_id":"a82feb88-72ff-4e38-9550-052ec2bfd842","system_id":"levelo_inurba_marseille","lat":43.283644,"lon":5.386276,"is_reserved":false,"is_disabled":false,"rental_uris":{"android":"levelo://app?vid=a82feb88-72ff-4e38-9550-052ec2bfd842","ios":"levelo://app?vid=a82feb88-72ff-4e38-9550-052ec2bfd842"},"vehicle_type_id":"4","last_reported":1751062231,"current_range_meters":8800,"station_id":"ce4bh492rcd13ifvqdvg","pricing_plan_id":"cebpf4jnsgd1na2vs0mg"},{"bike_id":"13eeb800-f015-4177-9830-fa5520c66b43","system_id":"levelo_inurba_marseille","lat":43.28109,"lon":5.37864,"is_reserved":false,"is_disabled":false,"rental_uris":{"android":"levelo://app?vid=13eeb800-f015-4177-9830-fa5520c66b43","ios":"levelo://app?vid=13eeb800-f015-4177-9830-fa5520c66b43"},"vehicle_type_id":"4","last_reported":1751062231,"current_range_meters":8800,"station_id":"ce4bha12rcd13ifvqee0","pricing_plan_id":"cebpf4jnsgd1na2vs0mg"},{"bike_id":"7a92a51b-12db-41cc-98c0-2618d3831133","system_id":"levelo_inurba_marseille","lat":43.32284,"lon":5.38286,"is_reserved":false,"is_disabled":false,"rental_uris":{"android":"levelo://app?vid=7a92a51b-12db-41cc-98c0-2618d3831133","ios":"levelo://app?vid=7a92a51b-12db-41cc-98c0-2618d3831133"},"vehicle_type_id":"4","last_reported":1751062231,"current_range_meters":8800,"station_id":"ce4bhr12rcd13ifvqhqg","pricing_plan_id":"cebpf4jnsgd1na2vs0mg"},{"bike_id":"93b9909d-e1ce-47ab-ae56-9d1f948d1c9b","system_id":"levelo_inurba_marseille","lat":43.29882,"lon":5.38914,"is_reserved":false,"is_disabled":false,"rental_uris":{"android":"levelo://app?vid=93b9909d-e1ce-47ab-ae56-9d1f948d1c9b","ios":"levelo://app?vid=93b9909d-e1ce-47ab-ae56-9d1f948d1c9b"},"vehicle_type_id":"4","last_reported":1751062231,"current_range_meters":9200,"station_id":"ce4bh392rcd13ifvqdl0","pricing_plan_id":"cebpf4jnsgd1na2vs0mg"},{"bike_id":"508bc7b5-be2a-4d0d-98ab-ae4884d53a9f","system_id":"levelo_inurba_marseille","lat":43.273712,"lon":5.362452,"is_reserved":false,"is_disabled":false,"rental_uris":{"android":"levelo://app?vid=508bc7b5-be2a-4d0d-98ab-ae4884d53a9f","ios":"levelo://app?vid=508bc7b5-be2a-4d0d-98ab-ae4884d53a9f"},"vehicle_type_id":"4","last_reported":1751062231,"current_range_meters":9200,"station_id":"ce4bhbh2rcd13ifvqeo0","pricing_plan_id":"cebpf4jnsgd1na2vs0mg"},{"bike_id":"b7d0d8a1-c5dd-4278-8b3b-f5786872fe32","system_id":"levelo_inurba_marseille","lat":43.32092,"lon":5.36794,"is_reserved":false,"is_disabled":false,"rental_uris":{"android":"levelo://app?vid=b7d0d8a1-c5dd-4278-8b3b-f5786872fe32","ios":"levelo://app?vid=b7d0d8a1-c5dd-4278-8b3b-f5786872fe32"},"vehicle_type_id":"4","last_reported":1751062231,"current_range_meters":9200,"station_id":"ce4bhrh2rcd13ifvqhug","pricing_plan_id":"cebpf4jnsgd1na2vs0mg"},{"bike_id":"d93518a7-acea-49d1-8b1d-66917831e25a","system_id":"levelo_inurba_marseille","lat":43.28354,"lon":5.39576,"is_reserved":false,"is_disabled":false,"rental_uris":{"android":"levelo://app?vid=d93518a7-acea-49d1-8b1d-66917831e25a","ios":"levelo://app?vid=d93518a7-acea-49d1-8b1d-66917831e25a"},"vehicle_type_id":"4","last_reported":1751062231,"current_range_meters":10000,"station_id":"","pricing_plan_id":"cebpf4jnsgd1na2vs0mg"},{"bike_id":"b6a8d8dc-8e4c-4fdb-9d51-4a2a085f02d2","system_id":"levelo_inurba_marseille","lat":43.29437,"lon":5.3975,"is_reserved":false,"is_disabled":false,"rental_uris":{"android":"levelo://app?vid=b6a8d8dc-8e4c-4fdb-9d51-4a2a085f02d2","ios":"levelo://app?vid=b6a8d8dc-8e4c-4fdb-9d51-4a2a085f02d2"},"vehicle_type_id":"4","last_reported":1751062231,"current_range_meters":10000,"station_id":"ce4bh3h2rcd13ifvqdo0","pricing_plan_id":"cebpf4jnsgd1na2vs0mg"},{"bike_id":"6bd9b448-0b38-4c33-b738-f1b5e8722b1e","system_id":"levelo_inurba_marseille","lat":43.2717,"lon":5.40991,"is_reserved":false,"is_disabled":false,"rental_uris":{"android":"levelo://app?vid=6bd9b448-0b38-4c33-b738-f1b5e8722b1e","ios":"levelo://app?vid=6bd9b448-0b38-4c33-b738-f1b5e8722b1e"},"vehicle_type_id":"4","last_reported":1751062231,"current_range_meters":10000,"station_id":"ce4bhl12rcd13ifvqgf0","pricing_plan_id":"cebpf4jnsgd1na2vs0mg"},{"bike_id":"1c8ab180-05fd-405f-9922-b2b2c2d5142f","system_id":"levelo_inurba_marseille","lat":43.32139,"lon":5.36747,"is_reserved":false,"is_disabled":false,"rental_uris":{"android":"levelo://app?vid=1c8ab180-05fd-405f-9922-b2b2c2d5142f","ios":"levelo://app?vid=1c8ab180-05fd-405f-9922-b2b2c2d5142f"},"vehicle_type_id":"4","last_reported":1751062231,"current_range_meters":10000,"station_id":"ce4bhrh2rcd13ifvqhug","pricing_plan_id":"cebpf4jnsgd1na2vs0mg"},{"bike_id":"a440f2f6-8cf8-4348-9ba1-e21002a18a07","system_id":"levelo_inurba_marseille","lat":43.32109,"lon":5.36807,"is_reserved":false,"is_disabled":false,"rental_uris":{"android":"levelo://app?vid=a440f2f6-8cf8-4348-9ba1-e21002a18a07","ios":"levelo://app?vid=a440f2f6-8cf8-4348-9ba1-e21002a18a07"},"vehicle_type_id":"4","last_reported":1751062231,"current_range_meters":10000,"station_id":"ce4bhrh2rcd13ifvqhug","pricing_plan_id":"cebpf4jnsgd1na2vs0mg"},{"bike_id":"3d9caa25-a35f-4477-ac99-4ddb5c25c4f8","system_id":"levelo_inurba_marseille","lat":43.28723,"lon":5.36092,"is_reserved":false,"is_disabled":false,"rental_uris":{"android":"levelo://app?vid=3d9caa25-a35f-4477-ac99-4ddb5c25c4f8","ios":"levelo://app?vid=3d9caa25-a35f-4477-ac99-4ddb5c25c4f8"},"vehicle_type_id":"4","last_reported":1751062231,"current_range_meters":10000,"station_id":"cki0cbj6b192h4jlfktg","pricing_plan_id":"cebpf4jnsgd1na2vs0mg"},{"bike_id":"3e82f598-9d1d-4257-8afa-a4dc7305de09","system_id":"levelo_inurba_marseille","lat":43.2119,"lon":5.35105,"is_reserved":false,"is_disabled":false,"rental_uris":{"android":"levelo://app?vid=3e82f598-9d1d-4257-8afa-a4dc7305de09","ios":"levelo://app?vid=3e82f598-9d1d-4257-8afa-a4dc7305de09"},"vehicle_type_id":"4","last_reported":1751062231,"current_range_meters":10000,"station_id":"st_cvj6sg6p6f1abm77japg","pricing_plan_id":"cebpf4jnsgd1na2vs0mg"},{"bike_id":"4fd70823-7f50-409a-80c0-aa5ee76e2e20","system_id":"levelo_inurba_marseille","lat":43.30644,"lon":5.40103,"is_reserved":false,"is_disabled":false,"rental_uris":{"android":"levelo://app?vid=4fd70823-7f50-409a-80c0-aa5ee76e2e20","ios":"levelo://app?vid=4fd70823-7f50-409a-80c0-aa5ee76e2e20"},"vehicle_type_id":"4","last_reported":1751062231,"current_range_meters":10800,"station_id":"ce4bh112rcd13ifvqda0","pricing_plan_id":"cebpf4jnsgd1na2vs0mg"},{"bike_id":"52404d38-61d8-462c-8e59-e83380c2aa57","system_id":"levelo_inurba_marseille","lat":43.28569,"lon":5.39497,"is_reserved":false,"is_disabled":false,"rental_uris":{"android":"levelo://app?vid=52404d38-61d8-462c-8e59-e83380c2aa57","ios":"levelo://app?vid=52404d38-61d8-462c-8e59-e83380c2aa57"},"vehicle_type_id":"4","last_reported":1751062231,"current_range_meters":10800,"station_id":"ce4bh292rcd13ifvqdg0","pricing_plan_id":"cebpf4jnsgd1na2vs0mg"},{"bike_id":"530805b6-b020-4449-9044-8c2804baabe5","system_id":"levelo_inurba_marseille","lat":43.28107,"lon":5.37852,"is_reserved":false,"is_disabled":false,"rental_uris":{"android":"levelo://app?vid=530805b6-b020-4449-9044-8c2804baabe5","ios":"levelo://app?vid=530805b6-b020-4449-9044-8c2804baabe5"},"vehicle_type_id":"4","last_reported":1751062231,"current_range_meters":10800,"station_id":"ce4bha12rcd13ifvqee0","pricing_plan_id":"cebpf4jnsgd1na2vs0mg"},{"bike_id":"24edcf05-c81e-407d-9066-fcbabae89622","system_id":"levelo_inurba_marseille","lat":43.295536,"lon":5.422975,"is_reserved":false,"is_disabled":false,"rental_uris":{"android":"levelo://app?vid=24edcf05-c81e-407d-9066-fcbabae89622","ios":"levelo://app?vid=24edcf05-c81e-407d-9066-fcbabae89622"},"vehicle_type_id":"4","last_reported":1751062231,"current_range_meters":10800,"station_id":"ce4bhph2rcd13ifvqhdg","pricing_plan_id":"cebpf4jnsgd1na2vs0mg"},{"bike_id":"5d5e13a4-10cc-485c-a362-06d02242e666","system_id":"levelo_inurba_marseille","lat":43.21174,"lon":5.35082,"is_reserved":false,"is_disabled":false,"rental_uris":{"android":"levelo://app?vid=5d5e13a4-10cc-485c-a362-06d02242e666","ios":"levelo://app?vid=5d5e13a4-10cc-485c-a362-06d02242e666"},"vehicle_type_id":"4","last_reported":1751062231,"current_range_meters":10800,"station_id":"st_cvj6sg6p6f1abm77japg","pricing_plan_id":"cebpf4jnsgd1na2vs0mg"},{"bike_id":"1afdbdc7-9d81-4e98-85e1-ee5984fde0af","system_id":"levelo_inurba_marseille","lat":43.29451,"lon":5.38235,"is_reserved":false,"is_disabled":false,"rental_uris":{"android":"levelo://app?vid=1afdbdc7-9d81-4e98-85e1-ee5984fde0af","ios":"levelo://app?vid=1afdbdc7-9d81-4e98-85e1-ee5984fde0af"},"vehicle_type_id":"4","last_reported":1751062231,"current_range_meters":11200,"station_id":"","pricing_plan_id":"cebpf4jnsgd1na2vs0mg"},{"bike_id":"5a01ae6d-9064-484c-8d77-2d9e141e2313","system_id":"levelo_inurba_marseille","lat":43.24485,"lon":5.39012,"is_reserved":false,"is_disabled":false,"rental_uris":{"android":"levelo://app?vid=5a01ae6d-9064-484c-8d77-2d9e141e2313","ios":"levelo://app?vid=5a01ae6d-9064-484c-8d77-2d9e141e2313"},"vehicle_type_id":"4","last_reported":1751062231,"current_range_meters":11200,"station_id":"","pricing_plan_id":"cebpf4jnsgd1na2vs0mg"},{"bike_id":"a2331a7a-07c4-4a2b-be55-ac526c5d874d","system_id":"levelo_inurba_marseille","lat":43.31113,"lon":5.37773,"is_reserved":false,"is_disabled":false,"rental_uris":{"android":"levelo://app?vid=a2331a7a-07c4-4a2b-be55-ac526c5d874d","ios":"levelo://app?vid=a2331a7a-07c4-4a2b-be55-ac526c5d874d"},"vehicle_type_id":"4","last_reported":1751062231,"current_range_meters":11200,"station_id":"ce4bgt92rcd13ifvqcg0","pricing_plan_id":"cebpf4jnsgd1na2vs0mg"},{"bike_id":"f9bc5838-6de1-4bee-a9e2-fb1c20e06dc5","system_id":"levelo_inurba_marseille","lat":43.28564,"lon":5.39497,"is_reserved":false,"is_disabled":false,"rental_uris":{"android":"levelo://app?vid=f9bc5838-6de1-4bee-a9e2-fb1c20e06dc5","ios":"levelo://app?vid=f9bc5838-6de1-4bee-a9e2-fb1c20e06dc5"},"vehicle_type_id":"4","last_reported":1751062231,"current_range_meters":11200,"station_id":"ce4bh292rcd13ifvqdg0","pricing_plan_id":"cebpf4jnsgd1na2vs0mg"},{"bike_id":"f4d4a6af-7fb3-4bea-918e-3557b55d132b","system_id":"levelo_inurba_marseille","lat":43.29518,"lon":5.39053,"is_reserved":false,"is_disabled":false,"rental_uris":{"android":"levelo://app?vid=f4d4a6af-7fb3-4bea-918e-3557b55d132b","ios":"levelo://app?vid=f4d4a6af-7fb3-4bea-918e-3557b55d132b"},"vehicle_type_id":"4","last_reported":1751062231,"current_range_meters":11200,"station_id":"ce4bh3p2rcd13ifvqdp0","pricing_plan_id":"cebpf4jnsgd1na2vs0mg"},{"bike_id":"ce7f56d6-5387-4c12-8c54-8a66a64aa13a","system_id":"levelo_inurba_marseille","lat":43.28469,"lon":5.38409,"is_reserved":false,"is_disabled":false,"rental_uris":{"android":"levelo://app?vid=ce7f56d6-5387-4c12-8c54-8a66a64aa13a","ios":"levelo://app?vid=ce7f56d6-5387-4c12-8c54-8a66a64aa13a"},"vehicle_type_id":"4","last_reported":1751062231,"current_range_meters":11200,"station_id":"ce4bh512rcd13ifvqe3g","pricing_plan_id":"cebpf4jnsgd1na2vs0mg"},{"bike_id":"e5ae1fdd-ad1c-4e69-ac70-f715e6402e6b","system_id":"levelo_inurba_marseille","lat":43.277338,"lon":5.398732,"is_reserved":false,"is_disabled":false,"rental_uris":{"android":"levelo://app?vid=e5ae1fdd-ad1c-4e69-ac70-f715e6402e6b","ios":"levelo://app?vid=e5ae1fdd-ad1c-4e69-ac70-f715e6402e6b"},"vehicle_type_id":"4","last_reported":1751062231,"current_range_meters":11600,"station_id":"","pricing_plan_id":"cebpf4jnsgd1na2vs0mg"},{"bike_id":"dcea07ca-9323-4b9b-98f6-e1fc9b106559","system_id":"levelo_inurba_marseille","lat":43.30272,"lon":5.37675,"is_reserved":false,"is_disabled":false,"rental_uris":{"android":"levelo://app?vid=dcea07ca-9323-4b9b-98f6-e1fc9b106559","ios":"levelo://app?vid=dcea07ca-9323-4b9b-98f6-e1fc9b106559"},"vehicle_type_id":"4","last_reported":1751062231,"current_range_meters":11600,"station_id":"","pricing_plan_id":"cebpf4jnsgd1na2vs0mg"},{"bike_id":"cd9a5ecb-cdfb-4665-b028-107f45b245c0","system_id":"levelo_inurba_marseille","lat":43.29097,"lon":5.38151,"is_reserved":false,"is_disabled":false,"rental_uris":{"android":"levelo://app?vid=cd9a5ecb-cdfb-4665-b028-107f45b245c0","ios":"levelo://app?vid=cd9a5ecb-cdfb-4665-b028-107f45b245c0"},"vehicle_type_id":"4","last_reported":1751062231,"current_range_meters":11600,"station_id":"ce4bh512rcd13ifvqe2g","pricing_plan_id":"cebpf4jnsgd1na2vs0mg"},{"bike_id":"97740012-6332-43c8-9de2-10015824bd31","system_id":"levelo_inurba_marseille","lat":43.32366,"lon":5.38896,"is_reserved":false,"is_disabled":false,"rental_uris":{"android":"levelo://app?vid=97740012-6332-43c8-9de2-10015824bd31","ios":"levelo://app?vid=97740012-6332-43c8-9de2-10015824bd31"},"vehicle_type_id":"4","last_reported":1751062231,"current_range_meters":11600,"station_id":"ce4bhqp2rcd13ifvqhog","pricing_plan_id":"cebpf4jnsgd1na2vs0mg"},{"bike_id":"ba36a480-53bf-4b3b-9cb3-c5bfa63ebe2b","system_id":"levelo_inurba_marseille","lat":43.30731,"lon":5.4245,"is_reserved":false,"is_disabled":false,"rental_uris":{"android":"levelo://app?vid=ba36a480-53bf-4b3b-9cb3-c5bfa63ebe2b","ios":"levelo://app?vid=ba36a480-53bf-4b3b-9cb3-c5bfa63ebe2b"},"vehicle_type_id":"4","last_reported":1751062231,"current_range_meters":11600,"station_id":"st_cvj6ca6bvosntc0bfgr0","pricing_plan_id":"cebpf4jnsgd1na2vs0mg"},{"bike_id":"46fc1da8-b21e-49ec-9f51-bd3892d403d9","system_id":"levelo_inurba_marseille","lat":43.2417,"lon":5.36403,"is_reserved":false,"is_disabled":false,"rental_uris":{"android":"levelo://app?vid=46fc1da8-b21e-49ec-9f51-bd3892d403d9","ios":"levelo://app?vid=46fc1da8-b21e-49ec-9f51-bd3892d403d9"},"vehicle_type_id":"4","last_reported":1751062231,"current_range_meters":12000,"station_id":"cpo36qri1sfpv3e86is0","pricing_plan_id":"cebpf4jnsgd1na2vs0mg"},{"bike_id":"5c6053bf-7acb-4119-8876-2fc5d915b69a","system_id":"levelo_inurba_marseille","lat":43.27174,"lon":5.40997,"is_reserved":false,"is_disabled":false,"rental_uris":{"android":"levelo://app?vid=5c6053bf-7acb-4119-8876-2fc5d915b69a","ios":"levelo://app?vid=5c6053bf-7acb-4119-8876-2fc5d915b69a"},"vehicle_type_id":"4","last_reported":1751062231,"current_range_meters":12400,"station_id":"ce4bhl12rcd13ifvqgf0","pricing_plan_id":"cebpf4jnsgd1na2vs0mg"},{"bike_id":"2a9a5366-8dad-42f1-bee6-ffb042c54776","system_id":"levelo_inurba_marseille","lat":43.21195,"lon":5.35093,"is_reserved":false,"is_disabled":false,"rental_uris":{"android":"levelo://app?vid=2a9a5366-8dad-42f1-bee6-ffb042c54776","ios":"levelo://app?vid=2a9a5366-8dad-42f1-bee6-ffb042c54776"},"vehicle_type_id":"4","last_reported":1751062231,"current_range_meters":12400,"station_id":"st_cvj6sg6p6f1abm77japg","pricing_plan_id":"cebpf4jnsgd1na2vs0mg"},{"bike_id":"f0057ca2-de2d-4464-8902-068dc3677e00","system_id":"levelo_inurba_marseille","lat":43.21184,"lon":5.35074,"is_reserved":false,"is_disabled":false,"rental_uris":{"android":"levelo://app?vid=f0057ca2-de2d-4464-8902-068dc3677e00","ios":"levelo://app?vid=f0057ca2-de2d-4464-8902-068dc3677e00"},"vehicle_type_id":"4","last_reported":1751062231,"current_range_meters":12400,"station_id":"st_cvj6sg6p6f1abm77japg","pricing_plan_id":"cebpf4jnsgd1na2vs0mg"},{"bike_id":"bb69c1e1-7084-4be7-966a-57a7bcdfcb6c","system_id":"levelo_inurba_marseille","lat":43.24642,"lon":5.41629,"is_reserved":false,"is_disabled":false,"rental_uris":{"android":"levelo://app?vid=bb69c1e1-7084-4be7-966a-57a7bcdfcb6c","ios":"levelo://app?vid=bb69c1e1-7084-4be7-966a-57a7bcdfcb6c"},"vehicle_type_id":"4","last_reported":1751062231,"current_range_meters":12800,"station_id":"","pricing_plan_id":"cebpf4jnsgd1na2vs0mg"},{"bike_id":"1142d72b-1dd8-4635-bc3e-36ec4fae41d4","system_id":"levelo_inurba_marseille","lat":43.30644,"lon":5.40066,"is_reserved":false,"is_disabled":false,"rental_uris":{"android":"levelo://app?vid=1142d72b-1dd8-4635-bc3e-36ec4fae41d4","ios":"levelo://app?vid=1142d72b-1dd8-4635-bc3e-36ec4fae41d4"},"vehicle_type_id":"4","last_reported":1751062231,"current_range_meters":12800,"station_id":"ce4bh112rcd13ifvqda0","pricing_plan_id":"cebpf4jnsgd1na2vs0mg"},{"bike_id":"59642a1c-fc58-4918-a5f2-6f9082f0219b","system_id":"levelo_inurba_marseille","lat":43.29428,"lon":5.38633,"is_reserved":false,"is_disabled":false,"rental_uris":{"android":"levelo://app?vid=59642a1c-fc58-4918-a5f2-6f9082f0219b","ios":"levelo://app?vid=59642a1c-fc58-4918-a5f2-6f9082f0219b"},"vehicle_type_id":"4","last_reported":1751062231,"current_range_meters":12800,"station_id":"ce4bh2h2rcd13ifvqdh0","pricing_plan_id":"cebpf4jnsgd1na2vs0mg"},{"bike_id":"425f470a-b25c-41b1-9707-5e2c6f66ada2","system_id":"levelo_inurba_marseille","lat":43.28102,"lon":5.3784,"is_reserved":false,"is_disabled":false,"rental_uris":{"android":"levelo://app?vid=425f470a-b25c-41b1-9707-5e2c6f66ada2","ios":"levelo://app?vid=425f470a-b25c-41b1-9707-5e2c6f66ada2"},"vehicle_type_id":"4","last_reported":1751062231,"current_range_meters":12800,"station_id":"ce4bha12rcd13ifvqee0","pricing_plan_id":"cebpf4jnsgd1na2vs0mg"},{"bike_id":"d641659c-64fc-486a-91a2-3cc8072043e6","system_id":"levelo_inurba_marseille","lat":43.32111,"lon":5.36799,"is_reserved":false,"is_disabled":false,"rental_uris":{"android":"levelo://app?vid=d641659c-64fc-486a-91a2-3cc8072043e6","ios":"levelo://app?vid=d641659c-64fc-486a-91a2-3cc8072043e6"},"vehicle_type_id":"4","last_reported":1751062231,"current_range_meters":12800,"station_id":"ce4bhrh2rcd13ifvqhug","pricing_plan_id":"cebpf4jnsgd1na2vs0mg"},{"bike_id":"37aea54a-7651-443a-9664-011c7d638061","system_id":"levelo_inurba_marseille","lat":43.29511,"lon":5.39034,"is_reserved":false,"is_disabled":false,"rental_uris":{"android":"levelo://app?vid=37aea54a-7651-443a-9664-011c7d638061","ios":"levelo://app?vid=37aea54a-7651-443a-9664-011c7d638061"},"vehicle_type_id":"4","last_reported":1751062231,"current_range_meters":13600,"station_id":"ce4bh3p2rcd13ifvqdp0","pricing_plan_id":"cebpf4jnsgd1na2vs0mg"},{"bike_id":"59165c66-c191-480e-845f-ffd50d537473","system_id":"levelo_inurba_marseille","lat":43.27883,"lon":5.38,"is_reserved":false,"is_disabled":false,"rental_uris":{"android":"levelo://app?vid=59165c66-c191-480e-845f-ffd50d537473","ios":"levelo://app?vid=59165c66-c191-480e-845f-ffd50d537473"},"vehicle_type_id":"4","last_reported":1751062231,"current_range_meters":13600,"station_id":"ce4bhf92rcd13ifvqf50","pricing_plan_id":"cebpf4jnsgd1na2vs0mg"},{"bike_id":"6910b214-f4f8-4108-ba03-c3a5bc8e06b5","system_id":"levelo_inurba_marseille","lat":43.32284,"lon":5.38281,"is_reserved":false,"is_disabled":false,"rental_uris":{"android":"levelo://app?vid=6910b214-f4f8-4108-ba03-c3a5bc8e06b5","ios":"levelo://app?vid=6910b214-f4f8-4108-ba03-c3a5bc8e06b5"},"vehicle_type_id":"4","last_reported":1751062231,"current_range_meters":13600,"station_id":"ce4bhr12rcd13ifvqhqg","pricing_plan_id":"cebpf4jnsgd1na2vs0mg"},{"bike_id":"d5e70777-ad97-4594-91b6-43ede9611b14","system_id":"levelo_inurba_marseille","lat":43.321052,"lon":5.367772,"is_reserved":false,"is_disabled":false,"rental_uris":{"android":"levelo://app?vid=d5e70777-ad97-4594-91b6-43ede9611b14","ios":"levelo://app?vid=d5e70777-ad97-4594-91b6-43ede9611b14"},"vehicle_type_id":"4","last_reported":1751062231,"current_range_meters":13600,"station_id":"ce4bhrh2rcd13ifvqhug","pricing_plan_id":"cebpf4jnsgd1na2vs0mg"},{"bike_id":"7dfc5216-abd2-4eb0-aa98-27c7a95c769d","system_id":"levelo_inurba_marseille","lat":43.22929,"lon":5.35379,"is_reserved":false,"is_disabled":false,"rental_uris":{"android":"levelo://app?vid=7dfc5216-abd2-4eb0-aa98-27c7a95c769d","ios":"levelo://app?vid=7dfc5216-abd2-4eb0-aa98-27c7a95c769d"},"vehicle_type_id":"4","last_reported":1751062231,"current_range_meters":13600,"station_id":"cpo3532slgdg3j2ikp40","pricing_plan_id":"cebpf4jnsgd1na2vs0mg"},{"bike_id":"13726ea4-91b3-4b24-87ce-db653217d50c","system_id":"levelo_inurba_marseille","lat":43.32142,"lon":5.36742,"is_reserved":false,"is_disabled":false,"rental_uris":{"android":"levelo://app?vid=13726ea4-91b3-4b24-87ce-db653217d50c","ios":"levelo://app?vid=13726ea4-91b3-4b24-87ce-db653217d50c"},"vehicle_type_id":"4","last_reported":1751062231,"current_range_meters":14000,"station_id":"","pricing_plan_id":"cebpf4jnsgd1na2vs0mg"},{"bike_id":"2c72c9b1-564b-478a-b039-4fb6c52967cc","system_id":"levelo_inurba_marseille","lat":43.27457,"lon":5.41112,"is_reserved":false,"is_disabled":false,"rental_uris":{"android":"levelo://app?vid=2c72c9b1-564b-478a-b039-4fb6c52967cc","ios":"levelo://app?vid=2c72c9b1-564b-478a-b039-4fb6c52967cc"},"vehicle_type_id":"4","last_reported":1751062231,"current_range_meters":14000,"station_id":"","pricing_plan_id":"cebpf4jnsgd1na2vs0mg"},{"bike_id":"2eaaac3e-f1cc-4b9d-b302-5a46639237fa","system_id":"levelo_inurba_marseille","lat":43.2989,"lon":5.38898,"is_reserved":false,"is_disabled":false,"rental_uris":{"android":"levelo://app?vid=2eaaac3e-f1cc-4b9d-b302-5a46639237fa","ios":"levelo://app?vid=2eaaac3e-f1cc-4b9d-b302-5a46639237fa"},"vehicle_type_id":"4","last_reported":1751062231,"current_range_meters":14000,"station_id":"ce4bh392rcd13ifvqdl0","pricing_plan_id":"cebpf4jnsgd1na2vs0mg"},{"bike_id":"9e6e35af-b84e-47f2-b4d4-7404ec83bff1","system_id":"levelo_inurba_marseille","lat":43.28353,"lon":5.38079,"is_reserved":false,"is_disabled":false,"rental_uris":{"android":"levelo://app?vid=9e6e35af-b84e-47f2-b4d4-7404ec83bff1","ios":"levelo://app?vid=9e6e35af-b84e-47f2-b4d4-7404ec83bff1"},"vehicle_type_id":"4","last_reported":1751062231,"current_range_meters":14000,"station_id":"ce4bh412rcd13ifvqdr0","pricing_plan_id":"cebpf4jnsgd1na2vs0mg"},{"bike_id":"888d0db6-1a0f-41b6-aa3d-7d469babcb3e","system_id":"levelo_inurba_marseille","lat":43.25122,"lon":5.4034,"is_reserved":false,"is_disabled":false,"rental_uris":{"android":"levelo://app?vid=888d0db6-1a0f-41b6-aa3d-7d469babcb3e","ios":"levelo://app?vid=888d0db6-1a0f-41b6-aa3d-7d469babcb3e"},"vehicle_type_id":"4","last_reported":1751062231,"current_range_meters":14000,"station_id":"ce4bhlh2rcd13ifvqgig","pricing_plan_id":"cebpf4jnsgd1na2vs0mg"},{"bike_id":"cd1bc6c1-6b6c-49cc-81a7-97fdf0f3a681","system_id":"levelo_inurba_marseille","lat":43.24064,"lon":5.377985,"is_reserved":false,"is_disabled":false,"rental_uris":{"android":"levelo://app?vid=cd1bc6c1-6b6c-49cc-81a7-97fdf0f3a681","ios":"levelo://app?vid=cd1bc6c1-6b6c-49cc-81a7-97fdf0f3a681"},"vehicle_type_id":"4","last_reported":1751062231,"current_range_meters":14000,"station_id":"ce4bhnp2rcd13ifvqgvg","pricing_plan_id":"cebpf4jnsgd1na2vs0mg"},{"bike_id":"9bf8f1c5-9995-43ba-b576-53c67c8baf8d","system_id":"levelo_inurba_marseille","lat":43.32344,"lon":5.40618,"is_reserved":false,"is_disabled":false,"rental_uris":{"android":"levelo://app?vid=9bf8f1c5-9995-43ba-b576-53c67c8baf8d","ios":"levelo://app?vid=9bf8f1c5-9995-43ba-b576-53c67c8baf8d"},"vehicle_type_id":"4","last_reported":1751062231,"current_range_meters":14000,"station_id":"ce4bhq92rcd13ifvqhjg","pricing_plan_id":"cebpf4jnsgd1na2vs0mg"},{"bike_id":"bbc4a376-bee7-4ad5-a49a-1022d27c1489","system_id":"levelo_inurba_marseille","lat":43.32088,"lon":5.36771,"is_reserved":false,"is_disabled":false,"rental_uris":{"android":"levelo://app?vid=bbc4a376-bee7-4ad5-a49a-1022d27c1489","ios":"levelo://app?vid=bbc4a376-bee7-4ad5-a49a-1022d27c1489"},"vehicle_type_id":"4","last_reported":1751062231,"current_range_meters":14000,"station_id":"ce4bhrh2rcd13ifvqhug","pricing_plan_id":"cebpf4jnsgd1na2vs0mg"},{"bike_id":"e6ce70f7-9138-485c-a4db-2c9174614cff","system_id":"levelo_inurba_marseille","lat":43.31762,"lon":5.369,"is_reserved":false,"is_disabled":false,"rental_uris":{"android":"levelo://app?vid=e6ce70f7-9138-485c-a4db-2c9174614cff","ios":"levelo://app?vid=e6ce70f7-9138-485c-a4db-2c9174614cff"},"vehicle_type_id":"4","last_reported":1751062231,"current_range_meters":14400,"station_id":"","pricing_plan_id":"cebpf4jnsgd1na2vs0mg"},{"bike_id":"c17a5ce2-f1e0-4006-bdb3-fc36fe9578d1","system_id":"levelo_inurba_marseille","lat":43.30196,"lon":5.3663,"is_reserved":false,"is_disabled":false,"rental_uris":{"android":"levelo://app?vid=c17a5ce2-f1e0-4006-bdb3-fc36fe9578d1","ios":"levelo://app?vid=c17a5ce2-f1e0-4006-bdb3-fc36fe9578d1"},"vehicle_type_id":"4","last_reported":1751062231,"current_range_meters":14400,"station_id":"ce4bgrh2rcd13ifvqc8g","pricing_plan_id":"cebpf4jnsgd1na2vs0mg"},{"bike_id":"4b58342c-a973-43ae-a4aa-875e3fb09599","system_id":"levelo_inurba_marseille","lat":43.30141,"lon":5.37427,"is_reserved":false,"is_disabled":false,"rental_uris":{"android":"levelo://app?vid=4b58342c-a973-43ae-a4aa-875e3fb09599","ios":"levelo://app?vid=4b58342c-a973-43ae-a4aa-875e3fb09599"},"vehicle_type_id":"4","last_reported":1751062231,"current_range_meters":14400,"station_id":"ce4bgs92rcd13ifvqcc0","pricing_plan_id":"cebpf4jnsgd1na2vs0mg"},{"bike_id":"4d83bcde-c879-4a93-8a86-c61ee6e9a886","system_id":"levelo_inurba_marseille","lat":43.3015,"lon":5.374263,"is_reserved":false,"is_disabled":false,"rental_uris":{"android":"levelo://app?vid=4d83bcde-c879-4a93-8a86-c61ee6e9a886","ios":"levelo://app?vid=4d83bcde-c879-4a93-8a86-c61ee6e9a886"},"vehicle_type_id":"4","last_reported":1751062231,"current_range_meters":14400,"station_id":"ce4bgs92rcd13ifvqcc0","pricing_plan_id":"cebpf4jnsgd1na2vs0mg"},{"bike_id":"19dc3be5-f54e-42ad-85cb-87f2e08a1fb2","system_id":"levelo_inurba_marseille","lat":43.24668,"lon":5.3817,"is_reserved":false,"is_disabled":false,"rental_uris":{"android":"levelo://app?vid=19dc3be5-f54e-42ad-85cb-87f2e08a1fb2","ios":"levelo://app?vid=19dc3be5-f54e-42ad-85cb-87f2e08a1fb2"},"vehicle_type_id":"4","last_reported":1751062231,"current_range_meters":14400,"station_id":"ce4bhih2rcd13ifvqfr0","pricing_plan_id":"cebpf4jnsgd1na2vs0mg"},{"bike_id":"b2059454-34f9-4639-b91e-0f3e6ae72b4f","system_id":"levelo_inurba_marseille","lat":43.33578,"lon":5.42826,"is_reserved":false,"is_disabled":false,"rental_uris":{"android":"levelo://app?vid=b2059454-34f9-4639-b91e-0f3e6ae72b4f","ios":"levelo://app?vid=b2059454-34f9-4639-b91e-0f3e6ae72b4f"},"vehicle_type_id":"4","last_reported":1751062231,"current_range_meters":14800,"station_id":"","pricing_plan_id":"cebpf4jnsgd1na2vs0mg"},{"bike_id":"d5ec4b4d-f208-4184-bf0a-854d3ad6e1c4","system_id":"levelo_inurba_marseille","lat":43.30146,"lon":5.380962,"is_reserved":false,"is_disabled":false,"rental_uris":{"android":"levelo://app?vid=d5ec4b4d-f208-4184-bf0a-854d3ad6e1c4","ios":"levelo://app?vid=d5ec4b4d-f208-4184-bf0a-854d3ad6e1c4"},"vehicle_type_id":"4","last_reported":1751062231,"current_range_meters":14800,"station_id":"","pricing_plan_id":"cebpf4jnsgd1na2vs0mg"},{"bike_id":"52e6adf8-6758-4246-a969-f3db99524867","system_id":"levelo_inurba_marseille","lat":43.3014,"lon":5.3878,"is_reserved":false,"is_disabled":false,"rental_uris":{"android":"levelo://app?vid=52e6adf8-6758-4246-a969-f3db99524867","ios":"levelo://app?vid=52e6adf8-6758-4246-a969-f3db99524867"},"vehicle_type_id":"4","last_reported":1751062231,"current_range_meters":14800,"station_id":"ce4bghh2rcd13ifvqb60","pricing_plan_id":"cebpf4jnsgd1na2vs0mg"},{"bike_id":"3cf5fd93-bf47-4605-800c-98f7a6e2f6a6","system_id":"levelo_inurba_marseille","lat":43.29978,"lon":5.38498,"is_reserved":false,"is_disabled":false,"rental_uris":{"android":"levelo://app?vid=3cf5fd93-bf47-4605-800c-98f7a6e2f6a6","ios":"levelo://app?vid=3cf5fd93-bf47-4605-800c-98f7a6e2f6a6"},"vehicle_type_id":"4","last_reported":1751062231,"current_range_meters":14800,"station_id":"ce4bgj92rcd13ifvqbd0","pricing_plan_id":"cebpf4jnsgd1na2vs0mg"},{"bike_id":"fe499081-7ff4-4b0a-8352-f654eb79d844","system_id":"levelo_inurba_marseille","lat":43.31517,"lon":5.3734,"is_reserved":false,"is_disabled":false,"rental_uris":{"android":"levelo://app?vid=fe499081-7ff4-4b0a-8352-f654eb79d844","ios":"levelo://app?vid=fe499081-7ff4-4b0a-8352-f654eb79d844"},"vehicle_type_id":"4","last_reported":1751062231,"current_range_meters":14800,"station_id":"ce4bgt12rcd13ifvqcd0","pricing_plan_id":"cebpf4jnsgd1na2vs0mg"},{"bike_id":"c1b35a4a-fe2f-4ce9-959b-59d3318765fc","system_id":"levelo_inurba_marseille","lat":43.29017,"lon":5.38123,"is_reserved":false,"is_disabled":false,"rental_uris":{"android":"levelo://app?vid=c1b35a4a-fe2f-4ce9-959b-59d3318765fc","ios":"levelo://app?vid=c1b35a4a-fe2f-4ce9-959b-59d3318765fc"},"vehicle_type_id":"4","last_reported":1751062231,"current_range_meters":14800,"station_id":"ce4bh4p2rcd13ifvqe1g","pricing_plan_id":"cebpf4jnsgd1na2vs0mg"},{"bike_id":"c9fe2485-5269-4f42-81ad-c1846b3dbce2","system_id":"levelo_inurba_marseille","lat":43.3172,"lon":5.43673,"is_reserved":false,"is_disabled":false,"rental_uris":{"android":"levelo://app?vid=c9fe2485-5269-4f42-81ad-c1846b3dbce2","ios":"levelo://app?vid=c9fe2485-5269-4f42-81ad-c1846b3dbce2"},"vehicle_type_id":"4","last_reported":1751062231,"current_range_meters":14800,"station_id":"ce4bhp92rcd13ifvqhcg","pricing_plan_id":"cebpf4jnsgd1na2vs0mg"},{"bike_id":"815201a7-dbbe-4827-ab77-bd49f80ea5ee","system_id":"levelo_inurba_marseille","lat":43.29748,"lon":5.45998,"is_reserved":false,"is_disabled":false,"rental_uris":{"android":"levelo://app?vid=815201a7-dbbe-4827-ab77-bd49f80ea5ee","ios":"levelo://app?vid=815201a7-dbbe-4827-ab77-bd49f80ea5ee"},"vehicle_type_id":"4","last_reported":1751062231,"current_range_meters":15200,"station_id":"","pricing_plan_id":"cebpf4jnsgd1na2vs0mg"},{"bike_id":"20d83633-eea8-4481-876a-5ee61c66714d","system_id":"levelo_inurba_marseille","lat":43.295303,"lon":5.3855,"is_reserved":false,"is_disabled":false,"rental_uris":{"android":"levelo://app?vid=20d83633-eea8-4481-876a-5ee61c66714d","ios":"levelo://app?vid=20d83633-eea8-4481-876a-5ee61c66714d"},"vehicle_type_id":"4","last_reported":1751062231,"current_range_meters":15200,"station_id":"ce4bgih2rcd13ifvqba0","pricing_plan_id":"cebpf4jnsgd1na2vs0mg"},{"bike_id":"134e7a32-698a-45b2-aa04-24bbd27f9934","system_id":"levelo_inurba_marseille","lat":43.305171,"lon":5.391585,"is_reserved":false,"is_disabled":false,"rental_uris":{"android":"levelo://app?vid=134e7a32-698a-45b2-aa04-24bbd27f9934","ios":"levelo://app?vid=134e7a32-698a-45b2-aa04-24bbd27f9934"},"vehicle_type_id":"4","last_reported":1751062231,"current_range_meters":15200,"station_id":"ce4bh0h2rcd13ifvqd40","pricing_plan_id":"cebpf4jnsgd1na2vs0mg"},{"bike_id":"bee94766-3a62-4986-a892-c0ff157c6a80","system_id":"levelo_inurba_marseille","lat":43.28924,"lon":5.38399,"is_reserved":false,"is_disabled":false,"rental_uris":{"android":"levelo://app?vid=bee94766-3a62-4986-a892-c0ff157c6a80","ios":"levelo://app?vid=bee94766-3a62-4986-a892-c0ff157c6a80"},"vehicle_type_id":"4","last_reported":1751062231,"current_range_meters":15200,"station_id":"ce4bh612rcd13ifvqe6g","pricing_plan_id":"cebpf4jnsgd1na2vs0mg"},{"bike_id":"75478481-148c-40d5-be7f-3f99343084f8","system_id":"levelo_inurba_marseille","lat":43.292587,"lon":5.384453,"is_reserved":false,"is_disabled":false,"rental_uris":{"android":"levelo://app?vid=75478481-148c-40d5-be7f-3f99343084f8","ios":"levelo://app?vid=75478481-148c-40d5-be7f-3f99343084f8"},"vehicle_type_id":"4","last_reported":1751062231,"current_range_meters":15200,"station_id":"ce4bh692rcd13ifvqea0","pricing_plan_id":"cebpf4jnsgd1na2vs0mg"},{"bike_id":"d471254c-89d4-4be6-8d27-8e77befb7550","system_id":"levelo_inurba_marseille","lat":43.33026,"lon":5.3904,"is_reserved":false,"is_disabled":false,"rental_uris":{"android":"levelo://app?vid=d471254c-89d4-4be6-8d27-8e77befb7550","ios":"levelo://app?vid=d471254c-89d4-4be6-8d27-8e77befb7550"},"vehicle_type_id":"4","last_reported":1751062231,"current_range_meters":15200,"station_id":"ce4bhr92rcd13ifvqhrg","pricing_plan_id":"cebpf4jnsgd1na2vs0mg"},{"bike_id":"2d6edbf1-a448-495a-aad7-e449d36e3185","system_id":"levelo_inurba_marseille","lat":43.28723,"lon":5.36091,"is_reserved":false,"is_disabled":false,"rental_uris":{"android":"levelo://app?vid=2d6edbf1-a448-495a-aad7-e449d36e3185","ios":"levelo://app?vid=2d6edbf1-a448-495a-aad7-e449d36e3185"},"vehicle_type_id":"4","last_reported":1751062231,"current_range_meters":15200,"station_id":"cki0cbj6b192h4jlfktg","pricing_plan_id":"cebpf4jnsgd1na2vs0mg"},{"bike_id":"b680a168-7e85-4fca-bea1-dd5815a4911a","system_id":"levelo_inurba_marseille","lat":43.34029,"lon":5.37482,"is_reserved":false,"is_disabled":false,"rental_uris":{"android":"levelo://app?vid=b680a168-7e85-4fca-bea1-dd5815a4911a","ios":"levelo://app?vid=b680a168-7e85-4fca-bea1-dd5815a4911a"},"vehicle_type_id":"4","last_reported":1751062231,"current_range_meters":16000,"station_id":"","pricing_plan_id":"cebpf4jnsgd1na2vs0mg"},{"bike_id":"2a299e7d-8c83-4a90-ab42-5eb20b45cff1","system_id":"levelo_inurba_marseille","lat":43.29531,"lon":5.38544,"is_reserved":false,"is_disabled":false,"rental_uris":{"android":"levelo://app?vid=2a299e7d-8c83-4a90-ab42-5eb20b45cff1","ios":"levelo://app?vid=2a299e7d-8c83-4a90-ab42-5eb20b45cff1"},"vehicle_type_id":"4","last_reported":1751062231,"current_range_meters":16000,"station_id":"ce4bgih2rcd13ifvqba0","pricing_plan_id":"cebpf4jnsgd1na2vs0mg"},{"bike_id":"1392a653-17e0-490b-9b9b-f11c80b09407","system_id":"levelo_inurba_marseille","lat":43.31329,"lon":5.39688,"is_reserved":false,"is_disabled":false,"rental_uris":{"android":"levelo://app?vid=1392a653-17e0-490b-9b9b-f11c80b09407","ios":"levelo://app?vid=1392a653-17e0-490b-9b9b-f11c80b09407"},"vehicle_type_id":"4","last_reported":1751062231,"current_range_meters":16000,"station_id":"ce4bgvp2rcd13ifvqcu0","pricing_plan_id":"cebpf4jnsgd1na2vs0mg"},{"bike_id":"9dde9d03-f000-4365-a155-c02d84554b38","system_id":"levelo_inurba_marseille","lat":43.290344,"lon":5.386548,"is_reserved":false,"is_disabled":false,"rental_uris":{"android":"levelo://app?vid=9dde9d03-f000-4365-a155-c02d84554b38","ios":"levelo://app?vid=9dde9d03-f000-4365-a155-c02d84554b38"},"vehicle_type_id":"4","last_reported":1751062231,"current_range_meters":16000,"station_id":"ce4bh4p2rcd13ifvqe0g","pricing_plan_id":"cebpf4jnsgd1na2vs0mg"},{"bike_id":"17b4ba63-9e2d-4064-b7f0-711ac34330d7","system_id":"levelo_inurba_marseille","lat":43.24808,"lon":5.37478,"is_reserved":false,"is_disabled":false,"rental_uris":{"android":"levelo://app?vid=17b4ba63-9e2d-4064-b7f0-711ac34330d7","ios":"levelo://app?vid=17b4ba63-9e2d-4064-b7f0-711ac34330d7"},"vehicle_type_id":"4","last_reported":1751062231,"current_range_meters":16000,"station_id":"ce4bhgh2rcd13ifvqfb0","pricing_plan_id":"cebpf4jnsgd1na2vs0mg"},{"bike_id":"d74d7be5-ba54-4d68-9cdb-a520d677c267","system_id":"levelo_inurba_marseille","lat":43.23212,"lon":5.35586,"is_reserved":false,"is_disabled":false,"rental_uris":{"android":"levelo://app?vid=d74d7be5-ba54-4d68-9cdb-a520d677c267","ios":"levelo://app?vid=d74d7be5-ba54-4d68-9cdb-a520d677c267"},"vehicle_type_id":"4","last_reported":1751062231,"current_range_meters":16000,"station_id":"ce4bhu92rcd13ifvqi70","pricing_plan_id":"cebpf4jnsgd1na2vs0mg"},{"bike_id":"721165c1-ef6f-40cc-8d33-af3a7999864b","system_id":"levelo_inurba_marseille","lat":43.32653,"lon":5.37874,"is_reserved":false,"is_disabled":false,"rental_uris":{"android":"levelo://app?vid=721165c1-ef6f-40cc-8d33-af3a7999864b","ios":"levelo://app?vid=721165c1-ef6f-40cc-8d33-af3a7999864b"},"vehicle_type_id":"4","last_reported":1751062231,"current_range_meters":16400,"station_id":"","pricing_plan_id":"cebpf4jnsgd1na2vs0mg"},{"bike_id":"1eceba66-5276-4c21-a921-63d3f7f4cbaa","system_id":"levelo_inurba_marseille","lat":43.29521,"lon":5.38551,"is_reserved":false,"is_disabled":false,"rental_uris":{"android":"levelo://app?vid=1eceba66-5276-4c21-a921-63d3f7f4cbaa","ios":"levelo://app?vid=1eceba66-5276-4c21-a921-63d3f7f4cbaa"},"vehicle_type_id":"4","last_reported":1751062231,"current_range_meters":16400,"station_id":"ce4bgih2rcd13ifvqba0","pricing_plan_id":"cebpf4jnsgd1na2vs0mg"},{"bike_id":"b0e140b0-57ea-4366-a574-96847ce31283","system_id":"levelo_inurba_marseille","lat":43.31263,"lon":5.36823,"is_reserved":false,"is_disabled":false,"rental_uris":{"android":"levelo://app?vid=b0e140b0-57ea-4366-a574-96847ce31283","ios":"levelo://app?vid=b0e140b0-57ea-4366-a574-96847ce31283"},"vehicle_type_id":"4","last_reported":1751062231,"current_range_meters":16400,"station_id":"ce4bgl92rcd13ifvqbq0","pricing_plan_id":"cebpf4jnsgd1na2vs0mg"},{"bike_id":"f1ff92a8-5c11-4ada-9288-1fbc0651bc7b","system_id":"levelo_inurba_marseille","lat":43.28832,"lon":5.43837,"is_reserved":false,"is_disabled":false,"rental_uris":{"android":"levelo://app?vid=f1ff92a8-5c11-4ada-9288-1fbc0651bc7b","ios":"levelo://app?vid=f1ff92a8-5c11-4ada-9288-1fbc0651bc7b"},"vehicle_type_id":"4","last_reported":1751062231,"current_range_meters":16800,"station_id":"","pricing_plan_id":"cebpf4jnsgd1na2vs0mg"},{"bike_id":"dd8e249a-3d2d-4b04-9cc3-4de43feb86b3","system_id":"levelo_inurba_marseille","lat":43.29535,"lon":5.38548,"is_reserved":false,"is_disabled":false,"rental_uris":{"android":"levelo://app?vid=dd8e249a-3d2d-4b04-9cc3-4de43feb86b3","ios":"levelo://app?vid=dd8e249a-3d2d-4b04-9cc3-4de43feb86b3"},"vehicle_type_id":"4","last_reported":1751062231,"current_range_meters":16800,"station_id":"ce4bgih2rcd13ifvqba0","pricing_plan_id":"cebpf4jnsgd1na2vs0mg"},{"bike_id":"bb1a335e-c247-4cf0-8738-9a0b3ea087f6","system_id":"levelo_inurba_marseille","lat":43.28403,"lon":5.37517,"is_reserved":false,"is_disabled":false,"rental_uris":{"android":"levelo://app?vid=bb1a335e-c247-4cf0-8738-9a0b3ea087f6","ios":"levelo://app?vid=bb1a335e-c247-4cf0-8738-9a0b3ea087f6"},"vehicle_type_id":"4","last_reported":1751062231,"current_range_meters":16800,"station_id":"ce4bh412rcd13ifvqds0","pricing_plan_id":"cebpf4jnsgd1na2vs0mg"},{"bike_id":"69465f6d-0a1c-45cb-a0db-2610dcc6c817","system_id":"levelo_inurba_marseille","lat":43.27416,"lon":5.39421,"is_reserved":false,"is_disabled":false,"rental_uris":{"android":"levelo://app?vid=69465f6d-0a1c-45cb-a0db-2610dcc6c817","ios":"levelo://app?vid=69465f6d-0a1c-45cb-a0db-2610dcc6c817"},"vehicle_type_id":"4","last_reported":1751062231,"current_range_meters":16800,"station_id":"ce4bhdp2rcd13ifvqf20","pricing_plan_id":"cebpf4jnsgd1na2vs0mg"},{"bike_id":"4a2cf1d6-62d5-4abf-a38d-0f2569e54c39","system_id":"levelo_inurba_marseille","lat":43.32344,"lon":5.38883,"is_reserved":false,"is_disabled":false,"rental_uris":{"android":"levelo://app?vid=4a2cf1d6-62d5-4abf-a38d-0f2569e54c39","ios":"levelo://app?vid=4a2cf1d6-62d5-4abf-a38d-0f2569e54c39"},"vehicle_type_id":"4","last_reported":1751062231,"current_range_meters":16800,"station_id":"ce4bhqp2rcd13ifvqhog","pricing_plan_id":"cebpf4jnsgd1na2vs0mg"},{"bike_id":"81115363-d7ba-42ce-969b-a1d7ad97fa06","system_id":"levelo_inurba_marseille","lat":43.33717,"lon":5.3918,"is_reserved":false,"is_disabled":false,"rental_uris":{"android":"levelo://app?vid=81115363-d7ba-42ce-969b-a1d7ad97fa06","ios":"levelo://app?vid=81115363-d7ba-42ce-969b-a1d7ad97fa06"},"vehicle_type_id":"4","last_reported":1751062231,"current_range_meters":16800,"station_id":"ce4bhr92rcd13ifvqhsg","pricing_plan_id":"cebpf4jnsgd1na2vs0mg"},{"bike_id":"a7883090-0e10-4075-944b-a3cca54bc544","system_id":"levelo_inurba_marseille","lat":43.225,"lon":5.34802,"is_reserved":false,"is_disabled":false,"rental_uris":{"android":"levelo://app?vid=a7883090-0e10-4075-944b-a3cca54bc544","ios":"levelo://app?vid=a7883090-0e10-4075-944b-a3cca54bc544"},"vehicle_type_id":"4","last_reported":1751062231,"current_range_meters":16800,"station_id":"st_cvj5dfep6f1abm77gieg","pricing_plan_id":"cebpf4jnsgd1na2vs0mg"},{"bike_id":"14e8ef37-e834-4d76-9946-e98f7a083a2f","system_id":"levelo_inurba_marseille","lat":43.21168,"lon":5.35107,"is_reserved":false,"is_disabled":false,"rental_uris":{"android":"levelo://app?vid=14e8ef37-e834-4d76-9946-e98f7a083a2f","ios":"levelo://app?vid=14e8ef37-e834-4d76-9946-e98f7a083a2f"},"vehicle_type_id":"4","last_reported":1751062231,"current_range_meters":16800,"station_id":"st_cvj6sg6p6f1abm77japg","pricing_plan_id":"cebpf4jnsgd1na2vs0mg"},{"bike_id":"12c7fc9f-7c7b-4185-9b2f-badd0c17e36b","system_id":"levelo_inurba_marseille","lat":43.24743,"lon":5.37458,"is_reserved":false,"is_disabled":false,"rental_uris":{"android":"levelo://app?vid=12c7fc9f-7c7b-4185-9b2f-badd0c17e36b","ios":"levelo://app?vid=12c7fc9f-7c7b-4185-9b2f-badd0c17e36b"},"vehicle_type_id":"4","last_reported":1751062231,"current_range_meters":17200,"station_id":"","pricing_plan_id":"cebpf4jnsgd1na2vs0mg"},{"bike_id":"576289f8-cb8b-4fe0-b67f-84826d253af0","system_id":"levelo_inurba_marseille","lat":43.29613,"lon":5.38099,"is_reserved":false,"is_disabled":false,"rental_uris":{"android":"levelo://app?vid=576289f8-cb8b-4fe0-b67f-84826d253af0","ios":"levelo://app?vid=576289f8-cb8b-4fe0-b67f-84826d253af0"},"vehicle_type_id":"4","last_reported":1751062231,"current_range_meters":17200,"station_id":"ce4bgl12rcd13ifvqbo0","pricing_plan_id":"cebpf4jnsgd1na2vs0mg"},{"bike_id":"79694929-9da9-412f-8106-4b89c5e68d14","system_id":"levelo_inurba_marseille","lat":43.309,"lon":5.39671,"is_reserved":false,"is_disabled":false,"rental_uris":{"android":"levelo://app?vid=79694929-9da9-412f-8106-4b89c5e68d14","ios":"levelo://app?vid=79694929-9da9-412f-8106-4b89c5e68d14"},"vehicle_type_id":"4","last_reported":1751062231,"current_range_meters":17200,"station_id":"ce4bh012rcd13ifvqcv0","pricing_plan_id":"cebpf4jnsgd1na2vs0mg"},{"bike_id":"2330f464-59b5-4134-92a3-8d5e2e837f3d","system_id":"levelo_inurba_marseille","lat":43.30419,"lon":5.39748,"is_reserved":false,"is_disabled":false,"rental_uris":{"android":"levelo://app?vid=2330f464-59b5-4134-92a3-8d5e2e837f3d","ios":"levelo://app?vid=2330f464-59b5-4134-92a3-8d5e2e837f3d"},"vehicle_type_id":"4","last_reported":1751062231,"current_range_meters":17200,"station_id":"ce4bh092rcd13ifvqd20","pricing_plan_id":"cebpf4jnsgd1na2vs0mg"},{"bike_id":"c99ba3df-f462-45e3-9441-f99b98aa4205","system_id":"levelo_inurba_marseille","lat":43.29031,"lon":5.38649,"is_reserved":false,"is_disabled":false,"rental_uris":{"android":"levelo://app?vid=c99ba3df-f462-45e3-9441-f99b98aa4205","ios":"levelo://app?vid=c99ba3df-f462-45e3-9441-f99b98aa4205"},"vehicle_type_id":"4","last_reported":1751062231,"current_range_meters":17200,"station_id":"ce4bh4p2rcd13ifvqe0g","pricing_plan_id":"cebpf4jnsgd1na2vs0mg"},{"bike_id":"509deaef-3043-4b97-93ce-2900d4ee7f3f","system_id":"levelo_inurba_marseille","lat":43.29523,"lon":5.3941,"is_reserved":false,"is_disabled":false,"rental_uris":{"android":"levelo://app?vid=509deaef-3043-4b97-93ce-2900d4ee7f3f","ios":"levelo://app?vid=509deaef-3043-4b97-93ce-2900d4ee7f3f"},"vehicle_type_id":"4","last_reported":1751062231,"current_range_meters":17600,"station_id":"","pricing_plan_id":"cebpf4jnsgd1na2vs0mg"},{"bike_id":"0c803610-f6e9-41d4-936d-0b433fa62796","system_id":"levelo_inurba_marseille","lat":43.301954,"lon":5.378159,"is_reserved":false,"is_disabled":false,"rental_uris":{"android":"levelo://app?vid=0c803610-f6e9-41d4-936d-0b433fa62796","ios":"levelo://app?vid=0c803610-f6e9-41d4-936d-0b433fa62796"},"vehicle_type_id":"4","last_reported":1751062231,"current_range_meters":17600,"station_id":"","pricing_plan_id":"cebpf4jnsgd1na2vs0mg"},{"bike_id":"805073ca-85b9-42b0-9e57-7e7428595d04","system_id":"levelo_inurba_marseille","lat":43.28858,"lon":5.38459,"is_reserved":false,"is_disabled":false,"rental_uris":{"android":"levelo://app?vid=805073ca-85b9-42b0-9e57-7e7428595d04","ios":"levelo://app?vid=805073ca-85b9-42b0-9e57-7e7428595d04"},"vehicle_type_id":"4","last_reported":1751062231,"current_range_meters":17600,"station_id":"","pricing_plan_id":"cebpf4jnsgd1na2vs0mg"},{"bike_id":"27c3a297-e0d6-4b21-aee8-031609098db5","system_id":"levelo_inurba_marseille","lat":43.29973,"lon":5.38475,"is_reserved":false,"is_disabled":false,"rental_uris":{"android":"levelo://app?vid=27c3a297-e0d6-4b21-aee8-031609098db5","ios":"levelo://app?vid=27c3a297-e0d6-4b21-aee8-031609098db5"},"vehicle_type_id":"4","last_reported":1751062231,"current_range_meters":17600,"station_id":"ce4bgj92rcd13ifvqbd0","pricing_plan_id":"cebpf4jnsgd1na2vs0mg"},{"bike_id":"cb0ce24a-7241-441c-92d0-ae484bca326d","system_id":"levelo_inurba_marseille","lat":43.3124,"lon":5.36916,"is_reserved":false,"is_disabled":false,"rental_uris":{"android":"levelo://app?vid=cb0ce24a-7241-441c-92d0-ae484bca326d","ios":"levelo://app?vid=cb0ce24a-7241-441c-92d0-ae484bca326d"},"vehicle_type_id":"4","last_reported":1751062231,"current_range_meters":17600,"station_id":"ce4bgl92rcd13ifvqbq0","pricing_plan_id":"cebpf4jnsgd1na2vs0mg"},{"bike_id":"2788717d-403a-4b00-93c8-5cf0695fa919","system_id":"levelo_inurba_marseille","lat":43.30237,"lon":5.40055,"is_reserved":false,"is_disabled":false,"rental_uris":{"android":"levelo://app?vid=2788717d-403a-4b00-93c8-5cf0695fa919","ios":"levelo://app?vid=2788717d-403a-4b00-93c8-5cf0695fa919"},"vehicle_type_id":"4","last_reported":1751062231,"current_range_meters":17600,"station_id":"ce4bgvh2rcd13ifvqcs0","pricing_plan_id":"cebpf4jnsgd1na2vs0mg"},{"bike_id":"35ac9510-0021-49a6-aba9-0b682d34582f","system_id":"levelo_inurba_marseille","lat":43.284174,"lon":5.349845,"is_reserved":false,"is_disabled":false,"rental_uris":{"android":"levelo://app?vid=35ac9510-0021-49a6-aba9-0b682d34582f","ios":"levelo://app?vid=35ac9510-0021-49a6-aba9-0b682d34582f"},"vehicle_type_id":"4","last_reported":1751062231,"current_range_meters":17600,"station_id":"ce4bhbh2rcd13ifvqepg","pricing_plan_id":"cebpf4jnsgd1na2vs0mg"},{"bike_id":"43b90f66-d6f9-4e4e-a32f-49c531e37b2d","system_id":"levelo_inurba_marseille","lat":43.26262,"lon":5.40186,"is_reserved":false,"is_disabled":false,"rental_uris":{"android":"levelo://app?vid=43b90f66-d6f9-4e4e-a32f-49c531e37b2d","ios":"levelo://app?vid=43b90f66-d6f9-4e4e-a32f-49c531e37b2d"},"vehicle_type_id":"4","last_reported":1751062231,"current_range_meters":18000,"station_id":"","pricing_plan_id":"cebpf4jnsgd1na2vs0mg"},{"bike_id":"6af79a00-84aa-4908-a347-34425e08c383","system_id":"levelo_inurba_marseille","lat":43.30283,"lon":5.37586,"is_reserved":false,"is_disabled":false,"rental_uris":{"android":"levelo://app?vid=6af79a00-84aa-4908-a347-34425e08c383","ios":"levelo://app?vid=6af79a00-84aa-4908-a347-34425e08c383"},"vehicle_type_id":"4","last_reported":1751062231,"current_range_meters":18000,"station_id":"","pricing_plan_id":"cebpf4jnsgd1na2vs0mg"},{"bike_id":"3579ee5a-bba0-4407-abcc-a3ee081c29db","system_id":"levelo_inurba_marseille","lat":43.29029,"lon":5.38652,"is_reserved":false,"is_disabled":false,"rental_uris":{"android":"levelo://app?vid=3579ee5a-bba0-4407-abcc-a3ee081c29db","ios":"levelo://app?vid=3579ee5a-bba0-4407-abcc-a3ee081c29db"},"vehicle_type_id":"4","last_reported":1751062231,"current_range_meters":18000,"station_id":"ce4bh4p2rcd13ifvqe0g","pricing_plan_id":"cebpf4jnsgd1na2vs0mg"},{"bike_id":"4043f5ed-1c71-456d-9c90-de5b8866cdaf","system_id":"levelo_inurba_marseille","lat":43.22936,"lon":5.35393,"is_reserved":false,"is_disabled":false,"rental_uris":{"android":"levelo://app?vid=4043f5ed-1c71-456d-9c90-de5b8866cdaf","ios":"levelo://app?vid=4043f5ed-1c71-456d-9c90-de5b8866cdaf"},"vehicle_type_id":"4","last_reported":1751062231,"current_range_meters":18000,"station_id":"cpo3532slgdg3j2ikp40","pricing_plan_id":"cebpf4jnsgd1na2vs0mg"},{"bike_id":"b334124c-c876-45e4-8b38-f47ede11b4b7","system_id":"levelo_inurba_marseille","lat":43.21771,"lon":5.346,"is_reserved":false,"is_disabled":false,"rental_uris":{"android":"levelo://app?vid=b334124c-c876-45e4-8b38-f47ede11b4b7","ios":"levelo://app?vid=b334124c-c876-45e4-8b38-f47ede11b4b7"},"vehicle_type_id":"4","last_reported":1751062231,"current_range_meters":18000,"station_id":"st_cvj6r9ubvosntc0bgbag","pricing_plan_id":"cebpf4jnsgd1na2vs0mg"},{"bike_id":"f810be2a-3c00-446f-9ba1-1f3840ce349d","system_id":"levelo_inurba_marseille","lat":43.32123,"lon":5.36815,"is_reserved":false,"is_disabled":false,"rental_uris":{"android":"levelo://app?vid=f810be2a-3c00-446f-9ba1-1f3840ce349d","ios":"levelo://app?vid=f810be2a-3c00-446f-9ba1-1f3840ce349d"},"vehicle_type_id":"4","last_reported":1751062231,"current_range_meters":18800,"station_id":"","pricing_plan_id":"cebpf4jnsgd1na2vs0mg"},{"bike_id":"3defc597-2bb0-4304-9825-daf7db318e60","system_id":"levelo_inurba_marseille","lat":43.30539,"lon":5.38424,"is_reserved":false,"is_disabled":false,"rental_uris":{"android":"levelo://app?vid=3defc597-2bb0-4304-9825-daf7db318e60","ios":"levelo://app?vid=3defc597-2bb0-4304-9825-daf7db318e60"},"vehicle_type_id":"4","last_reported":1751062231,"current_range_meters":18800,"station_id":"ce4bgg92rcd13ifvqb30","pricing_plan_id":"cebpf4jnsgd1na2vs0mg"},{"bike_id":"cb7aaf9a-7009-4d74-af00-fdb9bc25981a","system_id":"levelo_inurba_marseille","lat":43.29302,"lon":5.37462,"is_reserved":false,"is_disabled":false,"rental_uris":{"android":"levelo://app?vid=cb7aaf9a-7009-4d74-af00-fdb9bc25981a","ios":"levelo://app?vid=cb7aaf9a-7009-4d74-af00-fdb9bc25981a"},"vehicle_type_id":"4","last_reported":1751062231,"current_range_meters":18800,"station_id":"ce4bgi12rcd13ifvqb70","pricing_plan_id":"cebpf4jnsgd1na2vs0mg"},{"bike_id":"e21e879f-fc39-444f-a405-e28f1d8a2ac0","system_id":"levelo_inurba_marseille","lat":43.30937,"lon":5.40146,"is_reserved":false,"is_disabled":false,"rental_uris":{"android":"levelo://app?vid=e21e879f-fc39-444f-a405-e28f1d8a2ac0","ios":"levelo://app?vid=e21e879f-fc39-444f-a405-e28f1d8a2ac0"},"vehicle_type_id":"4","last_reported":1751062231,"current_range_meters":18800,"station_id":"ce4bgvp2rcd13ifvqct0","pricing_plan_id":"cebpf4jnsgd1na2vs0mg"},{"bike_id":"4532e3bc-25fb-491b-ab43-36be9e8da8c2","system_id":"levelo_inurba_marseille","lat":43.29272,"lon":5.4015,"is_reserved":false,"is_disabled":false,"rental_uris":{"android":"levelo://app?vid=4532e3bc-25fb-491b-ab43-36be9e8da8c2","ios":"levelo://app?vid=4532e3bc-25fb-491b-ab43-36be9e8da8c2"},"vehicle_type_id":"4","last_reported":1751062231,"current_range_meters":18800,"station_id":"ce4bh312rcd13ifvqdk0","pricing_plan_id":"cebpf4jnsgd1na2vs0mg"},{"bike_id":"e2f100fc-6a18-4e68-a1ba-9090ef1f425d","system_id":"levelo_inurba_marseille","lat":43.29279,"lon":5.40131,"is_reserved":false,"is_disabled":false,"rental_uris":{"android":"levelo://app?vid=e2f100fc-6a18-4e68-a1ba-9090ef1f425d","ios":"levelo://app?vid=e2f100fc-6a18-4e68-a1ba-9090ef1f425d"},"vehicle_type_id":"4","last_reported":1751062231,"current_range_meters":18800,"station_id":"ce4bh312rcd13ifvqdk0","pricing_plan_id":"cebpf4jnsgd1na2vs0mg"},{"bike_id":"6b4cec30-6f8c-4070-b381-df59368ed543","system_id":"levelo_inurba_marseille","lat":43.29024,"lon":5.38638,"is_reserved":false,"is_disabled":false,"rental_uris":{"android":"levelo://app?vid=6b4cec30-6f8c-4070-b381-df59368ed543","ios":"levelo://app?vid=6b4cec30-6f8c-4070-b381-df59368ed543"},"vehicle_type_id":"4","last_reported":1751062231,"current_range_meters":18800,"station_id":"ce4bh4p2rcd13ifvqe0g","pricing_plan_id":"cebpf4jnsgd1na2vs0mg"},{"bike_id":"38fdaa3f-458e-48d1-99fb-9f194c089b43","system_id":"levelo_inurba_marseille","lat":43.29006,"lon":5.38649,"is_reserved":false,"is_disabled":false,"rental_uris":{"android":"levelo://app?vid=38fdaa3f-458e-48d1-99fb-9f194c089b43","ios":"levelo://app?vid=38fdaa3f-458e-48d1-99fb-9f194c089b43"},"vehicle_type_id":"4","last_reported":1751062231,"current_range_meters":18800,"station_id":"ce4bh4p2rcd13ifvqe0g","pricing_plan_id":"cebpf4jnsgd1na2vs0mg"},{"bike_id":"3431edac-d6d8-4e8f-8fa5-b544aec8a42e","system_id":"levelo_inurba_marseille","lat":43.28724,"lon":5.37945,"is_reserved":false,"is_disabled":false,"rental_uris":{"android":"levelo://app?vid=3431edac-d6d8-4e8f-8fa5-b544aec8a42e","ios":"levelo://app?vid=3431edac-d6d8-4e8f-8fa5-b544aec8a42e"},"vehicle_type_id":"4","last_reported":1751062231,"current_range_meters":18800,"station_id":"ce4bh9p2rcd13ifvqec0","pricing_plan_id":"cebpf4jnsgd1na2vs0mg"},{"bike_id":"420562ea-bd5a-4e39-ad5b-d81a14c5ba59","system_id":"levelo_inurba_marseille","lat":43.278323,"lon":5.392083,"is_reserved":false,"is_disabled":false,"rental_uris":{"android":"levelo://app?vid=420562ea-bd5a-4e39-ad5b-d81a14c5ba59","ios":"levelo://app?vid=420562ea-bd5a-4e39-ad5b-d81a14c5ba59"},"vehicle_type_id":"4","last_reported":1751062231,"current_range_meters":18800,"station_id":"ce4bhjp2rcd13ifvqga0","pricing_plan_id":"cebpf4jnsgd1na2vs0mg"},{"bike_id":"73eae19d-5cc5-48fe-810c-85fc7175c6a0","system_id":"levelo_inurba_marseille","lat":43.23084,"lon":5.35494,"is_reserved":false,"is_disabled":false,"rental_uris":{"android":"levelo://app?vid=73eae19d-5cc5-48fe-810c-85fc7175c6a0","ios":"levelo://app?vid=73eae19d-5cc5-48fe-810c-85fc7175c6a0"},"vehicle_type_id":"4","last_reported":1751062231,"current_range_meters":18800,"station_id":"cpo3342slgdg3j2ifvpg","pricing_plan_id":"cebpf4jnsgd1na2vs0mg"},{"bike_id":"19149b91-39fa-4447-a6d2-87f048aed867","system_id":"levelo_inurba_marseille","lat":43.29528,"lon":5.38548,"is_reserved":false,"is_disabled":false,"rental_uris":{"android":"levelo://app?vid=19149b91-39fa-4447-a6d2-87f048aed867","ios":"levelo://app?vid=19149b91-39fa-4447-a6d2-87f048aed867"},"vehicle_type_id":"4","last_reported":1751062231,"current_range_meters":19200,"station_id":"ce4bgih2rcd13ifvqba0","pricing_plan_id":"cebpf4jnsgd1na2vs0mg"},{"bike_id":"078eebbc-cd10-44e1-9cad-e8fadda9de43","system_id":"levelo_inurba_marseille","lat":43.2893,"lon":5.39666,"is_reserved":false,"is_disabled":false,"rental_uris":{"android":"levelo://app?vid=078eebbc-cd10-44e1-9cad-e8fadda9de43","ios":"levelo://app?vid=078eebbc-cd10-44e1-9cad-e8fadda9de43"},"vehicle_type_id":"4","last_reported":1751062231,"current_range_meters":19200,"station_id":"ce4bh3h2rcd13ifvqdn0","pricing_plan_id":"cebpf4jnsgd1na2vs0mg"},{"bike_id":"962fb7a9-f330-4f21-b9c2-410fc2560e49","system_id":"levelo_inurba_marseille","lat":43.28691,"lon":5.37397,"is_reserved":false,"is_disabled":false,"rental_uris":{"android":"levelo://app?vid=962fb7a9-f330-4f21-b9c2-410fc2560e49","ios":"levelo://app?vid=962fb7a9-f330-4f21-b9c2-410fc2560e49"},"vehicle_type_id":"4","last_reported":1751062231,"current_range_meters":19200,"station_id":"ce4bh3p2rcd13ifvqdq0","pricing_plan_id":"cebpf4jnsgd1na2vs0mg"},{"bike_id":"14a0f456-134e-4530-b101-313a91709ef1","system_id":"levelo_inurba_marseille","lat":43.29269,"lon":5.38448,"is_reserved":false,"is_disabled":false,"rental_uris":{"android":"levelo://app?vid=14a0f456-134e-4530-b101-313a91709ef1","ios":"levelo://app?vid=14a0f456-134e-4530-b101-313a91709ef1"},"vehicle_type_id":"4","last_reported":1751062231,"current_range_meters":19200,"station_id":"ce4bh692rcd13ifvqea0","pricing_plan_id":"cebpf4jnsgd1na2vs0mg"},{"bike_id":"3b29bbc5-5364-48f3-aece-2db1baf3d1f0","system_id":"levelo_inurba_marseille","lat":43.27179,"lon":5.40996,"is_reserved":false,"is_disabled":false,"rental_uris":{"android":"levelo://app?vid=3b29bbc5-5364-48f3-aece-2db1baf3d1f0","ios":"levelo://app?vid=3b29bbc5-5364-48f3-aece-2db1baf3d1f0"},"vehicle_type_id":"4","last_reported":1751062231,"current_range_meters":19200,"station_id":"ce4bhl12rcd13ifvqgf0","pricing_plan_id":"cebpf4jnsgd1na2vs0mg"},{"bike_id":"2287b753-3344-403e-a9e0-526651a52461","system_id":"levelo_inurba_marseille","lat":43.240717,"lon":5.377523,"is_reserved":false,"is_disabled":false,"rental_uris":{"android":"levelo://app?vid=2287b753-3344-403e-a9e0-526651a52461","ios":"levelo://app?vid=2287b753-3344-403e-a9e0-526651a52461"},"vehicle_type_id":"4","last_reported":1751062231,"current_range_meters":19200,"station_id":"ce4bhnp2rcd13ifvqgvg","pricing_plan_id":"cebpf4jnsgd1na2vs0mg"},{"bike_id":"40e3edc0-3f7f-4337-9abe-4c43118636ec","system_id":"levelo_inurba_marseille","lat":43.3265,"lon":5.41021,"is_reserved":false,"is_disabled":false,"rental_uris":{"android":"levelo://app?vid=40e3edc0-3f7f-4337-9abe-4c43118636ec","ios":"levelo://app?vid=40e3edc0-3f7f-4337-9abe-4c43118636ec"},"vehicle_type_id":"4","last_reported":1751062231,"current_range_meters":19200,"station_id":"ce4bhpp2rcd13ifvqhgg","pricing_plan_id":"cebpf4jnsgd1na2vs0mg"},{"bike_id":"b13877a6-4825-4d82-b46b-67fa8ad66c5d","system_id":"levelo_inurba_marseille","lat":43.21204,"lon":5.35091,"is_reserved":false,"is_disabled":false,"rental_uris":{"android":"levelo://app?vid=b13877a6-4825-4d82-b46b-67fa8ad66c5d","ios":"levelo://app?vid=b13877a6-4825-4d82-b46b-67fa8ad66c5d"},"vehicle_type_id":"4","last_reported":1751062231,"current_range_meters":19200,"station_id":"st_cvj6sg6p6f1abm77japg","pricing_plan_id":"cebpf4jnsgd1na2vs0mg"},{"bike_id":"b7b58613-cdc6-4750-8137-2d44544d5e13","system_id":"levelo_inurba_marseille","lat":43.31482,"lon":5.36945,"is_reserved":false,"is_disabled":false,"rental_uris":{"android":"levelo://app?vid=b7b58613-cdc6-4750-8137-2d44544d5e13","ios":"levelo://app?vid=b7b58613-cdc6-4750-8137-2d44544d5e13"},"vehicle_type_id":"4","last_reported":1751062231,"current_range_meters":19600,"station_id":"","pricing_plan_id":"cebpf4jnsgd1na2vs0mg"},{"bike_id":"44b677c8-76ed-4eac-8888-58151f9d5d6e","system_id":"levelo_inurba_marseille","lat":43.31488,"lon":5.36937,"is_reserved":false,"is_disabled":false,"rental_uris":{"android":"levelo://app?vid=44b677c8-76ed-4eac-8888-58151f9d5d6e","ios":"levelo://app?vid=44b677c8-76ed-4eac-8888-58151f9d5d6e"},"vehicle_type_id":"4","last_reported":1751062231,"current_range_meters":19600,"station_id":"","pricing_plan_id":"cebpf4jnsgd1na2vs0mg"},{"bike_id":"d308c658-b19c-49c0-8014-5506ff26f69a","system_id":"levelo_inurba_marseille","lat":43.23074,"lon":5.40477,"is_reserved":false,"is_disabled":false,"rental_uris":{"android":"levelo://app?vid=d308c658-b19c-49c0-8014-5506ff26f69a","ios":"levelo://app?vid=d308c658-b19c-49c0-8014-5506ff26f69a"},"vehicle_type_id":"4","last_reported":1751062231,"current_range_meters":19600,"station_id":"","pricing_plan_id":"cebpf4jnsgd1na2vs0mg"},{"bike_id":"a49ac062-5b5d-45ce-a615-a8eb9898f673","system_id":"levelo_inurba_marseille","lat":43.29539,"lon":5.38545,"is_reserved":false,"is_disabled":false,"rental_uris":{"android":"levelo://app?vid=a49ac062-5b5d-45ce-a615-a8eb9898f673","ios":"levelo://app?vid=a49ac062-5b5d-45ce-a615-a8eb9898f673"},"vehicle_type_id":"4","last_reported":1751062231,"current_range_meters":19600,"station_id":"ce4bgih2rcd13ifvqba0","pricing_plan_id":"cebpf4jnsgd1na2vs0mg"},{"bike_id":"0df125fa-c1e6-4005-8f46-b5c054eacd7b","system_id":"levelo_inurba_marseille","lat":43.29536,"lon":5.38554,"is_reserved":false,"is_disabled":false,"rental_uris":{"android":"levelo://app?vid=0df125fa-c1e6-4005-8f46-b5c054eacd7b","ios":"levelo://app?vid=0df125fa-c1e6-4005-8f46-b5c054eacd7b"},"vehicle_type_id":"4","last_reported":1751062231,"current_range_meters":19600,"station_id":"ce4bgih2rcd13ifvqba0","pricing_plan_id":"cebpf4jnsgd1na2vs0mg"},{"bike_id":"f342fe44-5d74-40e3-a0fa-5214bcb4d08c","system_id":"levelo_inurba_marseille","lat":43.316897,"lon":5.404623,"is_reserved":false,"is_disabled":false,"rental_uris":{"android":"levelo://app?vid=f342fe44-5d74-40e3-a0fa-5214bcb4d08c","ios":"levelo://app?vid=f342fe44-5d74-40e3-a0fa-5214bcb4d08c"},"vehicle_type_id":"4","last_reported":1751062231,"current_range_meters":19600,"station_id":"ce4bh012rcd13ifvqd00","pricing_plan_id":"cebpf4jnsgd1na2vs0mg"},{"bike_id":"bdeb1e27-2f57-42ff-b583-56f93c644957","system_id":"levelo_inurba_marseille","lat":43.29003,"lon":5.38612,"is_reserved":false,"is_disabled":false,"rental_uris":{"android":"levelo://app?vid=bdeb1e27-2f57-42ff-b583-56f93c644957","ios":"levelo://app?vid=bdeb1e27-2f57-42ff-b583-56f93c644957"},"vehicle_type_id":"4","last_reported":1751062231,"current_range_meters":19600,"station_id":"ce4bh4p2rcd13ifvqe0g","pricing_plan_id":"cebpf4jnsgd1na2vs0mg"},{"bike_id":"2319f758-8cc4-44be-a026-46a4638bdf6c","system_id":"levelo_inurba_marseille","lat":43.27939,"lon":5.39529,"is_reserved":false,"is_disabled":false,"rental_uris":{"android":"levelo://app?vid=2319f758-8cc4-44be-a026-46a4638bdf6c","ios":"levelo://app?vid=2319f758-8cc4-44be-a026-46a4638bdf6c"},"vehicle_type_id":"4","last_reported":1751062231,"current_range_meters":19600,"station_id":"ce4bhf92rcd13ifvqf40","pricing_plan_id":"cebpf4jnsgd1na2vs0mg"},{"bike_id":"7de6199c-be75-4198-b587-0b9314aee21f","system_id":"levelo_inurba_marseille","lat":43.27906,"lon":5.39578,"is_reserved":false,"is_disabled":false,"rental_uris":{"android":"levelo://app?vid=7de6199c-be75-4198-b587-0b9314aee21f","ios":"levelo://app?vid=7de6199c-be75-4198-b587-0b9314aee21f"},"vehicle_type_id":"4","last_reported":1751062231,"current_range_meters":19600,"station_id":"ce4bhf92rcd13ifvqf40","pricing_plan_id":"cebpf4jnsgd1na2vs0mg"},{"bike_id":"c13cc7fc-25ad-404a-8ab1-c28d5e93f103","system_id":"levelo_inurba_marseille","lat":43.24805,"lon":5.37451,"is_reserved":false,"is_disabled":false,"rental_uris":{"android":"levelo://app?vid=c13cc7fc-25ad-404a-8ab1-c28d5e93f103","ios":"levelo://app?vid=c13cc7fc-25ad-404a-8ab1-c28d5e93f103"},"vehicle_type_id":"4","last_reported":1751062231,"current_range_meters":19600,"station_id":"ce4bhgh2rcd13ifvqfb0","pricing_plan_id":"cebpf4jnsgd1na2vs0mg"},{"bike_id":"81312d32-3b67-465f-84d7-8b19e39c90ee","system_id":"levelo_inurba_marseille","lat":43.254953,"lon":5.37651,"is_reserved":false,"is_disabled":false,"rental_uris":{"android":"levelo://app?vid=81312d32-3b67-465f-84d7-8b19e39c90ee","ios":"levelo://app?vid=81312d32-3b67-465f-84d7-8b19e39c90ee"},"vehicle_type_id":"4","last_reported":1751062231,"current_range_meters":19600,"station_id":"ce4bhh12rcd13ifvqff0","pricing_plan_id":"cebpf4jnsgd1na2vs0mg"},{"bike_id":"a2afabc0-82a0-47ef-bb82-a13f5b2643fa","system_id":"levelo_inurba_marseille","lat":43.303962,"lon":5.40863,"is_reserved":false,"is_disabled":false,"rental_uris":{"android":"levelo://app?vid=a2afabc0-82a0-47ef-bb82-a13f5b2643fa","ios":"levelo://app?vid=a2afabc0-82a0-47ef-bb82-a13f5b2643fa"},"vehicle_type_id":"4","last_reported":1751062231,"current_range_meters":19600,"station_id":"ce4bhop2rcd13ifvqh8g","pricing_plan_id":"cebpf4jnsgd1na2vs0mg"},{"bike_id":"c0a2de0a-20e3-4e62-848e-f0dbd6b2e588","system_id":"levelo_inurba_marseille","lat":43.22518,"lon":5.3481,"is_reserved":false,"is_disabled":false,"rental_uris":{"android":"levelo://app?vid=c0a2de0a-20e3-4e62-848e-f0dbd6b2e588","ios":"levelo://app?vid=c0a2de0a-20e3-4e62-848e-f0dbd6b2e588"},"vehicle_type_id":"4","last_reported":1751062231,"current_range_meters":19600,"station_id":"st_cvj5dfep6f1abm77gieg","pricing_plan_id":"cebpf4jnsgd1na2vs0mg"},{"bike_id":"4f7da216-f811-4c57-9e64-cdee7467bddd","system_id":"levelo_inurba_marseille","lat":43.22504,"lon":5.3477,"is_reserved":false,"is_disabled":false,"rental_uris":{"android":"levelo://app?vid=4f7da216-f811-4c57-9e64-cdee7467bddd","ios":"levelo://app?vid=4f7da216-f811-4c57-9e64-cdee7467bddd"},"vehicle_type_id":"4","last_reported":1751062231,"current_range_meters":19600,"station_id":"st_cvj5dfep6f1abm77gieg","pricing_plan_id":"cebpf4jnsgd1na2vs0mg"},{"bike_id":"4682e039-df09-434f-8da8-ecb0aba02d2c","system_id":"levelo_inurba_marseille","lat":43.30256,"lon":5.40085,"is_reserved":false,"is_disabled":false,"rental_uris":{"android":"levelo://app?vid=4682e039-df09-434f-8da8-ecb0aba02d2c","ios":"levelo://app?vid=4682e039-df09-434f-8da8-ecb0aba02d2c"},"vehicle_type_id":"4","last_reported":1751062231,"current_range_meters":20000,"station_id":"ce4bgvh2rcd13ifvqcs0","pricing_plan_id":"cebpf4jnsgd1na2vs0mg"},{"bike_id":"db3878bd-8bdb-418e-a678-9388265ed913","system_id":"levelo_inurba_marseille","lat":43.29428,"lon":5.38589,"is_reserved":false,"is_disabled":false,"rental_uris":{"android":"levelo://app?vid=db3878bd-8bdb-418e-a678-9388265ed913","ios":"levelo://app?vid=db3878bd-8bdb-418e-a678-9388265ed913"},"vehicle_type_id":"4","last_reported":1751062231,"current_range_meters":20000,"station_id":"ce4bh2h2rcd13ifvqdh0","pricing_plan_id":"cebpf4jnsgd1na2vs0mg"},{"bike_id":"37fae773-c603-46e4-b3e1-610479914831","system_id":"levelo_inurba_marseille","lat":43.27248,"lon":5.38686,"is_reserved":false,"is_disabled":false,"rental_uris":{"android":"levelo://app?vid=37fae773-c603-46e4-b3e1-610479914831","ios":"levelo://app?vid=37fae773-c603-46e4-b3e1-610479914831"},"vehicle_type_id":"4","last_reported":1751062231,"current_range_meters":20400,"station_id":"","pricing_plan_id":"cebpf4jnsgd1na2vs0mg"},{"bike_id":"8d481c4e-ca50-4540-ab64-72459495c5f9","system_id":"levelo_inurba_marseille","lat":43.31361,"lon":5.38501,"is_reserved":false,"is_disabled":false,"rental_uris":{"android":"levelo://app?vid=8d481c4e-ca50-4540-ab64-72459495c5f9","ios":"levelo://app?vid=8d481c4e-ca50-4540-ab64-72459495c5f9"},"vehicle_type_id":"4","last_reported":1751062231,"current_range_meters":20400,"station_id":"ce4bgt92rcd13ifvqcf0","pricing_plan_id":"cebpf4jnsgd1na2vs0mg"},{"bike_id":"6aad43d7-1ece-4c7a-a90f-ea24a33b2ef8","system_id":"levelo_inurba_marseille","lat":43.3033,"lon":5.40445,"is_reserved":false,"is_disabled":false,"rental_uris":{"android":"levelo://app?vid=6aad43d7-1ece-4c7a-a90f-ea24a33b2ef8","ios":"levelo://app?vid=6aad43d7-1ece-4c7a-a90f-ea24a33b2ef8"},"vehicle_type_id":"4","last_reported":1751062231,"current_range_meters":20400,"station_id":"ce4bh012rcd13ifvqd10","pricing_plan_id":"cebpf4jnsgd1na2vs0mg"},{"bike_id":"31fad2bc-bb24-43f9-a166-1abc4d2c4627","system_id":"levelo_inurba_marseille","lat":43.288552,"lon":5.393053,"is_reserved":false,"is_disabled":false,"rental_uris":{"android":"levelo://app?vid=31fad2bc-bb24-43f9-a166-1abc4d2c4627","ios":"levelo://app?vid=31fad2bc-bb24-43f9-a166-1abc4d2c4627"},"vehicle_type_id":"4","last_reported":1751062231,"current_range_meters":20400,"station_id":"ce4bh2p2rcd13ifvqdi0","pricing_plan_id":"cebpf4jnsgd1na2vs0mg"},{"bike_id":"a77c27fd-83b4-4759-ae81-7478ca14b59c","system_id":"levelo_inurba_marseille","lat":43.29037,"lon":5.39971,"is_reserved":false,"is_disabled":false,"rental_uris":{"android":"levelo://app?vid=a77c27fd-83b4-4759-ae81-7478ca14b59c","ios":"levelo://app?vid=a77c27fd-83b4-4759-ae81-7478ca14b59c"},"vehicle_type_id":"4","last_reported":1751062231,"current_range_meters":20400,"station_id":"ce4bh392rcd13ifvqdm0","pricing_plan_id":"cebpf4jnsgd1na2vs0mg"},{"bike_id":"a4841015-4369-403d-8f9e-0e0af290d5c2","system_id":"levelo_inurba_marseille","lat":43.25866,"lon":5.39917,"is_reserved":false,"is_disabled":false,"rental_uris":{"android":"levelo://app?vid=a4841015-4369-403d-8f9e-0e0af290d5c2","ios":"levelo://app?vid=a4841015-4369-403d-8f9e-0e0af290d5c2"},"vehicle_type_id":"4","last_reported":1751062231,"current_range_meters":20400,"station_id":"ce4bhl92rcd13ifvqghg","pricing_plan_id":"cebpf4jnsgd1na2vs0mg"},{"bike_id":"f80a64c3-7b11-483f-9f05-cdf612651163","system_id":"levelo_inurba_marseille","lat":43.23195,"lon":5.35552,"is_reserved":false,"is_disabled":false,"rental_uris":{"android":"levelo://app?vid=f80a64c3-7b11-483f-9f05-cdf612651163","ios":"levelo://app?vid=f80a64c3-7b11-483f-9f05-cdf612651163"},"vehicle_type_id":"4","last_reported":1751062231,"current_range_meters":20400,"station_id":"ce4bhu92rcd13ifvqi70","pricing_plan_id":"cebpf4jnsgd1na2vs0mg"},{"bike_id":"8938ae4b-572d-47fc-b025-02b05af60188","system_id":"levelo_inurba_marseille","lat":43.22503,"lon":5.34786,"is_reserved":false,"is_disabled":false,"rental_uris":{"android":"levelo://app?vid=8938ae4b-572d-47fc-b025-02b05af60188","ios":"levelo://app?vid=8938ae4b-572d-47fc-b025-02b05af60188"},"vehicle_type_id":"4","last_reported":1751062231,"current_range_meters":20400,"station_id":"st_cvj5dfep6f1abm77gieg","pricing_plan_id":"cebpf4jnsgd1na2vs0mg"},{"bike_id":"6672828e-1144-4fd5-8b1c-123a3349e341","system_id":"levelo_inurba_marseille","lat":43.28029,"lon":5.40828,"is_reserved":false,"is_disabled":false,"rental_uris":{"android":"levelo://app?vid=6672828e-1144-4fd5-8b1c-123a3349e341","ios":"levelo://app?vid=6672828e-1144-4fd5-8b1c-123a3349e341"},"vehicle_type_id":"4","last_reported":1751062231,"current_range_meters":20800,"station_id":"","pricing_plan_id":"cebpf4jnsgd1na2vs0mg"},{"bike_id":"c595d0e1-c778-4abe-9c79-a9dd74f54e27","system_id":"levelo_inurba_marseille","lat":43.24467,"lon":5.37215,"is_reserved":false,"is_disabled":false,"rental_uris":{"android":"levelo://app?vid=c595d0e1-c778-4abe-9c79-a9dd74f54e27","ios":"levelo://app?vid=c595d0e1-c778-4abe-9c79-a9dd74f54e27"},"vehicle_type_id":"4","last_reported":1751062231,"current_range_meters":20800,"station_id":"","pricing_plan_id":"cebpf4jnsgd1na2vs0mg"},{"bike_id":"1dbb13e8-b755-4b9f-9043-d13fcf582f40","system_id":"levelo_inurba_marseille","lat":43.29843,"lon":5.36277,"is_reserved":false,"is_disabled":false,"rental_uris":{"android":"levelo://app?vid=1dbb13e8-b755-4b9f-9043-d13fcf582f40","ios":"levelo://app?vid=1dbb13e8-b755-4b9f-9043-d13fcf582f40"},"vehicle_type_id":"4","last_reported":1751062231,"current_range_meters":20800,"station_id":"ce4bgpp2rcd13ifvqc3g","pricing_plan_id":"cebpf4jnsgd1na2vs0mg"},{"bike_id":"e8fb0c99-10df-4390-b680-9e8084390e32","system_id":"levelo_inurba_marseille","lat":43.30794,"lon":5.38155,"is_reserved":false,"is_disabled":false,"rental_uris":{"android":"levelo://app?vid=e8fb0c99-10df-4390-b680-9e8084390e32","ios":"levelo://app?vid=e8fb0c99-10df-4390-b680-9e8084390e32"},"vehicle_type_id":"4","last_reported":1751062231,"current_range_meters":20800,"station_id":"ce4bgt12rcd13ifvqce0","pricing_plan_id":"cebpf4jnsgd1na2vs0mg"},{"bike_id":"ddf14ad6-7714-43ed-873e-d9c0c040eb7f","system_id":"levelo_inurba_marseille","lat":43.265474,"lon":5.372869,"is_reserved":false,"is_disabled":false,"rental_uris":{"android":"levelo://app?vid=ddf14ad6-7714-43ed-873e-d9c0c040eb7f","ios":"levelo://app?vid=ddf14ad6-7714-43ed-873e-d9c0c040eb7f"},"vehicle_type_id":"4","last_reported":1751062231,"current_range_meters":20800,"station_id":"ce4bhg12rcd13ifvqf70","pricing_plan_id":"cebpf4jnsgd1na2vs0mg"},{"bike_id":"50ec48c0-d225-46f2-ba94-8777d234d58c","system_id":"levelo_inurba_marseille","lat":43.25488,"lon":5.37655,"is_reserved":false,"is_disabled":false,"rental_uris":{"android":"levelo://app?vid=50ec48c0-d225-46f2-ba94-8777d234d58c","ios":"levelo://app?vid=50ec48c0-d225-46f2-ba94-8777d234d58c"},"vehicle_type_id":"4","last_reported":1751062231,"current_range_meters":20800,"station_id":"ce4bhh12rcd13ifvqff0","pricing_plan_id":"cebpf4jnsgd1na2vs0mg"},{"bike_id":"f815512c-2231-4846-a6ce-52d5df71720d","system_id":"levelo_inurba_marseille","lat":43.27836,"lon":5.39208,"is_reserved":false,"is_disabled":false,"rental_uris":{"android":"levelo://app?vid=f815512c-2231-4846-a6ce-52d5df71720d","ios":"levelo://app?vid=f815512c-2231-4846-a6ce-52d5df71720d"},"vehicle_type_id":"4","last_reported":1751062231,"current_range_meters":20800,"station_id":"ce4bhjp2rcd13ifvqga0","pricing_plan_id":"cebpf4jnsgd1na2vs0mg"},{"bike_id":"f9c49172-69a2-4d50-8e3a-42912a992f36","system_id":"levelo_inurba_marseille","lat":43.27829,"lon":5.39211,"is_reserved":false,"is_disabled":false,"rental_uris":{"android":"levelo://app?vid=f9c49172-69a2-4d50-8e3a-42912a992f36","ios":"levelo://app?vid=f9c49172-69a2-4d50-8e3a-42912a992f36"},"vehicle_type_id":"4","last_reported":1751062231,"current_range_meters":20800,"station_id":"ce4bhjp2rcd13ifvqga0","pricing_plan_id":"cebpf4jnsgd1na2vs0mg"},{"bike_id":"735fb3ec-51d3-42a0-b0e0-35a6ef148211","system_id":"levelo_inurba_marseille","lat":43.31307,"lon":5.37335,"is_reserved":false,"is_disabled":false,"rental_uris":{"android":"levelo://app?vid=735fb3ec-51d3-42a0-b0e0-35a6ef148211","ios":"levelo://app?vid=735fb3ec-51d3-42a0-b0e0-35a6ef148211"},"vehicle_type_id":"4","last_reported":1751062231,"current_range_meters":21600,"station_id":"","pricing_plan_id":"cebpf4jnsgd1na2vs0mg"},{"bike_id":"5adacf3e-c18b-47ae-a6f9-c34ff30d42e0","system_id":"levelo_inurba_marseille","lat":43.28568,"lon":5.39497,"is_reserved":false,"is_disabled":false,"rental_uris":{"android":"levelo://app?vid=5adacf3e-c18b-47ae-a6f9-c34ff30d42e0","ios":"levelo://app?vid=5adacf3e-c18b-47ae-a6f9-c34ff30d42e0"},"vehicle_type_id":"4","last_reported":1751062231,"current_range_meters":21600,"station_id":"ce4bh292rcd13ifvqdg0","pricing_plan_id":"cebpf4jnsgd1na2vs0mg"},{"bike_id":"48ca42bc-8d78-4042-a40a-b8f856154877","system_id":"levelo_inurba_marseille","lat":43.294171,"lon":5.38628,"is_reserved":false,"is_disabled":false,"rental_uris":{"android":"levelo://app?vid=48ca42bc-8d78-4042-a40a-b8f856154877","ios":"levelo://app?vid=48ca42bc-8d78-4042-a40a-b8f856154877"},"vehicle_type_id":"4","last_reported":1751062231,"current_range_meters":21600,"station_id":"ce4bh2h2rcd13ifvqdh0","pricing_plan_id":"cebpf4jnsgd1na2vs0mg"},{"bike_id":"93fa22fc-f7cc-4c29-84fc-f4f30b866067","system_id":"levelo_inurba_marseille","lat":43.28703,"lon":5.37408,"is_reserved":false,"is_disabled":false,"rental_uris":{"android":"levelo://app?vid=93fa22fc-f7cc-4c29-84fc-f4f30b866067","ios":"levelo://app?vid=93fa22fc-f7cc-4c29-84fc-f4f30b866067"},"vehicle_type_id":"4","last_reported":1751062231,"current_range_meters":21600,"station_id":"ce4bh3p2rcd13ifvqdq0","pricing_plan_id":"cebpf4jnsgd1na2vs0mg"},{"bike_id":"f694abee-db33-42e1-99b5-fb861cbb450b","system_id":"levelo_inurba_marseille","lat":43.28717,"lon":5.37953,"is_reserved":false,"is_disabled":false,"rental_uris":{"android":"levelo://app?vid=f694abee-db33-42e1-99b5-fb861cbb450b","ios":"levelo://app?vid=f694abee-db33-42e1-99b5-fb861cbb450b"},"vehicle_type_id":"4","last_reported":1751062231,"current_range_meters":21600,"station_id":"ce4bh9p2rcd13ifvqec0","pricing_plan_id":"cebpf4jnsgd1na2vs0mg"},{"bike_id":"0ab5152c-bbf0-4aae-8f72-30281ccce03a","system_id":"levelo_inurba_marseille","lat":43.26492,"lon":5.3954,"is_reserved":false,"is_disabled":false,"rental_uris":{"android":"levelo://app?vid=0ab5152c-bbf0-4aae-8f72-30281ccce03a","ios":"levelo://app?vid=0ab5152c-bbf0-4aae-8f72-30281ccce03a"},"vehicle_type_id":"4","last_reported":1751062231,"current_range_meters":21600,"station_id":"ce4bhi12rcd13ifvqfq0","pricing_plan_id":"cebpf4jnsgd1na2vs0mg"},{"bike_id":"c44ea5bc-3846-4d60-a0c2-80da7c23e229","system_id":"levelo_inurba_marseille","lat":43.2717,"lon":5.40994,"is_reserved":false,"is_disabled":false,"rental_uris":{"android":"levelo://app?vid=c44ea5bc-3846-4d60-a0c2-80da7c23e229","ios":"levelo://app?vid=c44ea5bc-3846-4d60-a0c2-80da7c23e229"},"vehicle_type_id":"4","last_reported":1751062231,"current_range_meters":21600,"station_id":"ce4bhl12rcd13ifvqgf0","pricing_plan_id":"cebpf4jnsgd1na2vs0mg"},{"bike_id":"7757c5d7-8597-4da8-bc28-0c6a39bb89b9","system_id":"levelo_inurba_marseille","lat":43.32289,"lon":5.38263,"is_reserved":false,"is_disabled":false,"rental_uris":{"android":"levelo://app?vid=7757c5d7-8597-4da8-bc28-0c6a39bb89b9","ios":"levelo://app?vid=7757c5d7-8597-4da8-bc28-0c6a39bb89b9"},"vehicle_type_id":"4","last_reported":1751062231,"current_range_meters":21600,"station_id":"ce4bhr12rcd13ifvqhqg","pricing_plan_id":"cebpf4jnsgd1na2vs0mg"},{"bike_id":"0a577a4f-8d5f-4039-b3fc-588f92ad3bcd","system_id":"levelo_inurba_marseille","lat":43.211921,"lon":5.350822,"is_reserved":false,"is_disabled":false,"rental_uris":{"android":"levelo://app?vid=0a577a4f-8d5f-4039-b3fc-588f92ad3bcd","ios":"levelo://app?vid=0a577a4f-8d5f-4039-b3fc-588f92ad3bcd"},"vehicle_type_id":"4","last_reported":1751062231,"current_range_meters":21600,"station_id":"st_cvj6sg6p6f1abm77japg","pricing_plan_id":"cebpf4jnsgd1na2vs0mg"},