{"last_updated":1752412897,"ttl":60,"version":"2.2","data":{"bikes":[{"bike_id":"f6e04cb8-2283-476e-a0aa-cf8e6e654d9a","system_id":"levelo_inurba_marseille","lat":43.28613,"lon":5.35104,"is_reserved":false,"is_disabled":false,"rental_uris":{"android":"levelo://app?vid=f6e04cb8-2283-476e-a0aa-cf8e6e654d9a","ios":"levelo://app?vid=f6e04cb8-2283-476e-a0aa-cf8e6e654d9a"},"vehicle_type_id":"4","last_reported":1752412897,"current_range_meters":2800,"station_id":"ce4bhch2rcd13ifvqeug","pricing_plan_id":"cebpf4jnsgd1na2vs0mg"},{"bike_id":"bfa68e15-1cd1-41b3-94d5-a9b098f6979f","system_id":"levelo_inurba_marseille","lat":43.24902,"lon":5.38751,"is_reserved":false,"is_disabled":false,"rental_uris":{"android":"levelo://app?vid=bfa68e15-1cd1-41b3-94d5-a9b098f6979f","ios":"levelo://app?vid=bfa68e15-1cd1-41b3-94d5-a9b098f6979f"},"vehicle_type_id":"4","last_reported":1752412897,"current_range_meters":3200,"station_id":"","pricing_plan_id":"cebpf4jnsgd1na2vs0mg"},{"bike_id":"86a8bdd1-2f16-4c82-ba39-adf06e4f8d12","system_id":"levelo_inurba_marseille","lat":43.28265,"lon":5.35066,"is_reserved":false,"is_disabled":false,"rental_uris":{"android":"levelo://app?vid=86a8bdd1-2f16-4c82-ba39-adf06e4f8d12","ios":"levelo://app?vid=86a8bdd1-2f16-4c82-ba39-adf06e4f8d12"},"vehicle_type_id":"4","last_reported":1752412897,"current_range_meters":3200,"station_id":"ce4bhbp2rcd13ifvqerg","pricing_plan_id":"cebpf4jnsgd1na2vs0mg"},{"bike_id":"ec86881c-d7b6-426e-ad12-9638e4154a12","system_id":"levelo_inurba_marseille","lat":43.24179,"lon":5.39723,"is_reserved":false,"is_disabled":false,"rental_uris":{"android":"levelo://app?vid=ec86881c-d7b6-426e-ad12-9638e4154a12","ios":"levelo://app?vid=ec86881c-d7b6-426e-ad12-9638e4154a12"},"vehicle_type_id":"4","last_reported":1752412897,"current_range_meters":3200,"station_id":"ce4bhn12rcd13ifvqgpg","pricing_plan_id":"cebpf4jnsgd1na2vs0mg"},{"bike_id":"19574fa2-b189-4405-88d5-96bce78266eb","system_id":"levelo_inurba_marseille","lat":43.30798,"lon":5.38167,"is_reserved":false,"is_disabled":false,"rental_uris":{"android":"levelo://app?vid=19574fa2-b189-4405-88d5-96bce78266eb","ios":"levelo://app?vid=19574fa2-b189-4405-88d5-96bce78266eb"},"vehicle_type_id":"4","last_reported":1752412897,"current_range_meters":3600,"station_id":"ce4bgt12rcd13ifvqce0","pricing_plan_id":"cebpf4jnsgd1na2vs0mg"},{"bike_id":"4fca6540-0e50-4070-bf19-b9f397900c41","system_id":"levelo_inurba_marseille","lat":43.28929,"lon":5.36636,"is_reserved":false,"is_disabled":false,"rental_uris":{"android":"levelo://app?vid=4fca6540-0e50-4070-bf19-b9f397900c41","ios":"levelo://app?vid=4fca6540-0e50-4070-bf19-b9f397900c41"},"vehicle_type_id":"4","last_reported":1752412897,"current_range_meters":4000,"station_id":"ce4bhap2rcd13ifvqek0","pricing_plan_id":"cebpf4jnsgd1na2vs0mg"},{"bike_id":"6f5e9084-558f-4d95-b458-678ee4399b06","system_id":"levelo_inurba_marseille","lat":43.25505,"lon":5.37642,"is_reserved":false,"is_disabled":true,"rental_uris":{"android":"levelo://app?vid=6f5e9084-558f-4d95-b458-678ee4399b06","ios":"levelo://app?vid=6f5e9084-558f-4d95-b458-678ee4399b06"},"vehicle_type_id":"4","last_reported":1752412897,"current_range_meters":4000,"station_id":"ce4bhh12rcd13ifvqff0","pricing_plan_id":"cebpf4jnsgd1na2vs0mg"},{"bike_id":"37a089ca-a5f3-49a1-86bd-82b3249f5f2d","system_id":"levelo_inurba_marseille","lat":43.211759,"lon":5.351341,"is_reserved":false,"is_disabled":false,"rental_uris":{"android":"levelo://app?vid=37a089ca-a5f3-49a1-86bd-82b3249f5f2d","ios":"levelo://app?vid=37a089ca-a5f3-49a1-86bd-82b3249f5f2d"},"vehicle_type_id":"4","last_reported":1752412897,"current_range_meters":4400,"station_id":"st_cvj6sg6p6f1abm77japg","pricing_plan_id":"cebpf4jnsgd1na2vs0mg"},{"bike_id":"473fd6fe-ce24-4081-9cb6-6d49a6e35029","system_id":"levelo_inurba_marseille","lat":43.26191,"lon":5.40448,"is_reserved":false,"is_disabled":false,"rental_uris":{"android":"levelo://app?vid=473fd6fe-ce24-4081-9cb6-6d49a6e35029","ios":"levelo://app?vid=473fd6fe-ce24-4081-9cb6-6d49a6e35029"},"vehicle_type_id":"4","last_reported":1752412897,"current_range_meters":4400,"station_id":"ce4bhmh2rcd13ifvqgmg","pricing_plan_id":"cebpf4jnsgd1na2vs0mg"},{"bike_id":"2f0ba75c-aff3-43f4-857b-fc7c66f4e426","system_id":"levelo_inurba_marseille","lat":43.30981,"lon":5.39047,"is_reserved":false,"is_disabled":true,"rental_uris":{"android":"levelo://app?vid=2f0ba75c-aff3-43f4-857b-fc7c66f4e426","ios":"levelo://app?vid=2f0ba75c-aff3-43f4-857b-fc7c66f4e426"},"vehicle_type_id":"4","last_reported":1752412897,"current_range_meters":4800,"station_id":"ce4bgup2rcd13ifvqco0","pricing_plan_id":"cebpf4jnsgd1na2vs0mg"},{"bike_id":"68960087-af70-4ba7-bab5-5e8b8a65c615","system_id":"levelo_inurba_marseille","lat":43.30595,"lon":5.37223,"is_reserved":false,"is_disabled":false,"rental_uris":{"android":"levelo://app?vid=68960087-af70-4ba7-bab5-5e8b8a65c615","ios":"levelo://app?vid=68960087-af70-4ba7-bab5-5e8b8a65c615"},"vehicle_type_id":"4","last_reported":1752412897,"current_range_meters":4800,"station_id":"ce4bgqh2rcd13ifvqc4g","pricing_plan_id":"cebpf4jnsgd1na2vs0mg"},{"bike_id":"f452d9ee-5c9b-44f2-a31e-351faa693d37","system_id":"levelo_inurba_marseille","lat":43.303096,"lon":5.368904,"is_reserved":false,"is_disabled":true,"rental_uris":{"android":"levelo://app?vid=f452d9ee-5c9b-44f2-a31e-351faa693d37","ios":"levelo://app?vid=f452d9ee-5c9b-44f2-a31e-351faa693d37"},"vehicle_type_id":"4","last_reported":1752412897,"current_range_meters":5600,"station_id":"","pricing_plan_id":"cebpf4jnsgd1na2vs0mg"},{"bike_id":"0cd23a8e-d39d-4afd-9bfe-5003a27de4de","system_id":"levelo_inurba_marseille","lat":43.23966,"lon":5.36628,"is_reserved":false,"is_disabled":false,"rental_uris":{"android":"levelo://app?vid=0cd23a8e-d39d-4afd-9bfe-5003a27de4de","ios":"levelo://app?vid=0cd23a8e-d39d-4afd-9bfe-5003a27de4de"},"vehicle_type_id":"4","last_reported":1752412897,"current_range_meters":5600,"station_id":"ce4bhi12rcd13ifvqfp0","pricing_plan_id":"cebpf4jnsgd1na2vs0mg"},{"bike_id":"e3a75ee9-c614-467b-8cc2-f813bcef2ab1","system_id":"levelo_inurba_marseille","lat":43.33743,"lon":5.3919,"is_reserved":false,"is_disabled":true,"rental_uris":{"android":"levelo://app?vid=e3a75ee9-c614-467b-8cc2-f813bcef2ab1","ios":"levelo://app?vid=e3a75ee9-c614-467b-8cc2-f813bcef2ab1"},"vehicle_type_id":"4","last_reported":1752412897,"current_range_meters":5600,"station_id":"ce4bhr92rcd13ifvqhsg","pricing_plan_id":"cebpf4jnsgd1na2vs0mg"},{"bike_id":"752bdca7-05f8-46b9-901b-79484753ee6c","system_id":"levelo_inurba_marseille","lat":43.26941,"lon":5.40251,"is_reserved":false,"is_disabled":false,"rental_uris":{"android":"levelo://app?vid=752bdca7-05f8-46b9-901b-79484753ee6c","ios":"levelo://app?vid=752bdca7-05f8-46b9-901b-79484753ee6c"},"vehicle_type_id":"4","last_reported":1752412897,"current_range_meters":5600,"station_id":"cjm6bp8fraef2m0cb0m0","pricing_plan_id":"cebpf4jnsgd1na2vs0mg"},{"bike_id":"1f90f83b-9d7a-4579-8890-337857c57f34","system_id":"levelo_inurba_marseille","lat":43.282663,"lon":5.350623,"is_reserved":false,"is_disabled":false,"rental_uris":{"android":"levelo://app?vid=1f90f83b-9d7a-4579-8890-337857c57f34","ios":"levelo://app?vid=1f90f83b-9d7a-4579-8890-337857c57f34"},"vehicle_type_id":"4","last_reported":1752412897,"current_range_meters":6400,"station_id":"ce4bhbp2rcd13ifvqerg","pricing_plan_id":"cebpf4jnsgd1na2vs0mg"},{"bike_id":"05f24eb2-daa3-4f0e-944e-3b9343d3d36a","system_id":"levelo_inurba_marseille","lat":43.295582,"lon":5.422878,"is_reserved":false,"is_disabled":false,"rental_uris":{"android":"levelo://app?vid=05f24eb2-daa3-4f0e-944e-3b9343d3d36a","ios":"levelo://app?vid=05f24eb2-daa3-4f0e-944e-3b9343d3d36a"},"vehicle_type_id":"4","last_reported":1752412897,"current_range_meters":6400,"station_id":"ce4bhph2rcd13ifvqhdg","pricing_plan_id":"cebpf4jnsgd1na2vs0mg"},{"bike_id":"c23fc1ee-d52e-40eb-b6fa-fa23a8fd25fe","system_id":"levelo_inurba_marseille","lat":43.23176,"lon":5.39991,"is_reserved":false,"is_disabled":false,"rental_uris":{"android":"levelo://app?vid=c23fc1ee-d52e-40eb-b6fa-fa23a8fd25fe","ios":"levelo://app?vid=c23fc1ee-d52e-40eb-b6fa-fa23a8fd25fe"},"vehicle_type_id":"4","last_reported":1752412897,"current_range_meters":6000,"station_id":"ce4bhn12rcd13ifvqgqg","pricing_plan_id":"cebpf4jnsgd1na2vs0mg"},{"bike_id":"03251f63-26eb-493f-9d65-8e11851ca687","system_id":"levelo_inurba_marseille","lat":43.28849,"lon":5.39326,"is_reserved":false,"is_disabled":true,"rental_uris":{"android":"levelo://app?vid=03251f63-26eb-493f-9d65-8e11851ca687","ios":"levelo://app?vid=03251f63-26eb-493f-9d65-8e11851ca687"},"vehicle_type_id":"4","last_reported":1752412897,"current_range_meters":6400,"station_id":"ce4bh2p2rcd13ifvqdi0","pricing_plan_id":"cebpf4jnsgd1na2vs0mg"},{"bike_id":"df61839a-7a72-4634-9960-e8ea0d9a8d35","system_id":"levelo_inurba_marseille","lat":43.239474,"lon":5.366089,"is_reserved":false,"is_disabled":true,"rental_uris":{"android":"levelo://app?vid=df61839a-7a72-4634-9960-e8ea0d9a8d35","ios":"levelo://app?vid=df61839a-7a72-4634-9960-e8ea0d9a8d35"},"vehicle_type_id":"4","last_reported":1752412897,"current_range_meters":6400,"station_id":"","pricing_plan_id":"cebpf4jnsgd1na2vs0mg"},{"bike_id":"0f1287f9-390e-4629-ab8e-ad2d35ff61ae","system_id":"levelo_inurba_marseille","lat":43.25578,"lon":5.38249,"is_reserved":false,"is_disabled":true,"rental_uris":{"android":"levelo://app?vid=0f1287f9-390e-4629-ab8e-ad2d35ff61ae","ios":"levelo://app?vid=0f1287f9-390e-4629-ab8e-ad2d35ff61ae"},"vehicle_type_id":"4","last_reported":1752412897,"current_range_meters":6800,"station_id":"ce4bhih2rcd13ifvqfs0","pricing_plan_id":"cebpf4jnsgd1na2vs0mg"},{"bike_id":"481c5cfa-3611-46b5-8cf9-daee960d348a","system_id":"levelo_inurba_marseille","lat":43.26549,"lon":5.37285,"is_reserved":false,"is_disabled":false,"rental_uris":{"android":"levelo://app?vid=481c5cfa-3611-46b5-8cf9-daee960d348a","ios":"levelo://app?vid=481c5cfa-3611-46b5-8cf9-daee960d348a"},"vehicle_type_id":"4","last_reported":1752412897,"current_range_meters":6800,"station_id":"ce4bhg12rcd13ifvqf70","pricing_plan_id":"cebpf4jnsgd1na2vs0mg"},{"bike_id":"cb9282c9-0a04-426f-af4a-9dc494a82650","system_id":"levelo_inurba_marseille","lat":43.225,"lon":5.3478,"is_reserved":false,"is_disabled":false,"rental_uris":{"android":"levelo://app?vid=cb9282c9-0a04-426f-af4a-9dc494a82650","ios":"levelo://app?vid=cb9282c9-0a04-426f-af4a-9dc494a82650"},"vehicle_type_id":"4","last_reported":1752412897,"current_range_meters":6800,"station_id":"","pricing_plan_id":"cebpf4jnsgd1na2vs0mg"},{"bike_id":"8929c1bf-fd4d-44e4-aa66-b3eb6538c998","system_id":"levelo_inurba_marseille","lat":43.28567,"lon":5.42971,"is_reserved":false,"is_disabled":false,"rental_uris":{"android":"levelo://app?vid=8929c1bf-fd4d-44e4-aa66-b3eb6538c998","ios":"levelo://app?vid=8929c1bf-fd4d-44e4-aa66-b3eb6538c998"},"vehicle_type_id":"4","last_reported":1752412897,"current_range_meters":7200,"station_id":"","pricing_plan_id":"cebpf4jnsgd1na2vs0mg"},{"bike_id":"14fdb8da-e408-4844-bf5e-24bbf1a27a1d","system_id":"levelo_inurba_marseille","lat":43.28264,"lon":5.3508,"is_reserved":false,"is_disabled":true,"rental_uris":{"android":"levelo://app?vid=14fdb8da-e408-4844-bf5e-24bbf1a27a1d","ios":"levelo://app?vid=14fdb8da-e408-4844-bf5e-24bbf1a27a1d"},"vehicle_type_id":"4","last_reported":1752412897,"current_range_meters":7200,"station_id":"ce4bhbp2rcd13ifvqerg","pricing_plan_id":"cebpf4jnsgd1na2vs0mg"},{"bike_id":"302e5e3e-0082-4acb-b05c-702795c7eb68","system_id":"levelo_inurba_marseille","lat":43.21746,"lon":5.34598,"is_reserved":false,"is_disabled":false,"rental_uris":{"android":"levelo://app?vid=302e5e3e-0082-4acb-b05c-702795c7eb68","ios":"levelo://app?vid=302e5e3e-0082-4acb-b05c-702795c7eb68"},"vehicle_type_id":"4","last_reported":1752412897,"current_range_meters":7200,"station_id":"st_cvj6r9ubvosntc0bgbag","pricing_plan_id":"cebpf4jnsgd1na2vs0mg"},{"bike_id":"07da0702-b044-43d7-befa-00e5ebc41257","system_id":"levelo_inurba_marseille","lat":43.290187,"lon":5.381357,"is_reserved":false,"is_disabled":true,"rental_uris":{"android":"levelo://app?vid=07da0702-b044-43d7-befa-00e5ebc41257","ios":"levelo://app?vid=07da0702-b044-43d7-befa-00e5ebc41257"},"vehicle_type_id":"4","last_reported":1752412897,"current_range_meters":7200,"station_id":"ce4bh4p2rcd13ifvqe1g","pricing_plan_id":"cebpf4jnsgd1na2vs0mg"},{"bike_id":"3064d7db-7a51-4e85-bef4-6def601894cd","system_id":"levelo_inurba_marseille","lat":43.309568,"lon":5.390301,"is_reserved":false,"is_disabled":true,"rental_uris":{"android":"levelo://app?vid=3064d7db-7a51-4e85-bef4-6def601894cd","ios":"levelo://app?vid=3064d7db-7a51-4e85-bef4-6def601894cd"},"vehicle_type_id":"4","last_reported":1752412897,"current_range_meters":8000,"station_id":"ce4bgup2rcd13ifvqco0","pricing_plan_id":"cebpf4jnsgd1na2vs0mg"},{"bike_id":"4bc0a884-627b-48f8-bd68-265dd88b3694","system_id":"levelo_inurba_marseille","lat":43.24165,"lon":5.36393,"is_reserved":false,"is_disabled":false,"rental_uris":{"android":"levelo://app?vid=4bc0a884-627b-48f8-bd68-265dd88b3694","ios":"levelo://app?vid=4bc0a884-627b-48f8-bd68-265dd88b3694"},"vehicle_type_id":"4","last_reported":1752412897,"current_range_meters":8000,"station_id":"cpo36qri1sfpv3e86is0","pricing_plan_id":"cebpf4jnsgd1na2vs0mg"},{"bike_id":"989cadc1-b8d5-43b8-aca5-55b69edc9395","system_id":"levelo_inurba_marseille","lat":43.30726,"lon":5.4242,"is_reserved":false,"is_disabled":false,"rental_uris":{"android":"levelo://app?vid=989cadc1-b8d5-43b8-aca5-55b69edc9395","ios":"levelo://app?vid=989cadc1-b8d5-43b8-aca5-55b69edc9395"},"vehicle_type_id":"4","last_reported":1752412897,"current_range_meters":8000,"station_id":"st_cvj6ca6bvosntc0bfgr0","pricing_plan_id":"cebpf4jnsgd1na2vs0mg"},{"bike_id":"5a71ab42-51f6-4d74-8942-e5c8339f2255","system_id":"levelo_inurba_marseille","lat":43.3175,"lon":5.39013,"is_reserved":false,"is_disabled":true,"rental_uris":{"android":"levelo://app?vid=5a71ab42-51f6-4d74-8942-e5c8339f2255","ios":"levelo://app?vid=5a71ab42-51f6-4d74-8942-e5c8339f2255"},"vehicle_type_id":"4","last_reported":1752412897,"current_range_meters":8000,"station_id":"ce4bhqp2rcd13ifvqhng","pricing_plan_id":"cebpf4jnsgd1na2vs0mg"},{"bike_id":"c834a5ea-fe65-4ae5-ae4c-03942b8cbf50","system_id":"levelo_inurba_marseille","lat":43.28259,"lon":5.35073,"is_reserved":false,"is_disabled":false,"rental_uris":{"android":"levelo://app?vid=c834a5ea-fe65-4ae5-ae4c-03942b8cbf50","ios":"levelo://app?vid=c834a5ea-fe65-4ae5-ae4c-03942b8cbf50"},"vehicle_type_id":"4","last_reported":1752412897,"current_range_meters":8000,"station_id":"ce4bhbp2rcd13ifvqerg","pricing_plan_id":"cebpf4jnsgd1na2vs0mg"},{"bike_id":"dbba3321-20c7-4989-a7b5-ea9ab2c4b3e8","system_id":"levelo_inurba_marseille","lat":43.261935,"lon":5.374477,"is_reserved":false,"is_disabled":true,"rental_uris":{"android":"levelo://app?vid=dbba3321-20c7-4989-a7b5-ea9ab2c4b3e8","ios":"levelo://app?vid=dbba3321-20c7-4989-a7b5-ea9ab2c4b3e8"},"vehicle_type_id":"4","last_reported":1752412897,"current_range_meters":8000,"station_id":"ce4bhgp2rcd13ifvqfc0","pricing_plan_id":"cebpf4jnsgd1na2vs0mg"},{"bike_id":"96d54fdb-5835-4cd8-9827-093c0b08e4ca","system_id":"levelo_inurba_marseille","lat":43.211938,"lon":5.350707,"is_reserved":false,"is_disabled":false,"rental_uris":{"android":"levelo://app?vid=96d54fdb-5835-4cd8-9827-093c0b08e4ca","ios":"levelo://app?vid=96d54fdb-5835-4cd8-9827-093c0b08e4ca"},"vehicle_type_id":"4","last_reported":1752412897,"current_range_meters":8400,"station_id":"st_cvj6sg6p6f1abm77japg","pricing_plan_id":"cebpf4jnsgd1na2vs0mg"},{"bike_id":"23e5222d-053a-4ace-ae56-dbc84f79e8da","system_id":"levelo_inurba_marseille","lat":43.2439,"lon":5.3706,"is_reserved":false,"is_disabled":false,"rental_uris":{"android":"levelo://app?vid=23e5222d-053a-4ace-ae56-dbc84f79e8da","ios":"levelo://app?vid=23e5222d-053a-4ace-ae56-dbc84f79e8da"},"vehicle_type_id":"4","last_reported":1752412897,"current_range_meters":8400,"station_id":"ce4bhhh2rcd13ifvqfk0","pricing_plan_id":"cebpf4jnsgd1na2vs0mg"},{"bike_id":"4ee3f164-e231-4f8a-a421-4abe60d630e5","system_id":"levelo_inurba_marseille","lat":43.28829,"lon":5.3584,"is_reserved":false,"is_disabled":false,"rental_uris":{"android":"levelo://app?vid=4ee3f164-e231-4f8a-a421-4abe60d630e5","ios":"levelo://app?vid=4ee3f164-e231-4f8a-a421-4abe60d630e5"},"vehicle_type_id":"4","last_reported":1752412897,"current_range_meters":8800,"station_id":"ce4bhb12rcd13ifvqem0","pricing_plan_id":"cebpf4jnsgd1na2vs0mg"},{"bike_id":"696aca5a-f985-42f2-b5f7-74ca3a442dcb","system_id":"levelo_inurba_marseille","lat":43.30912,"lon":5.371431,"is_reserved":false,"is_disabled":false,"rental_uris":{"android":"levelo://app?vid=696aca5a-f985-42f2-b5f7-74ca3a442dcb","ios":"levelo://app?vid=696aca5a-f985-42f2-b5f7-74ca3a442dcb"},"vehicle_type_id":"4","last_reported":1752412897,"current_range_meters":8800,"station_id":"ce4bguh2rcd13ifvqckg","pricing_plan_id":"cebpf4jnsgd1na2vs0mg"},{"bike_id":"fe87f7a0-0c03-4cee-b72d-b5a1483225d9","system_id":"levelo_inurba_marseille","lat":43.21745,"lon":5.34604,"is_reserved":false,"is_disabled":false,"rental_uris":{"android":"levelo://app?vid=fe87f7a0-0c03-4cee-b72d-b5a1483225d9","ios":"levelo://app?vid=fe87f7a0-0c03-4cee-b72d-b5a1483225d9"},"vehicle_type_id":"4","last_reported":1752412897,"current_range_meters":8800,"station_id":"st_cvj6r9ubvosntc0bgbag","pricing_plan_id":"cebpf4jnsgd1na2vs0mg"},{"bike_id":"4e18f6a0-cf0a-4e54-823e-14d073e25d70","system_id":"levelo_inurba_marseille","lat":43.280354,"lon":5.369439,"is_reserved":false,"is_disabled":true,"rental_uris":{"android":"levelo://app?vid=4e18f6a0-cf0a-4e54-823e-14d073e25d70","ios":"levelo://app?vid=4e18f6a0-cf0a-4e54-823e-14d073e25d70"},"vehicle_type_id":"4","last_reported":1752412897,"current_range_meters":8800,"station_id":"ce4bha12rcd13ifvqef0","pricing_plan_id":"cebpf4jnsgd1na2vs0mg"},{"bike_id":"504da426-406d-4a21-a119-73faa12a1e0b","system_id":"levelo_inurba_marseille","lat":43.25496,"lon":5.37648,"is_reserved":false,"is_disabled":false,"rental_uris":{"android":"levelo://app?vid=504da426-406d-4a21-a119-73faa12a1e0b","ios":"levelo://app?vid=504da426-406d-4a21-a119-73faa12a1e0b"},"vehicle_type_id":"4","last_reported":1752412897,"current_range_meters":8800,"station_id":"ce4bhh12rcd13ifvqff0","pricing_plan_id":"cebpf4jnsgd1na2vs0mg"},{"bike_id":"262c7e76-2e28-4d55-b6be-af79e74bb9c9","system_id":"levelo_inurba_marseille","lat":43.32265,"lon":5.36961,"is_reserved":false,"is_disabled":false,"rental_uris":{"android":"levelo://app?vid=262c7e76-2e28-4d55-b6be-af79e74bb9c9","ios":"levelo://app?vid=262c7e76-2e28-4d55-b6be-af79e74bb9c9"},"vehicle_type_id":"4","last_reported":1752412897,"current_range_meters":9200,"station_id":"","pricing_plan_id":"cebpf4jnsgd1na2vs0mg"},{"bike_id":"63063a21-aa23-4fc4-91ac-0a58f2ad7b79","system_id":"levelo_inurba_marseille","lat":43.305275,"lon":5.366038,"is_reserved":false,"is_disabled":false,"rental_uris":{"android":"levelo://app?vid=63063a21-aa23-4fc4-91ac-0a58f2ad7b79","ios":"levelo://app?vid=63063a21-aa23-4fc4-91ac-0a58f2ad7b79"},"vehicle_type_id":"4","last_reported":1752412897,"current_range_meters":9200,"station_id":"ce4bgs12rcd13ifvqcag","pricing_plan_id":"cebpf4jnsgd1na2vs0mg"},{"bike_id":"926eedf9-07e3-4d54-abf7-42633b635e30","system_id":"levelo_inurba_marseille","lat":43.33603,"lon":5.41026,"is_reserved":false,"is_disabled":false,"rental_uris":{"android":"levelo://app?vid=926eedf9-07e3-4d54-abf7-42633b635e30","ios":"levelo://app?vid=926eedf9-07e3-4d54-abf7-42633b635e30"},"vehicle_type_id":"4","last_reported":1752412897,"current_range_meters":9200,"station_id":"ce4bhqh2rcd13ifvqhmg","pricing_plan_id":"cebpf4jnsgd1na2vs0mg"},{"bike_id":"9c6c5c9a-db32-4a64-b323-c0631479ffa1","system_id":"levelo_inurba_marseille","lat":43.244002,"lon":5.37105,"is_reserved":false,"is_disabled":false,"rental_uris":{"android":"levelo://app?vid=9c6c5c9a-db32-4a64-b323-c0631479ffa1","ios":"levelo://app?vid=9c6c5c9a-db32-4a64-b323-c0631479ffa1"},"vehicle_type_id":"4","last_reported":1752412897,"current_range_meters":9200,"station_id":"ce4bh392rcd13ifvqdm0","pricing_plan_id":"cebpf4jnsgd1na2vs0mg"},{"bike_id":"1844f2ed-77a9-4ca1-bcb5-9847b0b934e7","system_id":"levelo_inurba_marseille","lat":43.29619,"lon":5.37164,"is_reserved":false,"is_disabled":false,"rental_uris":{"android":"levelo://app?vid=1844f2ed-77a9-4ca1-bcb5-9847b0b934e7","ios":"levelo://app?vid=1844f2ed-77a9-4ca1-bcb5-9847b0b934e7"},"vehicle_type_id":"4","last_reported":1752412897,"current_range_meters":9600,"station_id":"ce4bgnh2rcd13ifvqc0g","pricing_plan_id":"cebpf4jnsgd1na2vs0mg"},{"bike_id":"81ee33fd-ead8-4a27-8e84-43d3f2538dc1","system_id":"levelo_inurba_marseille","lat":43.29943,"lon":5.36508,"is_reserved":false,"is_disabled":false,"rental_uris":{"android":"levelo://app?vid=81ee33fd-ead8-4a27-8e84-43d3f2538dc1","ios":"levelo://app?vid=81ee33fd-ead8-4a27-8e84-43d3f2538dc1"},"vehicle_type_id":"4","last_reported":1752412897,"current_range_meters":9600,"station_id":"ce4bgm92rcd13ifvqbr0","pricing_plan_id":"cebpf4jnsgd1na2vs0mg"},{"bike_id":"ee5338dd-18a1-4b48-a5b0-f8c72f7b1319","system_id":"levelo_inurba_marseille","lat":43.31875,"lon":5.36789,"is_reserved":false,"is_disabled":false,"rental_uris":{"android":"levelo://app?vid=ee5338dd-18a1-4b48-a5b0-f8c72f7b1319","ios":"levelo://app?vid=ee5338dd-18a1-4b48-a5b0-f8c72f7b1319"},"vehicle_type_id":"4","last_reported":1752412897,"current_range_meters":9600,"station_id":"","pricing_plan_id":"cebpf4jnsgd1na2vs0mg"},{"bike_id":"73bd2d2f-3e2c-4812-ad80-e456896566c2","system_id":"levelo_inurba_marseille","lat":43.31758,"lon":5.39015,"is_reserved":false,"is_disabled":false,"rental_uris":{"android":"levelo://app?vid=73bd2d2f-3e2c-4812-ad80-e456896566c2","ios":"levelo://app?vid=73bd2d2f-3e2c-4812-ad80-e456896566c2"},"vehicle_type_id":"4","last_reported":1752412897,"current_range_meters":9600,"station_id":"ce4bhqp2rcd13ifvqhng","pricing_plan_id":"cebpf4jnsgd1na2vs0mg"},{"bike_id":"aced73e6-905a-42c1-bb63-1bc3d43ee161","system_id":"levelo_inurba_marseille","lat":43.26557,"lon":5.37282,"is_reserved":false,"is_disabled":false,"rental_uris":{"android":"levelo://app?vid=aced73e6-905a-42c1-bb63-1bc3d43ee161","ios":"levelo://app?vid=aced73e6-905a-42c1-bb63-1bc3d43ee161"},"vehicle_type_id":"4","last_reported":1752412897,"current_range_meters":9600,"station_id":"ce4bhg12rcd13ifvqf70","pricing_plan_id":"cebpf4jnsgd1na2vs0mg"},{"bike_id":"d5e129e3-707c-4b79-a8c0-87b29b485229","system_id":"levelo_inurba_marseille","lat":43.21746,"lon":5.34611,"is_reserved":false,"is_disabled":false,"rental_uris":{"android":"levelo://app?vid=d5e129e3-707c-4b79-a8c0-87b29b485229","ios":"levelo://app?vid=d5e129e3-707c-4b79-a8c0-87b29b485229"},"vehicle_type_id":"4","last_reported":1752412897,"current_range_meters":9600,"station_id":"st_cvj6r9ubvosntc0bgbag","pricing_plan_id":"cebpf4jnsgd1na2vs0mg"},{"bike_id":"470d1e9d-8c05-40b8-a6b2-039f183b9f6a","system_id":"levelo_inurba_marseille","lat":43.23188,"lon":5.35549,"is_reserved":false,"is_disabled":true,"rental_uris":{"android":"levelo://app?vid=470d1e9d-8c05-40b8-a6b2-039f183b9f6a","ios":"levelo://app?vid=470d1e9d-8c05-40b8-a6b2-039f183b9f6a"},"vehicle_type_id":"4","last_reported":1752412897,"current_range_meters":9600,"station_id":"ce4bhu92rcd13ifvqi70","pricing_plan_id":"cebpf4jnsgd1na2vs0mg"},{"bike_id":"f14b2ae5-65a4-4780-b5ae-6026c1b8a7fc","system_id":"levelo_inurba_marseille","lat":43.32373,"lon":5.3667,"is_reserved":false,"is_disabled":false,"rental_uris":{"android":"levelo://app?vid=f14b2ae5-65a4-4780-b5ae-6026c1b8a7fc","ios":"levelo://app?vid=f14b2ae5-65a4-4780-b5ae-6026c1b8a7fc"},"vehicle_type_id":"4","last_reported":1752412897,"current_range_meters":10000,"station_id":"ce4bhsh2rcd13ifvqi2g","pricing_plan_id":"cebpf4jnsgd1na2vs0mg"},{"bike_id":"d989e16e-598e-4838-86c0-5e9fbf781d27","system_id":"levelo_inurba_marseille","lat":43.30338,"lon":5.38605,"is_reserved":false,"is_disabled":false,"rental_uris":{"android":"levelo://app?vid=d989e16e-598e-4838-86c0-5e9fbf781d27","ios":"levelo://app?vid=d989e16e-598e-4838-86c0-5e9fbf781d27"},"vehicle_type_id":"4","last_reported":1752412897,"current_range_meters":10000,"station_id":"ce4bgt12rcd13ifvqce0","pricing_plan_id":"cebpf4jnsgd1na2vs0mg"},{"bike_id":"7f02047d-a6cd-43f4-a617-996f2b9a8bc8","system_id":"levelo_inurba_marseille","lat":43.3237,"lon":5.36752,"is_reserved":false,"is_disabled":false,"rental_uris":{"android":"levelo://app?vid=7f02047d-a6cd-43f4-a617-996f2b9a8bc8","ios":"levelo://app?vid=7f02047d-a6cd-43f4-a617-996f2b9a8bc8"},"vehicle_type_id":"4","last_reported":1752412897,"current_range_meters":10000,"station_id":"ce4bhsh2rcd13ifvqi2g","pricing_plan_id":"cebpf4jnsgd1na2vs0mg"},{"bike_id":"d8b7af91-d035-47ef-81a8-b871b77bd9d4","system_id":"levelo_inurba_marseille","lat":43.29882,"lon":5.43633,"is_reserved":false,"is_disabled":false,"rental_uris":{"android":"levelo://app?vid=d8b7af91-d035-47ef-81a8-b871b77bd9d4","ios":"levelo://app?vid=d8b7af91-d035-47ef-81a8-b871b77bd9d4"},"vehicle_type_id":"4","last_reported":1752412897,"current_range_meters":10000,"station_id":"ce4bhpp2rcd13ifvqhfg","pricing_plan_id":"cebpf4jnsgd1na2vs0mg"},{"bike_id":"383a2485-518e-4235-b1cd-0ebf65ba74a5","system_id":"levelo_inurba_marseille","lat":43.29531,"lon":5.38539,"is_reserved":false,"is_disabled":true,"rental_uris":{"android":"levelo://app?vid=383a2485-518e-4235-b1cd-0ebf65ba74a5","ios":"levelo://app?vid=383a2485-518e-4235-b1cd-0ebf65ba74a5"},"vehicle_type_id":"4","last_reported":1752412897,"current_range_meters":10000,"station_id":"ce4bgih2rcd13ifvqba0","pricing_plan_id":"cebpf4jnsgd1na2vs0mg"},{"bike_id":"ed208236-7750-4830-8cef-3de0bc1859b6","system_id":"levelo_inurba_marseille","lat":43.21749,"lon":5.34601,"is_reserved":false,"is_disabled":false,"rental_uris":{"android":"levelo://app?vid=ed208236-7750-4830-8cef-3de0bc1859b6","ios":"levelo://app?vid=ed208236-7750-4830-8cef-3de0bc1859b6"},"vehicle_type_id":"4","last_reported":1752412897,"current_range_meters":10000,"station_id":"st_cvj6r9ubvosntc0bgbag","pricing_plan_id":"cebpf4jnsgd1na2vs0mg"},{"bike_id":"3534c062-2947-4f8b-a5d2-fd94335b9432","system_id":"levelo_inurba_marseille","lat":43.286191,"lon":5.351076,"is_reserved":false,"is_disabled":false,"rental_uris":{"android":"levelo://app?vid=3534c062-2947-4f8b-a5d2-fd94335b9432","ios":"levelo://app?vid=3534c062-2947-4f8b-a5d2-fd94335b9432"},"vehicle_type_id":"4","last_reported":1752412897,"current_range_meters":10000,"station_id":"ce4bhch2rcd13ifvqeug","pricing_plan_id":"cebpf4jnsgd1na2vs0mg"},{"bike_id":"1ac9864a-e0c0-487d-97c6-14e052a5ab65","system_id":"levelo_inurba_marseille","lat":43.28265,"lon":5.35078,"is_reserved":false,"is_disabled":false,"rental_uris":{"android":"levelo://app?vid=1ac9864a-e0c0-487d-97c6-14e052a5ab65","ios":"levelo://app?vid=1ac9864a-e0c0-487d-97c6-14e052a5ab65"},"vehicle_type_id":"4","last_reported":1752412897,"current_range_meters":10000,"station_id":"ce4bhbp2rcd13ifvqerg","pricing_plan_id":"cebpf4jnsgd1na2vs0mg"},{"bike_id":"574f7d54-d224-472a-b7d6-579d0672b5be","system_id":"levelo_inurba_marseille","lat":43.28427,"lon":5.35,"is_reserved":false,"is_disabled":false,"rental_uris":{"android":"levelo://app?vid=574f7d54-d224-472a-b7d6-579d0672b5be","ios":"levelo://app?vid=574f7d54-d224-472a-b7d6-579d0672b5be"},"vehicle_type_id":"4","last_reported":1752412897,"current_range_meters":10800,"station_id":"ce4bhbh2rcd13ifvqepg","pricing_plan_id":"cebpf4jnsgd1na2vs0mg"},{"bike_id":"0167b4ed-f7b5-4599-a393-d68cca54f946","system_id":"levelo_inurba_marseille","lat":43.31348,"lon":5.36705,"is_reserved":false,"is_disabled":false,"rental_uris":{"android":"levelo://app?vid=0167b4ed-f7b5-4599-a393-d68cca54f946","ios":"levelo://app?vid=0167b4ed-f7b5-4599-a393-d68cca54f946"},"vehicle_type_id":"4","last_reported":1752412897,"current_range_meters":10800,"station_id":"ce4bgr92rcd13ifvqc6g","pricing_plan_id":"cebpf4jnsgd1na2vs0mg"},{"bike_id":"b95029c4-51ce-41fe-8e91-1b91dde6b0ad","system_id":"levelo_inurba_marseille","lat":43.211901,"lon":5.350684,"is_reserved":false,"is_disabled":false,"rental_uris":{"android":"levelo://app?vid=b95029c4-51ce-41fe-8e91-1b91dde6b0ad","ios":"levelo://app?vid=b95029c4-51ce-41fe-8e91-1b91dde6b0ad"},"vehicle_type_id":"4","last_reported":1752412897,"current_range_meters":10800,"station_id":"st_cvj6sg6p6f1abm77japg","pricing_plan_id":"cebpf4jnsgd1na2vs0mg"},{"bike_id":"5f70c285-2093-41fa-a12d-dfd6a38e0a30","system_id":"levelo_inurba_marseille","lat":43.217468,"lon":5.346002,"is_reserved":false,"is_disabled":false,"rental_uris":{"android":"levelo://app?vid=5f70c285-2093-41fa-a12d-dfd6a38e0a30","ios":"levelo://app?vid=5f70c285-2093-41fa-a12d-dfd6a38e0a30"},"vehicle_type_id":"4","last_reported":1752412897,"current_range_meters":10800,"station_id":"st_cvj6r9ubvosntc0bgbag","pricing_plan_id":"cebpf4jnsgd1na2vs0mg"},{"bike_id":"3d606fdc-f6da-4bfc-a559-196d7d7a114e","system_id":"levelo_inurba_marseille","lat":43.2501,"lon":5.38932,"is_reserved":false,"is_disabled":true,"rental_uris":{"android":"levelo://app?vid=3d606fdc-f6da-4bfc-a559-196d7d7a114e","ios":"levelo://app?vid=3d606fdc-f6da-4bfc-a559-196d7d7a114e"},"vehicle_type_id":"4","last_reported":1752412897,"current_range_meters":10800,"station_id":"ce4bhgp2rcd13ifvqfd0","pricing_plan_id":"cebpf4jnsgd1na2vs0mg"},{"bike_id":"e7702389-8b0e-4091-89e5-59b127a1d503","system_id":"levelo_inurba_marseille","lat":43.24812,"lon":5.37468,"is_reserved":false,"is_disabled":false,"rental_uris":{"android":"levelo://app?vid=e7702389-8b0e-4091-89e5-59b127a1d503","ios":"levelo://app?vid=e7702389-8b0e-4091-89e5-59b127a1d503"},"vehicle_type_id":"4","last_reported":1752412897,"current_range_meters":10800,"station_id":"ce4bhgh2rcd13ifvqfb0","pricing_plan_id":"cebpf4jnsgd1na2vs0mg"},{"bike_id":"6fe02512-a35c-4a80-87a2-2de81a3a0809","system_id":"levelo_inurba_marseille","lat":43.29226,"lon":5.36052,"is_reserved":false,"is_disabled":false,"rental_uris":{"android":"levelo://app?vid=6fe02512-a35c-4a80-87a2-2de81a3a0809","ios":"levelo://app?vid=6fe02512-a35c-4a80-87a2-2de81a3a0809"},"vehicle_type_id":"4","last_reported":1752412897,"current_range_meters":10800,"station_id":"ce4bhbh2rcd13ifvqeqg","pricing_plan_id":"cebpf4jnsgd1na2vs0mg"},{"bike_id":"8c3a9700-ec60-4649-be67-697613de1946","system_id":"levelo_inurba_marseille","lat":43.2844,"lon":5.392,"is_reserved":false,"is_disabled":false,"rental_uris":{"android":"levelo://app?vid=8c3a9700-ec60-4649-be67-697613de1946","ios":"levelo://app?vid=8c3a9700-ec60-4649-be67-697613de1946"},"vehicle_type_id":"4","last_reported":1752412897,"current_range_meters":11200,"station_id":"ce4bhoh2rcd13ifvqh5g","pricing_plan_id":"cebpf4jnsgd1na2vs0mg"},{"bike_id":"46ce7424-8151-41ba-a046-0c68273c2c8e","system_id":"levelo_inurba_marseille","lat":43.29228,"lon":5.36593,"is_reserved":false,"is_disabled":false,"rental_uris":{"android":"levelo://app?vid=46ce7424-8151-41ba-a046-0c68273c2c8e","ios":"levelo://app?vid=46ce7424-8151-41ba-a046-0c68273c2c8e"},"vehicle_type_id":"4","last_reported":1752412897,"current_range_meters":11200,"station_id":"","pricing_plan_id":"cebpf4jnsgd1na2vs0mg"},{"bike_id":"238d6ee4-cc68-4102-8f7c-12e62b2d0d84","system_id":"levelo_inurba_marseille","lat":43.28418,"lon":5.35006,"is_reserved":false,"is_disabled":false,"rental_uris":{"android":"levelo://app?vid=238d6ee4-cc68-4102-8f7c-12e62b2d0d84","ios":"levelo://app?vid=238d6ee4-cc68-4102-8f7c-12e62b2d0d84"},"vehicle_type_id":"4","last_reported":1752412897,"current_range_meters":11200,"station_id":"ce4bhbh2rcd13ifvqepg","pricing_plan_id":"cebpf4jnsgd1na2vs0mg"},{"bike_id":"3d719eac-9a96-47a5-acb9-669791b1f02e","system_id":"levelo_inurba_marseille","lat":43.30457,"lon":5.37899,"is_reserved":false,"is_disabled":false,"rental_uris":{"android":"levelo://app?vid=3d719eac-9a96-47a5-acb9-669791b1f02e","ios":"levelo://app?vid=3d719eac-9a96-47a5-acb9-669791b1f02e"},"vehicle_type_id":"4","last_reported":1752412897,"current_range_meters":11200,"station_id":"ce4bgup2rcd13ifvqcn0","pricing_plan_id":"cebpf4jnsgd1na2vs0mg"},{"bike_id":"49801dc2-618a-44b8-84ae-416cd87fdbe9","system_id":"levelo_inurba_marseille","lat":43.33777,"lon":5.37485,"is_reserved":false,"is_disabled":false,"rental_uris":{"android":"levelo://app?vid=49801dc2-618a-44b8-84ae-416cd87fdbe9","ios":"levelo://app?vid=49801dc2-618a-44b8-84ae-416cd87fdbe9"},"vehicle_type_id":"4","last_reported":1752412897,"current_range_meters":11200,"station_id":"","pricing_plan_id":"cebpf4jnsgd1na2vs0mg"},{"bike_id":"de739d37-b4f7-413c-8e97-6aecf0ce8256","system_id":"levelo_inurba_marseille","lat":43.26782,"lon":5.39405,"is_reserved":false,"is_disabled":false,"rental_uris":{"android":"levelo://app?vid=de739d37-b4f7-413c-8e97-6aecf0ce8256","ios":"levelo://app?vid=de739d37-b4f7-413c-8e97-6aecf0ce8256"},"vehicle_type_id":"4","last_reported":1752412897,"current_range_meters":11600,"station_id":"ce4bhh12rcd13ifvqfg0","pricing_plan_id":"cebpf4jnsgd1na2vs0mg"},{"bike_id":"84761d97-9b88-4141-8a33-ed6b0e0263fe","system_id":"levelo_inurba_marseille","lat":43.262126,"lon":5.40422,"is_reserved":false,"is_disabled":false,"rental_uris":{"android":"levelo://app?vid=84761d97-9b88-4141-8a33-ed6b0e0263fe","ios":"levelo://app?vid=84761d97-9b88-4141-8a33-ed6b0e0263fe"},"vehicle_type_id":"4","last_reported":1752412897,"current_range_meters":11600,"station_id":"ce4bhmh2rcd13ifvqgmg","pricing_plan_id":"cebpf4jnsgd1na2vs0mg"},{"bike_id":"4ab460f6-2b13-462f-a8b8-8ee3ec6489ea","system_id":"levelo_inurba_marseille","lat":43.26212,"lon":5.40416,"is_reserved":false,"is_disabled":false,"rental_uris":{"android":"levelo://app?vid=4ab460f6-2b13-462f-a8b8-8ee3ec6489ea","ios":"levelo://app?vid=4ab460f6-2b13-462f-a8b8-8ee3ec6489ea"},"vehicle_type_id":"4","last_reported":1752412897,"current_range_meters":11600,"station_id":"ce4bhmh2rcd13ifvqgmg","pricing_plan_id":"cebpf4jnsgd1na2vs0mg"},{"bike_id":"ee2787f8-6d3c-44ff-81a7-1a0cdd07396c","system_id":"levelo_inurba_marseille","lat":43.26059,"lon":5.39401,"is_reserved":false,"is_disabled":false,"rental_uris":{"android":"levelo://app?vid=ee2787f8-6d3c-44ff-81a7-1a0cdd07396c","ios":"levelo://app?vid=ee2787f8-6d3c-44ff-81a7-1a0cdd07396c"},"vehicle_type_id":"4","last_reported":1752412897,"current_range_meters":11600,"station_id":"ce4bhh92rcd13ifvqfj0","pricing_plan_id":"cebpf4jnsgd1na2vs0mg"},{"bike_id":"31f76825-7b9f-439a-a66c-521eb63e58c1","system_id":"levelo_inurba_marseille","lat":43.294646,"lon":5.438543,"is_reserved":false,"is_disabled":false,"rental_uris":{"android":"levelo://app?vid=31f76825-7b9f-439a-a66c-521eb63e58c1","ios":"levelo://app?vid=31f76825-7b9f-439a-a66c-521eb63e58c1"},"vehicle_type_id":"4","last_reported":1752412897,"current_range_meters":11600,"station_id":"","pricing_plan_id":"cebpf4jnsgd1na2vs0mg"},{"bike_id":"9021397e-52e0-4d6e-be44-39c732f2bc3f","system_id":"levelo_inurba_marseille","lat":43.293069,"lon":5.371661,"is_reserved":false,"is_disabled":true,"rental_uris":{"android":"levelo://app?vid=9021397e-52e0-4d6e-be44-39c732f2bc3f","ios":"levelo://app?vid=9021397e-52e0-4d6e-be44-39c732f2bc3f"},"vehicle_type_id":"4","last_reported":1752412897,"current_range_meters":12400,"station_id":"","pricing_plan_id":"cebpf4jnsgd1na2vs0mg"},{"bike_id":"69b22a49-2a1c-467e-9ece-8e2912567187","system_id":"levelo_inurba_marseille","lat":43.2549,"lon":5.37648,"is_reserved":false,"is_disabled":false,"rental_uris":{"android":"levelo://app?vid=69b22a49-2a1c-467e-9ece-8e2912567187","ios":"levelo://app?vid=69b22a49-2a1c-467e-9ece-8e2912567187"},"vehicle_type_id":"4","last_reported":1752412897,"current_range_meters":12400,"station_id":"ce4bhh12rcd13ifvqff0","pricing_plan_id":"cebpf4jnsgd1na2vs0mg"},{"bike_id":"4b8da722-ee9e-48a4-a5e5-3a8a10364708","system_id":"levelo_inurba_marseille","lat":43.31215,"lon":5.37787,"is_reserved":false,"is_disabled":false,"rental_uris":{"android":"levelo://app?vid=4b8da722-ee9e-48a4-a5e5-3a8a10364708","ios":"levelo://app?vid=4b8da722-ee9e-48a4-a5e5-3a8a10364708"},"vehicle_type_id":"4","last_reported":1752412897,"current_range_meters":12400,"station_id":"","pricing_plan_id":"cebpf4jnsgd1na2vs0mg"},{"bike_id":"8b37f03f-f226-4bbc-8648-b109da7ba145","system_id":"levelo_inurba_marseille","lat":43.30536,"lon":5.366999,"is_reserved":false,"is_disabled":false,"rental_uris":{"android":"levelo://app?vid=8b37f03f-f226-4bbc-8648-b109da7ba145","ios":"levelo://app?vid=8b37f03f-f226-4bbc-8648-b109da7ba145"},"vehicle_type_id":"4","last_reported":1752412897,"current_range_meters":12400,"station_id":"","pricing_plan_id":"cebpf4jnsgd1na2vs0mg"},{"bike_id":"f23760ff-ab61-4853-aa67-28aac93822c1","system_id":"levelo_inurba_marseille","lat":43.337444,"lon":5.374475,"is_reserved":false,"is_disabled":false,"rental_uris":{"android":"levelo://app?vid=f23760ff-ab61-4853-aa67-28aac93822c1","ios":"levelo://app?vid=f23760ff-ab61-4853-aa67-28aac93822c1"},"vehicle_type_id":"4","last_reported":1752412897,"current_range_meters":12400,"station_id":"","pricing_plan_id":"cebpf4jnsgd1na2vs0mg"},{"bike_id":"94f3a2fb-c449-4b78-900c-5360ae00e218","system_id":"levelo_inurba_marseille","lat":43.26549,"lon":5.39046,"is_reserved":false,"is_disabled":false,"rental_uris":{"android":"levelo://app?vid=94f3a2fb-c449-4b78-900c-5360ae00e218","ios":"levelo://app?vid=94f3a2fb-c449-4b78-900c-5360ae00e218"},"vehicle_type_id":"4","last_reported":1752412897,"current_range_meters":12400,"station_id":"ce4bhe12rcd13ifvqf30","pricing_plan_id":"cebpf4jnsgd1na2vs0mg"},{"bike_id":"b105f991-1563-4fc4-9371-7364ce9b8c80","system_id":"levelo_inurba_marseille","lat":43.287285,"lon":5.395579,"is_reserved":false,"is_disabled":false,"rental_uris":{"android":"levelo://app?vid=b105f991-1563-4fc4-9371-7364ce9b8c80","ios":"levelo://app?vid=b105f991-1563-4fc4-9371-7364ce9b8c80"},"vehicle_type_id":"4","last_reported":1752412897,"current_range_meters":12400,"station_id":"","pricing_plan_id":"cebpf4jnsgd1na2vs0mg"},{"bike_id":"9a72d1fd-ba0d-40b8-85c2-0a32bee82c5a","system_id":"levelo_inurba_marseille","lat":43.28562,"lon":5.40236,"is_reserved":false,"is_disabled":false,"rental_uris":{"android":"levelo://app?vid=9a72d1fd-ba0d-40b8-85c2-0a32bee82c5a","ios":"levelo://app?vid=9a72d1fd-ba0d-40b8-85c2-0a32bee82c5a"},"vehicle_type_id":"4","last_reported":1752412897,"current_range_meters":12400,"station_id":"","pricing_plan_id":"cebpf4jnsgd1na2vs0mg"},{"bike_id":"6d3f299a-d341-49bc-a1f9-7534528d9b67","system_id":"levelo_inurba_marseille","lat":43.231902,"lon":5.355574,"is_reserved":false,"is_disabled":false,"rental_uris":{"android":"levelo://app?vid=6d3f299a-d341-49bc-a1f9-7534528d9b67","ios":"levelo://app?vid=6d3f299a-d341-49bc-a1f9-7534528d9b67"},"vehicle_type_id":"4","last_reported":1752412897,"current_range_meters":12800,"station_id":"ce4bhu92rcd13ifvqi70","pricing_plan_id":"cebpf4jnsgd1na2vs0mg"},{"bike_id":"1246340e-7ba7-4d4f-989b-650db36f2055","system_id":"levelo_inurba_marseille","lat":43.29557,"lon":5.42334,"is_reserved":false,"is_disabled":false,"rental_uris":{"android":"levelo://app?vid=1246340e-7ba7-4d4f-989b-650db36f2055","ios":"levelo://app?vid=1246340e-7ba7-4d4f-989b-650db36f2055"},"vehicle_type_id":"4","last_reported":1752412897,"current_range_meters":12800,"station_id":"ce4bhph2rcd13ifvqhdg","pricing_plan_id":"cebpf4jnsgd1na2vs0mg"},{"bike_id":"7a888645-4b0c-4379-98d8-380a5347b74c","system_id":"levelo_inurba_marseille","lat":43.27385,"lon":5.3625,"is_reserved":false,"is_disabled":true,"rental_uris":{"android":"levelo://app?vid=7a888645-4b0c-4379-98d8-380a5347b74c","ios":"levelo://app?vid=7a888645-4b0c-4379-98d8-380a5347b74c"},"vehicle_type_id":"4","last_reported":1752412897,"current_range_meters":13600,"station_id":"ce4bhbh2rcd13ifvqeo0","pricing_plan_id":"cebpf4jnsgd1na2vs0mg"},{"bike_id":"f17c947a-8a1b-42b0-a3d6-60286dc16ad2","system_id":"levelo_inurba_marseille","lat":43.241723,"lon":5.364106,"is_reserved":false,"is_disabled":false,"rental_uris":{"android":"levelo://app?vid=f17c947a-8a1b-42b0-a3d6-60286dc16ad2","ios":"levelo://app?vid=f17c947a-8a1b-42b0-a3d6-60286dc16ad2"},"vehicle_type_id":"4","last_reported":1752412897,"current_range_meters":13600,"station_id":"cpo36qri1sfpv3e86is0","pricing_plan_id":"cebpf4jnsgd1na2vs0mg"},{"bike_id":"7d797a69-8fb5-4129-b4c4-6b21bf0fa3be","system_id":"levelo_inurba_marseille","lat":43.27368,"lon":5.36262,"is_reserved":false,"is_disabled":false,"rental_uris":{"android":"levelo://app?vid=7d797a69-8fb5-4129-b4c4-6b21bf0fa3be","ios":"levelo://app?vid=7d797a69-8fb5-4129-b4c4-6b21bf0fa3be"},"vehicle_type_id":"4","last_reported":1752412897,"current_range_meters":13600,"station_id":"ce4bhbh2rcd13ifvqeo0","pricing_plan_id":"cebpf4jnsgd1na2vs0mg"},{"bike_id":"f70d4eb7-0483-4b22-b4af-6857c0805839","system_id":"levelo_inurba_marseille","lat":43.29897,"lon":5.38108,"is_reserved":false,"is_disabled":true,"rental_uris":{"android":"levelo://app?vid=f70d4eb7-0483-4b22-b4af-6857c0805839","ios":"levelo://app?vid=f70d4eb7-0483-4b22-b4af-6857c0805839"},"vehicle_type_id":"4","last_reported":1752412897,"current_range_meters":13600,"station_id":"ce4bgj12rcd13ifvqbc0","pricing_plan_id":"cebpf4jnsgd1na2vs0mg"},{"bike_id":"193b33a4-6509-4b26-b8a9-9cde4f3d0e64","system_id":"levelo_inurba_marseille","lat":43.304565,"lon":5.379019,"is_reserved":false,"is_disabled":false,"rental_uris":{"android":"levelo://app?vid=193b33a4-6509-4b26-b8a9-9cde4f3d0e64","ios":"levelo://app?vid=193b33a4-6509-4b26-b8a9-9cde4f3d0e64"},"vehicle_type_id":"4","last_reported":1752412897,"current_range_meters":13600,"station_id":"ce4bgup2rcd13ifvqcn0","pricing_plan_id":"cebpf4jnsgd1na2vs0mg"},{"bike_id":"58d06136-243e-4d89-b91c-39b4331adf6c","system_id":"levelo_inurba_marseille","lat":43.24386,"lon":5.37054,"is_reserved":false,"is_disabled":false,"rental_uris":{"android":"levelo://app?vid=58d06136-243e-4d89-b91c-39b4331adf6c","ios":"levelo://app?vid=58d06136-243e-4d89-b91c-39b4331adf6c"},"vehicle_type_id":"4","last_reported":1752412897,"current_range_meters":13600,"station_id":"ce4bhhh2rcd13ifvqfk0","pricing_plan_id":"cebpf4jnsgd1na2vs0mg"},{"bike_id":"c7c6a766-595b-4eee-9077-f7f15e136cfe","system_id":"levelo_inurba_marseille","lat":43.26567,"lon":5.39014,"is_reserved":false,"is_disabled":false,"rental_uris":{"android":"levelo://app?vid=c7c6a766-595b-4eee-9077-f7f15e136cfe","ios":"levelo://app?vid=c7c6a766-595b-4eee-9077-f7f15e136cfe"},"vehicle_type_id":"4","last_reported":1752412897,"current_range_meters":13600,"station_id":"ce4bhe12rcd13ifvqf30","pricing_plan_id":"cebpf4jnsgd1na2vs0mg"},{"bike_id":"c1d0629c-eaee-41e7-8c10-68b0ec1b077d","system_id":"levelo_inurba_marseille","lat":43.327657,"lon":5.391082,"is_reserved":false,"is_disabled":false,"rental_uris":{"android":"levelo://app?vid=c1d0629c-eaee-41e7-8c10-68b0ec1b077d","ios":"levelo://app?vid=c1d0629c-eaee-41e7-8c10-68b0ec1b077d"},"vehicle_type_id":"4","last_reported":1752412897,"current_range_meters":13600,"station_id":"","pricing_plan_id":"cebpf4jnsgd1na2vs0mg"},{"bike_id":"f0f1c0dc-74da-4fca-b28a-9600cee2ba1c","system_id":"levelo_inurba_marseille","lat":43.284119,"lon":5.349826,"is_reserved":false,"is_disabled":false,"rental_uris":{"android":"levelo://app?vid=f0f1c0dc-74da-4fca-b28a-9600cee2ba1c","ios":"levelo://app?vid=f0f1c0dc-74da-4fca-b28a-9600cee2ba1c"},"vehicle_type_id":"4","last_reported":1752412897,"current_range_meters":14000,"station_id":"ce4bhbh2rcd13ifvqepg","pricing_plan_id":"cebpf4jnsgd1na2vs0mg"},{"bike_id":"e2ce6e8a-ef9f-4211-8776-042780e4931d","system_id":"levelo_inurba_marseille","lat":43.28433,"lon":5.350022,"is_reserved":false,"is_disabled":true,"rental_uris":{"android":"levelo://app?vid=e2ce6e8a-ef9f-4211-8776-042780e4931d","ios":"levelo://app?vid=e2ce6e8a-ef9f-4211-8776-042780e4931d"},"vehicle_type_id":"4","last_reported":1752412897,"current_range_meters":14000,"station_id":"ce4bhbh2rcd13ifvqepg","pricing_plan_id":"cebpf4jnsgd1na2vs0mg"},{"bike_id":"a2581950-8908-42e7-905e-2a3a3a7b18e9","system_id":"levelo_inurba_marseille","lat":43.284149,"lon":5.349897,"is_reserved":false,"is_disabled":false,"rental_uris":{"android":"levelo://app?vid=a2581950-8908-42e7-905e-2a3a3a7b18e9","ios":"levelo://app?vid=a2581950-8908-42e7-905e-2a3a3a7b18e9"},"vehicle_type_id":"4","last_reported":1752412897,"current_range_meters":14000,"station_id":"ce4bgn12rcd13ifvqbt0","pricing_plan_id":"cebpf4jnsgd1na2vs0mg"},{"bike_id":"8bcb3360-dbaa-4a6a-ae34-1ee8e5254ec4","system_id":"levelo_inurba_marseille","lat":43.24179,"lon":5.39739,"is_reserved":false,"is_disabled":false,"rental_uris":{"android":"levelo://app?vid=8bcb3360-dbaa-4a6a-ae34-1ee8e5254ec4","ios":"levelo://app?vid=8bcb3360-dbaa-4a6a-ae34-1ee8e5254ec4"},"vehicle_type_id":"4","last_reported":1752412897,"current_range_meters":14000,"station_id":"ce4bhn12rcd13ifvqgpg","pricing_plan_id":"cebpf4jnsgd1na2vs0mg"},{"bike_id":"672d752b-2ef5-4874-afac-fa26f0a5e46f","system_id":"levelo_inurba_marseille","lat":43.24689,"lon":5.38154,"is_reserved":false,"is_disabled":false,"rental_uris":{"android":"levelo://app?vid=672d752b-2ef5-4874-afac-fa26f0a5e46f","ios":"levelo://app?vid=672d752b-2ef5-4874-afac-fa26f0a5e46f"},"vehicle_type_id":"4","last_reported":1752412897,"current_range_meters":14000,"station_id":"ce4bhih2rcd13ifvqfr0","pricing_plan_id":"cebpf4jnsgd1na2vs0mg"},{"bike_id":"afa7c47d-a9b4-42dc-8653-c4c76b3d52ec","system_id":"levelo_inurba_marseille","lat":43.2826,"lon":5.35087,"is_reserved":false,"is_disabled":false,"rental_uris":{"android":"levelo://app?vid=afa7c47d-a9b4-42dc-8653-c4c76b3d52ec","ios":"levelo://app?vid=afa7c47d-a9b4-42dc-8653-c4c76b3d52ec"},"vehicle_type_id":"4","last_reported":1752412897,"current_range_meters":14400,"station_id":"ce4bhbp2rcd13ifvqerg","pricing_plan_id":"cebpf4jnsgd1na2vs0mg"},{"bike_id":"aefbfc0a-725f-4a70-ae3a-82ca7999559f","system_id":"levelo_inurba_marseille","lat":43.24166,"lon":5.39707,"is_reserved":false,"is_disabled":false,"rental_uris":{"android":"levelo://app?vid=aefbfc0a-725f-4a70-ae3a-82ca7999559f","ios":"levelo://app?vid=aefbfc0a-725f-4a70-ae3a-82ca7999559f"},"vehicle_type_id":"4","last_reported":1752412897,"current_range_meters":14400,"station_id":"ce4bhn12rcd13ifvqgpg","pricing_plan_id":"cebpf4jnsgd1na2vs0mg"},{"bike_id":"a44f68aa-b920-4eb6-845e-df1183944a6b","system_id":"levelo_inurba_marseille","lat":43.285696,"lon":5.350625,"is_reserved":false,"is_disabled":true,"rental_uris":{"android":"levelo://app?vid=a44f68aa-b920-4eb6-845e-df1183944a6b","ios":"levelo://app?vid=a44f68aa-b920-4eb6-845e-df1183944a6b"},"vehicle_type_id":"4","last_reported":1752412897,"current_range_meters":14400,"station_id":"","pricing_plan_id":"cebpf4jnsgd1na2vs0mg"},{"bike_id":"2afd10ce-5f23-4122-9c7a-a3416be941b2","system_id":"levelo_inurba_marseille","lat":43.260193,"lon":5.375528,"is_reserved":false,"is_disabled":true,"rental_uris":{"android":"levelo://app?vid=2afd10ce-5f23-4122-9c7a-a3416be941b2","ios":"levelo://app?vid=2afd10ce-5f23-4122-9c7a-a3416be941b2"},"vehicle_type_id":"4","last_reported":1752412897,"current_range_meters":14400,"station_id":"ce4bhgh2rcd13ifvqfa0","pricing_plan_id":"cebpf4jnsgd1na2vs0mg"},{"bike_id":"ccfe2fa4-662d-48f1-8160-a542104dcf79","system_id":"levelo_inurba_marseille","lat":43.29282,"lon":5.3684,"is_reserved":false,"is_disabled":false,"rental_uris":{"android":"levelo://app?vid=ccfe2fa4-662d-48f1-8160-a542104dcf79","ios":"levelo://app?vid=ccfe2fa4-662d-48f1-8160-a542104dcf79"},"vehicle_type_id":"4","last_reported":1752412897,"current_range_meters":14400,"station_id":"ce4bhbp2rcd13ifvqesg","pricing_plan_id":"cebpf4jnsgd1na2vs0mg"},{"bike_id":"ce428d75-bf58-4c07-a67f-6b69d7d837c9","system_id":"levelo_inurba_marseille","lat":43.24542,"lon":5.39522,"is_reserved":false,"is_disabled":false,"rental_uris":{"android":"levelo://app?vid=ce428d75-bf58-4c07-a67f-6b69d7d837c9","ios":"levelo://app?vid=ce428d75-bf58-4c07-a67f-6b69d7d837c9"},"vehicle_type_id":"4","last_reported":1752412897,"current_range_meters":14400,"station_id":"ce4bhlp2rcd13ifvqgjg","pricing_plan_id":"cebpf4jnsgd1na2vs0mg"},{"bike_id":"335724c2-ae52-49a8-9891-67477ca225fd","system_id":"levelo_inurba_marseille","lat":43.22509,"lon":5.34787,"is_reserved":false,"is_disabled":false,"rental_uris":{"android":"levelo://app?vid=335724c2-ae52-49a8-9891-67477ca225fd","ios":"levelo://app?vid=335724c2-ae52-49a8-9891-67477ca225fd"},"vehicle_type_id":"4","last_reported":1752412897,"current_range_meters":14400,"station_id":"st_cvj5dfep6f1abm77gieg","pricing_plan_id":"cebpf4jnsgd1na2vs0mg"},{"bike_id":"9e0f3662-cff0-4b93-9ea5-0a3f32adbf87","system_id":"levelo_inurba_marseille","lat":43.275758,"lon":5.384355,"is_reserved":false,"is_disabled":false,"rental_uris":{"android":"levelo://app?vid=9e0f3662-cff0-4b93-9ea5-0a3f32adbf87","ios":"levelo://app?vid=9e0f3662-cff0-4b93-9ea5-0a3f32adbf87"},"vehicle_type_id":"4","last_reported":1752412897,"current_range_meters":14400,"station_id":"ce4bhh92rcd13ifvqfi0","pricing_plan_id":"cebpf4jnsgd1na2vs0mg"},{"bike_id":"4f3463fe-e8f1-470e-98af-58dd5729722d","system_id":"levelo_inurba_marseille","lat":43.273712,"lon":5.362614,"is_reserved":false,"is_disabled":false,"rental_uris":{"android":"levelo://app?vid=4f3463fe-e8f1-470e-98af-58dd5729722d","ios":"levelo://app?vid=4f3463fe-e8f1-470e-98af-58dd5729722d"},"vehicle_type_id":"4","last_reported":1752412897,"current_range_meters":14000,"station_id":"ce4bhbh2rcd13ifvqeo0","pricing_plan_id":"cebpf4jnsgd1na2vs0mg"},{"bike_id":"63310cfb-531f-4741-8727-73a65cfd38d3","system_id":"levelo_inurba_marseille","lat":43.25589,"lon":5.38239,"is_reserved":false,"is_disabled":false,"rental_uris":{"android":"levelo://app?vid=63310cfb-531f-4741-8727-73a65cfd38d3","ios":"levelo://app?vid=63310cfb-531f-4741-8727-73a65cfd38d3"},"vehicle_type_id":"4","last_reported":1752412897,"current_range_meters":14800,"station_id":"ce4bhih2rcd13ifvqfs0","pricing_plan_id":"cebpf4jnsgd1na2vs0mg"},{"bike_id":"82064778-37b9-438b-b376-909fd880c387","system_id":"levelo_inurba_marseille","lat":43.29977,"lon":5.41325,"is_reserved":false,"is_disabled":false,"rental_uris":{"android":"levelo://app?vid=82064778-37b9-438b-b376-909fd880c387","ios":"levelo://app?vid=82064778-37b9-438b-b376-909fd880c387"},"vehicle_type_id":"4","last_reported":1752412897,"current_range_meters":14800,"station_id":"ce4bhp12rcd13ifvqh9g","pricing_plan_id":"cebpf4jnsgd1na2vs0mg"},{"bike_id":"66bd23f8-83b4-4975-8474-fc25598853e5","system_id":"levelo_inurba_marseille","lat":43.30728,"lon":5.4245,"is_reserved":false,"is_disabled":false,"rental_uris":{"android":"levelo://app?vid=66bd23f8-83b4-4975-8474-fc25598853e5","ios":"levelo://app?vid=66bd23f8-83b4-4975-8474-fc25598853e5"},"vehicle_type_id":"4","last_reported":1752412897,"current_range_meters":14800,"station_id":"st_cvj6ca6bvosntc0bfgr0","pricing_plan_id":"cebpf4jnsgd1na2vs0mg"},{"bike_id":"759bf86d-7f7f-48b3-90ed-8b4be3123ae6","system_id":"levelo_inurba_marseille","lat":43.30189,"lon":5.36619,"is_reserved":false,"is_disabled":false,"rental_uris":{"android":"levelo://app?vid=759bf86d-7f7f-48b3-90ed-8b4be3123ae6","ios":"levelo://app?vid=759bf86d-7f7f-48b3-90ed-8b4be3123ae6"},"vehicle_type_id":"4","last_reported":1752412897,"current_range_meters":14800,"station_id":"ce4bgrh2rcd13ifvqc8g","pricing_plan_id":"cebpf4jnsgd1na2vs0mg"},{"bike_id":"7048b274-bb73-4f78-bd84-2dffe4927289","system_id":"levelo_inurba_marseille","lat":43.29798,"lon":5.39348,"is_reserved":false,"is_disabled":true,"rental_uris":{"android":"levelo://app?vid=7048b274-bb73-4f78-bd84-2dffe4927289","ios":"levelo://app?vid=7048b274-bb73-4f78-bd84-2dffe4927289"},"vehicle_type_id":"4","last_reported":1752412897,"current_range_meters":14800,"station_id":"chh1huq6cuj3fo74tm60","pricing_plan_id":"cebpf4jnsgd1na2vs0mg"},{"bike_id":"c30d3cc8-dac2-4f71-9766-4c69a03481e4","system_id":"levelo_inurba_marseille","lat":43.21193,"lon":5.35067,"is_reserved":false,"is_disabled":false,"rental_uris":{"android":"levelo://app?vid=c30d3cc8-dac2-4f71-9766-4c69a03481e4","ios":"levelo://app?vid=c30d3cc8-dac2-4f71-9766-4c69a03481e4"},"vehicle_type_id":"4","last_reported":1752412897,"current_range_meters":14800,"station_id":"st_cvj6sg6p6f1abm77japg","pricing_plan_id":"cebpf4jnsgd1na2vs0mg"},{"bike_id":"0cfe2a5a-3c82-491a-b988-70a0642db701","system_id":"levelo_inurba_marseille","lat":43.30837,"lon":5.37192,"is_reserved":false,"is_disabled":false,"rental_uris":{"android":"levelo://app?vid=0cfe2a5a-3c82-491a-b988-70a0642db701","ios":"levelo://app?vid=0cfe2a5a-3c82-491a-b988-70a0642db701"},"vehicle_type_id":"4","last_reported":1752412897,"current_range_meters":14800,"station_id":"ce4bguh2rcd13ifvqckg","pricing_plan_id":"cebpf4jnsgd1na2vs0mg"},{"bike_id":"718eafe4-1059-4d0b-9935-83404501b5b5","system_id":"levelo_inurba_marseille","lat":43.3171,"lon":5.37786,"is_reserved":false,"is_disabled":false,"rental_uris":{"android":"levelo://app?vid=718eafe4-1059-4d0b-9935-83404501b5b5","ios":"levelo://app?vid=718eafe4-1059-4d0b-9935-83404501b5b5"},"vehicle_type_id":"4","last_reported":1752412897,"current_range_meters":15200,"station_id":"ce4bgth2rcd13ifvqch0","pricing_plan_id":"cebpf4jnsgd1na2vs0mg"},{"bike_id":"7732c7ec-f8d2-4362-98e9-7b2a1b39756e","system_id":"levelo_inurba_marseille","lat":43.26782,"lon":5.39415,"is_reserved":false,"is_disabled":false,"rental_uris":{"android":"levelo://app?vid=7732c7ec-f8d2-4362-98e9-7b2a1b39756e","ios":"levelo://app?vid=7732c7ec-f8d2-4362-98e9-7b2a1b39756e"},"vehicle_type_id":"4","last_reported":1752412897,"current_range_meters":14800,"station_id":"ce4bhh12rcd13ifvqfg0","pricing_plan_id":"cebpf4jnsgd1na2vs0mg"},{"bike_id":"63cc817e-6e08-4731-a8af-cf16ab38fe1a","system_id":"levelo_inurba_marseille","lat":43.2861,"lon":5.35104,"is_reserved":false,"is_disabled":false,"rental_uris":{"android":"levelo://app?vid=63cc817e-6e08-4731-a8af-cf16ab38fe1a","ios":"levelo://app?vid=63cc817e-6e08-4731-a8af-cf16ab38fe1a"},"vehicle_type_id":"4","last_reported":1752412897,"current_range_meters":15200,"station_id":"ce4bhch2rcd13ifvqeug","pricing_plan_id":"cebpf4jnsgd1na2vs0mg"},{"bike_id":"6c291e5e-d984-4b08-b40c-ae1470553ff2","system_id":"levelo_inurba_marseille","lat":43.28262,"lon":5.35068,"is_reserved":false,"is_disabled":false,"rental_uris":{"android":"levelo://app?vid=6c291e5e-d984-4b08-b40c-ae1470553ff2","ios":"levelo://app?vid=6c291e5e-d984-4b08-b40c-ae1470553ff2"},"vehicle_type_id":"4","last_reported":1752412897,"current_range_meters":15200,"station_id":"ce4bhbp2rcd13ifvqerg","pricing_plan_id":"cebpf4jnsgd1na2vs0mg"},{"bike_id":"d9d63d91-160d-42d0-b9c6-42c216f308c7","system_id":"levelo_inurba_marseille","lat":43.303784,"lon":5.424779,"is_reserved":false,"is_disabled":false,"rental_uris":{"android":"levelo://app?vid=d9d63d91-160d-42d0-b9c6-42c216f308c7","ios":"levelo://app?vid=d9d63d91-160d-42d0-b9c6-42c216f308c7"},"vehicle_type_id":"4","last_reported":1752412897,"current_range_meters":15200,"station_id":"ce4bhoh2rcd13ifvqh6g","pricing_plan_id":"cebpf4jnsgd1na2vs0mg"},{"bike_id":"c3e3ac6f-9bdf-42be-94b7-108dfa8bf9d9","system_id":"levelo_inurba_marseille","lat":43.32486,"lon":5.365663,"is_reserved":false,"is_disabled":true,"rental_uris":{"android":"levelo://app?vid=c3e3ac6f-9bdf-42be-94b7-108dfa8bf9d9","ios":"levelo://app?vid=c3e3ac6f-9bdf-42be-94b7-108dfa8bf9d9"},"vehicle_type_id":"4","last_reported":1752412897,"current_range_meters":15200,"station_id":"ce4bhs12rcd13ifvqhvg","pricing_plan_id":"cebpf4jnsgd1na2vs0mg"},{"bike_id":"36f9e255-470a-40df-97d0-8c5002d10ffc","system_id":"levelo_inurba_marseille","lat":43.29628,"lon":5.40596,"is_reserved":false,"is_disabled":false,"rental_uris":{"android":"levelo://app?vid=36f9e255-470a-40df-97d0-8c5002d10ffc","ios":"levelo://app?vid=36f9e255-470a-40df-97d0-8c5002d10ffc"},"vehicle_type_id":"4","last_reported":1752412897,"current_range_meters":15200,"station_id":"ce4bh0h2rcd13ifvqd60","pricing_plan_id":"cebpf4jnsgd1na2vs0mg"},{"bike_id":"adfe8be3-1e95-4a39-ba2c-619c92879657","system_id":"levelo_inurba_marseille","lat":43.23185,"lon":5.39967,"is_reserved":false,"is_disabled":false,"rental_uris":{"android":"levelo://app?vid=adfe8be3-1e95-4a39-ba2c-619c92879657","ios":"levelo://app?vid=adfe8be3-1e95-4a39-ba2c-619c92879657"},"vehicle_type_id":"4","last_reported":1752412897,"current_range_meters":16000,"station_id":"ce4bhn12rcd13ifvqgqg","pricing_plan_id":"cebpf4jnsgd1na2vs0mg"},{"bike_id":"8af9c5b9-33c6-49f1-b28a-3e8284d3f332","system_id":"levelo_inurba_marseille","lat":43.28296,"lon":5.34947,"is_reserved":false,"is_disabled":false,"rental_uris":{"android":"levelo://app?vid=8af9c5b9-33c6-49f1-b28a-3e8284d3f332","ios":"levelo://app?vid=8af9c5b9-33c6-49f1-b28a-3e8284d3f332"},"vehicle_type_id":"4","last_reported":1752412897,"current_range_meters":16000,"station_id":"","pricing_plan_id":"cebpf4jnsgd1na2vs0mg"},{"bike_id":"d5f9c5bb-1fa2-40ba-9e66-96086af89407","system_id":"levelo_inurba_marseille","lat":43.24168,"lon":5.36401,"is_reserved":false,"is_disabled":false,"rental_uris":{"android":"levelo://app?vid=d5f9c5bb-1fa2-40ba-9e66-96086af89407","ios":"levelo://app?vid=d5f9c5bb-1fa2-40ba-9e66-96086af89407"},"vehicle_type_id":"4","last_reported":1752412897,"current_range_meters":16000,"station_id":"cpo36qri1sfpv3e86is0","pricing_plan_id":"cebpf4jnsgd1na2vs0mg"},{"bike_id":"9bfc7d3d-4e60-4f8a-9c32-ef3d0e77ec5b","system_id":"levelo_inurba_marseille","lat":43.211988,"lon":5.350589,"is_reserved":false,"is_disabled":false,"rental_uris":{"android":"levelo://app?vid=9bfc7d3d-4e60-4f8a-9c32-ef3d0e77ec5b","ios":"levelo://app?vid=9bfc7d3d-4e60-4f8a-9c32-ef3d0e77ec5b"},"vehicle_type_id":"4","last_reported":1752412897,"current_range_meters":16000,"station_id":"st_cvj6sg6p6f1abm77japg","pricing_plan_id":"cebpf4jnsgd1na2vs0mg"},{"bike_id":"162ce9df-4c9f-40cd-bb86-4a8ca9d7a01d","system_id":"levelo_inurba_marseille","lat":43.25516,"lon":5.37648,"is_reserved":false,"is_disabled":false,"rental_uris":{"android":"levelo://app?vid=162ce9df-4c9f-40cd-bb86-4a8ca9d7a01d","ios":"levelo://app?vid=162ce9df-4c9f-40cd-bb86-4a8ca9d7a01d"},"vehicle_type_id":"4","last_reported":1752412897,"current_range_meters":16000,"station_id":"ce4bhh12rcd13ifvqff0","pricing_plan_id":"cebpf4jnsgd1na2vs0mg"},{"bike_id":"4ade0b76-18da-4470-ae6c-3accbee5bd7a","system_id":"levelo_inurba_marseille","lat":43.28415,"lon":5.34981,"is_reserved":false,"is_disabled":false,"rental_uris":{"android":"levelo://app?vid=4ade0b76-18da-4470-ae6c-3accbee5bd7a","ios":"levelo://app?vid=4ade0b76-18da-4470-ae6c-3accbee5bd7a"},"vehicle_type_id":"4","last_reported":1752412897,"current_range_meters":16000,"station_id":"ce4bhbh2rcd13ifvqepg","pricing_plan_id":"cebpf4jnsgd1na2vs0mg"},{"bike_id":"be76f65a-db4f-4cd8-bb5c-6541018c3f0d","system_id":"levelo_inurba_marseille","lat":43.28077,"lon":5.39662,"is_reserved":false,"is_disabled":false,"rental_uris":{"android":"levelo://app?vid=be76f65a-db4f-4cd8-bb5c-6541018c3f0d","ios":"levelo://app?vid=be76f65a-db4f-4cd8-bb5c-6541018c3f0d"},"vehicle_type_id":"4","last_reported":1752412897,"current_range_meters":16400,"station_id":"ce4bho12rcd13ifvqh2g","pricing_plan_id":"cebpf4jnsgd1na2vs0mg"},{"bike_id":"1a469edf-5352-481f-91e3-cfaef6ee1547","system_id":"levelo_inurba_marseille","lat":43.2119,"lon":5.35064,"is_reserved":false,"is_disabled":false,"rental_uris":{"android":"levelo://app?vid=1a469edf-5352-481f-91e3-cfaef6ee1547","ios":"levelo://app?vid=1a469edf-5352-481f-91e3-cfaef6ee1547"},"vehicle_type_id":"4","last_reported":1752412897,"current_range_meters":16400,"station_id":"st_cvj6sg6p6f1abm77japg","pricing_plan_id":"cebpf4jnsgd1na2vs0mg"},{"bike_id":"8a81fb8c-5205-47bd-a779-277f269d3ba1","system_id":"levelo_inurba_marseille","lat":43.26226,"lon":5.40451,"is_reserved":false,"is_disabled":false,"rental_uris":{"android":"levelo://app?vid=8a81fb8c-5205-47bd-a779-277f269d3ba1","ios":"levelo://app?vid=8a81fb8c-5205-47bd-a779-277f269d3ba1"},"vehicle_type_id":"4","last_reported":1752412897,"current_range_meters":16400,"station_id":"ce4bhmh2rcd13ifvqgmg","pricing_plan_id":"cebpf4jnsgd1na2vs0mg"},{"bike_id":"9a46b9ab-a60b-45fc-88a3-caad63ae5b94","system_id":"levelo_inurba_marseille","lat":43.29274,"lon":5.36837,"is_reserved":false,"is_disabled":true,"rental_uris":{"android":"levelo://app?vid=9a46b9ab-a60b-45fc-88a3-caad63ae5b94","ios":"levelo://app?vid=9a46b9ab-a60b-45fc-88a3-caad63ae5b94"},"vehicle_type_id":"4","last_reported":1752412897,"current_range_meters":16400,"station_id":"ce4bhbp2rcd13ifvqesg","pricing_plan_id":"cebpf4jnsgd1na2vs0mg"},{"bike_id":"2a70798a-94ea-48f1-80b7-5109f0e067eb","system_id":"levelo_inurba_marseille","lat":43.295591,"lon":5.42286,"is_reserved":false,"is_disabled":false,"rental_uris":{"android":"levelo://app?vid=2a70798a-94ea-48f1-80b7-5109f0e067eb","ios":"levelo://app?vid=2a70798a-94ea-48f1-80b7-5109f0e067eb"},"vehicle_type_id":"4","last_reported":1752412897,"current_range_meters":16400,"station_id":"ce4bhph2rcd13ifvqhdg","pricing_plan_id":"cebpf4jnsgd1na2vs0mg"},{"bike_id":"e5e4ccc1-234a-4608-ae15-d1ba70a6ddfc","system_id":"levelo_inurba_marseille","lat":43.29838,"lon":5.36258,"is_reserved":false,"is_disabled":false,"rental_uris":{"android":"levelo://app?vid=e5e4ccc1-234a-4608-ae15-d1ba70a6ddfc","ios":"levelo://app?vid=e5e4ccc1-234a-4608-ae15-d1ba70a6ddfc"},"vehicle_type_id":"4","last_reported":1752412897,"current_range_meters":16400,"station_id":"ce4bgpp2rcd13ifvqc3g","pricing_plan_id":"cebpf4jnsgd1na2vs0mg"},{"bike_id":"d9f5802f-b85b-44ac-bb5d-e411c0bdfd0f","system_id":"levelo_inurba_marseille","lat":43.24155,"lon":5.36406,"is_reserved":false,"is_disabled":false,"rental_uris":{"android":"levelo://app?vid=d9f5802f-b85b-44ac-bb5d-e411c0bdfd0f","ios":"levelo://app?vid=d9f5802f-b85b-44ac-bb5d-e411c0bdfd0f"},"vehicle_type_id":"4","last_reported":1752412897,"current_range_meters":16400,"station_id":"cpo36qri1sfpv3e86is0","pricing_plan_id":"cebpf4jnsgd1na2vs0mg"},{"bike_id":"1ac918cf-7250-495d-874d-750bd2478965","system_id":"levelo_inurba_marseille","lat":43.26057,"lon":5.39396,"is_reserved":false,"is_disabled":false,"rental_uris":{"android":"levelo://app?vid=1ac918cf-7250-495d-874d-750bd2478965","ios":"levelo://app?vid=1ac918cf-7250-495d-874d-750bd2478965"},"vehicle_type_id":"4","last_reported":1752412897,"current_range_meters":16400,"station_id":"ce4bhh92rcd13ifvqfj0","pricing_plan_id":"cebpf4jnsgd1na2vs0mg"},{"bike_id":"bff6f567-f774-40fc-a611-c4aa375409ea","system_id":"levelo_inurba_marseille","lat":43.29841,"lon":5.36266,"is_reserved":false,"is_disabled":false,"rental_uris":{"android":"levelo://app?vid=bff6f567-f774-40fc-a611-c4aa375409ea","ios":"levelo://app?vid=bff6f567-f774-40fc-a611-c4aa375409ea"},"vehicle_type_id":"4","last_reported":1752412897,"current_range_meters":16800,"station_id":"ce4bgpp2rcd13ifvqc3g","pricing_plan_id":"cebpf4jnsgd1na2vs0mg"},{"bike_id":"49d8f5f7-f291-4843-8316-1299fb6dc69d","system_id":"levelo_inurba_marseille","lat":43.25001,"lon":5.38927,"is_reserved":false,"is_disabled":false,"rental_uris":{"android":"levelo://app?vid=49d8f5f7-f291-4843-8316-1299fb6dc69d","ios":"levelo://app?vid=49d8f5f7-f291-4843-8316-1299fb6dc69d"},"vehicle_type_id":"4","last_reported":1752412897,"current_range_meters":16800,"station_id":"ce4bhgp2rcd13ifvqfd0","pricing_plan_id":"cebpf4jnsgd1na2vs0mg"},{"bike_id":"c078f680-b722-4076-a9f9-b720acc6323c","system_id":"levelo_inurba_marseille","lat":43.28616,"lon":5.35113,"is_reserved":false,"is_disabled":false,"rental_uris":{"android":"levelo://app?vid=c078f680-b722-4076-a9f9-b720acc6323c","ios":"levelo://app?vid=c078f680-b722-4076-a9f9-b720acc6323c"},"vehicle_type_id":"4","last_reported":1752412897,"current_range_meters":16800,"station_id":"ce4bhch2rcd13ifvqeug","pricing_plan_id":"cebpf4jnsgd1na2vs0mg"},{"bike_id":"58375fde-ca97-4dab-be52-59caf98323d3","system_id":"levelo_inurba_marseille","lat":43.26559,"lon":5.3729,"is_reserved":false,"is_disabled":true,"rental_uris":{"android":"levelo://app?vid=58375fde-ca97-4dab-be52-59caf98323d3","ios":"levelo://app?vid=58375fde-ca97-4dab-be52-59caf98323d3"},"vehicle_type_id":"4","last_reported":1752412897,"current_range_meters":16800,"station_id":"ce4bhg12rcd13ifvqf70","pricing_plan_id":"cebpf4jnsgd1na2vs0mg"},{"bike_id":"79ac9d5c-87ca-42a3-a25e-34606432c125","system_id":"levelo_inurba_marseille","lat":43.21182,"lon":5.35093,"is_reserved":false,"is_disabled":false,"rental_uris":{"android":"levelo://app?vid=79ac9d5c-87ca-42a3-a25e-34606432c125","ios":"levelo://app?vid=79ac9d5c-87ca-42a3-a25e-34606432c125"},"vehicle_type_id":"4","last_reported":1752412897,"current_range_meters":16800,"station_id":"st_cvj6sg6p6f1abm77japg","pricing_plan_id":"cebpf4jnsgd1na2vs0mg"},{"bike_id":"ece9d047-dc12-4ce6-82bf-fc7ad56a230c","system_id":"levelo_inurba_marseille","lat":43.286205,"lon":5.351033,"is_reserved":false,"is_disabled":true,"rental_uris":{"android":"levelo://app?vid=ece9d047-dc12-4ce6-82bf-fc7ad56a230c","ios":"levelo://app?vid=ece9d047-dc12-4ce6-82bf-fc7ad56a230c"},"vehicle_type_id":"4","last_reported":1752412897,"current_range_meters":16800,"station_id":"ce4bhch2rcd13ifvqeug","pricing_plan_id":"cebpf4jnsgd1na2vs0mg"},{"bike_id":"20dfe087-8b1a-4a4b-9aa5-5f08fb19210e","system_id":"levelo_inurba_marseille","lat":43.25489,"lon":5.3765,"is_reserved":false,"is_disabled":false,"rental_uris":{"android":"levelo://app?vid=20dfe087-8b1a-4a4b-9aa5-5f08fb19210e","ios":"levelo://app?vid=20dfe087-8b1a-4a4b-9aa5-5f08fb19210e"},"vehicle_type_id":"4","last_reported":1752412897,"current_range_meters":16800,"station_id":"ce4bhh12rcd13ifvqff0","pricing_plan_id":"cebpf4jnsgd1na2vs0mg"},{"bike_id":"965169d7-5577-4f6e-813f-cee3b103f3e5","system_id":"levelo_inurba_marseille","lat":43.30189,"lon":5.36623,"is_reserved":false,"is_disabled":false,"rental_uris":{"android":"levelo://app?vid=965169d7-5577-4f6e-813f-cee3b103f3e5","ios":"levelo://app?vid=965169d7-5577-4f6e-813f-cee3b103f3e5"},"vehicle_type_id":"4","last_reported":1752412897,"current_range_meters":16800,"station_id":"ce4bgrh2rcd13ifvqc8g","pricing_plan_id":"cebpf4jnsgd1na2vs0mg"},{"bike_id":"d438c437-0c60-41e5-a3d6-d73226271506","system_id":"levelo_inurba_marseille","lat":43.295656,"lon":5.422644,"is_reserved":false,"is_disabled":false,"rental_uris":{"android":"levelo://app?vid=d438c437-0c60-41e5-a3d6-d73226271506","ios":"levelo://app?vid=d438c437-0c60-41e5-a3d6-d73226271506"},"vehicle_type_id":"4","last_reported":1752412897,"current_range_meters":16800,"station_id":"ce4bhph2rcd13ifvqhdg","pricing_plan_id":"cebpf4jnsgd1na2vs0mg"},{"bike_id":"7b60e2b3-fe60-4caf-8d3e-4c917054d448","system_id":"levelo_inurba_marseille","lat":43.28429,"lon":5.34999,"is_reserved":false,"is_disabled":true,"rental_uris":{"android":"levelo://app?vid=7b60e2b3-fe60-4caf-8d3e-4c917054d448","ios":"levelo://app?vid=7b60e2b3-fe60-4caf-8d3e-4c917054d448"},"vehicle_type_id":"4","last_reported":1752412897,"current_range_meters":17200,"station_id":"ce4bhbh2rcd13ifvqepg","pricing_plan_id":"cebpf4jnsgd1na2vs0mg"},{"bike_id":"31c710b8-59c4-4592-9629-b8ad795fae60","system_id":"levelo_inurba_marseille","lat":43.30242,"lon":5.40077,"is_reserved":false,"is_disabled":true,"rental_uris":{"android":"levelo://app?vid=31c710b8-59c4-4592-9629-b8ad795fae60","ios":"levelo://app?vid=31c710b8-59c4-4592-9629-b8ad795fae60"},"vehicle_type_id":"4","last_reported":1752412897,"current_range_meters":17200,"station_id":"ce4bgvh2rcd13ifvqcs0","pricing_plan_id":"cebpf4jnsgd1na2vs0mg"},{"bike_id":"71145c29-898a-41c3-bdce-54317d6adaa3","system_id":"levelo_inurba_marseille","lat":43.26188,"lon":5.37447,"is_reserved":false,"is_disabled":false,"rental_uris":{"android":"levelo://app?vid=71145c29-898a-41c3-bdce-54317d6adaa3","ios":"levelo://app?vid=71145c29-898a-41c3-bdce-54317d6adaa3"},"vehicle_type_id":"4","last_reported":1752412897,"current_range_meters":17200,"station_id":"ce4bhgp2rcd13ifvqfc0","pricing_plan_id":"cebpf4jnsgd1na2vs0mg"},{"bike_id":"1aedaa42-1f03-48cc-8e38-d983e72f730b","system_id":"levelo_inurba_marseille","lat":43.27076,"lon":5.42266,"is_reserved":false,"is_disabled":false,"rental_uris":{"android":"levelo://app?vid=1aedaa42-1f03-48cc-8e38-d983e72f730b","ios":"levelo://app?vid=1aedaa42-1f03-48cc-8e38-d983e72f730b"},"vehicle_type_id":"4","last_reported":1752412897,"current_range_meters":17200,"station_id":"ce4bhk92rcd13ifvqgb0","pricing_plan_id":"cebpf4jnsgd1na2vs0mg"},{"bike_id":"bcdd975c-eb4c-47ca-a31e-5a6cb5c7f923","system_id":"levelo_inurba_marseille","lat":43.28608,"lon":5.3706,"is_reserved":false,"is_disabled":false,"rental_uris":{"android":"levelo://app?vid=bcdd975c-eb4c-47ca-a31e-5a6cb5c7f923","ios":"levelo://app?vid=bcdd975c-eb4c-47ca-a31e-5a6cb5c7f923"},"vehicle_type_id":"4","last_reported":1752412897,"current_range_meters":17200,"station_id":"ce4bht12rcd13ifvqi60","pricing_plan_id":"cebpf4jnsgd1na2vs0mg"},{"bike_id":"e3276b0a-27fc-4c16-bc01-9f5ad7d69199","system_id":"levelo_inurba_marseille","lat":43.26555,"lon":5.37285,"is_reserved":false,"is_disabled":false,"rental_uris":{"android":"levelo://app?vid=e3276b0a-27fc-4c16-bc01-9f5ad7d69199","ios":"levelo://app?vid=e3276b0a-27fc-4c16-bc01-9f5ad7d69199"},"vehicle_type_id":"4","last_reported":1752412897,"current_range_meters":17200,"station_id":"ce4bhg12rcd13ifvqf70","pricing_plan_id":"cebpf4jnsgd1na2vs0mg"},{"bike_id":"530df890-2447-4898-8ed5-0529ed2390ee","system_id":"levelo_inurba_marseille","lat":43.29731,"lon":5.38277,"is_reserved":false,"is_disabled":false,"rental_uris":{"android":"levelo://app?vid=530df890-2447-4898-8ed5-0529ed2390ee","ios":"levelo://app?vid=530df890-2447-4898-8ed5-0529ed2390ee"},"vehicle_type_id":"4","last_reported":1752412897,"current_range_meters":17200,"station_id":"","pricing_plan_id":"cebpf4jnsgd1na2vs0mg"},{"bike_id":"28f6661f-fa05-4b8f-8f5e-cb4158aac2c7","system_id":"levelo_inurba_marseille","lat":43.29392,"lon":5.37832,"is_reserved":false,"is_disabled":true,"rental_uris":{"android":"levelo://app?vid=28f6661f-fa05-4b8f-8f5e-cb4158aac2c7","ios":"levelo://app?vid=28f6661f-fa05-4b8f-8f5e-cb4158aac2c7"},"vehicle_type_id":"4","last_reported":1752412897,"current_range_meters":17600,"station_id":"ce4bgjh2rcd13ifvqbf0","pricing_plan_id":"cebpf4jnsgd1na2vs0mg"},{"bike_id":"be72680d-88d8-44e4-8e38-c686a4f22cf7","system_id":"levelo_inurba_marseille","lat":43.25504,"lon":5.376491,"is_reserved":false,"is_disabled":false,"rental_uris":{"android":"levelo://app?vid=be72680d-88d8-44e4-8e38-c686a4f22cf7","ios":"levelo://app?vid=be72680d-88d8-44e4-8e38-c686a4f22cf7"},"vehicle_type_id":"4","last_reported":1752412897,"current_range_meters":17600,"station_id":"ce4bhh12rcd13ifvqff0","pricing_plan_id":"cebpf4jnsgd1na2vs0mg"},{"bike_id":"7d0b72e4-dbcc-4344-a7d9-02d350a1c10a","system_id":"levelo_inurba_marseille","lat":43.21748,"lon":5.34605,"is_reserved":false,"is_disabled":false,"rental_uris":{"android":"levelo://app?vid=7d0b72e4-dbcc-4344-a7d9-02d350a1c10a","ios":"levelo://app?vid=7d0b72e4-dbcc-4344-a7d9-02d350a1c10a"},"vehicle_type_id":"4","last_reported":1752412897,"current_range_meters":17600,"station_id":"st_cvj6r9ubvosntc0bgbag","pricing_plan_id":"cebpf4jnsgd1na2vs0mg"},{"bike_id":"f5a47db5-6fb2-46bd-a2de-efa4ad13bf60","system_id":"levelo_inurba_marseille","lat":43.21203,"lon":5.3508,"is_reserved":false,"is_disabled":false,"rental_uris":{"android":"levelo://app?vid=f5a47db5-6fb2-46bd-a2de-efa4ad13bf60","ios":"levelo://app?vid=f5a47db5-6fb2-46bd-a2de-efa4ad13bf60"},"vehicle_type_id":"4","last_reported":1752412897,"current_range_meters":17600,"station_id":"st_cvj6sg6p6f1abm77japg","pricing_plan_id":"cebpf4jnsgd1na2vs0mg"},{"bike_id":"bbc4bb3b-9a5b-4e80-814f-6f774b422422","system_id":"levelo_inurba_marseille","lat":43.27377,"lon":5.36253,"is_reserved":false,"is_disabled":false,"rental_uris":{"android":"levelo://app?vid=bbc4bb3b-9a5b-4e80-814f-6f774b422422","ios":"levelo://app?vid=bbc4bb3b-9a5b-4e80-814f-6f774b422422"},"vehicle_type_id":"4","last_reported":1752412897,"current_range_meters":17600,"station_id":"ce4bhbh2rcd13ifvqeo0","pricing_plan_id":"cebpf4jnsgd1na2vs0mg"},{"bike_id":"21258374-af0f-4369-818b-4a964ef5fc40","system_id":"levelo_inurba_marseille","lat":43.26205,"lon":5.3744,"is_reserved":false,"is_disabled":false,"rental_uris":{"android":"levelo://app?vid=21258374-af0f-4369-818b-4a964ef5fc40","ios":"levelo://app?vid=21258374-af0f-4369-818b-4a964ef5fc40"},"vehicle_type_id":"4","last_reported":1752412897,"current_range_meters":17600,"station_id":"ce4bhgp2rcd13ifvqfc0","pricing_plan_id":"cebpf4jnsgd1na2vs0mg"},{"bike_id":"a5dd5f98-e456-4bd9-aa7e-4ef6bcdcb956","system_id":"levelo_inurba_marseille","lat":43.2318,"lon":5.35578,"is_reserved":false,"is_disabled":false,"rental_uris":{"android":"levelo://app?vid=a5dd5f98-e456-4bd9-aa7e-4ef6bcdcb956","ios":"levelo://app?vid=a5dd5f98-e456-4bd9-aa7e-4ef6bcdcb956"},"vehicle_type_id":"4","last_reported":1752412897,"current_range_meters":17600,"station_id":"ce4bhu92rcd13ifvqi70","pricing_plan_id":"cebpf4jnsgd1na2vs0mg"},{"bike_id":"b053f929-7efb-49cd-9959-74ef096980bb","system_id":"levelo_inurba_marseille","lat":43.29274,"lon":5.36832,"is_reserved":false,"is_disabled":true,"rental_uris":{"android":"levelo://app?vid=b053f929-7efb-49cd-9959-74ef096980bb","ios":"levelo://app?vid=b053f929-7efb-49cd-9959-74ef096980bb"},"vehicle_type_id":"4","last_reported":1752412897,"current_range_meters":17600,"station_id":"ce4bhbp2rcd13ifvqesg","pricing_plan_id":"cebpf4jnsgd1na2vs0mg"},{"bike_id":"9a3d4b88-0246-4ee1-b10b-e23ca0cc9436","system_id":"levelo_inurba_marseille","lat":43.2984,"lon":5.36267,"is_reserved":false,"is_disabled":false,"rental_uris":{"android":"levelo://app?vid=9a3d4b88-0246-4ee1-b10b-e23ca0cc9436","ios":"levelo://app?vid=9a3d4b88-0246-4ee1-b10b-e23ca0cc9436"},"vehicle_type_id":"4","last_reported":1752412897,"current_range_meters":17600,"station_id":"ce4bgpp2rcd13ifvqc3g","pricing_plan_id":"cebpf4jnsgd1na2vs0mg"},{"bike_id":"e37d8eb0-d581-401b-aee8-91d7dbcf27ad","system_id":"levelo_inurba_marseille","lat":43.29534,"lon":5.42294,"is_reserved":false,"is_disabled":false,"rental_uris":{"android":"levelo://app?vid=e37d8eb0-d581-401b-aee8-91d7dbcf27ad","ios":"levelo://app?vid=e37d8eb0-d581-401b-aee8-91d7dbcf27ad"},"vehicle_type_id":"4","last_reported":1752412897,"current_range_meters":17600,"station_id":"ce4bhph2rcd13ifvqhdg","pricing_plan_id":"cebpf4jnsgd1na2vs0mg"},{"bike_id":"eab9f2a0-ee49-4110-a9bf-1b4a45ecb8f7","system_id":"levelo_inurba_marseille","lat":43.30153,"lon":5.381032,"is_reserved":false,"is_disabled":false,"rental_uris":{"android":"levelo://app?vid=eab9f2a0-ee49-4110-a9bf-1b4a45ecb8f7","ios":"levelo://app?vid=eab9f2a0-ee49-4110-a9bf-1b4a45ecb8f7"},"vehicle_type_id":"4","last_reported":1752412897,"current_range_meters":17600,"station_id":"ce4bgjp2rcd13ifvqbh0","pricing_plan_id":"cebpf4jnsgd1na2vs0mg"},{"bike_id":"a2d09fde-ab90-4aac-902d-0a12fab0c44d","system_id":"levelo_inurba_marseille","lat":43.24163,"lon":5.36387,"is_reserved":false,"is_disabled":false,"rental_uris":{"android":"levelo://app?vid=a2d09fde-ab90-4aac-902d-0a12fab0c44d","ios":"levelo://app?vid=a2d09fde-ab90-4aac-902d-0a12fab0c44d"},"vehicle_type_id":"4","last_reported":1752412897,"current_range_meters":17600,"station_id":"cpo36qri1sfpv3e86is0","pricing_plan_id":"cebpf4jnsgd1na2vs0mg"},{"bike_id":"2c8b55a0-7cee-45a1-85ed-4624a2d1076e","system_id":"levelo_inurba_marseille","lat":43.314411,"lon":5.392985,"is_reserved":false,"is_disabled":false,"rental_uris":{"android":"levelo://app?vid=2c8b55a0-7cee-45a1-85ed-4624a2d1076e","ios":"levelo://app?vid=2c8b55a0-7cee-45a1-85ed-4624a2d1076e"},"vehicle_type_id":"4","last_reported":1752412897,"current_range_meters":17600,"station_id":"","pricing_plan_id":"cebpf4jnsgd1na2vs0mg"},{"bike_id":"c8c4de1a-846f-4f5b-aace-9fb14bf7ad52","system_id":"levelo_inurba_marseille","lat":43.211894,"lon":5.350731,"is_reserved":false,"is_disabled":false,"rental_uris":{"android":"levelo://app?vid=c8c4de1a-846f-4f5b-aace-9fb14bf7ad52","ios":"levelo://app?vid=c8c4de1a-846f-4f5b-aace-9fb14bf7ad52"},"vehicle_type_id":"4","last_reported":1752412897,"current_range_meters":17600,"station_id":"st_cvj6sg6p6f1abm77japg","pricing_plan_id":"cebpf4jnsgd1na2vs0mg"},{"bike_id":"2ec427da-b403-4a7e-86be-3f48ba535d18","system_id":"levelo_inurba_marseille","lat":43.21202,"lon":5.35074,"is_reserved":false,"is_disabled":false,"rental_uris":{"android":"levelo://app?vid=2ec427da-b403-4a7e-86be-3f48ba535d18","ios":"levelo://app?vid=2ec427da-b403-4a7e-86be-3f48ba535d18"},"vehicle_type_id":"4","last_reported":1752412897,"current_range_meters":18000,"station_id":"st_cvj6sg6p6f1abm77japg","pricing_plan_id":"cebpf4jnsgd1na2vs0mg"},{"bike_id":"570cb15a-a61f-47fb-aaf3-b63fd97dbb24","system_id":"levelo_inurba_marseille","lat":43.2966,"lon":5.36003,"is_reserved":false,"is_disabled":false,"rental_uris":{"android":"levelo://app?vid=570cb15a-a61f-47fb-aaf3-b63fd97dbb24","ios":"levelo://app?vid=570cb15a-a61f-47fb-aaf3-b63fd97dbb24"},"vehicle_type_id":"4","last_reported":1752412897,"current_range_meters":18000,"station_id":"","pricing_plan_id":"cebpf4jnsgd1na2vs0mg"},{"bike_id":"99ea448e-0e48-41eb-8951-60df78bd7c9e","system_id":"levelo_inurba_marseille","lat":43.28411,"lon":5.34991,"is_reserved":false,"is_disabled":false,"rental_uris":{"android":"levelo://app?vid=99ea448e-0e48-41eb-8951-60df78bd7c9e","ios":"levelo://app?vid=99ea448e-0e48-41eb-8951-60df78bd7c9e"},"vehicle_type_id":"4","last_reported":1752412897,"current_range_meters":18000,"station_id":"ce4bhbh2rcd13ifvqepg","pricing_plan_id":"cebpf4jnsgd1na2vs0mg"},{"bike_id":"91e36618-f857-45af-ac89-91d909da2db3","system_id":"levelo_inurba_marseille","lat":43.29427,"lon":5.38616,"is_reserved":false,"is_disabled":true,"rental_uris":{"android":"levelo://app?vid=91e36618-f857-45af-ac89-91d909da2db3","ios":"levelo://app?vid=91e36618-f857-45af-ac89-91d909da2db3"},"vehicle_type_id":"4","last_reported":1752412897,"current_range_meters":18000,"station_id":"ce4bh2h2rcd13ifvqdh0","pricing_plan_id":"cebpf4jnsgd1na2vs0mg"},{"bike_id":"0186202f-a6cc-437c-b373-407b57a8b334","system_id":"levelo_inurba_marseille","lat":43.22486,"lon":5.34799,"is_reserved":false,"is_disabled":false,"rental_uris":{"android":"levelo://app?vid=0186202f-a6cc-437c-b373-407b57a8b334","ios":"levelo://app?vid=0186202f-a6cc-437c-b373-407b57a8b334"},"vehicle_type_id":"4","last_reported":1752412897,"current_range_meters":18000,"station_id":"st_cvj5dfep6f1abm77gieg","pricing_plan_id":"cebpf4jnsgd1na2vs0mg"},{"bike_id":"e91ced2f-2041-4b38-8446-0d5d97adec95","system_id":"levelo_inurba_marseille","lat":43.255829,"lon":5.382159,"is_reserved":false,"is_disabled":true,"rental_uris":{"android":"levelo://app?vid=e91ced2f-2041-4b38-8446-0d5d97adec95","ios":"levelo://app?vid=e91ced2f-2041-4b38-8446-0d5d97adec95"},"vehicle_type_id":"4","last_reported":1752412897,"current_range_meters":18000,"station_id":"ce4bhih2rcd13ifvqfs0","pricing_plan_id":"cebpf4jnsgd1na2vs0mg"},{"bike_id":"e83439d2-4642-48a2-8689-7a894582417f","system_id":"levelo_inurba_marseille","lat":43.21185,"lon":5.35072,"is_reserved":false,"is_disabled":false,"rental_uris":{"android":"levelo://app?vid=e83439d2-4642-48a2-8689-7a894582417f","ios":"levelo://app?vid=e83439d2-4642-48a2-8689-7a894582417f"},"vehicle_type_id":"4","last_reported":1752412897,"current_range_meters":18000,"station_id":"st_cvj6sg6p6f1abm77japg","pricing_plan_id":"cebpf4jnsgd1na2vs0mg"},{"bike_id":"153b3aa6-9a0e-41f0-a137-bb8d792ba06e","system_id":"levelo_inurba_marseille","lat":43.28405,"lon":5.34999,"is_reserved":false,"is_disabled":false,"rental_uris":{"android":"levelo://app?vid=153b3aa6-9a0e-41f0-a137-bb8d792ba06e","ios":"levelo://app?vid=153b3aa6-9a0e-41f0-a137-bb8d792ba06e"},"vehicle_type_id":"4","last_reported":1752412897,"current_range_meters":18000,"station_id":"ce4bhbh2rcd13ifvqepg","pricing_plan_id":"cebpf4jnsgd1na2vs0mg"},{"bike_id":"99ae43ef-9981-41ec-907c-f94f73cc9ad2","system_id":"levelo_inurba_marseille","lat":43.29985,"lon":5.38484,"is_reserved":false,"is_disabled":false,"rental_uris":{"android":"levelo://app?vid=99ae43ef-9981-41ec-907c-f94f73cc9ad2","ios":"levelo://app?vid=99ae43ef-9981-41ec-907c-f94f73cc9ad2"},"vehicle_type_id":"4","last_reported":1752412897,"current_range_meters":18000,"station_id":"ce4bgj92rcd13ifvqbd0","pricing_plan_id":"cebpf4jnsgd1na2vs0mg"},{"bike_id":"45583b9b-98ff-4d18-a778-0d792c89bae3","system_id":"levelo_inurba_marseille","lat":43.28569,"lon":5.39504,"is_reserved":false,"is_disabled":true,"rental_uris":{"android":"levelo://app?vid=45583b9b-98ff-4d18-a778-0d792c89bae3","ios":"levelo://app?vid=45583b9b-98ff-4d18-a778-0d792c89bae3"},"vehicle_type_id":"4","last_reported":1752412897,"current_range_meters":18800,"station_id":"ce4bh292rcd13ifvqdg0","pricing_plan_id":"cebpf4jnsgd1na2vs0mg"},{"bike_id":"80955d0f-8669-4c02-b90f-c6fe20790c37","system_id":"levelo_inurba_marseille","lat":43.232007,"lon":5.350576,"is_reserved":false,"is_disabled":false,"rental_uris":{"android":"levelo://app?vid=80955d0f-8669-4c02-b90f-c6fe20790c37","ios":"levelo://app?vid=80955d0f-8669-4c02-b90f-c6fe20790c37"},"vehicle_type_id":"4","last_reported":1752412897,"current_range_meters":18800,"station_id":"","pricing_plan_id":"cebpf4jnsgd1na2vs0mg"},{"bike_id":"23a0fc67-4c39-4b74-8a86-2903d79b1606","system_id":"levelo_inurba_marseille","lat":43.23195,"lon":5.35572,"is_reserved":false,"is_disabled":true,"rental_uris":{"android":"levelo://app?vid=23a0fc67-4c39-4b74-8a86-2903d79b1606","ios":"levelo://app?vid=23a0fc67-4c39-4b74-8a86-2903d79b1606"},"vehicle_type_id":"4","last_reported":1752412897,"current_range_meters":18800,"station_id":"ce4bhu92rcd13ifvqi70","pricing_plan_id":"cebpf4jnsgd1na2vs0mg"},{"bike_id":"f7cf9aab-0ed3-4931-a48c-8d0743d0c0b9","system_id":"levelo_inurba_marseille","lat":43.22921,"lon":5.3538,"is_reserved":false,"is_disabled":true,"rental_uris":{"android":"levelo://app?vid=f7cf9aab-0ed3-4931-a48c-8d0743d0c0b9","ios":"levelo://app?vid=f7cf9aab-0ed3-4931-a48c-8d0743d0c0b9"},"vehicle_type_id":"4","last_reported":1752412897,"current_range_meters":18800,"station_id":"cpo3532slgdg3j2ikp40","pricing_plan_id":"cebpf4jnsgd1na2vs0mg"},{"bike_id":"bf67854a-fc75-4bbe-84b3-70a770694533","system_id":"levelo_inurba_marseille","lat":43.28913,"lon":5.39639,"is_reserved":false,"is_disabled":true,"rental_uris":{"android":"levelo://app?vid=bf67854a-fc75-4bbe-84b3-70a770694533","ios":"levelo://app?vid=bf67854a-fc75-4bbe-84b3-70a770694533"},"vehicle_type_id":"4","last_reported":1752412897,"current_range_meters":18800,"station_id":"ce4bh3h2rcd13ifvqdn0","pricing_plan_id":"cebpf4jnsgd1na2vs0mg"},{"bike_id":"b5ba90fa-09b5-48f2-82c2-bdc57a4d6ab0","system_id":"levelo_inurba_marseille","lat":43.23187,"lon":5.35583,"is_reserved":false,"is_disabled":false,"rental_uris":{"android":"levelo://app?vid=b5ba90fa-09b5-48f2-82c2-bdc57a4d6ab0","ios":"levelo://app?vid=b5ba90fa-09b5-48f2-82c2-bdc57a4d6ab0"},"vehicle_type_id":"4","last_reported":1752412897,"current_range_meters":18800,"station_id":"ce4bhu92rcd13ifvqi70","pricing_plan_id":"cebpf4jnsgd1na2vs0mg"},{"bike_id":"8a01e88a-8371-4085-9838-47ae11897cd3","system_id":"levelo_inurba_marseille","lat":43.281509,"lon":5.426333,"is_reserved":false,"is_disabled":true,"rental_uris":{"android":"levelo://app?vid=8a01e88a-8371-4085-9838-47ae11897cd3","ios":"levelo://app?vid=8a01e88a-8371-4085-9838-47ae11897cd3"},"vehicle_type_id":"4","last_reported":1752412897,"current_range_meters":18800,"station_id":"ce4bhnh2rcd13ifvqgug","pricing_plan_id":"cebpf4jnsgd1na2vs0mg"},{"bike_id":"1f8dd362-3a15-4198-8d19-1bcc36e39872","system_id":"levelo_inurba_marseille","lat":43.2175,"lon":5.34625,"is_reserved":false,"is_disabled":false,"rental_uris":{"android":"levelo://app?vid=1f8dd362-3a15-4198-8d19-1bcc36e39872","ios":"levelo://app?vid=1f8dd362-3a15-4198-8d19-1bcc36e39872"},"vehicle_type_id":"4","last_reported":1752412897,"current_range_meters":18800,"station_id":"st_cvj6r9ubvosntc0bgbag","pricing_plan_id":"cebpf4jnsgd1na2vs0mg"},{"bike_id":"f4e5bf31-9e0f-4c5b-9f6f-5c04bb964514","system_id":"levelo_inurba_marseille","lat":43.21727,"lon":5.34618,"is_reserved":false,"is_disabled":false,"rental_uris":{"android":"levelo://app?vid=f4e5bf31-9e0f-4c5b-9f6f-5c04bb964514","ios":"levelo://app?vid=f4e5bf31-9e0f-4c5b-9f6f-5c04bb964514"},"vehicle_type_id":"4","last_reported":1752412897,"current_range_meters":18800,"station_id":"st_cvj6r9ubvosntc0bgbag","pricing_plan_id":"cebpf4jnsgd1na2vs0mg"},{"bike_id":"a7cbf27c-cd4d-4912-a525-2a829d97ba83","system_id":"levelo_inurba_marseille","lat":43.30246,"lon":5.40051,"is_reserved":false,"is_disabled":false,"rental_uris":{"android":"levelo://app?vid=a7cbf27c-cd4d-4912-a525-2a829d97ba83","ios":"levelo://app?vid=a7cbf27c-cd4d-4912-a525-2a829d97ba83"},"vehicle_type_id":"4","last_reported":1752412897,"current_range_meters":18800,"station_id":"ce4bgvh2rcd13ifvqcs0","pricing_plan_id":"cebpf4jnsgd1na2vs0mg"},{"bike_id":"d8d4cd6b-d88f-4cc5-971c-93348e88d768","system_id":"levelo_inurba_marseille","lat":43.32109,"lon":5.36775,"is_reserved":false,"is_disabled":false,"rental_uris":{"android":"levelo://app?vid=d8d4cd6b-d88f-4cc5-971c-93348e88d768","ios":"levelo://app?vid=d8d4cd6b-d88f-4cc5-971c-93348e88d768"},"vehicle_type_id":"4","last_reported":1752412897,"current_range_meters":18800,"station_id":"ce4bhrh2rcd13ifvqhug","pricing_plan_id":"cebpf4jnsgd1na2vs0mg"},{"bike_id":"c3e84698-a8cd-4d1b-a918-c5ad56d98c77","system_id":"levelo_inurba_marseille","lat":43.27923,"lon":5.39569,"is_reserved":false,"is_disabled":true,"rental_uris":{"android":"levelo://app?vid=c3e84698-a8cd-4d1b-a918-c5ad56d98c77","ios":"levelo://app?vid=c3e84698-a8cd-4d1b-a918-c5ad56d98c77"},"vehicle_type_id":"4","last_reported":1752412897,"current_range_meters":18800,"station_id":"ce4bhf92rcd13ifvqf40","pricing_plan_id":"cebpf4jnsgd1na2vs0mg"},{"bike_id":"697d5fc4-b988-4a4e-8323-c1ce5ed61a61","system_id":"levelo_inurba_marseille","lat":43.211926,"lon":5.350696,"is_reserved":false,"is_disabled":false,"rental_uris":{"android":"levelo://app?vid=697d5fc4-b988-4a4e-8323-c1ce5ed61a61","ios":"levelo://app?vid=697d5fc4-b988-4a4e-8323-c1ce5ed61a61"},"vehicle_type_id":"4","last_reported":1752412897,"current_range_meters":19200,"station_id":"st_cvj6sg6p6f1abm77japg","pricing_plan_id":"cebpf4jnsgd1na2vs0mg"},{"bike_id":"090bc2d2-587b-43df-a6be-e7ee04f590cb","system_id":"levelo_inurba_marseille","lat":43.2707,"lon":5.42274,"is_reserved":false,"is_disabled":false,"rental_uris":{"android":"levelo://app?vid=090bc2d2-587b-43df-a6be-e7ee04f590cb","ios":"levelo://app?vid=090bc2d2-587b-43df-a6be-e7ee04f590cb"},"vehicle_type_id":"4","last_reported":1752412897,"current_range_meters":19200,"station_id":"ce4bhk92rcd13ifvqgb0","pricing_plan_id":"cebpf4jnsgd1na2vs0mg"},{"bike_id":"a78d43fa-bf1d-44e3-9c20-c26e29e21bac","system_id":"levelo_inurba_marseille","lat":43.27669,"lon":5.38276,"is_reserved":false,"is_disabled":false,"rental_uris":{"android":"levelo://app?vid=a78d43fa-bf1d-44e3-9c20-c26e29e21bac","ios":"levelo://app?vid=a78d43fa-bf1d-44e3-9c20-c26e29e21bac"},"vehicle_type_id":"4","last_reported":1752412897,"current_range_meters":19200,"station_id":"","pricing_plan_id":"cebpf4jnsgd1na2vs0mg"},{"bike_id":"f7c91106-e2f3-4f3d-9bd5-36f13bd9a7ff","system_id":"levelo_inurba_marseille","lat":43.26551,"lon":5.37282,"is_reserved":false,"is_disabled":false,"rental_uris":{"android":"levelo://app?vid=f7c91106-e2f3-4f3d-9bd5-36f13bd9a7ff","ios":"levelo://app?vid=f7c91106-e2f3-4f3d-9bd5-36f13bd9a7ff"},"vehicle_type_id":"4","last_reported":1752412897,"current_range_meters":19200,"station_id":"ce4bhg12rcd13ifvqf70","pricing_plan_id":"cebpf4jnsgd1na2vs0mg"},{"bike_id":"6807a824-61af-4807-98df-48b92b56d257","system_id":"levelo_inurba_marseille","lat":43.29893,"lon":5.43675,"is_reserved":false,"is_disabled":false,"rental_uris":{"android":"levelo://app?vid=6807a824-61af-4807-98df-48b92b56d257","ios":"levelo://app?vid=6807a824-61af-4807-98df-48b92b56d257"},"vehicle_type_id":"4","last_reported":1752412897,"current_range_meters":19200,"station_id":"ce4bhpp2rcd13ifvqhfg","pricing_plan_id":"cebpf4jnsgd1na2vs0mg"},{"bike_id":"6ac174d4-75c5-4a9c-9699-97cd631c6e65","system_id":"levelo_inurba_marseille","lat":43.25462,"lon":5.39931,"is_reserved":false,"is_disabled":false,"rental_uris":{"android":"levelo://app?vid=6ac174d4-75c5-4a9c-9699-97cd631c6e65","ios":"levelo://app?vid=6ac174d4-75c5-4a9c-9699-97cd631c6e65"},"vehicle_type_id":"4","last_reported":1752412897,"current_range_meters":19200,"station_id":"","pricing_plan_id":"cebpf4jnsgd1na2vs0mg"},{"bike_id":"a3169208-b5d8-4be2-9aea-ef4d23bc2a8d","system_id":"levelo_inurba_marseille","lat":43.21751,"lon":5.34593,"is_reserved":false,"is_disabled":false,"rental_uris":{"android":"levelo://app?vid=a3169208-b5d8-4be2-9aea-ef4d23bc2a8d","ios":"levelo://app?vid=a3169208-b5d8-4be2-9aea-ef4d23bc2a8d"},"vehicle_type_id":"4","last_reported":1752412897,"current_range_meters":19200,"station_id":"st_cvj6r9ubvosntc0bgbag","pricing_plan_id":"cebpf4jnsgd1na2vs0mg"},{"bike_id":"f59f6657-f62a-42fc-a273-bf50a25645d6","system_id":"levelo_inurba_marseille","lat":43.273633,"lon":5.362621,"is_reserved":false,"is_disabled":false,"rental_uris":{"android":"levelo://app?vid=f59f6657-f62a-42fc-a273-bf50a25645d6","ios":"levelo://app?vid=f59f6657-f62a-42fc-a273-bf50a25645d6"},"vehicle_type_id":"4","last_reported":1752412897,"current_range_meters":19200,"station_id":"ce4bhbh2rcd13ifvqeo0","pricing_plan_id":"cebpf4jnsgd1na2vs0mg"},{"bike_id":"a4d07f45-19f9-4df9-9728-be6623530a64","system_id":"levelo_inurba_marseille","lat":43.23703,"lon":5.38876,"is_reserved":false,"is_disabled":false,"rental_uris":{"android":"levelo://app?vid=a4d07f45-19f9-4df9-9728-be6623530a64","ios":"levelo://app?vid=a4d07f45-19f9-4df9-9728-be6623530a64"},"vehicle_type_id":"4","last_reported":1752412897,"current_range_meters":19200,"station_id":"","pricing_plan_id":"cebpf4jnsgd1na2vs0mg"},{"bike_id":"84d53673-04ac-4a1e-a602-1c18482d9f94","system_id":"levelo_inurba_marseille","lat":43.26039,"lon":5.37544,"is_reserved":false,"is_disabled":false,"rental_uris":{"android":"levelo://app?vid=84d53673-04ac-4a1e-a602-1c18482d9f94","ios":"levelo://app?vid=84d53673-04ac-4a1e-a602-1c18482d9f94"},"vehicle_type_id":"4","last_reported":1752412897,"current_range_meters":19200,"station_id":"ce4bhgh2rcd13ifvqfa0","pricing_plan_id":"cebpf4jnsgd1na2vs0mg"},{"bike_id":"fcee4ff7-4014-474c-800a-8f15d9b03af0","system_id":"levelo_inurba_marseille","lat":43.28415,"lon":5.34988,"is_reserved":false,"is_disabled":false,"rental_uris":{"android":"levelo://app?vid=fcee4ff7-4014-474c-800a-8f15d9b03af0","ios":"levelo://app?vid=fcee4ff7-4014-474c-800a-8f15d9b03af0"},"vehicle_type_id":"4","last_reported":1752412897,"current_range_meters":19200,"station_id":"ce4bhbh2rcd13ifvqepg","pricing_plan_id":"cebpf4jnsgd1na2vs0mg"},{"bike_id":"c540e229-81f0-42ef-8ca9-2bf04238231f","system_id":"levelo_inurba_marseille","lat":43.21753,"lon":5.34586,"is_reserved":false,"is_disabled":false,"rental_uris":{"android":"levelo://app?vid=c540e229-81f0-42ef-8ca9-2bf04238231f","ios":"levelo://app?vid=c540e229-81f0-42ef-8ca9-2bf04238231f"},"vehicle_type_id":"4","last_reported":1752412897,"current_range_meters":19600,"station_id":"st_cvj6r9ubvosntc0bgbag","pricing_plan_id":"cebpf4jnsgd1na2vs0mg"},{"bike_id":"e1442ff3-c767-4bb3-901d-e5f60873ad13","system_id":"levelo_inurba_marseille","lat":43.23192,"lon":5.39975,"is_reserved":false,"is_disabled":false,"rental_uris":{"android":"levelo://app?vid=e1442ff3-c767-4bb3-901d-e5f60873ad13","ios":"levelo://app?vid=e1442ff3-c767-4bb3-901d-e5f60873ad13"},"vehicle_type_id":"4","last_reported":1752412897,"current_range_meters":19600,"station_id":"ce4bhn12rcd13ifvqgqg","pricing_plan_id":"cebpf4jnsgd1na2vs0mg"},{"bike_id":"217bb73d-ad8c-4717-8c1e-ca213e78f78a","system_id":"levelo_inurba_marseille","lat":43.28268,"lon":5.35067,"is_reserved":false,"is_disabled":false,"rental_uris":{"android":"levelo://app?vid=217bb73d-ad8c-4717-8c1e-ca213e78f78a","ios":"levelo://app?vid=217bb73d-ad8c-4717-8c1e-ca213e78f78a"},"vehicle_type_id":"4","last_reported":1752412897,"current_range_meters":19600,"station_id":"ce4bhbp2rcd13ifvqerg","pricing_plan_id":"cebpf4jnsgd1na2vs0mg"},{"bike_id":"e32147e0-2c1a-4589-a67a-3853e29a2cab","system_id":"levelo_inurba_marseille","lat":43.28402,"lon":5.35003,"is_reserved":false,"is_disabled":false,"rental_uris":{"android":"levelo://app?vid=e32147e0-2c1a-4589-a67a-3853e29a2cab","ios":"levelo://app?vid=e32147e0-2c1a-4589-a67a-3853e29a2cab"},"vehicle_type_id":"4","last_reported":1752412897,"current_range_meters":19600,"station_id":"ce4bhbh2rcd13ifvqepg","pricing_plan_id":"cebpf4jnsgd1na2vs0mg"},{"bike_id":"a204d5cd-1fb4-4fb5-8fea-c544b6563662","system_id":"levelo_inurba_marseille","lat":43.21742,"lon":5.34591,"is_reserved":false,"is_disabled":false,"rental_uris":{"android":"levelo://app?vid=a204d5cd-1fb4-4fb5-8fea-c544b6563662","ios":"levelo://app?vid=a204d5cd-1fb4-4fb5-8fea-c544b6563662"},"vehicle_type_id":"4","last_reported":1752412897,"current_range_meters":19600,"station_id":"st_cvj6r9ubvosntc0bgbag","pricing_plan_id":"cebpf4jnsgd1na2vs0mg"},{"bike_id":"e4f60a7e-d35f-404e-924f-8496bc4bb84b","system_id":"levelo_inurba_marseille","lat":43.23195,"lon":5.39981,"is_reserved":false,"is_disabled":false,"rental_uris":{"android":"levelo://app?vid=e4f60a7e-d35f-404e-924f-8496bc4bb84b","ios":"levelo://app?vid=e4f60a7e-d35f-404e-924f-8496bc4bb84b"},"vehicle_type_id":"4","last_reported":1752412897,"current_range_meters":19600,"station_id":"ce4bhn12rcd13ifvqgqg","pricing_plan_id":"cebpf4jnsgd1na2vs0mg"},{"bike_id":"5eaf3ecb-de85-4069-ad46-23dda566f9ce","system_id":"levelo_inurba_marseille","lat":43.21192,"lon":5.35066,"is_reserved":false,"is_disabled":false,"rental_uris":{"android":"levelo://app?vid=5eaf3ecb-de85-4069-ad46-23dda566f9ce","ios":"levelo://app?vid=5eaf3ecb-de85-4069-ad46-23dda566f9ce"},"vehicle_type_id":"4","last_reported":1752412897,"current_range_meters":22400,"station_id":"st_cvj6sg6p6f1abm77japg","pricing_plan_id":"cebpf4jnsgd1na2vs0mg"},{"bike_id":"f8293e10-0a64-48db-ae97-2008c359dc00","system_id":"levelo_inurba_marseille","lat":43.21767,"lon":5.34601,"is_reserved":false,"is_disabled":false,"rental_uris":{"android":"levelo://app?vid=f8293e10-0a64-48db-ae97-2008c359dc00","ios":"levelo://app?vid=f8293e10-0a64-48db-ae97-2008c359dc00"},"vehicle_type_id":"4","last_reported":1752412897,"current_range_meters":19600,"station_id":"st_cvj6r9ubvosntc0bgbag","pricing_plan_id":"cebpf4jnsgd1na2vs0mg"},{"bike_id":"8a034158-167f-42e4-bd8d-eaf1efc11d4b","system_id":"levelo_inurba_marseille","lat":43.27074,"lon":5.42273,"is_reserved":false,"is_disabled":false,"rental_uris":{"android":"levelo://app?vid=8a034158-167f-42e4-bd8d-eaf1efc11d4b","ios":"levelo://app?vid=8a034158-167f-42e4-bd8d-eaf1efc11d4b"},"vehicle_type_id":"4","last_reported":1752412897,"current_range_meters":20000,"station_id":"ce4bhk92rcd13ifvqgb0","pricing_plan_id":"cebpf4jnsgd1na2vs0mg"},{"bike_id":"f4d0d0f4-0b0f-4421-9040-efc85df1cc4d","system_id":"levelo_inurba_marseille","lat":43.29708,"lon":5.36607,"is_reserved":false,"is_disabled":false,"rental_uris":{"android":"levelo://app?vid=f4d0d0f4-0b0f-4421-9040-efc85df1cc4d","ios":"levelo://app?vid=f4d0d0f4-0b0f-4421-9040-efc85df1cc4d"},"vehicle_type_id":"4","last_reported":1752412897,"current_range_meters":20000,"station_id":"ce4bgn12rcd13ifvqbt0","pricing_plan_id":"cebpf4jnsgd1na2vs0mg"},{"bike_id":"65779b1a-949d-462a-a181-850d4123044f","system_id":"levelo_inurba_marseille","lat":43.22921,"lon":5.35384,"is_reserved":false,"is_disabled":false,"rental_uris":{"android":"levelo://app?vid=65779b1a-949d-462a-a181-850d4123044f","ios":"levelo://app?vid=65779b1a-949d-462a-a181-850d4123044f"},"vehicle_type_id":"4","last_reported":1752412897,"current_range_meters":20000,"station_id":"cpo3532slgdg3j2ikp40","pricing_plan_id":"cebpf4jnsgd1na2vs0mg"},{"bike_id":"aedcefdc-6647-463e-888e-c5a8030f3382","system_id":"levelo_inurba_marseille","lat":43.28619,"lon":5.35104,"is_reserved":false,"is_disabled":false,"rental_uris":{"android":"levelo://app?vid=aedcefdc-6647-463e-888e-c5a8030f3382","ios":"levelo://app?vid=aedcefdc-6647-463e-888e-c5a8030f3382"},"vehicle_type_id":"4","last_reported":1752412897,"current_range_meters":20000,"station_id":"ce4bhch2rcd13ifvqeug","pricing_plan_id":"cebpf4jnsgd1na2vs0mg"},{"bike_id":"3beea251-b063-40f9-b99e-a94b877fcb62","system_id":"levelo_inurba_marseille","lat":43.27608,"lon":5.36111,"is_reserved":false,"is_disabled":false,"rental_uris":{"android":"levelo://app?vid=3beea251-b063-40f9-b99e-a94b877fcb62","ios":"levelo://app?vid=3beea251-b063-40f9-b99e-a94b877fcb62"},"vehicle_type_id":"4","last_reported":1752412897,"current_range_meters":20000,"station_id":"ce4bgj92rcd13ifvqbe0","pricing_plan_id":"cebpf4jnsgd1na2vs0mg"},{"bike_id":"11c1737e-f69c-4541-96a5-394601308243","system_id":"levelo_inurba_marseille","lat":43.29903,"lon":5.38102,"is_reserved":false,"is_disabled":false,"rental_uris":{"android":"levelo://app?vid=11c1737e-f69c-4541-96a5-394601308243","ios":"levelo://app?vid=11c1737e-f69c-4541-96a5-394601308243"},"vehicle_type_id":"4","last_reported":1752412897,"current_range_meters":20000,"station_id":"ce4bgj12rcd13ifvqbc0","pricing_plan_id":"cebpf4jnsgd1na2vs0mg"},{"bike_id":"c86e3e7a-d1dd-4398-b662-a5f1ec3c1432","system_id":"levelo_inurba_marseille","lat":43.28413,"lon":5.34991,"is_reserved":false,"is_disabled":false,"rental_uris":{"android":"levelo://app?vid=c86e3e7a-d1dd-4398-b662-a5f1ec3c1432","ios":"levelo://app?vid=c86e3e7a-d1dd-4398-b662-a5f1ec3c1432"},"vehicle_type_id":"4","last_reported":1752412897,"current_range_meters":20000,"station_id":"ce4bhbh2rcd13ifvqepg","pricing_plan_id":"cebpf4jnsgd1na2vs0mg"},{"bike_id":"be7496bc-b5b0-468e-8253-c37860a5a769","system_id":"levelo_inurba_marseille","lat":43.298942,"lon":5.436629,"is_reserved":false,"is_disabled":false,"rental_uris":{"android":"levelo://app?vid=be7496bc-b5b0-468e-8253-c37860a5a769","ios":"levelo://app?vid=be7496bc-b5b0-468e-8253-c37860a5a769"},"vehicle_type_id":"4","last_reported":1752412897,"current_range_meters":20000,"station_id":"ce4bhpp2rcd13ifvqhfg","pricing_plan_id":"cebpf4jnsgd1na2vs0mg"},{"bike_id":"0b64e547-af82-4cf7-9505-e5c3a697d8a1","system_id":"levelo_inurba_marseille","lat":43.21749,"lon":5.346013,"is_reserved":false,"is_disabled":false,"rental_uris":{"android":"levelo://app?vid=0b64e547-af82-4cf7-9505-e5c3a697d8a1","ios":"levelo://app?vid=0b64e547-af82-4cf7-9505-e5c3a697d8a1"},"vehicle_type_id":"4","last_reported":1752412897,"current_range_meters":20000,"station_id":"st_cvj6r9ubvosntc0bgbag","pricing_plan_id":"cebpf4jnsgd1na2vs0mg"},{"bike_id":"f837ce67-fe73-428f-8eb6-fbf9eccb5128","system_id":"levelo_inurba_marseille","lat":43.27674,"lon":5.35714,"is_reserved":false,"is_disabled":false,"rental_uris":{"android":"levelo://app?vid=f837ce67-fe73-428f-8eb6-fbf9eccb5128","ios":"levelo://app?vid=f837ce67-fe73-428f-8eb6-fbf9eccb5128"},"vehicle_type_id":"4","last_reported":1752412897,"current_range_meters":20000,"station_id":"","pricing_plan_id":"cebpf4jnsgd1na2vs0mg"},{"bike_id":"38347e87-7b6b-48de-affc-44e53f6cf98f","system_id":"levelo_inurba_marseille","lat":43.22942,"lon":5.3538,"is_reserved":false,"is_disabled":false,"rental_uris":{"android":"levelo://app?vid=38347e87-7b6b-48de-affc-44e53f6cf98f","ios":"levelo://app?vid=38347e87-7b6b-48de-affc-44e53f6cf98f"},"vehicle_type_id":"4","last_reported":1752412897,"current_range_meters":20000,"station_id":"cpo3532slgdg3j2ikp40","pricing_plan_id":"cebpf4jnsgd1na2vs0mg"},{"bike_id":"26333ae4-2ca6-4315-9126-41f4031f1a5a","system_id":"levelo_inurba_marseille","lat":43.28412,"lon":5.34989,"is_reserved":false,"is_disabled":false,"rental_uris":{"android":"levelo://app?vid=26333ae4-2ca6-4315-9126-41f4031f1a5a","ios":"levelo://app?vid=26333ae4-2ca6-4315-9126-41f4031f1a5a"},"vehicle_type_id":"4","last_reported":1752412897,"current_range_meters":20000,"station_id":"ce4bhbh2rcd13ifvqepg","pricing_plan_id":"cebpf4jnsgd1na2vs0mg"},{"bike_id":"661015c8-5a56-4bde-8f86-eb746530b608","system_id":"levelo_inurba_marseille","lat":43.21769,"lon":5.34595,"is_reserved":false,"is_disabled":false,"rental_uris":{"android":"levelo://app?vid=661015c8-5a56-4bde-8f86-eb746530b608","ios":"levelo://app?vid=661015c8-5a56-4bde-8f86-eb746530b608"},"vehicle_type_id":"4","last_reported":1752412897,"current_range_meters":20000,"station_id":"st_cvj6r9ubvosntc0bgbag","pricing_plan_id":"cebpf4jnsgd1na2vs0mg"},{"bike_id":"45311e08-8eb0-43a2-b8a3-76cbe9328558","system_id":"levelo_inurba_marseille","lat":43.286187,"lon":5.35109,"is_reserved":false,"is_disabled":false,"rental_uris":{"android":"levelo://app?vid=45311e08-8eb0-43a2-b8a3-76cbe9328558","ios":"levelo://app?vid=45311e08-8eb0-43a2-b8a3-76cbe9328558"},