{"last_updated":1771093160,"ttl":60,"version":"2.2","data":{"bikes":[{"bike_id":"d96f1086-8d9b-4b38-8774-136993319875","system_id":"levelo_inurba_marseille","lat":43.2465,"lon":5.38885,"is_reserved":false,"is_disabled":false,"rental_uris":{"android":"levelo://app?vid=d96f1086-8d9b-4b38-8774-136993319875","ios":"levelo://app?vid=d96f1086-8d9b-4b38-8774-136993319875"},"vehicle_type_id":"4","last_reported":1771093161,"current_range_meters":18000,"station_id":"ce4bhg12rcd13ifvqf60","pricing_plan_id":"cebpf4jnsgd1na2vs0mg"},{"bike_id":"597ba019-6a14-4724-bfeb-cc559411f270","system_id":"levelo_inurba_marseille","lat":43.27618,"lon":5.36111,"is_reserved":false,"is_disabled":false,"rental_uris":{"android":"levelo://app?vid=597ba019-6a14-4724-bfeb-cc559411f270","ios":"levelo://app?vid=597ba019-6a14-4724-bfeb-cc559411f270"},"vehicle_type_id":"4","last_reported":1771093161,"current_range_meters":39200,"station_id":"ce4bgj92rcd13ifvqbe0","pricing_plan_id":"cebpf4jnsgd1na2vs0mg"},{"bike_id":"1a3e0a8c-bf4f-4ce3-b619-dd4c0b761adc","system_id":"levelo_inurba_marseille","lat":43.32372,"lon":5.38875,"is_reserved":false,"is_disabled":false,"rental_uris":{"android":"levelo://app?vid=1a3e0a8c-bf4f-4ce3-b619-dd4c0b761adc","ios":"levelo://app?vid=1a3e0a8c-bf4f-4ce3-b619-dd4c0b761adc"},"vehicle_type_id":"4","last_reported":1771093161,"current_range_meters":40000,"station_id":"ce4bhqp2rcd13ifvqhog","pricing_plan_id":"cebpf4jnsgd1na2vs0mg"},{"bike_id":"34d70057-47d6-4c17-b6c1-e79de54e1e52","system_id":"levelo_inurba_marseille","lat":43.33098,"lon":5.3905,"is_reserved":false,"is_disabled":false,"rental_uris":{"android":"levelo://app?vid=34d70057-47d6-4c17-b6c1-e79de54e1e52","ios":"levelo://app?vid=34d70057-47d6-4c17-b6c1-e79de54e1e52"},"vehicle_type_id":"4","last_reported":1771093161,"current_range_meters":39200,"station_id":"","pricing_plan_id":"cebpf4jnsgd1na2vs0mg"},{"bike_id":"68ef5776-ce7e-4d76-bed7-b3b2136e9f86","system_id":"levelo_inurba_marseille","lat":43.33031,"lon":5.39041,"is_reserved":false,"is_disabled":false,"rental_uris":{"android":"levelo://app?vid=68ef5776-ce7e-4d76-bed7-b3b2136e9f86","ios":"levelo://app?vid=68ef5776-ce7e-4d76-bed7-b3b2136e9f86"},"vehicle_type_id":"4","last_reported":1771093161,"current_range_meters":39200,"station_id":"ce4bhr92rcd13ifvqhrg","pricing_plan_id":"cebpf4jnsgd1na2vs0mg"},{"bike_id":"dcf21c8a-af55-489b-ae7c-c01a8eafbc40","system_id":"levelo_inurba_marseille","lat":43.337444,"lon":5.374475,"is_reserved":false,"is_disabled":false,"rental_uris":{"android":"levelo://app?vid=dcf21c8a-af55-489b-ae7c-c01a8eafbc40","ios":"levelo://app?vid=dcf21c8a-af55-489b-ae7c-c01a8eafbc40"},"vehicle_type_id":"4","last_reported":1771093161,"current_range_meters":22800,"station_id":"","pricing_plan_id":"cebpf4jnsgd1na2vs0mg"},{"bike_id":"7017b9ea-236b-408a-9884-05979c964e9b","system_id":"levelo_inurba_marseille","lat":43.33038,"lon":5.39099,"is_reserved":false,"is_disabled":false,"rental_uris":{"android":"levelo://app?vid=7017b9ea-236b-408a-9884-05979c964e9b","ios":"levelo://app?vid=7017b9ea-236b-408a-9884-05979c964e9b"},"vehicle_type_id":"4","last_reported":1771093161,"current_range_meters":38400,"station_id":"ce4bhr92rcd13ifvqhrg","pricing_plan_id":"cebpf4jnsgd1na2vs0mg"},{"bike_id":"05431520-0744-4aff-8d56-5eda07b7d4bf","system_id":"levelo_inurba_marseille","lat":43.33013,"lon":5.39053,"is_reserved":false,"is_disabled":false,"rental_uris":{"android":"levelo://app?vid=05431520-0744-4aff-8d56-5eda07b7d4bf","ios":"levelo://app?vid=05431520-0744-4aff-8d56-5eda07b7d4bf"},"vehicle_type_id":"4","last_reported":1771093161,"current_range_meters":38400,"station_id":"ce4bhr92rcd13ifvqhrg","pricing_plan_id":"cebpf4jnsgd1na2vs0mg"},{"bike_id":"b07f3ef1-c8ed-4cbb-96c2-2cf40b5d7a28","system_id":"levelo_inurba_marseille","lat":43.33027,"lon":5.39037,"is_reserved":false,"is_disabled":false,"rental_uris":{"android":"levelo://app?vid=b07f3ef1-c8ed-4cbb-96c2-2cf40b5d7a28","ios":"levelo://app?vid=b07f3ef1-c8ed-4cbb-96c2-2cf40b5d7a28"},"vehicle_type_id":"4","last_reported":1771093161,"current_range_meters":38800,"station_id":"ce4bhr92rcd13ifvqhrg","pricing_plan_id":"cebpf4jnsgd1na2vs0mg"},{"bike_id":"866ce7df-512c-4b3a-8fef-c09b0701924c","system_id":"levelo_inurba_marseille","lat":43.341537,"lon":5.408958,"is_reserved":false,"is_disabled":false,"rental_uris":{"android":"levelo://app?vid=866ce7df-512c-4b3a-8fef-c09b0701924c","ios":"levelo://app?vid=866ce7df-512c-4b3a-8fef-c09b0701924c"},"vehicle_type_id":"4","last_reported":1771093161,"current_range_meters":39200,"station_id":"ce4bhqh2rcd13ifvqhlg","pricing_plan_id":"cebpf4jnsgd1na2vs0mg"},{"bike_id":"0627d3d1-5193-4d12-bfc0-0b05a32370e3","system_id":"levelo_inurba_marseille","lat":43.34106,"lon":5.40797,"is_reserved":false,"is_disabled":false,"rental_uris":{"android":"levelo://app?vid=0627d3d1-5193-4d12-bfc0-0b05a32370e3","ios":"levelo://app?vid=0627d3d1-5193-4d12-bfc0-0b05a32370e3"},"vehicle_type_id":"4","last_reported":1771093161,"current_range_meters":39200,"station_id":"ce4bhqh2rcd13ifvqhlg","pricing_plan_id":"cebpf4jnsgd1na2vs0mg"},{"bike_id":"652a25b0-b80d-4f9a-86ce-faebcb6e1130","system_id":"levelo_inurba_marseille","lat":43.32364,"lon":5.38884,"is_reserved":false,"is_disabled":false,"rental_uris":{"android":"levelo://app?vid=652a25b0-b80d-4f9a-86ce-faebcb6e1130","ios":"levelo://app?vid=652a25b0-b80d-4f9a-86ce-faebcb6e1130"},"vehicle_type_id":"4","last_reported":1771093161,"current_range_meters":40000,"station_id":"ce4bhqp2rcd13ifvqhog","pricing_plan_id":"cebpf4jnsgd1na2vs0mg"},{"bike_id":"8ff7e5fe-aeff-4c28-befd-849a0d3b0506","system_id":"levelo_inurba_marseille","lat":43.32998,"lon":5.39075,"is_reserved":false,"is_disabled":false,"rental_uris":{"android":"levelo://app?vid=8ff7e5fe-aeff-4c28-befd-849a0d3b0506","ios":"levelo://app?vid=8ff7e5fe-aeff-4c28-befd-849a0d3b0506"},"vehicle_type_id":"4","last_reported":1771093161,"current_range_meters":38800,"station_id":"ce4bhr92rcd13ifvqhrg","pricing_plan_id":"cebpf4jnsgd1na2vs0mg"},{"bike_id":"096f020f-cc4d-47ba-9384-d819ca9e3f2c","system_id":"levelo_inurba_marseille","lat":43.34147,"lon":5.40894,"is_reserved":false,"is_disabled":false,"rental_uris":{"android":"levelo://app?vid=096f020f-cc4d-47ba-9384-d819ca9e3f2c","ios":"levelo://app?vid=096f020f-cc4d-47ba-9384-d819ca9e3f2c"},"vehicle_type_id":"4","last_reported":1771093161,"current_range_meters":39200,"station_id":"ce4bhqh2rcd13ifvqhlg","pricing_plan_id":"cebpf4jnsgd1na2vs0mg"},{"bike_id":"c96e29c7-b48d-4b1c-8020-47ce3363411b","system_id":"levelo_inurba_marseille","lat":43.3417,"lon":5.40915,"is_reserved":false,"is_disabled":false,"rental_uris":{"android":"levelo://app?vid=c96e29c7-b48d-4b1c-8020-47ce3363411b","ios":"levelo://app?vid=c96e29c7-b48d-4b1c-8020-47ce3363411b"},"vehicle_type_id":"4","last_reported":1771093161,"current_range_meters":39200,"station_id":"ce4bhqh2rcd13ifvqhlg","pricing_plan_id":"cebpf4jnsgd1na2vs0mg"},{"bike_id":"9ee88708-4e04-47f3-b19e-2f6b97784421","system_id":"levelo_inurba_marseille","lat":43.32348,"lon":5.38898,"is_reserved":false,"is_disabled":false,"rental_uris":{"android":"levelo://app?vid=9ee88708-4e04-47f3-b19e-2f6b97784421","ios":"levelo://app?vid=9ee88708-4e04-47f3-b19e-2f6b97784421"},"vehicle_type_id":"4","last_reported":1771093161,"current_range_meters":40000,"station_id":"ce4bhqp2rcd13ifvqhog","pricing_plan_id":"cebpf4jnsgd1na2vs0mg"},{"bike_id":"afdc4a07-dc35-4359-8461-be88469477c5","system_id":"levelo_inurba_marseille","lat":43.32366,"lon":5.38881,"is_reserved":false,"is_disabled":false,"rental_uris":{"android":"levelo://app?vid=afdc4a07-dc35-4359-8461-be88469477c5","ios":"levelo://app?vid=afdc4a07-dc35-4359-8461-be88469477c5"},"vehicle_type_id":"4","last_reported":1771093161,"current_range_meters":39200,"station_id":"ce4bhqp2rcd13ifvqhog","pricing_plan_id":"cebpf4jnsgd1na2vs0mg"},{"bike_id":"64f460a1-288f-42d2-88de-a92a667fff57","system_id":"levelo_inurba_marseille","lat":43.32999,"lon":5.39077,"is_reserved":false,"is_disabled":false,"rental_uris":{"android":"levelo://app?vid=64f460a1-288f-42d2-88de-a92a667fff57","ios":"levelo://app?vid=64f460a1-288f-42d2-88de-a92a667fff57"},"vehicle_type_id":"4","last_reported":1771093161,"current_range_meters":38400,"station_id":"ce4bhr92rcd13ifvqhrg","pricing_plan_id":"cebpf4jnsgd1na2vs0mg"},{"bike_id":"b23a35bf-e16c-4f97-b98c-b0c3ee910b87","system_id":"levelo_inurba_marseille","lat":43.33024,"lon":5.39042,"is_reserved":false,"is_disabled":false,"rental_uris":{"android":"levelo://app?vid=b23a35bf-e16c-4f97-b98c-b0c3ee910b87","ios":"levelo://app?vid=b23a35bf-e16c-4f97-b98c-b0c3ee910b87"},"vehicle_type_id":"4","last_reported":1771093161,"current_range_meters":39200,"station_id":"ce4bhr92rcd13ifvqhrg","pricing_plan_id":"cebpf4jnsgd1na2vs0mg"},{"bike_id":"0296aab3-a0d2-4ec5-b900-7a0fb9664089","system_id":"levelo_inurba_marseille","lat":43.32373,"lon":5.38885,"is_reserved":false,"is_disabled":false,"rental_uris":{"android":"levelo://app?vid=0296aab3-a0d2-4ec5-b900-7a0fb9664089","ios":"levelo://app?vid=0296aab3-a0d2-4ec5-b900-7a0fb9664089"},"vehicle_type_id":"4","last_reported":1771093161,"current_range_meters":40000,"station_id":"ce4bhqp2rcd13ifvqhog","pricing_plan_id":"cebpf4jnsgd1na2vs0mg"},{"bike_id":"4b69d9ac-5988-4e0b-b555-d4763bf81efe","system_id":"levelo_inurba_marseille","lat":43.3302,"lon":5.39046,"is_reserved":false,"is_disabled":false,"rental_uris":{"android":"levelo://app?vid=4b69d9ac-5988-4e0b-b555-d4763bf81efe","ios":"levelo://app?vid=4b69d9ac-5988-4e0b-b555-d4763bf81efe"},"vehicle_type_id":"4","last_reported":1771093161,"current_range_meters":38400,"station_id":"ce4bhr92rcd13ifvqhrg","pricing_plan_id":"cebpf4jnsgd1na2vs0mg"},{"bike_id":"9942bbc5-c241-4e8a-b7a0-e7948f4f2e45","system_id":"levelo_inurba_marseille","lat":43.32353,"lon":5.38885,"is_reserved":false,"is_disabled":false,"rental_uris":{"android":"levelo://app?vid=9942bbc5-c241-4e8a-b7a0-e7948f4f2e45","ios":"levelo://app?vid=9942bbc5-c241-4e8a-b7a0-e7948f4f2e45"},"vehicle_type_id":"4","last_reported":1771093161,"current_range_meters":38000,"station_id":"ce4bhqp2rcd13ifvqhog","pricing_plan_id":"cebpf4jnsgd1na2vs0mg"},{"bike_id":"78eafc9c-aeb1-4a3e-b6ec-c3c1210ea0e6","system_id":"levelo_inurba_marseille","lat":43.32373,"lon":5.38881,"is_reserved":false,"is_disabled":false,"rental_uris":{"android":"levelo://app?vid=78eafc9c-aeb1-4a3e-b6ec-c3c1210ea0e6","ios":"levelo://app?vid=78eafc9c-aeb1-4a3e-b6ec-c3c1210ea0e6"},"vehicle_type_id":"4","last_reported":1771093161,"current_range_meters":38400,"station_id":"ce4bhqp2rcd13ifvqhog","pricing_plan_id":"cebpf4jnsgd1na2vs0mg"},{"bike_id":"8e8e8859-a5a6-43b8-9a3a-3d7ba83a2210","system_id":"levelo_inurba_marseille","lat":43.330232,"lon":5.390376,"is_reserved":false,"is_disabled":false,"rental_uris":{"android":"levelo://app?vid=8e8e8859-a5a6-43b8-9a3a-3d7ba83a2210","ios":"levelo://app?vid=8e8e8859-a5a6-43b8-9a3a-3d7ba83a2210"},"vehicle_type_id":"4","last_reported":1771093161,"current_range_meters":39200,"station_id":"ce4bhr92rcd13ifvqhrg","pricing_plan_id":"cebpf4jnsgd1na2vs0mg"},{"bike_id":"e09b1854-500a-4103-9ded-791ea62f0cef","system_id":"levelo_inurba_marseille","lat":43.323817,"lon":5.388787,"is_reserved":false,"is_disabled":false,"rental_uris":{"android":"levelo://app?vid=e09b1854-500a-4103-9ded-791ea62f0cef","ios":"levelo://app?vid=e09b1854-500a-4103-9ded-791ea62f0cef"},"vehicle_type_id":"4","last_reported":1771093161,"current_range_meters":38400,"station_id":"ce4bhqp2rcd13ifvqhog","pricing_plan_id":"cebpf4jnsgd1na2vs0mg"},{"bike_id":"be8ecc47-b3b1-4e9a-89ec-d105b0b19936","system_id":"levelo_inurba_marseille","lat":43.323656,"lon":5.388761,"is_reserved":false,"is_disabled":false,"rental_uris":{"android":"levelo://app?vid=be8ecc47-b3b1-4e9a-89ec-d105b0b19936","ios":"levelo://app?vid=be8ecc47-b3b1-4e9a-89ec-d105b0b19936"},"vehicle_type_id":"4","last_reported":1771093161,"current_range_meters":38000,"station_id":"ce4bhqp2rcd13ifvqhog","pricing_plan_id":"cebpf4jnsgd1na2vs0mg"},{"bike_id":"40f653fd-fc41-44ea-94c9-56ee3a92aebe","system_id":"levelo_inurba_marseille","lat":43.32998,"lon":5.39033,"is_reserved":false,"is_disabled":false,"rental_uris":{"android":"levelo://app?vid=40f653fd-fc41-44ea-94c9-56ee3a92aebe","ios":"levelo://app?vid=40f653fd-fc41-44ea-94c9-56ee3a92aebe"},"vehicle_type_id":"4","last_reported":1771093161,"current_range_meters":38400,"station_id":"ce4bhr92rcd13ifvqhrg","pricing_plan_id":"cebpf4jnsgd1na2vs0mg"},{"bike_id":"3cccd3b9-43e3-4300-876c-33c46754f515","system_id":"levelo_inurba_marseille","lat":43.33014,"lon":5.39096,"is_reserved":false,"is_disabled":false,"rental_uris":{"android":"levelo://app?vid=3cccd3b9-43e3-4300-876c-33c46754f515","ios":"levelo://app?vid=3cccd3b9-43e3-4300-876c-33c46754f515"},"vehicle_type_id":"4","last_reported":1771093161,"current_range_meters":38400,"station_id":"ce4bhr92rcd13ifvqhrg","pricing_plan_id":"cebpf4jnsgd1na2vs0mg"},{"bike_id":"e6e08f6b-466b-497d-99fe-10096f8ca89b","system_id":"levelo_inurba_marseille","lat":43.33034,"lon":5.39055,"is_reserved":false,"is_disabled":false,"rental_uris":{"android":"levelo://app?vid=e6e08f6b-466b-497d-99fe-10096f8ca89b","ios":"levelo://app?vid=e6e08f6b-466b-497d-99fe-10096f8ca89b"},"vehicle_type_id":"4","last_reported":1771093161,"current_range_meters":38000,"station_id":"ce4bhr92rcd13ifvqhrg","pricing_plan_id":"cebpf4jnsgd1na2vs0mg"},{"bike_id":"734a22aa-27b0-4861-addb-dae8756a3eed","system_id":"levelo_inurba_marseille","lat":43.295258,"lon":5.385425,"is_reserved":false,"is_disabled":true,"rental_uris":{"android":"levelo://app?vid=734a22aa-27b0-4861-addb-dae8756a3eed","ios":"levelo://app?vid=734a22aa-27b0-4861-addb-dae8756a3eed"},"vehicle_type_id":"4","last_reported":1771093161,"current_range_meters":1200,"station_id":"ce4bgih2rcd13ifvqba0","pricing_plan_id":"cebpf4jnsgd1na2vs0mg"},{"bike_id":"fc148e1b-2eeb-4bb0-8155-e98e097f71ae","system_id":"levelo_inurba_marseille","lat":43.28323,"lon":5.38977,"is_reserved":false,"is_disabled":false,"rental_uris":{"android":"levelo://app?vid=fc148e1b-2eeb-4bb0-8155-e98e097f71ae","ios":"levelo://app?vid=fc148e1b-2eeb-4bb0-8155-e98e097f71ae"},"vehicle_type_id":"4","last_reported":1771093161,"current_range_meters":25200,"station_id":"","pricing_plan_id":"cebpf4jnsgd1na2vs0mg"},{"bike_id":"a1d76dc5-8cd3-4db8-8d76-beff9ac55910","system_id":"levelo_inurba_marseille","lat":43.30543,"lon":5.36695,"is_reserved":false,"is_disabled":false,"rental_uris":{"android":"levelo://app?vid=a1d76dc5-8cd3-4db8-8d76-beff9ac55910","ios":"levelo://app?vid=a1d76dc5-8cd3-4db8-8d76-beff9ac55910"},"vehicle_type_id":"4","last_reported":1771093161,"current_range_meters":35200,"station_id":"ce4bgrp2rcd13ifvqc9g","pricing_plan_id":"cebpf4jnsgd1na2vs0mg"},{"bike_id":"2ee2501b-b2dd-4e3f-bff3-a91ee1254efa","system_id":"levelo_inurba_marseille","lat":43.28941,"lon":5.39647,"is_reserved":false,"is_disabled":true,"rental_uris":{"android":"levelo://app?vid=2ee2501b-b2dd-4e3f-bff3-a91ee1254efa","ios":"levelo://app?vid=2ee2501b-b2dd-4e3f-bff3-a91ee1254efa"},"vehicle_type_id":"4","last_reported":1771093161,"current_range_meters":24400,"station_id":"ce4bh3h2rcd13ifvqdn0","pricing_plan_id":"cebpf4jnsgd1na2vs0mg"},{"bike_id":"e28b54de-af57-425f-96ed-b1caac28166f","system_id":"levelo_inurba_marseille","lat":43.33162,"lon":5.37693,"is_reserved":false,"is_disabled":false,"rental_uris":{"android":"levelo://app?vid=e28b54de-af57-425f-96ed-b1caac28166f","ios":"levelo://app?vid=e28b54de-af57-425f-96ed-b1caac28166f"},"vehicle_type_id":"4","last_reported":1771093161,"current_range_meters":32000,"station_id":"st_d46cu089ee8s73dldbu0","pricing_plan_id":"cebpf4jnsgd1na2vs0mg"},{"bike_id":"c0c1c696-e921-4d4f-909f-46c10656f9f4","system_id":"levelo_inurba_marseille","lat":43.30154,"lon":5.38028,"is_reserved":false,"is_disabled":false,"rental_uris":{"android":"levelo://app?vid=c0c1c696-e921-4d4f-909f-46c10656f9f4","ios":"levelo://app?vid=c0c1c696-e921-4d4f-909f-46c10656f9f4"},"vehicle_type_id":"4","last_reported":1771093161,"current_range_meters":24800,"station_id":"ce4bgjp2rcd13ifvqbh0","pricing_plan_id":"cebpf4jnsgd1na2vs0mg"},{"bike_id":"200dba60-64ff-495b-bf3e-1aaaa5c1bea5","system_id":"levelo_inurba_marseille","lat":43.29568,"lon":5.39967,"is_reserved":false,"is_disabled":false,"rental_uris":{"android":"levelo://app?vid=200dba60-64ff-495b-bf3e-1aaaa5c1bea5","ios":"levelo://app?vid=200dba60-64ff-495b-bf3e-1aaaa5c1bea5"},"vehicle_type_id":"4","last_reported":1771093161,"current_range_meters":32800,"station_id":"ce4bh312rcd13ifvqdj0","pricing_plan_id":"cebpf4jnsgd1na2vs0mg"},{"bike_id":"99384fa8-8131-47f2-9fd1-057dab2586bd","system_id":"levelo_inurba_marseille","lat":43.26195,"lon":5.37479,"is_reserved":false,"is_disabled":false,"rental_uris":{"android":"levelo://app?vid=99384fa8-8131-47f2-9fd1-057dab2586bd","ios":"levelo://app?vid=99384fa8-8131-47f2-9fd1-057dab2586bd"},"vehicle_type_id":"4","last_reported":1771093161,"current_range_meters":8400,"station_id":"ce4bhgp2rcd13ifvqfc0","pricing_plan_id":"cebpf4jnsgd1na2vs0mg"},{"bike_id":"0b926697-0f69-4d9c-96bc-ecf9afd2a015","system_id":"levelo_inurba_marseille","lat":43.27331,"lon":5.39093,"is_reserved":false,"is_disabled":false,"rental_uris":{"android":"levelo://app?vid=0b926697-0f69-4d9c-96bc-ecf9afd2a015","ios":"levelo://app?vid=0b926697-0f69-4d9c-96bc-ecf9afd2a015"},"vehicle_type_id":"4","last_reported":1771093161,"current_range_meters":12800,"station_id":"ce4bhgp2rcd13ifvqfe0","pricing_plan_id":"cebpf4jnsgd1na2vs0mg"},{"bike_id":"7d2994b4-ea66-4163-8ecd-049fab9117d1","system_id":"levelo_inurba_marseille","lat":43.273112,"lon":5.39091,"is_reserved":false,"is_disabled":false,"rental_uris":{"android":"levelo://app?vid=7d2994b4-ea66-4163-8ecd-049fab9117d1","ios":"levelo://app?vid=7d2994b4-ea66-4163-8ecd-049fab9117d1"},"vehicle_type_id":"4","last_reported":1771093161,"current_range_meters":30000,"station_id":"ce4bhgp2rcd13ifvqfe0","pricing_plan_id":"cebpf4jnsgd1na2vs0mg"},{"bike_id":"f9b7ecb3-1b5d-4df7-8ede-b80d1f79d210","system_id":"levelo_inurba_marseille","lat":43.30417,"lon":5.4128,"is_reserved":false,"is_disabled":false,"rental_uris":{"android":"levelo://app?vid=f9b7ecb3-1b5d-4df7-8ede-b80d1f79d210","ios":"levelo://app?vid=f9b7ecb3-1b5d-4df7-8ede-b80d1f79d210"},"vehicle_type_id":"4","last_reported":1771093161,"current_range_meters":18800,"station_id":"ce4bhop2rcd13ifvqh8g","pricing_plan_id":"cebpf4jnsgd1na2vs0mg"},{"bike_id":"51edabd8-d880-4933-94c4-df692d07b113","system_id":"levelo_inurba_marseille","lat":43.28845,"lon":5.39309,"is_reserved":false,"is_disabled":false,"rental_uris":{"android":"levelo://app?vid=51edabd8-d880-4933-94c4-df692d07b113","ios":"levelo://app?vid=51edabd8-d880-4933-94c4-df692d07b113"},"vehicle_type_id":"4","last_reported":1771093161,"current_range_meters":33200,"station_id":"ce4bh2p2rcd13ifvqdi0","pricing_plan_id":"cebpf4jnsgd1na2vs0mg"},{"bike_id":"d6d5d12a-80c0-4acd-bbde-41f77c6e52d4","system_id":"levelo_inurba_marseille","lat":43.27208,"lon":5.39193,"is_reserved":false,"is_disabled":true,"rental_uris":{"android":"levelo://app?vid=d6d5d12a-80c0-4acd-bbde-41f77c6e52d4","ios":"levelo://app?vid=d6d5d12a-80c0-4acd-bbde-41f77c6e52d4"},"vehicle_type_id":"4","last_reported":1771093161,"current_range_meters":24400,"station_id":"ce4bhhp2rcd13ifvqfm0","pricing_plan_id":"cebpf4jnsgd1na2vs0mg"},{"bike_id":"4428cbdd-585e-4675-8410-230d49940346","system_id":"levelo_inurba_marseille","lat":43.26951,"lon":5.40275,"is_reserved":false,"is_disabled":false,"rental_uris":{"android":"levelo://app?vid=4428cbdd-585e-4675-8410-230d49940346","ios":"levelo://app?vid=4428cbdd-585e-4675-8410-230d49940346"},"vehicle_type_id":"4","last_reported":1771093161,"current_range_meters":6800,"station_id":"cjm6bp8fraef2m0cb0m0","pricing_plan_id":"cebpf4jnsgd1na2vs0mg"},{"bike_id":"3e3231f6-7f34-4e79-a208-8e160f324ca7","system_id":"levelo_inurba_marseille","lat":43.31128,"lon":5.3776,"is_reserved":false,"is_disabled":false,"rental_uris":{"android":"levelo://app?vid=3e3231f6-7f34-4e79-a208-8e160f324ca7","ios":"levelo://app?vid=3e3231f6-7f34-4e79-a208-8e160f324ca7"},"vehicle_type_id":"4","last_reported":1771093161,"current_range_meters":10800,"station_id":"ce4bgt92rcd13ifvqcg0","pricing_plan_id":"cebpf4jnsgd1na2vs0mg"},{"bike_id":"9e9bde6e-784b-42b8-a576-035499c1e654","system_id":"levelo_inurba_marseille","lat":43.31066,"lon":5.37177,"is_reserved":false,"is_disabled":false,"rental_uris":{"android":"levelo://app?vid=9e9bde6e-784b-42b8-a576-035499c1e654","ios":"levelo://app?vid=9e9bde6e-784b-42b8-a576-035499c1e654"},"vehicle_type_id":"4","last_reported":1771093161,"current_range_meters":38000,"station_id":"st_d4kl2rp97mjs73e7tdfg","pricing_plan_id":"cebpf4jnsgd1na2vs0mg"},{"bike_id":"5bfd12d5-9503-4f7a-a68b-ee68a409207a","system_id":"levelo_inurba_marseille","lat":43.305591,"lon":5.365035,"is_reserved":false,"is_disabled":false,"rental_uris":{"android":"levelo://app?vid=5bfd12d5-9503-4f7a-a68b-ee68a409207a","ios":"levelo://app?vid=5bfd12d5-9503-4f7a-a68b-ee68a409207a"},"vehicle_type_id":"4","last_reported":1771093161,"current_range_meters":27600,"station_id":"ce4bgs12rcd13ifvqcag","pricing_plan_id":"cebpf4jnsgd1na2vs0mg"},{"bike_id":"a46aecc8-ddbf-4d38-8fca-e7b0d84d76af","system_id":"levelo_inurba_marseille","lat":43.26791,"lon":5.39415,"is_reserved":false,"is_disabled":false,"rental_uris":{"android":"levelo://app?vid=a46aecc8-ddbf-4d38-8fca-e7b0d84d76af","ios":"levelo://app?vid=a46aecc8-ddbf-4d38-8fca-e7b0d84d76af"},"vehicle_type_id":"4","last_reported":1771093161,"current_range_meters":38400,"station_id":"ce4bhh12rcd13ifvqfg0","pricing_plan_id":"cebpf4jnsgd1na2vs0mg"},{"bike_id":"bfd89baa-fbc2-45c5-8b74-3d61cb004f40","system_id":"levelo_inurba_marseille","lat":43.23806,"lon":5.36613,"is_reserved":false,"is_disabled":false,"rental_uris":{"android":"levelo://app?vid=bfd89baa-fbc2-45c5-8b74-3d61cb004f40","ios":"levelo://app?vid=bfd89baa-fbc2-45c5-8b74-3d61cb004f40"},"vehicle_type_id":"4","last_reported":1771093161,"current_range_meters":38400,"station_id":"","pricing_plan_id":"cebpf4jnsgd1na2vs0mg"},{"bike_id":"013e9e96-8726-4b53-8270-2c90ec0c2339","system_id":"levelo_inurba_marseille","lat":43.28613,"lon":5.35101,"is_reserved":false,"is_disabled":false,"rental_uris":{"android":"levelo://app?vid=013e9e96-8726-4b53-8270-2c90ec0c2339","ios":"levelo://app?vid=013e9e96-8726-4b53-8270-2c90ec0c2339"},"vehicle_type_id":"4","last_reported":1771093161,"current_range_meters":32000,"station_id":"ce4bhch2rcd13ifvqeug","pricing_plan_id":"cebpf4jnsgd1na2vs0mg"},{"bike_id":"286b2511-c966-4c10-bfda-5309b12fb37b","system_id":"levelo_inurba_marseille","lat":43.29003,"lon":5.35609,"is_reserved":false,"is_disabled":false,"rental_uris":{"android":"levelo://app?vid=286b2511-c966-4c10-bfda-5309b12fb37b","ios":"levelo://app?vid=286b2511-c966-4c10-bfda-5309b12fb37b"},"vehicle_type_id":"4","last_reported":1771093161,"current_range_meters":39200,"station_id":"ce4bhb92rcd13ifvqen0","pricing_plan_id":"cebpf4jnsgd1na2vs0mg"},{"bike_id":"f5434e60-9872-4540-b63c-36364c85354e","system_id":"levelo_inurba_marseille","lat":43.27942,"lon":5.41047,"is_reserved":false,"is_disabled":false,"rental_uris":{"android":"levelo://app?vid=f5434e60-9872-4540-b63c-36364c85354e","ios":"levelo://app?vid=f5434e60-9872-4540-b63c-36364c85354e"},"vehicle_type_id":"4","last_reported":1771093161,"current_range_meters":26000,"station_id":"ce4bhnp2rcd13ifvqh0g","pricing_plan_id":"cebpf4jnsgd1na2vs0mg"},{"bike_id":"73746e6b-3a17-44f4-8dd7-7ef243b28100","system_id":"levelo_inurba_marseille","lat":43.30204,"lon":5.38041,"is_reserved":false,"is_disabled":false,"rental_uris":{"android":"levelo://app?vid=73746e6b-3a17-44f4-8dd7-7ef243b28100","ios":"levelo://app?vid=73746e6b-3a17-44f4-8dd7-7ef243b28100"},"vehicle_type_id":"4","last_reported":1771093161,"current_range_meters":37600,"station_id":"","pricing_plan_id":"cebpf4jnsgd1na2vs0mg"},{"bike_id":"0f348861-a63a-4c58-a4a6-4e6046ace397","system_id":"levelo_inurba_marseille","lat":43.284198,"lon":5.391919,"is_reserved":false,"is_disabled":false,"rental_uris":{"android":"levelo://app?vid=0f348861-a63a-4c58-a4a6-4e6046ace397","ios":"levelo://app?vid=0f348861-a63a-4c58-a4a6-4e6046ace397"},"vehicle_type_id":"4","last_reported":1771093161,"current_range_meters":28000,"station_id":"ce4bhoh2rcd13ifvqh5g","pricing_plan_id":"cebpf4jnsgd1na2vs0mg"},{"bike_id":"1ba32285-8863-4eb8-8508-04a2701aeb60","system_id":"levelo_inurba_marseille","lat":43.27387,"lon":5.39411,"is_reserved":false,"is_disabled":false,"rental_uris":{"android":"levelo://app?vid=1ba32285-8863-4eb8-8508-04a2701aeb60","ios":"levelo://app?vid=1ba32285-8863-4eb8-8508-04a2701aeb60"},"vehicle_type_id":"4","last_reported":1771093161,"current_range_meters":36000,"station_id":"ce4bhdp2rcd13ifvqf20","pricing_plan_id":"cebpf4jnsgd1na2vs0mg"},{"bike_id":"898a8ca9-6705-4da8-8ec2-d4fe3b517c7c","system_id":"levelo_inurba_marseille","lat":43.28112,"lon":5.37865,"is_reserved":false,"is_disabled":false,"rental_uris":{"android":"levelo://app?vid=898a8ca9-6705-4da8-8ec2-d4fe3b517c7c","ios":"levelo://app?vid=898a8ca9-6705-4da8-8ec2-d4fe3b517c7c"},"vehicle_type_id":"4","last_reported":1771093161,"current_range_meters":12800,"station_id":"ce4bha12rcd13ifvqee0","pricing_plan_id":"cebpf4jnsgd1na2vs0mg"},{"bike_id":"ecd273f0-a6f0-460f-9618-3f807a1dc212","system_id":"levelo_inurba_marseille","lat":43.30529,"lon":5.36536,"is_reserved":false,"is_disabled":false,"rental_uris":{"android":"levelo://app?vid=ecd273f0-a6f0-460f-9618-3f807a1dc212","ios":"levelo://app?vid=ecd273f0-a6f0-460f-9618-3f807a1dc212"},"vehicle_type_id":"4","last_reported":1771093161,"current_range_meters":33600,"station_id":"ce4bgs12rcd13ifvqcag","pricing_plan_id":"cebpf4jnsgd1na2vs0mg"},{"bike_id":"70b9947a-e606-4985-8776-bd5e94c33ba1","system_id":"levelo_inurba_marseille","lat":43.27818,"lon":5.40727,"is_reserved":false,"is_disabled":false,"rental_uris":{"android":"levelo://app?vid=70b9947a-e606-4985-8776-bd5e94c33ba1","ios":"levelo://app?vid=70b9947a-e606-4985-8776-bd5e94c33ba1"},"vehicle_type_id":"4","last_reported":1771093161,"current_range_meters":38000,"station_id":"ce4bhnh2rcd13ifvqgtg","pricing_plan_id":"cebpf4jnsgd1na2vs0mg"},{"bike_id":"5ebe73de-2cf7-4bc4-9047-e5658e66ceb9","system_id":"levelo_inurba_marseille","lat":43.24174,"lon":5.36403,"is_reserved":false,"is_disabled":true,"rental_uris":{"android":"levelo://app?vid=5ebe73de-2cf7-4bc4-9047-e5658e66ceb9","ios":"levelo://app?vid=5ebe73de-2cf7-4bc4-9047-e5658e66ceb9"},"vehicle_type_id":"4","last_reported":1771093161,"current_range_meters":19200,"station_id":"cpo36qri1sfpv3e86is0","pricing_plan_id":"cebpf4jnsgd1na2vs0mg"},{"bike_id":"11aa1de8-c2d3-407d-bb33-61409df04ca8","system_id":"levelo_inurba_marseille","lat":43.30054,"lon":5.37816,"is_reserved":false,"is_disabled":false,"rental_uris":{"android":"levelo://app?vid=11aa1de8-c2d3-407d-bb33-61409df04ca8","ios":"levelo://app?vid=11aa1de8-c2d3-407d-bb33-61409df04ca8"},"vehicle_type_id":"4","last_reported":1771093161,"current_range_meters":6800,"station_id":"","pricing_plan_id":"cebpf4jnsgd1na2vs0mg"},{"bike_id":"1fbfb81e-5f6b-43fc-b9df-ceac44c3d32d","system_id":"levelo_inurba_marseille","lat":43.29638,"lon":5.40591,"is_reserved":false,"is_disabled":false,"rental_uris":{"android":"levelo://app?vid=1fbfb81e-5f6b-43fc-b9df-ceac44c3d32d","ios":"levelo://app?vid=1fbfb81e-5f6b-43fc-b9df-ceac44c3d32d"},"vehicle_type_id":"4","last_reported":1771093161,"current_range_meters":28000,"station_id":"ce4bh0h2rcd13ifvqd60","pricing_plan_id":"cebpf4jnsgd1na2vs0mg"},{"bike_id":"ed8b5fe8-1920-4dfd-97af-072031019259","system_id":"levelo_inurba_marseille","lat":43.26372,"lon":5.41071,"is_reserved":false,"is_disabled":false,"rental_uris":{"android":"levelo://app?vid=ed8b5fe8-1920-4dfd-97af-072031019259","ios":"levelo://app?vid=ed8b5fe8-1920-4dfd-97af-072031019259"},"vehicle_type_id":"4","last_reported":1771093161,"current_range_meters":36000,"station_id":"st_d4e5ca6na9uc73bfl5fg","pricing_plan_id":"cebpf4jnsgd1na2vs0mg"},{"bike_id":"dbf3adce-f756-48be-8142-94bd2d254eea","system_id":"levelo_inurba_marseille","lat":43.26535,"lon":5.37297,"is_reserved":false,"is_disabled":false,"rental_uris":{"android":"levelo://app?vid=dbf3adce-f756-48be-8142-94bd2d254eea","ios":"levelo://app?vid=dbf3adce-f756-48be-8142-94bd2d254eea"},"vehicle_type_id":"4","last_reported":1771093161,"current_range_meters":16800,"station_id":"ce4bhg12rcd13ifvqf70","pricing_plan_id":"cebpf4jnsgd1na2vs0mg"},{"bike_id":"f300d22b-b3ab-42d6-ad72-e92af3306e75","system_id":"levelo_inurba_marseille","lat":43.310561,"lon":5.371744,"is_reserved":false,"is_disabled":false,"rental_uris":{"android":"levelo://app?vid=f300d22b-b3ab-42d6-ad72-e92af3306e75","ios":"levelo://app?vid=f300d22b-b3ab-42d6-ad72-e92af3306e75"},"vehicle_type_id":"4","last_reported":1771093161,"current_range_meters":15200,"station_id":"st_d4kl2rp97mjs73e7tdfg","pricing_plan_id":"cebpf4jnsgd1na2vs0mg"},{"bike_id":"988b0672-cdd9-4693-9979-18d1861e595f","system_id":"levelo_inurba_marseille","lat":43.29904,"lon":5.37466,"is_reserved":false,"is_disabled":false,"rental_uris":{"android":"levelo://app?vid=988b0672-cdd9-4693-9979-18d1861e595f","ios":"levelo://app?vid=988b0672-cdd9-4693-9979-18d1861e595f"},"vehicle_type_id":"4","last_reported":1771093161,"current_range_meters":38400,"station_id":"ce4bgjh2rcd13ifvqbg0","pricing_plan_id":"cebpf4jnsgd1na2vs0mg"},{"bike_id":"d97604ce-364c-459d-8875-8f54c335d253","system_id":"levelo_inurba_marseille","lat":43.247016,"lon":5.417173,"is_reserved":false,"is_disabled":false,"rental_uris":{"android":"levelo://app?vid=d97604ce-364c-459d-8875-8f54c335d253","ios":"levelo://app?vid=d97604ce-364c-459d-8875-8f54c335d253"},"vehicle_type_id":"4","last_reported":1771093161,"current_range_meters":9600,"station_id":"","pricing_plan_id":"cebpf4jnsgd1na2vs0mg"},{"bike_id":"3278fe3f-c52a-4d2d-864d-2639ee13a3d3","system_id":"levelo_inurba_marseille","lat":43.29856,"lon":5.36277,"is_reserved":false,"is_disabled":false,"rental_uris":{"android":"levelo://app?vid=3278fe3f-c52a-4d2d-864d-2639ee13a3d3","ios":"levelo://app?vid=3278fe3f-c52a-4d2d-864d-2639ee13a3d3"},"vehicle_type_id":"4","last_reported":1771093161,"current_range_meters":35200,"station_id":"ce4bgpp2rcd13ifvqc3g","pricing_plan_id":"cebpf4jnsgd1na2vs0mg"},{"bike_id":"79a7e591-1b27-4aab-b9f7-840e2732a2bc","system_id":"levelo_inurba_marseille","lat":43.31687,"lon":5.40475,"is_reserved":false,"is_disabled":false,"rental_uris":{"android":"levelo://app?vid=79a7e591-1b27-4aab-b9f7-840e2732a2bc","ios":"levelo://app?vid=79a7e591-1b27-4aab-b9f7-840e2732a2bc"},"vehicle_type_id":"4","last_reported":1771093161,"current_range_meters":8000,"station_id":"ce4bh012rcd13ifvqd00","pricing_plan_id":"cebpf4jnsgd1na2vs0mg"},{"bike_id":"36dc7d3c-5233-44e2-b755-1d76f2afb801","system_id":"levelo_inurba_marseille","lat":43.27352,"lon":5.39092,"is_reserved":false,"is_disabled":false,"rental_uris":{"android":"levelo://app?vid=36dc7d3c-5233-44e2-b755-1d76f2afb801","ios":"levelo://app?vid=36dc7d3c-5233-44e2-b755-1d76f2afb801"},"vehicle_type_id":"4","last_reported":1771093161,"current_range_meters":36400,"station_id":"ce4bhgp2rcd13ifvqfe0","pricing_plan_id":"cebpf4jnsgd1na2vs0mg"},{"bike_id":"d9ac65ca-3fcc-4a4a-9622-b63c7de6b93c","system_id":"levelo_inurba_marseille","lat":43.29224,"lon":5.36067,"is_reserved":false,"is_disabled":false,"rental_uris":{"android":"levelo://app?vid=d9ac65ca-3fcc-4a4a-9622-b63c7de6b93c","ios":"levelo://app?vid=d9ac65ca-3fcc-4a4a-9622-b63c7de6b93c"},"vehicle_type_id":"4","last_reported":1771093161,"current_range_meters":23200,"station_id":"ce4bhbh2rcd13ifvqeqg","pricing_plan_id":"cebpf4jnsgd1na2vs0mg"},{"bike_id":"e2af1c4d-36f3-43c0-8ad7-37b86e1a9237","system_id":"levelo_inurba_marseille","lat":43.322926,"lon":5.382714,"is_reserved":false,"is_disabled":false,"rental_uris":{"android":"levelo://app?vid=e2af1c4d-36f3-43c0-8ad7-37b86e1a9237","ios":"levelo://app?vid=e2af1c4d-36f3-43c0-8ad7-37b86e1a9237"},"vehicle_type_id":"4","last_reported":1771093161,"current_range_meters":19200,"station_id":"ce4bhr12rcd13ifvqhqg","pricing_plan_id":"cebpf4jnsgd1na2vs0mg"},{"bike_id":"a97e2597-fe08-4964-a066-1b5c71feea9f","system_id":"levelo_inurba_marseille","lat":43.26784,"lon":5.39421,"is_reserved":false,"is_disabled":false,"rental_uris":{"android":"levelo://app?vid=a97e2597-fe08-4964-a066-1b5c71feea9f","ios":"levelo://app?vid=a97e2597-fe08-4964-a066-1b5c71feea9f"},"vehicle_type_id":"4","last_reported":1771093161,"current_range_meters":8400,"station_id":"ce4bhh12rcd13ifvqfg0","pricing_plan_id":"cebpf4jnsgd1na2vs0mg"},{"bike_id":"1a4d09d3-2e07-4421-b53b-defdf8256512","system_id":"levelo_inurba_marseille","lat":43.312089,"lon":5.368432,"is_reserved":false,"is_disabled":false,"rental_uris":{"android":"levelo://app?vid=1a4d09d3-2e07-4421-b53b-defdf8256512","ios":"levelo://app?vid=1a4d09d3-2e07-4421-b53b-defdf8256512"},"vehicle_type_id":"4","last_reported":1771093161,"current_range_meters":39200,"station_id":"ce4bgl92rcd13ifvqbq0","pricing_plan_id":"cebpf4jnsgd1na2vs0mg"},{"bike_id":"1d3ec2e4-8e9c-4ba8-b7c9-cd48ad6bac10","system_id":"levelo_inurba_marseille","lat":43.29583,"lon":5.36727,"is_reserved":false,"is_disabled":false,"rental_uris":{"android":"levelo://app?vid=1d3ec2e4-8e9c-4ba8-b7c9-cd48ad6bac10","ios":"levelo://app?vid=1d3ec2e4-8e9c-4ba8-b7c9-cd48ad6bac10"},"vehicle_type_id":"4","last_reported":1771093161,"current_range_meters":38400,"station_id":"ce4bgph2rcd13ifvqc2g","pricing_plan_id":"cebpf4jnsgd1na2vs0mg"},{"bike_id":"b7fcb2da-5243-440b-926b-4edc89af4b76","system_id":"levelo_inurba_marseille","lat":43.279905,"lon":5.400058,"is_reserved":false,"is_disabled":false,"rental_uris":{"android":"levelo://app?vid=b7fcb2da-5243-440b-926b-4edc89af4b76","ios":"levelo://app?vid=b7fcb2da-5243-440b-926b-4edc89af4b76"},"vehicle_type_id":"4","last_reported":1771093161,"current_range_meters":25200,"station_id":"ce4bho92rcd13ifvqh4g","pricing_plan_id":"cebpf4jnsgd1na2vs0mg"},{"bike_id":"de23c09b-999d-4731-91c0-faf2e4461159","system_id":"levelo_inurba_marseille","lat":43.29197,"lon":5.36025,"is_reserved":false,"is_disabled":false,"rental_uris":{"android":"levelo://app?vid=de23c09b-999d-4731-91c0-faf2e4461159","ios":"levelo://app?vid=de23c09b-999d-4731-91c0-faf2e4461159"},"vehicle_type_id":"4","last_reported":1771093161,"current_range_meters":15200,"station_id":"ce4bhbh2rcd13ifvqeqg","pricing_plan_id":"cebpf4jnsgd1na2vs0mg"},{"bike_id":"48d4a83c-c716-41c6-8fd3-cb0153dd2afb","system_id":"levelo_inurba_marseille","lat":43.31241,"lon":5.36834,"is_reserved":false,"is_disabled":false,"rental_uris":{"android":"levelo://app?vid=48d4a83c-c716-41c6-8fd3-cb0153dd2afb","ios":"levelo://app?vid=48d4a83c-c716-41c6-8fd3-cb0153dd2afb"},"vehicle_type_id":"4","last_reported":1771093161,"current_range_meters":38400,"station_id":"ce4bgl92rcd13ifvqbq0","pricing_plan_id":"cebpf4jnsgd1na2vs0mg"},{"bike_id":"848cfadd-7d8d-4f61-a4e3-1b97d4d2097e","system_id":"levelo_inurba_marseille","lat":43.29014,"lon":5.37545,"is_reserved":false,"is_disabled":false,"rental_uris":{"android":"levelo://app?vid=848cfadd-7d8d-4f61-a4e3-1b97d4d2097e","ios":"levelo://app?vid=848cfadd-7d8d-4f61-a4e3-1b97d4d2097e"},"vehicle_type_id":"4","last_reported":1771093161,"current_range_meters":38800,"station_id":"ce4bh692rcd13ifvqe90","pricing_plan_id":"cebpf4jnsgd1na2vs0mg"},{"bike_id":"933b7248-5ef0-42e1-b605-37e259392133","system_id":"levelo_inurba_marseille","lat":43.23142,"lon":5.4372,"is_reserved":false,"is_disabled":false,"rental_uris":{"android":"levelo://app?vid=933b7248-5ef0-42e1-b605-37e259392133","ios":"levelo://app?vid=933b7248-5ef0-42e1-b605-37e259392133"},"vehicle_type_id":"4","last_reported":1771093161,"current_range_meters":25600,"station_id":"ce4bhmp2rcd13ifvqgog","pricing_plan_id":"cebpf4jnsgd1na2vs0mg"},{"bike_id":"3b97e5bb-dbba-4f44-a70d-85c7f4a8b4d3","system_id":"levelo_inurba_marseille","lat":43.258601,"lon":5.39877,"is_reserved":false,"is_disabled":false,"rental_uris":{"android":"levelo://app?vid=3b97e5bb-dbba-4f44-a70d-85c7f4a8b4d3","ios":"levelo://app?vid=3b97e5bb-dbba-4f44-a70d-85c7f4a8b4d3"},"vehicle_type_id":"4","last_reported":1771093161,"current_range_meters":38400,"station_id":"ce4bhl92rcd13ifvqghg","pricing_plan_id":"cebpf4jnsgd1na2vs0mg"},{"bike_id":"7cdae2e1-5306-459b-96ab-2c3aaae39e37","system_id":"levelo_inurba_marseille","lat":43.250004,"lon":5.389214,"is_reserved":false,"is_disabled":false,"rental_uris":{"android":"levelo://app?vid=7cdae2e1-5306-459b-96ab-2c3aaae39e37","ios":"levelo://app?vid=7cdae2e1-5306-459b-96ab-2c3aaae39e37"},"vehicle_type_id":"4","last_reported":1771093161,"current_range_meters":38000,"station_id":"ce4bhgp2rcd13ifvqfd0","pricing_plan_id":"cebpf4jnsgd1na2vs0mg"},{"bike_id":"9664a5c4-41bd-49a0-bca7-ccecab569b6a","system_id":"levelo_inurba_marseille","lat":43.32036,"lon":5.41531,"is_reserved":false,"is_disabled":false,"rental_uris":{"android":"levelo://app?vid=9664a5c4-41bd-49a0-bca7-ccecab569b6a","ios":"levelo://app?vid=9664a5c4-41bd-49a0-bca7-ccecab569b6a"},"vehicle_type_id":"4","last_reported":1771093161,"current_range_meters":36800,"station_id":"ce4bhq92rcd13ifvqhkg","pricing_plan_id":"cebpf4jnsgd1na2vs0mg"},{"bike_id":"e24e0972-c821-453e-b616-6bd9e77eb5ba","system_id":"levelo_inurba_marseille","lat":43.31283,"lon":5.40172,"is_reserved":false,"is_disabled":false,"rental_uris":{"android":"levelo://app?vid=e24e0972-c821-453e-b616-6bd9e77eb5ba","ios":"levelo://app?vid=e24e0972-c821-453e-b616-6bd9e77eb5ba"},"vehicle_type_id":"4","last_reported":1771093161,"current_range_meters":39200,"station_id":"ce4bh092rcd13ifvqd30","pricing_plan_id":"cebpf4jnsgd1na2vs0mg"},{"bike_id":"313cd1ab-7d4c-4002-bd96-c740b292ac33","system_id":"levelo_inurba_marseille","lat":43.30465,"lon":5.37903,"is_reserved":false,"is_disabled":false,"rental_uris":{"android":"levelo://app?vid=313cd1ab-7d4c-4002-bd96-c740b292ac33","ios":"levelo://app?vid=313cd1ab-7d4c-4002-bd96-c740b292ac33"},"vehicle_type_id":"4","last_reported":1771093161,"current_range_meters":38000,"station_id":"ce4bgup2rcd13ifvqcn0","pricing_plan_id":"cebpf4jnsgd1na2vs0mg"},{"bike_id":"06ca1e50-0c57-4308-ab33-37f48737feed","system_id":"levelo_inurba_marseille","lat":43.33155,"lon":5.37675,"is_reserved":false,"is_disabled":false,"rental_uris":{"android":"levelo://app?vid=06ca1e50-0c57-4308-ab33-37f48737feed","ios":"levelo://app?vid=06ca1e50-0c57-4308-ab33-37f48737feed"},"vehicle_type_id":"4","last_reported":1771093161,"current_range_meters":22400,"station_id":"st_d46cu089ee8s73dldbu0","pricing_plan_id":"cebpf4jnsgd1na2vs0mg"},{"bike_id":"a40147a5-bbf0-4381-a348-9cea87200b78","system_id":"levelo_inurba_marseille","lat":43.26044,"lon":5.39401,"is_reserved":false,"is_disabled":false,"rental_uris":{"android":"levelo://app?vid=a40147a5-bbf0-4381-a348-9cea87200b78","ios":"levelo://app?vid=a40147a5-bbf0-4381-a348-9cea87200b78"},"vehicle_type_id":"4","last_reported":1771093161,"current_range_meters":18000,"station_id":"ce4bhh92rcd13ifvqfj0","pricing_plan_id":"cebpf4jnsgd1na2vs0mg"},{"bike_id":"cb83813a-9d6f-41e9-a57c-6a0591f5f823","system_id":"levelo_inurba_marseille","lat":43.24064,"lon":5.36428,"is_reserved":false,"is_disabled":false,"rental_uris":{"android":"levelo://app?vid=cb83813a-9d6f-41e9-a57c-6a0591f5f823","ios":"levelo://app?vid=cb83813a-9d6f-41e9-a57c-6a0591f5f823"},"vehicle_type_id":"4","last_reported":1771093161,"current_range_meters":6800,"station_id":"","pricing_plan_id":"cebpf4jnsgd1na2vs0mg"},{"bike_id":"abb5386c-aa85-45f1-b3a9-55f4ea4e4b5b","system_id":"levelo_inurba_marseille","lat":43.24934,"lon":5.40532,"is_reserved":false,"is_disabled":true,"rental_uris":{"android":"levelo://app?vid=abb5386c-aa85-45f1-b3a9-55f4ea4e4b5b","ios":"levelo://app?vid=abb5386c-aa85-45f1-b3a9-55f4ea4e4b5b"},"vehicle_type_id":"4","last_reported":1771093161,"current_range_meters":38800,"station_id":"st_d2ngiaodas8pm72gd1h0","pricing_plan_id":"cebpf4jnsgd1na2vs0mg"},{"bike_id":"0c34be07-a549-4fe4-8afe-40528c966cf2","system_id":"levelo_inurba_marseille","lat":43.29523,"lon":5.37522,"is_reserved":false,"is_disabled":false,"rental_uris":{"android":"levelo://app?vid=0c34be07-a549-4fe4-8afe-40528c966cf2","ios":"levelo://app?vid=0c34be07-a549-4fe4-8afe-40528c966cf2"},"vehicle_type_id":"4","last_reported":1771093161,"current_range_meters":36800,"station_id":"ce4bgkp2rcd13ifvqbmg","pricing_plan_id":"cebpf4jnsgd1na2vs0mg"},{"bike_id":"61d8a691-71b0-4744-89ad-3ec8de31271f","system_id":"levelo_inurba_marseille","lat":43.24807,"lon":5.37449,"is_reserved":false,"is_disabled":false,"rental_uris":{"android":"levelo://app?vid=61d8a691-71b0-4744-89ad-3ec8de31271f","ios":"levelo://app?vid=61d8a691-71b0-4744-89ad-3ec8de31271f"},"vehicle_type_id":"4","last_reported":1771093161,"current_range_meters":40000,"station_id":"ce4bhgh2rcd13ifvqfb0","pricing_plan_id":"cebpf4jnsgd1na2vs0mg"},{"bike_id":"1c552d2a-5637-49d5-bd03-c19868d9f5f0","system_id":"levelo_inurba_marseille","lat":43.27493,"lon":5.42464,"is_reserved":false,"is_disabled":false,"rental_uris":{"android":"levelo://app?vid=1c552d2a-5637-49d5-bd03-c19868d9f5f0","ios":"levelo://app?vid=1c552d2a-5637-49d5-bd03-c19868d9f5f0"},"vehicle_type_id":"4","last_reported":1771093161,"current_range_meters":19200,"station_id":"ce4bhn92rcd13ifvqgrg","pricing_plan_id":"cebpf4jnsgd1na2vs0mg"},{"bike_id":"fe6631d7-8592-4f14-b1e2-87b378997458","system_id":"levelo_inurba_marseille","lat":43.30478,"lon":5.37899,"is_reserved":false,"is_disabled":false,"rental_uris":{"android":"levelo://app?vid=fe6631d7-8592-4f14-b1e2-87b378997458","ios":"levelo://app?vid=fe6631d7-8592-4f14-b1e2-87b378997458"},"vehicle_type_id":"4","last_reported":1771093161,"current_range_meters":8400,"station_id":"ce4bgup2rcd13ifvqcn0","pricing_plan_id":"cebpf4jnsgd1na2vs0mg"},{"bike_id":"bcad26e7-801b-45a3-9a6f-b11851106eac","system_id":"levelo_inurba_marseille","lat":43.28557,"lon":5.38338,"is_reserved":false,"is_disabled":false,"rental_uris":{"android":"levelo://app?vid=bcad26e7-801b-45a3-9a6f-b11851106eac","ios":"levelo://app?vid=bcad26e7-801b-45a3-9a6f-b11851106eac"},"vehicle_type_id":"4","last_reported":1771093161,"current_range_meters":4800,"station_id":"","pricing_plan_id":"cebpf4jnsgd1na2vs0mg"},{"bike_id":"5ef67a63-635b-44b6-aec9-966f703fca84","system_id":"levelo_inurba_marseille","lat":43.24631,"lon":5.38138,"is_reserved":false,"is_disabled":false,"rental_uris":{"android":"levelo://app?vid=5ef67a63-635b-44b6-aec9-966f703fca84","ios":"levelo://app?vid=5ef67a63-635b-44b6-aec9-966f703fca84"},"vehicle_type_id":"4","last_reported":1771093161,"current_range_meters":25600,"station_id":"ce4bhih2rcd13ifvqfr0","pricing_plan_id":"cebpf4jnsgd1na2vs0mg"},{"bike_id":"c6bb24b6-8b85-48ff-b702-d8be2d4e3e81","system_id":"levelo_inurba_marseille","lat":43.29797,"lon":5.40391,"is_reserved":false,"is_disabled":false,"rental_uris":{"android":"levelo://app?vid=c6bb24b6-8b85-48ff-b702-d8be2d4e3e81","ios":"levelo://app?vid=c6bb24b6-8b85-48ff-b702-d8be2d4e3e81"},"vehicle_type_id":"4","last_reported":1771093161,"current_range_meters":6400,"station_id":"ce4bh112rcd13ifvqd90","pricing_plan_id":"cebpf4jnsgd1na2vs0mg"},{"bike_id":"145e6984-28ea-4666-b90f-7d63cfee56d4","system_id":"levelo_inurba_marseille","lat":43.27495,"lon":5.42452,"is_reserved":false,"is_disabled":false,"rental_uris":{"android":"levelo://app?vid=145e6984-28ea-4666-b90f-7d63cfee56d4","ios":"levelo://app?vid=145e6984-28ea-4666-b90f-7d63cfee56d4"},"vehicle_type_id":"4","last_reported":1771093161,"current_range_meters":36800,"station_id":"ce4bhn92rcd13ifvqgrg","pricing_plan_id":"cebpf4jnsgd1na2vs0mg"},{"bike_id":"361472a9-140d-4e92-9e16-c96fbc664522","system_id":"levelo_inurba_marseille","lat":43.24171,"lon":5.36395,"is_reserved":false,"is_disabled":false,"rental_uris":{"android":"levelo://app?vid=361472a9-140d-4e92-9e16-c96fbc664522","ios":"levelo://app?vid=361472a9-140d-4e92-9e16-c96fbc664522"},"vehicle_type_id":"4","last_reported":1771093161,"current_range_meters":12800,"station_id":"cpo36qri1sfpv3e86is0","pricing_plan_id":"cebpf4jnsgd1na2vs0mg"},{"bike_id":"64df615d-ecd9-4b17-a4e3-61d304f85c40","system_id":"levelo_inurba_marseille","lat":43.30924,"lon":5.3684,"is_reserved":false,"is_disabled":false,"rental_uris":{"android":"levelo://app?vid=64df615d-ecd9-4b17-a4e3-61d304f85c40","ios":"levelo://app?vid=64df615d-ecd9-4b17-a4e3-61d304f85c40"},"vehicle_type_id":"4","last_reported":1771093161,"current_range_meters":23200,"station_id":"ce4bgn92rcd13ifvqbvg","pricing_plan_id":"cebpf4jnsgd1na2vs0mg"},{"bike_id":"b77a166e-28e9-4c4b-b08e-f3d507ffb2ce","system_id":"levelo_inurba_marseille","lat":43.29229,"lon":5.36067,"is_reserved":false,"is_disabled":false,"rental_uris":{"android":"levelo://app?vid=b77a166e-28e9-4c4b-b08e-f3d507ffb2ce","ios":"levelo://app?vid=b77a166e-28e9-4c4b-b08e-f3d507ffb2ce"},"vehicle_type_id":"4","last_reported":1771093161,"current_range_meters":40000,"station_id":"ce4bhbh2rcd13ifvqeqg","pricing_plan_id":"cebpf4jnsgd1na2vs0mg"},{"bike_id":"d7c5fdee-2602-490a-9d69-969ff4ce5ada","system_id":"levelo_inurba_marseille","lat":43.3057,"lon":5.36539,"is_reserved":false,"is_disabled":false,"rental_uris":{"android":"levelo://app?vid=d7c5fdee-2602-490a-9d69-969ff4ce5ada","ios":"levelo://app?vid=d7c5fdee-2602-490a-9d69-969ff4ce5ada"},"vehicle_type_id":"4","last_reported":1771093161,"current_range_meters":26000,"station_id":"ce4bgs12rcd13ifvqcag","pricing_plan_id":"cebpf4jnsgd1na2vs0mg"},{"bike_id":"cbf37f8a-df9c-40a2-9e19-e5a5806b2bf4","system_id":"levelo_inurba_marseille","lat":43.31363,"lon":5.38501,"is_reserved":false,"is_disabled":false,"rental_uris":{"android":"levelo://app?vid=cbf37f8a-df9c-40a2-9e19-e5a5806b2bf4","ios":"levelo://app?vid=cbf37f8a-df9c-40a2-9e19-e5a5806b2bf4"},"vehicle_type_id":"4","last_reported":1771093161,"current_range_meters":5600,"station_id":"ce4bgt92rcd13ifvqcf0","pricing_plan_id":"cebpf4jnsgd1na2vs0mg"},{"bike_id":"14e2d3fb-6c68-42f9-a053-741cc12027ec","system_id":"levelo_inurba_marseille","lat":43.24552,"lon":5.39524,"is_reserved":false,"is_disabled":true,"rental_uris":{"android":"levelo://app?vid=14e2d3fb-6c68-42f9-a053-741cc12027ec","ios":"levelo://app?vid=14e2d3fb-6c68-42f9-a053-741cc12027ec"},"vehicle_type_id":"4","last_reported":1771093161,"current_range_meters":9600,"station_id":"ce4bhlp2rcd13ifvqgjg","pricing_plan_id":"cebpf4jnsgd1na2vs0mg"},{"bike_id":"73543d5f-6f9c-459a-aefb-7a4e0887aaf6","system_id":"levelo_inurba_marseille","lat":43.26031,"lon":5.3753,"is_reserved":false,"is_disabled":false,"rental_uris":{"android":"levelo://app?vid=73543d5f-6f9c-459a-aefb-7a4e0887aaf6","ios":"levelo://app?vid=73543d5f-6f9c-459a-aefb-7a4e0887aaf6"},"vehicle_type_id":"4","last_reported":1771093161,"current_range_meters":24800,"station_id":"ce4bhgh2rcd13ifvqfa0","pricing_plan_id":"cebpf4jnsgd1na2vs0mg"},{"bike_id":"b3c53512-ce8b-45c6-8fec-85f9905a50ea","system_id":"levelo_inurba_marseille","lat":43.2917,"lon":5.37158,"is_reserved":false,"is_disabled":false,"rental_uris":{"android":"levelo://app?vid=b3c53512-ce8b-45c6-8fec-85f9905a50ea","ios":"levelo://app?vid=b3c53512-ce8b-45c6-8fec-85f9905a50ea"},"vehicle_type_id":"4","last_reported":1771093161,"current_range_meters":35600,"station_id":"ce4bha92rcd13ifvqeh0","pricing_plan_id":"cebpf4jnsgd1na2vs0mg"},{"bike_id":"ea242731-bb24-458a-9022-43fb4748f728","system_id":"levelo_inurba_marseille","lat":43.24161,"lon":5.36396,"is_reserved":false,"is_disabled":false,"rental_uris":{"android":"levelo://app?vid=ea242731-bb24-458a-9022-43fb4748f728","ios":"levelo://app?vid=ea242731-bb24-458a-9022-43fb4748f728"},"vehicle_type_id":"4","last_reported":1771093161,"current_range_meters":14800,"station_id":"cpo36qri1sfpv3e86is0","pricing_plan_id":"cebpf4jnsgd1na2vs0mg"},{"bike_id":"4e747478-3a48-4d07-9bc5-b98208be83e6","system_id":"levelo_inurba_marseille","lat":43.260506,"lon":5.393872,"is_reserved":false,"is_disabled":false,"rental_uris":{"android":"levelo://app?vid=4e747478-3a48-4d07-9bc5-b98208be83e6","ios":"levelo://app?vid=4e747478-3a48-4d07-9bc5-b98208be83e6"},"vehicle_type_id":"4","last_reported":1771093161,"current_range_meters":38400,"station_id":"ce4bhh92rcd13ifvqfj0","pricing_plan_id":"cebpf4jnsgd1na2vs0mg"},{"bike_id":"e723a4fd-e349-4d5f-bf97-7d0c070b4f89","system_id":"levelo_inurba_marseille","lat":43.25511,"lon":5.37628,"is_reserved":false,"is_disabled":false,"rental_uris":{"android":"levelo://app?vid=e723a4fd-e349-4d5f-bf97-7d0c070b4f89","ios":"levelo://app?vid=e723a4fd-e349-4d5f-bf97-7d0c070b4f89"},"vehicle_type_id":"4","last_reported":1771093161,"current_range_meters":38000,"station_id":"ce4bhh12rcd13ifvqff0","pricing_plan_id":"cebpf4jnsgd1na2vs0mg"},{"bike_id":"8bd0a92f-17cd-4bc9-99eb-6b0f4346de24","system_id":"levelo_inurba_marseille","lat":43.23986,"lon":5.36638,"is_reserved":false,"is_disabled":false,"rental_uris":{"android":"levelo://app?vid=8bd0a92f-17cd-4bc9-99eb-6b0f4346de24","ios":"levelo://app?vid=8bd0a92f-17cd-4bc9-99eb-6b0f4346de24"},"vehicle_type_id":"4","last_reported":1771093161,"current_range_meters":28000,"station_id":"ce4bhi12rcd13ifvqfp0","pricing_plan_id":"cebpf4jnsgd1na2vs0mg"},{"bike_id":"ea011823-818b-4fc8-908d-6af3733ca706","system_id":"levelo_inurba_marseille","lat":43.29008,"lon":5.38128,"is_reserved":false,"is_disabled":false,"rental_uris":{"android":"levelo://app?vid=ea011823-818b-4fc8-908d-6af3733ca706","ios":"levelo://app?vid=ea011823-818b-4fc8-908d-6af3733ca706"},"vehicle_type_id":"4","last_reported":1771093161,"current_range_meters":34800,"station_id":"ce4bh4p2rcd13ifvqe1g","pricing_plan_id":"cebpf4jnsgd1na2vs0mg"},{"bike_id":"2b7196d5-043e-43df-80bf-41338c159b1b","system_id":"levelo_inurba_marseille","lat":43.29229,"lon":5.3843,"is_reserved":false,"is_disabled":false,"rental_uris":{"android":"levelo://app?vid=2b7196d5-043e-43df-80bf-41338c159b1b","ios":"levelo://app?vid=2b7196d5-043e-43df-80bf-41338c159b1b"},"vehicle_type_id":"4","last_reported":1771093161,"current_range_meters":12800,"station_id":"ce4bh692rcd13ifvqea0","pricing_plan_id":"cebpf4jnsgd1na2vs0mg"},{"bike_id":"cc9be124-54a5-4927-a146-e3a08ef99a81","system_id":"levelo_inurba_marseille","lat":43.30484,"lon":5.37893,"is_reserved":false,"is_disabled":false,"rental_uris":{"android":"levelo://app?vid=cc9be124-54a5-4927-a146-e3a08ef99a81","ios":"levelo://app?vid=cc9be124-54a5-4927-a146-e3a08ef99a81"},"vehicle_type_id":"4","last_reported":1771093161,"current_range_meters":8400,"station_id":"ce4bgup2rcd13ifvqcn0","pricing_plan_id":"cebpf4jnsgd1na2vs0mg"},{"bike_id":"eb44234b-26ab-47b4-aea9-8e809a44c232","system_id":"levelo_inurba_marseille","lat":43.26573,"lon":5.39033,"is_reserved":false,"is_disabled":false,"rental_uris":{"android":"levelo://app?vid=eb44234b-26ab-47b4-aea9-8e809a44c232","ios":"levelo://app?vid=eb44234b-26ab-47b4-aea9-8e809a44c232"},"vehicle_type_id":"4","last_reported":1771093161,"current_range_meters":14800,"station_id":"ce4bhe12rcd13ifvqf30","pricing_plan_id":"cebpf4jnsgd1na2vs0mg"},{"bike_id":"16d4a2c7-61e9-4b8a-84fe-640db211eb37","system_id":"levelo_inurba_marseille","lat":43.27969,"lon":5.38739,"is_reserved":false,"is_disabled":false,"rental_uris":{"android":"levelo://app?vid=16d4a2c7-61e9-4b8a-84fe-640db211eb37","ios":"levelo://app?vid=16d4a2c7-61e9-4b8a-84fe-640db211eb37"},"vehicle_type_id":"4","last_reported":1771093161,"current_range_meters":24000,"station_id":"ce4bhg12rcd13ifvqf80","pricing_plan_id":"cebpf4jnsgd1na2vs0mg"},{"bike_id":"e270a431-c207-4f99-9157-e5b8d25f8039","system_id":"levelo_inurba_marseille","lat":43.27575,"lon":5.38404,"is_reserved":false,"is_disabled":false,"rental_uris":{"android":"levelo://app?vid=e270a431-c207-4f99-9157-e5b8d25f8039","ios":"levelo://app?vid=e270a431-c207-4f99-9157-e5b8d25f8039"},"vehicle_type_id":"4","last_reported":1771093161,"current_range_meters":20800,"station_id":"","pricing_plan_id":"cebpf4jnsgd1na2vs0mg"},{"bike_id":"934caa29-0161-4971-84cb-62c254c7612b","system_id":"levelo_inurba_marseille","lat":43.28087,"lon":5.37849,"is_reserved":false,"is_disabled":false,"rental_uris":{"android":"levelo://app?vid=934caa29-0161-4971-84cb-62c254c7612b","ios":"levelo://app?vid=934caa29-0161-4971-84cb-62c254c7612b"},"vehicle_type_id":"4","last_reported":1771093161,"current_range_meters":31200,"station_id":"ce4bha12rcd13ifvqee0","pricing_plan_id":"cebpf4jnsgd1na2vs0mg"},{"bike_id":"333ac3f2-d598-4322-8aaf-ae40241095fa","system_id":"levelo_inurba_marseille","lat":43.28619,"lon":5.35099,"is_reserved":false,"is_disabled":false,"rental_uris":{"android":"levelo://app?vid=333ac3f2-d598-4322-8aaf-ae40241095fa","ios":"levelo://app?vid=333ac3f2-d598-4322-8aaf-ae40241095fa"},"vehicle_type_id":"4","last_reported":1771093161,"current_range_meters":20800,"station_id":"ce4bhch2rcd13ifvqeug","pricing_plan_id":"cebpf4jnsgd1na2vs0mg"},{"bike_id":"10c2514e-3e10-48b8-b25f-5593fed86aaf","system_id":"levelo_inurba_marseille","lat":43.28622,"lon":5.3509,"is_reserved":false,"is_disabled":false,"rental_uris":{"android":"levelo://app?vid=10c2514e-3e10-48b8-b25f-5593fed86aaf","ios":"levelo://app?vid=10c2514e-3e10-48b8-b25f-5593fed86aaf"},"vehicle_type_id":"4","last_reported":1771093161,"current_range_meters":28800,"station_id":"ce4bhch2rcd13ifvqeug","pricing_plan_id":"cebpf4jnsgd1na2vs0mg"},{"bike_id":"77d97ba8-97db-4bc9-8294-a1d06adce358","system_id":"levelo_inurba_marseille","lat":43.27498,"lon":5.42446,"is_reserved":false,"is_disabled":false,"rental_uris":{"android":"levelo://app?vid=77d97ba8-97db-4bc9-8294-a1d06adce358","ios":"levelo://app?vid=77d97ba8-97db-4bc9-8294-a1d06adce358"},"vehicle_type_id":"4","last_reported":1771093161,"current_range_meters":24400,"station_id":"ce4bhn92rcd13ifvqgrg","pricing_plan_id":"cebpf4jnsgd1na2vs0mg"},{"bike_id":"2e890998-6b11-4d43-89b1-bf06a6d503ec","system_id":"levelo_inurba_marseille","lat":43.2511,"lon":5.40329,"is_reserved":false,"is_disabled":false,"rental_uris":{"android":"levelo://app?vid=2e890998-6b11-4d43-89b1-bf06a6d503ec","ios":"levelo://app?vid=2e890998-6b11-4d43-89b1-bf06a6d503ec"},"vehicle_type_id":"4","last_reported":1771093161,"current_range_meters":35600,"station_id":"ce4bhlh2rcd13ifvqgig","pricing_plan_id":"cebpf4jnsgd1na2vs0mg"},{"bike_id":"a75398a4-d0b6-4900-9674-fe78395921f4","system_id":"levelo_inurba_marseille","lat":43.30559,"lon":5.36709,"is_reserved":false,"is_disabled":false,"rental_uris":{"android":"levelo://app?vid=a75398a4-d0b6-4900-9674-fe78395921f4","ios":"levelo://app?vid=a75398a4-d0b6-4900-9674-fe78395921f4"},"vehicle_type_id":"4","last_reported":1771093161,"current_range_meters":36000,"station_id":"ce4bgrp2rcd13ifvqc9g","pricing_plan_id":"cebpf4jnsgd1na2vs0mg"},{"bike_id":"a77345a9-e5b0-4403-ada7-987def1f512a","system_id":"levelo_inurba_marseille","lat":43.31238,"lon":5.36873,"is_reserved":false,"is_disabled":false,"rental_uris":{"android":"levelo://app?vid=a77345a9-e5b0-4403-ada7-987def1f512a","ios":"levelo://app?vid=a77345a9-e5b0-4403-ada7-987def1f512a"},"vehicle_type_id":"4","last_reported":1771093161,"current_range_meters":32400,"station_id":"ce4bgl92rcd13ifvqbq0","pricing_plan_id":"cebpf4jnsgd1na2vs0mg"},{"bike_id":"b32b0732-e4d0-4f51-ba0c-c2f5e5ffe7be","system_id":"levelo_inurba_marseille","lat":43.2833,"lon":5.38933,"is_reserved":false,"is_disabled":false,"rental_uris":{"android":"levelo://app?vid=b32b0732-e4d0-4f51-ba0c-c2f5e5ffe7be","ios":"levelo://app?vid=b32b0732-e4d0-4f51-ba0c-c2f5e5ffe7be"},"vehicle_type_id":"4","last_reported":1771093161,"current_range_meters":32800,"station_id":"","pricing_plan_id":"cebpf4jnsgd1na2vs0mg"},{"bike_id":"899ca28e-3727-433f-b491-eafb0d972b92","system_id":"levelo_inurba_marseille","lat":43.30147,"lon":5.38083,"is_reserved":false,"is_disabled":false,"rental_uris":{"android":"levelo://app?vid=899ca28e-3727-433f-b491-eafb0d972b92","ios":"levelo://app?vid=899ca28e-3727-433f-b491-eafb0d972b92"},"vehicle_type_id":"4","last_reported":1771093161,"current_range_meters":27600,"station_id":"ce4bgjp2rcd13ifvqbh0","pricing_plan_id":"cebpf4jnsgd1na2vs0mg"},{"bike_id":"cf6ef408-8a1a-4303-bd6d-466ea0d58ae4","system_id":"levelo_inurba_marseille","lat":43.21216,"lon":5.35026,"is_reserved":false,"is_disabled":false,"rental_uris":{"android":"levelo://app?vid=cf6ef408-8a1a-4303-bd6d-466ea0d58ae4","ios":"levelo://app?vid=cf6ef408-8a1a-4303-bd6d-466ea0d58ae4"},"vehicle_type_id":"4","last_reported":1771093161,"current_range_meters":6800,"station_id":"","pricing_plan_id":"cebpf4jnsgd1na2vs0mg"},{"bike_id":"6c1670a3-1e20-4c53-b1d2-9cd30e4cf558","system_id":"levelo_inurba_marseille","lat":43.31775,"lon":5.39008,"is_reserved":false,"is_disabled":false,"rental_uris":{"android":"levelo://app?vid=6c1670a3-1e20-4c53-b1d2-9cd30e4cf558","ios":"levelo://app?vid=6c1670a3-1e20-4c53-b1d2-9cd30e4cf558"},"vehicle_type_id":"4","last_reported":1771093161,"current_range_meters":2800,"station_id":"ce4bhqp2rcd13ifvqhng","pricing_plan_id":"cebpf4jnsgd1na2vs0mg"},{"bike_id":"029095d6-f5ef-4b5f-ad14-4eec792bb058","system_id":"levelo_inurba_marseille","lat":43.30595,"lon":5.39357,"is_reserved":false,"is_disabled":false,"rental_uris":{"android":"levelo://app?vid=029095d6-f5ef-4b5f-ad14-4eec792bb058","ios":"levelo://app?vid=029095d6-f5ef-4b5f-ad14-4eec792bb058"},"vehicle_type_id":"4","last_reported":1771093161,"current_range_meters":38800,"station_id":"ce4bh0p2rcd13ifvqd80","pricing_plan_id":"cebpf4jnsgd1na2vs0mg"},{"bike_id":"a7130ffe-4d61-43e7-a861-09cec3ea2729","system_id":"levelo_inurba_marseille","lat":43.268076,"lon":5.402656,"is_reserved":false,"is_disabled":false,"rental_uris":{"android":"levelo://app?vid=a7130ffe-4d61-43e7-a861-09cec3ea2729","ios":"levelo://app?vid=a7130ffe-4d61-43e7-a861-09cec3ea2729"},"vehicle_type_id":"4","last_reported":1771093161,"current_range_meters":20800,"station_id":"ce501612rcd8frsf0b60","pricing_plan_id":"cebpf4jnsgd1na2vs0mg"},{"bike_id":"0c80795d-6295-47a7-b146-ecef43f63ee2","system_id":"levelo_inurba_marseille","lat":43.309085,"lon":5.368421,"is_reserved":false,"is_disabled":false,"rental_uris":{"android":"levelo://app?vid=0c80795d-6295-47a7-b146-ecef43f63ee2","ios":"levelo://app?vid=0c80795d-6295-47a7-b146-ecef43f63ee2"},"vehicle_type_id":"4","last_reported":1771093161,"current_range_meters":39200,"station_id":"ce4bgn92rcd13ifvqbvg","pricing_plan_id":"cebpf4jnsgd1na2vs0mg"},{"bike_id":"766ba40c-080a-46d0-a08f-660e07520b61","system_id":"levelo_inurba_marseille","lat":43.292693,"lon":5.368396,"is_reserved":false,"is_disabled":false,"rental_uris":{"android":"levelo://app?vid=766ba40c-080a-46d0-a08f-660e07520b61","ios":"levelo://app?vid=766ba40c-080a-46d0-a08f-660e07520b61"},"vehicle_type_id":"4","last_reported":1771093161,"current_range_meters":39200,"station_id":"ce4bhbp2rcd13ifvqesg","pricing_plan_id":"cebpf4jnsgd1na2vs0mg"},{"bike_id":"094ecace-aeec-47a9-b93d-5574ce157e27","system_id":"levelo_inurba_marseille","lat":43.26025,"lon":5.37538,"is_reserved":false,"is_disabled":false,"rental_uris":{"android":"levelo://app?vid=094ecace-aeec-47a9-b93d-5574ce157e27","ios":"levelo://app?vid=094ecace-aeec-47a9-b93d-5574ce157e27"},"vehicle_type_id":"4","last_reported":1771093161,"current_range_meters":17200,"station_id":"ce4bhgh2rcd13ifvqfa0","pricing_plan_id":"cebpf4jnsgd1na2vs0mg"},{"bike_id":"2614c64a-7fd8-49da-8853-529c3eab38f6","system_id":"levelo_inurba_marseille","lat":43.29908,"lon":5.37476,"is_reserved":false,"is_disabled":false,"rental_uris":{"android":"levelo://app?vid=2614c64a-7fd8-49da-8853-529c3eab38f6","ios":"levelo://app?vid=2614c64a-7fd8-49da-8853-529c3eab38f6"},"vehicle_type_id":"4","last_reported":1771093161,"current_range_meters":40000,"station_id":"ce4bgjh2rcd13ifvqbg0","pricing_plan_id":"cebpf4jnsgd1na2vs0mg"},{"bike_id":"91dd6860-d8b6-48df-9afd-382ab92b6bc0","system_id":"levelo_inurba_marseille","lat":43.28915,"lon":5.38408,"is_reserved":false,"is_disabled":true,"rental_uris":{"android":"levelo://app?vid=91dd6860-d8b6-48df-9afd-382ab92b6bc0","ios":"levelo://app?vid=91dd6860-d8b6-48df-9afd-382ab92b6bc0"},"vehicle_type_id":"4","last_reported":1771093161,"current_range_meters":32800,"station_id":"ce4bh612rcd13ifvqe6g","pricing_plan_id":"cebpf4jnsgd1na2vs0mg"},{"bike_id":"38424cc3-0799-4288-9972-1710ba6b6c70","system_id":"levelo_inurba_marseille","lat":43.273056,"lon":5.390762,"is_reserved":false,"is_disabled":false,"rental_uris":{"android":"levelo://app?vid=38424cc3-0799-4288-9972-1710ba6b6c70","ios":"levelo://app?vid=38424cc3-0799-4288-9972-1710ba6b6c70"},"vehicle_type_id":"4","last_reported":1771093161,"current_range_meters":20400,"station_id":"ce4bhgp2rcd13ifvqfe0","pricing_plan_id":"cebpf4jnsgd1na2vs0mg"},{"bike_id":"3e17c8c0-94d8-4df0-a55a-c2600a7144a0","system_id":"levelo_inurba_marseille","lat":43.3206,"lon":5.41539,"is_reserved":false,"is_disabled":false,"rental_uris":{"android":"levelo://app?vid=3e17c8c0-94d8-4df0-a55a-c2600a7144a0","ios":"levelo://app?vid=3e17c8c0-94d8-4df0-a55a-c2600a7144a0"},"vehicle_type_id":"4","last_reported":1771093161,"current_range_meters":18800,"station_id":"ce4bhq92rcd13ifvqhkg","pricing_plan_id":"cebpf4jnsgd1na2vs0mg"},{"bike_id":"524b8461-d679-46b1-a83d-b4bfe7dba6c3","system_id":"levelo_inurba_marseille","lat":43.2175,"lon":5.34597,"is_reserved":false,"is_disabled":false,"rental_uris":{"android":"levelo://app?vid=524b8461-d679-46b1-a83d-b4bfe7dba6c3","ios":"levelo://app?vid=524b8461-d679-46b1-a83d-b4bfe7dba6c3"},"vehicle_type_id":"4","last_reported":1771093161,"current_range_meters":6800,"station_id":"st_cvj6r9ubvosntc0bgbag","pricing_plan_id":"cebpf4jnsgd1na2vs0mg"},{"bike_id":"53bb3863-680c-45ee-b078-75f6bac40aa9","system_id":"levelo_inurba_marseille","lat":43.32693,"lon":5.41008,"is_reserved":false,"is_disabled":false,"rental_uris":{"android":"levelo://app?vid=53bb3863-680c-45ee-b078-75f6bac40aa9","ios":"levelo://app?vid=53bb3863-680c-45ee-b078-75f6bac40aa9"},"vehicle_type_id":"4","last_reported":1771093161,"current_range_meters":36800,"station_id":"ce4bhpp2rcd13ifvqhgg","pricing_plan_id":"cebpf4jnsgd1na2vs0mg"},{"bike_id":"80098677-e509-453f-9fc6-0838a503fcfa","system_id":"levelo_inurba_marseille","lat":43.305425,"lon":5.365278,"is_reserved":false,"is_disabled":false,"rental_uris":{"android":"levelo://app?vid=80098677-e509-453f-9fc6-0838a503fcfa","ios":"levelo://app?vid=80098677-e509-453f-9fc6-0838a503fcfa"},"vehicle_type_id":"4","last_reported":1771093161,"current_range_meters":22000,"station_id":"ce4bgs12rcd13ifvqcag","pricing_plan_id":"cebpf4jnsgd1na2vs0mg"},{"bike_id":"b2793bda-e545-4722-bf36-91387796c790","system_id":"levelo_inurba_marseille","lat":43.25519,"lon":5.37655,"is_reserved":false,"is_disabled":false,"rental_uris":{"android":"levelo://app?vid=b2793bda-e545-4722-bf36-91387796c790","ios":"levelo://app?vid=b2793bda-e545-4722-bf36-91387796c790"},"vehicle_type_id":"4","last_reported":1771093161,"current_range_meters":39200,"station_id":"ce4bhh12rcd13ifvqff0","pricing_plan_id":"cebpf4jnsgd1na2vs0mg"},{"bike_id":"014613de-69aa-4aca-9291-67750cce2e69","system_id":"levelo_inurba_marseille","lat":43.28486,"lon":5.48438,"is_reserved":false,"is_disabled":false,"rental_uris":{"android":"levelo://app?vid=014613de-69aa-4aca-9291-67750cce2e69","ios":"levelo://app?vid=014613de-69aa-4aca-9291-67750cce2e69"},"vehicle_type_id":"4","last_reported":1771093161,"current_range_meters":3600,"station_id":"st_d3svhcjqgbts73a3dn0g","pricing_plan_id":"cebpf4jnsgd1na2vs0mg"},{"bike_id":"ceafdd97-9709-4666-acdc-c6b8a34aace5","system_id":"levelo_inurba_marseille","lat":43.27181,"lon":5.40994,"is_reserved":false,"is_disabled":true,"rental_uris":{"android":"levelo://app?vid=ceafdd97-9709-4666-acdc-c6b8a34aace5","ios":"levelo://app?vid=ceafdd97-9709-4666-acdc-c6b8a34aace5"},"vehicle_type_id":"4","last_reported":1771093161,"current_range_meters":4400,"station_id":"ce4bhl12rcd13ifvqgf0","pricing_plan_id":"cebpf4jnsgd1na2vs0mg"},{"bike_id":"9ed7300e-a4d4-493c-95a2-a0b857cf6348","system_id":"levelo_inurba_marseille","lat":43.22551,"lon":5.4162,"is_reserved":false,"is_disabled":false,"rental_uris":{"android":"levelo://app?vid=9ed7300e-a4d4-493c-95a2-a0b857cf6348","ios":"levelo://app?vid=9ed7300e-a4d4-493c-95a2-a0b857cf6348"},"vehicle_type_id":"4","last_reported":1771093161,"current_range_meters":18000,"station_id":"st_d2o4gvlbi1j2169b742g","pricing_plan_id":"cebpf4jnsgd1na2vs0mg"},{"bike_id":"b8d0dbff-fb51-43c9-8f40-12fc94ab2020","system_id":"levelo_inurba_marseille","lat":43.28429,"lon":5.34991,"is_reserved":false,"is_disabled":false,"rental_uris":{"android":"levelo://app?vid=b8d0dbff-fb51-43c9-8f40-12fc94ab2020","ios":"levelo://app?vid=b8d0dbff-fb51-43c9-8f40-12fc94ab2020"},"vehicle_type_id":"4","last_reported":1771093161,"current_range_meters":19600,"station_id":"ce4bhbh2rcd13ifvqepg","pricing_plan_id":"cebpf4jnsgd1na2vs0mg"},{"bike_id":"3fcfc872-11a9-440f-a4ec-c7470efa7393","system_id":"levelo_inurba_marseille","lat":43.29593,"lon":5.38105,"is_reserved":false,"is_disabled":false,"rental_uris":{"android":"levelo://app?vid=3fcfc872-11a9-440f-a4ec-c7470efa7393","ios":"levelo://app?vid=3fcfc872-11a9-440f-a4ec-c7470efa7393"},"vehicle_type_id":"4","last_reported":1771093161,"current_range_meters":25200,"station_id":"ce4bgl12rcd13ifvqbo0","pricing_plan_id":"cebpf4jnsgd1na2vs0mg"},{"bike_id":"484c11c0-30ee-4bb6-83c7-f3256dfcfb63","system_id":"levelo_inurba_marseille","lat":43.31238,"lon":5.36871,"is_reserved":false,"is_disabled":false,"rental_uris":{"android":"levelo://app?vid=484c11c0-30ee-4bb6-83c7-f3256dfcfb63","ios":"levelo://app?vid=484c11c0-30ee-4bb6-83c7-f3256dfcfb63"},"vehicle_type_id":"4","last_reported":1771093161,"current_range_meters":39200,"station_id":"ce4bgl92rcd13ifvqbq0","pricing_plan_id":"cebpf4jnsgd1na2vs0mg"},{"bike_id":"188a925b-967f-485e-b032-a21ca739ec13","system_id":"levelo_inurba_marseille","lat":43.25869,"lon":5.39904,"is_reserved":false,"is_disabled":false,"rental_uris":{"android":"levelo://app?vid=188a925b-967f-485e-b032-a21ca739ec13","ios":"levelo://app?vid=188a925b-967f-485e-b032-a21ca739ec13"},"vehicle_type_id":"4","last_reported":1771093161,"current_range_meters":35600,"station_id":"ce4bhl92rcd13ifvqghg","pricing_plan_id":"cebpf4jnsgd1na2vs0mg"},{"bike_id":"c9509313-6232-40d4-9c17-6bed5ef38be1","system_id":"levelo_inurba_marseille","lat":43.30306,"lon":5.36886,"is_reserved":false,"is_disabled":false,"rental_uris":{"android":"levelo://app?vid=c9509313-6232-40d4-9c17-6bed5ef38be1","ios":"levelo://app?vid=c9509313-6232-40d4-9c17-6bed5ef38be1"},"vehicle_type_id":"4","last_reported":1771093161,"current_range_meters":36400,"station_id":"ce4bgqh2rcd13ifvqc5g","pricing_plan_id":"cebpf4jnsgd1na2vs0mg"},{"bike_id":"99f08690-585a-47f4-b2a1-76d9c33e9f98","system_id":"levelo_inurba_marseille","lat":43.31054,"lon":5.37159,"is_reserved":false,"is_disabled":false,"rental_uris":{"android":"levelo://app?vid=99f08690-585a-47f4-b2a1-76d9c33e9f98","ios":"levelo://app?vid=99f08690-585a-47f4-b2a1-76d9c33e9f98"},"vehicle_type_id":"4","last_reported":1771093161,"current_range_meters":23200,"station_id":"st_d4kl2rp97mjs73e7tdfg","pricing_plan_id":"cebpf4jnsgd1na2vs0mg"},{"bike_id":"9a7edd9a-c92e-4067-b016-f42fe5a9209a","system_id":"levelo_inurba_marseille","lat":43.25709,"lon":5.41133,"is_reserved":false,"is_disabled":false,"rental_uris":{"android":"levelo://app?vid=9a7edd9a-c92e-4067-b016-f42fe5a9209a","ios":"levelo://app?vid=9a7edd9a-c92e-4067-b016-f42fe5a9209a"},"vehicle_type_id":"4","last_reported":1771093161,"current_range_meters":24000,"station_id":"ce4bhkp2rcd13ifvqgd0","pricing_plan_id":"cebpf4jnsgd1na2vs0mg"},{"bike_id":"034224b6-2279-4cbc-9caa-f9a79eebd08e","system_id":"levelo_inurba_marseille","lat":43.31253,"lon":5.36918,"is_reserved":false,"is_disabled":false,"rental_uris":{"android":"levelo://app?vid=034224b6-2279-4cbc-9caa-f9a79eebd08e","ios":"levelo://app?vid=034224b6-2279-4cbc-9caa-f9a79eebd08e"},"vehicle_type_id":"4","last_reported":1771093161,"current_range_meters":40000,"station_id":"ce4bgl92rcd13ifvqbq0","pricing_plan_id":"cebpf4jnsgd1na2vs0mg"},{"bike_id":"ad4ba672-3a14-4bcb-86f8-de75ff9be977","system_id":"levelo_inurba_marseille","lat":43.26058,"lon":5.39399,"is_reserved":false,"is_disabled":false,"rental_uris":{"android":"levelo://app?vid=ad4ba672-3a14-4bcb-86f8-de75ff9be977","ios":"levelo://app?vid=ad4ba672-3a14-4bcb-86f8-de75ff9be977"},"vehicle_type_id":"4","last_reported":1771093161,"current_range_meters":35600,"station_id":"ce4bhh92rcd13ifvqfj0","pricing_plan_id":"cebpf4jnsgd1na2vs0mg"},{"bike_id":"9220915f-eac1-4270-9dd0-731c190eee69","system_id":"levelo_inurba_marseille","lat":43.29694,"lon":5.377,"is_reserved":false,"is_disabled":false,"rental_uris":{"android":"levelo://app?vid=9220915f-eac1-4270-9dd0-731c190eee69","ios":"levelo://app?vid=9220915f-eac1-4270-9dd0-731c190eee69"},"vehicle_type_id":"4","last_reported":1771093161,"current_range_meters":36400,"station_id":"ce4bgkh2rcd13ifvqbl0","pricing_plan_id":"cebpf4jnsgd1na2vs0mg"},{"bike_id":"b010c6c3-6e4a-43ec-b344-ff56111dfe6e","system_id":"levelo_inurba_marseille","lat":43.24665,"lon":5.38165,"is_reserved":false,"is_disabled":false,"rental_uris":{"android":"levelo://app?vid=b010c6c3-6e4a-43ec-b344-ff56111dfe6e","ios":"levelo://app?vid=b010c6c3-6e4a-43ec-b344-ff56111dfe6e"},"vehicle_type_id":"4","last_reported":1771093161,"current_range_meters":24400,"station_id":"ce4bhih2rcd13ifvqfr0","pricing_plan_id":"cebpf4jnsgd1na2vs0mg"},{"bike_id":"e138ffb2-4b69-43b5-b2d6-1277216df1b0","system_id":"levelo_inurba_marseille","lat":43.25865,"lon":5.39902,"is_reserved":false,"is_disabled":false,"rental_uris":{"android":"levelo://app?vid=e138ffb2-4b69-43b5-b2d6-1277216df1b0","ios":"levelo://app?vid=e138ffb2-4b69-43b5-b2d6-1277216df1b0"},"vehicle_type_id":"4","last_reported":1771093161,"current_range_meters":16400,"station_id":"ce4bhl92rcd13ifvqghg","pricing_plan_id":"cebpf4jnsgd1na2vs0mg"},{"bike_id":"7cb9d4bb-817c-477e-b821-2482d90489fa","system_id":"levelo_inurba_marseille","lat":43.329986,"lon":5.390373,"is_reserved":false,"is_disabled":false,"rental_uris":{"android":"levelo://app?vid=7cb9d4bb-817c-477e-b821-2482d90489fa","ios":"levelo://app?vid=7cb9d4bb-817c-477e-b821-2482d90489fa"},"vehicle_type_id":"4","last_reported":1771093161,"current_range_meters":13600,"station_id":"ce4bhr92rcd13ifvqhrg","pricing_plan_id":"cebpf4jnsgd1na2vs0mg"},{"bike_id":"ffe3fbd4-6746-48bb-b0b5-fa7f3d6ff56c","system_id":"levelo_inurba_marseille","lat":43.31043,"lon":5.37164,"is_reserved":false,"is_disabled":false,"rental_uris":{"android":"levelo://app?vid=ffe3fbd4-6746-48bb-b0b5-fa7f3d6ff56c","ios":"levelo://app?vid=ffe3fbd4-6746-48bb-b0b5-fa7f3d6ff56c"},"vehicle_type_id":"4","last_reported":1771093161,"current_range_meters":14800,"station_id":"st_d4kl2rp97mjs73e7tdfg","pricing_plan_id":"cebpf4jnsgd1na2vs0mg"},{"bike_id":"f4f4c39c-d293-4a83-92fd-f36bbc65fe4a","system_id":"levelo_inurba_marseille","lat":43.2827,"lon":5.35056,"is_reserved":false,"is_disabled":true,"rental_uris":{"android":"levelo://app?vid=f4f4c39c-d293-4a83-92fd-f36bbc65fe4a","ios":"levelo://app?vid=f4f4c39c-d293-4a83-92fd-f36bbc65fe4a"},"vehicle_type_id":"4","last_reported":1771093161,"current_range_meters":38400,"station_id":"ce4bhbp2rcd13ifvqerg","pricing_plan_id":"cebpf4jnsgd1na2vs0mg"},{"bike_id":"bceefbcb-6e12-4584-ae1a-2e6369cea0a2","system_id":"levelo_inurba_marseille","lat":43.31866,"lon":5.38421,"is_reserved":false,"is_disabled":false,"rental_uris":{"android":"levelo://app?vid=bceefbcb-6e12-4584-ae1a-2e6369cea0a2","ios":"levelo://app?vid=bceefbcb-6e12-4584-ae1a-2e6369cea0a2"},"vehicle_type_id":"4","last_reported":1771093161,"current_range_meters":26800,"station_id":"","pricing_plan_id":"cebpf4jnsgd1na2vs0mg"},{"bike_id":"2fadaefb-d7be-40bc-b8c2-dfba0bb4802c","system_id":"levelo_inurba_marseille","lat":43.30241,"lon":5.4005,"is_reserved":false,"is_disabled":true,"rental_uris":{"android":"levelo://app?vid=2fadaefb-d7be-40bc-b8c2-dfba0bb4802c","ios":"levelo://app?vid=2fadaefb-d7be-40bc-b8c2-dfba0bb4802c"},"vehicle_type_id":"4","last_reported":1771093161,"current_range_meters":38800,"station_id":"ce4bgvh2rcd13ifvqcs0","pricing_plan_id":"cebpf4jnsgd1na2vs0mg"},{"bike_id":"17a13aba-6c04-45ad-9e00-bff2a4d6d4d0","system_id":"levelo_inurba_marseille","lat":43.31768,"lon":5.38995,"is_reserved":false,"is_disabled":false,"rental_uris":{"android":"levelo://app?vid=17a13aba-6c04-45ad-9e00-bff2a4d6d4d0","ios":"levelo://app?vid=17a13aba-6c04-45ad-9e00-bff2a4d6d4d0"},"vehicle_type_id":"4","last_reported":1771093161,"current_range_meters":37600,"station_id":"ce4bhqp2rcd13ifvqhng","pricing_plan_id":"cebpf4jnsgd1na2vs0mg"},{"bike_id":"362bf92e-b2dc-420e-aae8-2c8ad88723f1","system_id":"levelo_inurba_marseille","lat":43.30901,"lon":5.36842,"is_reserved":false,"is_disabled":false,"rental_uris":{"android":"levelo://app?vid=362bf92e-b2dc-420e-aae8-2c8ad88723f1","ios":"levelo://app?vid=362bf92e-b2dc-420e-aae8-2c8ad88723f1"},"vehicle_type_id":"4","last_reported":1771093161,"current_range_meters":39200,"station_id":"ce4bgn92rcd13ifvqbvg","pricing_plan_id":"cebpf4jnsgd1na2vs0mg"},{"bike_id":"2aa05e06-5366-4cfd-80c1-a6e66487250b","system_id":"levelo_inurba_marseille","lat":43.2848,"lon":5.48396,"is_reserved":false,"is_disabled":false,"rental_uris":{"android":"levelo://app?vid=2aa05e06-5366-4cfd-80c1-a6e66487250b","ios":"levelo://app?vid=2aa05e06-5366-4cfd-80c1-a6e66487250b"},"vehicle_type_id":"4","last_reported":1771093161,"current_range_meters":27600,"station_id":"st_d3svhcjqgbts73a3dn0g","pricing_plan_id":"cebpf4jnsgd1na2vs0mg"},{"bike_id":"963b299c-f0ed-46b7-9014-29e17db68b1b","system_id":"levelo_inurba_marseille","lat":43.26687,"lon":5.38283,"is_reserved":false,"is_disabled":false,"rental_uris":{"android":"levelo://app?vid=963b299c-f0ed-46b7-9014-29e17db68b1b","ios":"levelo://app?vid=963b299c-f0ed-46b7-9014-29e17db68b1b"},"vehicle_type_id":"4","last_reported":1771093161,"current_range_meters":18800,"station_id":"ce4bhg92rcd13ifvqf90","pricing_plan_id":"cebpf4jnsgd1na2vs0mg"},{"bike_id":"9d0335d2-3051-4637-a59f-b5a4ffc47957","system_id":"levelo_inurba_marseille","lat":43.32653,"lon":5.40967,"is_reserved":false,"is_disabled":false,"rental_uris":{"android":"levelo://app?vid=9d0335d2-3051-4637-a59f-b5a4ffc47957","ios":"levelo://app?vid=9d0335d2-3051-4637-a59f-b5a4ffc47957"},"vehicle_type_id":"4","last_reported":1771093161,"current_range_meters":11200,"station_id":"ce4bhpp2rcd13ifvqhgg","pricing_plan_id":"cebpf4jnsgd1na2vs0mg"},{"bike_id":"5a83dd32-1bcb-4443-a95a-d8596e8d7a14","system_id":"levelo_inurba_marseille","lat":43.27336,"lon":5.39124,"is_reserved":false,"is_disabled":false,"rental_uris":{"android":"levelo://app?vid=5a83dd32-1bcb-4443-a95a-d8596e8d7a14","ios":"levelo://app?vid=5a83dd32-1bcb-4443-a95a-d8596e8d7a14"},"vehicle_type_id":"4","last_reported":1771093161,"current_range_meters":38400,"station_id":"ce4bhgp2rcd13ifvqfe0","pricing_plan_id":"cebpf4jnsgd1na2vs0mg"},{"bike_id":"6fb6e675-460f-4429-987e-5c8d5ca05444","system_id":"levelo_inurba_marseille","lat":43.323489,"lon":5.36741,"is_reserved":false,"is_disabled":false,"rental_uris":{"android":"levelo://app?vid=6fb6e675-460f-4429-987e-5c8d5ca05444","ios":"levelo://app?vid=6fb6e675-460f-4429-987e-5c8d5ca05444"},"vehicle_type_id":"4","last_reported":1771093161,"current_range_meters":14800,"station_id":"ce4bhsh2rcd13ifvqi2g","pricing_plan_id":"cebpf4jnsgd1na2vs0mg"},{"bike_id":"13d75d5f-6e2b-42dc-978e-af2177641671","system_id":"levelo_inurba_marseille","lat":43.30318,"lon":5.36907,"is_reserved":false,"is_disabled":false,"rental_uris":{"android":"levelo://app?vid=13d75d5f-6e2b-42dc-978e-af2177641671","ios":"levelo://app?vid=13d75d5f-6e2b-42dc-978e-af2177641671"},"vehicle_type_id":"4","last_reported":1771093161,"current_range_meters":28400,"station_id":"ce4bgqh2rcd13ifvqc5g","pricing_plan_id":"cebpf4jnsgd1na2vs0mg"},{"bike_id":"c7dc1044-a4da-496a-a386-521f9de5f9ec","system_id":"levelo_inurba_marseille","lat":43.28156,"lon":5.42636,"is_reserved":false,"is_disabled":false,"rental_uris":{"android":"levelo://app?vid=c7dc1044-a4da-496a-a386-521f9de5f9ec","ios":"levelo://app?vid=c7dc1044-a4da-496a-a386-521f9de5f9ec"},"vehicle_type_id":"4","last_reported":1771093161,"current_range_meters":8000,"station_id":"ce4bhnh2rcd13ifvqgug","pricing_plan_id":"cebpf4jnsgd1na2vs0mg"},{"bike_id":"32970ac4-1746-4d64-913c-72a1346864f7","system_id":"levelo_inurba_marseille","lat":43.29009,"lon":5.3562,"is_reserved":false,"is_disabled":false,"rental_uris":{"android":"levelo://app?vid=32970ac4-1746-4d64-913c-72a1346864f7","ios":"levelo://app?vid=32970ac4-1746-4d64-913c-72a1346864f7"},"vehicle_type_id":"4","last_reported":1771093161,"current_range_meters":39200,"station_id":"ce4bhb92rcd13ifvqen0","pricing_plan_id":"cebpf4jnsgd1na2vs0mg"},{"bike_id":"7a6fa51c-f3a6-4ec7-898a-e0c27ec99600","system_id":"levelo_inurba_marseille","lat":43.30861,"lon":5.37146,"is_reserved":false,"is_disabled":false,"rental_uris":{"android":"levelo://app?vid=7a6fa51c-f3a6-4ec7-898a-e0c27ec99600","ios":"levelo://app?vid=7a6fa51c-f3a6-4ec7-898a-e0c27ec99600"},"vehicle_type_id":"4","last_reported":1771093161,"current_range_meters":40000,"station_id":"ce4bguh2rcd13ifvqckg","pricing_plan_id":"cebpf4jnsgd1na2vs0mg"},{"bike_id":"7d871062-a60f-4f61-bcec-8d7e0b2d62db","system_id":"levelo_inurba_marseille","lat":43.29535,"lon":5.38549,"is_reserved":false,"is_disabled":false,"rental_uris":{"android":"levelo://app?vid=7d871062-a60f-4f61-bcec-8d7e0b2d62db","ios":"levelo://app?vid=7d871062-a60f-4f61-bcec-8d7e0b2d62db"},"vehicle_type_id":"4","last_reported":1771093161,"current_range_meters":27200,"station_id":"ce4bgih2rcd13ifvqba0","pricing_plan_id":"cebpf4jnsgd1na2vs0mg"},{"bike_id":"d30c7395-ce5f-404c-a40c-5fc4c6b38177","system_id":"levelo_inurba_marseille","lat":43.26549,"lon":5.37277,"is_reserved":false,"is_disabled":false,"rental_uris":{"android":"levelo://app?vid=d30c7395-ce5f-404c-a40c-5fc4c6b38177","ios":"levelo://app?vid=d30c7395-ce5f-404c-a40c-5fc4c6b38177"},"vehicle_type_id":"4","last_reported":1771093161,"current_range_meters":7200,"station_id":"ce4bhg12rcd13ifvqf70","pricing_plan_id":"cebpf4jnsgd1na2vs0mg"},{"bike_id":"6adf2b20-ef63-4c38-975f-edcbe8feb2c6","system_id":"levelo_inurba_marseille","lat":43.304596,"lon":5.379025,"is_reserved":false,"is_disabled":false,"rental_uris":{"android":"levelo://app?vid=6adf2b20-ef63-4c38-975f-edcbe8feb2c6","ios":"levelo://app?vid=6adf2b20-ef63-4c38-975f-edcbe8feb2c6"},"vehicle_type_id":"4","last_reported":1771093161,"current_range_meters":32400,"station_id":"ce4bgup2rcd13ifvqcn0","pricing_plan_id":"cebpf4jnsgd1na2vs0mg"},{"bike_id":"47f18ee9-838a-4e13-8672-4f73e3c8ac20","system_id":"levelo_inurba_marseille","lat":43.31245,"lon":5.36849,"is_reserved":false,"is_disabled":false,"rental_uris":{"android":"levelo://app?vid=47f18ee9-838a-4e13-8672-4f73e3c8ac20","ios":"levelo://app?vid=47f18ee9-838a-4e13-8672-4f73e3c8ac20"},"vehicle_type_id":"4","last_reported":1771093161,"current_range_meters":36800,"station_id":"ce4bgl92rcd13ifvqbq0","pricing_plan_id":"cebpf4jnsgd1na2vs0mg"},{"bike_id":"67dfb204-00be-4177-8b9d-f63a27579f92","system_id":"levelo_inurba_marseille","lat":43.29896,"lon":5.38128,"is_reserved":false,"is_disabled":false,"rental_uris":{"android":"levelo://app?vid=67dfb204-00be-4177-8b9d-f63a27579f92","ios":"levelo://app?vid=67dfb204-00be-4177-8b9d-f63a27579f92"},"vehicle_type_id":"4","last_reported":1771093161,"current_range_meters":36400,"station_id":"ce4bgj12rcd13ifvqbc0","pricing_plan_id":"cebpf4jnsgd1na2vs0mg"},{"bike_id":"c91ff489-c9a5-4a71-89bc-835cd996e634","system_id":"levelo_inurba_marseille","lat":43.29979,"lon":5.38514,"is_reserved":false,"is_disabled":false,"rental_uris":{"android":"levelo://app?vid=c91ff489-c9a5-4a71-89bc-835cd996e634","ios":"levelo://app?vid=c91ff489-c9a5-4a71-89bc-835cd996e634"},"vehicle_type_id":"4","last_reported":1771093161,"current_range_meters":31200,"station_id":"ce4bgj92rcd13ifvqbd0","pricing_plan_id":"cebpf4jnsgd1na2vs0mg"},{"bike_id":"850c3464-4a94-49e7-aece-e78fdc2e8c59","system_id":"levelo_inurba_marseille","lat":43.29033,"lon":5.37549,"is_reserved":false,"is_disabled":false,"rental_uris":{"android":"levelo://app?vid=850c3464-4a94-49e7-aece-e78fdc2e8c59","ios":"levelo://app?vid=850c3464-4a94-49e7-aece-e78fdc2e8c59"},"vehicle_type_id":"4","last_reported":1771093161,"current_range_meters":13600,"station_id":"ce4bh692rcd13ifvqe90","pricing_plan_id":"cebpf4jnsgd1na2vs0mg"},{"bike_id":"a26a6608-23e4-46ce-bb00-ef5bd34cdc6d","system_id":"levelo_inurba_marseille","lat":43.28881,"lon":5.39424,"is_reserved":false,"is_disabled":false,"rental_uris":{"android":"levelo://app?vid=a26a6608-23e4-46ce-bb00-ef5bd34cdc6d","ios":"levelo://app?vid=a26a6608-23e4-46ce-bb00-ef5bd34cdc6d"},"vehicle_type_id":"4","last_reported":1771093161,"current_range_meters":30800,"station_id":"ce4bhhp2rcd13ifvqfm0","pricing_plan_id":"cebpf4jnsgd1na2vs0mg"},{"bike_id":"e29024b3-288c-4d8b-ba32-8553041a7294","system_id":"levelo_inurba_marseille","lat":43.25927,"lon":5.40903,"is_reserved":false,"is_disabled":false,"rental_uris":{"android":"levelo://app?vid=e29024b3-288c-4d8b-ba32-8553041a7294","ios":"levelo://app?vid=e29024b3-288c-4d8b-ba32-8553041a7294"},"vehicle_type_id":"4","last_reported":1771093161,"current_range_meters":6000,"station_id":"ce4bhm92rcd13ifvqglg","pricing_plan_id":"cebpf4jnsgd1na2vs0mg"},{"bike_id":"b576ebe4-17cb-453a-91ae-7f9328ed50d0","system_id":"levelo_inurba_marseille","lat":43.29171,"lon":5.37145,"is_reserved":false,"is_disabled":false,"rental_uris":{"android":"levelo://app?vid=b576ebe4-17cb-453a-91ae-7f9328ed50d0","ios":"levelo://app?vid=b576ebe4-17cb-453a-91ae-7f9328ed50d0"},"vehicle_type_id":"4","last_reported":1771093161,"current_range_meters":38400,"station_id":"ce4bha92rcd13ifvqeh0","pricing_plan_id":"cebpf4jnsgd1na2vs0mg"},{"bike_id":"563037d3-7108-43f4-9824-3cbb130d2a47","system_id":"levelo_inurba_marseille","lat":43.30167,"lon":5.38096,"is_reserved":false,"is_disabled":false,"rental_uris":{"android":"levelo://app?vid=563037d3-7108-43f4-9824-3cbb130d2a47","ios":"levelo://app?vid=563037d3-7108-43f4-9824-3cbb130d2a47"},"vehicle_type_id":"4","last_reported":1771093161,"current_range_meters":9200,"station_id":"ce4bgjp2rcd13ifvqbh0","pricing_plan_id":"cebpf4jnsgd1na2vs0mg"},{"bike_id":"d33adf25-865e-4d8a-b514-8032961e7cb8","system_id":"levelo_inurba_marseille","lat":43.28732,"lon":5.3609,"is_reserved":false,"is_disabled":false,"rental_uris":{"android":"levelo://app?vid=d33adf25-865e-4d8a-b514-8032961e7cb8","ios":"levelo://app?vid=d33adf25-865e-4d8a-b514-8032961e7cb8"},"vehicle_type_id":"4","last_reported":1771093161,"current_range_meters":34000,"station_id":"cki0cbj6b192h4jlfktg","pricing_plan_id":"cebpf4jnsgd1na2vs0mg"},{"bike_id":"fbe44739-fb50-4e6c-80ad-a975b6f992c9","system_id":"levelo_inurba_marseille","lat":43.29971,"lon":5.41325,"is_reserved":false,"is_disabled":false,"rental_uris":{"android":"levelo://app?vid=fbe44739-fb50-4e6c-80ad-a975b6f992c9","ios":"levelo://app?vid=fbe44739-fb50-4e6c-80ad-a975b6f992c9"},"vehicle_type_id":"4","last_reported":1771093161,"current_range_meters":39200,"station_id":"ce4bhp12rcd13ifvqh9g","pricing_plan_id":"cebpf4jnsgd1na2vs0mg"},{"bike_id":"3029fd03-fcab-4cd9-9277-025369248c19","system_id":"levelo_inurba_marseille","lat":43.26188,"lon":5.37446,"is_reserved":false,"is_disabled":false,"rental_uris":{"android":"levelo://app?vid=3029fd03-fcab-4cd9-9277-025369248c19","ios":"levelo://app?vid=3029fd03-fcab-4cd9-9277-025369248c19"},"vehicle_type_id":"4","last_reported":1771093161,"current_range_meters":18000,"station_id":"ce4bhgp2rcd13ifvqfc0","pricing_plan_id":"cebpf4jnsgd1na2vs0mg"},{"bike_id":"61bb927d-5d5f-4cd0-8823-8d8185e702fb","system_id":"levelo_inurba_marseille","lat":43.29276,"lon":5.36847,"is_reserved":false,"is_disabled":false,"rental_uris":{"android":"levelo://app?vid=61bb927d-5d5f-4cd0-8823-8d8185e702fb","ios":"levelo://app?vid=61bb927d-5d5f-4cd0-8823-8d8185e702fb"},"vehicle_type_id":"4","last_reported":1771093161,"current_range_meters":36000,"station_id":"ce4bhbp2rcd13ifvqesg","pricing_plan_id":"cebpf4jnsgd1na2vs0mg"},{"bike_id":"61eff903-483f-41ec-a514-0f580cd1a431","system_id":"levelo_inurba_marseille","lat":43.24945,"lon":5.40508,"is_reserved":false,"is_disabled":false,"rental_uris":{"android":"levelo://app?vid=61eff903-483f-41ec-a514-0f580cd1a431","ios":"levelo://app?vid=61eff903-483f-41ec-a514-0f580cd1a431"},"vehicle_type_id":"4","last_reported":1771093161,"current_range_meters":28400,"station_id":"st_d2ngiaodas8pm72gd1h0","pricing_plan_id":"cebpf4jnsgd1na2vs0mg"},{"bike_id":"7c862770-d39a-485d-9029-334e60b25ef2","system_id":"levelo_inurba_marseille","lat":43.28465,"lon":5.35876,"is_reserved":false,"is_disabled":false,"rental_uris":{"android":"levelo://app?vid=7c862770-d39a-485d-9029-334e60b25ef2","ios":"levelo://app?vid=7c862770-d39a-485d-9029-334e60b25ef2"},"vehicle_type_id":"4","last_reported":1771093161,"current_range_meters":25200,"station_id":"ce4bhah2rcd13ifvqei0","pricing_plan_id":"cebpf4jnsgd1na2vs0mg"},{"bike_id":"584a676b-ec68-4acc-8d6b-a3e034b7e086","system_id":"levelo_inurba_marseille","lat":43.28003,"lon":5.4166,"is_reserved":false,"is_disabled":false,"rental_uris":{"android":"levelo://app?vid=584a676b-ec68-4acc-8d6b-a3e034b7e086","ios":"levelo://app?vid=584a676b-ec68-4acc-8d6b-a3e034b7e086"},"vehicle_type_id":"4","last_reported":1771093161,"current_range_meters":28800,"station_id":"ce4bho12rcd13ifvqh1g","pricing_plan_id":"cebpf4jnsgd1na2vs0mg"},{"bike_id":"cb3f95b2-810d-40b9-8b9f-343d1006bd8f","system_id":"levelo_inurba_marseille","lat":43.29257,"lon":5.38435,"is_reserved":false,"is_disabled":false,"rental_uris":{"android":"levelo://app?vid=cb3f95b2-810d-40b9-8b9f-343d1006bd8f","ios":"levelo://app?vid=cb3f95b2-810d-40b9-8b9f-343d1006bd8f"},"vehicle_type_id":"4","last_reported":1771093161,"current_range_meters":11200,"station_id":"ce4bh692rcd13ifvqea0","pricing_plan_id":"cebpf4jnsgd1na2vs0mg"},{"bike_id":"1b44e9f1-9ac1-414a-89ba-b380bd73f251","system_id":"levelo_inurba_marseille","lat":43.29259,"lon":5.36861,"is_reserved":false,"is_disabled":false,"rental_uris":{"android":"levelo://app?vid=1b44e9f1-9ac1-414a-89ba-b380bd73f251","ios":"levelo://app?vid=1b44e9f1-9ac1-414a-89ba-b380bd73f251"},"vehicle_type_id":"4","last_reported":1771093161,"current_range_meters":38800,"station_id":"ce4bhbp2rcd13ifvqesg","pricing_plan_id":"cebpf4jnsgd1na2vs0mg"},{"bike_id":"11bbe498-cd8f-4b2e-8e45-54529a7a0a47","system_id":"levelo_inurba_marseille","lat":43.297593,"lon":5.427753,"is_reserved":false,"is_disabled":false,"rental_uris":{"android":"levelo://app?vid=11bbe498-cd8f-4b2e-8e45-54529a7a0a47","ios":"levelo://app?vid=11bbe498-cd8f-4b2e-8e45-54529a7a0a47"},"vehicle_type_id":"4","last_reported":1771093161,"current_range_meters":9200,"station_id":"st_d3md5207bmas73dh9klg","pricing_plan_id":"cebpf4jnsgd1na2vs0mg"},{"bike_id":"c6b9a435-16ed-4838-87cb-9eabe8291e6c","system_id":"levelo_inurba_marseille","lat":43.29097,"lon":5.38133,"is_reserved":false,"is_disabled":false,"rental_uris":{"android":"levelo://app?vid=c6b9a435-16ed-4838-87cb-9eabe8291e6c","ios":"levelo://app?vid=c6b9a435-16ed-4838-87cb-9eabe8291e6c"},"vehicle_type_id":"4","last_reported":1771093161,"current_range_meters":16400,"station_id":"ce4bh512rcd13ifvqe2g","pricing_plan_id":"cebpf4jnsgd1na2vs0mg"},{"bike_id":"db85d612-2486-4180-a7a9-4b56d8d31f7d","system_id":"levelo_inurba_marseille","lat":43.29272,"lon":5.3684,"is_reserved":false,"is_disabled":false,"rental_uris":{"android":"levelo://app?vid=db85d612-2486-4180-a7a9-4b56d8d31f7d","ios":"levelo://app?vid=db85d612-2486-4180-a7a9-4b56d8d31f7d"},"vehicle_type_id":"4","last_reported":1771093161,"current_range_meters":36000,"station_id":"ce4bhbp2rcd13ifvqesg","pricing_plan_id":"cebpf4jnsgd1na2vs0mg"},{"bike_id":"6f6a04ad-dd00-4f4a-bdfd-a835cfa0cc11","system_id":"levelo_inurba_marseille","lat":43.27074,"lon":5.38314,"is_reserved":false,"is_disabled":false,"rental_uris":{"android":"levelo://app?vid=6f6a04ad-dd00-4f4a-bdfd-a835cfa0cc11","ios":"levelo://app?vid=6f6a04ad-dd00-4f4a-bdfd-a835cfa0cc11"},"vehicle_type_id":"4","last_reported":1771093161,"current_range_meters":36000,"station_id":"st_d3n2fo6cfp8s73cte1j0","pricing_plan_id":"cebpf4jnsgd1na2vs0mg"},{"bike_id":"dce1eec1-fcb5-45ea-bb07-a4035f6df223","system_id":"levelo_inurba_marseille","lat":43.29909,"lon":5.3748,"is_reserved":false,"is_disabled":false,"rental_uris":{"android":"levelo://app?vid=dce1eec1-fcb5-45ea-bb07-a4035f6df223","ios":"levelo://app?vid=dce1eec1-fcb5-45ea-bb07-a4035f6df223"},"vehicle_type_id":"4","last_reported":1771093161,"current_range_meters":32400,"station_id":"ce4bgjh2rcd13ifvqbg0","pricing_plan_id":"cebpf4jnsgd1na2vs0mg"},{"bike_id":"4e4c79b4-286f-458a-a494-98664f2e8591","system_id":"levelo_inurba_marseille","lat":43.33125,"lon":5.39271,"is_reserved":false,"is_disabled":false,"rental_uris":{"android":"levelo://app?vid=4e4c79b4-286f-458a-a494-98664f2e8591","ios":"levelo://app?vid=4e4c79b4-286f-458a-a494-98664f2e8591"},"vehicle_type_id":"4","last_reported":1771093161,"current_range_meters":33200,"station_id":"","pricing_plan_id":"cebpf4jnsgd1na2vs0mg"},{"bike_id":"3466503b-af29-415c-826a-265b92625e7e","system_id":"levelo_inurba_marseille","lat":43.32108,"lon":5.36777,"is_reserved":false,"is_disabled":false,"rental_uris":{"android":"levelo://app?vid=3466503b-af29-415c-826a-265b92625e7e","ios":"levelo://app?vid=3466503b-af29-415c-826a-265b92625e7e"},"vehicle_type_id":"4","last_reported":1771093161,"current_range_meters":32800,"station_id":"ce4bhrh2rcd13ifvqhug","pricing_plan_id":"cebpf4jnsgd1na2vs0mg"},{"bike_id":"c8d3deb4-912b-417b-a80c-9490cc095215","system_id":"levelo_inurba_marseille","lat":43.29828,"lon":5.37584,"is_reserved":false,"is_disabled":false,"rental_uris":{"android":"levelo://app?vid=c8d3deb4-912b-417b-a80c-9490cc095215","ios":"levelo://app?vid=c8d3deb4-912b-417b-a80c-9490cc095215"},"vehicle_type_id":"4","last_reported":1771093161,"current_range_meters":30000,"station_id":"","pricing_plan_id":"cebpf4jnsgd1na2vs0mg"},{"bike_id":"1b06f4c1-1732-43e9-b160-23e4e376a773","system_id":"levelo_inurba_marseille","lat":43.28609,"lon":5.37069,"is_reserved":false,"is_disabled":false,"rental_uris":{"android":"levelo://app?vid=1b06f4c1-1732-43e9-b160-23e4e376a773","ios":"levelo://app?vid=1b06f4c1-1732-43e9-b160-23e4e376a773"},"vehicle_type_id":"4","last_reported":1771093161,"current_range_meters":34800,"station_id":"ce4bht12rcd13ifvqi60","pricing_plan_id":"cebpf4jnsgd1na2vs0mg"},{"bike_id":"6cda80fc-75a4-4720-a3a4-4b2c5db48d5b","system_id":"levelo_inurba_marseille","lat":43.28612,"lon":5.35168,"is_reserved":false,"is_disabled":false,"rental_uris":{"android":"levelo://app?vid=6cda80fc-75a4-4720-a3a4-4b2c5db48d5b","ios":"levelo://app?vid=6cda80fc-75a4-4720-a3a4-4b2c5db48d5b"},"vehicle_type_id":"4","last_reported":1771093161,"current_range_meters":8800,"station_id":"ce4bhch2rcd13ifvqeug","pricing_plan_id":"cebpf4jnsgd1na2vs0mg"},{"bike_id":"ac89198c-c702-4d3c-9029-266a18e0ed53","system_id":"levelo_inurba_marseille","lat":43.30907,"lon":5.36842,"is_reserved":false,"is_disabled":false,"rental_uris":{"android":"levelo://app?vid=ac89198c-c702-4d3c-9029-266a18e0ed53","ios":"levelo://app?vid=ac89198c-c702-4d3c-9029-266a18e0ed53"},"vehicle_type_id":"4","last_reported":1771093161,"current_range_meters":27600,"station_id":"ce4bgn92rcd13ifvqbvg","pricing_plan_id":"cebpf4jnsgd1na2vs0mg"},{"bike_id":"68e1e881-e215-421c-a7fa-9e17b5996b04","system_id":"levelo_inurba_marseille","lat":43.27615,"lon":5.36112,"is_reserved":false,"is_disabled":false,"rental_uris":{"android":"levelo://app?vid=68e1e881-e215-421c-a7fa-9e17b5996b04","ios":"levelo://app?vid=68e1e881-e215-421c-a7fa-9e17b5996b04"},"vehicle_type_id":"4","last_reported":1771093161,"current_range_meters":38000,"station_id":"ce4bgj92rcd13ifvqbe0","pricing_plan_id":"cebpf4jnsgd1na2vs0mg"},{"bike_id":"eaa5a20b-1cfb-4952-b36f-41363341fdee","system_id":"levelo_inurba_marseille","lat":43.23962,"lon":5.36667,"is_reserved":false,"is_disabled":false,"rental_uris":{"android":"levelo://app?vid=eaa5a20b-1cfb-4952-b36f-41363341fdee","ios":"levelo://app?vid=eaa5a20b-1cfb-4952-b36f-41363341fdee"},"vehicle_type_id":"4","last_reported":1771093161,"current_range_meters":16400,"station_id":"ce4bhi12rcd13ifvqfp0","pricing_plan_id":"cebpf4jnsgd1na2vs0mg"},{"bike_id":"c7d3b45f-f249-4bcc-93c5-d40dd143d6fd","system_id":"levelo_inurba_marseille","lat":43.24466,"lon":5.42537,"is_reserved":false,"is_disabled":false,"rental_uris":{"android":"levelo://app?vid=c7d3b45f-f249-4bcc-93c5-d40dd143d6fd","ios":"levelo://app?vid=c7d3b45f-f249-4bcc-93c5-d40dd143d6fd"},"vehicle_type_id":"4","last_reported":1771093161,"current_range_meters":24000,"station_id":"st_d4a3vfp97mjs738cd8kg","pricing_plan_id":"cebpf4jnsgd1na2vs0mg"},{"bike_id":"a086cee7-6b50-49d0-aa07-eca269c8bcf7","system_id":"levelo_inurba_marseille","lat":43.29837,"lon":5.37175,"is_reserved":false,"is_disabled":false,"rental_uris":{"android":"levelo://app?vid=a086cee7-6b50-49d0-aa07-eca269c8bcf7","ios":"levelo://app?vid=a086cee7-6b50-49d0-aa07-eca269c8bcf7"},"vehicle_type_id":"4","last_reported":1771093161,"current_range_meters":22800,"station_id":"","pricing_plan_id":"cebpf4jnsgd1na2vs0mg"},{"bike_id":"2f0b85aa-c457-4958-914e-08f5ab13887b","system_id":"levelo_inurba_marseille","lat":43.240741,"lon":5.377379,"is_reserved":false,"is_disabled":false,"rental_uris":{"android":"levelo://app?vid=2f0b85aa-c457-4958-914e-08f5ab13887b","ios":"levelo://app?vid=2f0b85aa-c457-4958-914e-08f5ab13887b"},"vehicle_type_id":"4","last_reported":1771093161,"current_range_meters":28800,"station_id":"ce4bhnp2rcd13ifvqgvg","pricing_plan_id":"cebpf4jnsgd1na2vs0mg"},{"bike_id":"978d2f99-2f31-4c4e-be2a-4e68224c9eda","system_id":"levelo_inurba_marseille","lat":43.26795,"lon":5.40263,"is_reserved":false,"is_disabled":false,"rental_uris":{"android":"levelo://app?vid=978d2f99-2f31-4c4e-be2a-4e68224c9eda","ios":"levelo://app?vid=978d2f99-2f31-4c4e-be2a-4e68224c9eda"},"vehicle_type_id":"4","last_reported":1771093161,"current_range_meters":27200,"station_id":"ce501612rcd8frsf0b60","pricing_plan_id":"cebpf4jnsgd1na2vs0mg"},{"bike_id":"fbfd0048-6105-491e-a4f1-925d27762381","system_id":"levelo_inurba_marseille","lat":43.3105,"lon":5.37173,"is_reserved":false,"is_disabled":false,"rental_uris":{"android":"levelo://app?vid=fbfd0048-6105-491e-a4f1-925d27762381","ios":"levelo://app?vid=fbfd0048-6105-491e-a4f1-925d27762381"},"vehicle_type_id":"4","last_reported":1771093161,"current_range_meters":14400,"station_id":"st_d4kl2rp97mjs73e7tdfg","pricing_plan_id":"cebpf4jnsgd1na2vs0mg"},{"bike_id":"f2d1b094-781e-4355-b5c2-3d02a6975d88","system_id":"levelo_inurba_marseille","lat":43.29708,"lon":5.36599,"is_reserved":false,"is_disabled":false,"rental_uris":{"android":"levelo://app?vid=f2d1b094-781e-4355-b5c2-3d02a6975d88","ios":"levelo://app?vid=f2d1b094-781e-4355-b5c2-3d02a6975d88"},"vehicle_type_id":"4","last_reported":1771093161,"current_range_meters":24400,"station_id":"ce4bgn12rcd13ifvqbt0","pricing_plan_id":"cebpf4jnsgd1na2vs0mg"},{"bike_id":"460da1b5-d132-4dfb-bd90-4253e1863754","system_id":"levelo_inurba_marseille","lat":43.303524,"lon":5.41873,"is_reserved":false,"is_disabled":false,"rental_uris":{"android":"levelo://app?vid=460da1b5-d132-4dfb-bd90-4253e1863754","ios":"levelo://app?vid=460da1b5-d132-4dfb-bd90-4253e1863754"},"vehicle_type_id":"4","last_reported":1771093161,"current_range_meters":20000,"station_id":"ce4bhop2rcd13ifvqh7g","pricing_plan_id":"cebpf4jnsgd1na2vs0mg"},{"bike_id":"85c48cd4-29fb-400b-8834-9362d4a8d35f","system_id":"levelo_inurba_marseille","lat":43.30191,"lon":5.36585,"is_reserved":false,"is_disabled":false,"rental_uris":{"android":"levelo://app?vid=85c48cd4-29fb-400b-8834-9362d4a8d35f","ios":"levelo://app?vid=85c48cd4-29fb-400b-8834-9362d4a8d35f"},"vehicle_type_id":"4","last_reported":1771093161,"current_range_meters":37600,"station_id":"ce4bgrh2rcd13ifvqc8g","pricing_plan_id":"cebpf4jnsgd1na2vs0mg"},{"bike_id":"cf8b7d0a-9a5a-4f97-92c3-931492bbfb02","system_id":"levelo_inurba_marseille","lat":43.27212,"lon":5.40967,"is_reserved":false,"is_disabled":false,"rental_uris":{"android":"levelo://app?vid=cf8b7d0a-9a5a-4f97-92c3-931492bbfb02","ios":"levelo://app?vid=cf8b7d0a-9a5a-4f97-92c3-931492bbfb02"},"vehicle_type_id":"4","last_reported":1771093161,"current_range_meters":33200,"station_id":"","pricing_plan_id":"cebpf4jnsgd1na2vs0mg"},{"bike_id":"bdf7f587-2666-4399-815e-5c97fae03f05","system_id":"levelo_inurba_marseille","lat":43.27818,"lon":5.40712,"is_reserved":false,"is_disabled":false,"rental_uris":{"android":"levelo://app?vid=bdf7f587-2666-4399-815e-5c97fae03f05","ios":"levelo://app?vid=bdf7f587-2666-4399-815e-5c97fae03f05"},"vehicle_type_id":"4","last_reported":1771093161,"current_range_meters":20400,"station_id":"ce4bhnh2rcd13ifvqgtg","pricing_plan_id":"cebpf4jnsgd1na2vs0mg"},{"bike_id":"88ff9439-db02-4be2-a9f2-dbfd8e7a5968","system_id":"levelo_inurba_marseille","lat":43.25866,"lon":5.39903,"is_reserved":false,"is_disabled":false,"rental_uris":{"android":"levelo://app?vid=88ff9439-db02-4be2-a9f2-dbfd8e7a5968","ios":"levelo://app?vid=88ff9439-db02-4be2-a9f2-dbfd8e7a5968"},"vehicle_type_id":"4","last_reported":1771093161,"current_range_meters":34800,"station_id":"ce4bhl92rcd13ifvqghg","pricing_plan_id":"cebpf4jnsgd1na2vs0mg"},{"bike_id":"ccee0fc7-5ce5-40b3-a3c1-200be8275a2b","system_id":"levelo_inurba_marseille","lat":43.24953,"lon":5.4048,"is_reserved":false,"is_disabled":false,"rental_uris":{"android":"levelo://app?vid=ccee0fc7-5ce5-40b3-a3c1-200be8275a2b","ios":"levelo://app?vid=ccee0fc7-5ce5-40b3-a3c1-200be8275a2b"},"vehicle_type_id":"4","last_reported":1771093161,"current_range_meters":37600,"station_id":"st_d2ngiaodas8pm72gd1h0","pricing_plan_id":"cebpf4jnsgd1na2vs0mg"},{"bike_id":"cffdfd34-5d39-4b18-94f8-b1f3f442aea3","system_id":"levelo_inurba_marseille","lat":43.25084,"lon":5.39522,"is_reserved":false,"is_disabled":false,"rental_uris":{"android":"levelo://app?vid=cffdfd34-5d39-4b18-94f8-b1f3f442aea3","ios":"levelo://app?vid=cffdfd34-5d39-4b18-94f8-b1f3f442aea3"},"vehicle_type_id":"4","last_reported":1771093161,"current_range_meters":36400,"station_id":"ce4bhm12rcd13ifvqgkg","pricing_plan_id":"cebpf4jnsgd1na2vs0mg"},{"bike_id":"02be7b3c-95f1-4b03-a614-8d372e7e0d1d","system_id":"levelo_inurba_marseille","lat":43.27352,"lon":5.36251,"is_reserved":false,"is_disabled":true,"rental_uris":{"android":"levelo://app?vid=02be7b3c-95f1-4b03-a614-8d372e7e0d1d","ios":"levelo://app?vid=02be7b3c-95f1-4b03-a614-8d372e7e0d1d"},"vehicle_type_id":"4","last_reported":1771093161,"current_range_meters":1600,"station_id":"ce4bhbh2rcd13ifvqeo0","pricing_plan_id":"cebpf4jnsgd1na2vs0mg"},{"bike_id":"a08e432b-50d2-4ce1-b298-be02f429a7ad","system_id":"levelo_inurba_marseille","lat":43.25537,"lon":5.37647,"is_reserved":false,"is_disabled":false,"rental_uris":{"android":"levelo://app?vid=a08e432b-50d2-4ce1-b298-be02f429a7ad","ios":"levelo://app?vid=a08e432b-50d2-4ce1-b298-be02f429a7ad"},"vehicle_type_id":"4","last_reported":1771093161,"current_range_meters":39200,"station_id":"ce4bhh12rcd13ifvqff0","pricing_plan_id":"cebpf4jnsgd1na2vs0mg"},{"bike_id":"cf1381e3-c279-4e04-9268-163593f99fa1","system_id":"levelo_inurba_marseille","lat":43.30153,"lon":5.38083,"is_reserved":false,"is_disabled":false,"rental_uris":{"android":"levelo://app?vid=cf1381e3-c279-4e04-9268-163593f99fa1","ios":"levelo://app?vid=cf1381e3-c279-4e04-9268-163593f99fa1"},"vehicle_type_id":"4","last_reported":1771093161,"current_range_meters":20800,"station_id":"ce4bgjp2rcd13ifvqbh0","pricing_plan_id":"cebpf4jnsgd1na2vs0mg"},{"bike_id":"8fd4569f-4513-4bcf-9440-02144f737ba7","system_id":"levelo_inurba_marseille","lat":43.310492,"lon":5.371693,"is_reserved":false,"is_disabled":false,"rental_uris":{"android":"levelo://app?vid=8fd4569f-4513-4bcf-9440-02144f737ba7","ios":"levelo://app?vid=8fd4569f-4513-4bcf-9440-02144f737ba7"},"vehicle_type_id":"4","last_reported":1771093161,"current_range_meters":24000,"station_id":"st_d4kl2rp97mjs73e7tdfg","pricing_plan_id":"cebpf4jnsgd1na2vs0mg"},{"bike_id":"7cd4f0f3-9aa1-4a7f-a18f-835dabc5b233","system_id":"levelo_inurba_marseille","lat":43.29251,"lon":5.40909,"is_reserved":false,"is_disabled":false,"rental_uris":{"android":"levelo://app?vid=7cd4f0f3-9aa1-4a7f-a18f-835dabc5b233","ios":"levelo://app?vid=7cd4f0f3-9aa1-4a7f-a18f-835dabc5b233"},"vehicle_type_id":"4","last_reported":1771093161,"current_range_meters":16800,"station_id":"ce4bh192rcd13ifvqdc0","pricing_plan_id":"cebpf4jnsgd1na2vs0mg"},