{"last_updated":1741201660,"ttl":60,"version":"2.2","data":{"bikes":[{"bike_id":"511d8bfb-54fb-4e3b-8b58-cd0179111dc0","system_id":"levelo_inurba_marseille","lat":43.25252,"lon":5.4031,"is_reserved":false,"is_disabled":true,"rental_uris":{"android":"levelo://app?vid=511d8bfb-54fb-4e3b-8b58-cd0179111dc0","ios":"levelo://app?vid=511d8bfb-54fb-4e3b-8b58-cd0179111dc0"},"vehicle_type_id":"4","last_reported":1741201661,"current_range_meters":0,"station_id":"","pricing_plan_id":"cebpf4jnsgd1na2vs0mg"},{"bike_id":"824749fb-c7cc-49ac-9e95-1f214964bc22","system_id":"levelo_inurba_marseille","lat":43.27443,"lon":5.36098,"is_reserved":false,"is_disabled":true,"rental_uris":{"android":"levelo://app?vid=824749fb-c7cc-49ac-9e95-1f214964bc22","ios":"levelo://app?vid=824749fb-c7cc-49ac-9e95-1f214964bc22"},"vehicle_type_id":"4","last_reported":1741201661,"current_range_meters":0,"station_id":"","pricing_plan_id":"cebpf4jnsgd1na2vs0mg"},{"bike_id":"e7ec1ac1-2323-47bd-a2b5-7cd3afb282cf","system_id":"levelo_inurba_marseille","lat":43.26923,"lon":5.36669,"is_reserved":false,"is_disabled":true,"rental_uris":{"android":"levelo://app?vid=e7ec1ac1-2323-47bd-a2b5-7cd3afb282cf","ios":"levelo://app?vid=e7ec1ac1-2323-47bd-a2b5-7cd3afb282cf"},"vehicle_type_id":"4","last_reported":1741201661,"current_range_meters":0,"station_id":"","pricing_plan_id":"cebpf4jnsgd1na2vs0mg"},{"bike_id":"1fbb851c-40f0-400a-a39e-f9ca0775c1f0","system_id":"levelo_inurba_marseille","lat":43.286207,"lon":5.39986,"is_reserved":false,"is_disabled":true,"rental_uris":{"android":"levelo://app?vid=1fbb851c-40f0-400a-a39e-f9ca0775c1f0","ios":"levelo://app?vid=1fbb851c-40f0-400a-a39e-f9ca0775c1f0"},"vehicle_type_id":"4","last_reported":1741201661,"current_range_meters":0,"station_id":"","pricing_plan_id":"cebpf4jnsgd1na2vs0mg"},{"bike_id":"2c258514-f46f-4266-b6a8-d9d368e0695c","system_id":"levelo_inurba_marseille","lat":43.29531,"lon":5.38543,"is_reserved":false,"is_disabled":true,"rental_uris":{"android":"levelo://app?vid=2c258514-f46f-4266-b6a8-d9d368e0695c","ios":"levelo://app?vid=2c258514-f46f-4266-b6a8-d9d368e0695c"},"vehicle_type_id":"4","last_reported":1741201661,"current_range_meters":0,"station_id":"","pricing_plan_id":"cebpf4jnsgd1na2vs0mg"},{"bike_id":"fc74dc0e-7c51-4d78-98e1-31cc09ce8889","system_id":"levelo_inurba_marseille","lat":43.26762,"lon":5.39454,"is_reserved":false,"is_disabled":true,"rental_uris":{"android":"levelo://app?vid=fc74dc0e-7c51-4d78-98e1-31cc09ce8889","ios":"levelo://app?vid=fc74dc0e-7c51-4d78-98e1-31cc09ce8889"},"vehicle_type_id":"4","last_reported":1741201661,"current_range_meters":0,"station_id":"","pricing_plan_id":"cebpf4jnsgd1na2vs0mg"},{"bike_id":"e432fcbc-da49-4827-bc18-4179d60243bb","system_id":"levelo_inurba_marseille","lat":43.31229,"lon":5.368655,"is_reserved":false,"is_disabled":true,"rental_uris":{"android":"levelo://app?vid=e432fcbc-da49-4827-bc18-4179d60243bb","ios":"levelo://app?vid=e432fcbc-da49-4827-bc18-4179d60243bb"},"vehicle_type_id":"4","last_reported":1741201661,"current_range_meters":0,"station_id":"ce4bgl92rcd13ifvqbq0","pricing_plan_id":"cebpf4jnsgd1na2vs0mg"},{"bike_id":"7b3646bd-bf6d-4657-9622-047e63fcc440","system_id":"levelo_inurba_marseille","lat":43.30307,"lon":5.36901,"is_reserved":false,"is_disabled":true,"rental_uris":{"android":"levelo://app?vid=7b3646bd-bf6d-4657-9622-047e63fcc440","ios":"levelo://app?vid=7b3646bd-bf6d-4657-9622-047e63fcc440"},"vehicle_type_id":"4","last_reported":1741201661,"current_range_meters":0,"station_id":"ce4bgqh2rcd13ifvqc5g","pricing_plan_id":"cebpf4jnsgd1na2vs0mg"},{"bike_id":"568dd1a7-2e5e-4210-af27-1f0294fc4e02","system_id":"levelo_inurba_marseille","lat":43.30152,"lon":5.39842,"is_reserved":false,"is_disabled":true,"rental_uris":{"android":"levelo://app?vid=568dd1a7-2e5e-4210-af27-1f0294fc4e02","ios":"levelo://app?vid=568dd1a7-2e5e-4210-af27-1f0294fc4e02"},"vehicle_type_id":"4","last_reported":1741201661,"current_range_meters":0,"station_id":"ce4bh0h2rcd13ifvqd40","pricing_plan_id":"cebpf4jnsgd1na2vs0mg"},{"bike_id":"75b2ed45-b280-434f-a630-5309136188af","system_id":"levelo_inurba_marseille","lat":43.29416,"lon":5.38603,"is_reserved":false,"is_disabled":true,"rental_uris":{"android":"levelo://app?vid=75b2ed45-b280-434f-a630-5309136188af","ios":"levelo://app?vid=75b2ed45-b280-434f-a630-5309136188af"},"vehicle_type_id":"4","last_reported":1741201661,"current_range_meters":0,"station_id":"ce4bh2h2rcd13ifvqdh0","pricing_plan_id":"cebpf4jnsgd1na2vs0mg"},{"bike_id":"1cb9bbb0-2cee-4502-9fcb-96899735d7ed","system_id":"levelo_inurba_marseille","lat":43.28836,"lon":5.39313,"is_reserved":false,"is_disabled":true,"rental_uris":{"android":"levelo://app?vid=1cb9bbb0-2cee-4502-9fcb-96899735d7ed","ios":"levelo://app?vid=1cb9bbb0-2cee-4502-9fcb-96899735d7ed"},"vehicle_type_id":"4","last_reported":1741201661,"current_range_meters":0,"station_id":"ce4bh2p2rcd13ifvqdi0","pricing_plan_id":"cebpf4jnsgd1na2vs0mg"},{"bike_id":"32f54df9-f8ba-4c53-848b-5a66e68ab69a","system_id":"levelo_inurba_marseille","lat":43.29567,"lon":5.3996,"is_reserved":false,"is_disabled":true,"rental_uris":{"android":"levelo://app?vid=32f54df9-f8ba-4c53-848b-5a66e68ab69a","ios":"levelo://app?vid=32f54df9-f8ba-4c53-848b-5a66e68ab69a"},"vehicle_type_id":"4","last_reported":1741201661,"current_range_meters":0,"station_id":"ce4bh312rcd13ifvqdj0","pricing_plan_id":"cebpf4jnsgd1na2vs0mg"},{"bike_id":"7c85c549-be8e-4f54-b3a2-4e2f7794392f","system_id":"levelo_inurba_marseille","lat":43.29033,"lon":5.39974,"is_reserved":false,"is_disabled":true,"rental_uris":{"android":"levelo://app?vid=7c85c549-be8e-4f54-b3a2-4e2f7794392f","ios":"levelo://app?vid=7c85c549-be8e-4f54-b3a2-4e2f7794392f"},"vehicle_type_id":"4","last_reported":1741201661,"current_range_meters":0,"station_id":"ce4bh392rcd13ifvqdm0","pricing_plan_id":"cebpf4jnsgd1na2vs0mg"},{"bike_id":"c7ac1723-0c9a-42c7-bd42-9d0c7b1d6760","system_id":"levelo_inurba_marseille","lat":43.2902,"lon":5.38667,"is_reserved":false,"is_disabled":true,"rental_uris":{"android":"levelo://app?vid=c7ac1723-0c9a-42c7-bd42-9d0c7b1d6760","ios":"levelo://app?vid=c7ac1723-0c9a-42c7-bd42-9d0c7b1d6760"},"vehicle_type_id":"4","last_reported":1741201661,"current_range_meters":0,"station_id":"ce4bh4p2rcd13ifvqe0g","pricing_plan_id":"cebpf4jnsgd1na2vs0mg"},{"bike_id":"a746f7e1-87b2-4467-b713-ddcaa1929381","system_id":"levelo_inurba_marseille","lat":43.2906,"lon":5.37137,"is_reserved":false,"is_disabled":true,"rental_uris":{"android":"levelo://app?vid=a746f7e1-87b2-4467-b713-ddcaa1929381","ios":"levelo://app?vid=a746f7e1-87b2-4467-b713-ddcaa1929381"},"vehicle_type_id":"4","last_reported":1741201661,"current_range_meters":0,"station_id":"ce4bh5p2rcd13ifvqe4g","pricing_plan_id":"cebpf4jnsgd1na2vs0mg"},{"bike_id":"ef8e204a-8175-4319-83f0-28afaea2cbd9","system_id":"levelo_inurba_marseille","lat":43.28928,"lon":5.38397,"is_reserved":false,"is_disabled":true,"rental_uris":{"android":"levelo://app?vid=ef8e204a-8175-4319-83f0-28afaea2cbd9","ios":"levelo://app?vid=ef8e204a-8175-4319-83f0-28afaea2cbd9"},"vehicle_type_id":"4","last_reported":1741201661,"current_range_meters":0,"station_id":"ce4bh612rcd13ifvqe6g","pricing_plan_id":"cebpf4jnsgd1na2vs0mg"},{"bike_id":"68b3630a-ce19-475b-8803-89f54b1fb972","system_id":"levelo_inurba_marseille","lat":43.28721,"lon":5.37924,"is_reserved":false,"is_disabled":true,"rental_uris":{"android":"levelo://app?vid=68b3630a-ce19-475b-8803-89f54b1fb972","ios":"levelo://app?vid=68b3630a-ce19-475b-8803-89f54b1fb972"},"vehicle_type_id":"4","last_reported":1741201661,"current_range_meters":0,"station_id":"ce4bh9p2rcd13ifvqec0","pricing_plan_id":"cebpf4jnsgd1na2vs0mg"},{"bike_id":"565d762c-eeba-434d-bbbb-e5907199f12d","system_id":"levelo_inurba_marseille","lat":43.29187,"lon":5.35822,"is_reserved":false,"is_disabled":true,"rental_uris":{"android":"levelo://app?vid=565d762c-eeba-434d-bbbb-e5907199f12d","ios":"levelo://app?vid=565d762c-eeba-434d-bbbb-e5907199f12d"},"vehicle_type_id":"4","last_reported":1741201661,"current_range_meters":0,"station_id":"ce4bhb12rcd13ifvqel0","pricing_plan_id":"cebpf4jnsgd1na2vs0mg"},{"bike_id":"46bdb617-5017-478d-9e80-e592c567fbf4","system_id":"levelo_inurba_marseille","lat":43.29006,"lon":5.35602,"is_reserved":false,"is_disabled":true,"rental_uris":{"android":"levelo://app?vid=46bdb617-5017-478d-9e80-e592c567fbf4","ios":"levelo://app?vid=46bdb617-5017-478d-9e80-e592c567fbf4"},"vehicle_type_id":"4","last_reported":1741201661,"current_range_meters":0,"station_id":"ce4bhb92rcd13ifvqen0","pricing_plan_id":"cebpf4jnsgd1na2vs0mg"},{"bike_id":"8882cfa6-4a89-4db2-8985-68b357168b58","system_id":"levelo_inurba_marseille","lat":43.28606,"lon":5.351,"is_reserved":false,"is_disabled":true,"rental_uris":{"android":"levelo://app?vid=8882cfa6-4a89-4db2-8985-68b357168b58","ios":"levelo://app?vid=8882cfa6-4a89-4db2-8985-68b357168b58"},"vehicle_type_id":"4","last_reported":1741201661,"current_range_meters":0,"station_id":"ce4bhch2rcd13ifvqeug","pricing_plan_id":"cebpf4jnsgd1na2vs0mg"},{"bike_id":"cd9d4621-87c9-43fa-bf60-f57f0466cc40","system_id":"levelo_inurba_marseille","lat":43.28634,"lon":5.35114,"is_reserved":false,"is_disabled":true,"rental_uris":{"android":"levelo://app?vid=cd9d4621-87c9-43fa-bf60-f57f0466cc40","ios":"levelo://app?vid=cd9d4621-87c9-43fa-bf60-f57f0466cc40"},"vehicle_type_id":"4","last_reported":1741201661,"current_range_meters":0,"station_id":"ce4bhch2rcd13ifvqeug","pricing_plan_id":"cebpf4jnsgd1na2vs0mg"},{"bike_id":"992e8fb0-8275-4870-94f6-d3acebc85814","system_id":"levelo_inurba_marseille","lat":43.28602,"lon":5.35116,"is_reserved":false,"is_disabled":true,"rental_uris":{"android":"levelo://app?vid=992e8fb0-8275-4870-94f6-d3acebc85814","ios":"levelo://app?vid=992e8fb0-8275-4870-94f6-d3acebc85814"},"vehicle_type_id":"4","last_reported":1741201661,"current_range_meters":0,"station_id":"ce4bhch2rcd13ifvqeug","pricing_plan_id":"cebpf4jnsgd1na2vs0mg"},{"bike_id":"5232e109-ef13-40cc-880c-9ea8b6a6d4b2","system_id":"levelo_inurba_marseille","lat":43.26567,"lon":5.39002,"is_reserved":false,"is_disabled":true,"rental_uris":{"android":"levelo://app?vid=5232e109-ef13-40cc-880c-9ea8b6a6d4b2","ios":"levelo://app?vid=5232e109-ef13-40cc-880c-9ea8b6a6d4b2"},"vehicle_type_id":"4","last_reported":1741201661,"current_range_meters":0,"station_id":"ce4bhe12rcd13ifvqf30","pricing_plan_id":"cebpf4jnsgd1na2vs0mg"},{"bike_id":"7ccb3f0f-1f88-4fbc-a6d5-8f1f8337e154","system_id":"levelo_inurba_marseille","lat":43.26208,"lon":5.37453,"is_reserved":false,"is_disabled":true,"rental_uris":{"android":"levelo://app?vid=7ccb3f0f-1f88-4fbc-a6d5-8f1f8337e154","ios":"levelo://app?vid=7ccb3f0f-1f88-4fbc-a6d5-8f1f8337e154"},"vehicle_type_id":"4","last_reported":1741201661,"current_range_meters":0,"station_id":"ce4bhgp2rcd13ifvqfc0","pricing_plan_id":"cebpf4jnsgd1na2vs0mg"},{"bike_id":"86fbf602-64b1-40a1-ba99-362be7a0772a","system_id":"levelo_inurba_marseille","lat":43.2549,"lon":5.37632,"is_reserved":false,"is_disabled":true,"rental_uris":{"android":"levelo://app?vid=86fbf602-64b1-40a1-ba99-362be7a0772a","ios":"levelo://app?vid=86fbf602-64b1-40a1-ba99-362be7a0772a"},"vehicle_type_id":"4","last_reported":1741201661,"current_range_meters":0,"station_id":"ce4bhh12rcd13ifvqff0","pricing_plan_id":"cebpf4jnsgd1na2vs0mg"},{"bike_id":"c13f884d-6fd8-4a40-a8e5-ae56bf400a54","system_id":"levelo_inurba_marseille","lat":43.26833,"lon":5.39364,"is_reserved":false,"is_disabled":true,"rental_uris":{"android":"levelo://app?vid=c13f884d-6fd8-4a40-a8e5-ae56bf400a54","ios":"levelo://app?vid=c13f884d-6fd8-4a40-a8e5-ae56bf400a54"},"vehicle_type_id":"4","last_reported":1741201661,"current_range_meters":0,"station_id":"ce4bhh12rcd13ifvqfg0","pricing_plan_id":"cebpf4jnsgd1na2vs0mg"},{"bike_id":"5ec35487-059f-4be0-a79c-27d830a9821f","system_id":"levelo_inurba_marseille","lat":43.26947,"lon":5.38934,"is_reserved":false,"is_disabled":true,"rental_uris":{"android":"levelo://app?vid=5ec35487-059f-4be0-a79c-27d830a9821f","ios":"levelo://app?vid=5ec35487-059f-4be0-a79c-27d830a9821f"},"vehicle_type_id":"4","last_reported":1741201661,"current_range_meters":0,"station_id":"ce4bhhh2rcd13ifvqfl0","pricing_plan_id":"cebpf4jnsgd1na2vs0mg"},{"bike_id":"168c191b-8878-425b-939d-2eec95be9fb7","system_id":"levelo_inurba_marseille","lat":43.27205,"lon":5.39165,"is_reserved":false,"is_disabled":true,"rental_uris":{"android":"levelo://app?vid=168c191b-8878-425b-939d-2eec95be9fb7","ios":"levelo://app?vid=168c191b-8878-425b-939d-2eec95be9fb7"},"vehicle_type_id":"4","last_reported":1741201661,"current_range_meters":0,"station_id":"ce4bhhp2rcd13ifvqfm0","pricing_plan_id":"cebpf4jnsgd1na2vs0mg"},{"bike_id":"a4e809bd-307c-464e-8bbe-a7f8c1f7ac73","system_id":"levelo_inurba_marseille","lat":43.272095,"lon":5.392031,"is_reserved":false,"is_disabled":true,"rental_uris":{"android":"levelo://app?vid=a4e809bd-307c-464e-8bbe-a7f8c1f7ac73","ios":"levelo://app?vid=a4e809bd-307c-464e-8bbe-a7f8c1f7ac73"},"vehicle_type_id":"4","last_reported":1741201661,"current_range_meters":0,"station_id":"ce4bhhp2rcd13ifvqfm0","pricing_plan_id":"cebpf4jnsgd1na2vs0mg"},{"bike_id":"b229e635-4af5-4982-a00b-1dcf89b42524","system_id":"levelo_inurba_marseille","lat":43.25744,"lon":5.411358,"is_reserved":false,"is_disabled":true,"rental_uris":{"android":"levelo://app?vid=b229e635-4af5-4982-a00b-1dcf89b42524","ios":"levelo://app?vid=b229e635-4af5-4982-a00b-1dcf89b42524"},"vehicle_type_id":"4","last_reported":1741201661,"current_range_meters":0,"station_id":"ce4bhkp2rcd13ifvqgd0","pricing_plan_id":"cebpf4jnsgd1na2vs0mg"},{"bike_id":"8cd0a2a3-7f04-42f0-a024-01181ee5f3a4","system_id":"levelo_inurba_marseille","lat":43.28718,"lon":5.39972,"is_reserved":false,"is_disabled":true,"rental_uris":{"android":"levelo://app?vid=8cd0a2a3-7f04-42f0-a024-01181ee5f3a4","ios":"levelo://app?vid=8cd0a2a3-7f04-42f0-a024-01181ee5f3a4"},"vehicle_type_id":"4","last_reported":1741201661,"current_range_meters":0,"station_id":"ce4bho92rcd13ifvqh3g","pricing_plan_id":"cebpf4jnsgd1na2vs0mg"},{"bike_id":"6bc3bf1a-df5f-4557-8396-1ec2edeb0974","system_id":"levelo_inurba_marseille","lat":43.23201,"lon":5.35546,"is_reserved":false,"is_disabled":true,"rental_uris":{"android":"levelo://app?vid=6bc3bf1a-df5f-4557-8396-1ec2edeb0974","ios":"levelo://app?vid=6bc3bf1a-df5f-4557-8396-1ec2edeb0974"},"vehicle_type_id":"4","last_reported":1741201661,"current_range_meters":0,"station_id":"ce4bhu92rcd13ifvqi70","pricing_plan_id":"cebpf4jnsgd1na2vs0mg"},{"bike_id":"9ec753d0-105d-4d2f-aa58-dbbb0e37080d","system_id":"levelo_inurba_marseille","lat":43.23203,"lon":5.35548,"is_reserved":false,"is_disabled":true,"rental_uris":{"android":"levelo://app?vid=9ec753d0-105d-4d2f-aa58-dbbb0e37080d","ios":"levelo://app?vid=9ec753d0-105d-4d2f-aa58-dbbb0e37080d"},"vehicle_type_id":"4","last_reported":1741201661,"current_range_meters":0,"station_id":"ce4bhu92rcd13ifvqi70","pricing_plan_id":"cebpf4jnsgd1na2vs0mg"},{"bike_id":"da14256b-c9bd-44dd-b354-2d5d5f431f9e","system_id":"levelo_inurba_marseille","lat":43.23204,"lon":5.35545,"is_reserved":false,"is_disabled":true,"rental_uris":{"android":"levelo://app?vid=da14256b-c9bd-44dd-b354-2d5d5f431f9e","ios":"levelo://app?vid=da14256b-c9bd-44dd-b354-2d5d5f431f9e"},"vehicle_type_id":"4","last_reported":1741201661,"current_range_meters":0,"station_id":"ce4bhu92rcd13ifvqi70","pricing_plan_id":"cebpf4jnsgd1na2vs0mg"},{"bike_id":"f181ee4c-67e4-43da-bf70-9c98269aeed9","system_id":"levelo_inurba_marseille","lat":43.28721,"lon":5.36095,"is_reserved":false,"is_disabled":true,"rental_uris":{"android":"levelo://app?vid=f181ee4c-67e4-43da-bf70-9c98269aeed9","ios":"levelo://app?vid=f181ee4c-67e4-43da-bf70-9c98269aeed9"},"vehicle_type_id":"4","last_reported":1741201661,"current_range_meters":0,"station_id":"cki0cbj6b192h4jlfktg","pricing_plan_id":"cebpf4jnsgd1na2vs0mg"},{"bike_id":"887f6410-e6ea-4b71-9d94-9ad6b655b6fa","system_id":"levelo_inurba_marseille","lat":43.23092,"lon":5.35476,"is_reserved":false,"is_disabled":true,"rental_uris":{"android":"levelo://app?vid=887f6410-e6ea-4b71-9d94-9ad6b655b6fa","ios":"levelo://app?vid=887f6410-e6ea-4b71-9d94-9ad6b655b6fa"},"vehicle_type_id":"4","last_reported":1741201661,"current_range_meters":0,"station_id":"cpo3342slgdg3j2ifvpg","pricing_plan_id":"cebpf4jnsgd1na2vs0mg"},{"bike_id":"20510cb6-82cd-4566-b91f-7ab830081670","system_id":"levelo_inurba_marseille","lat":43.24175,"lon":5.36394,"is_reserved":false,"is_disabled":true,"rental_uris":{"android":"levelo://app?vid=20510cb6-82cd-4566-b91f-7ab830081670","ios":"levelo://app?vid=20510cb6-82cd-4566-b91f-7ab830081670"},"vehicle_type_id":"4","last_reported":1741201661,"current_range_meters":0,"station_id":"cpo36qri1sfpv3e86is0","pricing_plan_id":"cebpf4jnsgd1na2vs0mg"},{"bike_id":"04dcbda5-c022-4dce-b5e0-ba151f7560b6","system_id":"levelo_inurba_marseille","lat":43.29303,"lon":5.37164,"is_reserved":false,"is_disabled":true,"rental_uris":{"android":"levelo://app?vid=04dcbda5-c022-4dce-b5e0-ba151f7560b6","ios":"levelo://app?vid=04dcbda5-c022-4dce-b5e0-ba151f7560b6"},"vehicle_type_id":"4","last_reported":1741201661,"current_range_meters":400,"station_id":"ce4bgh92rcd13ifvqb40","pricing_plan_id":"cebpf4jnsgd1na2vs0mg"},{"bike_id":"51846fb1-f9f2-4570-92b8-2db8a3bb6281","system_id":"levelo_inurba_marseille","lat":43.30295,"lon":5.39208,"is_reserved":false,"is_disabled":true,"rental_uris":{"android":"levelo://app?vid=51846fb1-f9f2-4570-92b8-2db8a3bb6281","ios":"levelo://app?vid=51846fb1-f9f2-4570-92b8-2db8a3bb6281"},"vehicle_type_id":"4","last_reported":1741201661,"current_range_meters":400,"station_id":"ce4bgkh2rcd13ifvqbk0","pricing_plan_id":"cebpf4jnsgd1na2vs0mg"},{"bike_id":"414ba3e2-ea20-4f45-b5f3-faad77960a5c","system_id":"levelo_inurba_marseille","lat":43.28856,"lon":5.39316,"is_reserved":false,"is_disabled":true,"rental_uris":{"android":"levelo://app?vid=414ba3e2-ea20-4f45-b5f3-faad77960a5c","ios":"levelo://app?vid=414ba3e2-ea20-4f45-b5f3-faad77960a5c"},"vehicle_type_id":"4","last_reported":1741201661,"current_range_meters":400,"station_id":"ce4bh2p2rcd13ifvqdi0","pricing_plan_id":"cebpf4jnsgd1na2vs0mg"},{"bike_id":"23a74ba7-944b-47c5-899c-c5932fd50b50","system_id":"levelo_inurba_marseille","lat":43.292999,"lon":5.369114,"is_reserved":false,"is_disabled":true,"rental_uris":{"android":"levelo://app?vid=23a74ba7-944b-47c5-899c-c5932fd50b50","ios":"levelo://app?vid=23a74ba7-944b-47c5-899c-c5932fd50b50"},"vehicle_type_id":"4","last_reported":1741201661,"current_range_meters":800,"station_id":"","pricing_plan_id":"cebpf4jnsgd1na2vs0mg"},{"bike_id":"8e97f93f-54b6-4897-b0cd-3282dd58a836","system_id":"levelo_inurba_marseille","lat":43.28655,"lon":5.415395,"is_reserved":false,"is_disabled":true,"rental_uris":{"android":"levelo://app?vid=8e97f93f-54b6-4897-b0cd-3282dd58a836","ios":"levelo://app?vid=8e97f93f-54b6-4897-b0cd-3282dd58a836"},"vehicle_type_id":"4","last_reported":1741201661,"current_range_meters":800,"station_id":"","pricing_plan_id":"cebpf4jnsgd1na2vs0mg"},{"bike_id":"0bd9a3c9-c726-45f1-be9f-4cffe17f5ac1","system_id":"levelo_inurba_marseille","lat":43.29243,"lon":5.38532,"is_reserved":false,"is_disabled":true,"rental_uris":{"android":"levelo://app?vid=0bd9a3c9-c726-45f1-be9f-4cffe17f5ac1","ios":"levelo://app?vid=0bd9a3c9-c726-45f1-be9f-4cffe17f5ac1"},"vehicle_type_id":"4","last_reported":1741201661,"current_range_meters":800,"station_id":"","pricing_plan_id":"cebpf4jnsgd1na2vs0mg"},{"bike_id":"ad20e828-6844-4c76-b2a2-041a442b61c7","system_id":"levelo_inurba_marseille","lat":43.321655,"lon":5.402552,"is_reserved":false,"is_disabled":true,"rental_uris":{"android":"levelo://app?vid=ad20e828-6844-4c76-b2a2-041a442b61c7","ios":"levelo://app?vid=ad20e828-6844-4c76-b2a2-041a442b61c7"},"vehicle_type_id":"4","last_reported":1741201661,"current_range_meters":800,"station_id":"ce4bh012rcd13ifvqd00","pricing_plan_id":"cebpf4jnsgd1na2vs0mg"},{"bike_id":"a256e4a8-11f2-4707-a18a-b50d98dd9280","system_id":"levelo_inurba_marseille","lat":43.2952,"lon":5.39407,"is_reserved":false,"is_disabled":true,"rental_uris":{"android":"levelo://app?vid=a256e4a8-11f2-4707-a18a-b50d98dd9280","ios":"levelo://app?vid=a256e4a8-11f2-4707-a18a-b50d98dd9280"},"vehicle_type_id":"4","last_reported":1741201661,"current_range_meters":800,"station_id":"ce4bh292rcd13ifvqdf0","pricing_plan_id":"cebpf4jnsgd1na2vs0mg"},{"bike_id":"c3807187-63c9-4830-9005-3c35cc088787","system_id":"levelo_inurba_marseille","lat":43.29035,"lon":5.39967,"is_reserved":false,"is_disabled":true,"rental_uris":{"android":"levelo://app?vid=c3807187-63c9-4830-9005-3c35cc088787","ios":"levelo://app?vid=c3807187-63c9-4830-9005-3c35cc088787"},"vehicle_type_id":"4","last_reported":1741201661,"current_range_meters":800,"station_id":"ce4bh392rcd13ifvqdm0","pricing_plan_id":"cebpf4jnsgd1na2vs0mg"},{"bike_id":"d3f618bc-3f19-4391-827c-c2278603bce1","system_id":"levelo_inurba_marseille","lat":43.2927,"lon":5.38436,"is_reserved":false,"is_disabled":true,"rental_uris":{"android":"levelo://app?vid=d3f618bc-3f19-4391-827c-c2278603bce1","ios":"levelo://app?vid=d3f618bc-3f19-4391-827c-c2278603bce1"},"vehicle_type_id":"4","last_reported":1741201661,"current_range_meters":800,"station_id":"ce4bh692rcd13ifvqea0","pricing_plan_id":"cebpf4jnsgd1na2vs0mg"},{"bike_id":"63ed8b00-e468-430a-b08d-8fb5dfc72132","system_id":"levelo_inurba_marseille","lat":43.293671,"lon":5.378414,"is_reserved":false,"is_disabled":true,"rental_uris":{"android":"levelo://app?vid=63ed8b00-e468-430a-b08d-8fb5dfc72132","ios":"levelo://app?vid=63ed8b00-e468-430a-b08d-8fb5dfc72132"},"vehicle_type_id":"4","last_reported":1741201661,"current_range_meters":800,"station_id":"ce4bhah2rcd13ifvqei0","pricing_plan_id":"cebpf4jnsgd1na2vs0mg"},{"bike_id":"be7868dd-5453-445a-9db7-26e2e67710e6","system_id":"levelo_inurba_marseille","lat":43.28415,"lon":5.34988,"is_reserved":false,"is_disabled":true,"rental_uris":{"android":"levelo://app?vid=be7868dd-5453-445a-9db7-26e2e67710e6","ios":"levelo://app?vid=be7868dd-5453-445a-9db7-26e2e67710e6"},"vehicle_type_id":"4","last_reported":1741201661,"current_range_meters":800,"station_id":"ce4bhbh2rcd13ifvqepg","pricing_plan_id":"cebpf4jnsgd1na2vs0mg"},{"bike_id":"ff04ec68-feb9-4b6f-93eb-713ca920d365","system_id":"levelo_inurba_marseille","lat":43.26212,"lon":5.37439,"is_reserved":false,"is_disabled":true,"rental_uris":{"android":"levelo://app?vid=ff04ec68-feb9-4b6f-93eb-713ca920d365","ios":"levelo://app?vid=ff04ec68-feb9-4b6f-93eb-713ca920d365"},"vehicle_type_id":"4","last_reported":1741201661,"current_range_meters":800,"station_id":"ce4bhgp2rcd13ifvqfc0","pricing_plan_id":"cebpf4jnsgd1na2vs0mg"},{"bike_id":"dbf4c308-2d4d-4606-afe2-a55adf807266","system_id":"levelo_inurba_marseille","lat":43.25107,"lon":5.4033,"is_reserved":false,"is_disabled":true,"rental_uris":{"android":"levelo://app?vid=dbf4c308-2d4d-4606-afe2-a55adf807266","ios":"levelo://app?vid=dbf4c308-2d4d-4606-afe2-a55adf807266"},"vehicle_type_id":"4","last_reported":1741201661,"current_range_meters":800,"station_id":"ce4bhlh2rcd13ifvqgig","pricing_plan_id":"cebpf4jnsgd1na2vs0mg"},{"bike_id":"cf4de496-4060-4465-a073-feae55dd0910","system_id":"levelo_inurba_marseille","lat":43.27999,"lon":5.40007,"is_reserved":false,"is_disabled":true,"rental_uris":{"android":"levelo://app?vid=cf4de496-4060-4465-a073-feae55dd0910","ios":"levelo://app?vid=cf4de496-4060-4465-a073-feae55dd0910"},"vehicle_type_id":"4","last_reported":1741201661,"current_range_meters":800,"station_id":"ce4bho92rcd13ifvqh4g","pricing_plan_id":"cebpf4jnsgd1na2vs0mg"},{"bike_id":"d6d95fa5-4808-4a6f-bedd-a30ee4e24b39","system_id":"levelo_inurba_marseille","lat":43.28,"lon":5.40023,"is_reserved":false,"is_disabled":true,"rental_uris":{"android":"levelo://app?vid=d6d95fa5-4808-4a6f-bedd-a30ee4e24b39","ios":"levelo://app?vid=d6d95fa5-4808-4a6f-bedd-a30ee4e24b39"},"vehicle_type_id":"4","last_reported":1741201661,"current_range_meters":800,"station_id":"ce4bho92rcd13ifvqh4g","pricing_plan_id":"cebpf4jnsgd1na2vs0mg"},{"bike_id":"bdcffdf1-d4bc-47eb-9cd1-ddc6cf46a54a","system_id":"levelo_inurba_marseille","lat":43.29973,"lon":5.41301,"is_reserved":false,"is_disabled":true,"rental_uris":{"android":"levelo://app?vid=bdcffdf1-d4bc-47eb-9cd1-ddc6cf46a54a","ios":"levelo://app?vid=bdcffdf1-d4bc-47eb-9cd1-ddc6cf46a54a"},"vehicle_type_id":"4","last_reported":1741201661,"current_range_meters":800,"station_id":"ce4bhp12rcd13ifvqh9g","pricing_plan_id":"cebpf4jnsgd1na2vs0mg"},{"bike_id":"c926add1-9859-4108-9386-57fd8a9ca156","system_id":"levelo_inurba_marseille","lat":43.31318,"lon":5.39694,"is_reserved":false,"is_disabled":true,"rental_uris":{"android":"levelo://app?vid=c926add1-9859-4108-9386-57fd8a9ca156","ios":"levelo://app?vid=c926add1-9859-4108-9386-57fd8a9ca156"},"vehicle_type_id":"4","last_reported":1741201661,"current_range_meters":1200,"station_id":"ce4bgvp2rcd13ifvqcu0","pricing_plan_id":"cebpf4jnsgd1na2vs0mg"},{"bike_id":"9e334f32-4c09-424b-9cc1-806ac45c66f1","system_id":"levelo_inurba_marseille","lat":43.31334,"lon":5.396957,"is_reserved":false,"is_disabled":true,"rental_uris":{"android":"levelo://app?vid=9e334f32-4c09-424b-9cc1-806ac45c66f1","ios":"levelo://app?vid=9e334f32-4c09-424b-9cc1-806ac45c66f1"},"vehicle_type_id":"4","last_reported":1741201661,"current_range_meters":1200,"station_id":"ce4bgvp2rcd13ifvqcu0","pricing_plan_id":"cebpf4jnsgd1na2vs0mg"},{"bike_id":"deb332c1-0c7a-4513-a9b2-349b01a7541f","system_id":"levelo_inurba_marseille","lat":43.30587,"lon":5.39361,"is_reserved":false,"is_disabled":true,"rental_uris":{"android":"levelo://app?vid=deb332c1-0c7a-4513-a9b2-349b01a7541f","ios":"levelo://app?vid=deb332c1-0c7a-4513-a9b2-349b01a7541f"},"vehicle_type_id":"4","last_reported":1741201661,"current_range_meters":1200,"station_id":"ce4bh0p2rcd13ifvqd80","pricing_plan_id":"cebpf4jnsgd1na2vs0mg"},{"bike_id":"4b0f0860-3d9a-49f6-8530-edfb4771a2ff","system_id":"levelo_inurba_marseille","lat":43.29425,"lon":5.38632,"is_reserved":false,"is_disabled":true,"rental_uris":{"android":"levelo://app?vid=4b0f0860-3d9a-49f6-8530-edfb4771a2ff","ios":"levelo://app?vid=4b0f0860-3d9a-49f6-8530-edfb4771a2ff"},"vehicle_type_id":"4","last_reported":1741201661,"current_range_meters":1200,"station_id":"ce4bh2h2rcd13ifvqdh0","pricing_plan_id":"cebpf4jnsgd1na2vs0mg"},{"bike_id":"ed5359ff-9c19-436c-be43-9363edd3d20f","system_id":"levelo_inurba_marseille","lat":43.28843,"lon":5.39355,"is_reserved":false,"is_disabled":true,"rental_uris":{"android":"levelo://app?vid=ed5359ff-9c19-436c-be43-9363edd3d20f","ios":"levelo://app?vid=ed5359ff-9c19-436c-be43-9363edd3d20f"},"vehicle_type_id":"4","last_reported":1741201661,"current_range_meters":1200,"station_id":"ce4bh2p2rcd13ifvqdi0","pricing_plan_id":"cebpf4jnsgd1na2vs0mg"},{"bike_id":"790826d7-38a1-4042-a863-1e39dbb2de51","system_id":"levelo_inurba_marseille","lat":43.28637,"lon":5.35102,"is_reserved":false,"is_disabled":true,"rental_uris":{"android":"levelo://app?vid=790826d7-38a1-4042-a863-1e39dbb2de51","ios":"levelo://app?vid=790826d7-38a1-4042-a863-1e39dbb2de51"},"vehicle_type_id":"4","last_reported":1741201661,"current_range_meters":1200,"station_id":"ce4bhch2rcd13ifvqeug","pricing_plan_id":"cebpf4jnsgd1na2vs0mg"},{"bike_id":"f1ff555a-83b1-4bf4-b627-21e41e264768","system_id":"levelo_inurba_marseille","lat":43.24084,"lon":5.37763,"is_reserved":false,"is_disabled":true,"rental_uris":{"android":"levelo://app?vid=f1ff555a-83b1-4bf4-b627-21e41e264768","ios":"levelo://app?vid=f1ff555a-83b1-4bf4-b627-21e41e264768"},"vehicle_type_id":"4","last_reported":1741201661,"current_range_meters":1200,"station_id":"ce4bhnp2rcd13ifvqgvg","pricing_plan_id":"cebpf4jnsgd1na2vs0mg"},{"bike_id":"1d04dddf-8206-4d82-b114-5660bb5620eb","system_id":"levelo_inurba_marseille","lat":43.28085,"lon":5.39643,"is_reserved":false,"is_disabled":true,"rental_uris":{"android":"levelo://app?vid=1d04dddf-8206-4d82-b114-5660bb5620eb","ios":"levelo://app?vid=1d04dddf-8206-4d82-b114-5660bb5620eb"},"vehicle_type_id":"4","last_reported":1741201661,"current_range_meters":1200,"station_id":"ce4bho12rcd13ifvqh2g","pricing_plan_id":"cebpf4jnsgd1na2vs0mg"},{"bike_id":"9600aa48-b76b-4000-a91f-5f472adb0851","system_id":"levelo_inurba_marseille","lat":43.29788,"lon":5.38104,"is_reserved":false,"is_disabled":true,"rental_uris":{"android":"levelo://app?vid=9600aa48-b76b-4000-a91f-5f472adb0851","ios":"levelo://app?vid=9600aa48-b76b-4000-a91f-5f472adb0851"},"vehicle_type_id":"4","last_reported":1741201661,"current_range_meters":1600,"station_id":"ce4bgip2rcd13ifvqbb0","pricing_plan_id":"cebpf4jnsgd1na2vs0mg"},{"bike_id":"f88bf192-ab00-4337-bf8f-651ad6919fa6","system_id":"levelo_inurba_marseille","lat":43.299,"lon":5.38145,"is_reserved":false,"is_disabled":true,"rental_uris":{"android":"levelo://app?vid=f88bf192-ab00-4337-bf8f-651ad6919fa6","ios":"levelo://app?vid=f88bf192-ab00-4337-bf8f-651ad6919fa6"},"vehicle_type_id":"4","last_reported":1741201661,"current_range_meters":1600,"station_id":"ce4bgj12rcd13ifvqbc0","pricing_plan_id":"cebpf4jnsgd1na2vs0mg"},{"bike_id":"206381c7-c784-4d6c-a6ad-b8239bc7046b","system_id":"levelo_inurba_marseille","lat":43.31311,"lon":5.39697,"is_reserved":false,"is_disabled":true,"rental_uris":{"android":"levelo://app?vid=206381c7-c784-4d6c-a6ad-b8239bc7046b","ios":"levelo://app?vid=206381c7-c784-4d6c-a6ad-b8239bc7046b"},"vehicle_type_id":"4","last_reported":1741201661,"current_range_meters":1600,"station_id":"ce4bgvp2rcd13ifvqcu0","pricing_plan_id":"cebpf4jnsgd1na2vs0mg"},{"bike_id":"a8135fa7-0d6c-4e57-a360-c6f2b2c5b53a","system_id":"levelo_inurba_marseille","lat":43.279049,"lon":5.380071,"is_reserved":false,"is_disabled":true,"rental_uris":{"android":"levelo://app?vid=a8135fa7-0d6c-4e57-a360-c6f2b2c5b53a","ios":"levelo://app?vid=a8135fa7-0d6c-4e57-a360-c6f2b2c5b53a"},"vehicle_type_id":"4","last_reported":1741201661,"current_range_meters":1600,"station_id":"ce4bhf92rcd13ifvqf50","pricing_plan_id":"cebpf4jnsgd1na2vs0mg"},{"bike_id":"f3361912-e5d4-4886-bdb9-a4a3c9f7870c","system_id":"levelo_inurba_marseille","lat":43.2679,"lon":5.39425,"is_reserved":false,"is_disabled":true,"rental_uris":{"android":"levelo://app?vid=f3361912-e5d4-4886-bdb9-a4a3c9f7870c","ios":"levelo://app?vid=f3361912-e5d4-4886-bdb9-a4a3c9f7870c"},"vehicle_type_id":"4","last_reported":1741201661,"current_range_meters":1600,"station_id":"ce4bhh12rcd13ifvqfg0","pricing_plan_id":"cebpf4jnsgd1na2vs0mg"},{"bike_id":"fc911c47-9730-4415-895c-019ee7cdbdbb","system_id":"levelo_inurba_marseille","lat":43.317558,"lon":5.390094,"is_reserved":false,"is_disabled":true,"rental_uris":{"android":"levelo://app?vid=fc911c47-9730-4415-895c-019ee7cdbdbb","ios":"levelo://app?vid=fc911c47-9730-4415-895c-019ee7cdbdbb"},"vehicle_type_id":"4","last_reported":1741201661,"current_range_meters":1600,"station_id":"ce4bhqp2rcd13ifvqhng","pricing_plan_id":"cebpf4jnsgd1na2vs0mg"},{"bike_id":"a21abc8d-42b2-419e-89f2-f5db4f614921","system_id":"levelo_inurba_marseille","lat":43.3088,"lon":5.39653,"is_reserved":false,"is_disabled":true,"rental_uris":{"android":"levelo://app?vid=a21abc8d-42b2-419e-89f2-f5db4f614921","ios":"levelo://app?vid=a21abc8d-42b2-419e-89f2-f5db4f614921"},"vehicle_type_id":"4","last_reported":1741201661,"current_range_meters":2000,"station_id":"ce4bh012rcd13ifvqcv0","pricing_plan_id":"cebpf4jnsgd1na2vs0mg"},{"bike_id":"7757f715-f7d4-4946-af35-e601b5f706b5","system_id":"levelo_inurba_marseille","lat":43.23185,"lon":5.39984,"is_reserved":false,"is_disabled":true,"rental_uris":{"android":"levelo://app?vid=7757f715-f7d4-4946-af35-e601b5f706b5","ios":"levelo://app?vid=7757f715-f7d4-4946-af35-e601b5f706b5"},"vehicle_type_id":"4","last_reported":1741201661,"current_range_meters":2000,"station_id":"ce4bhn12rcd13ifvqgqg","pricing_plan_id":"cebpf4jnsgd1na2vs0mg"},{"bike_id":"8e6d23df-d679-4328-ae9d-fb11ae6a3ef0","system_id":"levelo_inurba_marseille","lat":43.30606,"lon":5.37215,"is_reserved":false,"is_disabled":false,"rental_uris":{"android":"levelo://app?vid=8e6d23df-d679-4328-ae9d-fb11ae6a3ef0","ios":"levelo://app?vid=8e6d23df-d679-4328-ae9d-fb11ae6a3ef0"},"vehicle_type_id":"4","last_reported":1741201661,"current_range_meters":2800,"station_id":"ce4bgqh2rcd13ifvqc4g","pricing_plan_id":"cebpf4jnsgd1na2vs0mg"},{"bike_id":"3d413bf0-f356-4a13-8610-ff6edfab56f7","system_id":"levelo_inurba_marseille","lat":43.31112,"lon":5.37762,"is_reserved":false,"is_disabled":false,"rental_uris":{"android":"levelo://app?vid=3d413bf0-f356-4a13-8610-ff6edfab56f7","ios":"levelo://app?vid=3d413bf0-f356-4a13-8610-ff6edfab56f7"},"vehicle_type_id":"4","last_reported":1741201661,"current_range_meters":2800,"station_id":"ce4bgt92rcd13ifvqcg0","pricing_plan_id":"cebpf4jnsgd1na2vs0mg"},{"bike_id":"e82d4380-c155-4d02-8721-14f70628f222","system_id":"levelo_inurba_marseille","lat":43.3128,"lon":5.40168,"is_reserved":false,"is_disabled":false,"rental_uris":{"android":"levelo://app?vid=e82d4380-c155-4d02-8721-14f70628f222","ios":"levelo://app?vid=e82d4380-c155-4d02-8721-14f70628f222"},"vehicle_type_id":"4","last_reported":1741201661,"current_range_meters":2800,"station_id":"ce4bh092rcd13ifvqd30","pricing_plan_id":"cebpf4jnsgd1na2vs0mg"},{"bike_id":"b93e5367-c668-4a32-8adc-a36a97112675","system_id":"levelo_inurba_marseille","lat":43.30104,"lon":5.39081,"is_reserved":false,"is_disabled":false,"rental_uris":{"android":"levelo://app?vid=b93e5367-c668-4a32-8adc-a36a97112675","ios":"levelo://app?vid=b93e5367-c668-4a32-8adc-a36a97112675"},"vehicle_type_id":"4","last_reported":1741201661,"current_range_meters":2800,"station_id":"ce4bh192rcd13ifvqdb0","pricing_plan_id":"cebpf4jnsgd1na2vs0mg"},{"bike_id":"082343eb-5136-4707-9072-cc46fa21413b","system_id":"levelo_inurba_marseille","lat":43.28349,"lon":5.38108,"is_reserved":false,"is_disabled":false,"rental_uris":{"android":"levelo://app?vid=082343eb-5136-4707-9072-cc46fa21413b","ios":"levelo://app?vid=082343eb-5136-4707-9072-cc46fa21413b"},"vehicle_type_id":"4","last_reported":1741201661,"current_range_meters":2800,"station_id":"ce4bh412rcd13ifvqdr0","pricing_plan_id":"cebpf4jnsgd1na2vs0mg"},{"bike_id":"5b0606f2-0444-4af8-a59e-369ac7eb8dd4","system_id":"levelo_inurba_marseille","lat":43.28621,"lon":5.351,"is_reserved":false,"is_disabled":false,"rental_uris":{"android":"levelo://app?vid=5b0606f2-0444-4af8-a59e-369ac7eb8dd4","ios":"levelo://app?vid=5b0606f2-0444-4af8-a59e-369ac7eb8dd4"},"vehicle_type_id":"4","last_reported":1741201661,"current_range_meters":2800,"station_id":"ce4bhch2rcd13ifvqeug","pricing_plan_id":"cebpf4jnsgd1na2vs0mg"},{"bike_id":"1f32c139-a7cc-4b18-82f8-eb86d8a7532b","system_id":"levelo_inurba_marseille","lat":43.27904,"lon":5.3801,"is_reserved":false,"is_disabled":false,"rental_uris":{"android":"levelo://app?vid=1f32c139-a7cc-4b18-82f8-eb86d8a7532b","ios":"levelo://app?vid=1f32c139-a7cc-4b18-82f8-eb86d8a7532b"},"vehicle_type_id":"4","last_reported":1741201661,"current_range_meters":2800,"station_id":"ce4bhf92rcd13ifvqf50","pricing_plan_id":"cebpf4jnsgd1na2vs0mg"},{"bike_id":"eb40af41-7d4d-4bc2-8545-54de213bc0c5","system_id":"levelo_inurba_marseille","lat":43.29622,"lon":5.38099,"is_reserved":false,"is_disabled":false,"rental_uris":{"android":"levelo://app?vid=eb40af41-7d4d-4bc2-8545-54de213bc0c5","ios":"levelo://app?vid=eb40af41-7d4d-4bc2-8545-54de213bc0c5"},"vehicle_type_id":"4","last_reported":1741201661,"current_range_meters":3200,"station_id":"ce4bgl12rcd13ifvqbo0","pricing_plan_id":"cebpf4jnsgd1na2vs0mg"},{"bike_id":"a3fa3ba8-7ede-46f7-bf0a-446da9e086ef","system_id":"levelo_inurba_marseille","lat":43.31356,"lon":5.38483,"is_reserved":false,"is_disabled":false,"rental_uris":{"android":"levelo://app?vid=a3fa3ba8-7ede-46f7-bf0a-446da9e086ef","ios":"levelo://app?vid=a3fa3ba8-7ede-46f7-bf0a-446da9e086ef"},"vehicle_type_id":"4","last_reported":1741201661,"current_range_meters":3200,"station_id":"ce4bgt92rcd13ifvqcf0","pricing_plan_id":"cebpf4jnsgd1na2vs0mg"},{"bike_id":"f3d0f39a-1b59-435a-9c6d-0730af7a025e","system_id":"levelo_inurba_marseille","lat":43.30921,"lon":5.40152,"is_reserved":false,"is_disabled":false,"rental_uris":{"android":"levelo://app?vid=f3d0f39a-1b59-435a-9c6d-0730af7a025e","ios":"levelo://app?vid=f3d0f39a-1b59-435a-9c6d-0730af7a025e"},"vehicle_type_id":"4","last_reported":1741201661,"current_range_meters":3200,"station_id":"ce4bgvp2rcd13ifvqct0","pricing_plan_id":"cebpf4jnsgd1na2vs0mg"},{"bike_id":"ec4e391a-c144-4820-b74b-e456109d52a4","system_id":"levelo_inurba_marseille","lat":43.29405,"lon":5.386,"is_reserved":false,"is_disabled":false,"rental_uris":{"android":"levelo://app?vid=ec4e391a-c144-4820-b74b-e456109d52a4","ios":"levelo://app?vid=ec4e391a-c144-4820-b74b-e456109d52a4"},"vehicle_type_id":"4","last_reported":1741201661,"current_range_meters":3200,"station_id":"ce4bh2h2rcd13ifvqdh0","pricing_plan_id":"cebpf4jnsgd1na2vs0mg"},{"bike_id":"41f13784-7d46-4f0a-b857-2d037eedd81c","system_id":"levelo_inurba_marseille","lat":43.24389,"lon":5.37059,"is_reserved":false,"is_disabled":false,"rental_uris":{"android":"levelo://app?vid=41f13784-7d46-4f0a-b857-2d037eedd81c","ios":"levelo://app?vid=41f13784-7d46-4f0a-b857-2d037eedd81c"},"vehicle_type_id":"4","last_reported":1741201661,"current_range_meters":3200,"station_id":"ce4bhhh2rcd13ifvqfk0","pricing_plan_id":"cebpf4jnsgd1na2vs0mg"},{"bike_id":"b7acd625-f9ff-43d7-96ae-cc7ef2ff209e","system_id":"levelo_inurba_marseille","lat":43.23186,"lon":5.35542,"is_reserved":false,"is_disabled":false,"rental_uris":{"android":"levelo://app?vid=b7acd625-f9ff-43d7-96ae-cc7ef2ff209e","ios":"levelo://app?vid=b7acd625-f9ff-43d7-96ae-cc7ef2ff209e"},"vehicle_type_id":"4","last_reported":1741201661,"current_range_meters":3200,"station_id":"ce4bhu92rcd13ifvqi70","pricing_plan_id":"cebpf4jnsgd1na2vs0mg"},{"bike_id":"a141523b-e80c-4451-b147-9fe54c90ca73","system_id":"levelo_inurba_marseille","lat":43.31264,"lon":5.40166,"is_reserved":false,"is_disabled":false,"rental_uris":{"android":"levelo://app?vid=a141523b-e80c-4451-b147-9fe54c90ca73","ios":"levelo://app?vid=a141523b-e80c-4451-b147-9fe54c90ca73"},"vehicle_type_id":"4","last_reported":1741201661,"current_range_meters":3600,"station_id":"ce4bh092rcd13ifvqd30","pricing_plan_id":"cebpf4jnsgd1na2vs0mg"},{"bike_id":"d63cbdd4-0832-4d17-9a3d-8a8770242888","system_id":"levelo_inurba_marseille","lat":43.29017,"lon":5.38134,"is_reserved":false,"is_disabled":false,"rental_uris":{"android":"levelo://app?vid=d63cbdd4-0832-4d17-9a3d-8a8770242888","ios":"levelo://app?vid=d63cbdd4-0832-4d17-9a3d-8a8770242888"},"vehicle_type_id":"4","last_reported":1741201661,"current_range_meters":3600,"station_id":"ce4bh4p2rcd13ifvqe1g","pricing_plan_id":"cebpf4jnsgd1na2vs0mg"},{"bike_id":"802508d8-0422-4a8f-b942-31b6b3c66869","system_id":"levelo_inurba_marseille","lat":43.27805,"lon":5.40714,"is_reserved":false,"is_disabled":false,"rental_uris":{"android":"levelo://app?vid=802508d8-0422-4a8f-b942-31b6b3c66869","ios":"levelo://app?vid=802508d8-0422-4a8f-b942-31b6b3c66869"},"vehicle_type_id":"4","last_reported":1741201661,"current_range_meters":3600,"station_id":"ce4bhnh2rcd13ifvqgtg","pricing_plan_id":"cebpf4jnsgd1na2vs0mg"},{"bike_id":"3f9fae04-f1f3-4869-8154-8b5321664179","system_id":"levelo_inurba_marseille","lat":43.230598,"lon":5.354942,"is_reserved":false,"is_disabled":false,"rental_uris":{"android":"levelo://app?vid=3f9fae04-f1f3-4869-8154-8b5321664179","ios":"levelo://app?vid=3f9fae04-f1f3-4869-8154-8b5321664179"},"vehicle_type_id":"4","last_reported":1741201661,"current_range_meters":3600,"station_id":"cpo3342slgdg3j2ifvpg","pricing_plan_id":"cebpf4jnsgd1na2vs0mg"},{"bike_id":"73249f1f-ee2c-4f55-aa82-865c702b689a","system_id":"levelo_inurba_marseille","lat":43.27606,"lon":5.36111,"is_reserved":false,"is_disabled":false,"rental_uris":{"android":"levelo://app?vid=73249f1f-ee2c-4f55-aa82-865c702b689a","ios":"levelo://app?vid=73249f1f-ee2c-4f55-aa82-865c702b689a"},"vehicle_type_id":"4","last_reported":1741201661,"current_range_meters":4000,"station_id":"ce4bgj92rcd13ifvqbe0","pricing_plan_id":"cebpf4jnsgd1na2vs0mg"},{"bike_id":"2b68ff7b-dd0e-4b2b-889b-2c2839126011","system_id":"levelo_inurba_marseille","lat":43.2953,"lon":5.39401,"is_reserved":false,"is_disabled":false,"rental_uris":{"android":"levelo://app?vid=2b68ff7b-dd0e-4b2b-889b-2c2839126011","ios":"levelo://app?vid=2b68ff7b-dd0e-4b2b-889b-2c2839126011"},"vehicle_type_id":"4","last_reported":1741201661,"current_range_meters":4000,"station_id":"ce4bh292rcd13ifvqdf0","pricing_plan_id":"cebpf4jnsgd1na2vs0mg"},{"bike_id":"1f1ccb4d-5fdb-4b73-93f7-a779e0dceae2","system_id":"levelo_inurba_marseille","lat":43.30135,"lon":5.38785,"is_reserved":false,"is_disabled":false,"rental_uris":{"android":"levelo://app?vid=1f1ccb4d-5fdb-4b73-93f7-a779e0dceae2","ios":"levelo://app?vid=1f1ccb4d-5fdb-4b73-93f7-a779e0dceae2"},"vehicle_type_id":"4","last_reported":1741201661,"current_range_meters":4400,"station_id":"ce4bghh2rcd13ifvqb60","pricing_plan_id":"cebpf4jnsgd1na2vs0mg"},{"bike_id":"d9fb9d2c-2855-4319-98ac-20d2e4dbacf6","system_id":"levelo_inurba_marseille","lat":43.30147,"lon":5.37416,"is_reserved":false,"is_disabled":false,"rental_uris":{"android":"levelo://app?vid=d9fb9d2c-2855-4319-98ac-20d2e4dbacf6","ios":"levelo://app?vid=d9fb9d2c-2855-4319-98ac-20d2e4dbacf6"},"vehicle_type_id":"4","last_reported":1741201661,"current_range_meters":4400,"station_id":"ce4bgs92rcd13ifvqcc0","pricing_plan_id":"cebpf4jnsgd1na2vs0mg"},{"bike_id":"bef56aed-1d51-45b5-a9f2-d66eb144d5fd","system_id":"levelo_inurba_marseille","lat":43.29277,"lon":5.38445,"is_reserved":false,"is_disabled":false,"rental_uris":{"android":"levelo://app?vid=bef56aed-1d51-45b5-a9f2-d66eb144d5fd","ios":"levelo://app?vid=bef56aed-1d51-45b5-a9f2-d66eb144d5fd"},"vehicle_type_id":"4","last_reported":1741201661,"current_range_meters":4400,"station_id":"ce4bh692rcd13ifvqea0","pricing_plan_id":"cebpf4jnsgd1na2vs0mg"},{"bike_id":"5322a329-5ad4-4446-b050-84089cb66194","system_id":"levelo_inurba_marseille","lat":43.29625,"lon":5.37153,"is_reserved":false,"is_disabled":false,"rental_uris":{"android":"levelo://app?vid=5322a329-5ad4-4446-b050-84089cb66194","ios":"levelo://app?vid=5322a329-5ad4-4446-b050-84089cb66194"},"vehicle_type_id":"4","last_reported":1741201661,"current_range_meters":4800,"station_id":"ce4bgnh2rcd13ifvqc0g","pricing_plan_id":"cebpf4jnsgd1na2vs0mg"},{"bike_id":"8698972e-96ac-456d-a00f-04447f94932f","system_id":"levelo_inurba_marseille","lat":43.28413,"lon":5.37513,"is_reserved":false,"is_disabled":false,"rental_uris":{"android":"levelo://app?vid=8698972e-96ac-456d-a00f-04447f94932f","ios":"levelo://app?vid=8698972e-96ac-456d-a00f-04447f94932f"},"vehicle_type_id":"4","last_reported":1741201661,"current_range_meters":4800,"station_id":"ce4bh412rcd13ifvqds0","pricing_plan_id":"cebpf4jnsgd1na2vs0mg"},{"bike_id":"f8f20775-a661-48a5-b721-89ce89754c87","system_id":"levelo_inurba_marseille","lat":43.28449,"lon":5.38398,"is_reserved":false,"is_disabled":false,"rental_uris":{"android":"levelo://app?vid=f8f20775-a661-48a5-b721-89ce89754c87","ios":"levelo://app?vid=f8f20775-a661-48a5-b721-89ce89754c87"},"vehicle_type_id":"4","last_reported":1741201661,"current_range_meters":4800,"station_id":"ce4bh512rcd13ifvqe3g","pricing_plan_id":"cebpf4jnsgd1na2vs0mg"},{"bike_id":"575d7ca7-f623-4af7-98c2-3a01638ef48f","system_id":"levelo_inurba_marseille","lat":43.29271,"lon":5.38439,"is_reserved":false,"is_disabled":false,"rental_uris":{"android":"levelo://app?vid=575d7ca7-f623-4af7-98c2-3a01638ef48f","ios":"levelo://app?vid=575d7ca7-f623-4af7-98c2-3a01638ef48f"},"vehicle_type_id":"4","last_reported":1741201661,"current_range_meters":4800,"station_id":"ce4bh692rcd13ifvqea0","pricing_plan_id":"cebpf4jnsgd1na2vs0mg"},{"bike_id":"c1622ade-d410-44e0-bc93-429ca98527be","system_id":"levelo_inurba_marseille","lat":43.26563,"lon":5.39011,"is_reserved":false,"is_disabled":false,"rental_uris":{"android":"levelo://app?vid=c1622ade-d410-44e0-bc93-429ca98527be","ios":"levelo://app?vid=c1622ade-d410-44e0-bc93-429ca98527be"},"vehicle_type_id":"4","last_reported":1741201661,"current_range_meters":4800,"station_id":"ce4bhe12rcd13ifvqf30","pricing_plan_id":"cebpf4jnsgd1na2vs0mg"},{"bike_id":"cd9a4dea-bb7f-4ce9-a444-e9fd4bb57e2e","system_id":"levelo_inurba_marseille","lat":43.29717,"lon":5.3662,"is_reserved":false,"is_disabled":false,"rental_uris":{"android":"levelo://app?vid=cd9a4dea-bb7f-4ce9-a444-e9fd4bb57e2e","ios":"levelo://app?vid=cd9a4dea-bb7f-4ce9-a444-e9fd4bb57e2e"},"vehicle_type_id":"4","last_reported":1741201661,"current_range_meters":5600,"station_id":"ce4bgn12rcd13ifvqbt0","pricing_plan_id":"cebpf4jnsgd1na2vs0mg"},{"bike_id":"66bb7aba-659c-4f89-8ec2-b0fc17ababc5","system_id":"levelo_inurba_marseille","lat":43.29263,"lon":5.38445,"is_reserved":false,"is_disabled":false,"rental_uris":{"android":"levelo://app?vid=66bb7aba-659c-4f89-8ec2-b0fc17ababc5","ios":"levelo://app?vid=66bb7aba-659c-4f89-8ec2-b0fc17ababc5"},"vehicle_type_id":"4","last_reported":1741201661,"current_range_meters":5600,"station_id":"ce4bh692rcd13ifvqea0","pricing_plan_id":"cebpf4jnsgd1na2vs0mg"},{"bike_id":"6d5df51d-2c05-4449-854f-edd853754957","system_id":"levelo_inurba_marseille","lat":43.23185,"lon":5.3998,"is_reserved":false,"is_disabled":false,"rental_uris":{"android":"levelo://app?vid=6d5df51d-2c05-4449-854f-edd853754957","ios":"levelo://app?vid=6d5df51d-2c05-4449-854f-edd853754957"},"vehicle_type_id":"4","last_reported":1741201661,"current_range_meters":5600,"station_id":"ce4bhn12rcd13ifvqgqg","pricing_plan_id":"cebpf4jnsgd1na2vs0mg"},{"bike_id":"2bee20e2-464b-49c8-8baa-71bb5d7d30ee","system_id":"levelo_inurba_marseille","lat":43.27997,"lon":5.4001,"is_reserved":false,"is_disabled":false,"rental_uris":{"android":"levelo://app?vid=2bee20e2-464b-49c8-8baa-71bb5d7d30ee","ios":"levelo://app?vid=2bee20e2-464b-49c8-8baa-71bb5d7d30ee"},"vehicle_type_id":"4","last_reported":1741201661,"current_range_meters":5600,"station_id":"ce4bho92rcd13ifvqh4g","pricing_plan_id":"cebpf4jnsgd1na2vs0mg"},{"bike_id":"4d96a45d-8e1d-4f5c-846e-3a9ab83111fb","system_id":"levelo_inurba_marseille","lat":43.32359,"lon":5.36775,"is_reserved":false,"is_disabled":false,"rental_uris":{"android":"levelo://app?vid=4d96a45d-8e1d-4f5c-846e-3a9ab83111fb","ios":"levelo://app?vid=4d96a45d-8e1d-4f5c-846e-3a9ab83111fb"},"vehicle_type_id":"4","last_reported":1741201661,"current_range_meters":5600,"station_id":"ce4bhsh2rcd13ifvqi2g","pricing_plan_id":"cebpf4jnsgd1na2vs0mg"},{"bike_id":"e1b7e920-8b9c-4bea-a8bf-82d2cb38ff78","system_id":"levelo_inurba_marseille","lat":43.287138,"lon":5.36091,"is_reserved":false,"is_disabled":false,"rental_uris":{"android":"levelo://app?vid=e1b7e920-8b9c-4bea-a8bf-82d2cb38ff78","ios":"levelo://app?vid=e1b7e920-8b9c-4bea-a8bf-82d2cb38ff78"},"vehicle_type_id":"4","last_reported":1741201661,"current_range_meters":6000,"station_id":"ce4bh5p2rcd13ifvqe4g","pricing_plan_id":"cebpf4jnsgd1na2vs0mg"},{"bike_id":"62e7769a-8446-4e56-a195-be5dd8e9ce08","system_id":"levelo_inurba_marseille","lat":43.28461,"lon":5.35885,"is_reserved":false,"is_disabled":false,"rental_uris":{"android":"levelo://app?vid=62e7769a-8446-4e56-a195-be5dd8e9ce08","ios":"levelo://app?vid=62e7769a-8446-4e56-a195-be5dd8e9ce08"},"vehicle_type_id":"4","last_reported":1741201661,"current_range_meters":6000,"station_id":"ce4bhah2rcd13ifvqei0","pricing_plan_id":"cebpf4jnsgd1na2vs0mg"},{"bike_id":"363eabdc-490e-47c0-bf81-de0677917e5e","system_id":"levelo_inurba_marseille","lat":43.2783,"lon":5.37822,"is_reserved":false,"is_disabled":false,"rental_uris":{"android":"levelo://app?vid=363eabdc-490e-47c0-bf81-de0677917e5e","ios":"levelo://app?vid=363eabdc-490e-47c0-bf81-de0677917e5e"},"vehicle_type_id":"4","last_reported":1741201661,"current_range_meters":6000,"station_id":"ce4bhf92rcd13ifvqf50","pricing_plan_id":"cebpf4jnsgd1na2vs0mg"},{"bike_id":"21b19842-9ad9-4db0-bc46-3d2827c0069e","system_id":"levelo_inurba_marseille","lat":43.23213,"lon":5.35557,"is_reserved":false,"is_disabled":false,"rental_uris":{"android":"levelo://app?vid=21b19842-9ad9-4db0-bc46-3d2827c0069e","ios":"levelo://app?vid=21b19842-9ad9-4db0-bc46-3d2827c0069e"},"vehicle_type_id":"4","last_reported":1741201661,"current_range_meters":6000,"station_id":"ce4bhu92rcd13ifvqi70","pricing_plan_id":"cebpf4jnsgd1na2vs0mg"},{"bike_id":"ee1d2ad1-36ca-49dd-a328-f2a9a9994ecb","system_id":"levelo_inurba_marseille","lat":43.31082,"lon":5.38131,"is_reserved":false,"is_disabled":false,"rental_uris":{"android":"levelo://app?vid=ee1d2ad1-36ca-49dd-a328-f2a9a9994ecb","ios":"levelo://app?vid=ee1d2ad1-36ca-49dd-a328-f2a9a9994ecb"},"vehicle_type_id":"4","last_reported":1741201661,"current_range_meters":6400,"station_id":"","pricing_plan_id":"cebpf4jnsgd1na2vs0mg"},{"bike_id":"00b0bef8-f7ae-4a46-b443-14ff9983a638","system_id":"levelo_inurba_marseille","lat":43.28403,"lon":5.3752,"is_reserved":false,"is_disabled":false,"rental_uris":{"android":"levelo://app?vid=00b0bef8-f7ae-4a46-b443-14ff9983a638","ios":"levelo://app?vid=00b0bef8-f7ae-4a46-b443-14ff9983a638"},"vehicle_type_id":"4","last_reported":1741201661,"current_range_meters":6400,"station_id":"ce4bh412rcd13ifvqds0","pricing_plan_id":"cebpf4jnsgd1na2vs0mg"},{"bike_id":"4323aaf7-d94a-4a83-a4f0-a1f1fd773404","system_id":"levelo_inurba_marseille","lat":43.28358,"lon":5.38635,"is_reserved":false,"is_disabled":false,"rental_uris":{"android":"levelo://app?vid=4323aaf7-d94a-4a83-a4f0-a1f1fd773404","ios":"levelo://app?vid=4323aaf7-d94a-4a83-a4f0-a1f1fd773404"},"vehicle_type_id":"4","last_reported":1741201661,"current_range_meters":6400,"station_id":"ce4bh492rcd13ifvqdvg","pricing_plan_id":"cebpf4jnsgd1na2vs0mg"},{"bike_id":"c2faddd7-f7b2-4985-866d-b5016c612567","system_id":"levelo_inurba_marseille","lat":43.29265,"lon":5.38445,"is_reserved":false,"is_disabled":false,"rental_uris":{"android":"levelo://app?vid=c2faddd7-f7b2-4985-866d-b5016c612567","ios":"levelo://app?vid=c2faddd7-f7b2-4985-866d-b5016c612567"},"vehicle_type_id":"4","last_reported":1741201661,"current_range_meters":6400,"station_id":"ce4bh692rcd13ifvqea0","pricing_plan_id":"cebpf4jnsgd1na2vs0mg"},{"bike_id":"ed26dc7e-5f7d-4721-a12b-6b281b307879","system_id":"levelo_inurba_marseille","lat":43.28104,"lon":5.3784,"is_reserved":false,"is_disabled":false,"rental_uris":{"android":"levelo://app?vid=ed26dc7e-5f7d-4721-a12b-6b281b307879","ios":"levelo://app?vid=ed26dc7e-5f7d-4721-a12b-6b281b307879"},"vehicle_type_id":"4","last_reported":1741201661,"current_range_meters":6400,"station_id":"ce4bha12rcd13ifvqee0","pricing_plan_id":"cebpf4jnsgd1na2vs0mg"},{"bike_id":"be3e83ac-eda8-45e4-834f-1444ad7906fb","system_id":"levelo_inurba_marseille","lat":43.27993,"lon":5.4001,"is_reserved":false,"is_disabled":false,"rental_uris":{"android":"levelo://app?vid=be3e83ac-eda8-45e4-834f-1444ad7906fb","ios":"levelo://app?vid=be3e83ac-eda8-45e4-834f-1444ad7906fb"},"vehicle_type_id":"4","last_reported":1741201661,"current_range_meters":6400,"station_id":"ce4bho92rcd13ifvqh4g","pricing_plan_id":"cebpf4jnsgd1na2vs0mg"},{"bike_id":"f6662bde-1632-4b0f-a966-f86b33b7c3b9","system_id":"levelo_inurba_marseille","lat":43.33753,"lon":5.3752,"is_reserved":false,"is_disabled":false,"rental_uris":{"android":"levelo://app?vid=f6662bde-1632-4b0f-a966-f86b33b7c3b9","ios":"levelo://app?vid=f6662bde-1632-4b0f-a966-f86b33b7c3b9"},"vehicle_type_id":"4","last_reported":1741201661,"current_range_meters":6800,"station_id":"","pricing_plan_id":"cebpf4jnsgd1na2vs0mg"},{"bike_id":"03bca70e-42f4-436a-8db1-6ef153aad517","system_id":"levelo_inurba_marseille","lat":43.29927,"lon":5.36559,"is_reserved":false,"is_disabled":false,"rental_uris":{"android":"levelo://app?vid=03bca70e-42f4-436a-8db1-6ef153aad517","ios":"levelo://app?vid=03bca70e-42f4-436a-8db1-6ef153aad517"},"vehicle_type_id":"4","last_reported":1741201661,"current_range_meters":6800,"station_id":"ce4bgm92rcd13ifvqbr0","pricing_plan_id":"cebpf4jnsgd1na2vs0mg"},{"bike_id":"72ee38c9-7078-4652-b97d-f2d86799ae87","system_id":"levelo_inurba_marseille","lat":43.29407,"lon":5.38622,"is_reserved":false,"is_disabled":false,"rental_uris":{"android":"levelo://app?vid=72ee38c9-7078-4652-b97d-f2d86799ae87","ios":"levelo://app?vid=72ee38c9-7078-4652-b97d-f2d86799ae87"},"vehicle_type_id":"4","last_reported":1741201661,"current_range_meters":6800,"station_id":"ce4bh2h2rcd13ifvqdh0","pricing_plan_id":"cebpf4jnsgd1na2vs0mg"},{"bike_id":"7924171d-cade-493d-ba81-e3e65dc7b792","system_id":"levelo_inurba_marseille","lat":43.29193,"lon":5.38424,"is_reserved":false,"is_disabled":false,"rental_uris":{"android":"levelo://app?vid=7924171d-cade-493d-ba81-e3e65dc7b792","ios":"levelo://app?vid=7924171d-cade-493d-ba81-e3e65dc7b792"},"vehicle_type_id":"4","last_reported":1741201661,"current_range_meters":6800,"station_id":"ce4bh692rcd13ifvqea0","pricing_plan_id":"cebpf4jnsgd1na2vs0mg"},{"bike_id":"d2467b4a-b7f4-4535-b224-fb6016ffa474","system_id":"levelo_inurba_marseille","lat":43.287,"lon":5.39985,"is_reserved":false,"is_disabled":false,"rental_uris":{"android":"levelo://app?vid=d2467b4a-b7f4-4535-b224-fb6016ffa474","ios":"levelo://app?vid=d2467b4a-b7f4-4535-b224-fb6016ffa474"},"vehicle_type_id":"4","last_reported":1741201661,"current_range_meters":6800,"station_id":"ce4bho92rcd13ifvqh3g","pricing_plan_id":"cebpf4jnsgd1na2vs0mg"},{"bike_id":"87d723bd-ae48-42a4-bfca-c77dc5aff0f1","system_id":"levelo_inurba_marseille","lat":43.27996,"lon":5.40007,"is_reserved":false,"is_disabled":false,"rental_uris":{"android":"levelo://app?vid=87d723bd-ae48-42a4-bfca-c77dc5aff0f1","ios":"levelo://app?vid=87d723bd-ae48-42a4-bfca-c77dc5aff0f1"},"vehicle_type_id":"4","last_reported":1741201661,"current_range_meters":6800,"station_id":"ce4bho92rcd13ifvqh4g","pricing_plan_id":"cebpf4jnsgd1na2vs0mg"},{"bike_id":"de44d09a-d4db-4ce3-a2dd-62f4dc2e96ab","system_id":"levelo_inurba_marseille","lat":43.2818,"lon":5.42806,"is_reserved":false,"is_disabled":false,"rental_uris":{"android":"levelo://app?vid=de44d09a-d4db-4ce3-a2dd-62f4dc2e96ab","ios":"levelo://app?vid=de44d09a-d4db-4ce3-a2dd-62f4dc2e96ab"},"vehicle_type_id":"4","last_reported":1741201661,"current_range_meters":7200,"station_id":"","pricing_plan_id":"cebpf4jnsgd1na2vs0mg"},{"bike_id":"40183536-3d47-46bc-b1a9-59f4985b5849","system_id":"levelo_inurba_marseille","lat":43.30141,"lon":5.374178,"is_reserved":false,"is_disabled":false,"rental_uris":{"android":"levelo://app?vid=40183536-3d47-46bc-b1a9-59f4985b5849","ios":"levelo://app?vid=40183536-3d47-46bc-b1a9-59f4985b5849"},"vehicle_type_id":"4","last_reported":1741201661,"current_range_meters":7200,"station_id":"ce4bgs92rcd13ifvqcc0","pricing_plan_id":"cebpf4jnsgd1na2vs0mg"},{"bike_id":"41ae9bb6-f7e2-4fb1-ad7c-cdf88d86e4f2","system_id":"levelo_inurba_marseille","lat":43.3043,"lon":5.39753,"is_reserved":false,"is_disabled":false,"rental_uris":{"android":"levelo://app?vid=41ae9bb6-f7e2-4fb1-ad7c-cdf88d86e4f2","ios":"levelo://app?vid=41ae9bb6-f7e2-4fb1-ad7c-cdf88d86e4f2"},"vehicle_type_id":"4","last_reported":1741201661,"current_range_meters":7200,"station_id":"ce4bh092rcd13ifvqd20","pricing_plan_id":"cebpf4jnsgd1na2vs0mg"},{"bike_id":"e984c521-43b5-4b9b-bb5d-88c196c98ecd","system_id":"levelo_inurba_marseille","lat":43.266785,"lon":5.382632,"is_reserved":false,"is_disabled":false,"rental_uris":{"android":"levelo://app?vid=e984c521-43b5-4b9b-bb5d-88c196c98ecd","ios":"levelo://app?vid=e984c521-43b5-4b9b-bb5d-88c196c98ecd"},"vehicle_type_id":"4","last_reported":1741201661,"current_range_meters":7200,"station_id":"ce4bhg92rcd13ifvqf90","pricing_plan_id":"cebpf4jnsgd1na2vs0mg"},{"bike_id":"a00e1ce6-254a-4bb1-a996-2f404856539a","system_id":"levelo_inurba_marseille","lat":43.28081,"lon":5.39661,"is_reserved":false,"is_disabled":false,"rental_uris":{"android":"levelo://app?vid=a00e1ce6-254a-4bb1-a996-2f404856539a","ios":"levelo://app?vid=a00e1ce6-254a-4bb1-a996-2f404856539a"},"vehicle_type_id":"4","last_reported":1741201661,"current_range_meters":7200,"station_id":"ce4bho12rcd13ifvqh2g","pricing_plan_id":"cebpf4jnsgd1na2vs0mg"},{"bike_id":"6835789b-88ca-45c2-96d3-6b91a0feab92","system_id":"levelo_inurba_marseille","lat":43.27999,"lon":5.4002,"is_reserved":false,"is_disabled":false,"rental_uris":{"android":"levelo://app?vid=6835789b-88ca-45c2-96d3-6b91a0feab92","ios":"levelo://app?vid=6835789b-88ca-45c2-96d3-6b91a0feab92"},"vehicle_type_id":"4","last_reported":1741201661,"current_range_meters":7200,"station_id":"ce4bho92rcd13ifvqh4g","pricing_plan_id":"cebpf4jnsgd1na2vs0mg"},{"bike_id":"44a7153b-0fd7-4509-836b-676bbf84fb06","system_id":"levelo_inurba_marseille","lat":43.23187,"lon":5.35557,"is_reserved":false,"is_disabled":false,"rental_uris":{"android":"levelo://app?vid=44a7153b-0fd7-4509-836b-676bbf84fb06","ios":"levelo://app?vid=44a7153b-0fd7-4509-836b-676bbf84fb06"},"vehicle_type_id":"4","last_reported":1741201661,"current_range_meters":7200,"station_id":"ce4bhu92rcd13ifvqi70","pricing_plan_id":"cebpf4jnsgd1na2vs0mg"},{"bike_id":"3b0ca0d9-7ced-42f8-ab17-236b477612f9","system_id":"levelo_inurba_marseille","lat":43.28613,"lon":5.38434,"is_reserved":false,"is_disabled":false,"rental_uris":{"android":"levelo://app?vid=3b0ca0d9-7ced-42f8-ab17-236b477612f9","ios":"levelo://app?vid=3b0ca0d9-7ced-42f8-ab17-236b477612f9"},"vehicle_type_id":"4","last_reported":1741201661,"current_range_meters":8000,"station_id":"","pricing_plan_id":"cebpf4jnsgd1na2vs0mg"},{"bike_id":"a7d2055b-f74e-41b8-9b5f-eca603f886fe","system_id":"levelo_inurba_marseille","lat":43.292951,"lon":5.374663,"is_reserved":false,"is_disabled":false,"rental_uris":{"android":"levelo://app?vid=a7d2055b-f74e-41b8-9b5f-eca603f886fe","ios":"levelo://app?vid=a7d2055b-f74e-41b8-9b5f-eca603f886fe"},"vehicle_type_id":"4","last_reported":1741201661,"current_range_meters":8000,"station_id":"ce4bgi12rcd13ifvqb70","pricing_plan_id":"cebpf4jnsgd1na2vs0mg"},{"bike_id":"c98dca5b-2b33-4e14-bf21-a4f5f2ab1f39","system_id":"levelo_inurba_marseille","lat":43.295319,"lon":5.385409,"is_reserved":false,"is_disabled":false,"rental_uris":{"android":"levelo://app?vid=c98dca5b-2b33-4e14-bf21-a4f5f2ab1f39","ios":"levelo://app?vid=c98dca5b-2b33-4e14-bf21-a4f5f2ab1f39"},"vehicle_type_id":"4","last_reported":1741201661,"current_range_meters":8000,"station_id":"ce4bgih2rcd13ifvqba0","pricing_plan_id":"cebpf4jnsgd1na2vs0mg"},{"bike_id":"ed663efe-074b-4aba-b0e9-f846e4bd3747","system_id":"levelo_inurba_marseille","lat":43.292892,"lon":5.409134,"is_reserved":false,"is_disabled":false,"rental_uris":{"android":"levelo://app?vid=ed663efe-074b-4aba-b0e9-f846e4bd3747","ios":"levelo://app?vid=ed663efe-074b-4aba-b0e9-f846e4bd3747"},"vehicle_type_id":"4","last_reported":1741201661,"current_range_meters":8000,"station_id":"ce4bh192rcd13ifvqdc0","pricing_plan_id":"cebpf4jnsgd1na2vs0mg"},{"bike_id":"46f74b36-75ca-4524-acb0-e3480a9abc75","system_id":"levelo_inurba_marseille","lat":43.29571,"lon":5.39978,"is_reserved":false,"is_disabled":false,"rental_uris":{"android":"levelo://app?vid=46f74b36-75ca-4524-acb0-e3480a9abc75","ios":"levelo://app?vid=46f74b36-75ca-4524-acb0-e3480a9abc75"},"vehicle_type_id":"4","last_reported":1741201661,"current_range_meters":8000,"station_id":"ce4bh312rcd13ifvqdj0","pricing_plan_id":"cebpf4jnsgd1na2vs0mg"},{"bike_id":"1f7bd352-d21d-45a1-b5ae-6f745efaa0c4","system_id":"levelo_inurba_marseille","lat":43.29041,"lon":5.38637,"is_reserved":false,"is_disabled":false,"rental_uris":{"android":"levelo://app?vid=1f7bd352-d21d-45a1-b5ae-6f745efaa0c4","ios":"levelo://app?vid=1f7bd352-d21d-45a1-b5ae-6f745efaa0c4"},"vehicle_type_id":"4","last_reported":1741201661,"current_range_meters":8000,"station_id":"ce4bh4p2rcd13ifvqe0g","pricing_plan_id":"cebpf4jnsgd1na2vs0mg"},{"bike_id":"18beaba1-b3ef-4ee1-99cb-79a843b32992","system_id":"levelo_inurba_marseille","lat":43.29037,"lon":5.37565,"is_reserved":false,"is_disabled":false,"rental_uris":{"android":"levelo://app?vid=18beaba1-b3ef-4ee1-99cb-79a843b32992","ios":"levelo://app?vid=18beaba1-b3ef-4ee1-99cb-79a843b32992"},"vehicle_type_id":"4","last_reported":1741201661,"current_range_meters":8000,"station_id":"ce4bh692rcd13ifvqe90","pricing_plan_id":"cebpf4jnsgd1na2vs0mg"},{"bike_id":"d78f7be2-15f9-4efa-a7bf-0129ae12d91f","system_id":"levelo_inurba_marseille","lat":43.24078,"lon":5.37756,"is_reserved":false,"is_disabled":false,"rental_uris":{"android":"levelo://app?vid=d78f7be2-15f9-4efa-a7bf-0129ae12d91f","ios":"levelo://app?vid=d78f7be2-15f9-4efa-a7bf-0129ae12d91f"},"vehicle_type_id":"4","last_reported":1741201661,"current_range_meters":8000,"station_id":"ce4bhnp2rcd13ifvqgvg","pricing_plan_id":"cebpf4jnsgd1na2vs0mg"},{"bike_id":"541b7efd-860a-4d8b-831a-30746bc829c1","system_id":"levelo_inurba_marseille","lat":43.32319,"lon":5.38938,"is_reserved":false,"is_disabled":false,"rental_uris":{"android":"levelo://app?vid=541b7efd-860a-4d8b-831a-30746bc829c1","ios":"levelo://app?vid=541b7efd-860a-4d8b-831a-30746bc829c1"},"vehicle_type_id":"4","last_reported":1741201661,"current_range_meters":8000,"station_id":"ce4bhqp2rcd13ifvqhog","pricing_plan_id":"cebpf4jnsgd1na2vs0mg"},{"bike_id":"824d9a40-68cd-4cd3-a860-961bd5de135d","system_id":"levelo_inurba_marseille","lat":43.30536,"lon":5.38421,"is_reserved":false,"is_disabled":false,"rental_uris":{"android":"levelo://app?vid=824d9a40-68cd-4cd3-a860-961bd5de135d","ios":"levelo://app?vid=824d9a40-68cd-4cd3-a860-961bd5de135d"},"vehicle_type_id":"4","last_reported":1741201661,"current_range_meters":8400,"station_id":"ce4bgg92rcd13ifvqb30","pricing_plan_id":"cebpf4jnsgd1na2vs0mg"},{"bike_id":"8b032b17-22be-4715-86db-6f5ee6ed9dbf","system_id":"levelo_inurba_marseille","lat":43.2954,"lon":5.38539,"is_reserved":false,"is_disabled":false,"rental_uris":{"android":"levelo://app?vid=8b032b17-22be-4715-86db-6f5ee6ed9dbf","ios":"levelo://app?vid=8b032b17-22be-4715-86db-6f5ee6ed9dbf"},"vehicle_type_id":"4","last_reported":1741201661,"current_range_meters":8400,"station_id":"ce4bgih2rcd13ifvqba0","pricing_plan_id":"cebpf4jnsgd1na2vs0mg"},{"bike_id":"02b78be3-b9bd-49a8-8618-27e7eb14d2d1","system_id":"levelo_inurba_marseille","lat":43.29424,"lon":5.38629,"is_reserved":false,"is_disabled":false,"rental_uris":{"android":"levelo://app?vid=02b78be3-b9bd-49a8-8618-27e7eb14d2d1","ios":"levelo://app?vid=02b78be3-b9bd-49a8-8618-27e7eb14d2d1"},"vehicle_type_id":"4","last_reported":1741201661,"current_range_meters":8400,"station_id":"ce4bh2h2rcd13ifvqdh0","pricing_plan_id":"cebpf4jnsgd1na2vs0mg"},{"bike_id":"f38d7d6a-5e15-470a-bcfd-c2ebe1ff35ee","system_id":"levelo_inurba_marseille","lat":43.29511,"lon":5.3903,"is_reserved":false,"is_disabled":false,"rental_uris":{"android":"levelo://app?vid=f38d7d6a-5e15-470a-bcfd-c2ebe1ff35ee","ios":"levelo://app?vid=f38d7d6a-5e15-470a-bcfd-c2ebe1ff35ee"},"vehicle_type_id":"4","last_reported":1741201661,"current_range_meters":8400,"station_id":"ce4bh3p2rcd13ifvqdp0","pricing_plan_id":"cebpf4jnsgd1na2vs0mg"},{"bike_id":"079e6812-4f7b-4afe-92b7-8c35e8a0deb4","system_id":"levelo_inurba_marseille","lat":43.29284,"lon":5.36841,"is_reserved":false,"is_disabled":false,"rental_uris":{"android":"levelo://app?vid=079e6812-4f7b-4afe-92b7-8c35e8a0deb4","ios":"levelo://app?vid=079e6812-4f7b-4afe-92b7-8c35e8a0deb4"},"vehicle_type_id":"4","last_reported":1741201661,"current_range_meters":8400,"station_id":"ce4bhbp2rcd13ifvqesg","pricing_plan_id":"cebpf4jnsgd1na2vs0mg"},{"bike_id":"437b878a-2771-45fa-a4e6-529f63dd62d2","system_id":"levelo_inurba_marseille","lat":43.23959,"lon":5.366338,"is_reserved":false,"is_disabled":false,"rental_uris":{"android":"levelo://app?vid=437b878a-2771-45fa-a4e6-529f63dd62d2","ios":"levelo://app?vid=437b878a-2771-45fa-a4e6-529f63dd62d2"},"vehicle_type_id":"4","last_reported":1741201661,"current_range_meters":8400,"station_id":"ce4bhi12rcd13ifvqfp0","pricing_plan_id":"cebpf4jnsgd1na2vs0mg"},{"bike_id":"1d0f419a-13dc-4c66-ba2c-209e8e63b075","system_id":"levelo_inurba_marseille","lat":43.2781,"lon":5.40712,"is_reserved":false,"is_disabled":false,"rental_uris":{"android":"levelo://app?vid=1d0f419a-13dc-4c66-ba2c-209e8e63b075","ios":"levelo://app?vid=1d0f419a-13dc-4c66-ba2c-209e8e63b075"},"vehicle_type_id":"4","last_reported":1741201661,"current_range_meters":8400,"station_id":"ce4bhnh2rcd13ifvqgtg","pricing_plan_id":"cebpf4jnsgd1na2vs0mg"},{"bike_id":"3439a580-4b13-4596-bc3a-9d40342307f1","system_id":"levelo_inurba_marseille","lat":43.32089,"lon":5.36754,"is_reserved":false,"is_disabled":false,"rental_uris":{"android":"levelo://app?vid=3439a580-4b13-4596-bc3a-9d40342307f1","ios":"levelo://app?vid=3439a580-4b13-4596-bc3a-9d40342307f1"},"vehicle_type_id":"4","last_reported":1741201661,"current_range_meters":8400,"station_id":"ce4bhrh2rcd13ifvqhug","pricing_plan_id":"cebpf4jnsgd1na2vs0mg"},{"bike_id":"55f3137e-de59-4df3-bc43-34575a42bfd9","system_id":"levelo_inurba_marseille","lat":43.24122,"lon":5.37676,"is_reserved":false,"is_disabled":false,"rental_uris":{"android":"levelo://app?vid=55f3137e-de59-4df3-bc43-34575a42bfd9","ios":"levelo://app?vid=55f3137e-de59-4df3-bc43-34575a42bfd9"},"vehicle_type_id":"4","last_reported":1741201661,"current_range_meters":8800,"station_id":"","pricing_plan_id":"cebpf4jnsgd1na2vs0mg"},{"bike_id":"4538221b-c4a4-4cad-9100-a98122f690a0","system_id":"levelo_inurba_marseille","lat":43.30874,"lon":5.37175,"is_reserved":false,"is_disabled":false,"rental_uris":{"android":"levelo://app?vid=4538221b-c4a4-4cad-9100-a98122f690a0","ios":"levelo://app?vid=4538221b-c4a4-4cad-9100-a98122f690a0"},"vehicle_type_id":"4","last_reported":1741201661,"current_range_meters":8800,"station_id":"ce4bguh2rcd13ifvqckg","pricing_plan_id":"cebpf4jnsgd1na2vs0mg"},{"bike_id":"160e683c-607f-4f1e-87d3-d19dfacdd6d1","system_id":"levelo_inurba_marseille","lat":43.31324,"lon":5.39705,"is_reserved":false,"is_disabled":false,"rental_uris":{"android":"levelo://app?vid=160e683c-607f-4f1e-87d3-d19dfacdd6d1","ios":"levelo://app?vid=160e683c-607f-4f1e-87d3-d19dfacdd6d1"},"vehicle_type_id":"4","last_reported":1741201661,"current_range_meters":8800,"station_id":"ce4bgvp2rcd13ifvqcu0","pricing_plan_id":"cebpf4jnsgd1na2vs0mg"},{"bike_id":"8ca9ecf1-fe26-465e-ac08-de10fde53d91","system_id":"levelo_inurba_marseille","lat":43.29407,"lon":5.38635,"is_reserved":false,"is_disabled":false,"rental_uris":{"android":"levelo://app?vid=8ca9ecf1-fe26-465e-ac08-de10fde53d91","ios":"levelo://app?vid=8ca9ecf1-fe26-465e-ac08-de10fde53d91"},"vehicle_type_id":"4","last_reported":1741201661,"current_range_meters":8800,"station_id":"ce4bh2h2rcd13ifvqdh0","pricing_plan_id":"cebpf4jnsgd1na2vs0mg"},{"bike_id":"2c57ca77-f587-4fb7-baf7-553c5df662dc","system_id":"levelo_inurba_marseille","lat":43.28409,"lon":5.37509,"is_reserved":false,"is_disabled":false,"rental_uris":{"android":"levelo://app?vid=2c57ca77-f587-4fb7-baf7-553c5df662dc","ios":"levelo://app?vid=2c57ca77-f587-4fb7-baf7-553c5df662dc"},"vehicle_type_id":"4","last_reported":1741201661,"current_range_meters":8800,"station_id":"ce4bh412rcd13ifvqds0","pricing_plan_id":"cebpf4jnsgd1na2vs0mg"},{"bike_id":"38f5c01e-e03d-4c79-8ecc-6220b68fffae","system_id":"levelo_inurba_marseille","lat":43.2893,"lon":5.38391,"is_reserved":false,"is_disabled":false,"rental_uris":{"android":"levelo://app?vid=38f5c01e-e03d-4c79-8ecc-6220b68fffae","ios":"levelo://app?vid=38f5c01e-e03d-4c79-8ecc-6220b68fffae"},"vehicle_type_id":"4","last_reported":1741201661,"current_range_meters":8800,"station_id":"ce4bh612rcd13ifvqe6g","pricing_plan_id":"cebpf4jnsgd1na2vs0mg"},{"bike_id":"3718e63f-90c5-4733-a61f-070d90aee608","system_id":"levelo_inurba_marseille","lat":43.29256,"lon":5.38438,"is_reserved":false,"is_disabled":false,"rental_uris":{"android":"levelo://app?vid=3718e63f-90c5-4733-a61f-070d90aee608","ios":"levelo://app?vid=3718e63f-90c5-4733-a61f-070d90aee608"},"vehicle_type_id":"4","last_reported":1741201661,"current_range_meters":8800,"station_id":"ce4bh692rcd13ifvqea0","pricing_plan_id":"cebpf4jnsgd1na2vs0mg"},{"bike_id":"e0a4fdbf-562e-414a-a424-bf8ed6e39a75","system_id":"levelo_inurba_marseille","lat":43.27813,"lon":5.40706,"is_reserved":false,"is_disabled":false,"rental_uris":{"android":"levelo://app?vid=e0a4fdbf-562e-414a-a424-bf8ed6e39a75","ios":"levelo://app?vid=e0a4fdbf-562e-414a-a424-bf8ed6e39a75"},"vehicle_type_id":"4","last_reported":1741201661,"current_range_meters":8800,"station_id":"ce4bhnh2rcd13ifvqgtg","pricing_plan_id":"cebpf4jnsgd1na2vs0mg"},{"bike_id":"a7b3a291-7017-47a8-b8ff-7f1dc3465d49","system_id":"levelo_inurba_marseille","lat":43.27996,"lon":5.40002,"is_reserved":false,"is_disabled":false,"rental_uris":{"android":"levelo://app?vid=a7b3a291-7017-47a8-b8ff-7f1dc3465d49","ios":"levelo://app?vid=a7b3a291-7017-47a8-b8ff-7f1dc3465d49"},"vehicle_type_id":"4","last_reported":1741201661,"current_range_meters":8800,"station_id":"ce4bho92rcd13ifvqh4g","pricing_plan_id":"cebpf4jnsgd1na2vs0mg"},{"bike_id":"97d73812-e425-46cf-a41e-2d2760525f94","system_id":"levelo_inurba_marseille","lat":43.29419,"lon":5.3862,"is_reserved":false,"is_disabled":false,"rental_uris":{"android":"levelo://app?vid=97d73812-e425-46cf-a41e-2d2760525f94","ios":"levelo://app?vid=97d73812-e425-46cf-a41e-2d2760525f94"},"vehicle_type_id":"4","last_reported":1741201661,"current_range_meters":9200,"station_id":"ce4bh2h2rcd13ifvqdh0","pricing_plan_id":"cebpf4jnsgd1na2vs0mg"},{"bike_id":"695828ba-2cea-49da-8d0e-3782d691adc5","system_id":"levelo_inurba_marseille","lat":43.27167,"lon":5.41003,"is_reserved":false,"is_disabled":false,"rental_uris":{"android":"levelo://app?vid=695828ba-2cea-49da-8d0e-3782d691adc5","ios":"levelo://app?vid=695828ba-2cea-49da-8d0e-3782d691adc5"},"vehicle_type_id":"4","last_reported":1741201661,"current_range_meters":9200,"station_id":"ce4bhl12rcd13ifvqgf0","pricing_plan_id":"cebpf4jnsgd1na2vs0mg"},{"bike_id":"bc6eae6c-ce9f-4603-ac78-ce5e6f132f53","system_id":"levelo_inurba_marseille","lat":43.268084,"lon":5.402641,"is_reserved":false,"is_disabled":false,"rental_uris":{"android":"levelo://app?vid=bc6eae6c-ce9f-4603-ac78-ce5e6f132f53","ios":"levelo://app?vid=bc6eae6c-ce9f-4603-ac78-ce5e6f132f53"},"vehicle_type_id":"4","last_reported":1741201661,"current_range_meters":9200,"station_id":"ce501612rcd8frsf0b60","pricing_plan_id":"cebpf4jnsgd1na2vs0mg"},{"bike_id":"c55557ad-1ed5-4997-aee7-ac92107f14b6","system_id":"levelo_inurba_marseille","lat":43.26445,"lon":5.37497,"is_reserved":false,"is_disabled":false,"rental_uris":{"android":"levelo://app?vid=c55557ad-1ed5-4997-aee7-ac92107f14b6","ios":"levelo://app?vid=c55557ad-1ed5-4997-aee7-ac92107f14b6"},"vehicle_type_id":"4","last_reported":1741201661,"current_range_meters":9600,"station_id":"","pricing_plan_id":"cebpf4jnsgd1na2vs0mg"},{"bike_id":"1bad045b-6ab3-484d-a893-50827840f29c","system_id":"levelo_inurba_marseille","lat":43.29251,"lon":5.38248,"is_reserved":false,"is_disabled":false,"rental_uris":{"android":"levelo://app?vid=1bad045b-6ab3-484d-a893-50827840f29c","ios":"levelo://app?vid=1bad045b-6ab3-484d-a893-50827840f29c"},"vehicle_type_id":"4","last_reported":1741201661,"current_range_meters":9600,"station_id":"","pricing_plan_id":"cebpf4jnsgd1na2vs0mg"},{"bike_id":"fc838241-d71b-40e3-9d8e-f62ef0aa3833","system_id":"levelo_inurba_marseille","lat":43.30131,"lon":5.38788,"is_reserved":false,"is_disabled":false,"rental_uris":{"android":"levelo://app?vid=fc838241-d71b-40e3-9d8e-f62ef0aa3833","ios":"levelo://app?vid=fc838241-d71b-40e3-9d8e-f62ef0aa3833"},"vehicle_type_id":"4","last_reported":1741201661,"current_range_meters":9600,"station_id":"ce4bghh2rcd13ifvqb60","pricing_plan_id":"cebpf4jnsgd1na2vs0mg"},{"bike_id":"9debb880-7d33-47a2-acc2-3cf451e0a748","system_id":"levelo_inurba_marseille","lat":43.31155,"lon":5.38731,"is_reserved":false,"is_disabled":false,"rental_uris":{"android":"levelo://app?vid=9debb880-7d33-47a2-acc2-3cf451e0a748","ios":"levelo://app?vid=9debb880-7d33-47a2-acc2-3cf451e0a748"},"vehicle_type_id":"4","last_reported":1741201661,"current_range_meters":9600,"station_id":"ce4bgv12rcd13ifvqcp0","pricing_plan_id":"cebpf4jnsgd1na2vs0mg"},{"bike_id":"57b42bea-fd34-4077-9f71-4a640d40e9f7","system_id":"levelo_inurba_marseille","lat":43.30211,"lon":5.39475,"is_reserved":false,"is_disabled":false,"rental_uris":{"android":"levelo://app?vid=57b42bea-fd34-4077-9f71-4a640d40e9f7","ios":"levelo://app?vid=57b42bea-fd34-4077-9f71-4a640d40e9f7"},"vehicle_type_id":"4","last_reported":1741201661,"current_range_meters":9600,"station_id":"ce4bh0p2rcd13ifvqd70","pricing_plan_id":"cebpf4jnsgd1na2vs0mg"},{"bike_id":"cc27da7c-8b3a-44bd-b073-6c1e2be6417e","system_id":"levelo_inurba_marseille","lat":43.27812,"lon":5.40707,"is_reserved":false,"is_disabled":false,"rental_uris":{"android":"levelo://app?vid=cc27da7c-8b3a-44bd-b073-6c1e2be6417e","ios":"levelo://app?vid=cc27da7c-8b3a-44bd-b073-6c1e2be6417e"},"vehicle_type_id":"4","last_reported":1741201661,"current_range_meters":9600,"station_id":"ce4bhnh2rcd13ifvqgtg","pricing_plan_id":"cebpf4jnsgd1na2vs0mg"},{"bike_id":"0a4f74e0-42e3-473c-833a-cc3dd28944e5","system_id":"levelo_inurba_marseille","lat":43.2799,"lon":5.40006,"is_reserved":false,"is_disabled":false,"rental_uris":{"android":"levelo://app?vid=0a4f74e0-42e3-473c-833a-cc3dd28944e5","ios":"levelo://app?vid=0a4f74e0-42e3-473c-833a-cc3dd28944e5"},"vehicle_type_id":"4","last_reported":1741201661,"current_range_meters":9600,"station_id":"ce4bho92rcd13ifvqh4g","pricing_plan_id":"cebpf4jnsgd1na2vs0mg"},{"bike_id":"e98d54dc-561c-4b10-adf5-36eb0d91aeaf","system_id":"levelo_inurba_marseille","lat":43.30434,"lon":5.38887,"is_reserved":false,"is_disabled":false,"rental_uris":{"android":"levelo://app?vid=e98d54dc-561c-4b10-adf5-36eb0d91aeaf","ios":"levelo://app?vid=e98d54dc-561c-4b10-adf5-36eb0d91aeaf"},"vehicle_type_id":"4","last_reported":1741201661,"current_range_meters":10800,"station_id":"ce4bgk12rcd13ifvqbi0","pricing_plan_id":"cebpf4jnsgd1na2vs0mg"},{"bike_id":"46bcc1d0-1deb-4aba-8262-b3846bf63224","system_id":"levelo_inurba_marseille","lat":43.29706,"lon":5.36617,"is_reserved":false,"is_disabled":false,"rental_uris":{"android":"levelo://app?vid=46bcc1d0-1deb-4aba-8262-b3846bf63224","ios":"levelo://app?vid=46bcc1d0-1deb-4aba-8262-b3846bf63224"},"vehicle_type_id":"4","last_reported":1741201661,"current_range_meters":10800,"station_id":"ce4bgn12rcd13ifvqbt0","pricing_plan_id":"cebpf4jnsgd1na2vs0mg"},{"bike_id":"7c9f6612-5bf0-492a-8140-dd1656bedc51","system_id":"levelo_inurba_marseille","lat":43.3133,"lon":5.39689,"is_reserved":false,"is_disabled":false,"rental_uris":{"android":"levelo://app?vid=7c9f6612-5bf0-492a-8140-dd1656bedc51","ios":"levelo://app?vid=7c9f6612-5bf0-492a-8140-dd1656bedc51"},"vehicle_type_id":"4","last_reported":1741201661,"current_range_meters":10800,"station_id":"ce4bgvp2rcd13ifvqcu0","pricing_plan_id":"cebpf4jnsgd1na2vs0mg"},{"bike_id":"72a0e150-ca2e-4105-a25f-828729a41006","system_id":"levelo_inurba_marseille","lat":43.2781,"lon":5.4071,"is_reserved":false,"is_disabled":false,"rental_uris":{"android":"levelo://app?vid=72a0e150-ca2e-4105-a25f-828729a41006","ios":"levelo://app?vid=72a0e150-ca2e-4105-a25f-828729a41006"},"vehicle_type_id":"4","last_reported":1741201661,"current_range_meters":10800,"station_id":"ce4bhnh2rcd13ifvqgtg","pricing_plan_id":"cebpf4jnsgd1na2vs0mg"},{"bike_id":"d10378d9-ce56-4a8a-bdfe-1c2940fd6047","system_id":"levelo_inurba_marseille","lat":43.27979,"lon":5.40035,"is_reserved":false,"is_disabled":false,"rental_uris":{"android":"levelo://app?vid=d10378d9-ce56-4a8a-bdfe-1c2940fd6047","ios":"levelo://app?vid=d10378d9-ce56-4a8a-bdfe-1c2940fd6047"},"vehicle_type_id":"4","last_reported":1741201661,"current_range_meters":10800,"station_id":"ce4bho92rcd13ifvqh4g","pricing_plan_id":"cebpf4jnsgd1na2vs0mg"},{"bike_id":"651fddea-adab-47cd-912b-4b5d38f37314","system_id":"levelo_inurba_marseille","lat":43.29768,"lon":5.37105,"is_reserved":false,"is_disabled":false,"rental_uris":{"android":"levelo://app?vid=651fddea-adab-47cd-912b-4b5d38f37314","ios":"levelo://app?vid=651fddea-adab-47cd-912b-4b5d38f37314"},"vehicle_type_id":"4","last_reported":1741201661,"current_range_meters":11200,"station_id":"ce4bgop2rcd13ifvqc1g","pricing_plan_id":"cebpf4jnsgd1na2vs0mg"},{"bike_id":"bab0ac47-c916-4e47-9fb4-01832ee32486","system_id":"levelo_inurba_marseille","lat":43.29413,"lon":5.38624,"is_reserved":false,"is_disabled":false,"rental_uris":{"android":"levelo://app?vid=bab0ac47-c916-4e47-9fb4-01832ee32486","ios":"levelo://app?vid=bab0ac47-c916-4e47-9fb4-01832ee32486"},"vehicle_type_id":"4","last_reported":1741201661,"current_range_meters":11200,"station_id":"ce4bh2h2rcd13ifvqdh0","pricing_plan_id":"cebpf4jnsgd1na2vs0mg"},{"bike_id":"42a7b109-d525-4261-b5d6-dbac5d95e942","system_id":"levelo_inurba_marseille","lat":43.292301,"lon":5.360699,"is_reserved":false,"is_disabled":false,"rental_uris":{"android":"levelo://app?vid=42a7b109-d525-4261-b5d6-dbac5d95e942","ios":"levelo://app?vid=42a7b109-d525-4261-b5d6-dbac5d95e942"},"vehicle_type_id":"4","last_reported":1741201661,"current_range_meters":11200,"station_id":"ce4bh392rcd13ifvqdl0","pricing_plan_id":"cebpf4jnsgd1na2vs0mg"},{"bike_id":"e06c9e42-b5a9-4c0c-bdaf-82bd2f03054e","system_id":"levelo_inurba_marseille","lat":43.29525,"lon":5.3904,"is_reserved":false,"is_disabled":false,"rental_uris":{"android":"levelo://app?vid=e06c9e42-b5a9-4c0c-bdaf-82bd2f03054e","ios":"levelo://app?vid=e06c9e42-b5a9-4c0c-bdaf-82bd2f03054e"},"vehicle_type_id":"4","last_reported":1741201661,"current_range_meters":11200,"station_id":"ce4bh3p2rcd13ifvqdp0","pricing_plan_id":"cebpf4jnsgd1na2vs0mg"},{"bike_id":"a078386b-8c27-4a5c-8516-4ac5f1829593","system_id":"levelo_inurba_marseille","lat":43.29054,"lon":5.38685,"is_reserved":false,"is_disabled":false,"rental_uris":{"android":"levelo://app?vid=a078386b-8c27-4a5c-8516-4ac5f1829593","ios":"levelo://app?vid=a078386b-8c27-4a5c-8516-4ac5f1829593"},"vehicle_type_id":"4","last_reported":1741201661,"current_range_meters":11200,"station_id":"ce4bh4p2rcd13ifvqe0g","pricing_plan_id":"cebpf4jnsgd1na2vs0mg"},{"bike_id":"8e67c6c2-1f86-420e-855b-676e159ed831","system_id":"levelo_inurba_marseille","lat":43.23062,"lon":5.3549,"is_reserved":false,"is_disabled":false,"rental_uris":{"android":"levelo://app?vid=8e67c6c2-1f86-420e-855b-676e159ed831","ios":"levelo://app?vid=8e67c6c2-1f86-420e-855b-676e159ed831"},"vehicle_type_id":"4","last_reported":1741201661,"current_range_meters":11200,"station_id":"cpo3342slgdg3j2ifvpg","pricing_plan_id":"cebpf4jnsgd1na2vs0mg"},{"bike_id":"20443e03-7b9f-4c06-8a7e-ba44d4be8ca0","system_id":"levelo_inurba_marseille","lat":43.30934,"lon":5.39028,"is_reserved":false,"is_disabled":false,"rental_uris":{"android":"levelo://app?vid=20443e03-7b9f-4c06-8a7e-ba44d4be8ca0","ios":"levelo://app?vid=20443e03-7b9f-4c06-8a7e-ba44d4be8ca0"},"vehicle_type_id":"4","last_reported":1741201661,"current_range_meters":11600,"station_id":"ce4bgup2rcd13ifvqco0","pricing_plan_id":"cebpf4jnsgd1na2vs0mg"},{"bike_id":"df2fbb86-f999-4398-b62c-458a55f2bf88","system_id":"levelo_inurba_marseille","lat":43.305115,"lon":5.38449,"is_reserved":false,"is_disabled":false,"rental_uris":{"android":"levelo://app?vid=df2fbb86-f999-4398-b62c-458a55f2bf88","ios":"levelo://app?vid=df2fbb86-f999-4398-b62c-458a55f2bf88"},"vehicle_type_id":"4","last_reported":1741201661,"current_range_meters":11600,"station_id":"ce4bh192rcd13ifvqdc0","pricing_plan_id":"cebpf4jnsgd1na2vs0mg"},{"bike_id":"413c729c-9037-4b49-a115-22a5198a1964","system_id":"levelo_inurba_marseille","lat":43.29015,"lon":5.38133,"is_reserved":false,"is_disabled":false,"rental_uris":{"android":"levelo://app?vid=413c729c-9037-4b49-a115-22a5198a1964","ios":"levelo://app?vid=413c729c-9037-4b49-a115-22a5198a1964"},"vehicle_type_id":"4","last_reported":1741201661,"current_range_meters":11600,"station_id":"ce4bh4p2rcd13ifvqe1g","pricing_plan_id":"cebpf4jnsgd1na2vs0mg"},{"bike_id":"8647500b-e5bd-4224-a3e8-28943b0f44af","system_id":"levelo_inurba_marseille","lat":43.2872,"lon":5.37924,"is_reserved":false,"is_disabled":false,"rental_uris":{"android":"levelo://app?vid=8647500b-e5bd-4224-a3e8-28943b0f44af","ios":"levelo://app?vid=8647500b-e5bd-4224-a3e8-28943b0f44af"},"vehicle_type_id":"4","last_reported":1741201661,"current_range_meters":11600,"station_id":"ce4bh9p2rcd13ifvqec0","pricing_plan_id":"cebpf4jnsgd1na2vs0mg"},{"bike_id":"27538e14-b64e-489d-b4ed-827204103f21","system_id":"levelo_inurba_marseille","lat":43.24067,"lon":5.37762,"is_reserved":false,"is_disabled":false,"rental_uris":{"android":"levelo://app?vid=27538e14-b64e-489d-b4ed-827204103f21","ios":"levelo://app?vid=27538e14-b64e-489d-b4ed-827204103f21"},"vehicle_type_id":"4","last_reported":1741201661,"current_range_meters":11600,"station_id":"ce4bhnp2rcd13ifvqgvg","pricing_plan_id":"cebpf4jnsgd1na2vs0mg"},{"bike_id":"7be10eac-e616-4904-8cdc-c543b04d589f","system_id":"levelo_inurba_marseille","lat":43.24166,"lon":5.36398,"is_reserved":false,"is_disabled":false,"rental_uris":{"android":"levelo://app?vid=7be10eac-e616-4904-8cdc-c543b04d589f","ios":"levelo://app?vid=7be10eac-e616-4904-8cdc-c543b04d589f"},"vehicle_type_id":"4","last_reported":1741201661,"current_range_meters":11600,"station_id":"cpo36qri1sfpv3e86is0","pricing_plan_id":"cebpf4jnsgd1na2vs0mg"},{"bike_id":"421f8750-39e8-4bee-a531-e2d2257814a3","system_id":"levelo_inurba_marseille","lat":43.30651,"lon":5.40081,"is_reserved":false,"is_disabled":false,"rental_uris":{"android":"levelo://app?vid=421f8750-39e8-4bee-a531-e2d2257814a3","ios":"levelo://app?vid=421f8750-39e8-4bee-a531-e2d2257814a3"},"vehicle_type_id":"4","last_reported":1741201661,"current_range_meters":12000,"station_id":"ce4bh112rcd13ifvqda0","pricing_plan_id":"cebpf4jnsgd1na2vs0mg"},{"bike_id":"2391c9c6-c0fb-4a64-8295-98ede92bc353","system_id":"levelo_inurba_marseille","lat":43.28483,"lon":5.38413,"is_reserved":false,"is_disabled":false,"rental_uris":{"android":"levelo://app?vid=2391c9c6-c0fb-4a64-8295-98ede92bc353","ios":"levelo://app?vid=2391c9c6-c0fb-4a64-8295-98ede92bc353"},"vehicle_type_id":"4","last_reported":1741201661,"current_range_meters":12000,"station_id":"ce4bh512rcd13ifvqe3g","pricing_plan_id":"cebpf4jnsgd1na2vs0mg"},{"bike_id":"c523907c-b98d-4230-94f7-ff3e2511e03e","system_id":"levelo_inurba_marseille","lat":43.28945,"lon":5.36399,"is_reserved":false,"is_disabled":false,"rental_uris":{"android":"levelo://app?vid=c523907c-b98d-4230-94f7-ff3e2511e03e","ios":"levelo://app?vid=c523907c-b98d-4230-94f7-ff3e2511e03e"},"vehicle_type_id":"4","last_reported":1741201661,"current_range_meters":12000,"station_id":"ce4bhc92rcd13ifvqetg","pricing_plan_id":"cebpf4jnsgd1na2vs0mg"},{"bike_id":"6e456cf9-44ac-41e9-9952-9cc6c7baa16a","system_id":"levelo_inurba_marseille","lat":43.27812,"lon":5.40711,"is_reserved":false,"is_disabled":false,"rental_uris":{"android":"levelo://app?vid=6e456cf9-44ac-41e9-9952-9cc6c7baa16a","ios":"levelo://app?vid=6e456cf9-44ac-41e9-9952-9cc6c7baa16a"},"vehicle_type_id":"4","last_reported":1741201661,"current_range_meters":12000,"station_id":"ce4bhnh2rcd13ifvqgtg","pricing_plan_id":"cebpf4jnsgd1na2vs0mg"},{"bike_id":"41fc5ccf-7cae-4a19-ab3c-a6c8d7cf741a","system_id":"levelo_inurba_marseille","lat":43.24094,"lon":5.37776,"is_reserved":false,"is_disabled":false,"rental_uris":{"android":"levelo://app?vid=41fc5ccf-7cae-4a19-ab3c-a6c8d7cf741a","ios":"levelo://app?vid=41fc5ccf-7cae-4a19-ab3c-a6c8d7cf741a"},"vehicle_type_id":"4","last_reported":1741201661,"current_range_meters":12000,"station_id":"ce4bhnp2rcd13ifvqgvg","pricing_plan_id":"cebpf4jnsgd1na2vs0mg"},{"bike_id":"6ab0c99d-6e8d-4655-92f8-3398841d09fa","system_id":"levelo_inurba_marseille","lat":43.27987,"lon":5.40018,"is_reserved":false,"is_disabled":false,"rental_uris":{"android":"levelo://app?vid=6ab0c99d-6e8d-4655-92f8-3398841d09fa","ios":"levelo://app?vid=6ab0c99d-6e8d-4655-92f8-3398841d09fa"},"vehicle_type_id":"4","last_reported":1741201661,"current_range_meters":12000,"station_id":"ce4bho92rcd13ifvqh4g","pricing_plan_id":"cebpf4jnsgd1na2vs0mg"},{"bike_id":"c36a8e9b-42d6-4736-99f3-97b34a74b3b5","system_id":"levelo_inurba_marseille","lat":43.29371,"lon":5.37854,"is_reserved":false,"is_disabled":false,"rental_uris":{"android":"levelo://app?vid=c36a8e9b-42d6-4736-99f3-97b34a74b3b5","ios":"levelo://app?vid=c36a8e9b-42d6-4736-99f3-97b34a74b3b5"},"vehicle_type_id":"4","last_reported":1741201661,"current_range_meters":12400,"station_id":"ce4bgjh2rcd13ifvqbf0","pricing_plan_id":"cebpf4jnsgd1na2vs0mg"},{"bike_id":"9f701087-260c-491c-bf0b-74bb64a614c4","system_id":"levelo_inurba_marseille","lat":43.29701,"lon":5.36594,"is_reserved":false,"is_disabled":false,"rental_uris":{"android":"levelo://app?vid=9f701087-260c-491c-bf0b-74bb64a614c4","ios":"levelo://app?vid=9f701087-260c-491c-bf0b-74bb64a614c4"},"vehicle_type_id":"4","last_reported":1741201661,"current_range_meters":12400,"station_id":"ce4bgn12rcd13ifvqbt0","pricing_plan_id":"cebpf4jnsgd1na2vs0mg"},{"bike_id":"82e0678e-5e5e-4444-a803-36248117a00a","system_id":"levelo_inurba_marseille","lat":43.28335,"lon":5.38097,"is_reserved":false,"is_disabled":false,"rental_uris":{"android":"levelo://app?vid=82e0678e-5e5e-4444-a803-36248117a00a","ios":"levelo://app?vid=82e0678e-5e5e-4444-a803-36248117a00a"},"vehicle_type_id":"4","last_reported":1741201661,"current_range_meters":12400,"station_id":"ce4bh412rcd13ifvqdr0","pricing_plan_id":"cebpf4jnsgd1na2vs0mg"},{"bike_id":"19707f4e-57a0-487d-a0fd-b6e158a12fa5","system_id":"levelo_inurba_marseille","lat":43.28105,"lon":5.37843,"is_reserved":false,"is_disabled":false,"rental_uris":{"android":"levelo://app?vid=19707f4e-57a0-487d-a0fd-b6e158a12fa5","ios":"levelo://app?vid=19707f4e-57a0-487d-a0fd-b6e158a12fa5"},"vehicle_type_id":"4","last_reported":1741201661,"current_range_meters":12400,"station_id":"ce4bha12rcd13ifvqee0","pricing_plan_id":"cebpf4jnsgd1na2vs0mg"},{"bike_id":"137878d2-e88a-4945-b1bb-3f88e35ead5e","system_id":"levelo_inurba_marseille","lat":43.28717,"lon":5.36102,"is_reserved":false,"is_disabled":false,"rental_uris":{"android":"levelo://app?vid=137878d2-e88a-4945-b1bb-3f88e35ead5e","ios":"levelo://app?vid=137878d2-e88a-4945-b1bb-3f88e35ead5e"},"vehicle_type_id":"4","last_reported":1741201661,"current_range_meters":12400,"station_id":"cki0cbj6b192h4jlfktg","pricing_plan_id":"cebpf4jnsgd1na2vs0mg"},{"bike_id":"b39c63e2-51cd-458a-8419-523ece9e7376","system_id":"levelo_inurba_marseille","lat":43.30463,"lon":5.3893,"is_reserved":false,"is_disabled":false,"rental_uris":{"android":"levelo://app?vid=b39c63e2-51cd-458a-8419-523ece9e7376","ios":"levelo://app?vid=b39c63e2-51cd-458a-8419-523ece9e7376"},"vehicle_type_id":"4","last_reported":1741201661,"current_range_meters":12800,"station_id":"ce4bgk12rcd13ifvqbi0","pricing_plan_id":"cebpf4jnsgd1na2vs0mg"},{"bike_id":"444e1429-6ba9-4af4-9d1e-6c4459f29f0e","system_id":"levelo_inurba_marseille","lat":43.29423,"lon":5.38626,"is_reserved":false,"is_disabled":false,"rental_uris":{"android":"levelo://app?vid=444e1429-6ba9-4af4-9d1e-6c4459f29f0e","ios":"levelo://app?vid=444e1429-6ba9-4af4-9d1e-6c4459f29f0e"},"vehicle_type_id":"4","last_reported":1741201661,"current_range_meters":12800,"station_id":"ce4bh2h2rcd13ifvqdh0","pricing_plan_id":"cebpf4jnsgd1na2vs0mg"},{"bike_id":"a9f0f59c-49ed-4cf4-ac5b-3885616f25f4","system_id":"levelo_inurba_marseille","lat":43.290901,"lon":5.380784,"is_reserved":false,"is_disabled":false,"rental_uris":{"android":"levelo://app?vid=a9f0f59c-49ed-4cf4-ac5b-3885616f25f4","ios":"levelo://app?vid=a9f0f59c-49ed-4cf4-ac5b-3885616f25f4"},"vehicle_type_id":"4","last_reported":1741201661,"current_range_meters":12800,"station_id":"ce4bh4p2rcd13ifvqe0g","pricing_plan_id":"cebpf4jnsgd1na2vs0mg"},{"bike_id":"fa11260e-3db3-4714-8f3c-38df1c8e0099","system_id":"levelo_inurba_marseille","lat":43.27063,"lon":5.40253,"is_reserved":false,"is_disabled":false,"rental_uris":{"android":"levelo://app?vid=fa11260e-3db3-4714-8f3c-38df1c8e0099","ios":"levelo://app?vid=fa11260e-3db3-4714-8f3c-38df1c8e0099"},"vehicle_type_id":"4","last_reported":1741201661,"current_range_meters":12800,"station_id":"ce4bhk92rcd13ifvqgc0","pricing_plan_id":"cebpf4jnsgd1na2vs0mg"},{"bike_id":"8f3c9323-36b7-44db-be8f-e5da87bee204","system_id":"levelo_inurba_marseille","lat":43.32344,"lon":5.40614,"is_reserved":false,"is_disabled":false,"rental_uris":{"android":"levelo://app?vid=8f3c9323-36b7-44db-be8f-e5da87bee204","ios":"levelo://app?vid=8f3c9323-36b7-44db-be8f-e5da87bee204"},"vehicle_type_id":"4","last_reported":1741201661,"current_range_meters":12800,"station_id":"ce4bhq92rcd13ifvqhjg","pricing_plan_id":"cebpf4jnsgd1na2vs0mg"},{"bike_id":"37a42b98-44b2-410d-8ea6-9be51c52bb8f","system_id":"levelo_inurba_marseille","lat":43.30604,"lon":5.37216,"is_reserved":false,"is_disabled":false,"rental_uris":{"android":"levelo://app?vid=37a42b98-44b2-410d-8ea6-9be51c52bb8f","ios":"levelo://app?vid=37a42b98-44b2-410d-8ea6-9be51c52bb8f"},"vehicle_type_id":"4","last_reported":1741201661,"current_range_meters":13600,"station_id":"ce4bgqh2rcd13ifvqc4g","pricing_plan_id":"cebpf4jnsgd1na2vs0mg"},{"bike_id":"fc0e7728-b52a-448f-8d4e-af5e8f375bff","system_id":"levelo_inurba_marseille","lat":43.30442,"lon":5.39754,"is_reserved":false,"is_disabled":false,"rental_uris":{"android":"levelo://app?vid=fc0e7728-b52a-448f-8d4e-af5e8f375bff","ios":"levelo://app?vid=fc0e7728-b52a-448f-8d4e-af5e8f375bff"},"vehicle_type_id":"4","last_reported":1741201661,"current_range_meters":13600,"station_id":"ce4bh092rcd13ifvqd20","pricing_plan_id":"cebpf4jnsgd1na2vs0mg"},{"bike_id":"6bb40379-a505-4b1d-9282-b739c69ec956","system_id":"levelo_inurba_marseille","lat":43.2861,"lon":5.35107,"is_reserved":false,"is_disabled":false,"rental_uris":{"android":"levelo://app?vid=6bb40379-a505-4b1d-9282-b739c69ec956","ios":"levelo://app?vid=6bb40379-a505-4b1d-9282-b739c69ec956"},"vehicle_type_id":"4","last_reported":1741201661,"current_range_meters":13600,"station_id":"ce4bhch2rcd13ifvqeug","pricing_plan_id":"cebpf4jnsgd1na2vs0mg"},{"bike_id":"4753fed7-e5ce-49fd-9a47-0d4f8bf330e4","system_id":"levelo_inurba_marseille","lat":43.27063,"lon":5.403688,"is_reserved":false,"is_disabled":false,"rental_uris":{"android":"levelo://app?vid=4753fed7-e5ce-49fd-9a47-0d4f8bf330e4","ios":"levelo://app?vid=4753fed7-e5ce-49fd-9a47-0d4f8bf330e4"},"vehicle_type_id":"4","last_reported":1741201661,"current_range_meters":13600,"station_id":"ce4bhl12rcd13ifvqgf0","pricing_plan_id":"cebpf4jnsgd1na2vs0mg"},{"bike_id":"1cfc9c5f-54af-40e6-8245-4f580f3f70f1","system_id":"levelo_inurba_marseille","lat":43.33005,"lon":5.39051,"is_reserved":false,"is_disabled":false,"rental_uris":{"android":"levelo://app?vid=1cfc9c5f-54af-40e6-8245-4f580f3f70f1","ios":"levelo://app?vid=1cfc9c5f-54af-40e6-8245-4f580f3f70f1"},"vehicle_type_id":"4","last_reported":1741201661,"current_range_meters":13600,"station_id":"ce4bhr92rcd13ifvqhrg","pricing_plan_id":"cebpf4jnsgd1na2vs0mg"},{"bike_id":"deccb326-0579-4f88-8ded-8a796f163b88","system_id":"levelo_inurba_marseille","lat":43.31432,"lon":5.37601,"is_reserved":false,"is_disabled":false,"rental_uris":{"android":"levelo://app?vid=deccb326-0579-4f88-8ded-8a796f163b88","ios":"levelo://app?vid=deccb326-0579-4f88-8ded-8a796f163b88"},"vehicle_type_id":"4","last_reported":1741201661,"current_range_meters":14000,"station_id":"","pricing_plan_id":"cebpf4jnsgd1na2vs0mg"},{"bike_id":"79c6abd0-5703-4038-bb70-99151e91304f","system_id":"levelo_inurba_marseille","lat":43.30436,"lon":5.39747,"is_reserved":false,"is_disabled":false,"rental_uris":{"android":"levelo://app?vid=79c6abd0-5703-4038-bb70-99151e91304f","ios":"levelo://app?vid=79c6abd0-5703-4038-bb70-99151e91304f"},"vehicle_type_id":"4","last_reported":1741201661,"current_range_meters":14000,"station_id":"ce4bh092rcd13ifvqd20","pricing_plan_id":"cebpf4jnsgd1na2vs0mg"},{"bike_id":"e5ed8e38-e43c-46c9-8775-31e68c42a0a9","system_id":"levelo_inurba_marseille","lat":43.29522,"lon":5.3904,"is_reserved":false,"is_disabled":false,"rental_uris":{"android":"levelo://app?vid=e5ed8e38-e43c-46c9-8775-31e68c42a0a9","ios":"levelo://app?vid=e5ed8e38-e43c-46c9-8775-31e68c42a0a9"},"vehicle_type_id":"4","last_reported":1741201661,"current_range_meters":14000,"station_id":"ce4bh3p2rcd13ifvqdp0","pricing_plan_id":"cebpf4jnsgd1na2vs0mg"},{"bike_id":"6a221c15-df87-47a5-83f8-7826eb8856fb","system_id":"levelo_inurba_marseille","lat":43.29269,"lon":5.3844,"is_reserved":false,"is_disabled":false,"rental_uris":{"android":"levelo://app?vid=6a221c15-df87-47a5-83f8-7826eb8856fb","ios":"levelo://app?vid=6a221c15-df87-47a5-83f8-7826eb8856fb"},"vehicle_type_id":"4","last_reported":1741201661,"current_range_meters":14000,"station_id":"ce4bh692rcd13ifvqea0","pricing_plan_id":"cebpf4jnsgd1na2vs0mg"},{"bike_id":"f523e284-5446-4ec1-b98b-9b4f272c5f15","system_id":"levelo_inurba_marseille","lat":43.24073,"lon":5.37762,"is_reserved":false,"is_disabled":false,"rental_uris":{"android":"levelo://app?vid=f523e284-5446-4ec1-b98b-9b4f272c5f15","ios":"levelo://app?vid=f523e284-5446-4ec1-b98b-9b4f272c5f15"},"vehicle_type_id":"4","last_reported":1741201661,"current_range_meters":14000,"station_id":"ce4bhnp2rcd13ifvqgvg","pricing_plan_id":"cebpf4jnsgd1na2vs0mg"},{"bike_id":"d577278b-7840-44b0-88ad-0196398ea0ac","system_id":"levelo_inurba_marseille","lat":43.28701,"lon":5.39992,"is_reserved":false,"is_disabled":false,"rental_uris":{"android":"levelo://app?vid=d577278b-7840-44b0-88ad-0196398ea0ac","ios":"levelo://app?vid=d577278b-7840-44b0-88ad-0196398ea0ac"},"vehicle_type_id":"4","last_reported":1741201661,"current_range_meters":14000,"station_id":"ce4bho92rcd13ifvqh3g","pricing_plan_id":"cebpf4jnsgd1na2vs0mg"},{"bike_id":"0b3cb245-c1ab-4265-9e03-36f6b9bfa685","system_id":"levelo_inurba_marseille","lat":43.23076,"lon":5.35496,"is_reserved":false,"is_disabled":false,"rental_uris":{"android":"levelo://app?vid=0b3cb245-c1ab-4265-9e03-36f6b9bfa685","ios":"levelo://app?vid=0b3cb245-c1ab-4265-9e03-36f6b9bfa685"},"vehicle_type_id":"4","last_reported":1741201661,"current_range_meters":14000,"station_id":"cpo3342slgdg3j2ifvpg","pricing_plan_id":"cebpf4jnsgd1na2vs0mg"},{"bike_id":"edb3884d-abcd-4560-8dc9-302df86773ce","system_id":"levelo_inurba_marseille","lat":43.28939,"lon":5.3663,"is_reserved":false,"is_disabled":false,"rental_uris":{"android":"levelo://app?vid=edb3884d-abcd-4560-8dc9-302df86773ce","ios":"levelo://app?vid=edb3884d-abcd-4560-8dc9-302df86773ce"},"vehicle_type_id":"4","last_reported":1741201661,"current_range_meters":14400,"station_id":"ce4bhap2rcd13ifvqek0","pricing_plan_id":"cebpf4jnsgd1na2vs0mg"},{"bike_id":"0dc38342-8513-4a37-9e17-5ce15177d206","system_id":"levelo_inurba_marseille","lat":43.27811,"lon":5.40703,"is_reserved":false,"is_disabled":false,"rental_uris":{"android":"levelo://app?vid=0dc38342-8513-4a37-9e17-5ce15177d206","ios":"levelo://app?vid=0dc38342-8513-4a37-9e17-5ce15177d206"},"vehicle_type_id":"4","last_reported":1741201661,"current_range_meters":14400,"station_id":"ce4bhnh2rcd13ifvqgtg","pricing_plan_id":"cebpf4jnsgd1na2vs0mg"},{"bike_id":"7f1905bf-da4d-4f13-af14-c5d46804e585","system_id":"levelo_inurba_marseille","lat":43.23183,"lon":5.35562,"is_reserved":false,"is_disabled":false,"rental_uris":{"android":"levelo://app?vid=7f1905bf-da4d-4f13-af14-c5d46804e585","ios":"levelo://app?vid=7f1905bf-da4d-4f13-af14-c5d46804e585"},"vehicle_type_id":"4","last_reported":1741201661,"current_range_meters":14400,"station_id":"ce4bhu92rcd13ifvqi70","pricing_plan_id":"cebpf4jnsgd1na2vs0mg"},{"bike_id":"9e6b6d29-f2f2-44d0-b49a-0cfecbb5838a","system_id":"levelo_inurba_marseille","lat":43.30104,"lon":5.3907,"is_reserved":false,"is_disabled":false,"rental_uris":{"android":"levelo://app?vid=9e6b6d29-f2f2-44d0-b49a-0cfecbb5838a","ios":"levelo://app?vid=9e6b6d29-f2f2-44d0-b49a-0cfecbb5838a"},"vehicle_type_id":"4","last_reported":1741201661,"current_range_meters":14800,"station_id":"ce4bh192rcd13ifvqdb0","pricing_plan_id":"cebpf4jnsgd1na2vs0mg"},{"bike_id":"80204dbe-f06a-424a-abaa-a9a9a4ee2b1d","system_id":"levelo_inurba_marseille","lat":43.27826,"lon":5.39208,"is_reserved":false,"is_disabled":false,"rental_uris":{"android":"levelo://app?vid=80204dbe-f06a-424a-abaa-a9a9a4ee2b1d","ios":"levelo://app?vid=80204dbe-f06a-424a-abaa-a9a9a4ee2b1d"},"vehicle_type_id":"4","last_reported":1741201661,"current_range_meters":14800,"station_id":"ce4bhjp2rcd13ifvqga0","pricing_plan_id":"cebpf4jnsgd1na2vs0mg"},{"bike_id":"051dfc05-0a94-496f-9e67-2505994a08e6","system_id":"levelo_inurba_marseille","lat":43.29419,"lon":5.38623,"is_reserved":false,"is_disabled":false,"rental_uris":{"android":"levelo://app?vid=051dfc05-0a94-496f-9e67-2505994a08e6","ios":"levelo://app?vid=051dfc05-0a94-496f-9e67-2505994a08e6"},"vehicle_type_id":"4","last_reported":1741201661,"current_range_meters":15200,"station_id":"ce4bh2h2rcd13ifvqdh0","pricing_plan_id":"cebpf4jnsgd1na2vs0mg"},{"bike_id":"7e716bc7-c3b6-40c7-acde-f0750f44e9b1","system_id":"levelo_inurba_marseille","lat":43.2781,"lon":5.40706,"is_reserved":false,"is_disabled":false,"rental_uris":{"android":"levelo://app?vid=7e716bc7-c3b6-40c7-acde-f0750f44e9b1","ios":"levelo://app?vid=7e716bc7-c3b6-40c7-acde-f0750f44e9b1"},"vehicle_type_id":"4","last_reported":1741201661,"current_range_meters":15200,"station_id":"ce4bhnh2rcd13ifvqgtg","pricing_plan_id":"cebpf4jnsgd1na2vs0mg"},{"bike_id":"274f737b-e3d2-4f4a-9b70-ca9f7dc29b1c","system_id":"levelo_inurba_marseille","lat":43.28666,"lon":5.36353,"is_reserved":false,"is_disabled":false,"rental_uris":{"android":"levelo://app?vid=274f737b-e3d2-4f4a-9b70-ca9f7dc29b1c","ios":"levelo://app?vid=274f737b-e3d2-4f4a-9b70-ca9f7dc29b1c"},"vehicle_type_id":"4","last_reported":1741201661,"current_range_meters":16000,"station_id":"ce4bhah2rcd13ifvqej0","pricing_plan_id":"cebpf4jnsgd1na2vs0mg"},{"bike_id":"acf20595-7755-43d3-8c8f-296b234b0f1b","system_id":"levelo_inurba_marseille","lat":43.251,"lon":5.41065,"is_reserved":false,"is_disabled":false,"rental_uris":{"android":"levelo://app?vid=acf20595-7755-43d3-8c8f-296b234b0f1b","ios":"levelo://app?vid=acf20595-7755-43d3-8c8f-296b234b0f1b"},"vehicle_type_id":"4","last_reported":1741201661,"current_range_meters":16400,"station_id":"","pricing_plan_id":"cebpf4jnsgd1na2vs0mg"},{"bike_id":"9595e8eb-c28b-4ca6-adc4-bb1eeae1f6d3","system_id":"levelo_inurba_marseille","lat":43.30145,"lon":5.37421,"is_reserved":false,"is_disabled":false,"rental_uris":{"android":"levelo://app?vid=9595e8eb-c28b-4ca6-adc4-bb1eeae1f6d3","ios":"levelo://app?vid=9595e8eb-c28b-4ca6-adc4-bb1eeae1f6d3"},"vehicle_type_id":"4","last_reported":1741201661,"current_range_meters":16400,"station_id":"ce4bgs92rcd13ifvqcc0","pricing_plan_id":"cebpf4jnsgd1na2vs0mg"},{"bike_id":"2a3fe4f5-72a6-4a4d-bfb1-f7113aacc254","system_id":"levelo_inurba_marseille","lat":43.31365,"lon":5.38492,"is_reserved":false,"is_disabled":false,"rental_uris":{"android":"levelo://app?vid=2a3fe4f5-72a6-4a4d-bfb1-f7113aacc254","ios":"levelo://app?vid=2a3fe4f5-72a6-4a4d-bfb1-f7113aacc254"},"vehicle_type_id":"4","last_reported":1741201661,"current_range_meters":16400,"station_id":"ce4bgt92rcd13ifvqcf0","pricing_plan_id":"cebpf4jnsgd1na2vs0mg"},{"bike_id":"d981d5d7-8839-4f42-ad87-ee23520e9dd8","system_id":"levelo_inurba_marseille","lat":43.28365,"lon":5.38638,"is_reserved":false,"is_disabled":false,"rental_uris":{"android":"levelo://app?vid=d981d5d7-8839-4f42-ad87-ee23520e9dd8","ios":"levelo://app?vid=d981d5d7-8839-4f42-ad87-ee23520e9dd8"},"vehicle_type_id":"4","last_reported":1741201661,"current_range_meters":16400,"station_id":"ce4bh492rcd13ifvqdvg","pricing_plan_id":"cebpf4jnsgd1na2vs0mg"},{"bike_id":"93e360f6-914d-4f2f-9f62-13fa240ce1c4","system_id":"levelo_inurba_marseille","lat":43.284329,"lon":5.384939,"is_reserved":false,"is_disabled":false,"rental_uris":{"android":"levelo://app?vid=93e360f6-914d-4f2f-9f62-13fa240ce1c4","ios":"levelo://app?vid=93e360f6-914d-4f2f-9f62-13fa240ce1c4"},"vehicle_type_id":"4","last_reported":1741201661,"current_range_meters":16400,"station_id":"ce4bh612rcd13ifvqe6g","pricing_plan_id":"cebpf4jnsgd1na2vs0mg"},{"bike_id":"5c3ed66f-7620-412d-a698-d6bf1340a913","system_id":"levelo_inurba_marseille","lat":43.25003,"lon":5.38905,"is_reserved":false,"is_disabled":false,"rental_uris":{"android":"levelo://app?vid=5c3ed66f-7620-412d-a698-d6bf1340a913","ios":"levelo://app?vid=5c3ed66f-7620-412d-a698-d6bf1340a913"},"vehicle_type_id":"4","last_reported":1741201661,"current_range_meters":16400,"station_id":"ce4bhgp2rcd13ifvqfd0","pricing_plan_id":"cebpf4jnsgd1na2vs0mg"},