{"last_updated":1729062573,"ttl":60,"version":"2.2","data":{"bikes":[{"bike_id":"f10333d7-4674-4eb5-86a5-7272fb012653","system_id":"levelo_inurba_marseille","lat":43.300387,"lon":5.385719,"is_reserved":false,"is_disabled":false,"rental_uris":{"android":"levelo://app?vid=f10333d7-4674-4eb5-86a5-7272fb012653","ios":"levelo://app?vid=f10333d7-4674-4eb5-86a5-7272fb012653"},"vehicle_type_id":"4","last_reported":1729062573,"current_range_meters":15200,"station_id":"ce4bgv12rcd13ifvqcp0","pricing_plan_id":"cebpf4jnsgd1na2vs0mg"},{"bike_id":"66379f2c-c1c8-4683-a252-ed84c21d525c","system_id":"levelo_inurba_marseille","lat":43.2707,"lon":5.42275,"is_reserved":false,"is_disabled":false,"rental_uris":{"android":"levelo://app?vid=66379f2c-c1c8-4683-a252-ed84c21d525c","ios":"levelo://app?vid=66379f2c-c1c8-4683-a252-ed84c21d525c"},"vehicle_type_id":"4","last_reported":1729062573,"current_range_meters":31200,"station_id":"ce4bhk92rcd13ifvqgb0","pricing_plan_id":"cebpf4jnsgd1na2vs0mg"},{"bike_id":"17e32472-8489-46fd-a06d-0a635410d5ea","system_id":"levelo_inurba_marseille","lat":43.291721,"lon":5.371568,"is_reserved":false,"is_disabled":false,"rental_uris":{"android":"levelo://app?vid=17e32472-8489-46fd-a06d-0a635410d5ea","ios":"levelo://app?vid=17e32472-8489-46fd-a06d-0a635410d5ea"},"vehicle_type_id":"4","last_reported":1729062573,"current_range_meters":27600,"station_id":"ce4bha92rcd13ifvqeh0","pricing_plan_id":"cebpf4jnsgd1na2vs0mg"},{"bike_id":"5002f4ca-68aa-4a9a-bbfb-321dee34c575","system_id":"levelo_inurba_marseille","lat":43.25938,"lon":5.40903,"is_reserved":false,"is_disabled":false,"rental_uris":{"android":"levelo://app?vid=5002f4ca-68aa-4a9a-bbfb-321dee34c575","ios":"levelo://app?vid=5002f4ca-68aa-4a9a-bbfb-321dee34c575"},"vehicle_type_id":"4","last_reported":1729062573,"current_range_meters":25200,"station_id":"ce4bhm92rcd13ifvqglg","pricing_plan_id":"cebpf4jnsgd1na2vs0mg"},{"bike_id":"805cf10d-9632-4f1a-9f3a-80b24a4fbac6","system_id":"levelo_inurba_marseille","lat":43.29774,"lon":5.41288,"is_reserved":false,"is_disabled":false,"rental_uris":{"android":"levelo://app?vid=805cf10d-9632-4f1a-9f3a-80b24a4fbac6","ios":"levelo://app?vid=805cf10d-9632-4f1a-9f3a-80b24a4fbac6"},"vehicle_type_id":"4","last_reported":1729062573,"current_range_meters":6000,"station_id":"","pricing_plan_id":"cebpf4jnsgd1na2vs0mg"},{"bike_id":"12334f6a-5f62-4c68-b643-1dcd21be38a1","system_id":"levelo_inurba_marseille","lat":43.29302,"lon":5.37462,"is_reserved":false,"is_disabled":false,"rental_uris":{"android":"levelo://app?vid=12334f6a-5f62-4c68-b643-1dcd21be38a1","ios":"levelo://app?vid=12334f6a-5f62-4c68-b643-1dcd21be38a1"},"vehicle_type_id":"4","last_reported":1729062573,"current_range_meters":27200,"station_id":"ce4bgi12rcd13ifvqb70","pricing_plan_id":"cebpf4jnsgd1na2vs0mg"},{"bike_id":"b355e199-5b55-43c0-b360-d6ed305afb06","system_id":"levelo_inurba_marseille","lat":43.27211,"lon":5.39185,"is_reserved":false,"is_disabled":false,"rental_uris":{"android":"levelo://app?vid=b355e199-5b55-43c0-b360-d6ed305afb06","ios":"levelo://app?vid=b355e199-5b55-43c0-b360-d6ed305afb06"},"vehicle_type_id":"4","last_reported":1729062573,"current_range_meters":18000,"station_id":"","pricing_plan_id":"cebpf4jnsgd1na2vs0mg"},{"bike_id":"3d1aa8b2-1be9-41d6-b66c-9c65ba0a1999","system_id":"levelo_inurba_marseille","lat":43.25819,"lon":5.39435,"is_reserved":false,"is_disabled":false,"rental_uris":{"android":"levelo://app?vid=3d1aa8b2-1be9-41d6-b66c-9c65ba0a1999","ios":"levelo://app?vid=3d1aa8b2-1be9-41d6-b66c-9c65ba0a1999"},"vehicle_type_id":"4","last_reported":1729062573,"current_range_meters":21600,"station_id":"ce4bhip2rcd13ifvqft0","pricing_plan_id":"cebpf4jnsgd1na2vs0mg"},{"bike_id":"a317d19b-3e4c-466d-b1f0-ad5b7ee20519","system_id":"levelo_inurba_marseille","lat":43.25941,"lon":5.409,"is_reserved":false,"is_disabled":false,"rental_uris":{"android":"levelo://app?vid=a317d19b-3e4c-466d-b1f0-ad5b7ee20519","ios":"levelo://app?vid=a317d19b-3e4c-466d-b1f0-ad5b7ee20519"},"vehicle_type_id":"4","last_reported":1729062573,"current_range_meters":8400,"station_id":"ce4bhm92rcd13ifvqglg","pricing_plan_id":"cebpf4jnsgd1na2vs0mg"},{"bike_id":"5371bf04-5598-4227-b823-b6695b4a6267","system_id":"levelo_inurba_marseille","lat":43.29193,"lon":5.35807,"is_reserved":false,"is_disabled":false,"rental_uris":{"android":"levelo://app?vid=5371bf04-5598-4227-b823-b6695b4a6267","ios":"levelo://app?vid=5371bf04-5598-4227-b823-b6695b4a6267"},"vehicle_type_id":"4","last_reported":1729062573,"current_range_meters":33600,"station_id":"ce4bhb12rcd13ifvqel0","pricing_plan_id":"cebpf4jnsgd1na2vs0mg"},{"bike_id":"decf65b9-49aa-457a-b1da-f13e96b87098","system_id":"levelo_inurba_marseille","lat":43.27496,"lon":5.4245,"is_reserved":false,"is_disabled":false,"rental_uris":{"android":"levelo://app?vid=decf65b9-49aa-457a-b1da-f13e96b87098","ios":"levelo://app?vid=decf65b9-49aa-457a-b1da-f13e96b87098"},"vehicle_type_id":"4","last_reported":1729062573,"current_range_meters":32800,"station_id":"ce4bhn92rcd13ifvqgrg","pricing_plan_id":"cebpf4jnsgd1na2vs0mg"},{"bike_id":"ac5b74c0-3c5a-4586-b763-b34334216681","system_id":"levelo_inurba_marseille","lat":43.31316,"lon":5.36724,"is_reserved":false,"is_disabled":false,"rental_uris":{"android":"levelo://app?vid=ac5b74c0-3c5a-4586-b763-b34334216681","ios":"levelo://app?vid=ac5b74c0-3c5a-4586-b763-b34334216681"},"vehicle_type_id":"4","last_reported":1729062573,"current_range_meters":17200,"station_id":"ce4bgr92rcd13ifvqc6g","pricing_plan_id":"cebpf4jnsgd1na2vs0mg"},{"bike_id":"76df4093-583b-4afd-ae6c-a49d64b67316","system_id":"levelo_inurba_marseille","lat":43.3019,"lon":5.36624,"is_reserved":false,"is_disabled":false,"rental_uris":{"android":"levelo://app?vid=76df4093-583b-4afd-ae6c-a49d64b67316","ios":"levelo://app?vid=76df4093-583b-4afd-ae6c-a49d64b67316"},"vehicle_type_id":"4","last_reported":1729062573,"current_range_meters":35600,"station_id":"ce4bgrh2rcd13ifvqc8g","pricing_plan_id":"cebpf4jnsgd1na2vs0mg"},{"bike_id":"d5f3f2bb-37fb-4139-b60c-c166fdf42c01","system_id":"levelo_inurba_marseille","lat":43.27922,"lon":5.38272,"is_reserved":false,"is_disabled":false,"rental_uris":{"android":"levelo://app?vid=d5f3f2bb-37fb-4139-b60c-c166fdf42c01","ios":"levelo://app?vid=d5f3f2bb-37fb-4139-b60c-c166fdf42c01"},"vehicle_type_id":"4","last_reported":1729062573,"current_range_meters":38000,"station_id":"ce4bhh12rcd13ifvqfg0","pricing_plan_id":"cebpf4jnsgd1na2vs0mg"},{"bike_id":"aed63b2b-0081-4be1-afe8-71115bd2c024","system_id":"levelo_inurba_marseille","lat":43.31881,"lon":5.40739,"is_reserved":false,"is_disabled":false,"rental_uris":{"android":"levelo://app?vid=aed63b2b-0081-4be1-afe8-71115bd2c024","ios":"levelo://app?vid=aed63b2b-0081-4be1-afe8-71115bd2c024"},"vehicle_type_id":"4","last_reported":1729062573,"current_range_meters":30000,"station_id":"ce4bhq12rcd13ifvqhig","pricing_plan_id":"cebpf4jnsgd1na2vs0mg"},{"bike_id":"018a1599-0408-42ba-83cc-55be8a632565","system_id":"levelo_inurba_marseille","lat":43.2957,"lon":5.39971,"is_reserved":false,"is_disabled":false,"rental_uris":{"android":"levelo://app?vid=018a1599-0408-42ba-83cc-55be8a632565","ios":"levelo://app?vid=018a1599-0408-42ba-83cc-55be8a632565"},"vehicle_type_id":"4","last_reported":1729062573,"current_range_meters":2000,"station_id":"ce4bh312rcd13ifvqdj0","pricing_plan_id":"cebpf4jnsgd1na2vs0mg"},{"bike_id":"f8dbf5d1-2716-4efe-a33a-adaef7465d9e","system_id":"levelo_inurba_marseille","lat":43.26954,"lon":5.38631,"is_reserved":false,"is_disabled":false,"rental_uris":{"android":"levelo://app?vid=f8dbf5d1-2716-4efe-a33a-adaef7465d9e","ios":"levelo://app?vid=f8dbf5d1-2716-4efe-a33a-adaef7465d9e"},"vehicle_type_id":"4","last_reported":1729062573,"current_range_meters":38800,"station_id":"ce4bhh92rcd13ifvqfh0","pricing_plan_id":"cebpf4jnsgd1na2vs0mg"},{"bike_id":"c1f4eaa7-5ec9-48ed-8d21-213ece9becaf","system_id":"levelo_inurba_marseille","lat":43.30141,"lon":5.37401,"is_reserved":false,"is_disabled":false,"rental_uris":{"android":"levelo://app?vid=c1f4eaa7-5ec9-48ed-8d21-213ece9becaf","ios":"levelo://app?vid=c1f4eaa7-5ec9-48ed-8d21-213ece9becaf"},"vehicle_type_id":"4","last_reported":1729062573,"current_range_meters":27200,"station_id":"ce4bgs92rcd13ifvqcc0","pricing_plan_id":"cebpf4jnsgd1na2vs0mg"},{"bike_id":"7a1dbcbb-c0e9-4957-a1d5-5f91b2afae57","system_id":"levelo_inurba_marseille","lat":43.30903,"lon":5.36845,"is_reserved":false,"is_disabled":false,"rental_uris":{"android":"levelo://app?vid=7a1dbcbb-c0e9-4957-a1d5-5f91b2afae57","ios":"levelo://app?vid=7a1dbcbb-c0e9-4957-a1d5-5f91b2afae57"},"vehicle_type_id":"4","last_reported":1729062573,"current_range_meters":31200,"station_id":"ce4bgn92rcd13ifvqbvg","pricing_plan_id":"cebpf4jnsgd1na2vs0mg"},{"bike_id":"6e7c0370-439b-4c48-a402-3755927e3d52","system_id":"levelo_inurba_marseille","lat":43.26925,"lon":5.38909,"is_reserved":false,"is_disabled":false,"rental_uris":{"android":"levelo://app?vid=6e7c0370-439b-4c48-a402-3755927e3d52","ios":"levelo://app?vid=6e7c0370-439b-4c48-a402-3755927e3d52"},"vehicle_type_id":"4","last_reported":1729062573,"current_range_meters":36000,"station_id":"ce4bhhh2rcd13ifvqfl0","pricing_plan_id":"cebpf4jnsgd1na2vs0mg"},{"bike_id":"11bb7ed5-1970-4a73-a794-e55c1684750f","system_id":"levelo_inurba_marseille","lat":43.23151,"lon":5.43715,"is_reserved":false,"is_disabled":false,"rental_uris":{"android":"levelo://app?vid=11bb7ed5-1970-4a73-a794-e55c1684750f","ios":"levelo://app?vid=11bb7ed5-1970-4a73-a794-e55c1684750f"},"vehicle_type_id":"4","last_reported":1729062573,"current_range_meters":25200,"station_id":"ce4bhmp2rcd13ifvqgog","pricing_plan_id":"cebpf4jnsgd1na2vs0mg"},{"bike_id":"87b1be44-cd2f-4943-905a-d22fbc9fbeea","system_id":"levelo_inurba_marseille","lat":43.29199,"lon":5.39333,"is_reserved":false,"is_disabled":false,"rental_uris":{"android":"levelo://app?vid=87b1be44-cd2f-4943-905a-d22fbc9fbeea","ios":"levelo://app?vid=87b1be44-cd2f-4943-905a-d22fbc9fbeea"},"vehicle_type_id":"4","last_reported":1729062573,"current_range_meters":7200,"station_id":"ce4bh192rcd13ifvqdd0","pricing_plan_id":"cebpf4jnsgd1na2vs0mg"},{"bike_id":"61b661fe-85fb-427c-a32c-b9e78e89215d","system_id":"levelo_inurba_marseille","lat":43.2848,"lon":5.38421,"is_reserved":false,"is_disabled":false,"rental_uris":{"android":"levelo://app?vid=61b661fe-85fb-427c-a32c-b9e78e89215d","ios":"levelo://app?vid=61b661fe-85fb-427c-a32c-b9e78e89215d"},"vehicle_type_id":"4","last_reported":1729062573,"current_range_meters":36800,"station_id":"ce4bh512rcd13ifvqe3g","pricing_plan_id":"cebpf4jnsgd1na2vs0mg"},{"bike_id":"6123b646-e764-4dd8-a572-6d74bfe4bd24","system_id":"levelo_inurba_marseille","lat":43.30519,"lon":5.36528,"is_reserved":false,"is_disabled":false,"rental_uris":{"android":"levelo://app?vid=6123b646-e764-4dd8-a572-6d74bfe4bd24","ios":"levelo://app?vid=6123b646-e764-4dd8-a572-6d74bfe4bd24"},"vehicle_type_id":"4","last_reported":1729062573,"current_range_meters":9200,"station_id":"ce4bgs12rcd13ifvqcag","pricing_plan_id":"cebpf4jnsgd1na2vs0mg"},{"bike_id":"f266d66c-0caa-46a0-b858-a8641e907bea","system_id":"levelo_inurba_marseille","lat":43.3254,"lon":5.41423,"is_reserved":false,"is_disabled":false,"rental_uris":{"android":"levelo://app?vid=f266d66c-0caa-46a0-b858-a8641e907bea","ios":"levelo://app?vid=f266d66c-0caa-46a0-b858-a8641e907bea"},"vehicle_type_id":"4","last_reported":1729062573,"current_range_meters":34800,"station_id":"ce4bhq12rcd13ifvqhhg","pricing_plan_id":"cebpf4jnsgd1na2vs0mg"},{"bike_id":"0bdb9244-3918-4742-a99f-2654e4bf1a33","system_id":"levelo_inurba_marseille","lat":43.28157,"lon":5.42646,"is_reserved":false,"is_disabled":false,"rental_uris":{"android":"levelo://app?vid=0bdb9244-3918-4742-a99f-2654e4bf1a33","ios":"levelo://app?vid=0bdb9244-3918-4742-a99f-2654e4bf1a33"},"vehicle_type_id":"4","last_reported":1729062573,"current_range_meters":36000,"station_id":"ce4bho92rcd13ifvqh3g","pricing_plan_id":"cebpf4jnsgd1na2vs0mg"},{"bike_id":"842bdfb8-cce6-4db6-b51d-7b5c18cbbc1e","system_id":"levelo_inurba_marseille","lat":43.23158,"lon":5.4371,"is_reserved":false,"is_disabled":false,"rental_uris":{"android":"levelo://app?vid=842bdfb8-cce6-4db6-b51d-7b5c18cbbc1e","ios":"levelo://app?vid=842bdfb8-cce6-4db6-b51d-7b5c18cbbc1e"},"vehicle_type_id":"4","last_reported":1729062573,"current_range_meters":13600,"station_id":"ce4bhmp2rcd13ifvqgog","pricing_plan_id":"cebpf4jnsgd1na2vs0mg"},{"bike_id":"66ca7c18-318f-477f-8315-515c636aac01","system_id":"levelo_inurba_marseille","lat":43.27492,"lon":5.42453,"is_reserved":false,"is_disabled":false,"rental_uris":{"android":"levelo://app?vid=66ca7c18-318f-477f-8315-515c636aac01","ios":"levelo://app?vid=66ca7c18-318f-477f-8315-515c636aac01"},"vehicle_type_id":"4","last_reported":1729062573,"current_range_meters":30800,"station_id":"ce4bhn92rcd13ifvqgrg","pricing_plan_id":"cebpf4jnsgd1na2vs0mg"},{"bike_id":"402c6eb8-6677-4c1b-b31c-e44fe3b044be","system_id":"levelo_inurba_marseille","lat":43.31349,"lon":5.36714,"is_reserved":false,"is_disabled":false,"rental_uris":{"android":"levelo://app?vid=402c6eb8-6677-4c1b-b31c-e44fe3b044be","ios":"levelo://app?vid=402c6eb8-6677-4c1b-b31c-e44fe3b044be"},"vehicle_type_id":"4","last_reported":1729062573,"current_range_meters":32000,"station_id":"ce4bgr92rcd13ifvqc6g","pricing_plan_id":"cebpf4jnsgd1na2vs0mg"},{"bike_id":"43ef6191-1da4-4fab-ad02-553d29a8e7e7","system_id":"levelo_inurba_marseille","lat":43.24651,"lon":5.38891,"is_reserved":false,"is_disabled":false,"rental_uris":{"android":"levelo://app?vid=43ef6191-1da4-4fab-ad02-553d29a8e7e7","ios":"levelo://app?vid=43ef6191-1da4-4fab-ad02-553d29a8e7e7"},"vehicle_type_id":"4","last_reported":1729062573,"current_range_meters":25200,"station_id":"ce4bhg12rcd13ifvqf60","pricing_plan_id":"cebpf4jnsgd1na2vs0mg"},{"bike_id":"6232b4d9-b37d-4acb-9c65-49657ed81111","system_id":"levelo_inurba_marseille","lat":43.30469,"lon":5.3789,"is_reserved":false,"is_disabled":false,"rental_uris":{"android":"levelo://app?vid=6232b4d9-b37d-4acb-9c65-49657ed81111","ios":"levelo://app?vid=6232b4d9-b37d-4acb-9c65-49657ed81111"},"vehicle_type_id":"4","last_reported":1729062573,"current_range_meters":39200,"station_id":"ce4bgup2rcd13ifvqcn0","pricing_plan_id":"cebpf4jnsgd1na2vs0mg"},{"bike_id":"734fd7a2-2074-474f-b7d1-0d9ec801ea2a","system_id":"levelo_inurba_marseille","lat":43.33609,"lon":5.41025,"is_reserved":false,"is_disabled":false,"rental_uris":{"android":"levelo://app?vid=734fd7a2-2074-474f-b7d1-0d9ec801ea2a","ios":"levelo://app?vid=734fd7a2-2074-474f-b7d1-0d9ec801ea2a"},"vehicle_type_id":"4","last_reported":1729062573,"current_range_meters":38000,"station_id":"ce4bhqh2rcd13ifvqhmg","pricing_plan_id":"cebpf4jnsgd1na2vs0mg"},{"bike_id":"1e4aa504-6137-4dc7-9fd2-e023879dd1aa","system_id":"levelo_inurba_marseille","lat":43.31354,"lon":5.36701,"is_reserved":false,"is_disabled":false,"rental_uris":{"android":"levelo://app?vid=1e4aa504-6137-4dc7-9fd2-e023879dd1aa","ios":"levelo://app?vid=1e4aa504-6137-4dc7-9fd2-e023879dd1aa"},"vehicle_type_id":"4","last_reported":1729062573,"current_range_meters":36400,"station_id":"ce4bgr92rcd13ifvqc6g","pricing_plan_id":"cebpf4jnsgd1na2vs0mg"},{"bike_id":"ca0163ac-d25a-437e-9b06-c3be4e515504","system_id":"levelo_inurba_marseille","lat":43.303,"lon":5.36866,"is_reserved":false,"is_disabled":false,"rental_uris":{"android":"levelo://app?vid=ca0163ac-d25a-437e-9b06-c3be4e515504","ios":"levelo://app?vid=ca0163ac-d25a-437e-9b06-c3be4e515504"},"vehicle_type_id":"4","last_reported":1729062573,"current_range_meters":35600,"station_id":"ce4bgqh2rcd13ifvqc5g","pricing_plan_id":"cebpf4jnsgd1na2vs0mg"},{"bike_id":"40f0352f-19fd-472f-8c58-fccbfca93941","system_id":"levelo_inurba_marseille","lat":43.2695,"lon":5.38629,"is_reserved":false,"is_disabled":false,"rental_uris":{"android":"levelo://app?vid=40f0352f-19fd-472f-8c58-fccbfca93941","ios":"levelo://app?vid=40f0352f-19fd-472f-8c58-fccbfca93941"},"vehicle_type_id":"4","last_reported":1729062573,"current_range_meters":28400,"station_id":"ce4bhh92rcd13ifvqfh0","pricing_plan_id":"cebpf4jnsgd1na2vs0mg"},{"bike_id":"3d345541-8cc4-4a78-8d79-d41d0d8fd35c","system_id":"levelo_inurba_marseille","lat":43.2594,"lon":5.40904,"is_reserved":false,"is_disabled":false,"rental_uris":{"android":"levelo://app?vid=3d345541-8cc4-4a78-8d79-d41d0d8fd35c","ios":"levelo://app?vid=3d345541-8cc4-4a78-8d79-d41d0d8fd35c"},"vehicle_type_id":"4","last_reported":1729062573,"current_range_meters":24000,"station_id":"ce4bhm92rcd13ifvqglg","pricing_plan_id":"cebpf4jnsgd1na2vs0mg"},{"bike_id":"57fa9f76-c7d4-4b74-96fe-4bb481ced862","system_id":"levelo_inurba_marseille","lat":43.29551,"lon":5.42287,"is_reserved":false,"is_disabled":false,"rental_uris":{"android":"levelo://app?vid=57fa9f76-c7d4-4b74-96fe-4bb481ced862","ios":"levelo://app?vid=57fa9f76-c7d4-4b74-96fe-4bb481ced862"},"vehicle_type_id":"4","last_reported":1729062573,"current_range_meters":36800,"station_id":"ce4bhph2rcd13ifvqhdg","pricing_plan_id":"cebpf4jnsgd1na2vs0mg"},{"bike_id":"518e496c-956e-49ad-9066-f4cb9258ebf5","system_id":"levelo_inurba_marseille","lat":43.30139,"lon":5.37423,"is_reserved":false,"is_disabled":false,"rental_uris":{"android":"levelo://app?vid=518e496c-956e-49ad-9066-f4cb9258ebf5","ios":"levelo://app?vid=518e496c-956e-49ad-9066-f4cb9258ebf5"},"vehicle_type_id":"4","last_reported":1729062573,"current_range_meters":38000,"station_id":"ce4bgs92rcd13ifvqcc0","pricing_plan_id":"cebpf4jnsgd1na2vs0mg"},{"bike_id":"b3414e9f-e991-44cb-8362-0a7d75f1ca79","system_id":"levelo_inurba_marseille","lat":43.30305,"lon":5.369,"is_reserved":false,"is_disabled":false,"rental_uris":{"android":"levelo://app?vid=b3414e9f-e991-44cb-8362-0a7d75f1ca79","ios":"levelo://app?vid=b3414e9f-e991-44cb-8362-0a7d75f1ca79"},"vehicle_type_id":"4","last_reported":1729062573,"current_range_meters":38400,"station_id":"ce4bgqh2rcd13ifvqc5g","pricing_plan_id":"cebpf4jnsgd1na2vs0mg"},{"bike_id":"c77ea266-271c-4ea2-a8dc-337f7c85044f","system_id":"levelo_inurba_marseille","lat":43.28155,"lon":5.42646,"is_reserved":false,"is_disabled":false,"rental_uris":{"android":"levelo://app?vid=c77ea266-271c-4ea2-a8dc-337f7c85044f","ios":"levelo://app?vid=c77ea266-271c-4ea2-a8dc-337f7c85044f"},"vehicle_type_id":"4","last_reported":1729062573,"current_range_meters":38400,"station_id":"ce4bhnh2rcd13ifvqgug","pricing_plan_id":"cebpf4jnsgd1na2vs0mg"},{"bike_id":"743649a9-8e7f-45cd-bb31-c49c35bb9a81","system_id":"levelo_inurba_marseille","lat":43.28929,"lon":5.38404,"is_reserved":false,"is_disabled":false,"rental_uris":{"android":"levelo://app?vid=743649a9-8e7f-45cd-bb31-c49c35bb9a81","ios":"levelo://app?vid=743649a9-8e7f-45cd-bb31-c49c35bb9a81"},"vehicle_type_id":"4","last_reported":1729062573,"current_range_meters":28000,"station_id":"ce4bh612rcd13ifvqe6g","pricing_plan_id":"cebpf4jnsgd1na2vs0mg"},{"bike_id":"6e7afd62-d736-4ed9-9248-f4f82a390064","system_id":"levelo_inurba_marseille","lat":43.336,"lon":5.41023,"is_reserved":false,"is_disabled":false,"rental_uris":{"android":"levelo://app?vid=6e7afd62-d736-4ed9-9248-f4f82a390064","ios":"levelo://app?vid=6e7afd62-d736-4ed9-9248-f4f82a390064"},"vehicle_type_id":"4","last_reported":1729062573,"current_range_meters":38800,"station_id":"ce4bhqh2rcd13ifvqhmg","pricing_plan_id":"cebpf4jnsgd1na2vs0mg"},{"bike_id":"1f7ed018-a759-4273-a41a-180d6433d6e9","system_id":"levelo_inurba_marseille","lat":43.30537,"lon":5.38427,"is_reserved":false,"is_disabled":false,"rental_uris":{"android":"levelo://app?vid=1f7ed018-a759-4273-a41a-180d6433d6e9","ios":"levelo://app?vid=1f7ed018-a759-4273-a41a-180d6433d6e9"},"vehicle_type_id":"4","last_reported":1729062573,"current_range_meters":37600,"station_id":"ce4bgg92rcd13ifvqb30","pricing_plan_id":"cebpf4jnsgd1na2vs0mg"},{"bike_id":"b325087f-6118-4ad4-b60f-bacfc8d667c5","system_id":"levelo_inurba_marseille","lat":43.30906,"lon":5.36845,"is_reserved":false,"is_disabled":false,"rental_uris":{"android":"levelo://app?vid=b325087f-6118-4ad4-b60f-bacfc8d667c5","ios":"levelo://app?vid=b325087f-6118-4ad4-b60f-bacfc8d667c5"},"vehicle_type_id":"4","last_reported":1729062573,"current_range_meters":34800,"station_id":"ce4bgn92rcd13ifvqbvg","pricing_plan_id":"cebpf4jnsgd1na2vs0mg"},{"bike_id":"b2274dab-99bf-4443-be07-36c673c5bcbf","system_id":"levelo_inurba_marseille","lat":43.28615,"lon":5.35101,"is_reserved":false,"is_disabled":false,"rental_uris":{"android":"levelo://app?vid=b2274dab-99bf-4443-be07-36c673c5bcbf","ios":"levelo://app?vid=b2274dab-99bf-4443-be07-36c673c5bcbf"},"vehicle_type_id":"4","last_reported":1729062573,"current_range_meters":38000,"station_id":"ce4bhch2rcd13ifvqeug","pricing_plan_id":"cebpf4jnsgd1na2vs0mg"},{"bike_id":"c58611c9-5610-40ca-9dff-13b158d6d313","system_id":"levelo_inurba_marseille","lat":43.31698,"lon":5.37757,"is_reserved":false,"is_disabled":false,"rental_uris":{"android":"levelo://app?vid=c58611c9-5610-40ca-9dff-13b158d6d313","ios":"levelo://app?vid=c58611c9-5610-40ca-9dff-13b158d6d313"},"vehicle_type_id":"4","last_reported":1729062573,"current_range_meters":27200,"station_id":"ce4bgth2rcd13ifvqch0","pricing_plan_id":"cebpf4jnsgd1na2vs0mg"},{"bike_id":"355a0fa1-840d-4072-b181-afd45b1c87e7","system_id":"levelo_inurba_marseille","lat":43.30952,"lon":5.39031,"is_reserved":false,"is_disabled":false,"rental_uris":{"android":"levelo://app?vid=355a0fa1-840d-4072-b181-afd45b1c87e7","ios":"levelo://app?vid=355a0fa1-840d-4072-b181-afd45b1c87e7"},"vehicle_type_id":"4","last_reported":1729062573,"current_range_meters":3200,"station_id":"ce4bgup2rcd13ifvqco0","pricing_plan_id":"cebpf4jnsgd1na2vs0mg"},{"bike_id":"4bc754e8-43f9-4785-9b6f-3e548530d851","system_id":"levelo_inurba_marseille","lat":43.29222,"lon":5.36061,"is_reserved":false,"is_disabled":false,"rental_uris":{"android":"levelo://app?vid=4bc754e8-43f9-4785-9b6f-3e548530d851","ios":"levelo://app?vid=4bc754e8-43f9-4785-9b6f-3e548530d851"},"vehicle_type_id":"4","last_reported":1729062573,"current_range_meters":6000,"station_id":"ce4bhbh2rcd13ifvqeqg","pricing_plan_id":"cebpf4jnsgd1na2vs0mg"},{"bike_id":"836d8b9b-5cd1-4a36-86df-3788be3a1b6e","system_id":"levelo_inurba_marseille","lat":43.27496,"lon":5.42453,"is_reserved":false,"is_disabled":false,"rental_uris":{"android":"levelo://app?vid=836d8b9b-5cd1-4a36-86df-3788be3a1b6e","ios":"levelo://app?vid=836d8b9b-5cd1-4a36-86df-3788be3a1b6e"},"vehicle_type_id":"4","last_reported":1729062573,"current_range_meters":8800,"station_id":"ce4bhn92rcd13ifvqgrg","pricing_plan_id":"cebpf4jnsgd1na2vs0mg"},{"bike_id":"434dd133-0d33-4dc7-acaf-af9673ea7798","system_id":"levelo_inurba_marseille","lat":43.3046,"lon":5.37895,"is_reserved":false,"is_disabled":false,"rental_uris":{"android":"levelo://app?vid=434dd133-0d33-4dc7-acaf-af9673ea7798","ios":"levelo://app?vid=434dd133-0d33-4dc7-acaf-af9673ea7798"},"vehicle_type_id":"4","last_reported":1729062573,"current_range_meters":26800,"station_id":"ce4bgup2rcd13ifvqcn0","pricing_plan_id":"cebpf4jnsgd1na2vs0mg"},{"bike_id":"6caa01d6-ebaf-4ce0-b0d3-db2426882a4c","system_id":"levelo_inurba_marseille","lat":43.3116,"lon":5.38725,"is_reserved":false,"is_disabled":false,"rental_uris":{"android":"levelo://app?vid=6caa01d6-ebaf-4ce0-b0d3-db2426882a4c","ios":"levelo://app?vid=6caa01d6-ebaf-4ce0-b0d3-db2426882a4c"},"vehicle_type_id":"4","last_reported":1729062573,"current_range_meters":33600,"station_id":"ce4bgv12rcd13ifvqcp0","pricing_plan_id":"cebpf4jnsgd1na2vs0mg"},{"bike_id":"f65ee02d-1240-4d52-9598-2f07f5533e58","system_id":"levelo_inurba_marseille","lat":43.29166,"lon":5.37152,"is_reserved":false,"is_disabled":false,"rental_uris":{"android":"levelo://app?vid=f65ee02d-1240-4d52-9598-2f07f5533e58","ios":"levelo://app?vid=f65ee02d-1240-4d52-9598-2f07f5533e58"},"vehicle_type_id":"4","last_reported":1729062573,"current_range_meters":27200,"station_id":"ce4bha92rcd13ifvqeh0","pricing_plan_id":"cebpf4jnsgd1na2vs0mg"},{"bike_id":"03e2b275-35b8-4069-991b-8affb5ddc826","system_id":"levelo_inurba_marseille","lat":43.30471,"lon":5.37902,"is_reserved":false,"is_disabled":false,"rental_uris":{"android":"levelo://app?vid=03e2b275-35b8-4069-991b-8affb5ddc826","ios":"levelo://app?vid=03e2b275-35b8-4069-991b-8affb5ddc826"},"vehicle_type_id":"4","last_reported":1729062573,"current_range_meters":6800,"station_id":"ce4bgup2rcd13ifvqcn0","pricing_plan_id":"cebpf4jnsgd1na2vs0mg"},{"bike_id":"bdc4fa52-d2c7-466c-9c32-da70459256c8","system_id":"levelo_inurba_marseille","lat":43.32528,"lon":5.41436,"is_reserved":false,"is_disabled":false,"rental_uris":{"android":"levelo://app?vid=bdc4fa52-d2c7-466c-9c32-da70459256c8","ios":"levelo://app?vid=bdc4fa52-d2c7-466c-9c32-da70459256c8"},"vehicle_type_id":"4","last_reported":1729062573,"current_range_meters":30400,"station_id":"ce4bhq12rcd13ifvqhhg","pricing_plan_id":"cebpf4jnsgd1na2vs0mg"},{"bike_id":"fa7bbdc9-afbe-404d-8676-647037cc76a9","system_id":"levelo_inurba_marseille","lat":43.23192,"lon":5.35544,"is_reserved":false,"is_disabled":false,"rental_uris":{"android":"levelo://app?vid=fa7bbdc9-afbe-404d-8676-647037cc76a9","ios":"levelo://app?vid=fa7bbdc9-afbe-404d-8676-647037cc76a9"},"vehicle_type_id":"4","last_reported":1729062573,"current_range_meters":38800,"station_id":"ce4bhu92rcd13ifvqi70","pricing_plan_id":"cebpf4jnsgd1na2vs0mg"},{"bike_id":"d37e8f61-4b77-4973-b084-f7dd72dc9fca","system_id":"levelo_inurba_marseille","lat":43.30945,"lon":5.39033,"is_reserved":false,"is_disabled":false,"rental_uris":{"android":"levelo://app?vid=d37e8f61-4b77-4973-b084-f7dd72dc9fca","ios":"levelo://app?vid=d37e8f61-4b77-4973-b084-f7dd72dc9fca"},"vehicle_type_id":"4","last_reported":1729062573,"current_range_meters":30800,"station_id":"ce4bgup2rcd13ifvqco0","pricing_plan_id":"cebpf4jnsgd1na2vs0mg"},{"bike_id":"37e3ee88-dac6-486e-8294-820840046279","system_id":"levelo_inurba_marseille","lat":43.27494,"lon":5.42453,"is_reserved":false,"is_disabled":false,"rental_uris":{"android":"levelo://app?vid=37e3ee88-dac6-486e-8294-820840046279","ios":"levelo://app?vid=37e3ee88-dac6-486e-8294-820840046279"},"vehicle_type_id":"4","last_reported":1729062573,"current_range_meters":36400,"station_id":"ce4bhn92rcd13ifvqgrg","pricing_plan_id":"cebpf4jnsgd1na2vs0mg"},{"bike_id":"23b4a801-5d04-4e34-80f2-18d3432e7e31","system_id":"levelo_inurba_marseille","lat":43.30471,"lon":5.37903,"is_reserved":false,"is_disabled":false,"rental_uris":{"android":"levelo://app?vid=23b4a801-5d04-4e34-80f2-18d3432e7e31","ios":"levelo://app?vid=23b4a801-5d04-4e34-80f2-18d3432e7e31"},"vehicle_type_id":"4","last_reported":1729062573,"current_range_meters":28800,"station_id":"ce4bgup2rcd13ifvqcn0","pricing_plan_id":"cebpf4jnsgd1na2vs0mg"},{"bike_id":"d54590d2-1290-4453-9032-b1e4b071738f","system_id":"levelo_inurba_marseille","lat":43.34138,"lon":5.40907,"is_reserved":false,"is_disabled":false,"rental_uris":{"android":"levelo://app?vid=d54590d2-1290-4453-9032-b1e4b071738f","ios":"levelo://app?vid=d54590d2-1290-4453-9032-b1e4b071738f"},"vehicle_type_id":"4","last_reported":1729062573,"current_range_meters":30000,"station_id":"ce4bhqh2rcd13ifvqhlg","pricing_plan_id":"cebpf4jnsgd1na2vs0mg"},{"bike_id":"6a64872d-0b46-4bf5-9f81-17b58b2c555a","system_id":"levelo_inurba_marseille","lat":43.29276,"lon":5.36846,"is_reserved":false,"is_disabled":false,"rental_uris":{"android":"levelo://app?vid=6a64872d-0b46-4bf5-9f81-17b58b2c555a","ios":"levelo://app?vid=6a64872d-0b46-4bf5-9f81-17b58b2c555a"},"vehicle_type_id":"4","last_reported":1729062573,"current_range_meters":10800,"station_id":"ce4bhbp2rcd13ifvqesg","pricing_plan_id":"cebpf4jnsgd1na2vs0mg"},{"bike_id":"5d4185c5-efd5-458a-89de-9f5bf51cb954","system_id":"levelo_inurba_marseille","lat":43.25936,"lon":5.4091,"is_reserved":false,"is_disabled":false,"rental_uris":{"android":"levelo://app?vid=5d4185c5-efd5-458a-89de-9f5bf51cb954","ios":"levelo://app?vid=5d4185c5-efd5-458a-89de-9f5bf51cb954"},"vehicle_type_id":"4","last_reported":1729062573,"current_range_meters":28800,"station_id":"ce4bhm92rcd13ifvqglg","pricing_plan_id":"cebpf4jnsgd1na2vs0mg"},{"bike_id":"ff8a8744-d07f-4a9a-a717-914fbf724d72","system_id":"levelo_inurba_marseille","lat":43.31349,"lon":5.36717,"is_reserved":false,"is_disabled":false,"rental_uris":{"android":"levelo://app?vid=ff8a8744-d07f-4a9a-a717-914fbf724d72","ios":"levelo://app?vid=ff8a8744-d07f-4a9a-a717-914fbf724d72"},"vehicle_type_id":"4","last_reported":1729062573,"current_range_meters":26000,"station_id":"ce4bgr92rcd13ifvqc6g","pricing_plan_id":"cebpf4jnsgd1na2vs0mg"},{"bike_id":"f3c1853e-8b8e-47e4-8746-d00e45b18cdc","system_id":"levelo_inurba_marseille","lat":43.32481,"lon":5.36565,"is_reserved":false,"is_disabled":false,"rental_uris":{"android":"levelo://app?vid=f3c1853e-8b8e-47e4-8746-d00e45b18cdc","ios":"levelo://app?vid=f3c1853e-8b8e-47e4-8746-d00e45b18cdc"},"vehicle_type_id":"4","last_reported":1729062573,"current_range_meters":11600,"station_id":"ce4bhs12rcd13ifvqhvg","pricing_plan_id":"cebpf4jnsgd1na2vs0mg"},{"bike_id":"03b52a53-4015-42f1-a46b-0d68e4ef1cf1","system_id":"levelo_inurba_marseille","lat":43.305431,"lon":5.366969,"is_reserved":false,"is_disabled":false,"rental_uris":{"android":"levelo://app?vid=03b52a53-4015-42f1-a46b-0d68e4ef1cf1","ios":"levelo://app?vid=03b52a53-4015-42f1-a46b-0d68e4ef1cf1"},"vehicle_type_id":"4","last_reported":1729062573,"current_range_meters":39200,"station_id":"ce4bgrp2rcd13ifvqc9g","pricing_plan_id":"cebpf4jnsgd1na2vs0mg"},{"bike_id":"a0d3d324-fa7e-4417-aee7-85012ecab44e","system_id":"levelo_inurba_marseille","lat":43.34185,"lon":5.44496,"is_reserved":false,"is_disabled":false,"rental_uris":{"android":"levelo://app?vid=a0d3d324-fa7e-4417-aee7-85012ecab44e","ios":"levelo://app?vid=a0d3d324-fa7e-4417-aee7-85012ecab44e"},"vehicle_type_id":"4","last_reported":1729062573,"current_range_meters":19200,"station_id":"","pricing_plan_id":"cebpf4jnsgd1na2vs0mg"},{"bike_id":"5202e673-d1a0-40dd-8721-64d225f6e4c1","system_id":"levelo_inurba_marseille","lat":43.31483,"lon":5.37309,"is_reserved":false,"is_disabled":false,"rental_uris":{"android":"levelo://app?vid=5202e673-d1a0-40dd-8721-64d225f6e4c1","ios":"levelo://app?vid=5202e673-d1a0-40dd-8721-64d225f6e4c1"},"vehicle_type_id":"4","last_reported":1729062573,"current_range_meters":31200,"station_id":"ce4bgt12rcd13ifvqcd0","pricing_plan_id":"cebpf4jnsgd1na2vs0mg"},{"bike_id":"8b8cb3c3-b8e9-49cb-8737-1ca6b1d6aab5","system_id":"levelo_inurba_marseille","lat":43.25574,"lon":5.3824,"is_reserved":false,"is_disabled":false,"rental_uris":{"android":"levelo://app?vid=8b8cb3c3-b8e9-49cb-8737-1ca6b1d6aab5","ios":"levelo://app?vid=8b8cb3c3-b8e9-49cb-8737-1ca6b1d6aab5"},"vehicle_type_id":"4","last_reported":1729062573,"current_range_meters":38800,"station_id":"ce4bhih2rcd13ifvqfs0","pricing_plan_id":"cebpf4jnsgd1na2vs0mg"},{"bike_id":"b3b76d0b-16ea-4ec2-bd27-660a8aa3d0cf","system_id":"levelo_inurba_marseille","lat":43.24388,"lon":5.37064,"is_reserved":false,"is_disabled":false,"rental_uris":{"android":"levelo://app?vid=b3b76d0b-16ea-4ec2-bd27-660a8aa3d0cf","ios":"levelo://app?vid=b3b76d0b-16ea-4ec2-bd27-660a8aa3d0cf"},"vehicle_type_id":"4","last_reported":1729062573,"current_range_meters":32800,"station_id":"ce4bhhh2rcd13ifvqfk0","pricing_plan_id":"cebpf4jnsgd1na2vs0mg"},{"bike_id":"9e158178-d2a2-4f68-9331-25cc4212415d","system_id":"levelo_inurba_marseille","lat":43.29852,"lon":5.39722,"is_reserved":false,"is_disabled":false,"rental_uris":{"android":"levelo://app?vid=9e158178-d2a2-4f68-9331-25cc4212415d","ios":"levelo://app?vid=9e158178-d2a2-4f68-9331-25cc4212415d"},"vehicle_type_id":"4","last_reported":1729062573,"current_range_meters":32800,"station_id":"ce4bh0h2rcd13ifvqd50","pricing_plan_id":"cebpf4jnsgd1na2vs0mg"},{"bike_id":"93a75ee6-247e-4497-bea1-11275cbf5519","system_id":"levelo_inurba_marseille","lat":43.28983,"lon":5.37844,"is_reserved":false,"is_disabled":false,"rental_uris":{"android":"levelo://app?vid=93a75ee6-247e-4497-bea1-11275cbf5519","ios":"levelo://app?vid=93a75ee6-247e-4497-bea1-11275cbf5519"},"vehicle_type_id":"4","last_reported":1729062573,"current_range_meters":32400,"station_id":"ce4bh9p2rcd13ifvqed0","pricing_plan_id":"cebpf4jnsgd1na2vs0mg"},{"bike_id":"b230e516-8543-43c6-9736-060369d51530","system_id":"levelo_inurba_marseille","lat":43.30149,"lon":5.38079,"is_reserved":false,"is_disabled":false,"rental_uris":{"android":"levelo://app?vid=b230e516-8543-43c6-9736-060369d51530","ios":"levelo://app?vid=b230e516-8543-43c6-9736-060369d51530"},"vehicle_type_id":"4","last_reported":1729062573,"current_range_meters":36800,"station_id":"ce4bgjp2rcd13ifvqbh0","pricing_plan_id":"cebpf4jnsgd1na2vs0mg"},{"bike_id":"f1cb7637-d7c7-483a-a9fe-0d9ef0b3ac9b","system_id":"levelo_inurba_marseille","lat":43.32536,"lon":5.414275,"is_reserved":false,"is_disabled":false,"rental_uris":{"android":"levelo://app?vid=f1cb7637-d7c7-483a-a9fe-0d9ef0b3ac9b","ios":"levelo://app?vid=f1cb7637-d7c7-483a-a9fe-0d9ef0b3ac9b"},"vehicle_type_id":"4","last_reported":1729062573,"current_range_meters":36000,"station_id":"ce4bhq12rcd13ifvqhhg","pricing_plan_id":"cebpf4jnsgd1na2vs0mg"},{"bike_id":"a3d00d5a-741f-48cd-acd5-d6b1bea47400","system_id":"levelo_inurba_marseille","lat":43.31208,"lon":5.36851,"is_reserved":false,"is_disabled":false,"rental_uris":{"android":"levelo://app?vid=a3d00d5a-741f-48cd-acd5-d6b1bea47400","ios":"levelo://app?vid=a3d00d5a-741f-48cd-acd5-d6b1bea47400"},"vehicle_type_id":"4","last_reported":1729062573,"current_range_meters":36800,"station_id":"ce4bgl92rcd13ifvqbq0","pricing_plan_id":"cebpf4jnsgd1na2vs0mg"},{"bike_id":"0994d7f0-fa2e-480f-b967-2b1e1b476b78","system_id":"levelo_inurba_marseille","lat":43.23188,"lon":5.35561,"is_reserved":false,"is_disabled":false,"rental_uris":{"android":"levelo://app?vid=0994d7f0-fa2e-480f-b967-2b1e1b476b78","ios":"levelo://app?vid=0994d7f0-fa2e-480f-b967-2b1e1b476b78"},"vehicle_type_id":"4","last_reported":1729062573,"current_range_meters":22800,"station_id":"ce4bhu92rcd13ifvqi70","pricing_plan_id":"cebpf4jnsgd1na2vs0mg"},{"bike_id":"4d423de8-5e22-441a-8848-ae5dc9d8eb39","system_id":"levelo_inurba_marseille","lat":43.33726,"lon":5.37455,"is_reserved":false,"is_disabled":false,"rental_uris":{"android":"levelo://app?vid=4d423de8-5e22-441a-8848-ae5dc9d8eb39","ios":"levelo://app?vid=4d423de8-5e22-441a-8848-ae5dc9d8eb39"},"vehicle_type_id":"4","last_reported":1729062573,"current_range_meters":28800,"station_id":"","pricing_plan_id":"cebpf4jnsgd1na2vs0mg"},{"bike_id":"66ccc46d-618e-4760-b09c-27382152bdab","system_id":"levelo_inurba_marseille","lat":43.23196,"lon":5.35544,"is_reserved":false,"is_disabled":false,"rental_uris":{"android":"levelo://app?vid=66ccc46d-618e-4760-b09c-27382152bdab","ios":"levelo://app?vid=66ccc46d-618e-4760-b09c-27382152bdab"},"vehicle_type_id":"4","last_reported":1729062573,"current_range_meters":38400,"station_id":"ce4bhu92rcd13ifvqi70","pricing_plan_id":"cebpf4jnsgd1na2vs0mg"},{"bike_id":"8a331acc-70d9-496a-b0bc-87f49792f9b4","system_id":"levelo_inurba_marseille","lat":43.24165,"lon":5.364,"is_reserved":false,"is_disabled":false,"rental_uris":{"android":"levelo://app?vid=8a331acc-70d9-496a-b0bc-87f49792f9b4","ios":"levelo://app?vid=8a331acc-70d9-496a-b0bc-87f49792f9b4"},"vehicle_type_id":"4","last_reported":1729062573,"current_range_meters":24800,"station_id":"cpo36qri1sfpv3e86is0","pricing_plan_id":"cebpf4jnsgd1na2vs0mg"},{"bike_id":"a8c6dcbb-71df-4d01-9f13-286e6119c0fd","system_id":"levelo_inurba_marseille","lat":43.23152,"lon":5.43721,"is_reserved":false,"is_disabled":false,"rental_uris":{"android":"levelo://app?vid=a8c6dcbb-71df-4d01-9f13-286e6119c0fd","ios":"levelo://app?vid=a8c6dcbb-71df-4d01-9f13-286e6119c0fd"},"vehicle_type_id":"4","last_reported":1729062573,"current_range_meters":8400,"station_id":"ce4bhmp2rcd13ifvqgog","pricing_plan_id":"cebpf4jnsgd1na2vs0mg"},{"bike_id":"0b0443ce-0bf3-499f-b009-d58a606f847d","system_id":"levelo_inurba_marseille","lat":43.29557,"lon":5.37518,"is_reserved":false,"is_disabled":false,"rental_uris":{"android":"levelo://app?vid=0b0443ce-0bf3-499f-b009-d58a606f847d","ios":"levelo://app?vid=0b0443ce-0bf3-499f-b009-d58a606f847d"},"vehicle_type_id":"4","last_reported":1729062573,"current_range_meters":20400,"station_id":"ce4bgh92rcd13ifvqb50","pricing_plan_id":"cebpf4jnsgd1na2vs0mg"},{"bike_id":"08e24e63-f1d6-4132-aba3-61f9dfaab35b","system_id":"levelo_inurba_marseille","lat":43.26675,"lon":5.38256,"is_reserved":false,"is_disabled":false,"rental_uris":{"android":"levelo://app?vid=08e24e63-f1d6-4132-aba3-61f9dfaab35b","ios":"levelo://app?vid=08e24e63-f1d6-4132-aba3-61f9dfaab35b"},"vehicle_type_id":"4","last_reported":1729062573,"current_range_meters":38800,"station_id":"ce4bhg92rcd13ifvqf90","pricing_plan_id":"cebpf4jnsgd1na2vs0mg"},{"bike_id":"93b5f919-be34-493f-9540-17c698e19685","system_id":"levelo_inurba_marseille","lat":43.26676,"lon":5.3827,"is_reserved":false,"is_disabled":false,"rental_uris":{"android":"levelo://app?vid=93b5f919-be34-493f-9540-17c698e19685","ios":"levelo://app?vid=93b5f919-be34-493f-9540-17c698e19685"},"vehicle_type_id":"4","last_reported":1729062573,"current_range_meters":36800,"station_id":"ce4bhg92rcd13ifvqf90","pricing_plan_id":"cebpf4jnsgd1na2vs0mg"},{"bike_id":"6c073d0b-b641-44cb-85e1-0baa4943bbd8","system_id":"levelo_inurba_marseille","lat":43.27486,"lon":5.42457,"is_reserved":false,"is_disabled":false,"rental_uris":{"android":"levelo://app?vid=6c073d0b-b641-44cb-85e1-0baa4943bbd8","ios":"levelo://app?vid=6c073d0b-b641-44cb-85e1-0baa4943bbd8"},"vehicle_type_id":"4","last_reported":1729062573,"current_range_meters":19600,"station_id":"ce4bhn92rcd13ifvqgrg","pricing_plan_id":"cebpf4jnsgd1na2vs0mg"},{"bike_id":"0e960bdf-86ad-4785-82f5-793ed149092d","system_id":"levelo_inurba_marseille","lat":43.2848,"lon":5.38427,"is_reserved":false,"is_disabled":false,"rental_uris":{"android":"levelo://app?vid=0e960bdf-86ad-4785-82f5-793ed149092d","ios":"levelo://app?vid=0e960bdf-86ad-4785-82f5-793ed149092d"},"vehicle_type_id":"4","last_reported":1729062573,"current_range_meters":38000,"station_id":"ce4bh512rcd13ifvqe3g","pricing_plan_id":"cebpf4jnsgd1na2vs0mg"},{"bike_id":"fedfba0a-b4f3-4f95-a54e-e2a24bff2a5c","system_id":"levelo_inurba_marseille","lat":43.32538,"lon":5.41429,"is_reserved":false,"is_disabled":false,"rental_uris":{"android":"levelo://app?vid=fedfba0a-b4f3-4f95-a54e-e2a24bff2a5c","ios":"levelo://app?vid=fedfba0a-b4f3-4f95-a54e-e2a24bff2a5c"},"vehicle_type_id":"4","last_reported":1729062573,"current_range_meters":29600,"station_id":"ce4bhq12rcd13ifvqhhg","pricing_plan_id":"cebpf4jnsgd1na2vs0mg"},{"bike_id":"a2c8c358-efd9-47a3-8e92-589c47341313","system_id":"levelo_inurba_marseille","lat":43.28935,"lon":5.3664,"is_reserved":false,"is_disabled":false,"rental_uris":{"android":"levelo://app?vid=a2c8c358-efd9-47a3-8e92-589c47341313","ios":"levelo://app?vid=a2c8c358-efd9-47a3-8e92-589c47341313"},"vehicle_type_id":"4","last_reported":1729062573,"current_range_meters":22000,"station_id":"ce4bhap2rcd13ifvqek0","pricing_plan_id":"cebpf4jnsgd1na2vs0mg"},{"bike_id":"6300df2c-b9fe-4275-916d-dd75e59140c9","system_id":"levelo_inurba_marseille","lat":43.23189,"lon":5.35553,"is_reserved":false,"is_disabled":false,"rental_uris":{"android":"levelo://app?vid=6300df2c-b9fe-4275-916d-dd75e59140c9","ios":"levelo://app?vid=6300df2c-b9fe-4275-916d-dd75e59140c9"},"vehicle_type_id":"4","last_reported":1729062573,"current_range_meters":38400,"station_id":"ce4bhu92rcd13ifvqi70","pricing_plan_id":"cebpf4jnsgd1na2vs0mg"},{"bike_id":"8d4d0158-4334-4d55-af0b-6be8af41701c","system_id":"levelo_inurba_marseille","lat":43.32539,"lon":5.4144,"is_reserved":false,"is_disabled":false,"rental_uris":{"android":"levelo://app?vid=8d4d0158-4334-4d55-af0b-6be8af41701c","ios":"levelo://app?vid=8d4d0158-4334-4d55-af0b-6be8af41701c"},"vehicle_type_id":"4","last_reported":1729062573,"current_range_meters":9200,"station_id":"ce4bhq12rcd13ifvqhhg","pricing_plan_id":"cebpf4jnsgd1na2vs0mg"},{"bike_id":"bcb1566e-d9e0-4155-bf2b-fe496b670bdc","system_id":"levelo_inurba_marseille","lat":43.2749,"lon":5.42463,"is_reserved":false,"is_disabled":false,"rental_uris":{"android":"levelo://app?vid=bcb1566e-d9e0-4155-bf2b-fe496b670bdc","ios":"levelo://app?vid=bcb1566e-d9e0-4155-bf2b-fe496b670bdc"},"vehicle_type_id":"4","last_reported":1729062573,"current_range_meters":27600,"station_id":"ce4bhn92rcd13ifvqgrg","pricing_plan_id":"cebpf4jnsgd1na2vs0mg"},{"bike_id":"f9bd20aa-623e-4ff4-975c-7d4cfab24d90","system_id":"levelo_inurba_marseille","lat":43.23186,"lon":5.39988,"is_reserved":false,"is_disabled":false,"rental_uris":{"android":"levelo://app?vid=f9bd20aa-623e-4ff4-975c-7d4cfab24d90","ios":"levelo://app?vid=f9bd20aa-623e-4ff4-975c-7d4cfab24d90"},"vehicle_type_id":"4","last_reported":1729062573,"current_range_meters":26800,"station_id":"ce4bhn12rcd13ifvqgqg","pricing_plan_id":"cebpf4jnsgd1na2vs0mg"},{"bike_id":"a7eb7375-3942-46b3-84b8-7f89fa0e9132","system_id":"levelo_inurba_marseille","lat":43.2396,"lon":5.36624,"is_reserved":false,"is_disabled":false,"rental_uris":{"android":"levelo://app?vid=a7eb7375-3942-46b3-84b8-7f89fa0e9132","ios":"levelo://app?vid=a7eb7375-3942-46b3-84b8-7f89fa0e9132"},"vehicle_type_id":"4","last_reported":1729062573,"current_range_meters":30400,"station_id":"ce4bhi12rcd13ifvqfp0","pricing_plan_id":"cebpf4jnsgd1na2vs0mg"},{"bike_id":"e3b7dbfb-6f30-458b-b4dc-782770dde0e4","system_id":"levelo_inurba_marseille","lat":43.32478,"lon":5.36565,"is_reserved":false,"is_disabled":false,"rental_uris":{"android":"levelo://app?vid=e3b7dbfb-6f30-458b-b4dc-782770dde0e4","ios":"levelo://app?vid=e3b7dbfb-6f30-458b-b4dc-782770dde0e4"},"vehicle_type_id":"4","last_reported":1729062573,"current_range_meters":19600,"station_id":"ce4bhs12rcd13ifvqhvg","pricing_plan_id":"cebpf4jnsgd1na2vs0mg"},{"bike_id":"128d98bd-0af1-4450-b283-c4ea7ed8ee77","system_id":"levelo_inurba_marseille","lat":43.30466,"lon":5.37907,"is_reserved":false,"is_disabled":false,"rental_uris":{"android":"levelo://app?vid=128d98bd-0af1-4450-b283-c4ea7ed8ee77","ios":"levelo://app?vid=128d98bd-0af1-4450-b283-c4ea7ed8ee77"},"vehicle_type_id":"4","last_reported":1729062573,"current_range_meters":12400,"station_id":"ce4bgup2rcd13ifvqcn0","pricing_plan_id":"cebpf4jnsgd1na2vs0mg"},{"bike_id":"a93dc31e-a800-44ef-b256-21cfd90b8102","system_id":"levelo_inurba_marseille","lat":43.25933,"lon":5.40907,"is_reserved":false,"is_disabled":false,"rental_uris":{"android":"levelo://app?vid=a93dc31e-a800-44ef-b256-21cfd90b8102","ios":"levelo://app?vid=a93dc31e-a800-44ef-b256-21cfd90b8102"},"vehicle_type_id":"4","last_reported":1729062573,"current_range_meters":6800,"station_id":"ce4bhm92rcd13ifvqglg","pricing_plan_id":"cebpf4jnsgd1na2vs0mg"},{"bike_id":"84517dd2-f8fc-4dc8-a07b-21a4b0225bcd","system_id":"levelo_inurba_marseille","lat":43.3253,"lon":5.41437,"is_reserved":false,"is_disabled":false,"rental_uris":{"android":"levelo://app?vid=84517dd2-f8fc-4dc8-a07b-21a4b0225bcd","ios":"levelo://app?vid=84517dd2-f8fc-4dc8-a07b-21a4b0225bcd"},"vehicle_type_id":"4","last_reported":1729062573,"current_range_meters":22800,"station_id":"ce4bhq12rcd13ifvqhhg","pricing_plan_id":"cebpf4jnsgd1na2vs0mg"},{"bike_id":"4a13a42e-6b05-47bc-8fc0-a11675b56735","system_id":"levelo_inurba_marseille","lat":43.30393,"lon":5.40027,"is_reserved":false,"is_disabled":false,"rental_uris":{"android":"levelo://app?vid=4a13a42e-6b05-47bc-8fc0-a11675b56735","ios":"levelo://app?vid=4a13a42e-6b05-47bc-8fc0-a11675b56735"},"vehicle_type_id":"4","last_reported":1729062573,"current_range_meters":33200,"station_id":"","pricing_plan_id":"cebpf4jnsgd1na2vs0mg"},{"bike_id":"c8cb2e36-5e5f-4aeb-bf11-cc0bf94d2037","system_id":"levelo_inurba_marseille","lat":43.26949,"lon":5.38643,"is_reserved":false,"is_disabled":false,"rental_uris":{"android":"levelo://app?vid=c8cb2e36-5e5f-4aeb-bf11-cc0bf94d2037","ios":"levelo://app?vid=c8cb2e36-5e5f-4aeb-bf11-cc0bf94d2037"},"vehicle_type_id":"4","last_reported":1729062573,"current_range_meters":25600,"station_id":"ce4bhh92rcd13ifvqfh0","pricing_plan_id":"cebpf4jnsgd1na2vs0mg"},{"bike_id":"7df59a0a-cdac-499c-bff9-e4fa11c094f4","system_id":"levelo_inurba_marseille","lat":43.30146,"lon":5.38074,"is_reserved":false,"is_disabled":false,"rental_uris":{"android":"levelo://app?vid=7df59a0a-cdac-499c-bff9-e4fa11c094f4","ios":"levelo://app?vid=7df59a0a-cdac-499c-bff9-e4fa11c094f4"},"vehicle_type_id":"4","last_reported":1729062573,"current_range_meters":26800,"station_id":"ce4bgjp2rcd13ifvqbh0","pricing_plan_id":"cebpf4jnsgd1na2vs0mg"},{"bike_id":"fa2949d0-b61f-4704-8f01-df6c7c877210","system_id":"levelo_inurba_marseille","lat":43.34139,"lon":5.40902,"is_reserved":false,"is_disabled":false,"rental_uris":{"android":"levelo://app?vid=fa2949d0-b61f-4704-8f01-df6c7c877210","ios":"levelo://app?vid=fa2949d0-b61f-4704-8f01-df6c7c877210"},"vehicle_type_id":"4","last_reported":1729062573,"current_range_meters":33600,"station_id":"ce4bhqh2rcd13ifvqhlg","pricing_plan_id":"cebpf4jnsgd1na2vs0mg"},{"bike_id":"2140b6a3-5118-4150-823e-9225aeb56201","system_id":"levelo_inurba_marseille","lat":43.23191,"lon":5.35547,"is_reserved":false,"is_disabled":false,"rental_uris":{"android":"levelo://app?vid=2140b6a3-5118-4150-823e-9225aeb56201","ios":"levelo://app?vid=2140b6a3-5118-4150-823e-9225aeb56201"},"vehicle_type_id":"4","last_reported":1729062573,"current_range_meters":4000,"station_id":"ce4bhu92rcd13ifvqi70","pricing_plan_id":"cebpf4jnsgd1na2vs0mg"},{"bike_id":"1a04e478-e671-439b-9472-6d5851c77132","system_id":"levelo_inurba_marseille","lat":43.26805,"lon":5.40265,"is_reserved":false,"is_disabled":false,"rental_uris":{"android":"levelo://app?vid=1a04e478-e671-439b-9472-6d5851c77132","ios":"levelo://app?vid=1a04e478-e671-439b-9472-6d5851c77132"},"vehicle_type_id":"4","last_reported":1729062573,"current_range_meters":38800,"station_id":"ce501612rcd8frsf0b60","pricing_plan_id":"cebpf4jnsgd1na2vs0mg"},{"bike_id":"e7aedd00-f53a-48fd-a6a9-30d36c872d2e","system_id":"levelo_inurba_marseille","lat":43.30274,"lon":5.37699,"is_reserved":false,"is_disabled":false,"rental_uris":{"android":"levelo://app?vid=e7aedd00-f53a-48fd-a6a9-30d36c872d2e","ios":"levelo://app?vid=e7aedd00-f53a-48fd-a6a9-30d36c872d2e"},"vehicle_type_id":"4","last_reported":1729062573,"current_range_meters":38800,"station_id":"ce4bguh2rcd13ifvqcj0","pricing_plan_id":"cebpf4jnsgd1na2vs0mg"},{"bike_id":"a310484e-bff7-45c6-a75a-02549d194aef","system_id":"levelo_inurba_marseille","lat":43.3053,"lon":5.36553,"is_reserved":false,"is_disabled":false,"rental_uris":{"android":"levelo://app?vid=a310484e-bff7-45c6-a75a-02549d194aef","ios":"levelo://app?vid=a310484e-bff7-45c6-a75a-02549d194aef"},"vehicle_type_id":"4","last_reported":1729062573,"current_range_meters":20400,"station_id":"ce4bgs12rcd13ifvqcag","pricing_plan_id":"cebpf4jnsgd1na2vs0mg"},{"bike_id":"efe9840c-8fb2-4e9f-845d-e5b20acfb757","system_id":"levelo_inurba_marseille","lat":43.23156,"lon":5.43711,"is_reserved":false,"is_disabled":false,"rental_uris":{"android":"levelo://app?vid=efe9840c-8fb2-4e9f-845d-e5b20acfb757","ios":"levelo://app?vid=efe9840c-8fb2-4e9f-845d-e5b20acfb757"},"vehicle_type_id":"4","last_reported":1729062573,"current_range_meters":9600,"station_id":"ce4bhmp2rcd13ifvqgog","pricing_plan_id":"cebpf4jnsgd1na2vs0mg"},{"bike_id":"52e37773-79c6-4443-94d6-5ed359faaaf0","system_id":"levelo_inurba_marseille","lat":43.30275,"lon":5.37704,"is_reserved":false,"is_disabled":false,"rental_uris":{"android":"levelo://app?vid=52e37773-79c6-4443-94d6-5ed359faaaf0","ios":"levelo://app?vid=52e37773-79c6-4443-94d6-5ed359faaaf0"},"vehicle_type_id":"4","last_reported":1729062573,"current_range_meters":8400,"station_id":"ce4bguh2rcd13ifvqcj0","pricing_plan_id":"cebpf4jnsgd1na2vs0mg"},{"bike_id":"34515f2b-1719-4f4a-9852-35ee1a5a04ba","system_id":"levelo_inurba_marseille","lat":43.30272,"lon":5.3771,"is_reserved":false,"is_disabled":false,"rental_uris":{"android":"levelo://app?vid=34515f2b-1719-4f4a-9852-35ee1a5a04ba","ios":"levelo://app?vid=34515f2b-1719-4f4a-9852-35ee1a5a04ba"},"vehicle_type_id":"4","last_reported":1729062573,"current_range_meters":34800,"station_id":"ce4bguh2rcd13ifvqcj0","pricing_plan_id":"cebpf4jnsgd1na2vs0mg"},{"bike_id":"fe0ed97f-0597-4aef-86e2-d5d073ff43d3","system_id":"levelo_inurba_marseille","lat":43.29553,"lon":5.42273,"is_reserved":false,"is_disabled":false,"rental_uris":{"android":"levelo://app?vid=fe0ed97f-0597-4aef-86e2-d5d073ff43d3","ios":"levelo://app?vid=fe0ed97f-0597-4aef-86e2-d5d073ff43d3"},"vehicle_type_id":"4","last_reported":1729062573,"current_range_meters":38400,"station_id":"ce4bhph2rcd13ifvqhdg","pricing_plan_id":"cebpf4jnsgd1na2vs0mg"},{"bike_id":"3a5ea804-7c74-4079-8f21-034fdf82f6fb","system_id":"levelo_inurba_marseille","lat":43.27493,"lon":5.42456,"is_reserved":false,"is_disabled":false,"rental_uris":{"android":"levelo://app?vid=3a5ea804-7c74-4079-8f21-034fdf82f6fb","ios":"levelo://app?vid=3a5ea804-7c74-4079-8f21-034fdf82f6fb"},"vehicle_type_id":"4","last_reported":1729062573,"current_range_meters":37600,"station_id":"ce4bhn92rcd13ifvqgrg","pricing_plan_id":"cebpf4jnsgd1na2vs0mg"},{"bike_id":"9edfb9e6-9161-423b-9976-81ea567d3000","system_id":"levelo_inurba_marseille","lat":43.30461,"lon":5.37887,"is_reserved":false,"is_disabled":false,"rental_uris":{"android":"levelo://app?vid=9edfb9e6-9161-423b-9976-81ea567d3000","ios":"levelo://app?vid=9edfb9e6-9161-423b-9976-81ea567d3000"},"vehicle_type_id":"4","last_reported":1729062573,"current_range_meters":32400,"station_id":"ce4bgup2rcd13ifvqcn0","pricing_plan_id":"cebpf4jnsgd1na2vs0mg"},{"bike_id":"5593c08d-83d0-4097-af58-92f6f6567b61","system_id":"levelo_inurba_marseille","lat":43.27899,"lon":5.38007,"is_reserved":false,"is_disabled":false,"rental_uris":{"android":"levelo://app?vid=5593c08d-83d0-4097-af58-92f6f6567b61","ios":"levelo://app?vid=5593c08d-83d0-4097-af58-92f6f6567b61"},"vehicle_type_id":"4","last_reported":1729062573,"current_range_meters":38000,"station_id":"ce4bhf92rcd13ifvqf50","pricing_plan_id":"cebpf4jnsgd1na2vs0mg"},{"bike_id":"d4660c65-9df4-4ab3-b055-aff9dba4a3ce","system_id":"levelo_inurba_marseille","lat":43.30467,"lon":5.37896,"is_reserved":false,"is_disabled":false,"rental_uris":{"android":"levelo://app?vid=d4660c65-9df4-4ab3-b055-aff9dba4a3ce","ios":"levelo://app?vid=d4660c65-9df4-4ab3-b055-aff9dba4a3ce"},"vehicle_type_id":"4","last_reported":1729062573,"current_range_meters":39200,"station_id":"ce4bgup2rcd13ifvqcn0","pricing_plan_id":"cebpf4jnsgd1na2vs0mg"},{"bike_id":"480a1b5e-7e75-47f1-b2f6-1cb6b6723721","system_id":"levelo_inurba_marseille","lat":43.31352,"lon":5.36706,"is_reserved":false,"is_disabled":false,"rental_uris":{"android":"levelo://app?vid=480a1b5e-7e75-47f1-b2f6-1cb6b6723721","ios":"levelo://app?vid=480a1b5e-7e75-47f1-b2f6-1cb6b6723721"},"vehicle_type_id":"4","last_reported":1729062573,"current_range_meters":34000,"station_id":"ce4bgr92rcd13ifvqc6g","pricing_plan_id":"cebpf4jnsgd1na2vs0mg"},{"bike_id":"8cb8794b-fc64-4ce9-b434-8942818c8fb2","system_id":"levelo_inurba_marseille","lat":43.29798,"lon":5.38093,"is_reserved":false,"is_disabled":false,"rental_uris":{"android":"levelo://app?vid=8cb8794b-fc64-4ce9-b434-8942818c8fb2","ios":"levelo://app?vid=8cb8794b-fc64-4ce9-b434-8942818c8fb2"},"vehicle_type_id":"4","last_reported":1729062573,"current_range_meters":36400,"station_id":"ce4bhhh2rcd13ifvqfk0","pricing_plan_id":"cebpf4jnsgd1na2vs0mg"},{"bike_id":"3213665e-989c-4d22-9f5a-31c8522597dd","system_id":"levelo_inurba_marseille","lat":43.296,"lon":5.36142,"is_reserved":false,"is_disabled":false,"rental_uris":{"android":"levelo://app?vid=3213665e-989c-4d22-9f5a-31c8522597dd","ios":"levelo://app?vid=3213665e-989c-4d22-9f5a-31c8522597dd"},"vehicle_type_id":"4","last_reported":1729062573,"current_range_meters":34000,"station_id":"","pricing_plan_id":"cebpf4jnsgd1na2vs0mg"},{"bike_id":"a72990f3-2b0e-4254-9bca-1d18063b659c","system_id":"levelo_inurba_marseille","lat":43.26788,"lon":5.39424,"is_reserved":false,"is_disabled":false,"rental_uris":{"android":"levelo://app?vid=a72990f3-2b0e-4254-9bca-1d18063b659c","ios":"levelo://app?vid=a72990f3-2b0e-4254-9bca-1d18063b659c"},"vehicle_type_id":"4","last_reported":1729062573,"current_range_meters":38000,"station_id":"ce4bhh12rcd13ifvqfg0","pricing_plan_id":"cebpf4jnsgd1na2vs0mg"},{"bike_id":"e3052809-f9d2-4f0c-971f-f9283790cf72","system_id":"levelo_inurba_marseille","lat":43.28483,"lon":5.38414,"is_reserved":false,"is_disabled":false,"rental_uris":{"android":"levelo://app?vid=e3052809-f9d2-4f0c-971f-f9283790cf72","ios":"levelo://app?vid=e3052809-f9d2-4f0c-971f-f9283790cf72"},"vehicle_type_id":"4","last_reported":1729062573,"current_range_meters":30800,"station_id":"ce4bh512rcd13ifvqe3g","pricing_plan_id":"cebpf4jnsgd1na2vs0mg"},{"bike_id":"3ecda465-3f44-4acb-b6ec-0dd71866866a","system_id":"levelo_inurba_marseille","lat":43.29184,"lon":5.380436,"is_reserved":false,"is_disabled":false,"rental_uris":{"android":"levelo://app?vid=3ecda465-3f44-4acb-b6ec-0dd71866866a","ios":"levelo://app?vid=3ecda465-3f44-4acb-b6ec-0dd71866866a"},"vehicle_type_id":"4","last_reported":1729062573,"current_range_meters":28400,"station_id":"ce4bgn92rcd13ifvqbvg","pricing_plan_id":"cebpf4jnsgd1na2vs0mg"},{"bike_id":"1641b826-604a-4181-8231-dca386f637a6","system_id":"levelo_inurba_marseille","lat":43.23192,"lon":5.35547,"is_reserved":false,"is_disabled":false,"rental_uris":{"android":"levelo://app?vid=1641b826-604a-4181-8231-dca386f637a6","ios":"levelo://app?vid=1641b826-604a-4181-8231-dca386f637a6"},"vehicle_type_id":"4","last_reported":1729062573,"current_range_meters":38400,"station_id":"ce4bhu92rcd13ifvqi70","pricing_plan_id":"cebpf4jnsgd1na2vs0mg"},{"bike_id":"89211ee2-076f-4df3-92bd-cd8885f2e76d","system_id":"levelo_inurba_marseille","lat":43.23193,"lon":5.35556,"is_reserved":false,"is_disabled":false,"rental_uris":{"android":"levelo://app?vid=89211ee2-076f-4df3-92bd-cd8885f2e76d","ios":"levelo://app?vid=89211ee2-076f-4df3-92bd-cd8885f2e76d"},"vehicle_type_id":"4","last_reported":1729062573,"current_range_meters":38400,"station_id":"ce4bhu92rcd13ifvqi70","pricing_plan_id":"cebpf4jnsgd1na2vs0mg"},{"bike_id":"90f80907-e0d5-4716-a7d8-45b2c2640b01","system_id":"levelo_inurba_marseille","lat":43.23153,"lon":5.43711,"is_reserved":false,"is_disabled":false,"rental_uris":{"android":"levelo://app?vid=90f80907-e0d5-4716-a7d8-45b2c2640b01","ios":"levelo://app?vid=90f80907-e0d5-4716-a7d8-45b2c2640b01"},"vehicle_type_id":"4","last_reported":1729062573,"current_range_meters":8000,"station_id":"ce4bhmp2rcd13ifvqgog","pricing_plan_id":"cebpf4jnsgd1na2vs0mg"},{"bike_id":"8e0c7a2e-9557-49de-9a2d-e4ab3d8ce2d8","system_id":"levelo_inurba_marseille","lat":43.33726,"lon":5.39186,"is_reserved":false,"is_disabled":false,"rental_uris":{"android":"levelo://app?vid=8e0c7a2e-9557-49de-9a2d-e4ab3d8ce2d8","ios":"levelo://app?vid=8e0c7a2e-9557-49de-9a2d-e4ab3d8ce2d8"},"vehicle_type_id":"4","last_reported":1729062573,"current_range_meters":33200,"station_id":"ce4bhr92rcd13ifvqhsg","pricing_plan_id":"cebpf4jnsgd1na2vs0mg"},{"bike_id":"1b128b70-a182-4346-999b-95b5927f197a","system_id":"levelo_inurba_marseille","lat":43.32533,"lon":5.4143,"is_reserved":false,"is_disabled":false,"rental_uris":{"android":"levelo://app?vid=1b128b70-a182-4346-999b-95b5927f197a","ios":"levelo://app?vid=1b128b70-a182-4346-999b-95b5927f197a"},"vehicle_type_id":"4","last_reported":1729062573,"current_range_meters":25200,"station_id":"ce4bhq12rcd13ifvqhhg","pricing_plan_id":"cebpf4jnsgd1na2vs0mg"},{"bike_id":"55a3337e-c45f-4bce-93ec-a4b648c24a42","system_id":"levelo_inurba_marseille","lat":43.22932,"lon":5.35377,"is_reserved":false,"is_disabled":false,"rental_uris":{"android":"levelo://app?vid=55a3337e-c45f-4bce-93ec-a4b648c24a42","ios":"levelo://app?vid=55a3337e-c45f-4bce-93ec-a4b648c24a42"},"vehicle_type_id":"4","last_reported":1729062573,"current_range_meters":36400,"station_id":"cpo3532slgdg3j2ikp40","pricing_plan_id":"cebpf4jnsgd1na2vs0mg"},{"bike_id":"467ac0df-5545-4744-a553-bf2d9fc755e0","system_id":"levelo_inurba_marseille","lat":43.27907,"lon":5.39582,"is_reserved":false,"is_disabled":false,"rental_uris":{"android":"levelo://app?vid=467ac0df-5545-4744-a553-bf2d9fc755e0","ios":"levelo://app?vid=467ac0df-5545-4744-a553-bf2d9fc755e0"},"vehicle_type_id":"4","last_reported":1729062573,"current_range_meters":4800,"station_id":"ce4bhf92rcd13ifvqf40","pricing_plan_id":"cebpf4jnsgd1na2vs0mg"},{"bike_id":"c50f4a7e-fd65-47a3-a2a5-a8742f16687c","system_id":"levelo_inurba_marseille","lat":43.28153,"lon":5.4264,"is_reserved":false,"is_disabled":false,"rental_uris":{"android":"levelo://app?vid=c50f4a7e-fd65-47a3-a2a5-a8742f16687c","ios":"levelo://app?vid=c50f4a7e-fd65-47a3-a2a5-a8742f16687c"},"vehicle_type_id":"4","last_reported":1729062573,"current_range_meters":33600,"station_id":"ce4bhnh2rcd13ifvqgug","pricing_plan_id":"cebpf4jnsgd1na2vs0mg"},{"bike_id":"8e3963b6-8131-4c1e-b4d2-add46d4dfbf9","system_id":"levelo_inurba_marseille","lat":43.30306,"lon":5.36899,"is_reserved":false,"is_disabled":false,"rental_uris":{"android":"levelo://app?vid=8e3963b6-8131-4c1e-b4d2-add46d4dfbf9","ios":"levelo://app?vid=8e3963b6-8131-4c1e-b4d2-add46d4dfbf9"},"vehicle_type_id":"4","last_reported":1729062573,"current_range_meters":20000,"station_id":"ce4bgqh2rcd13ifvqc5g","pricing_plan_id":"cebpf4jnsgd1na2vs0mg"},{"bike_id":"22dc30f9-23d1-4057-a1f4-11efdae7a6a0","system_id":"levelo_inurba_marseille","lat":43.26946,"lon":5.3864,"is_reserved":false,"is_disabled":false,"rental_uris":{"android":"levelo://app?vid=22dc30f9-23d1-4057-a1f4-11efdae7a6a0","ios":"levelo://app?vid=22dc30f9-23d1-4057-a1f4-11efdae7a6a0"},"vehicle_type_id":"4","last_reported":1729062573,"current_range_meters":30800,"station_id":"ce4bhh92rcd13ifvqfh0","pricing_plan_id":"cebpf4jnsgd1na2vs0mg"},{"bike_id":"974b9206-084e-4297-ba1a-345f6c409644","system_id":"levelo_inurba_marseille","lat":43.29573,"lon":5.37518,"is_reserved":false,"is_disabled":false,"rental_uris":{"android":"levelo://app?vid=974b9206-084e-4297-ba1a-345f6c409644","ios":"levelo://app?vid=974b9206-084e-4297-ba1a-345f6c409644"},"vehicle_type_id":"4","last_reported":1729062573,"current_range_meters":6800,"station_id":"ce4bgh92rcd13ifvqb50","pricing_plan_id":"cebpf4jnsgd1na2vs0mg"},{"bike_id":"eea79da3-80a5-42c6-8540-1400d7d1121f","system_id":"levelo_inurba_marseille","lat":43.23192,"lon":5.3554,"is_reserved":false,"is_disabled":false,"rental_uris":{"android":"levelo://app?vid=eea79da3-80a5-42c6-8540-1400d7d1121f","ios":"levelo://app?vid=eea79da3-80a5-42c6-8540-1400d7d1121f"},"vehicle_type_id":"4","last_reported":1729062573,"current_range_meters":25600,"station_id":"ce4bhu92rcd13ifvqi70","pricing_plan_id":"cebpf4jnsgd1na2vs0mg"},{"bike_id":"1e6de057-fb8d-42a3-b0db-217a6b02e10f","system_id":"levelo_inurba_marseille","lat":43.2407,"lon":5.37766,"is_reserved":false,"is_disabled":false,"rental_uris":{"android":"levelo://app?vid=1e6de057-fb8d-42a3-b0db-217a6b02e10f","ios":"levelo://app?vid=1e6de057-fb8d-42a3-b0db-217a6b02e10f"},"vehicle_type_id":"4","last_reported":1729062573,"current_range_meters":37600,"station_id":"ce4bhnp2rcd13ifvqgvg","pricing_plan_id":"cebpf4jnsgd1na2vs0mg"},{"bike_id":"cf890dd2-e8ab-4d06-abd3-cbd18829f884","system_id":"levelo_inurba_marseille","lat":43.28712,"lon":5.37936,"is_reserved":false,"is_disabled":false,"rental_uris":{"android":"levelo://app?vid=cf890dd2-e8ab-4d06-abd3-cbd18829f884","ios":"levelo://app?vid=cf890dd2-e8ab-4d06-abd3-cbd18829f884"},"vehicle_type_id":"4","last_reported":1729062573,"current_range_meters":36800,"station_id":"ce4bh9p2rcd13ifvqec0","pricing_plan_id":"cebpf4jnsgd1na2vs0mg"},{"bike_id":"721a6a6b-9823-4f20-a057-c99e3f21df96","system_id":"levelo_inurba_marseille","lat":43.29013,"lon":5.38139,"is_reserved":false,"is_disabled":false,"rental_uris":{"android":"levelo://app?vid=721a6a6b-9823-4f20-a057-c99e3f21df96","ios":"levelo://app?vid=721a6a6b-9823-4f20-a057-c99e3f21df96"},"vehicle_type_id":"4","last_reported":1729062573,"current_range_meters":20800,"station_id":"ce4bh4p2rcd13ifvqe1g","pricing_plan_id":"cebpf4jnsgd1na2vs0mg"},{"bike_id":"39c87495-e919-48df-ad42-0b47d2014833","system_id":"levelo_inurba_marseille","lat":43.23149,"lon":5.43717,"is_reserved":false,"is_disabled":false,"rental_uris":{"android":"levelo://app?vid=39c87495-e919-48df-ad42-0b47d2014833","ios":"levelo://app?vid=39c87495-e919-48df-ad42-0b47d2014833"},"vehicle_type_id":"4","last_reported":1729062573,"current_range_meters":6800,"station_id":"ce4bhmp2rcd13ifvqgog","pricing_plan_id":"cebpf4jnsgd1na2vs0mg"},{"bike_id":"ff96eee3-1ac8-4888-9ae7-e4b6cc8154af","system_id":"levelo_inurba_marseille","lat":43.33739,"lon":5.3746,"is_reserved":false,"is_disabled":false,"rental_uris":{"android":"levelo://app?vid=ff96eee3-1ac8-4888-9ae7-e4b6cc8154af","ios":"levelo://app?vid=ff96eee3-1ac8-4888-9ae7-e4b6cc8154af"},"vehicle_type_id":"4","last_reported":1729062573,"current_range_meters":30400,"station_id":"","pricing_plan_id":"cebpf4jnsgd1na2vs0mg"},{"bike_id":"2438cadb-7038-4e51-b524-d851312e27ba","system_id":"levelo_inurba_marseille","lat":43.28404,"lon":5.34969,"is_reserved":false,"is_disabled":false,"rental_uris":{"android":"levelo://app?vid=2438cadb-7038-4e51-b524-d851312e27ba","ios":"levelo://app?vid=2438cadb-7038-4e51-b524-d851312e27ba"},"vehicle_type_id":"4","last_reported":1729062573,"current_range_meters":21600,"station_id":"ce4bhbh2rcd13ifvqepg","pricing_plan_id":"cebpf4jnsgd1na2vs0mg"},{"bike_id":"3cbb7131-f6c7-4b9c-b7c3-a49dca6c9c4c","system_id":"levelo_inurba_marseille","lat":43.27492,"lon":5.42456,"is_reserved":false,"is_disabled":false,"rental_uris":{"android":"levelo://app?vid=3cbb7131-f6c7-4b9c-b7c3-a49dca6c9c4c","ios":"levelo://app?vid=3cbb7131-f6c7-4b9c-b7c3-a49dca6c9c4c"},"vehicle_type_id":"4","last_reported":1729062573,"current_range_meters":34000,"station_id":"ce4bhn92rcd13ifvqgrg","pricing_plan_id":"cebpf4jnsgd1na2vs0mg"},{"bike_id":"b3d9c4df-08ec-49c0-a7e0-f7b8ef43758e","system_id":"levelo_inurba_marseille","lat":43.259323,"lon":5.409726,"is_reserved":false,"is_disabled":false,"rental_uris":{"android":"levelo://app?vid=b3d9c4df-08ec-49c0-a7e0-f7b8ef43758e","ios":"levelo://app?vid=b3d9c4df-08ec-49c0-a7e0-f7b8ef43758e"},"vehicle_type_id":"4","last_reported":1729062573,"current_range_meters":14400,"station_id":"ce4bhm92rcd13ifvqglg","pricing_plan_id":"cebpf4jnsgd1na2vs0mg"},{"bike_id":"79991d3d-436d-404c-880e-51d74dc7bda4","system_id":"levelo_inurba_marseille","lat":43.25579,"lon":5.38236,"is_reserved":false,"is_disabled":false,"rental_uris":{"android":"levelo://app?vid=79991d3d-436d-404c-880e-51d74dc7bda4","ios":"levelo://app?vid=79991d3d-436d-404c-880e-51d74dc7bda4"},"vehicle_type_id":"4","last_reported":1729062573,"current_range_meters":36800,"station_id":"ce4bhih2rcd13ifvqfs0","pricing_plan_id":"cebpf4jnsgd1na2vs0mg"},{"bike_id":"3d2a3428-1782-4835-ae61-b4cc1330d3aa","system_id":"levelo_inurba_marseille","lat":43.31723,"lon":5.42406,"is_reserved":false,"is_disabled":false,"rental_uris":{"android":"levelo://app?vid=3d2a3428-1782-4835-ae61-b4cc1330d3aa","ios":"levelo://app?vid=3d2a3428-1782-4835-ae61-b4cc1330d3aa"},"vehicle_type_id":"4","last_reported":1729062573,"current_range_meters":20400,"station_id":"ce4bhp92rcd13ifvqhbg","pricing_plan_id":"cebpf4jnsgd1na2vs0mg"},{"bike_id":"9e6659d1-8d24-49dc-9e74-d333d724a0aa","system_id":"levelo_inurba_marseille","lat":43.24081,"lon":5.37749,"is_reserved":false,"is_disabled":false,"rental_uris":{"android":"levelo://app?vid=9e6659d1-8d24-49dc-9e74-d333d724a0aa","ios":"levelo://app?vid=9e6659d1-8d24-49dc-9e74-d333d724a0aa"},"vehicle_type_id":"4","last_reported":1729062573,"current_range_meters":34000,"station_id":"ce4bhnp2rcd13ifvqgvg","pricing_plan_id":"cebpf4jnsgd1na2vs0mg"},{"bike_id":"d14183aa-e5a5-4e39-9870-86ae53e80e4a","system_id":"levelo_inurba_marseille","lat":43.2742,"lon":5.39408,"is_reserved":false,"is_disabled":false,"rental_uris":{"android":"levelo://app?vid=d14183aa-e5a5-4e39-9870-86ae53e80e4a","ios":"levelo://app?vid=d14183aa-e5a5-4e39-9870-86ae53e80e4a"},"vehicle_type_id":"4","last_reported":1729062573,"current_range_meters":17600,"station_id":"ce4bhdp2rcd13ifvqf20","pricing_plan_id":"cebpf4jnsgd1na2vs0mg"},{"bike_id":"292b9425-1372-40d4-bf0a-fe57aa779a41","system_id":"levelo_inurba_marseille","lat":43.23061,"lon":5.35499,"is_reserved":false,"is_disabled":false,"rental_uris":{"android":"levelo://app?vid=292b9425-1372-40d4-bf0a-fe57aa779a41","ios":"levelo://app?vid=292b9425-1372-40d4-bf0a-fe57aa779a41"},"vehicle_type_id":"4","last_reported":1729062573,"current_range_meters":29600,"station_id":"cpo3342slgdg3j2ifvpg","pricing_plan_id":"cebpf4jnsgd1na2vs0mg"},{"bike_id":"62dcd66c-ac21-40ac-8398-53abfe185a2c","system_id":"levelo_inurba_marseille","lat":43.28716,"lon":5.37957,"is_reserved":false,"is_disabled":false,"rental_uris":{"android":"levelo://app?vid=62dcd66c-ac21-40ac-8398-53abfe185a2c","ios":"levelo://app?vid=62dcd66c-ac21-40ac-8398-53abfe185a2c"},"vehicle_type_id":"4","last_reported":1729062573,"current_range_meters":35600,"station_id":"ce4bh9p2rcd13ifvqec0","pricing_plan_id":"cebpf4jnsgd1na2vs0mg"},{"bike_id":"60c7ceff-fef3-4380-98cf-0ac594b84256","system_id":"levelo_inurba_marseille","lat":43.28715,"lon":5.37951,"is_reserved":false,"is_disabled":false,"rental_uris":{"android":"levelo://app?vid=60c7ceff-fef3-4380-98cf-0ac594b84256","ios":"levelo://app?vid=60c7ceff-fef3-4380-98cf-0ac594b84256"},"vehicle_type_id":"4","last_reported":1729062573,"current_range_meters":38000,"station_id":"ce4bh9p2rcd13ifvqec0","pricing_plan_id":"cebpf4jnsgd1na2vs0mg"},{"bike_id":"d3337324-55ed-4c49-b4f3-9681a71fe11f","system_id":"levelo_inurba_marseille","lat":43.282684,"lon":5.350676,"is_reserved":false,"is_disabled":false,"rental_uris":{"android":"levelo://app?vid=d3337324-55ed-4c49-b4f3-9681a71fe11f","ios":"levelo://app?vid=d3337324-55ed-4c49-b4f3-9681a71fe11f"},"vehicle_type_id":"4","last_reported":1729062573,"current_range_meters":24000,"station_id":"ce4bhbp2rcd13ifvqerg","pricing_plan_id":"cebpf4jnsgd1na2vs0mg"},{"bike_id":"a1c3bfa3-3f73-4973-9bfb-d3cbffff6b44","system_id":"levelo_inurba_marseille","lat":43.29976,"lon":5.38477,"is_reserved":false,"is_disabled":false,"rental_uris":{"android":"levelo://app?vid=a1c3bfa3-3f73-4973-9bfb-d3cbffff6b44","ios":"levelo://app?vid=a1c3bfa3-3f73-4973-9bfb-d3cbffff6b44"},"vehicle_type_id":"4","last_reported":1729062573,"current_range_meters":38800,"station_id":"ce4bgj92rcd13ifvqbd0","pricing_plan_id":"cebpf4jnsgd1na2vs0mg"},{"bike_id":"5a82b9ec-9ee5-408d-bce2-f24b06110a65","system_id":"levelo_inurba_marseille","lat":43.30464,"lon":5.37901,"is_reserved":false,"is_disabled":false,"rental_uris":{"android":"levelo://app?vid=5a82b9ec-9ee5-408d-bce2-f24b06110a65","ios":"levelo://app?vid=5a82b9ec-9ee5-408d-bce2-f24b06110a65"},"vehicle_type_id":"4","last_reported":1729062573,"current_range_meters":24400,"station_id":"ce4bgup2rcd13ifvqcn0","pricing_plan_id":"cebpf4jnsgd1na2vs0mg"},{"bike_id":"614b1915-bc3d-4e70-b718-620a5d3fc367","system_id":"levelo_inurba_marseille","lat":43.27969,"lon":5.38743,"is_reserved":false,"is_disabled":false,"rental_uris":{"android":"levelo://app?vid=614b1915-bc3d-4e70-b718-620a5d3fc367","ios":"levelo://app?vid=614b1915-bc3d-4e70-b718-620a5d3fc367"},"vehicle_type_id":"4","last_reported":1729062573,"current_range_meters":31200,"station_id":"ce4bhg12rcd13ifvqf80","pricing_plan_id":"cebpf4jnsgd1na2vs0mg"},{"bike_id":"0e94fead-87ce-48c6-b3b3-114233577a96","system_id":"levelo_inurba_marseille","lat":43.298676,"lon":5.397306,"is_reserved":false,"is_disabled":false,"rental_uris":{"android":"levelo://app?vid=0e94fead-87ce-48c6-b3b3-114233577a96","ios":"levelo://app?vid=0e94fead-87ce-48c6-b3b3-114233577a96"},"vehicle_type_id":"4","last_reported":1729062573,"current_range_meters":27200,"station_id":"ce4bh012rcd13ifvqd00","pricing_plan_id":"cebpf4jnsgd1na2vs0mg"},{"bike_id":"23264693-0e34-4f7c-a3c3-43b1e1e0d366","system_id":"levelo_inurba_marseille","lat":43.29032,"lon":5.37568,"is_reserved":false,"is_disabled":false,"rental_uris":{"android":"levelo://app?vid=23264693-0e34-4f7c-a3c3-43b1e1e0d366","ios":"levelo://app?vid=23264693-0e34-4f7c-a3c3-43b1e1e0d366"},"vehicle_type_id":"4","last_reported":1729062573,"current_range_meters":24000,"station_id":"ce4bh692rcd13ifvqe90","pricing_plan_id":"cebpf4jnsgd1na2vs0mg"},{"bike_id":"8e1d4e0d-5507-46d6-90b0-3fb646d87956","system_id":"levelo_inurba_marseille","lat":43.336077,"lon":5.41035,"is_reserved":false,"is_disabled":false,"rental_uris":{"android":"levelo://app?vid=8e1d4e0d-5507-46d6-90b0-3fb646d87956","ios":"levelo://app?vid=8e1d4e0d-5507-46d6-90b0-3fb646d87956"},"vehicle_type_id":"4","last_reported":1729062573,"current_range_meters":29600,"station_id":"ce4bhqh2rcd13ifvqhmg","pricing_plan_id":"cebpf4jnsgd1na2vs0mg"},{"bike_id":"c16b2465-23b0-4e05-a23b-1a81c701df3b","system_id":"levelo_inurba_marseille","lat":43.29557,"lon":5.42284,"is_reserved":false,"is_disabled":false,"rental_uris":{"android":"levelo://app?vid=c16b2465-23b0-4e05-a23b-1a81c701df3b","ios":"levelo://app?vid=c16b2465-23b0-4e05-a23b-1a81c701df3b"},"vehicle_type_id":"4","last_reported":1729062573,"current_range_meters":39200,"station_id":"ce4bhph2rcd13ifvqhdg","pricing_plan_id":"cebpf4jnsgd1na2vs0mg"},{"bike_id":"f38f516d-a139-43ac-9e6e-6a1c36b68c1f","system_id":"levelo_inurba_marseille","lat":43.26677,"lon":5.38272,"is_reserved":false,"is_disabled":false,"rental_uris":{"android":"levelo://app?vid=f38f516d-a139-43ac-9e6e-6a1c36b68c1f","ios":"levelo://app?vid=f38f516d-a139-43ac-9e6e-6a1c36b68c1f"},"vehicle_type_id":"4","last_reported":1729062573,"current_range_meters":36400,"station_id":"ce4bhg92rcd13ifvqf90","pricing_plan_id":"cebpf4jnsgd1na2vs0mg"},{"bike_id":"bb74cfe2-207e-4aff-832a-62653bf6086d","system_id":"levelo_inurba_marseille","lat":43.29368,"lon":5.37864,"is_reserved":false,"is_disabled":false,"rental_uris":{"android":"levelo://app?vid=bb74cfe2-207e-4aff-832a-62653bf6086d","ios":"levelo://app?vid=bb74cfe2-207e-4aff-832a-62653bf6086d"},"vehicle_type_id":"4","last_reported":1729062573,"current_range_meters":38800,"station_id":"ce4bgjh2rcd13ifvqbf0","pricing_plan_id":"cebpf4jnsgd1na2vs0mg"},{"bike_id":"d521e6f5-420f-4d2e-8244-ce135253644b","system_id":"levelo_inurba_marseille","lat":43.3028,"lon":5.376967,"is_reserved":false,"is_disabled":false,"rental_uris":{"android":"levelo://app?vid=d521e6f5-420f-4d2e-8244-ce135253644b","ios":"levelo://app?vid=d521e6f5-420f-4d2e-8244-ce135253644b"},"vehicle_type_id":"4","last_reported":1729062573,"current_range_meters":38400,"station_id":"ce4bguh2rcd13ifvqcj0","pricing_plan_id":"cebpf4jnsgd1na2vs0mg"},{"bike_id":"1be0f246-cd10-4d19-824e-5bf5b27c9c44","system_id":"levelo_inurba_marseille","lat":43.3052,"lon":5.36538,"is_reserved":false,"is_disabled":false,"rental_uris":{"android":"levelo://app?vid=1be0f246-cd10-4d19-824e-5bf5b27c9c44","ios":"levelo://app?vid=1be0f246-cd10-4d19-824e-5bf5b27c9c44"},"vehicle_type_id":"4","last_reported":1729062573,"current_range_meters":37600,"station_id":"ce4bgs12rcd13ifvqcag","pricing_plan_id":"cebpf4jnsgd1na2vs0mg"},{"bike_id":"c8a841eb-81f4-4a52-8b20-21dc0a011670","system_id":"levelo_inurba_marseille","lat":43.2315,"lon":5.43718,"is_reserved":false,"is_disabled":false,"rental_uris":{"android":"levelo://app?vid=c8a841eb-81f4-4a52-8b20-21dc0a011670","ios":"levelo://app?vid=c8a841eb-81f4-4a52-8b20-21dc0a011670"},"vehicle_type_id":"4","last_reported":1729062573,"current_range_meters":12800,"station_id":"ce4bhmp2rcd13ifvqgog","pricing_plan_id":"cebpf4jnsgd1na2vs0mg"},{"bike_id":"a9d80141-cb04-4f88-bcc5-9763572e3517","system_id":"levelo_inurba_marseille","lat":43.23192,"lon":5.35545,"is_reserved":false,"is_disabled":false,"rental_uris":{"android":"levelo://app?vid=a9d80141-cb04-4f88-bcc5-9763572e3517","ios":"levelo://app?vid=a9d80141-cb04-4f88-bcc5-9763572e3517"},"vehicle_type_id":"4","last_reported":1729062573,"current_range_meters":38000,"station_id":"ce4bhu92rcd13ifvqi70","pricing_plan_id":"cebpf4jnsgd1na2vs0mg"},{"bike_id":"7967bab5-4190-4746-a2a3-52c467ff667a","system_id":"levelo_inurba_marseille","lat":43.27489,"lon":5.42458,"is_reserved":false,"is_disabled":false,"rental_uris":{"android":"levelo://app?vid=7967bab5-4190-4746-a2a3-52c467ff667a","ios":"levelo://app?vid=7967bab5-4190-4746-a2a3-52c467ff667a"},"vehicle_type_id":"4","last_reported":1729062573,"current_range_meters":12000,"station_id":"ce4bhn92rcd13ifvqgrg","pricing_plan_id":"cebpf4jnsgd1na2vs0mg"},{"bike_id":"d06f24f3-1961-4c39-8b26-c72733863fe9","system_id":"levelo_inurba_marseille","lat":43.33781,"lon":5.37443,"is_reserved":false,"is_disabled":false,"rental_uris":{"android":"levelo://app?vid=d06f24f3-1961-4c39-8b26-c72733863fe9","ios":"levelo://app?vid=d06f24f3-1961-4c39-8b26-c72733863fe9"},"vehicle_type_id":"4","last_reported":1729062573,"current_range_meters":20800,"station_id":"","pricing_plan_id":"cebpf4jnsgd1na2vs0mg"},{"bike_id":"2a582e9c-e7dd-4a75-8534-911fde5eba73","system_id":"levelo_inurba_marseille","lat":43.25574,"lon":5.38231,"is_reserved":false,"is_disabled":false,"rental_uris":{"android":"levelo://app?vid=2a582e9c-e7dd-4a75-8534-911fde5eba73","ios":"levelo://app?vid=2a582e9c-e7dd-4a75-8534-911fde5eba73"},"vehicle_type_id":"4","last_reported":1729062573,"current_range_meters":32000,"station_id":"ce4bhih2rcd13ifvqfs0","pricing_plan_id":"cebpf4jnsgd1na2vs0mg"},{"bike_id":"a4929ed8-bf17-4d6c-b6db-14153db674ce","system_id":"levelo_inurba_marseille","lat":43.27487,"lon":5.42454,"is_reserved":false,"is_disabled":false,"rental_uris":{"android":"levelo://app?vid=a4929ed8-bf17-4d6c-b6db-14153db674ce","ios":"levelo://app?vid=a4929ed8-bf17-4d6c-b6db-14153db674ce"},"vehicle_type_id":"4","last_reported":1729062573,"current_range_meters":35200,"station_id":"ce4bhn92rcd13ifvqgrg","pricing_plan_id":"cebpf4jnsgd1na2vs0mg"},{"bike_id":"78e6d629-0d6a-4328-976e-5e2764cfd40c","system_id":"levelo_inurba_marseille","lat":43.30459,"lon":5.3789,"is_reserved":false,"is_disabled":false,"rental_uris":{"android":"levelo://app?vid=78e6d629-0d6a-4328-976e-5e2764cfd40c","ios":"levelo://app?vid=78e6d629-0d6a-4328-976e-5e2764cfd40c"},"vehicle_type_id":"4","last_reported":1729062573,"current_range_meters":29600,"station_id":"ce4bgup2rcd13ifvqcn0","pricing_plan_id":"cebpf4jnsgd1na2vs0mg"},{"bike_id":"bb8558a9-0ea5-4dc4-b74c-ca340316f094","system_id":"levelo_inurba_marseille","lat":43.2937,"lon":5.37824,"is_reserved":false,"is_disabled":false,"rental_uris":{"android":"levelo://app?vid=bb8558a9-0ea5-4dc4-b74c-ca340316f094","ios":"levelo://app?vid=bb8558a9-0ea5-4dc4-b74c-ca340316f094"},"vehicle_type_id":"4","last_reported":1729062573,"current_range_meters":37600,"station_id":"ce4bgjh2rcd13ifvqbf0","pricing_plan_id":"cebpf4jnsgd1na2vs0mg"},{"bike_id":"d41309ab-1a1f-4395-acaa-455483c3f8e1","system_id":"levelo_inurba_marseille","lat":43.23193,"lon":5.35557,"is_reserved":false,"is_disabled":false,"rental_uris":{"android":"levelo://app?vid=d41309ab-1a1f-4395-acaa-455483c3f8e1","ios":"levelo://app?vid=d41309ab-1a1f-4395-acaa-455483c3f8e1"},"vehicle_type_id":"4","last_reported":1729062573,"current_range_meters":28400,"station_id":"ce4bhu92rcd13ifvqi70","pricing_plan_id":"cebpf4jnsgd1na2vs0mg"},{"bike_id":"3b109c53-fa9a-4586-92ab-f7ae5cd658c5","system_id":"levelo_inurba_marseille","lat":43.30546,"lon":5.36554,"is_reserved":false,"is_disabled":false,"rental_uris":{"android":"levelo://app?vid=3b109c53-fa9a-4586-92ab-f7ae5cd658c5","ios":"levelo://app?vid=3b109c53-fa9a-4586-92ab-f7ae5cd658c5"},"vehicle_type_id":"4","last_reported":1729062573,"current_range_meters":34000,"station_id":"ce4bgs12rcd13ifvqcag","pricing_plan_id":"cebpf4jnsgd1na2vs0mg"},{"bike_id":"570e64c6-5df4-4ddb-87ac-e59cf9cc9367","system_id":"levelo_inurba_marseille","lat":43.33606,"lon":5.41025,"is_reserved":false,"is_disabled":false,"rental_uris":{"android":"levelo://app?vid=570e64c6-5df4-4ddb-87ac-e59cf9cc9367","ios":"levelo://app?vid=570e64c6-5df4-4ddb-87ac-e59cf9cc9367"},"vehicle_type_id":"4","last_reported":1729062573,"current_range_meters":32800,"station_id":"ce4bhqh2rcd13ifvqhmg","pricing_plan_id":"cebpf4jnsgd1na2vs0mg"},{"bike_id":"199a4da1-aac0-4426-942b-3be3b975f2ca","system_id":"levelo_inurba_marseille","lat":43.29416,"lon":5.38619,"is_reserved":false,"is_disabled":false,"rental_uris":{"android":"levelo://app?vid=199a4da1-aac0-4426-942b-3be3b975f2ca","ios":"levelo://app?vid=199a4da1-aac0-4426-942b-3be3b975f2ca"},"vehicle_type_id":"4","last_reported":1729062573,"current_range_meters":28800,"station_id":"ce4bgup2rcd13ifvqco0","pricing_plan_id":"cebpf4jnsgd1na2vs0mg"},{"bike_id":"520b287e-e9a7-4e86-925d-4c646ee32458","system_id":"levelo_inurba_marseille","lat":43.30303,"lon":5.39199,"is_reserved":false,"is_disabled":false,"rental_uris":{"android":"levelo://app?vid=520b287e-e9a7-4e86-925d-4c646ee32458","ios":"levelo://app?vid=520b287e-e9a7-4e86-925d-4c646ee32458"},"vehicle_type_id":"4","last_reported":1729062573,"current_range_meters":36000,"station_id":"ce4bgkh2rcd13ifvqbk0","pricing_plan_id":"cebpf4jnsgd1na2vs0mg"},{"bike_id":"6ef911d3-712e-495c-8b16-a9d320855567","system_id":"levelo_inurba_marseille","lat":43.27491,"lon":5.42449,"is_reserved":false,"is_disabled":false,"rental_uris":{"android":"levelo://app?vid=6ef911d3-712e-495c-8b16-a9d320855567","ios":"levelo://app?vid=6ef911d3-712e-495c-8b16-a9d320855567"},"vehicle_type_id":"4","last_reported":1729062573,"current_range_meters":38800,"station_id":"ce4bhn92rcd13ifvqgrg","pricing_plan_id":"cebpf4jnsgd1na2vs0mg"},{"bike_id":"150af00c-9b49-4909-bfb2-9a965e993c9e","system_id":"levelo_inurba_marseille","lat":43.31207,"lon":5.36859,"is_reserved":false,"is_disabled":false,"rental_uris":{"android":"levelo://app?vid=150af00c-9b49-4909-bfb2-9a965e993c9e","ios":"levelo://app?vid=150af00c-9b49-4909-bfb2-9a965e993c9e"},"vehicle_type_id":"4","last_reported":1729062573,"current_range_meters":12000,"station_id":"","pricing_plan_id":"cebpf4jnsgd1na2vs0mg"},{"bike_id":"b3581752-b046-4ddf-abd7-7802a26b818e","system_id":"levelo_inurba_marseille","lat":43.30278,"lon":5.37712,"is_reserved":false,"is_disabled":false,"rental_uris":{"android":"levelo://app?vid=b3581752-b046-4ddf-abd7-7802a26b818e","ios":"levelo://app?vid=b3581752-b046-4ddf-abd7-7802a26b818e"},"vehicle_type_id":"4","last_reported":1729062573,"current_range_meters":38000,"station_id":"ce4bguh2rcd13ifvqcj0","pricing_plan_id":"cebpf4jnsgd1na2vs0mg"},{"bike_id":"2d1c6d5b-c4b5-4047-a4c8-bf89bc26ba09","system_id":"levelo_inurba_marseille","lat":43.26933,"lon":5.38922,"is_reserved":false,"is_disabled":false,"rental_uris":{"android":"levelo://app?vid=2d1c6d5b-c4b5-4047-a4c8-bf89bc26ba09","ios":"levelo://app?vid=2d1c6d5b-c4b5-4047-a4c8-bf89bc26ba09"},"vehicle_type_id":"4","last_reported":1729062573,"current_range_meters":25600,"station_id":"ce4bhhh2rcd13ifvqfl0","pricing_plan_id":"cebpf4jnsgd1na2vs0mg"},{"bike_id":"78d4b4e3-74bb-44a2-a4c0-bd25c25bd768","system_id":"levelo_inurba_marseille","lat":43.30271,"lon":5.37704,"is_reserved":false,"is_disabled":false,"rental_uris":{"android":"levelo://app?vid=78d4b4e3-74bb-44a2-a4c0-bd25c25bd768","ios":"levelo://app?vid=78d4b4e3-74bb-44a2-a4c0-bd25c25bd768"},"vehicle_type_id":"4","last_reported":1729062573,"current_range_meters":30800,"station_id":"ce4bguh2rcd13ifvqcj0","pricing_plan_id":"cebpf4jnsgd1na2vs0mg"},{"bike_id":"1dd8350d-21d1-4ed7-b940-1729df17b899","system_id":"levelo_inurba_marseille","lat":43.27363,"lon":5.41007,"is_reserved":false,"is_disabled":false,"rental_uris":{"android":"levelo://app?vid=1dd8350d-21d1-4ed7-b940-1729df17b899","ios":"levelo://app?vid=1dd8350d-21d1-4ed7-b940-1729df17b899"},"vehicle_type_id":"4","last_reported":1729062573,"current_range_meters":30400,"station_id":"","pricing_plan_id":"cebpf4jnsgd1na2vs0mg"},{"bike_id":"6cdd2798-5db4-4f9a-a892-f16babf9ec5c","system_id":"levelo_inurba_marseille","lat":43.31354,"lon":5.36719,"is_reserved":false,"is_disabled":false,"rental_uris":{"android":"levelo://app?vid=6cdd2798-5db4-4f9a-a892-f16babf9ec5c","ios":"levelo://app?vid=6cdd2798-5db4-4f9a-a892-f16babf9ec5c"},"vehicle_type_id":"4","last_reported":1729062573,"current_range_meters":36000,"station_id":"ce4bgr92rcd13ifvqc6g","pricing_plan_id":"cebpf4jnsgd1na2vs0mg"},{"bike_id":"0cac5042-2075-4b66-8658-3a0f53449b77","system_id":"levelo_inurba_marseille","lat":43.30143,"lon":5.37412,"is_reserved":false,"is_disabled":false,"rental_uris":{"android":"levelo://app?vid=0cac5042-2075-4b66-8658-3a0f53449b77","ios":"levelo://app?vid=0cac5042-2075-4b66-8658-3a0f53449b77"},"vehicle_type_id":"4","last_reported":1729062573,"current_range_meters":32400,"station_id":"ce4bgs92rcd13ifvqcc0","pricing_plan_id":"cebpf4jnsgd1na2vs0mg"},{"bike_id":"eaa961e6-8342-4f30-8941-36ae2c9be4b7","system_id":"levelo_inurba_marseille","lat":43.24073,"lon":5.37763,"is_reserved":false,"is_disabled":false,"rental_uris":{"android":"levelo://app?vid=eaa961e6-8342-4f30-8941-36ae2c9be4b7","ios":"levelo://app?vid=eaa961e6-8342-4f30-8941-36ae2c9be4b7"},"vehicle_type_id":"4","last_reported":1729062573,"current_range_meters":18800,"station_id":"ce4bhnp2rcd13ifvqgvg","pricing_plan_id":"cebpf4jnsgd1na2vs0mg"},{"bike_id":"1af2813b-98a0-4b62-aaf8-89652b30f639","system_id":"levelo_inurba_marseille","lat":43.229319,"lon":5.353825,"is_reserved":false,"is_disabled":false,"rental_uris":{"android":"levelo://app?vid=1af2813b-98a0-4b62-aaf8-89652b30f639","ios":"levelo://app?vid=1af2813b-98a0-4b62-aaf8-89652b30f639"},"vehicle_type_id":"4","last_reported":1729062573,"current_range_meters":26000,"station_id":"cpo3532slgdg3j2ikp40","pricing_plan_id":"cebpf4jnsgd1na2vs0mg"},{"bike_id":"b5cd5f25-0ca1-42de-b89e-4089c6a49a2b","system_id":"levelo_inurba_marseille","lat":43.28359,"lon":5.38646,"is_reserved":false,"is_disabled":false,"rental_uris":{"android":"levelo://app?vid=b5cd5f25-0ca1-42de-b89e-4089c6a49a2b","ios":"levelo://app?vid=b5cd5f25-0ca1-42de-b89e-4089c6a49a2b"},"vehicle_type_id":"4","last_reported":1729062573,"current_range_meters":25200,"station_id":"ce4bh492rcd13ifvqdvg","pricing_plan_id":"cebpf4jnsgd1na2vs0mg"},{"bike_id":"00c969b0-af33-4e53-9df9-1e541192f413","system_id":"levelo_inurba_marseille","lat":43.29077,"lon":5.37176,"is_reserved":false,"is_disabled":false,"rental_uris":{"android":"levelo://app?vid=00c969b0-af33-4e53-9df9-1e541192f413","ios":"levelo://app?vid=00c969b0-af33-4e53-9df9-1e541192f413"},"vehicle_type_id":"4","last_reported":1729062573,"current_range_meters":34000,"station_id":"ce4bh5p2rcd13ifvqe4g","pricing_plan_id":"cebpf4jnsgd1na2vs0mg"},{"bike_id":"f93454e1-a669-4c63-a4ca-b572042c7971","system_id":"levelo_inurba_marseille","lat":43.2319,"lon":5.35558,"is_reserved":false,"is_disabled":false,"rental_uris":{"android":"levelo://app?vid=f93454e1-a669-4c63-a4ca-b572042c7971","ios":"levelo://app?vid=f93454e1-a669-4c63-a4ca-b572042c7971"},"vehicle_type_id":"4","last_reported":1729062573,"current_range_meters":21600,"station_id":"ce4bhu92rcd13ifvqi70","pricing_plan_id":"cebpf4jnsgd1na2vs0mg"},{"bike_id":"33884dc5-0a79-40bd-96e2-5d6c1d19c5ca","system_id":"levelo_inurba_marseille","lat":43.22933,"lon":5.35383,"is_reserved":false,"is_disabled":false,"rental_uris":{"android":"levelo://app?vid=33884dc5-0a79-40bd-96e2-5d6c1d19c5ca","ios":"levelo://app?vid=33884dc5-0a79-40bd-96e2-5d6c1d19c5ca"},"vehicle_type_id":"4","last_reported":1729062573,"current_range_meters":2800,"station_id":"cpo3532slgdg3j2ikp40","pricing_plan_id":"cebpf4jnsgd1na2vs0mg"},{"bike_id":"e8104696-fce7-4f2c-9773-28051a7880c7","system_id":"levelo_inurba_marseille","lat":43.33607,"lon":5.41029,"is_reserved":false,"is_disabled":false,"rental_uris":{"android":"levelo://app?vid=e8104696-fce7-4f2c-9773-28051a7880c7","ios":"levelo://app?vid=e8104696-fce7-4f2c-9773-28051a7880c7"},"vehicle_type_id":"4","last_reported":1729062573,"current_range_meters":22800,"station_id":"ce4bhqh2rcd13ifvqhmg","pricing_plan_id":"cebpf4jnsgd1na2vs0mg"},{"bike_id":"87d57219-be51-4968-bbab-c707372c87fa","system_id":"levelo_inurba_marseille","lat":43.31356,"lon":5.36727,"is_reserved":false,"is_disabled":false,"rental_uris":{"android":"levelo://app?vid=87d57219-be51-4968-bbab-c707372c87fa","ios":"levelo://app?vid=87d57219-be51-4968-bbab-c707372c87fa"},"vehicle_type_id":"4","last_reported":1729062573,"current_range_meters":38400,"station_id":"ce4bgr92rcd13ifvqc6g","pricing_plan_id":"cebpf4jnsgd1na2vs0mg"},{"bike_id":"1c502870-085a-42ea-89c8-9419bbbf5094","system_id":"levelo_inurba_marseille","lat":43.24074,"lon":5.37756,"is_reserved":false,"is_disabled":false,"rental_uris":{"android":"levelo://app?vid=1c502870-085a-42ea-89c8-9419bbbf5094","ios":"levelo://app?vid=1c502870-085a-42ea-89c8-9419bbbf5094"},"vehicle_type_id":"4","last_reported":1729062573,"current_range_meters":26800,"station_id":"ce4bhnp2rcd13ifvqgvg","pricing_plan_id":"cebpf4jnsgd1na2vs0mg"},{"bike_id":"1eac4f51-d59c-4dc7-aceb-3cb0b5e92169","system_id":"levelo_inurba_marseille","lat":43.2824,"lon":5.37004,"is_reserved":false,"is_disabled":false,"rental_uris":{"android":"levelo://app?vid=1eac4f51-d59c-4dc7-aceb-3cb0b5e92169","ios":"levelo://app?vid=1eac4f51-d59c-4dc7-aceb-3cb0b5e92169"},"vehicle_type_id":"4","last_reported":1729062573,"current_range_meters":37600,"station_id":"ce4bhh92rcd13ifvqfh0","pricing_plan_id":"cebpf4jnsgd1na2vs0mg"},{"bike_id":"695af1a8-1e2a-4a45-b781-e6b1fa4e2b6d","system_id":"levelo_inurba_marseille","lat":43.30905,"lon":5.36832,"is_reserved":false,"is_disabled":false,"rental_uris":{"android":"levelo://app?vid=695af1a8-1e2a-4a45-b781-e6b1fa4e2b6d","ios":"levelo://app?vid=695af1a8-1e2a-4a45-b781-e6b1fa4e2b6d"},"vehicle_type_id":"4","last_reported":1729062573,"current_range_meters":32000,"station_id":"ce4bgn92rcd13ifvqbvg","pricing_plan_id":"cebpf4jnsgd1na2vs0mg"},{"bike_id":"42297a5a-bc6a-48ec-a36e-6c5f7f1fbad7","system_id":"levelo_inurba_marseille","lat":43.24079,"lon":5.37748,"is_reserved":false,"is_disabled":false,"rental_uris":{"android":"levelo://app?vid=42297a5a-bc6a-48ec-a36e-6c5f7f1fbad7","ios":"levelo://app?vid=42297a5a-bc6a-48ec-a36e-6c5f7f1fbad7"},"vehicle_type_id":"4","last_reported":1729062573,"current_range_meters":31200,"station_id":"ce4bhnp2rcd13ifvqgvg","pricing_plan_id":"cebpf4jnsgd1na2vs0mg"},{"bike_id":"72562085-8eb9-4bad-8527-728fcde9650c","system_id":"levelo_inurba_marseille","lat":43.30908,"lon":5.36845,"is_reserved":false,"is_disabled":false,"rental_uris":{"android":"levelo://app?vid=72562085-8eb9-4bad-8527-728fcde9650c","ios":"levelo://app?vid=72562085-8eb9-4bad-8527-728fcde9650c"},"vehicle_type_id":"4","last_reported":1729062573,"current_range_meters":20800,"station_id":"ce4bgn92rcd13ifvqbvg","pricing_plan_id":"cebpf4jnsgd1na2vs0mg"},{"bike_id":"172d1eb7-31aa-4d45-9c79-93e9ed1f0f50","system_id":"levelo_inurba_marseille","lat":43.30904,"lon":5.36851,"is_reserved":false,"is_disabled":false,"rental_uris":{"android":"levelo://app?vid=172d1eb7-31aa-4d45-9c79-93e9ed1f0f50","ios":"levelo://app?vid=172d1eb7-31aa-4d45-9c79-93e9ed1f0f50"},"vehicle_type_id":"4","last_reported":1729062573,"current_range_meters":35600,"station_id":"ce4bgn92rcd13ifvqbvg","pricing_plan_id":"cebpf4jnsgd1na2vs0mg"},{"bike_id":"10335795-5662-490b-a5db-117b3c8024b3","system_id":"levelo_inurba_marseille","lat":43.26948,"lon":5.38631,"is_reserved":false,"is_disabled":false,"rental_uris":{"android":"levelo://app?vid=10335795-5662-490b-a5db-117b3c8024b3","ios":"levelo://app?vid=10335795-5662-490b-a5db-117b3c8024b3"},"vehicle_type_id":"4","last_reported":1729062573,"current_range_meters":38400,"station_id":"ce4bhh92rcd13ifvqfh0","pricing_plan_id":"cebpf4jnsgd1na2vs0mg"},{"bike_id":"2c14c84e-f628-4c47-b35e-ea4a33610811","system_id":"levelo_inurba_marseille","lat":43.27494,"lon":5.42451,"is_reserved":false,"is_disabled":false,"rental_uris":{"android":"levelo://app?vid=2c14c84e-f628-4c47-b35e-ea4a33610811","ios":"levelo://app?vid=2c14c84e-f628-4c47-b35e-ea4a33610811"},"vehicle_type_id":"4","last_reported":1729062573,"current_range_meters":32000,"station_id":"ce4bhn92rcd13ifvqgrg","pricing_plan_id":"cebpf4jnsgd1na2vs0mg"},{"bike_id":"57275cd0-dea8-4520-a7c7-433fbf253e62","system_id":"levelo_inurba_marseille","lat":43.27323,"lon":5.39093,"is_reserved":false,"is_disabled":false,"rental_uris":{"android":"levelo://app?vid=57275cd0-dea8-4520-a7c7-433fbf253e62","ios":"levelo://app?vid=57275cd0-dea8-4520-a7c7-433fbf253e62"},"vehicle_type_id":"4","last_reported":1729062573,"current_range_meters":23200,"station_id":"ce4bhgp2rcd13ifvqfe0","pricing_plan_id":"cebpf4jnsgd1na2vs0mg"},{"bike_id":"6fb995fd-43bf-462c-b142-f652a422b4f9","system_id":"levelo_inurba_marseille","lat":43.28711,"lon":5.37945,"is_reserved":false,"is_disabled":false,"rental_uris":{"android":"levelo://app?vid=6fb995fd-43bf-462c-b142-f652a422b4f9","ios":"levelo://app?vid=6fb995fd-43bf-462c-b142-f652a422b4f9"},"vehicle_type_id":"4","last_reported":1729062573,"current_range_meters":28800,"station_id":"ce4bh9p2rcd13ifvqec0","pricing_plan_id":"cebpf4jnsgd1na2vs0mg"},{"bike_id":"575c61a8-0bd3-4111-8f91-6858f637b413","system_id":"levelo_inurba_marseille","lat":43.29898,"lon":5.436622,"is_reserved":false,"is_disabled":false,"rental_uris":{"android":"levelo://app?vid=575c61a8-0bd3-4111-8f91-6858f637b413","ios":"levelo://app?vid=575c61a8-0bd3-4111-8f91-6858f637b413"},"vehicle_type_id":"4","last_reported":1729062573,"current_range_meters":37600,"station_id":"ce4bhpp2rcd13ifvqhfg","pricing_plan_id":"cebpf4jnsgd1na2vs0mg"},{"bike_id":"4eb63e24-c5ab-4dd1-ba66-8b29f534ad1b","system_id":"levelo_inurba_marseille","lat":43.30464,"lon":5.37903,"is_reserved":false,"is_disabled":false,"rental_uris":{"android":"levelo://app?vid=4eb63e24-c5ab-4dd1-ba66-8b29f534ad1b","ios":"levelo://app?vid=4eb63e24-c5ab-4dd1-ba66-8b29f534ad1b"},"vehicle_type_id":"4","last_reported":1729062573,"current_range_meters":19200,"station_id":"ce4bgup2rcd13ifvqcn0","pricing_plan_id":"cebpf4jnsgd1na2vs0mg"},{"bike_id":"b102e9d6-eac4-46d2-aca5-3310f35b3b20","system_id":"levelo_inurba_marseille","lat":43.27494,"lon":5.42462,"is_reserved":false,"is_disabled":false,"rental_uris":{"android":"levelo://app?vid=b102e9d6-eac4-46d2-aca5-3310f35b3b20","ios":"levelo://app?vid=b102e9d6-eac4-46d2-aca5-3310f35b3b20"},"vehicle_type_id":"4","last_reported":1729062573,"current_range_meters":27600,"station_id":"ce4bhn92rcd13ifvqgrg","pricing_plan_id":"cebpf4jnsgd1na2vs0mg"},{"bike_id":"52ac99c9-429c-4173-8c91-438318005830","system_id":"levelo_inurba_marseille","lat":43.24995,"lon":5.38936,"is_reserved":false,"is_disabled":false,"rental_uris":{"android":"levelo://app?vid=52ac99c9-429c-4173-8c91-438318005830","ios":"levelo://app?vid=52ac99c9-429c-4173-8c91-438318005830"},"vehicle_type_id":"4","last_reported":1729062573,"current_range_meters":33600,"station_id":"ce4bhgp2rcd13ifvqfd0","pricing_plan_id":"cebpf4jnsgd1na2vs0mg"},{"bike_id":"f3011250-56f0-4dd5-8ff3-8882f45bf8d6","system_id":"levelo_inurba_marseille","lat":43.27191,"lon":5.39006,"is_reserved":false,"is_disabled":false,"rental_uris":{"android":"levelo://app?vid=f3011250-56f0-4dd5-8ff3-8882f45bf8d6","ios":"levelo://app?vid=f3011250-56f0-4dd5-8ff3-8882f45bf8d6"},"vehicle_type_id":"4","last_reported":1729062573,"current_range_meters":30800,"station_id":"ce4bhh92rcd13ifvqfh0","pricing_plan_id":"cebpf4jnsgd1na2vs0mg"},{"bike_id":"b1d01c55-723a-4ea9-90d5-f159f20cd4fb","system_id":"levelo_inurba_marseille","lat":43.29368,"lon":5.3783,"is_reserved":false,"is_disabled":false,"rental_uris":{"android":"levelo://app?vid=b1d01c55-723a-4ea9-90d5-f159f20cd4fb","ios":"levelo://app?vid=b1d01c55-723a-4ea9-90d5-f159f20cd4fb"},"vehicle_type_id":"4","last_reported":1729062573,"current_range_meters":34800,"station_id":"ce4bgjh2rcd13ifvqbf0","pricing_plan_id":"cebpf4jnsgd1na2vs0mg"},{"bike_id":"dff21b7f-7876-4b58-badb-68c71297646c","system_id":"levelo_inurba_marseille","lat":43.30537,"lon":5.367,"is_reserved":false,"is_disabled":false,"rental_uris":{"android":"levelo://app?vid=dff21b7f-7876-4b58-badb-68c71297646c","ios":"levelo://app?vid=dff21b7f-7876-4b58-badb-68c71297646c"},"vehicle_type_id":"4","last_reported":1729062573,"current_range_meters":36800,"station_id":"ce4bgrp2rcd13ifvqc9g","pricing_plan_id":"cebpf4jnsgd1na2vs0mg"},{"bike_id":"9dcdc284-f90e-4bd8-8fbd-8ea80946ea5c","system_id":"levelo_inurba_marseille","lat":43.30353,"lon":5.41882,"is_reserved":false,"is_disabled":false,"rental_uris":{"android":"levelo://app?vid=9dcdc284-f90e-4bd8-8fbd-8ea80946ea5c","ios":"levelo://app?vid=9dcdc284-f90e-4bd8-8fbd-8ea80946ea5c"},"vehicle_type_id":"4","last_reported":1729062573,"current_range_meters":38000,"station_id":"ce4bhop2rcd13ifvqh7g","pricing_plan_id":"cebpf4jnsgd1na2vs0mg"},{"bike_id":"aea44b95-db21-4aed-8d96-e53e51cdb87e","system_id":"levelo_inurba_marseille","lat":43.27946,"lon":5.41035,"is_reserved":false,"is_disabled":false,"rental_uris":{"android":"levelo://app?vid=aea44b95-db21-4aed-8d96-e53e51cdb87e","ios":"levelo://app?vid=aea44b95-db21-4aed-8d96-e53e51cdb87e"},"vehicle_type_id":"4","last_reported":1729062573,"current_range_meters":36800,"station_id":"ce4bhnp2rcd13ifvqh0g","pricing_plan_id":"cebpf4jnsgd1na2vs0mg"},{"bike_id":"9e438387-db6b-46bf-bf86-df2fb23ac10e","system_id":"levelo_inurba_marseille","lat":43.2874,"lon":5.43322,"is_reserved":false,"is_disabled":false,"rental_uris":{"android":"levelo://app?vid=9e438387-db6b-46bf-bf86-df2fb23ac10e","ios":"levelo://app?vid=9e438387-db6b-46bf-bf86-df2fb23ac10e"},"vehicle_type_id":"4","last_reported":1729062573,"current_range_meters":6800,"station_id":"","pricing_plan_id":"cebpf4jnsgd1na2vs0mg"},{"bike_id":"0e520a80-67e3-443c-b5a8-eb416db0d354","system_id":"levelo_inurba_marseille","lat":43.28712,"lon":5.37944,"is_reserved":false,"is_disabled":false,"rental_uris":{"android":"levelo://app?vid=0e520a80-67e3-443c-b5a8-eb416db0d354","ios":"levelo://app?vid=0e520a80-67e3-443c-b5a8-eb416db0d354"},"vehicle_type_id":"4","last_reported":1729062573,"current_range_meters":38400,"station_id":"ce4bh9p2rcd13ifvqec0","pricing_plan_id":"cebpf4jnsgd1na2vs0mg"},{"bike_id":"064fdd74-154b-4ccf-9a66-b8bd6ea9a422","system_id":"levelo_inurba_marseille","lat":43.24077,"lon":5.37759,"is_reserved":false,"is_disabled":false,"rental_uris":{"android":"levelo://app?vid=064fdd74-154b-4ccf-9a66-b8bd6ea9a422","ios":"levelo://app?vid=064fdd74-154b-4ccf-9a66-b8bd6ea9a422"},"vehicle_type_id":"4","last_reported":1729062573,"current_range_meters":27600,"station_id":"ce4bhnp2rcd13ifvqgvg","pricing_plan_id":"cebpf4jnsgd1na2vs0mg"},{"bike_id":"9f494921-3623-4229-8019-18ca345739fb","system_id":"levelo_inurba_marseille","lat":43.29713,"lon":5.37695,"is_reserved":false,"is_disabled":false,"rental_uris":{"android":"levelo://app?vid=9f494921-3623-4229-8019-18ca345739fb","ios":"levelo://app?vid=9f494921-3623-4229-8019-18ca345739fb"},"vehicle_type_id":"4","last_reported":1729062573,"current_range_meters":28800,"station_id":"ce4bgkh2rcd13ifvqbl0","pricing_plan_id":"cebpf4jnsgd1na2vs0mg"},{"bike_id":"5a63799a-d9e5-4d78-a2bb-4e19b7b89a7e","system_id":"levelo_inurba_marseille","lat":43.2558,"lon":5.38233,"is_reserved":false,"is_disabled":false,"rental_uris":{"android":"levelo://app?vid=5a63799a-d9e5-4d78-a2bb-4e19b7b89a7e","ios":"levelo://app?vid=5a63799a-d9e5-4d78-a2bb-4e19b7b89a7e"},"vehicle_type_id":"4","last_reported":1729062573,"current_range_meters":36800,"station_id":"ce4bhih2rcd13ifvqfs0","pricing_plan_id":"cebpf4jnsgd1na2vs0mg"},{"bike_id":"182d787b-2358-4864-b3cb-c73c05d7d658","system_id":"levelo_inurba_marseille","lat":43.337444,"lon":5.374475,"is_reserved":false,"is_disabled":false,"rental_uris":{"android":"levelo://app?vid=182d787b-2358-4864-b3cb-c73c05d7d658","ios":"levelo://app?vid=182d787b-2358-4864-b3cb-c73c05d7d658"},"vehicle_type_id":"4","last_reported":1729062573,"current_range_meters":29600,"station_id":"","pricing_plan_id":"cebpf4jnsgd1na2vs0mg"},{"bike_id":"65db35e1-a365-4893-8bd3-e32fb3897dc1","system_id":"levelo_inurba_marseille","lat":43.27486,"lon":5.42454,"is_reserved":false,"is_disabled":false,"rental_uris":{"android":"levelo://app?vid=65db35e1-a365-4893-8bd3-e32fb3897dc1","ios":"levelo://app?vid=65db35e1-a365-4893-8bd3-e32fb3897dc1"},"vehicle_type_id":"4","last_reported":1729062573,"current_range_meters":30400,"station_id":"ce4bhn92rcd13ifvqgrg","pricing_plan_id":"cebpf4jnsgd1na2vs0mg"},{"bike_id":"ea627d66-8350-411b-b99e-7431fa2c14a6","system_id":"levelo_inurba_marseille","lat":43.27202,"lon":5.39182,"is_reserved":false,"is_disabled":false,"rental_uris":{"android":"levelo://app?vid=ea627d66-8350-411b-b99e-7431fa2c14a6","ios":"levelo://app?vid=ea627d66-8350-411b-b99e-7431fa2c14a6"},"vehicle_type_id":"4","last_reported":1729062573,"current_range_meters":36400,"station_id":"ce4bhhp2rcd13ifvqfm0","pricing_plan_id":"cebpf4jnsgd1na2vs0mg"},{"bike_id":"5af2e3cf-8305-44ea-98e8-5e8ba8009af2","system_id":"levelo_inurba_marseille","lat":43.26494,"lon":5.39532,"is_reserved":false,"is_disabled":false,"rental_uris":{"android":"levelo://app?vid=5af2e3cf-8305-44ea-98e8-5e8ba8009af2","ios":"levelo://app?vid=5af2e3cf-8305-44ea-98e8-5e8ba8009af2"},"vehicle_type_id":"4","last_reported":1729062573,"current_range_meters":33200,"station_id":"ce4bhi12rcd13ifvqfq0","pricing_plan_id":"cebpf4jnsgd1na2vs0mg"},{"bike_id":"2445e070-abff-4c61-bf1e-5d65aff7c191","system_id":"levelo_inurba_marseille","lat":43.3015,"lon":5.38072,"is_reserved":false,"is_disabled":false,"rental_uris":{"android":"levelo://app?vid=2445e070-abff-4c61-bf1e-5d65aff7c191","ios":"levelo://app?vid=2445e070-abff-4c61-bf1e-5d65aff7c191"},"vehicle_type_id":"4","last_reported":1729062573,"current_range_meters":38800,"station_id":"ce4bgjp2rcd13ifvqbh0","pricing_plan_id":"cebpf4jnsgd1na2vs0mg"},{"bike_id":"f269126c-1b0b-4a1a-a1d6-f8c3716f5336","system_id":"levelo_inurba_marseille","lat":43.23194,"lon":5.35551,"is_reserved":false,"is_disabled":false,"rental_uris":{"android":"levelo://app?vid=f269126c-1b0b-4a1a-a1d6-f8c3716f5336","ios":"levelo://app?vid=f269126c-1b0b-4a1a-a1d6-f8c3716f5336"},"vehicle_type_id":"4","last_reported":1729062573,"current_range_meters":28800,"station_id":"ce4bhu92rcd13ifvqi70","pricing_plan_id":"cebpf4jnsgd1na2vs0mg"},{"bike_id":"bbf60e1c-6103-485c-9966-c64db84701c3","system_id":"levelo_inurba_marseille","lat":43.31222,"lon":5.36863,"is_reserved":false,"is_disabled":false,"rental_uris":{"android":"levelo://app?vid=bbf60e1c-6103-485c-9966-c64db84701c3","ios":"levelo://app?vid=bbf60e1c-6103-485c-9966-c64db84701c3"},"vehicle_type_id":"4","last_reported":1729062573,"current_range_meters":16400,"station_id":"ce4bgl92rcd13ifvqbq0","pricing_plan_id":"cebpf4jnsgd1na2vs0mg"},{"bike_id":"de743e0b-cd3b-444d-b67b-f6d9b5a78eca","system_id":"levelo_inurba_marseille","lat":43.2714,"lon":5.38978,"is_reserved":false,"is_disabled":false,"rental_uris":{"android":"levelo://app?vid=de743e0b-cd3b-444d-b67b-f6d9b5a78eca","ios":"levelo://app?vid=de743e0b-cd3b-444d-b67b-f6d9b5a78eca"},"vehicle_type_id":"4","last_reported":1729062573,"current_range_meters":36400,"station_id":"ce4bhg92rcd13ifvqf90","pricing_plan_id":"cebpf4jnsgd1na2vs0mg"},{"bike_id":"53ea44ed-c13d-4e53-9c8d-7686c1c3b7db","system_id":"levelo_inurba_marseille","lat":43.23962,"lon":5.36638,"is_reserved":false,"is_disabled":false,"rental_uris":{"android":"levelo://app?vid=53ea44ed-c13d-4e53-9c8d-7686c1c3b7db","ios":"levelo://app?vid=53ea44ed-c13d-4e53-9c8d-7686c1c3b7db"},"vehicle_type_id":"4","last_reported":1729062573,"current_range_meters":38800,"station_id":"ce4bhi12rcd13ifvqfp0","pricing_plan_id":"cebpf4jnsgd1na2vs0mg"},{"bike_id":"7edd7948-a2f1-4e00-b005-221528afdd44","system_id":"levelo_inurba_marseille","lat":43.29847,"lon":5.36276,"is_reserved":false,"is_disabled":false,"rental_uris":{"android":"levelo://app?vid=7edd7948-a2f1-4e00-b005-221528afdd44","ios":"levelo://app?vid=7edd7948-a2f1-4e00-b005-221528afdd44"},"vehicle_type_id":"4","last_reported":1729062573,"current_range_meters":30000,"station_id":"ce4bgpp2rcd13ifvqc3g","pricing_plan_id":"cebpf4jnsgd1na2vs0mg"},{"bike_id":"8698c1b3-1ea3-4294-818d-f385ed45912f","system_id":"levelo_inurba_marseille","lat":43.29271,"lon":5.36846,"is_reserved":false,"is_disabled":false,"rental_uris":{"android":"levelo://app?vid=8698c1b3-1ea3-4294-818d-f385ed45912f","ios":"levelo://app?vid=8698c1b3-1ea3-4294-818d-f385ed45912f"},"vehicle_type_id":"4","last_reported":1729062573,"current_range_meters":38800,"station_id":"ce4bhbp2rcd13ifvqesg","pricing_plan_id":"cebpf4jnsgd1na2vs0mg"},