{"last_updated":1761819069,"ttl":60,"version":"2.2","data":{"bikes":[{"bike_id":"aacc01e3-6d9f-491a-b1ed-d10f639e29e2","system_id":"levelo_inurba_marseille","lat":43.337444,"lon":5.374475,"is_reserved":false,"is_disabled":false,"rental_uris":{"android":"levelo://app?vid=aacc01e3-6d9f-491a-b1ed-d10f639e29e2","ios":"levelo://app?vid=aacc01e3-6d9f-491a-b1ed-d10f639e29e2"},"vehicle_type_id":"4","last_reported":1761819069,"current_range_meters":0,"station_id":"","pricing_plan_id":"cebpf4jnsgd1na2vs0mg"},{"bike_id":"35ef2eb9-fe09-4124-a7ab-f792dcbd6ddc","system_id":"levelo_inurba_marseille","lat":43.337444,"lon":5.374475,"is_reserved":false,"is_disabled":false,"rental_uris":{"android":"levelo://app?vid=35ef2eb9-fe09-4124-a7ab-f792dcbd6ddc","ios":"levelo://app?vid=35ef2eb9-fe09-4124-a7ab-f792dcbd6ddc"},"vehicle_type_id":"4","last_reported":1761819069,"current_range_meters":0,"station_id":"","pricing_plan_id":"cebpf4jnsgd1na2vs0mg"},{"bike_id":"49ddb7e7-127c-434c-8992-2e05f2e3428d","system_id":"levelo_inurba_marseille","lat":43.337444,"lon":5.374475,"is_reserved":false,"is_disabled":false,"rental_uris":{"android":"levelo://app?vid=49ddb7e7-127c-434c-8992-2e05f2e3428d","ios":"levelo://app?vid=49ddb7e7-127c-434c-8992-2e05f2e3428d"},"vehicle_type_id":"4","last_reported":1761819069,"current_range_meters":0,"station_id":"","pricing_plan_id":"cebpf4jnsgd1na2vs0mg"},{"bike_id":"b3b460c5-2faa-45c2-8fde-7b54e8b4eaf5","system_id":"levelo_inurba_marseille","lat":43.337444,"lon":5.374475,"is_reserved":false,"is_disabled":false,"rental_uris":{"android":"levelo://app?vid=b3b460c5-2faa-45c2-8fde-7b54e8b4eaf5","ios":"levelo://app?vid=b3b460c5-2faa-45c2-8fde-7b54e8b4eaf5"},"vehicle_type_id":"4","last_reported":1761819069,"current_range_meters":0,"station_id":"","pricing_plan_id":"cebpf4jnsgd1na2vs0mg"},{"bike_id":"6b8eeff3-ec31-445f-be43-f1e3ba63fb37","system_id":"levelo_inurba_marseille","lat":43.337416,"lon":5.374586,"is_reserved":false,"is_disabled":false,"rental_uris":{"android":"levelo://app?vid=6b8eeff3-ec31-445f-be43-f1e3ba63fb37","ios":"levelo://app?vid=6b8eeff3-ec31-445f-be43-f1e3ba63fb37"},"vehicle_type_id":"4","last_reported":1761819069,"current_range_meters":0,"station_id":"","pricing_plan_id":"cebpf4jnsgd1na2vs0mg"},{"bike_id":"e0e86d10-d79a-47b9-82ad-a00ae7a62a8a","system_id":"levelo_inurba_marseille","lat":43.337444,"lon":5.374475,"is_reserved":false,"is_disabled":false,"rental_uris":{"android":"levelo://app?vid=e0e86d10-d79a-47b9-82ad-a00ae7a62a8a","ios":"levelo://app?vid=e0e86d10-d79a-47b9-82ad-a00ae7a62a8a"},"vehicle_type_id":"4","last_reported":1761819069,"current_range_meters":0,"station_id":"","pricing_plan_id":"cebpf4jnsgd1na2vs0mg"},{"bike_id":"548f1c45-4f2a-4cfe-b981-5bc1daecb21b","system_id":"levelo_inurba_marseille","lat":43.337444,"lon":5.374475,"is_reserved":false,"is_disabled":false,"rental_uris":{"android":"levelo://app?vid=548f1c45-4f2a-4cfe-b981-5bc1daecb21b","ios":"levelo://app?vid=548f1c45-4f2a-4cfe-b981-5bc1daecb21b"},"vehicle_type_id":"4","last_reported":1761819069,"current_range_meters":0,"station_id":"","pricing_plan_id":"cebpf4jnsgd1na2vs0mg"},{"bike_id":"5260dce0-6ede-4de4-b006-1466527b5fbe","system_id":"levelo_inurba_marseille","lat":43.337444,"lon":5.374475,"is_reserved":false,"is_disabled":false,"rental_uris":{"android":"levelo://app?vid=5260dce0-6ede-4de4-b006-1466527b5fbe","ios":"levelo://app?vid=5260dce0-6ede-4de4-b006-1466527b5fbe"},"vehicle_type_id":"4","last_reported":1761819069,"current_range_meters":0,"station_id":"","pricing_plan_id":"cebpf4jnsgd1na2vs0mg"},{"bike_id":"fb1816a3-8e74-463a-88d2-d6b63cf0a426","system_id":"levelo_inurba_marseille","lat":43.337444,"lon":5.374475,"is_reserved":false,"is_disabled":false,"rental_uris":{"android":"levelo://app?vid=fb1816a3-8e74-463a-88d2-d6b63cf0a426","ios":"levelo://app?vid=fb1816a3-8e74-463a-88d2-d6b63cf0a426"},"vehicle_type_id":"4","last_reported":1761819069,"current_range_meters":0,"station_id":"","pricing_plan_id":"cebpf4jnsgd1na2vs0mg"},{"bike_id":"3c881d8d-608f-4c39-9df3-b2aa54f8afcf","system_id":"levelo_inurba_marseille","lat":43.337444,"lon":5.374475,"is_reserved":false,"is_disabled":false,"rental_uris":{"android":"levelo://app?vid=3c881d8d-608f-4c39-9df3-b2aa54f8afcf","ios":"levelo://app?vid=3c881d8d-608f-4c39-9df3-b2aa54f8afcf"},"vehicle_type_id":"4","last_reported":1761819069,"current_range_meters":0,"station_id":"","pricing_plan_id":"cebpf4jnsgd1na2vs0mg"},{"bike_id":"a26e4937-215f-44d2-a8de-a7d3ec75d32b","system_id":"levelo_inurba_marseille","lat":43.337444,"lon":5.374475,"is_reserved":false,"is_disabled":false,"rental_uris":{"android":"levelo://app?vid=a26e4937-215f-44d2-a8de-a7d3ec75d32b","ios":"levelo://app?vid=a26e4937-215f-44d2-a8de-a7d3ec75d32b"},"vehicle_type_id":"4","last_reported":1761819069,"current_range_meters":0,"station_id":"","pricing_plan_id":"cebpf4jnsgd1na2vs0mg"},{"bike_id":"fadc4e19-b9ad-4402-a5bc-a0eff5c2b634","system_id":"levelo_inurba_marseille","lat":43.337444,"lon":5.374475,"is_reserved":false,"is_disabled":false,"rental_uris":{"android":"levelo://app?vid=fadc4e19-b9ad-4402-a5bc-a0eff5c2b634","ios":"levelo://app?vid=fadc4e19-b9ad-4402-a5bc-a0eff5c2b634"},"vehicle_type_id":"4","last_reported":1761819069,"current_range_meters":0,"station_id":"","pricing_plan_id":"cebpf4jnsgd1na2vs0mg"},{"bike_id":"e294c151-4441-4e4a-a116-13c66dfb9429","system_id":"levelo_inurba_marseille","lat":43.337444,"lon":5.374475,"is_reserved":false,"is_disabled":false,"rental_uris":{"android":"levelo://app?vid=e294c151-4441-4e4a-a116-13c66dfb9429","ios":"levelo://app?vid=e294c151-4441-4e4a-a116-13c66dfb9429"},"vehicle_type_id":"4","last_reported":1761819069,"current_range_meters":0,"station_id":"","pricing_plan_id":"cebpf4jnsgd1na2vs0mg"},{"bike_id":"0baff1cc-f548-40f7-a934-77958566d6a5","system_id":"levelo_inurba_marseille","lat":43.337444,"lon":5.374475,"is_reserved":false,"is_disabled":false,"rental_uris":{"android":"levelo://app?vid=0baff1cc-f548-40f7-a934-77958566d6a5","ios":"levelo://app?vid=0baff1cc-f548-40f7-a934-77958566d6a5"},"vehicle_type_id":"4","last_reported":1761819069,"current_range_meters":0,"station_id":"","pricing_plan_id":"cebpf4jnsgd1na2vs0mg"},{"bike_id":"1310c5d0-e39d-4b9c-84d7-1872f297ff18","system_id":"levelo_inurba_marseille","lat":43.337444,"lon":5.374475,"is_reserved":false,"is_disabled":false,"rental_uris":{"android":"levelo://app?vid=1310c5d0-e39d-4b9c-84d7-1872f297ff18","ios":"levelo://app?vid=1310c5d0-e39d-4b9c-84d7-1872f297ff18"},"vehicle_type_id":"4","last_reported":1761819069,"current_range_meters":0,"station_id":"","pricing_plan_id":"cebpf4jnsgd1na2vs0mg"},{"bike_id":"01eaacf7-8682-4054-bf38-52456d06e6f6","system_id":"levelo_inurba_marseille","lat":43.337444,"lon":5.374475,"is_reserved":false,"is_disabled":false,"rental_uris":{"android":"levelo://app?vid=01eaacf7-8682-4054-bf38-52456d06e6f6","ios":"levelo://app?vid=01eaacf7-8682-4054-bf38-52456d06e6f6"},"vehicle_type_id":"4","last_reported":1761819069,"current_range_meters":0,"station_id":"","pricing_plan_id":"cebpf4jnsgd1na2vs0mg"},{"bike_id":"4dbab57a-b708-409a-b815-3b9a5d92f753","system_id":"levelo_inurba_marseille","lat":43.337444,"lon":5.374475,"is_reserved":false,"is_disabled":false,"rental_uris":{"android":"levelo://app?vid=4dbab57a-b708-409a-b815-3b9a5d92f753","ios":"levelo://app?vid=4dbab57a-b708-409a-b815-3b9a5d92f753"},"vehicle_type_id":"4","last_reported":1761819069,"current_range_meters":0,"station_id":"","pricing_plan_id":"cebpf4jnsgd1na2vs0mg"},{"bike_id":"00f1260a-63f9-4663-ac1e-51258f9213bd","system_id":"levelo_inurba_marseille","lat":43.337444,"lon":5.374475,"is_reserved":false,"is_disabled":false,"rental_uris":{"android":"levelo://app?vid=00f1260a-63f9-4663-ac1e-51258f9213bd","ios":"levelo://app?vid=00f1260a-63f9-4663-ac1e-51258f9213bd"},"vehicle_type_id":"4","last_reported":1761819069,"current_range_meters":0,"station_id":"","pricing_plan_id":"cebpf4jnsgd1na2vs0mg"},{"bike_id":"50aa746e-d71a-437c-bb7a-ed648a03f81b","system_id":"levelo_inurba_marseille","lat":43.337444,"lon":5.374475,"is_reserved":false,"is_disabled":false,"rental_uris":{"android":"levelo://app?vid=50aa746e-d71a-437c-bb7a-ed648a03f81b","ios":"levelo://app?vid=50aa746e-d71a-437c-bb7a-ed648a03f81b"},"vehicle_type_id":"4","last_reported":1761819069,"current_range_meters":0,"station_id":"","pricing_plan_id":"cebpf4jnsgd1na2vs0mg"},{"bike_id":"3e68cf6e-17b6-46f5-8b08-d049449e0ca4","system_id":"levelo_inurba_marseille","lat":43.337444,"lon":5.374475,"is_reserved":false,"is_disabled":false,"rental_uris":{"android":"levelo://app?vid=3e68cf6e-17b6-46f5-8b08-d049449e0ca4","ios":"levelo://app?vid=3e68cf6e-17b6-46f5-8b08-d049449e0ca4"},"vehicle_type_id":"4","last_reported":1761819069,"current_range_meters":0,"station_id":"","pricing_plan_id":"cebpf4jnsgd1na2vs0mg"},{"bike_id":"b06c4997-7e4f-467a-922f-92f2f2e27e9d","system_id":"levelo_inurba_marseille","lat":43.337444,"lon":5.374475,"is_reserved":false,"is_disabled":false,"rental_uris":{"android":"levelo://app?vid=b06c4997-7e4f-467a-922f-92f2f2e27e9d","ios":"levelo://app?vid=b06c4997-7e4f-467a-922f-92f2f2e27e9d"},"vehicle_type_id":"4","last_reported":1761819069,"current_range_meters":0,"station_id":"","pricing_plan_id":"cebpf4jnsgd1na2vs0mg"},{"bike_id":"bb49b980-4cfb-49a5-9add-f3f9d4fc6db5","system_id":"levelo_inurba_marseille","lat":43.337444,"lon":5.374475,"is_reserved":false,"is_disabled":false,"rental_uris":{"android":"levelo://app?vid=bb49b980-4cfb-49a5-9add-f3f9d4fc6db5","ios":"levelo://app?vid=bb49b980-4cfb-49a5-9add-f3f9d4fc6db5"},"vehicle_type_id":"4","last_reported":1761819069,"current_range_meters":0,"station_id":"","pricing_plan_id":"cebpf4jnsgd1na2vs0mg"},{"bike_id":"b97206fc-6c94-4378-926a-a788d4f71c09","system_id":"levelo_inurba_marseille","lat":43.337444,"lon":5.374475,"is_reserved":false,"is_disabled":false,"rental_uris":{"android":"levelo://app?vid=b97206fc-6c94-4378-926a-a788d4f71c09","ios":"levelo://app?vid=b97206fc-6c94-4378-926a-a788d4f71c09"},"vehicle_type_id":"4","last_reported":1761819069,"current_range_meters":0,"station_id":"","pricing_plan_id":"cebpf4jnsgd1na2vs0mg"},{"bike_id":"37d7ebf5-2b3d-4af3-a7cd-4f29f464d5a0","system_id":"levelo_inurba_marseille","lat":43.337444,"lon":5.374475,"is_reserved":false,"is_disabled":false,"rental_uris":{"android":"levelo://app?vid=37d7ebf5-2b3d-4af3-a7cd-4f29f464d5a0","ios":"levelo://app?vid=37d7ebf5-2b3d-4af3-a7cd-4f29f464d5a0"},"vehicle_type_id":"4","last_reported":1761819069,"current_range_meters":0,"station_id":"","pricing_plan_id":"cebpf4jnsgd1na2vs0mg"},{"bike_id":"4ce4318f-b763-4325-8589-2aecbcc80add","system_id":"levelo_inurba_marseille","lat":43.337444,"lon":5.374475,"is_reserved":false,"is_disabled":false,"rental_uris":{"android":"levelo://app?vid=4ce4318f-b763-4325-8589-2aecbcc80add","ios":"levelo://app?vid=4ce4318f-b763-4325-8589-2aecbcc80add"},"vehicle_type_id":"4","last_reported":1761819069,"current_range_meters":0,"station_id":"","pricing_plan_id":"cebpf4jnsgd1na2vs0mg"},{"bike_id":"a6a3a590-5c2a-4683-a516-e9f5572de0f8","system_id":"levelo_inurba_marseille","lat":43.337444,"lon":5.374475,"is_reserved":false,"is_disabled":false,"rental_uris":{"android":"levelo://app?vid=a6a3a590-5c2a-4683-a516-e9f5572de0f8","ios":"levelo://app?vid=a6a3a590-5c2a-4683-a516-e9f5572de0f8"},"vehicle_type_id":"4","last_reported":1761819069,"current_range_meters":0,"station_id":"","pricing_plan_id":"cebpf4jnsgd1na2vs0mg"},{"bike_id":"111bdd74-3ae9-48f5-979c-2e177e7747d9","system_id":"levelo_inurba_marseille","lat":43.337444,"lon":5.374475,"is_reserved":false,"is_disabled":false,"rental_uris":{"android":"levelo://app?vid=111bdd74-3ae9-48f5-979c-2e177e7747d9","ios":"levelo://app?vid=111bdd74-3ae9-48f5-979c-2e177e7747d9"},"vehicle_type_id":"4","last_reported":1761819069,"current_range_meters":0,"station_id":"","pricing_plan_id":"cebpf4jnsgd1na2vs0mg"},{"bike_id":"b9d871b8-65b0-40af-afa3-0bf2492a45a9","system_id":"levelo_inurba_marseille","lat":43.337444,"lon":5.374475,"is_reserved":false,"is_disabled":false,"rental_uris":{"android":"levelo://app?vid=b9d871b8-65b0-40af-afa3-0bf2492a45a9","ios":"levelo://app?vid=b9d871b8-65b0-40af-afa3-0bf2492a45a9"},"vehicle_type_id":"4","last_reported":1761819069,"current_range_meters":0,"station_id":"","pricing_plan_id":"cebpf4jnsgd1na2vs0mg"},{"bike_id":"5bec735e-fcf4-48c7-8bdc-29590fc410b1","system_id":"levelo_inurba_marseille","lat":43.337444,"lon":5.374475,"is_reserved":false,"is_disabled":false,"rental_uris":{"android":"levelo://app?vid=5bec735e-fcf4-48c7-8bdc-29590fc410b1","ios":"levelo://app?vid=5bec735e-fcf4-48c7-8bdc-29590fc410b1"},"vehicle_type_id":"4","last_reported":1761819069,"current_range_meters":0,"station_id":"","pricing_plan_id":"cebpf4jnsgd1na2vs0mg"},{"bike_id":"026e76ec-bb30-48a3-8407-a17635ff5e4d","system_id":"levelo_inurba_marseille","lat":43.337444,"lon":5.374475,"is_reserved":false,"is_disabled":false,"rental_uris":{"android":"levelo://app?vid=026e76ec-bb30-48a3-8407-a17635ff5e4d","ios":"levelo://app?vid=026e76ec-bb30-48a3-8407-a17635ff5e4d"},"vehicle_type_id":"4","last_reported":1761819069,"current_range_meters":0,"station_id":"","pricing_plan_id":"cebpf4jnsgd1na2vs0mg"},{"bike_id":"46d34bff-7ac4-476c-bd3e-8e7dba53c807","system_id":"levelo_inurba_marseille","lat":43.337444,"lon":5.374475,"is_reserved":false,"is_disabled":false,"rental_uris":{"android":"levelo://app?vid=46d34bff-7ac4-476c-bd3e-8e7dba53c807","ios":"levelo://app?vid=46d34bff-7ac4-476c-bd3e-8e7dba53c807"},"vehicle_type_id":"4","last_reported":1761819069,"current_range_meters":0,"station_id":"","pricing_plan_id":"cebpf4jnsgd1na2vs0mg"},{"bike_id":"2c7e37d6-d4ca-47ae-a0e0-a648dd4e1706","system_id":"levelo_inurba_marseille","lat":43.337444,"lon":5.374475,"is_reserved":false,"is_disabled":false,"rental_uris":{"android":"levelo://app?vid=2c7e37d6-d4ca-47ae-a0e0-a648dd4e1706","ios":"levelo://app?vid=2c7e37d6-d4ca-47ae-a0e0-a648dd4e1706"},"vehicle_type_id":"4","last_reported":1761819069,"current_range_meters":0,"station_id":"","pricing_plan_id":"cebpf4jnsgd1na2vs0mg"},{"bike_id":"94eee6a6-2463-4d2a-b222-3ef19356212a","system_id":"levelo_inurba_marseille","lat":43.337444,"lon":5.374475,"is_reserved":false,"is_disabled":false,"rental_uris":{"android":"levelo://app?vid=94eee6a6-2463-4d2a-b222-3ef19356212a","ios":"levelo://app?vid=94eee6a6-2463-4d2a-b222-3ef19356212a"},"vehicle_type_id":"4","last_reported":1761819069,"current_range_meters":0,"station_id":"","pricing_plan_id":"cebpf4jnsgd1na2vs0mg"},{"bike_id":"4592e008-320c-4bcd-ae3b-d140e613f684","system_id":"levelo_inurba_marseille","lat":43.337444,"lon":5.374475,"is_reserved":false,"is_disabled":false,"rental_uris":{"android":"levelo://app?vid=4592e008-320c-4bcd-ae3b-d140e613f684","ios":"levelo://app?vid=4592e008-320c-4bcd-ae3b-d140e613f684"},"vehicle_type_id":"4","last_reported":1761819069,"current_range_meters":0,"station_id":"","pricing_plan_id":"cebpf4jnsgd1na2vs0mg"},{"bike_id":"5807ce94-1b62-42db-8c77-9488accc83d5","system_id":"levelo_inurba_marseille","lat":43.337444,"lon":5.374475,"is_reserved":false,"is_disabled":false,"rental_uris":{"android":"levelo://app?vid=5807ce94-1b62-42db-8c77-9488accc83d5","ios":"levelo://app?vid=5807ce94-1b62-42db-8c77-9488accc83d5"},"vehicle_type_id":"4","last_reported":1761819069,"current_range_meters":0,"station_id":"","pricing_plan_id":"cebpf4jnsgd1na2vs0mg"},{"bike_id":"34a6505b-4395-498a-b923-f12aa363c542","system_id":"levelo_inurba_marseille","lat":43.229286,"lon":5.353836,"is_reserved":false,"is_disabled":false,"rental_uris":{"android":"levelo://app?vid=34a6505b-4395-498a-b923-f12aa363c542","ios":"levelo://app?vid=34a6505b-4395-498a-b923-f12aa363c542"},"vehicle_type_id":"4","last_reported":1761819069,"current_range_meters":2800,"station_id":"cpo3532slgdg3j2ikp40","pricing_plan_id":"cebpf4jnsgd1na2vs0mg"},{"bike_id":"c8584d73-c370-4981-b64e-880519b246e9","system_id":"levelo_inurba_marseille","lat":43.308944,"lon":5.391327,"is_reserved":false,"is_disabled":false,"rental_uris":{"android":"levelo://app?vid=c8584d73-c370-4981-b64e-880519b246e9","ios":"levelo://app?vid=c8584d73-c370-4981-b64e-880519b246e9"},"vehicle_type_id":"4","last_reported":1761819069,"current_range_meters":3200,"station_id":"","pricing_plan_id":"cebpf4jnsgd1na2vs0mg"},{"bike_id":"ed566c19-f5d1-45b9-a266-532dd2900ea2","system_id":"levelo_inurba_marseille","lat":43.29616,"lon":5.37732,"is_reserved":false,"is_disabled":false,"rental_uris":{"android":"levelo://app?vid=ed566c19-f5d1-45b9-a266-532dd2900ea2","ios":"levelo://app?vid=ed566c19-f5d1-45b9-a266-532dd2900ea2"},"vehicle_type_id":"4","last_reported":1761819069,"current_range_meters":4000,"station_id":"ce4bgi92rcd13ifvqb90","pricing_plan_id":"cebpf4jnsgd1na2vs0mg"},{"bike_id":"095e9067-e2d2-40c2-972b-c655c5b8b053","system_id":"levelo_inurba_marseille","lat":43.29003,"lon":5.35609,"is_reserved":false,"is_disabled":false,"rental_uris":{"android":"levelo://app?vid=095e9067-e2d2-40c2-972b-c655c5b8b053","ios":"levelo://app?vid=095e9067-e2d2-40c2-972b-c655c5b8b053"},"vehicle_type_id":"4","last_reported":1761819069,"current_range_meters":4000,"station_id":"ce4bhb92rcd13ifvqen0","pricing_plan_id":"cebpf4jnsgd1na2vs0mg"},{"bike_id":"1ae187ee-045c-4a60-a53c-501731ca5a1f","system_id":"levelo_inurba_marseille","lat":43.24995,"lon":5.38932,"is_reserved":false,"is_disabled":false,"rental_uris":{"android":"levelo://app?vid=1ae187ee-045c-4a60-a53c-501731ca5a1f","ios":"levelo://app?vid=1ae187ee-045c-4a60-a53c-501731ca5a1f"},"vehicle_type_id":"4","last_reported":1761819069,"current_range_meters":4400,"station_id":"ce4bhgp2rcd13ifvqfd0","pricing_plan_id":"cebpf4jnsgd1na2vs0mg"},{"bike_id":"528647ef-6a9e-4cc1-93de-daea05e31fcf","system_id":"levelo_inurba_marseille","lat":43.24818,"lon":5.37446,"is_reserved":false,"is_disabled":false,"rental_uris":{"android":"levelo://app?vid=528647ef-6a9e-4cc1-93de-daea05e31fcf","ios":"levelo://app?vid=528647ef-6a9e-4cc1-93de-daea05e31fcf"},"vehicle_type_id":"4","last_reported":1761819069,"current_range_meters":4400,"station_id":"ce4bhgh2rcd13ifvqfb0","pricing_plan_id":"cebpf4jnsgd1na2vs0mg"},{"bike_id":"d5ca831f-8041-403e-ada8-7b4196c3d5be","system_id":"levelo_inurba_marseille","lat":43.293714,"lon":5.379385,"is_reserved":false,"is_disabled":false,"rental_uris":{"android":"levelo://app?vid=d5ca831f-8041-403e-ada8-7b4196c3d5be","ios":"levelo://app?vid=d5ca831f-8041-403e-ada8-7b4196c3d5be"},"vehicle_type_id":"4","last_reported":1761819069,"current_range_meters":4400,"station_id":"","pricing_plan_id":"cebpf4jnsgd1na2vs0mg"},{"bike_id":"dedac15c-0957-4582-a00e-b1116b3cf1a4","system_id":"levelo_inurba_marseille","lat":43.30952,"lon":5.39048,"is_reserved":false,"is_disabled":false,"rental_uris":{"android":"levelo://app?vid=dedac15c-0957-4582-a00e-b1116b3cf1a4","ios":"levelo://app?vid=dedac15c-0957-4582-a00e-b1116b3cf1a4"},"vehicle_type_id":"4","last_reported":1761819069,"current_range_meters":4800,"station_id":"ce4bgup2rcd13ifvqco0","pricing_plan_id":"cebpf4jnsgd1na2vs0mg"},{"bike_id":"03645830-c22e-44d9-833e-31dea579848c","system_id":"levelo_inurba_marseille","lat":43.25011,"lon":5.38913,"is_reserved":false,"is_disabled":false,"rental_uris":{"android":"levelo://app?vid=03645830-c22e-44d9-833e-31dea579848c","ios":"levelo://app?vid=03645830-c22e-44d9-833e-31dea579848c"},"vehicle_type_id":"4","last_reported":1761819069,"current_range_meters":4800,"station_id":"ce4bhgp2rcd13ifvqfd0","pricing_plan_id":"cebpf4jnsgd1na2vs0mg"},{"bike_id":"6734ea4f-81f3-48a5-98ff-eb52308bd657","system_id":"levelo_inurba_marseille","lat":43.27943,"lon":5.41037,"is_reserved":false,"is_disabled":true,"rental_uris":{"android":"levelo://app?vid=6734ea4f-81f3-48a5-98ff-eb52308bd657","ios":"levelo://app?vid=6734ea4f-81f3-48a5-98ff-eb52308bd657"},"vehicle_type_id":"4","last_reported":1761819069,"current_range_meters":5600,"station_id":"ce4bhnp2rcd13ifvqh0g","pricing_plan_id":"cebpf4jnsgd1na2vs0mg"},{"bike_id":"96eb1989-c128-445d-8c9b-ec34676f501e","system_id":"levelo_inurba_marseille","lat":43.28883,"lon":5.42512,"is_reserved":false,"is_disabled":false,"rental_uris":{"android":"levelo://app?vid=96eb1989-c128-445d-8c9b-ec34676f501e","ios":"levelo://app?vid=96eb1989-c128-445d-8c9b-ec34676f501e"},"vehicle_type_id":"4","last_reported":1761819069,"current_range_meters":5600,"station_id":"st_d3b462108ojc7389ooeg","pricing_plan_id":"cebpf4jnsgd1na2vs0mg"},{"bike_id":"e8cecdc3-ea04-4bed-a2e8-e4ef75d8bb5c","system_id":"levelo_inurba_marseille","lat":43.21755,"lon":5.3459,"is_reserved":false,"is_disabled":false,"rental_uris":{"android":"levelo://app?vid=e8cecdc3-ea04-4bed-a2e8-e4ef75d8bb5c","ios":"levelo://app?vid=e8cecdc3-ea04-4bed-a2e8-e4ef75d8bb5c"},"vehicle_type_id":"4","last_reported":1761819069,"current_range_meters":5600,"station_id":"st_cvj6r9ubvosntc0bgbag","pricing_plan_id":"cebpf4jnsgd1na2vs0mg"},{"bike_id":"97d63067-2189-405e-99fa-15ac5938aa5c","system_id":"levelo_inurba_marseille","lat":43.26683,"lon":5.38273,"is_reserved":false,"is_disabled":false,"rental_uris":{"android":"levelo://app?vid=97d63067-2189-405e-99fa-15ac5938aa5c","ios":"levelo://app?vid=97d63067-2189-405e-99fa-15ac5938aa5c"},"vehicle_type_id":"4","last_reported":1761819069,"current_range_meters":6000,"station_id":"ce4bhg92rcd13ifvqf90","pricing_plan_id":"cebpf4jnsgd1na2vs0mg"},{"bike_id":"48cc5a83-cf07-471a-9479-5a71011e485c","system_id":"levelo_inurba_marseille","lat":43.3137,"lon":5.36703,"is_reserved":false,"is_disabled":false,"rental_uris":{"android":"levelo://app?vid=48cc5a83-cf07-471a-9479-5a71011e485c","ios":"levelo://app?vid=48cc5a83-cf07-471a-9479-5a71011e485c"},"vehicle_type_id":"4","last_reported":1761819069,"current_range_meters":6400,"station_id":"ce4bgr92rcd13ifvqc6g","pricing_plan_id":"cebpf4jnsgd1na2vs0mg"},{"bike_id":"031ba078-e36f-4ed3-889c-1fe60e3a92e8","system_id":"levelo_inurba_marseille","lat":43.27076,"lon":5.42261,"is_reserved":false,"is_disabled":false,"rental_uris":{"android":"levelo://app?vid=031ba078-e36f-4ed3-889c-1fe60e3a92e8","ios":"levelo://app?vid=031ba078-e36f-4ed3-889c-1fe60e3a92e8"},"vehicle_type_id":"4","last_reported":1761819069,"current_range_meters":6400,"station_id":"ce4bhk92rcd13ifvqgb0","pricing_plan_id":"cebpf4jnsgd1na2vs0mg"},{"bike_id":"f6adb9c1-4a78-4322-baec-aa5f6f5d93b6","system_id":"levelo_inurba_marseille","lat":43.337896,"lon":5.374361,"is_reserved":false,"is_disabled":false,"rental_uris":{"android":"levelo://app?vid=f6adb9c1-4a78-4322-baec-aa5f6f5d93b6","ios":"levelo://app?vid=f6adb9c1-4a78-4322-baec-aa5f6f5d93b6"},"vehicle_type_id":"4","last_reported":1761819069,"current_range_meters":6400,"station_id":"","pricing_plan_id":"cebpf4jnsgd1na2vs0mg"},{"bike_id":"a854663b-e4b1-4e8f-9c57-e2613d9cc5ef","system_id":"levelo_inurba_marseille","lat":43.3014,"lon":5.37413,"is_reserved":false,"is_disabled":false,"rental_uris":{"android":"levelo://app?vid=a854663b-e4b1-4e8f-9c57-e2613d9cc5ef","ios":"levelo://app?vid=a854663b-e4b1-4e8f-9c57-e2613d9cc5ef"},"vehicle_type_id":"4","last_reported":1761819069,"current_range_meters":6400,"station_id":"ce4bgs92rcd13ifvqcc0","pricing_plan_id":"cebpf4jnsgd1na2vs0mg"},{"bike_id":"df4a7072-9a99-4388-960f-688f83a92f17","system_id":"levelo_inurba_marseille","lat":43.29548,"lon":5.42289,"is_reserved":false,"is_disabled":false,"rental_uris":{"android":"levelo://app?vid=df4a7072-9a99-4388-960f-688f83a92f17","ios":"levelo://app?vid=df4a7072-9a99-4388-960f-688f83a92f17"},"vehicle_type_id":"4","last_reported":1761819069,"current_range_meters":6800,"station_id":"ce4bhph2rcd13ifvqhdg","pricing_plan_id":"cebpf4jnsgd1na2vs0mg"},{"bike_id":"ae8ebe94-fc0f-4409-8f77-39eb5c613a67","system_id":"levelo_inurba_marseille","lat":43.337444,"lon":5.374475,"is_reserved":false,"is_disabled":false,"rental_uris":{"android":"levelo://app?vid=ae8ebe94-fc0f-4409-8f77-39eb5c613a67","ios":"levelo://app?vid=ae8ebe94-fc0f-4409-8f77-39eb5c613a67"},"vehicle_type_id":"4","last_reported":1761819069,"current_range_meters":7200,"station_id":"","pricing_plan_id":"cebpf4jnsgd1na2vs0mg"},{"bike_id":"36f778b3-4bc9-4308-b228-223c251626b5","system_id":"levelo_inurba_marseille","lat":43.30152,"lon":5.39828,"is_reserved":false,"is_disabled":false,"rental_uris":{"android":"levelo://app?vid=36f778b3-4bc9-4308-b228-223c251626b5","ios":"levelo://app?vid=36f778b3-4bc9-4308-b228-223c251626b5"},"vehicle_type_id":"4","last_reported":1761819069,"current_range_meters":7200,"station_id":"ce4bh0h2rcd13ifvqd40","pricing_plan_id":"cebpf4jnsgd1na2vs0mg"},{"bike_id":"c9c87355-3b52-4212-a571-208926c11bf2","system_id":"levelo_inurba_marseille","lat":43.337444,"lon":5.374475,"is_reserved":false,"is_disabled":false,"rental_uris":{"android":"levelo://app?vid=c9c87355-3b52-4212-a571-208926c11bf2","ios":"levelo://app?vid=c9c87355-3b52-4212-a571-208926c11bf2"},"vehicle_type_id":"4","last_reported":1761819069,"current_range_meters":7200,"station_id":"ce4bhq12rcd13ifvqhig","pricing_plan_id":"cebpf4jnsgd1na2vs0mg"},{"bike_id":"81caa585-89ee-4dae-a848-ab01ffd6c881","system_id":"levelo_inurba_marseille","lat":43.27548,"lon":5.395853,"is_reserved":false,"is_disabled":false,"rental_uris":{"android":"levelo://app?vid=81caa585-89ee-4dae-a848-ab01ffd6c881","ios":"levelo://app?vid=81caa585-89ee-4dae-a848-ab01ffd6c881"},"vehicle_type_id":"4","last_reported":1761819069,"current_range_meters":7200,"station_id":"ce4bhdp2rcd13ifvqf20","pricing_plan_id":"cebpf4jnsgd1na2vs0mg"},{"bike_id":"b21e983f-4e68-424b-952a-db89481066fb","system_id":"levelo_inurba_marseille","lat":43.29621,"lon":5.37167,"is_reserved":false,"is_disabled":false,"rental_uris":{"android":"levelo://app?vid=b21e983f-4e68-424b-952a-db89481066fb","ios":"levelo://app?vid=b21e983f-4e68-424b-952a-db89481066fb"},"vehicle_type_id":"4","last_reported":1761819069,"current_range_meters":7200,"station_id":"ce4bgnh2rcd13ifvqc0g","pricing_plan_id":"cebpf4jnsgd1na2vs0mg"},{"bike_id":"fd09dbe7-0bec-431b-9705-875a0c7a7829","system_id":"levelo_inurba_marseille","lat":43.23069,"lon":5.35482,"is_reserved":false,"is_disabled":false,"rental_uris":{"android":"levelo://app?vid=fd09dbe7-0bec-431b-9705-875a0c7a7829","ios":"levelo://app?vid=fd09dbe7-0bec-431b-9705-875a0c7a7829"},"vehicle_type_id":"4","last_reported":1761819069,"current_range_meters":8000,"station_id":"cpo3342slgdg3j2ifvpg","pricing_plan_id":"cebpf4jnsgd1na2vs0mg"},{"bike_id":"5f63bd5a-98a8-4b17-b4b2-a2eab663b359","system_id":"levelo_inurba_marseille","lat":43.28136,"lon":5.40284,"is_reserved":false,"is_disabled":false,"rental_uris":{"android":"levelo://app?vid=5f63bd5a-98a8-4b17-b4b2-a2eab663b359","ios":"levelo://app?vid=5f63bd5a-98a8-4b17-b4b2-a2eab663b359"},"vehicle_type_id":"4","last_reported":1761819069,"current_range_meters":8000,"station_id":"","pricing_plan_id":"cebpf4jnsgd1na2vs0mg"},{"bike_id":"8332d995-7a21-4e07-9332-1dd3603a8bf8","system_id":"levelo_inurba_marseille","lat":43.28212,"lon":5.3905,"is_reserved":false,"is_disabled":false,"rental_uris":{"android":"levelo://app?vid=8332d995-7a21-4e07-9332-1dd3603a8bf8","ios":"levelo://app?vid=8332d995-7a21-4e07-9332-1dd3603a8bf8"},"vehicle_type_id":"4","last_reported":1761819069,"current_range_meters":8000,"station_id":"ce4bhn92rcd13ifvqgsg","pricing_plan_id":"cebpf4jnsgd1na2vs0mg"},{"bike_id":"d03f6b0e-52f1-4b1d-aa37-63c36e7ad0bf","system_id":"levelo_inurba_marseille","lat":43.308929,"lon":5.372035,"is_reserved":false,"is_disabled":false,"rental_uris":{"android":"levelo://app?vid=d03f6b0e-52f1-4b1d-aa37-63c36e7ad0bf","ios":"levelo://app?vid=d03f6b0e-52f1-4b1d-aa37-63c36e7ad0bf"},"vehicle_type_id":"4","last_reported":1761819069,"current_range_meters":8400,"station_id":"ce4bguh2rcd13ifvqckg","pricing_plan_id":"cebpf4jnsgd1na2vs0mg"},{"bike_id":"db44b42f-a90d-46a1-b87a-fdd1f30e728a","system_id":"levelo_inurba_marseille","lat":43.29263,"lon":5.40901,"is_reserved":false,"is_disabled":false,"rental_uris":{"android":"levelo://app?vid=db44b42f-a90d-46a1-b87a-fdd1f30e728a","ios":"levelo://app?vid=db44b42f-a90d-46a1-b87a-fdd1f30e728a"},"vehicle_type_id":"4","last_reported":1761819069,"current_range_meters":8400,"station_id":"ce4bh192rcd13ifvqdc0","pricing_plan_id":"cebpf4jnsgd1na2vs0mg"},{"bike_id":"66cd56cc-8c5e-4097-90d5-a6a39a5de3bd","system_id":"levelo_inurba_marseille","lat":43.27817,"lon":5.40712,"is_reserved":false,"is_disabled":false,"rental_uris":{"android":"levelo://app?vid=66cd56cc-8c5e-4097-90d5-a6a39a5de3bd","ios":"levelo://app?vid=66cd56cc-8c5e-4097-90d5-a6a39a5de3bd"},"vehicle_type_id":"4","last_reported":1761819069,"current_range_meters":8800,"station_id":"ce4bhnh2rcd13ifvqgtg","pricing_plan_id":"cebpf4jnsgd1na2vs0mg"},{"bike_id":"bb423be3-b250-4e22-85e9-4b181dbadbd9","system_id":"levelo_inurba_marseille","lat":43.23152,"lon":5.43691,"is_reserved":false,"is_disabled":false,"rental_uris":{"android":"levelo://app?vid=bb423be3-b250-4e22-85e9-4b181dbadbd9","ios":"levelo://app?vid=bb423be3-b250-4e22-85e9-4b181dbadbd9"},"vehicle_type_id":"4","last_reported":1761819069,"current_range_meters":8800,"station_id":"ce4bhmp2rcd13ifvqgog","pricing_plan_id":"cebpf4jnsgd1na2vs0mg"},{"bike_id":"f6190ced-b032-472c-ab1b-69f0c67fa4ee","system_id":"levelo_inurba_marseille","lat":43.260257,"lon":5.375468,"is_reserved":false,"is_disabled":false,"rental_uris":{"android":"levelo://app?vid=f6190ced-b032-472c-ab1b-69f0c67fa4ee","ios":"levelo://app?vid=f6190ced-b032-472c-ab1b-69f0c67fa4ee"},"vehicle_type_id":"4","last_reported":1761819069,"current_range_meters":9200,"station_id":"ce4bhgh2rcd13ifvqfa0","pricing_plan_id":"cebpf4jnsgd1na2vs0mg"},{"bike_id":"673731f2-133c-40e3-aec4-58242675aac6","system_id":"levelo_inurba_marseille","lat":43.29875,"lon":5.39727,"is_reserved":false,"is_disabled":false,"rental_uris":{"android":"levelo://app?vid=673731f2-133c-40e3-aec4-58242675aac6","ios":"levelo://app?vid=673731f2-133c-40e3-aec4-58242675aac6"},"vehicle_type_id":"4","last_reported":1761819069,"current_range_meters":9200,"station_id":"ce4bh0h2rcd13ifvqd50","pricing_plan_id":"cebpf4jnsgd1na2vs0mg"},{"bike_id":"17ff035e-409e-4458-867b-1da8925d1024","system_id":"levelo_inurba_marseille","lat":43.27922,"lon":5.39575,"is_reserved":false,"is_disabled":false,"rental_uris":{"android":"levelo://app?vid=17ff035e-409e-4458-867b-1da8925d1024","ios":"levelo://app?vid=17ff035e-409e-4458-867b-1da8925d1024"},"vehicle_type_id":"4","last_reported":1761819069,"current_range_meters":9600,"station_id":"ce4bhf92rcd13ifvqf40","pricing_plan_id":"cebpf4jnsgd1na2vs0mg"},{"bike_id":"5f4fe946-ad6a-4bfd-80a9-00b1fa1943f0","system_id":"levelo_inurba_marseille","lat":43.23785,"lon":5.36632,"is_reserved":false,"is_disabled":false,"rental_uris":{"android":"levelo://app?vid=5f4fe946-ad6a-4bfd-80a9-00b1fa1943f0","ios":"levelo://app?vid=5f4fe946-ad6a-4bfd-80a9-00b1fa1943f0"},"vehicle_type_id":"4","last_reported":1761819069,"current_range_meters":9600,"station_id":"st_d3nk18o9ro0c73en2l3g","pricing_plan_id":"cebpf4jnsgd1na2vs0mg"},{"bike_id":"9a1140fc-36c4-43be-bd1f-490cfd2006f5","system_id":"levelo_inurba_marseille","lat":43.303289,"lon":5.404302,"is_reserved":false,"is_disabled":false,"rental_uris":{"android":"levelo://app?vid=9a1140fc-36c4-43be-bd1f-490cfd2006f5","ios":"levelo://app?vid=9a1140fc-36c4-43be-bd1f-490cfd2006f5"},"vehicle_type_id":"4","last_reported":1761819069,"current_range_meters":9600,"station_id":"ce4bh012rcd13ifvqd10","pricing_plan_id":"cebpf4jnsgd1na2vs0mg"},{"bike_id":"faee4aed-34d1-4e59-9f3e-bc2337688920","system_id":"levelo_inurba_marseille","lat":43.31717,"lon":5.437071,"is_reserved":false,"is_disabled":true,"rental_uris":{"android":"levelo://app?vid=faee4aed-34d1-4e59-9f3e-bc2337688920","ios":"levelo://app?vid=faee4aed-34d1-4e59-9f3e-bc2337688920"},"vehicle_type_id":"4","last_reported":1761819069,"current_range_meters":9600,"station_id":"ce4bhp92rcd13ifvqhcg","pricing_plan_id":"cebpf4jnsgd1na2vs0mg"},{"bike_id":"e3260d53-1f31-4048-a6b1-57d9b1375877","system_id":"levelo_inurba_marseille","lat":43.285367,"lon":5.440952,"is_reserved":false,"is_disabled":false,"rental_uris":{"android":"levelo://app?vid=e3260d53-1f31-4048-a6b1-57d9b1375877","ios":"levelo://app?vid=e3260d53-1f31-4048-a6b1-57d9b1375877"},"vehicle_type_id":"4","last_reported":1761819069,"current_range_meters":10000,"station_id":"st_d3j3df2ikq2c7380ej80","pricing_plan_id":"cebpf4jnsgd1na2vs0mg"},{"bike_id":"f2490e6a-d59e-419e-ad90-25d5ce1a3314","system_id":"levelo_inurba_marseille","lat":43.28534,"lon":5.44101,"is_reserved":false,"is_disabled":false,"rental_uris":{"android":"levelo://app?vid=f2490e6a-d59e-419e-ad90-25d5ce1a3314","ios":"levelo://app?vid=f2490e6a-d59e-419e-ad90-25d5ce1a3314"},"vehicle_type_id":"4","last_reported":1761819069,"current_range_meters":10000,"station_id":"st_d3j3df2ikq2c7380ej80","pricing_plan_id":"cebpf4jnsgd1na2vs0mg"},{"bike_id":"02e59e68-5c0c-4eee-8ff3-a325004c688f","system_id":"levelo_inurba_marseille","lat":43.29572,"lon":5.3751,"is_reserved":false,"is_disabled":false,"rental_uris":{"android":"levelo://app?vid=02e59e68-5c0c-4eee-8ff3-a325004c688f","ios":"levelo://app?vid=02e59e68-5c0c-4eee-8ff3-a325004c688f"},"vehicle_type_id":"4","last_reported":1761819069,"current_range_meters":10000,"station_id":"ce4bgh92rcd13ifvqb50","pricing_plan_id":"cebpf4jnsgd1na2vs0mg"},{"bike_id":"e74e8c31-97fd-46b3-84ee-8de43c53a371","system_id":"levelo_inurba_marseille","lat":43.29607,"lon":5.37368,"is_reserved":false,"is_disabled":false,"rental_uris":{"android":"levelo://app?vid=e74e8c31-97fd-46b3-84ee-8de43c53a371","ios":"levelo://app?vid=e74e8c31-97fd-46b3-84ee-8de43c53a371"},"vehicle_type_id":"4","last_reported":1761819069,"current_range_meters":10000,"station_id":"","pricing_plan_id":"cebpf4jnsgd1na2vs0mg"},{"bike_id":"4644b8ac-affa-4d50-b2ae-974d32d38290","system_id":"levelo_inurba_marseille","lat":43.30806,"lon":5.43525,"is_reserved":false,"is_disabled":false,"rental_uris":{"android":"levelo://app?vid=4644b8ac-affa-4d50-b2ae-974d32d38290","ios":"levelo://app?vid=4644b8ac-affa-4d50-b2ae-974d32d38290"},"vehicle_type_id":"4","last_reported":1761819069,"current_range_meters":10000,"station_id":"","pricing_plan_id":"cebpf4jnsgd1na2vs0mg"},{"bike_id":"e90f8e3d-5517-4b83-8fc5-0e57aa475e7a","system_id":"levelo_inurba_marseille","lat":43.29791,"lon":5.38084,"is_reserved":false,"is_disabled":false,"rental_uris":{"android":"levelo://app?vid=e90f8e3d-5517-4b83-8fc5-0e57aa475e7a","ios":"levelo://app?vid=e90f8e3d-5517-4b83-8fc5-0e57aa475e7a"},"vehicle_type_id":"4","last_reported":1761819069,"current_range_meters":10800,"station_id":"ce4bgip2rcd13ifvqbb0","pricing_plan_id":"cebpf4jnsgd1na2vs0mg"},{"bike_id":"a3a35106-60f3-4cbb-bb8c-eab7e2661743","system_id":"levelo_inurba_marseille","lat":43.25817,"lon":5.39417,"is_reserved":false,"is_disabled":false,"rental_uris":{"android":"levelo://app?vid=a3a35106-60f3-4cbb-bb8c-eab7e2661743","ios":"levelo://app?vid=a3a35106-60f3-4cbb-bb8c-eab7e2661743"},"vehicle_type_id":"4","last_reported":1761819069,"current_range_meters":10800,"station_id":"ce4bhip2rcd13ifvqft0","pricing_plan_id":"cebpf4jnsgd1na2vs0mg"},{"bike_id":"917f843f-b8ce-4a45-83bb-a91c2b32a37c","system_id":"levelo_inurba_marseille","lat":43.27327,"lon":5.39073,"is_reserved":false,"is_disabled":false,"rental_uris":{"android":"levelo://app?vid=917f843f-b8ce-4a45-83bb-a91c2b32a37c","ios":"levelo://app?vid=917f843f-b8ce-4a45-83bb-a91c2b32a37c"},"vehicle_type_id":"4","last_reported":1761819069,"current_range_meters":11200,"station_id":"ce4bhgp2rcd13ifvqfe0","pricing_plan_id":"cebpf4jnsgd1na2vs0mg"},{"bike_id":"b0ea8058-5638-4c6a-a3e5-0b8d546e8640","system_id":"levelo_inurba_marseille","lat":43.29219,"lon":5.380181,"is_reserved":false,"is_disabled":false,"rental_uris":{"android":"levelo://app?vid=b0ea8058-5638-4c6a-a3e5-0b8d546e8640","ios":"levelo://app?vid=b0ea8058-5638-4c6a-a3e5-0b8d546e8640"},"vehicle_type_id":"4","last_reported":1761819069,"current_range_meters":11600,"station_id":"ce4bh512rcd13ifvqe2g","pricing_plan_id":"cebpf4jnsgd1na2vs0mg"},{"bike_id":"e2c32aec-4a25-41c3-9f3e-e8882f918d6d","system_id":"levelo_inurba_marseille","lat":43.25931,"lon":5.40899,"is_reserved":false,"is_disabled":false,"rental_uris":{"android":"levelo://app?vid=e2c32aec-4a25-41c3-9f3e-e8882f918d6d","ios":"levelo://app?vid=e2c32aec-4a25-41c3-9f3e-e8882f918d6d"},"vehicle_type_id":"4","last_reported":1761819069,"current_range_meters":11600,"station_id":"ce4bhm92rcd13ifvqglg","pricing_plan_id":"cebpf4jnsgd1na2vs0mg"},{"bike_id":"8783ac60-a0b0-4622-b7ce-c9670bd47b89","system_id":"levelo_inurba_marseille","lat":43.30542,"lon":5.36529,"is_reserved":false,"is_disabled":false,"rental_uris":{"android":"levelo://app?vid=8783ac60-a0b0-4622-b7ce-c9670bd47b89","ios":"levelo://app?vid=8783ac60-a0b0-4622-b7ce-c9670bd47b89"},"vehicle_type_id":"4","last_reported":1761819069,"current_range_meters":11600,"station_id":"ce4bgs12rcd13ifvqcag","pricing_plan_id":"cebpf4jnsgd1na2vs0mg"},{"bike_id":"f0adbc82-23c7-440d-a051-0c3132d5ec3f","system_id":"levelo_inurba_marseille","lat":43.297258,"lon":5.37672,"is_reserved":false,"is_disabled":false,"rental_uris":{"android":"levelo://app?vid=f0adbc82-23c7-440d-a051-0c3132d5ec3f","ios":"levelo://app?vid=f0adbc82-23c7-440d-a051-0c3132d5ec3f"},"vehicle_type_id":"4","last_reported":1761819069,"current_range_meters":11600,"station_id":"ce4bgi92rcd13ifvqb90","pricing_plan_id":"cebpf4jnsgd1na2vs0mg"},{"bike_id":"00e5df0f-1cb7-420a-b470-616dc5cd7798","system_id":"levelo_inurba_marseille","lat":43.23062,"lon":5.35493,"is_reserved":false,"is_disabled":false,"rental_uris":{"android":"levelo://app?vid=00e5df0f-1cb7-420a-b470-616dc5cd7798","ios":"levelo://app?vid=00e5df0f-1cb7-420a-b470-616dc5cd7798"},"vehicle_type_id":"4","last_reported":1761819069,"current_range_meters":12000,"station_id":"cpo3342slgdg3j2ifvpg","pricing_plan_id":"cebpf4jnsgd1na2vs0mg"},{"bike_id":"d02b1aa8-14fe-4c69-9587-7041c8ee53b4","system_id":"levelo_inurba_marseille","lat":43.26779,"lon":5.39432,"is_reserved":false,"is_disabled":false,"rental_uris":{"android":"levelo://app?vid=d02b1aa8-14fe-4c69-9587-7041c8ee53b4","ios":"levelo://app?vid=d02b1aa8-14fe-4c69-9587-7041c8ee53b4"},"vehicle_type_id":"4","last_reported":1761819069,"current_range_meters":12000,"station_id":"ce4bhh12rcd13ifvqfg0","pricing_plan_id":"cebpf4jnsgd1na2vs0mg"},{"bike_id":"3fe4cb5f-ebeb-46b8-a29b-bf8e9ee185ac","system_id":"levelo_inurba_marseille","lat":43.25944,"lon":5.40893,"is_reserved":false,"is_disabled":false,"rental_uris":{"android":"levelo://app?vid=3fe4cb5f-ebeb-46b8-a29b-bf8e9ee185ac","ios":"levelo://app?vid=3fe4cb5f-ebeb-46b8-a29b-bf8e9ee185ac"},"vehicle_type_id":"4","last_reported":1761819069,"current_range_meters":12000,"station_id":"ce4bhm92rcd13ifvqglg","pricing_plan_id":"cebpf4jnsgd1na2vs0mg"},{"bike_id":"ac149381-0525-4389-ac71-92f1f5bb1883","system_id":"levelo_inurba_marseille","lat":43.279503,"lon":5.395704,"is_reserved":false,"is_disabled":false,"rental_uris":{"android":"levelo://app?vid=ac149381-0525-4389-ac71-92f1f5bb1883","ios":"levelo://app?vid=ac149381-0525-4389-ac71-92f1f5bb1883"},"vehicle_type_id":"4","last_reported":1761819069,"current_range_meters":12000,"station_id":"ce4bhf92rcd13ifvqf40","pricing_plan_id":"cebpf4jnsgd1na2vs0mg"},{"bike_id":"8f8bc35f-4914-4b7a-8d83-31c1009102ce","system_id":"levelo_inurba_marseille","lat":43.24632,"lon":5.43145,"is_reserved":false,"is_disabled":false,"rental_uris":{"android":"levelo://app?vid=8f8bc35f-4914-4b7a-8d83-31c1009102ce","ios":"levelo://app?vid=8f8bc35f-4914-4b7a-8d83-31c1009102ce"},"vehicle_type_id":"4","last_reported":1761819069,"current_range_meters":12400,"station_id":"st_d2m6c4gdas8pm72e190g","pricing_plan_id":"cebpf4jnsgd1na2vs0mg"},{"bike_id":"6132fbb0-fb1f-4c42-a930-257bf68886c2","system_id":"levelo_inurba_marseille","lat":43.30939,"lon":5.36841,"is_reserved":false,"is_disabled":false,"rental_uris":{"android":"levelo://app?vid=6132fbb0-fb1f-4c42-a930-257bf68886c2","ios":"levelo://app?vid=6132fbb0-fb1f-4c42-a930-257bf68886c2"},"vehicle_type_id":"4","last_reported":1761819069,"current_range_meters":12400,"station_id":"ce4bgn92rcd13ifvqbvg","pricing_plan_id":"cebpf4jnsgd1na2vs0mg"},{"bike_id":"39457fe9-f08e-4a74-a542-c3f8ab40e65c","system_id":"levelo_inurba_marseille","lat":43.30951,"lon":5.39064,"is_reserved":false,"is_disabled":false,"rental_uris":{"android":"levelo://app?vid=39457fe9-f08e-4a74-a542-c3f8ab40e65c","ios":"levelo://app?vid=39457fe9-f08e-4a74-a542-c3f8ab40e65c"},"vehicle_type_id":"4","last_reported":1761819069,"current_range_meters":12400,"station_id":"ce4bgup2rcd13ifvqco0","pricing_plan_id":"cebpf4jnsgd1na2vs0mg"},{"bike_id":"8062c369-ff3b-4a48-b2ef-d270e82c4cf4","system_id":"levelo_inurba_marseille","lat":43.23074,"lon":5.35479,"is_reserved":false,"is_disabled":false,"rental_uris":{"android":"levelo://app?vid=8062c369-ff3b-4a48-b2ef-d270e82c4cf4","ios":"levelo://app?vid=8062c369-ff3b-4a48-b2ef-d270e82c4cf4"},"vehicle_type_id":"4","last_reported":1761819069,"current_range_meters":12800,"station_id":"cpo3342slgdg3j2ifvpg","pricing_plan_id":"cebpf4jnsgd1na2vs0mg"},{"bike_id":"9a47f147-cf75-4f32-8fd7-5af99662d3a5","system_id":"levelo_inurba_marseille","lat":43.25942,"lon":5.40896,"is_reserved":false,"is_disabled":false,"rental_uris":{"android":"levelo://app?vid=9a47f147-cf75-4f32-8fd7-5af99662d3a5","ios":"levelo://app?vid=9a47f147-cf75-4f32-8fd7-5af99662d3a5"},"vehicle_type_id":"4","last_reported":1761819069,"current_range_meters":12800,"station_id":"ce4bhm92rcd13ifvqglg","pricing_plan_id":"cebpf4jnsgd1na2vs0mg"},{"bike_id":"a2f4b4ce-4709-4e06-84e2-c932e645733b","system_id":"levelo_inurba_marseille","lat":43.21768,"lon":5.34595,"is_reserved":false,"is_disabled":false,"rental_uris":{"android":"levelo://app?vid=a2f4b4ce-4709-4e06-84e2-c932e645733b","ios":"levelo://app?vid=a2f4b4ce-4709-4e06-84e2-c932e645733b"},"vehicle_type_id":"4","last_reported":1761819069,"current_range_meters":13600,"station_id":"st_cvj6r9ubvosntc0bgbag","pricing_plan_id":"cebpf4jnsgd1na2vs0mg"},{"bike_id":"83a205f6-62c8-44cd-bad5-42dcf8b25626","system_id":"levelo_inurba_marseille","lat":43.29157,"lon":5.3716,"is_reserved":false,"is_disabled":false,"rental_uris":{"android":"levelo://app?vid=83a205f6-62c8-44cd-bad5-42dcf8b25626","ios":"levelo://app?vid=83a205f6-62c8-44cd-bad5-42dcf8b25626"},"vehicle_type_id":"4","last_reported":1761819069,"current_range_meters":13600,"station_id":"ce4bha92rcd13ifvqeh0","pricing_plan_id":"cebpf4jnsgd1na2vs0mg"},{"bike_id":"b250a777-4b8d-4104-8d4d-4cf432814998","system_id":"levelo_inurba_marseille","lat":43.28669,"lon":5.38541,"is_reserved":false,"is_disabled":false,"rental_uris":{"android":"levelo://app?vid=b250a777-4b8d-4104-8d4d-4cf432814998","ios":"levelo://app?vid=b250a777-4b8d-4104-8d4d-4cf432814998"},"vehicle_type_id":"4","last_reported":1761819069,"current_range_meters":14000,"station_id":"","pricing_plan_id":"cebpf4jnsgd1na2vs0mg"},{"bike_id":"a4a81a3a-b1a5-4e69-b8f2-fc130ffc3362","system_id":"levelo_inurba_marseille","lat":43.26566,"lon":5.37293,"is_reserved":false,"is_disabled":false,"rental_uris":{"android":"levelo://app?vid=a4a81a3a-b1a5-4e69-b8f2-fc130ffc3362","ios":"levelo://app?vid=a4a81a3a-b1a5-4e69-b8f2-fc130ffc3362"},"vehicle_type_id":"4","last_reported":1761819069,"current_range_meters":14000,"station_id":"ce4bhg12rcd13ifvqf70","pricing_plan_id":"cebpf4jnsgd1na2vs0mg"},{"bike_id":"80e4b505-b6f1-4cdd-a7f8-a8938c173329","system_id":"levelo_inurba_marseille","lat":43.24181,"lon":5.39722,"is_reserved":false,"is_disabled":false,"rental_uris":{"android":"levelo://app?vid=80e4b505-b6f1-4cdd-a7f8-a8938c173329","ios":"levelo://app?vid=80e4b505-b6f1-4cdd-a7f8-a8938c173329"},"vehicle_type_id":"4","last_reported":1761819069,"current_range_meters":14000,"station_id":"ce4bhn12rcd13ifvqgpg","pricing_plan_id":"cebpf4jnsgd1na2vs0mg"},{"bike_id":"53b9ea54-1899-4571-ab75-8d3245809a5a","system_id":"levelo_inurba_marseille","lat":43.23061,"lon":5.35487,"is_reserved":false,"is_disabled":false,"rental_uris":{"android":"levelo://app?vid=53b9ea54-1899-4571-ab75-8d3245809a5a","ios":"levelo://app?vid=53b9ea54-1899-4571-ab75-8d3245809a5a"},"vehicle_type_id":"4","last_reported":1761819069,"current_range_meters":14000,"station_id":"cpo3342slgdg3j2ifvpg","pricing_plan_id":"cebpf4jnsgd1na2vs0mg"},{"bike_id":"86c193ed-e97a-463b-a260-c4a737ea768c","system_id":"levelo_inurba_marseille","lat":43.25329,"lon":5.42174,"is_reserved":false,"is_disabled":true,"rental_uris":{"android":"levelo://app?vid=86c193ed-e97a-463b-a260-c4a737ea768c","ios":"levelo://app?vid=86c193ed-e97a-463b-a260-c4a737ea768c"},"vehicle_type_id":"4","last_reported":1761819069,"current_range_meters":14400,"station_id":"st_d2m65c5bi1j21697t3ng","pricing_plan_id":"cebpf4jnsgd1na2vs0mg"},{"bike_id":"75df00d1-b79d-4514-b45c-0d363788a217","system_id":"levelo_inurba_marseille","lat":43.32106,"lon":5.36776,"is_reserved":false,"is_disabled":false,"rental_uris":{"android":"levelo://app?vid=75df00d1-b79d-4514-b45c-0d363788a217","ios":"levelo://app?vid=75df00d1-b79d-4514-b45c-0d363788a217"},"vehicle_type_id":"4","last_reported":1761819069,"current_range_meters":14400,"station_id":"ce4bhrh2rcd13ifvqhug","pricing_plan_id":"cebpf4jnsgd1na2vs0mg"},{"bike_id":"868c9f67-46db-40c2-8054-2388a5f9841e","system_id":"levelo_inurba_marseille","lat":43.32375,"lon":5.36765,"is_reserved":false,"is_disabled":false,"rental_uris":{"android":"levelo://app?vid=868c9f67-46db-40c2-8054-2388a5f9841e","ios":"levelo://app?vid=868c9f67-46db-40c2-8054-2388a5f9841e"},"vehicle_type_id":"4","last_reported":1761819069,"current_range_meters":14400,"station_id":"ce4bhsh2rcd13ifvqi2g","pricing_plan_id":"cebpf4jnsgd1na2vs0mg"},{"bike_id":"b88480bc-d045-4dad-8391-aed34d4f22b1","system_id":"levelo_inurba_marseille","lat":43.30957,"lon":5.39038,"is_reserved":false,"is_disabled":false,"rental_uris":{"android":"levelo://app?vid=b88480bc-d045-4dad-8391-aed34d4f22b1","ios":"levelo://app?vid=b88480bc-d045-4dad-8391-aed34d4f22b1"},"vehicle_type_id":"4","last_reported":1761819069,"current_range_meters":14400,"station_id":"ce4bgup2rcd13ifvqco0","pricing_plan_id":"cebpf4jnsgd1na2vs0mg"},{"bike_id":"3a499934-9140-435e-968f-fa10dd280f36","system_id":"levelo_inurba_marseille","lat":43.246477,"lon":5.431394,"is_reserved":false,"is_disabled":false,"rental_uris":{"android":"levelo://app?vid=3a499934-9140-435e-968f-fa10dd280f36","ios":"levelo://app?vid=3a499934-9140-435e-968f-fa10dd280f36"},"vehicle_type_id":"4","last_reported":1761819069,"current_range_meters":14800,"station_id":"st_d2m6c4gdas8pm72e190g","pricing_plan_id":"cebpf4jnsgd1na2vs0mg"},{"bike_id":"0c003ebf-0f85-4149-8935-7c08c6a5cd23","system_id":"levelo_inurba_marseille","lat":43.24173,"lon":5.36396,"is_reserved":false,"is_disabled":false,"rental_uris":{"android":"levelo://app?vid=0c003ebf-0f85-4149-8935-7c08c6a5cd23","ios":"levelo://app?vid=0c003ebf-0f85-4149-8935-7c08c6a5cd23"},"vehicle_type_id":"4","last_reported":1761819069,"current_range_meters":14800,"station_id":"cpo36qri1sfpv3e86is0","pricing_plan_id":"cebpf4jnsgd1na2vs0mg"},{"bike_id":"5ed22620-fadc-47f0-8dc7-e64058d61112","system_id":"levelo_inurba_marseille","lat":43.27689,"lon":5.38864,"is_reserved":false,"is_disabled":false,"rental_uris":{"android":"levelo://app?vid=5ed22620-fadc-47f0-8dc7-e64058d61112","ios":"levelo://app?vid=5ed22620-fadc-47f0-8dc7-e64058d61112"},"vehicle_type_id":"4","last_reported":1761819069,"current_range_meters":14800,"station_id":"ce4bhi12rcd13ifvqfo0","pricing_plan_id":"cebpf4jnsgd1na2vs0mg"},{"bike_id":"15e2c5dd-bae1-46fb-906a-d29fa37d6e53","system_id":"levelo_inurba_marseille","lat":43.31322,"lon":5.37277,"is_reserved":false,"is_disabled":false,"rental_uris":{"android":"levelo://app?vid=15e2c5dd-bae1-46fb-906a-d29fa37d6e53","ios":"levelo://app?vid=15e2c5dd-bae1-46fb-906a-d29fa37d6e53"},"vehicle_type_id":"4","last_reported":1761819069,"current_range_meters":14800,"station_id":"","pricing_plan_id":"cebpf4jnsgd1na2vs0mg"},{"bike_id":"38271bdc-29a6-475b-909c-e43ec5d3bc75","system_id":"levelo_inurba_marseille","lat":43.24086,"lon":5.37752,"is_reserved":false,"is_disabled":false,"rental_uris":{"android":"levelo://app?vid=38271bdc-29a6-475b-909c-e43ec5d3bc75","ios":"levelo://app?vid=38271bdc-29a6-475b-909c-e43ec5d3bc75"},"vehicle_type_id":"4","last_reported":1761819069,"current_range_meters":14800,"station_id":"ce4bhnp2rcd13ifvqgvg","pricing_plan_id":"cebpf4jnsgd1na2vs0mg"},{"bike_id":"03bb31c8-4c13-43ca-912e-686090249e4d","system_id":"levelo_inurba_marseille","lat":43.29865,"lon":5.39717,"is_reserved":false,"is_disabled":false,"rental_uris":{"android":"levelo://app?vid=03bb31c8-4c13-43ca-912e-686090249e4d","ios":"levelo://app?vid=03bb31c8-4c13-43ca-912e-686090249e4d"},"vehicle_type_id":"4","last_reported":1761819069,"current_range_meters":15200,"station_id":"ce4bh0h2rcd13ifvqd50","pricing_plan_id":"cebpf4jnsgd1na2vs0mg"},{"bike_id":"a18dbf48-2c4d-4fa4-a4c5-c9871d73c9a0","system_id":"levelo_inurba_marseille","lat":43.301994,"lon":5.383462,"is_reserved":false,"is_disabled":false,"rental_uris":{"android":"levelo://app?vid=a18dbf48-2c4d-4fa4-a4c5-c9871d73c9a0","ios":"levelo://app?vid=a18dbf48-2c4d-4fa4-a4c5-c9871d73c9a0"},"vehicle_type_id":"4","last_reported":1761819069,"current_range_meters":15200,"station_id":"ce4bgup2rcd13ifvqcn0","pricing_plan_id":"cebpf4jnsgd1na2vs0mg"},{"bike_id":"98f0f127-297b-45d0-bfe6-ffa7785d2197","system_id":"levelo_inurba_marseille","lat":43.26683,"lon":5.38271,"is_reserved":false,"is_disabled":false,"rental_uris":{"android":"levelo://app?vid=98f0f127-297b-45d0-bfe6-ffa7785d2197","ios":"levelo://app?vid=98f0f127-297b-45d0-bfe6-ffa7785d2197"},"vehicle_type_id":"4","last_reported":1761819069,"current_range_meters":15200,"station_id":"ce4bhg92rcd13ifvqf90","pricing_plan_id":"cebpf4jnsgd1na2vs0mg"},{"bike_id":"a86d27c2-696e-472b-911c-6468600e7222","system_id":"levelo_inurba_marseille","lat":43.30921,"lon":5.36845,"is_reserved":false,"is_disabled":false,"rental_uris":{"android":"levelo://app?vid=a86d27c2-696e-472b-911c-6468600e7222","ios":"levelo://app?vid=a86d27c2-696e-472b-911c-6468600e7222"},"vehicle_type_id":"4","last_reported":1761819069,"current_range_meters":16000,"station_id":"ce4bgn92rcd13ifvqbvg","pricing_plan_id":"cebpf4jnsgd1na2vs0mg"},{"bike_id":"a9700533-625a-4f63-a347-a23d41d891ce","system_id":"levelo_inurba_marseille","lat":43.31361,"lon":5.36737,"is_reserved":false,"is_disabled":false,"rental_uris":{"android":"levelo://app?vid=a9700533-625a-4f63-a347-a23d41d891ce","ios":"levelo://app?vid=a9700533-625a-4f63-a347-a23d41d891ce"},"vehicle_type_id":"4","last_reported":1761819069,"current_range_meters":16000,"station_id":"ce4bgr92rcd13ifvqc6g","pricing_plan_id":"cebpf4jnsgd1na2vs0mg"},{"bike_id":"01db0631-4309-4463-ae0c-c00f017d83b9","system_id":"levelo_inurba_marseille","lat":43.28869,"lon":5.35824,"is_reserved":false,"is_disabled":false,"rental_uris":{"android":"levelo://app?vid=01db0631-4309-4463-ae0c-c00f017d83b9","ios":"levelo://app?vid=01db0631-4309-4463-ae0c-c00f017d83b9"},"vehicle_type_id":"4","last_reported":1761819069,"current_range_meters":16000,"station_id":"ce4bhb12rcd13ifvqem0","pricing_plan_id":"cebpf4jnsgd1na2vs0mg"},{"bike_id":"21b34e26-55af-43f6-95c5-fc105f564f36","system_id":"levelo_inurba_marseille","lat":43.30552,"lon":5.36529,"is_reserved":false,"is_disabled":false,"rental_uris":{"android":"levelo://app?vid=21b34e26-55af-43f6-95c5-fc105f564f36","ios":"levelo://app?vid=21b34e26-55af-43f6-95c5-fc105f564f36"},"vehicle_type_id":"4","last_reported":1761819069,"current_range_meters":16000,"station_id":"ce4bgs12rcd13ifvqcag","pricing_plan_id":"cebpf4jnsgd1na2vs0mg"},{"bike_id":"4a3a22f4-5b65-4094-a663-271e1661ef7b","system_id":"levelo_inurba_marseille","lat":43.290407,"lon":5.375884,"is_reserved":false,"is_disabled":false,"rental_uris":{"android":"levelo://app?vid=4a3a22f4-5b65-4094-a663-271e1661ef7b","ios":"levelo://app?vid=4a3a22f4-5b65-4094-a663-271e1661ef7b"},"vehicle_type_id":"4","last_reported":1761819069,"current_range_meters":16000,"station_id":"ce4bgih2rcd13ifvqba0","pricing_plan_id":"cebpf4jnsgd1na2vs0mg"},{"bike_id":"64a65f80-88f9-496a-8d42-62767ed3497b","system_id":"levelo_inurba_marseille","lat":43.32501,"lon":5.36514,"is_reserved":false,"is_disabled":false,"rental_uris":{"android":"levelo://app?vid=64a65f80-88f9-496a-8d42-62767ed3497b","ios":"levelo://app?vid=64a65f80-88f9-496a-8d42-62767ed3497b"},"vehicle_type_id":"4","last_reported":1761819069,"current_range_meters":16000,"station_id":"ce4bhs12rcd13ifvqhvg","pricing_plan_id":"cebpf4jnsgd1na2vs0mg"},{"bike_id":"a3be85a8-3026-4b14-88a9-fc9020d5df93","system_id":"levelo_inurba_marseille","lat":43.249471,"lon":5.40501,"is_reserved":false,"is_disabled":false,"rental_uris":{"android":"levelo://app?vid=a3be85a8-3026-4b14-88a9-fc9020d5df93","ios":"levelo://app?vid=a3be85a8-3026-4b14-88a9-fc9020d5df93"},"vehicle_type_id":"4","last_reported":1761819069,"current_range_meters":16000,"station_id":"st_d2ngiaodas8pm72gd1h0","pricing_plan_id":"cebpf4jnsgd1na2vs0mg"},{"bike_id":"9b93b5e1-c939-4745-bf85-2d21945442dc","system_id":"levelo_inurba_marseille","lat":43.29999,"lon":5.363964,"is_reserved":false,"is_disabled":false,"rental_uris":{"android":"levelo://app?vid=9b93b5e1-c939-4745-bf85-2d21945442dc","ios":"levelo://app?vid=9b93b5e1-c939-4745-bf85-2d21945442dc"},"vehicle_type_id":"4","last_reported":1761819069,"current_range_meters":16400,"station_id":"","pricing_plan_id":"cebpf4jnsgd1na2vs0mg"},{"bike_id":"6c149471-d402-4720-9039-d67922e78196","system_id":"levelo_inurba_marseille","lat":43.31995,"lon":5.3817,"is_reserved":false,"is_disabled":false,"rental_uris":{"android":"levelo://app?vid=6c149471-d402-4720-9039-d67922e78196","ios":"levelo://app?vid=6c149471-d402-4720-9039-d67922e78196"},"vehicle_type_id":"4","last_reported":1761819069,"current_range_meters":16400,"station_id":"ce4bhr12rcd13ifvqhpg","pricing_plan_id":"cebpf4jnsgd1na2vs0mg"},{"bike_id":"95bd227c-35ae-448e-999f-377cea8586e6","system_id":"levelo_inurba_marseille","lat":43.28265,"lon":5.35057,"is_reserved":false,"is_disabled":false,"rental_uris":{"android":"levelo://app?vid=95bd227c-35ae-448e-999f-377cea8586e6","ios":"levelo://app?vid=95bd227c-35ae-448e-999f-377cea8586e6"},"vehicle_type_id":"4","last_reported":1761819069,"current_range_meters":16400,"station_id":"ce4bhbp2rcd13ifvqerg","pricing_plan_id":"cebpf4jnsgd1na2vs0mg"},{"bike_id":"f796ce09-60f7-462a-b4ad-b8c716de55c6","system_id":"levelo_inurba_marseille","lat":43.298479,"lon":5.383489,"is_reserved":false,"is_disabled":true,"rental_uris":{"android":"levelo://app?vid=f796ce09-60f7-462a-b4ad-b8c716de55c6","ios":"levelo://app?vid=f796ce09-60f7-462a-b4ad-b8c716de55c6"},"vehicle_type_id":"4","last_reported":1761819069,"current_range_meters":16400,"station_id":"","pricing_plan_id":"cebpf4jnsgd1na2vs0mg"},{"bike_id":"3beed6bb-0e4a-44e6-ae3c-4dc9df608361","system_id":"levelo_inurba_marseille","lat":43.29273,"lon":5.3763,"is_reserved":false,"is_disabled":false,"rental_uris":{"android":"levelo://app?vid=3beed6bb-0e4a-44e6-ae3c-4dc9df608361","ios":"levelo://app?vid=3beed6bb-0e4a-44e6-ae3c-4dc9df608361"},"vehicle_type_id":"4","last_reported":1761819069,"current_range_meters":16400,"station_id":"ce4bgi12rcd13ifvqb80","pricing_plan_id":"cebpf4jnsgd1na2vs0mg"},{"bike_id":"854d941c-5be8-4e60-9251-e8fb464b5552","system_id":"levelo_inurba_marseille","lat":43.284606,"lon":5.3589,"is_reserved":false,"is_disabled":false,"rental_uris":{"android":"levelo://app?vid=854d941c-5be8-4e60-9251-e8fb464b5552","ios":"levelo://app?vid=854d941c-5be8-4e60-9251-e8fb464b5552"},"vehicle_type_id":"4","last_reported":1761819069,"current_range_meters":16400,"station_id":"ce4bhah2rcd13ifvqei0","pricing_plan_id":"cebpf4jnsgd1na2vs0mg"},{"bike_id":"6dcb4fe1-6624-4cf6-949e-19a76ca67f53","system_id":"levelo_inurba_marseille","lat":43.28619,"lon":5.35092,"is_reserved":false,"is_disabled":false,"rental_uris":{"android":"levelo://app?vid=6dcb4fe1-6624-4cf6-949e-19a76ca67f53","ios":"levelo://app?vid=6dcb4fe1-6624-4cf6-949e-19a76ca67f53"},"vehicle_type_id":"4","last_reported":1761819069,"current_range_meters":16400,"station_id":"ce4bhch2rcd13ifvqeug","pricing_plan_id":"cebpf4jnsgd1na2vs0mg"},{"bike_id":"0137dec7-abd2-4bb1-984c-0ba5484bca3b","system_id":"levelo_inurba_marseille","lat":43.33762,"lon":5.37439,"is_reserved":false,"is_disabled":false,"rental_uris":{"android":"levelo://app?vid=0137dec7-abd2-4bb1-984c-0ba5484bca3b","ios":"levelo://app?vid=0137dec7-abd2-4bb1-984c-0ba5484bca3b"},"vehicle_type_id":"4","last_reported":1761819069,"current_range_meters":16400,"station_id":"","pricing_plan_id":"cebpf4jnsgd1na2vs0mg"},{"bike_id":"fc4c86ba-a67d-4b95-9291-deea0443316f","system_id":"levelo_inurba_marseille","lat":43.30897,"lon":5.37182,"is_reserved":false,"is_disabled":false,"rental_uris":{"android":"levelo://app?vid=fc4c86ba-a67d-4b95-9291-deea0443316f","ios":"levelo://app?vid=fc4c86ba-a67d-4b95-9291-deea0443316f"},"vehicle_type_id":"4","last_reported":1761819069,"current_range_meters":16800,"station_id":"ce4bguh2rcd13ifvqckg","pricing_plan_id":"cebpf4jnsgd1na2vs0mg"},{"bike_id":"932ad1c2-4305-4dbf-ad9d-624ed36a7479","system_id":"levelo_inurba_marseille","lat":43.30107,"lon":5.38753,"is_reserved":false,"is_disabled":false,"rental_uris":{"android":"levelo://app?vid=932ad1c2-4305-4dbf-ad9d-624ed36a7479","ios":"levelo://app?vid=932ad1c2-4305-4dbf-ad9d-624ed36a7479"},"vehicle_type_id":"4","last_reported":1761819069,"current_range_meters":16800,"station_id":"","pricing_plan_id":"cebpf4jnsgd1na2vs0mg"},{"bike_id":"40c7e24f-ae6e-4686-a6c4-3f65258e5663","system_id":"levelo_inurba_marseille","lat":43.31223,"lon":5.36848,"is_reserved":false,"is_disabled":false,"rental_uris":{"android":"levelo://app?vid=40c7e24f-ae6e-4686-a6c4-3f65258e5663","ios":"levelo://app?vid=40c7e24f-ae6e-4686-a6c4-3f65258e5663"},"vehicle_type_id":"4","last_reported":1761819069,"current_range_meters":16800,"station_id":"ce4bgl92rcd13ifvqbq0","pricing_plan_id":"cebpf4jnsgd1na2vs0mg"},{"bike_id":"667a4a8e-bd76-4fb1-b40f-6d82b3d1d948","system_id":"levelo_inurba_marseille","lat":43.31765,"lon":5.39004,"is_reserved":false,"is_disabled":false,"rental_uris":{"android":"levelo://app?vid=667a4a8e-bd76-4fb1-b40f-6d82b3d1d948","ios":"levelo://app?vid=667a4a8e-bd76-4fb1-b40f-6d82b3d1d948"},"vehicle_type_id":"4","last_reported":1761819069,"current_range_meters":16800,"station_id":"ce4bhqp2rcd13ifvqhng","pricing_plan_id":"cebpf4jnsgd1na2vs0mg"},{"bike_id":"52a753d3-3ac4-4caa-88bc-c038122b2bbb","system_id":"levelo_inurba_marseille","lat":43.26233,"lon":5.40449,"is_reserved":false,"is_disabled":false,"rental_uris":{"android":"levelo://app?vid=52a753d3-3ac4-4caa-88bc-c038122b2bbb","ios":"levelo://app?vid=52a753d3-3ac4-4caa-88bc-c038122b2bbb"},"vehicle_type_id":"4","last_reported":1761819069,"current_range_meters":16800,"station_id":"ce4bhmh2rcd13ifvqgmg","pricing_plan_id":"cebpf4jnsgd1na2vs0mg"},{"bike_id":"c1b80a2d-4c09-4897-a6de-d7dc582f3acd","system_id":"levelo_inurba_marseille","lat":43.30295,"lon":5.37695,"is_reserved":false,"is_disabled":false,"rental_uris":{"android":"levelo://app?vid=c1b80a2d-4c09-4897-a6de-d7dc582f3acd","ios":"levelo://app?vid=c1b80a2d-4c09-4897-a6de-d7dc582f3acd"},"vehicle_type_id":"4","last_reported":1761819069,"current_range_meters":16800,"station_id":"ce4bguh2rcd13ifvqcj0","pricing_plan_id":"cebpf4jnsgd1na2vs0mg"},{"bike_id":"ca40a040-8d01-4576-8d27-832c5d4406dd","system_id":"levelo_inurba_marseille","lat":43.29259,"lon":5.38442,"is_reserved":false,"is_disabled":false,"rental_uris":{"android":"levelo://app?vid=ca40a040-8d01-4576-8d27-832c5d4406dd","ios":"levelo://app?vid=ca40a040-8d01-4576-8d27-832c5d4406dd"},"vehicle_type_id":"4","last_reported":1761819069,"current_range_meters":16800,"station_id":"ce4bh692rcd13ifvqea0","pricing_plan_id":"cebpf4jnsgd1na2vs0mg"},{"bike_id":"7059abfa-bba6-43b2-8c14-96f92d7be186","system_id":"levelo_inurba_marseille","lat":43.309143,"lon":5.368475,"is_reserved":false,"is_disabled":false,"rental_uris":{"android":"levelo://app?vid=7059abfa-bba6-43b2-8c14-96f92d7be186","ios":"levelo://app?vid=7059abfa-bba6-43b2-8c14-96f92d7be186"},"vehicle_type_id":"4","last_reported":1761819069,"current_range_meters":16800,"station_id":"ce4bgn92rcd13ifvqbvg","pricing_plan_id":"cebpf4jnsgd1na2vs0mg"},{"bike_id":"2fd86c53-d195-4ab3-a5e6-984f6c0f4c38","system_id":"levelo_inurba_marseille","lat":43.26571,"lon":5.37294,"is_reserved":false,"is_disabled":false,"rental_uris":{"android":"levelo://app?vid=2fd86c53-d195-4ab3-a5e6-984f6c0f4c38","ios":"levelo://app?vid=2fd86c53-d195-4ab3-a5e6-984f6c0f4c38"},"vehicle_type_id":"4","last_reported":1761819069,"current_range_meters":17200,"station_id":"ce4bhg12rcd13ifvqf70","pricing_plan_id":"cebpf4jnsgd1na2vs0mg"},{"bike_id":"d1dcb642-b848-40bb-80e5-208c429d2176","system_id":"levelo_inurba_marseille","lat":43.29073,"lon":5.359621,"is_reserved":false,"is_disabled":false,"rental_uris":{"android":"levelo://app?vid=d1dcb642-b848-40bb-80e5-208c429d2176","ios":"levelo://app?vid=d1dcb642-b848-40bb-80e5-208c429d2176"},"vehicle_type_id":"4","last_reported":1761819069,"current_range_meters":17200,"station_id":"ce4bha92rcd13ifvqeg0","pricing_plan_id":"cebpf4jnsgd1na2vs0mg"},{"bike_id":"612f1d82-a139-499a-930e-bf1ae5e31e0a","system_id":"levelo_inurba_marseille","lat":43.3014,"lon":5.3742,"is_reserved":false,"is_disabled":false,"rental_uris":{"android":"levelo://app?vid=612f1d82-a139-499a-930e-bf1ae5e31e0a","ios":"levelo://app?vid=612f1d82-a139-499a-930e-bf1ae5e31e0a"},"vehicle_type_id":"4","last_reported":1761819069,"current_range_meters":17200,"station_id":"ce4bgs92rcd13ifvqcc0","pricing_plan_id":"cebpf4jnsgd1na2vs0mg"},{"bike_id":"0a43b95d-c84e-4427-b491-81329d19dcf2","system_id":"levelo_inurba_marseille","lat":43.27054,"lon":5.4026,"is_reserved":false,"is_disabled":false,"rental_uris":{"android":"levelo://app?vid=0a43b95d-c84e-4427-b491-81329d19dcf2","ios":"levelo://app?vid=0a43b95d-c84e-4427-b491-81329d19dcf2"},"vehicle_type_id":"4","last_reported":1761819069,"current_range_meters":17200,"station_id":"ce4bhk92rcd13ifvqgc0","pricing_plan_id":"cebpf4jnsgd1na2vs0mg"},{"bike_id":"9bd3b5fa-3cbf-474f-8034-5640065cda00","system_id":"levelo_inurba_marseille","lat":43.27809,"lon":5.40721,"is_reserved":false,"is_disabled":false,"rental_uris":{"android":"levelo://app?vid=9bd3b5fa-3cbf-474f-8034-5640065cda00","ios":"levelo://app?vid=9bd3b5fa-3cbf-474f-8034-5640065cda00"},"vehicle_type_id":"4","last_reported":1761819069,"current_range_meters":17200,"station_id":"ce4bhnh2rcd13ifvqgtg","pricing_plan_id":"cebpf4jnsgd1na2vs0mg"},{"bike_id":"40692050-a828-4180-a6c6-f2d7f8542173","system_id":"levelo_inurba_marseille","lat":43.2315,"lon":5.43717,"is_reserved":false,"is_disabled":false,"rental_uris":{"android":"levelo://app?vid=40692050-a828-4180-a6c6-f2d7f8542173","ios":"levelo://app?vid=40692050-a828-4180-a6c6-f2d7f8542173"},"vehicle_type_id":"4","last_reported":1761819069,"current_range_meters":17600,"station_id":"ce4bhmp2rcd13ifvqgog","pricing_plan_id":"cebpf4jnsgd1na2vs0mg"},{"bike_id":"88327406-ba65-4ce0-831c-3da476dbb691","system_id":"levelo_inurba_marseille","lat":43.23785,"lon":5.36611,"is_reserved":false,"is_disabled":false,"rental_uris":{"android":"levelo://app?vid=88327406-ba65-4ce0-831c-3da476dbb691","ios":"levelo://app?vid=88327406-ba65-4ce0-831c-3da476dbb691"},"vehicle_type_id":"4","last_reported":1761819069,"current_range_meters":17600,"station_id":"st_d3nk18o9ro0c73en2l3g","pricing_plan_id":"cebpf4jnsgd1na2vs0mg"},{"bike_id":"da0420b8-69e2-4ddf-9915-f492ed723756","system_id":"levelo_inurba_marseille","lat":43.301729,"lon":5.366259,"is_reserved":false,"is_disabled":false,"rental_uris":{"android":"levelo://app?vid=da0420b8-69e2-4ddf-9915-f492ed723756","ios":"levelo://app?vid=da0420b8-69e2-4ddf-9915-f492ed723756"},"vehicle_type_id":"4","last_reported":1761819069,"current_range_meters":17600,"station_id":"ce4bgrh2rcd13ifvqc8g","pricing_plan_id":"cebpf4jnsgd1na2vs0mg"},{"bike_id":"4fe7084f-a97b-4513-8b04-15b54767adb4","system_id":"levelo_inurba_marseille","lat":43.272,"lon":5.39173,"is_reserved":false,"is_disabled":false,"rental_uris":{"android":"levelo://app?vid=4fe7084f-a97b-4513-8b04-15b54767adb4","ios":"levelo://app?vid=4fe7084f-a97b-4513-8b04-15b54767adb4"},"vehicle_type_id":"4","last_reported":1761819069,"current_range_meters":17600,"station_id":"ce4bhhp2rcd13ifvqfm0","pricing_plan_id":"cebpf4jnsgd1na2vs0mg"},{"bike_id":"6621a4f1-d45b-4aaa-bc1b-663045054882","system_id":"levelo_inurba_marseille","lat":43.296299,"lon":5.377182,"is_reserved":false,"is_disabled":false,"rental_uris":{"android":"levelo://app?vid=6621a4f1-d45b-4aaa-bc1b-663045054882","ios":"levelo://app?vid=6621a4f1-d45b-4aaa-bc1b-663045054882"},"vehicle_type_id":"4","last_reported":1761819069,"current_range_meters":17600,"station_id":"ce4bgi92rcd13ifvqb90","pricing_plan_id":"cebpf4jnsgd1na2vs0mg"},{"bike_id":"9852e0a1-4995-4628-84f2-0d56389f5aef","system_id":"levelo_inurba_marseille","lat":43.317182,"lon":5.423972,"is_reserved":false,"is_disabled":false,"rental_uris":{"android":"levelo://app?vid=9852e0a1-4995-4628-84f2-0d56389f5aef","ios":"levelo://app?vid=9852e0a1-4995-4628-84f2-0d56389f5aef"},"vehicle_type_id":"4","last_reported":1761819069,"current_range_meters":17600,"station_id":"ce4bhp92rcd13ifvqhbg","pricing_plan_id":"cebpf4jnsgd1na2vs0mg"},{"bike_id":"201e2a4c-73e3-4f87-93fe-8854747b415c","system_id":"levelo_inurba_marseille","lat":43.30183,"lon":5.37369,"is_reserved":false,"is_disabled":false,"rental_uris":{"android":"levelo://app?vid=201e2a4c-73e3-4f87-93fe-8854747b415c","ios":"levelo://app?vid=201e2a4c-73e3-4f87-93fe-8854747b415c"},"vehicle_type_id":"4","last_reported":1761819069,"current_range_meters":17600,"station_id":"ce4bgs92rcd13ifvqcc0","pricing_plan_id":"cebpf4jnsgd1na2vs0mg"},{"bike_id":"216e46ca-be00-4e8e-a1e1-fb94531ee1ae","system_id":"levelo_inurba_marseille","lat":43.29549,"lon":5.42269,"is_reserved":false,"is_disabled":true,"rental_uris":{"android":"levelo://app?vid=216e46ca-be00-4e8e-a1e1-fb94531ee1ae","ios":"levelo://app?vid=216e46ca-be00-4e8e-a1e1-fb94531ee1ae"},"vehicle_type_id":"4","last_reported":1761819069,"current_range_meters":18000,"station_id":"ce4bhph2rcd13ifvqhdg","pricing_plan_id":"cebpf4jnsgd1na2vs0mg"},{"bike_id":"1ce0baa3-1ac8-410e-9137-57f18b2f4b33","system_id":"levelo_inurba_marseille","lat":43.24178,"lon":5.39715,"is_reserved":false,"is_disabled":false,"rental_uris":{"android":"levelo://app?vid=1ce0baa3-1ac8-410e-9137-57f18b2f4b33","ios":"levelo://app?vid=1ce0baa3-1ac8-410e-9137-57f18b2f4b33"},"vehicle_type_id":"4","last_reported":1761819069,"current_range_meters":18000,"station_id":"ce4bhn12rcd13ifvqgpg","pricing_plan_id":"cebpf4jnsgd1na2vs0mg"},{"bike_id":"05a47c24-c74d-4482-aade-5974399cb310","system_id":"levelo_inurba_marseille","lat":43.29606,"lon":5.37672,"is_reserved":false,"is_disabled":false,"rental_uris":{"android":"levelo://app?vid=05a47c24-c74d-4482-aade-5974399cb310","ios":"levelo://app?vid=05a47c24-c74d-4482-aade-5974399cb310"},"vehicle_type_id":"4","last_reported":1761819069,"current_range_meters":18000,"station_id":"ce4bgi92rcd13ifvqb90","pricing_plan_id":"cebpf4jnsgd1na2vs0mg"},{"bike_id":"1d16d20a-dbf1-4a69-8537-89211ea34b71","system_id":"levelo_inurba_marseille","lat":43.312856,"lon":5.378374,"is_reserved":false,"is_disabled":false,"rental_uris":{"android":"levelo://app?vid=1d16d20a-dbf1-4a69-8537-89211ea34b71","ios":"levelo://app?vid=1d16d20a-dbf1-4a69-8537-89211ea34b71"},"vehicle_type_id":"4","last_reported":1761819069,"current_range_meters":18000,"station_id":"","pricing_plan_id":"cebpf4jnsgd1na2vs0mg"},{"bike_id":"f6e41c21-0e74-476c-8273-8a6a7b44e6bc","system_id":"levelo_inurba_marseille","lat":43.307312,"lon":5.424381,"is_reserved":false,"is_disabled":false,"rental_uris":{"android":"levelo://app?vid=f6e41c21-0e74-476c-8273-8a6a7b44e6bc","ios":"levelo://app?vid=f6e41c21-0e74-476c-8273-8a6a7b44e6bc"},"vehicle_type_id":"4","last_reported":1761819069,"current_range_meters":18000,"station_id":"st_cvj6ca6bvosntc0bfgr0","pricing_plan_id":"cebpf4jnsgd1na2vs0mg"},{"bike_id":"a4dac4fa-66e6-48be-a654-6e17cdc7ca0b","system_id":"levelo_inurba_marseille","lat":43.337571,"lon":5.374323,"is_reserved":false,"is_disabled":false,"rental_uris":{"android":"levelo://app?vid=a4dac4fa-66e6-48be-a654-6e17cdc7ca0b","ios":"levelo://app?vid=a4dac4fa-66e6-48be-a654-6e17cdc7ca0b"},"vehicle_type_id":"4","last_reported":1761819069,"current_range_meters":18800,"station_id":"","pricing_plan_id":"cebpf4jnsgd1na2vs0mg"},{"bike_id":"b3145fb6-fafb-4029-a4fc-58fd96331a6b","system_id":"levelo_inurba_marseille","lat":43.305935,"lon":5.393622,"is_reserved":false,"is_disabled":true,"rental_uris":{"android":"levelo://app?vid=b3145fb6-fafb-4029-a4fc-58fd96331a6b","ios":"levelo://app?vid=b3145fb6-fafb-4029-a4fc-58fd96331a6b"},"vehicle_type_id":"4","last_reported":1761819069,"current_range_meters":18800,"station_id":"ce4bh0p2rcd13ifvqd80","pricing_plan_id":"cebpf4jnsgd1na2vs0mg"},{"bike_id":"f80a0055-c873-4e76-98bc-f952a6f624c9","system_id":"levelo_inurba_marseille","lat":43.279354,"lon":5.410379,"is_reserved":false,"is_disabled":false,"rental_uris":{"android":"levelo://app?vid=f80a0055-c873-4e76-98bc-f952a6f624c9","ios":"levelo://app?vid=f80a0055-c873-4e76-98bc-f952a6f624c9"},"vehicle_type_id":"4","last_reported":1761819069,"current_range_meters":18800,"station_id":"ce4bhnp2rcd13ifvqh0g","pricing_plan_id":"cebpf4jnsgd1na2vs0mg"},{"bike_id":"cc221443-ff27-4eb4-8db7-6ec13cb296d2","system_id":"levelo_inurba_marseille","lat":43.285361,"lon":5.441006,"is_reserved":false,"is_disabled":false,"rental_uris":{"android":"levelo://app?vid=cc221443-ff27-4eb4-8db7-6ec13cb296d2","ios":"levelo://app?vid=cc221443-ff27-4eb4-8db7-6ec13cb296d2"},"vehicle_type_id":"4","last_reported":1761819069,"current_range_meters":18800,"station_id":"st_d3j3df2ikq2c7380ej80","pricing_plan_id":"cebpf4jnsgd1na2vs0mg"},{"bike_id":"ac054415-4e37-4567-b95e-73970b5e64bc","system_id":"levelo_inurba_marseille","lat":43.32488,"lon":5.36565,"is_reserved":false,"is_disabled":false,"rental_uris":{"android":"levelo://app?vid=ac054415-4e37-4567-b95e-73970b5e64bc","ios":"levelo://app?vid=ac054415-4e37-4567-b95e-73970b5e64bc"},"vehicle_type_id":"4","last_reported":1761819069,"current_range_meters":18800,"station_id":"ce4bhs12rcd13ifvqhvg","pricing_plan_id":"cebpf4jnsgd1na2vs0mg"},{"bike_id":"b8f404d3-62c4-4489-a471-d37212346558","system_id":"levelo_inurba_marseille","lat":43.310466,"lon":5.378789,"is_reserved":false,"is_disabled":false,"rental_uris":{"android":"levelo://app?vid=b8f404d3-62c4-4489-a471-d37212346558","ios":"levelo://app?vid=b8f404d3-62c4-4489-a471-d37212346558"},"vehicle_type_id":"4","last_reported":1761819069,"current_range_meters":18800,"station_id":"","pricing_plan_id":"cebpf4jnsgd1na2vs0mg"},{"bike_id":"2ddad494-fb0f-4542-ab4d-38a1e8de8e7c","system_id":"levelo_inurba_marseille","lat":43.31364,"lon":5.3674,"is_reserved":false,"is_disabled":false,"rental_uris":{"android":"levelo://app?vid=2ddad494-fb0f-4542-ab4d-38a1e8de8e7c","ios":"levelo://app?vid=2ddad494-fb0f-4542-ab4d-38a1e8de8e7c"},"vehicle_type_id":"4","last_reported":1761819069,"current_range_meters":18800,"station_id":"ce4bgr92rcd13ifvqc6g","pricing_plan_id":"cebpf4jnsgd1na2vs0mg"},{"bike_id":"32a35b9b-6aca-4b70-9bd2-e6acde4ddbcc","system_id":"levelo_inurba_marseille","lat":43.22936,"lon":5.35374,"is_reserved":false,"is_disabled":false,"rental_uris":{"android":"levelo://app?vid=32a35b9b-6aca-4b70-9bd2-e6acde4ddbcc","ios":"levelo://app?vid=32a35b9b-6aca-4b70-9bd2-e6acde4ddbcc"},"vehicle_type_id":"4","last_reported":1761819069,"current_range_meters":18800,"station_id":"cpo3532slgdg3j2ikp40","pricing_plan_id":"cebpf4jnsgd1na2vs0mg"},{"bike_id":"9eebcbf9-622f-4e01-9407-960fbde43ed9","system_id":"levelo_inurba_marseille","lat":43.295957,"lon":5.380967,"is_reserved":false,"is_disabled":false,"rental_uris":{"android":"levelo://app?vid=9eebcbf9-622f-4e01-9407-960fbde43ed9","ios":"levelo://app?vid=9eebcbf9-622f-4e01-9407-960fbde43ed9"},"vehicle_type_id":"4","last_reported":1761819069,"current_range_meters":19200,"station_id":"","pricing_plan_id":"cebpf4jnsgd1na2vs0mg"},{"bike_id":"20c1c26d-be2a-4cac-8028-038f5ffc2f00","system_id":"levelo_inurba_marseille","lat":43.29281,"lon":5.36845,"is_reserved":false,"is_disabled":false,"rental_uris":{"android":"levelo://app?vid=20c1c26d-be2a-4cac-8028-038f5ffc2f00","ios":"levelo://app?vid=20c1c26d-be2a-4cac-8028-038f5ffc2f00"},"vehicle_type_id":"4","last_reported":1761819069,"current_range_meters":19200,"station_id":"ce4bhbp2rcd13ifvqesg","pricing_plan_id":"cebpf4jnsgd1na2vs0mg"},{"bike_id":"b22c42ff-4285-4504-9e58-c6df4a616eed","system_id":"levelo_inurba_marseille","lat":43.30893,"lon":5.37183,"is_reserved":false,"is_disabled":false,"rental_uris":{"android":"levelo://app?vid=b22c42ff-4285-4504-9e58-c6df4a616eed","ios":"levelo://app?vid=b22c42ff-4285-4504-9e58-c6df4a616eed"},"vehicle_type_id":"4","last_reported":1761819069,"current_range_meters":19200,"station_id":"ce4bguh2rcd13ifvqckg","pricing_plan_id":"cebpf4jnsgd1na2vs0mg"},{"bike_id":"05651f27-1dcd-4788-8996-fe15183138d1","system_id":"levelo_inurba_marseille","lat":43.29868,"lon":5.38903,"is_reserved":false,"is_disabled":false,"rental_uris":{"android":"levelo://app?vid=05651f27-1dcd-4788-8996-fe15183138d1","ios":"levelo://app?vid=05651f27-1dcd-4788-8996-fe15183138d1"},"vehicle_type_id":"4","last_reported":1761819069,"current_range_meters":19200,"station_id":"ce4bh392rcd13ifvqdl0","pricing_plan_id":"cebpf4jnsgd1na2vs0mg"},{"bike_id":"8c6d4f8c-38f2-488f-b942-a51a1f19ffe9","system_id":"levelo_inurba_marseille","lat":43.29708,"lon":5.37703,"is_reserved":false,"is_disabled":false,"rental_uris":{"android":"levelo://app?vid=8c6d4f8c-38f2-488f-b942-a51a1f19ffe9","ios":"levelo://app?vid=8c6d4f8c-38f2-488f-b942-a51a1f19ffe9"},"vehicle_type_id":"4","last_reported":1761819069,"current_range_meters":19200,"station_id":"ce4bgkh2rcd13ifvqbl0","pricing_plan_id":"cebpf4jnsgd1na2vs0mg"},{"bike_id":"a27ea015-9d73-41b0-aa36-b3953f30b56d","system_id":"levelo_inurba_marseille","lat":43.24649,"lon":5.38888,"is_reserved":false,"is_disabled":false,"rental_uris":{"android":"levelo://app?vid=a27ea015-9d73-41b0-aa36-b3953f30b56d","ios":"levelo://app?vid=a27ea015-9d73-41b0-aa36-b3953f30b56d"},"vehicle_type_id":"4","last_reported":1761819069,"current_range_meters":19600,"station_id":"ce4bhg12rcd13ifvqf60","pricing_plan_id":"cebpf4jnsgd1na2vs0mg"},{"bike_id":"d2ba70fc-b4a3-4538-88a2-e55bed2afdca","system_id":"levelo_inurba_marseille","lat":43.27372,"lon":5.36254,"is_reserved":false,"is_disabled":false,"rental_uris":{"android":"levelo://app?vid=d2ba70fc-b4a3-4538-88a2-e55bed2afdca","ios":"levelo://app?vid=d2ba70fc-b4a3-4538-88a2-e55bed2afdca"},"vehicle_type_id":"4","last_reported":1761819069,"current_range_meters":19600,"station_id":"ce4bhbh2rcd13ifvqeo0","pricing_plan_id":"cebpf4jnsgd1na2vs0mg"},{"bike_id":"25a9b204-4d0b-4d7d-a1ff-4eaa8edfc227","system_id":"levelo_inurba_marseille","lat":43.29271,"lon":5.37624,"is_reserved":false,"is_disabled":false,"rental_uris":{"android":"levelo://app?vid=25a9b204-4d0b-4d7d-a1ff-4eaa8edfc227","ios":"levelo://app?vid=25a9b204-4d0b-4d7d-a1ff-4eaa8edfc227"},"vehicle_type_id":"4","last_reported":1761819069,"current_range_meters":19600,"station_id":"ce4bgi12rcd13ifvqb80","pricing_plan_id":"cebpf4jnsgd1na2vs0mg"},{"bike_id":"48d3b96f-8416-4329-ac85-a1ebb32987c2","system_id":"levelo_inurba_marseille","lat":43.276635,"lon":5.388816,"is_reserved":false,"is_disabled":false,"rental_uris":{"android":"levelo://app?vid=48d3b96f-8416-4329-ac85-a1ebb32987c2","ios":"levelo://app?vid=48d3b96f-8416-4329-ac85-a1ebb32987c2"},"vehicle_type_id":"4","last_reported":1761819069,"current_range_meters":19600,"station_id":"ce4bhi12rcd13ifvqfo0","pricing_plan_id":"cebpf4jnsgd1na2vs0mg"},{"bike_id":"a72320d3-c1d1-434a-ab1c-d81e425c9cf4","system_id":"levelo_inurba_marseille","lat":43.27376,"lon":5.36241,"is_reserved":false,"is_disabled":false,"rental_uris":{"android":"levelo://app?vid=a72320d3-c1d1-434a-ab1c-d81e425c9cf4","ios":"levelo://app?vid=a72320d3-c1d1-434a-ab1c-d81e425c9cf4"},"vehicle_type_id":"4","last_reported":1761819069,"current_range_meters":19600,"station_id":"ce4bhbh2rcd13ifvqeo0","pricing_plan_id":"cebpf4jnsgd1na2vs0mg"},{"bike_id":"f7986849-5488-47e8-b8c2-0ebfdf9d8390","system_id":"levelo_inurba_marseille","lat":43.24676,"lon":5.38152,"is_reserved":false,"is_disabled":false,"rental_uris":{"android":"levelo://app?vid=f7986849-5488-47e8-b8c2-0ebfdf9d8390","ios":"levelo://app?vid=f7986849-5488-47e8-b8c2-0ebfdf9d8390"},"vehicle_type_id":"4","last_reported":1761819069,"current_range_meters":19600,"station_id":"ce4bhih2rcd13ifvqfr0","pricing_plan_id":"cebpf4jnsgd1na2vs0mg"},{"bike_id":"ee261a32-9de1-4b9e-a923-6c91e1e26176","system_id":"levelo_inurba_marseille","lat":43.284827,"lon":5.483977,"is_reserved":false,"is_disabled":false,"rental_uris":{"android":"levelo://app?vid=ee261a32-9de1-4b9e-a923-6c91e1e26176","ios":"levelo://app?vid=ee261a32-9de1-4b9e-a923-6c91e1e26176"},"vehicle_type_id":"4","last_reported":1761819069,"current_range_meters":19600,"station_id":"st_d3svhcjqgbts73a3dn0g","pricing_plan_id":"cebpf4jnsgd1na2vs0mg"},{"bike_id":"0a9abdf5-79f0-47db-9743-c4be71bd0ac0","system_id":"levelo_inurba_marseille","lat":43.30126,"lon":5.43127,"is_reserved":false,"is_disabled":false,"rental_uris":{"android":"levelo://app?vid=0a9abdf5-79f0-47db-9743-c4be71bd0ac0","ios":"levelo://app?vid=0a9abdf5-79f0-47db-9743-c4be71bd0ac0"},"vehicle_type_id":"4","last_reported":1761819069,"current_range_meters":19600,"station_id":"st_d3js3co5814s73ftftug","pricing_plan_id":"cebpf4jnsgd1na2vs0mg"},{"bike_id":"2daa964c-50be-4921-8e01-b03cb7169261","system_id":"levelo_inurba_marseille","lat":43.29264,"lon":5.38439,"is_reserved":false,"is_disabled":false,"rental_uris":{"android":"levelo://app?vid=2daa964c-50be-4921-8e01-b03cb7169261","ios":"levelo://app?vid=2daa964c-50be-4921-8e01-b03cb7169261"},"vehicle_type_id":"4","last_reported":1761819069,"current_range_meters":19600,"station_id":"ce4bh692rcd13ifvqea0","pricing_plan_id":"cebpf4jnsgd1na2vs0mg"},{"bike_id":"34ea4e7d-6513-4d63-977b-dfcd7e89c670","system_id":"levelo_inurba_marseille","lat":43.28155,"lon":5.4264,"is_reserved":false,"is_disabled":false,"rental_uris":{"android":"levelo://app?vid=34ea4e7d-6513-4d63-977b-dfcd7e89c670","ios":"levelo://app?vid=34ea4e7d-6513-4d63-977b-dfcd7e89c670"},"vehicle_type_id":"4","last_reported":1761819069,"current_range_meters":19600,"station_id":"ce4bhnh2rcd13ifvqgug","pricing_plan_id":"cebpf4jnsgd1na2vs0mg"},{"bike_id":"1b4e444c-b4c2-4950-9891-1a96f5bc0caa","system_id":"levelo_inurba_marseille","lat":43.2624,"lon":5.40464,"is_reserved":false,"is_disabled":false,"rental_uris":{"android":"levelo://app?vid=1b4e444c-b4c2-4950-9891-1a96f5bc0caa","ios":"levelo://app?vid=1b4e444c-b4c2-4950-9891-1a96f5bc0caa"},"vehicle_type_id":"4","last_reported":1761819069,"current_range_meters":19600,"station_id":"ce4bhmh2rcd13ifvqgmg","pricing_plan_id":"cebpf4jnsgd1na2vs0mg"},{"bike_id":"5e3752b8-593e-46fd-9f2d-f8a706a78c86","system_id":"levelo_inurba_marseille","lat":43.25718,"lon":5.41114,"is_reserved":false,"is_disabled":false,"rental_uris":{"android":"levelo://app?vid=5e3752b8-593e-46fd-9f2d-f8a706a78c86","ios":"levelo://app?vid=5e3752b8-593e-46fd-9f2d-f8a706a78c86"},"vehicle_type_id":"4","last_reported":1761819069,"current_range_meters":20000,"station_id":"ce4bhkp2rcd13ifvqgd0","pricing_plan_id":"cebpf4jnsgd1na2vs0mg"},{"bike_id":"5a350554-ed58-4b1f-b445-df5b1e6d9df9","system_id":"levelo_inurba_marseille","lat":43.25104,"lon":5.40318,"is_reserved":false,"is_disabled":false,"rental_uris":{"android":"levelo://app?vid=5a350554-ed58-4b1f-b445-df5b1e6d9df9","ios":"levelo://app?vid=5a350554-ed58-4b1f-b445-df5b1e6d9df9"},"vehicle_type_id":"4","last_reported":1761819069,"current_range_meters":20000,"station_id":"ce4bhlh2rcd13ifvqgig","pricing_plan_id":"cebpf4jnsgd1na2vs0mg"},{"bike_id":"7d25d21d-1831-4eba-9168-89d3ade37c3e","system_id":"levelo_inurba_marseille","lat":43.30303,"lon":5.37703,"is_reserved":false,"is_disabled":false,"rental_uris":{"android":"levelo://app?vid=7d25d21d-1831-4eba-9168-89d3ade37c3e","ios":"levelo://app?vid=7d25d21d-1831-4eba-9168-89d3ade37c3e"},"vehicle_type_id":"4","last_reported":1761819069,"current_range_meters":20000,"station_id":"ce4bguh2rcd13ifvqcj0","pricing_plan_id":"cebpf4jnsgd1na2vs0mg"},{"bike_id":"ab990100-f09d-4188-954e-60a6f3a24316","system_id":"levelo_inurba_marseille","lat":43.30126,"lon":5.387743,"is_reserved":false,"is_disabled":true,"rental_uris":{"android":"levelo://app?vid=ab990100-f09d-4188-954e-60a6f3a24316","ios":"levelo://app?vid=ab990100-f09d-4188-954e-60a6f3a24316"},"vehicle_type_id":"4","last_reported":1761819069,"current_range_meters":20000,"station_id":"ce4bghh2rcd13ifvqb60","pricing_plan_id":"cebpf4jnsgd1na2vs0mg"},{"bike_id":"2fa5eb2a-02c9-4086-8e22-7c5cf73aa896","system_id":"levelo_inurba_marseille","lat":43.321022,"lon":5.367667,"is_reserved":false,"is_disabled":false,"rental_uris":{"android":"levelo://app?vid=2fa5eb2a-02c9-4086-8e22-7c5cf73aa896","ios":"levelo://app?vid=2fa5eb2a-02c9-4086-8e22-7c5cf73aa896"},"vehicle_type_id":"4","last_reported":1761819069,"current_range_meters":20000,"station_id":"ce4bhrh2rcd13ifvqhug","pricing_plan_id":"cebpf4jnsgd1na2vs0mg"},{"bike_id":"91fab070-569c-458a-b7a9-ce203c556e30","system_id":"levelo_inurba_marseille","lat":43.21198,"lon":5.35065,"is_reserved":false,"is_disabled":false,"rental_uris":{"android":"levelo://app?vid=91fab070-569c-458a-b7a9-ce203c556e30","ios":"levelo://app?vid=91fab070-569c-458a-b7a9-ce203c556e30"},"vehicle_type_id":"4","last_reported":1761819069,"current_range_meters":20000,"station_id":"st_cvj6sg6p6f1abm77japg","pricing_plan_id":"cebpf4jnsgd1na2vs0mg"},{"bike_id":"bae183f9-fe42-4910-a3a9-b61c48490e68","system_id":"levelo_inurba_marseille","lat":43.29589,"lon":5.37735,"is_reserved":false,"is_disabled":false,"rental_uris":{"android":"levelo://app?vid=bae183f9-fe42-4910-a3a9-b61c48490e68","ios":"levelo://app?vid=bae183f9-fe42-4910-a3a9-b61c48490e68"},"vehicle_type_id":"4","last_reported":1761819069,"current_range_meters":20400,"station_id":"ce4bgi92rcd13ifvqb90","pricing_plan_id":"cebpf4jnsgd1na2vs0mg"},{"bike_id":"4252dc35-26a3-4be4-b67b-07368568909d","system_id":"levelo_inurba_marseille","lat":43.29607,"lon":5.37725,"is_reserved":false,"is_disabled":false,"rental_uris":{"android":"levelo://app?vid=4252dc35-26a3-4be4-b67b-07368568909d","ios":"levelo://app?vid=4252dc35-26a3-4be4-b67b-07368568909d"},"vehicle_type_id":"4","last_reported":1761819069,"current_range_meters":20400,"station_id":"ce4bgi92rcd13ifvqb90","pricing_plan_id":"cebpf4jnsgd1na2vs0mg"},{"bike_id":"08e0dc18-c2b0-46a1-bf8a-48c64c90c5fa","system_id":"levelo_inurba_marseille","lat":43.26222,"lon":5.40442,"is_reserved":false,"is_disabled":false,"rental_uris":{"android":"levelo://app?vid=08e0dc18-c2b0-46a1-bf8a-48c64c90c5fa","ios":"levelo://app?vid=08e0dc18-c2b0-46a1-bf8a-48c64c90c5fa"},"vehicle_type_id":"4","last_reported":1761819069,"current_range_meters":20400,"station_id":"ce4bhmh2rcd13ifvqgmg","pricing_plan_id":"cebpf4jnsgd1na2vs0mg"},{"bike_id":"e974006c-e3c8-4c1a-9a8d-ea5c7e7acb49","system_id":"levelo_inurba_marseille","lat":43.28524,"lon":5.44104,"is_reserved":false,"is_disabled":false,"rental_uris":{"android":"levelo://app?vid=e974006c-e3c8-4c1a-9a8d-ea5c7e7acb49","ios":"levelo://app?vid=e974006c-e3c8-4c1a-9a8d-ea5c7e7acb49"},"vehicle_type_id":"4","last_reported":1761819069,"current_range_meters":20400,"station_id":"st_d3j3df2ikq2c7380ej80","pricing_plan_id":"cebpf4jnsgd1na2vs0mg"},{"bike_id":"a3cb7927-5d87-405b-8ced-8286faba2d77","system_id":"levelo_inurba_marseille","lat":43.243937,"lon":5.370635,"is_reserved":false,"is_disabled":false,"rental_uris":{"android":"levelo://app?vid=a3cb7927-5d87-405b-8ced-8286faba2d77","ios":"levelo://app?vid=a3cb7927-5d87-405b-8ced-8286faba2d77"},"vehicle_type_id":"4","last_reported":1761819069,"current_range_meters":20400,"station_id":"ce4bhhh2rcd13ifvqfk0","pricing_plan_id":"cebpf4jnsgd1na2vs0mg"},{"bike_id":"179ce6e6-2ed9-442e-92a4-9e439bdae226","system_id":"levelo_inurba_marseille","lat":43.31263,"lon":5.3684,"is_reserved":false,"is_disabled":false,"rental_uris":{"android":"levelo://app?vid=179ce6e6-2ed9-442e-92a4-9e439bdae226","ios":"levelo://app?vid=179ce6e6-2ed9-442e-92a4-9e439bdae226"},"vehicle_type_id":"4","last_reported":1761819069,"current_range_meters":20400,"station_id":"ce4bgl92rcd13ifvqbq0","pricing_plan_id":"cebpf4jnsgd1na2vs0mg"},{"bike_id":"53e66290-0ede-4a08-8fbe-aadbd1038f64","system_id":"levelo_inurba_marseille","lat":43.32116,"lon":5.36778,"is_reserved":false,"is_disabled":false,"rental_uris":{"android":"levelo://app?vid=53e66290-0ede-4a08-8fbe-aadbd1038f64","ios":"levelo://app?vid=53e66290-0ede-4a08-8fbe-aadbd1038f64"},"vehicle_type_id":"4","last_reported":1761819069,"current_range_meters":20400,"station_id":"ce4bhrh2rcd13ifvqhug","pricing_plan_id":"cebpf4jnsgd1na2vs0mg"},{"bike_id":"90cc4e35-1e9a-4d48-878d-a3997094c0ce","system_id":"levelo_inurba_marseille","lat":43.246364,"lon":5.43144,"is_reserved":false,"is_disabled":false,"rental_uris":{"android":"levelo://app?vid=90cc4e35-1e9a-4d48-878d-a3997094c0ce","ios":"levelo://app?vid=90cc4e35-1e9a-4d48-878d-a3997094c0ce"},"vehicle_type_id":"4","last_reported":1761819069,"current_range_meters":20400,"station_id":"st_d2m6c4gdas8pm72e190g","pricing_plan_id":"cebpf4jnsgd1na2vs0mg"},{"bike_id":"f7c5d7cc-37c0-4f1a-af6f-2c36df69a82b","system_id":"levelo_inurba_marseille","lat":43.29014,"lon":5.38125,"is_reserved":false,"is_disabled":false,"rental_uris":{"android":"levelo://app?vid=f7c5d7cc-37c0-4f1a-af6f-2c36df69a82b","ios":"levelo://app?vid=f7c5d7cc-37c0-4f1a-af6f-2c36df69a82b"},"vehicle_type_id":"4","last_reported":1761819069,"current_range_meters":20800,"station_id":"ce4bh4p2rcd13ifvqe1g","pricing_plan_id":"cebpf4jnsgd1na2vs0mg"},{"bike_id":"74fb40b5-09ba-4fbd-ac16-98c4cfca9fb1","system_id":"levelo_inurba_marseille","lat":43.2417,"lon":5.36392,"is_reserved":false,"is_disabled":false,"rental_uris":{"android":"levelo://app?vid=74fb40b5-09ba-4fbd-ac16-98c4cfca9fb1","ios":"levelo://app?vid=74fb40b5-09ba-4fbd-ac16-98c4cfca9fb1"},"vehicle_type_id":"4","last_reported":1761819069,"current_range_meters":20800,"station_id":"cpo36qri1sfpv3e86is0","pricing_plan_id":"cebpf4jnsgd1na2vs0mg"},{"bike_id":"184d28e3-b90a-4f94-9392-6703a8d0a131","system_id":"levelo_inurba_marseille","lat":43.30373,"lon":5.42485,"is_reserved":false,"is_disabled":false,"rental_uris":{"android":"levelo://app?vid=184d28e3-b90a-4f94-9392-6703a8d0a131","ios":"levelo://app?vid=184d28e3-b90a-4f94-9392-6703a8d0a131"},"vehicle_type_id":"4","last_reported":1761819069,"current_range_meters":20800,"station_id":"ce4bhoh2rcd13ifvqh6g","pricing_plan_id":"cebpf4jnsgd1na2vs0mg"},{"bike_id":"08ca7024-24c3-4aef-95bb-78f78c8797a9","system_id":"levelo_inurba_marseille","lat":43.30533,"lon":5.36701,"is_reserved":false,"is_disabled":false,"rental_uris":{"android":"levelo://app?vid=08ca7024-24c3-4aef-95bb-78f78c8797a9","ios":"levelo://app?vid=08ca7024-24c3-4aef-95bb-78f78c8797a9"},"vehicle_type_id":"4","last_reported":1761819069,"current_range_meters":20800,"station_id":"ce4bgrp2rcd13ifvqc9g","pricing_plan_id":"cebpf4jnsgd1na2vs0mg"},{"bike_id":"1a00eeef-298b-4051-aa33-6bf33103e105","system_id":"levelo_inurba_marseille","lat":43.285551,"lon":5.394949,"is_reserved":false,"is_disabled":false,"rental_uris":{"android":"levelo://app?vid=1a00eeef-298b-4051-aa33-6bf33103e105","ios":"levelo://app?vid=1a00eeef-298b-4051-aa33-6bf33103e105"},"vehicle_type_id":"4","last_reported":1761819069,"current_range_meters":21600,"station_id":"ce4bh292rcd13ifvqdg0","pricing_plan_id":"cebpf4jnsgd1na2vs0mg"},{"bike_id":"cb1fa815-aefd-4bd1-952d-88e4cf3eea21","system_id":"levelo_inurba_marseille","lat":43.229261,"lon":5.353865,"is_reserved":false,"is_disabled":false,"rental_uris":{"android":"levelo://app?vid=cb1fa815-aefd-4bd1-952d-88e4cf3eea21","ios":"levelo://app?vid=cb1fa815-aefd-4bd1-952d-88e4cf3eea21"},"vehicle_type_id":"4","last_reported":1761819069,"current_range_meters":21600,"station_id":"cpo3532slgdg3j2ikp40","pricing_plan_id":"cebpf4jnsgd1na2vs0mg"},{"bike_id":"00276c2e-b984-4f56-8312-6e9347fad2da","system_id":"levelo_inurba_marseille","lat":43.30918,"lon":5.36855,"is_reserved":false,"is_disabled":false,"rental_uris":{"android":"levelo://app?vid=00276c2e-b984-4f56-8312-6e9347fad2da","ios":"levelo://app?vid=00276c2e-b984-4f56-8312-6e9347fad2da"},"vehicle_type_id":"4","last_reported":1761819069,"current_range_meters":21600,"station_id":"ce4bgn92rcd13ifvqbvg","pricing_plan_id":"cebpf4jnsgd1na2vs0mg"},{"bike_id":"3fdd4075-2d2f-41f7-b068-ea13f83763a0","system_id":"levelo_inurba_marseille","lat":43.33029,"lon":5.39035,"is_reserved":false,"is_disabled":false,"rental_uris":{"android":"levelo://app?vid=3fdd4075-2d2f-41f7-b068-ea13f83763a0","ios":"levelo://app?vid=3fdd4075-2d2f-41f7-b068-ea13f83763a0"},"vehicle_type_id":"4","last_reported":1761819069,"current_range_meters":21600,"station_id":"ce4bhr92rcd13ifvqhrg","pricing_plan_id":"cebpf4jnsgd1na2vs0mg"},{"bike_id":"e60b0333-0a24-4404-931c-b912080b1bba","system_id":"levelo_inurba_marseille","lat":43.30145,"lon":5.38083,"is_reserved":false,"is_disabled":false,"rental_uris":{"android":"levelo://app?vid=e60b0333-0a24-4404-931c-b912080b1bba","ios":"levelo://app?vid=e60b0333-0a24-4404-931c-b912080b1bba"},"vehicle_type_id":"4","last_reported":1761819069,"current_range_meters":21600,"station_id":"ce4bgjp2rcd13ifvqbh0","pricing_plan_id":"cebpf4jnsgd1na2vs0mg"},{"bike_id":"9cfb94e3-c164-4a1d-8208-ffa864d81ed0","system_id":"levelo_inurba_marseille","lat":43.28709,"lon":5.3999,"is_reserved":false,"is_disabled":false,"rental_uris":{"android":"levelo://app?vid=9cfb94e3-c164-4a1d-8208-ffa864d81ed0","ios":"levelo://app?vid=9cfb94e3-c164-4a1d-8208-ffa864d81ed0"},"vehicle_type_id":"4","last_reported":1761819069,"current_range_meters":22000,"station_id":"ce4bho92rcd13ifvqh3g","pricing_plan_id":"cebpf4jnsgd1na2vs0mg"},{"bike_id":"50005f3a-cd49-4499-bb24-14ba18fd127d","system_id":"levelo_inurba_marseille","lat":43.27941,"lon":5.41038,"is_reserved":false,"is_disabled":false,"rental_uris":{"android":"levelo://app?vid=50005f3a-cd49-4499-bb24-14ba18fd127d","ios":"levelo://app?vid=50005f3a-cd49-4499-bb24-14ba18fd127d"},"vehicle_type_id":"4","last_reported":1761819069,"current_range_meters":22000,"station_id":"ce4bhnp2rcd13ifvqh0g","pricing_plan_id":"cebpf4jnsgd1na2vs0mg"},{"bike_id":"b1e81361-2b17-4ef1-8a58-6def5753471b","system_id":"levelo_inurba_marseille","lat":43.33753,"lon":5.37484,"is_reserved":false,"is_disabled":false,"rental_uris":{"android":"levelo://app?vid=b1e81361-2b17-4ef1-8a58-6def5753471b","ios":"levelo://app?vid=b1e81361-2b17-4ef1-8a58-6def5753471b"},"vehicle_type_id":"4","last_reported":1761819069,"current_range_meters":22000,"station_id":"","pricing_plan_id":"cebpf4jnsgd1na2vs0mg"},{"bike_id":"cbb665fa-281a-4631-b1f8-985ccb6b7530","system_id":"levelo_inurba_marseille","lat":43.24165,"lon":5.39717,"is_reserved":false,"is_disabled":false,"rental_uris":{"android":"levelo://app?vid=cbb665fa-281a-4631-b1f8-985ccb6b7530","ios":"levelo://app?vid=cbb665fa-281a-4631-b1f8-985ccb6b7530"},"vehicle_type_id":"4","last_reported":1761819069,"current_range_meters":22000,"station_id":"ce4bhn12rcd13ifvqgpg","pricing_plan_id":"cebpf4jnsgd1na2vs0mg"},{"bike_id":"74ce4eac-378b-47fe-a93d-56df6d774c64","system_id":"levelo_inurba_marseille","lat":43.263444,"lon":5.373877,"is_reserved":false,"is_disabled":false,"rental_uris":{"android":"levelo://app?vid=74ce4eac-378b-47fe-a93d-56df6d774c64","ios":"levelo://app?vid=74ce4eac-378b-47fe-a93d-56df6d774c64"},"vehicle_type_id":"4","last_reported":1761819069,"current_range_meters":22400,"station_id":"","pricing_plan_id":"cebpf4jnsgd1na2vs0mg"},{"bike_id":"7db8800b-2f69-444d-ae6a-738bbd094669","system_id":"levelo_inurba_marseille","lat":43.2922,"lon":5.36062,"is_reserved":false,"is_disabled":false,"rental_uris":{"android":"levelo://app?vid=7db8800b-2f69-444d-ae6a-738bbd094669","ios":"levelo://app?vid=7db8800b-2f69-444d-ae6a-738bbd094669"},"vehicle_type_id":"4","last_reported":1761819069,"current_range_meters":22400,"station_id":"ce4bhbh2rcd13ifvqeqg","pricing_plan_id":"cebpf4jnsgd1na2vs0mg"},{"bike_id":"b29adc19-b67e-454c-a0de-f667e061e9f5","system_id":"levelo_inurba_marseille","lat":43.24822,"lon":5.37449,"is_reserved":false,"is_disabled":false,"rental_uris":{"android":"levelo://app?vid=b29adc19-b67e-454c-a0de-f667e061e9f5","ios":"levelo://app?vid=b29adc19-b67e-454c-a0de-f667e061e9f5"},"vehicle_type_id":"4","last_reported":1761819069,"current_range_meters":22400,"station_id":"ce4bhgh2rcd13ifvqfb0","pricing_plan_id":"cebpf4jnsgd1na2vs0mg"},{"bike_id":"586bd04d-e11d-4928-b145-da58f9538bd2","system_id":"levelo_inurba_marseille","lat":43.27558,"lon":5.38443,"is_reserved":false,"is_disabled":false,"rental_uris":{"android":"levelo://app?vid=586bd04d-e11d-4928-b145-da58f9538bd2","ios":"levelo://app?vid=586bd04d-e11d-4928-b145-da58f9538bd2"},"vehicle_type_id":"4","last_reported":1761819069,"current_range_meters":22400,"station_id":"ce4bhh92rcd13ifvqfi0","pricing_plan_id":"cebpf4jnsgd1na2vs0mg"},{"bike_id":"5d6dab70-76c7-420b-ad97-bb518b3696b2","system_id":"levelo_inurba_marseille","lat":43.2929,"lon":5.37473,"is_reserved":false,"is_disabled":false,"rental_uris":{"android":"levelo://app?vid=5d6dab70-76c7-420b-ad97-bb518b3696b2","ios":"levelo://app?vid=5d6dab70-76c7-420b-ad97-bb518b3696b2"},"vehicle_type_id":"4","last_reported":1761819069,"current_range_meters":22400,"station_id":"ce4bgi12rcd13ifvqb70","pricing_plan_id":"cebpf4jnsgd1na2vs0mg"},{"bike_id":"8c35a7e4-8378-4fdf-b42f-02e88b6199ca","system_id":"levelo_inurba_marseille","lat":43.320975,"lon":5.367655,"is_reserved":false,"is_disabled":false,"rental_uris":{"android":"levelo://app?vid=8c35a7e4-8378-4fdf-b42f-02e88b6199ca","ios":"levelo://app?vid=8c35a7e4-8378-4fdf-b42f-02e88b6199ca"},"vehicle_type_id":"4","last_reported":1761819069,"current_range_meters":22400,"station_id":"ce4bhrh2rcd13ifvqhug","pricing_plan_id":"cebpf4jnsgd1na2vs0mg"},{"bike_id":"97e7900f-47ef-4b0a-89ed-b6175be25a8b","system_id":"levelo_inurba_marseille","lat":43.29492,"lon":5.43307,"is_reserved":false,"is_disabled":false,"rental_uris":{"android":"levelo://app?vid=97e7900f-47ef-4b0a-89ed-b6175be25a8b","ios":"levelo://app?vid=97e7900f-47ef-4b0a-89ed-b6175be25a8b"},"vehicle_type_id":"4","last_reported":1761819069,"current_range_meters":22400,"station_id":"st_d3j5ugp08ojc73fj9d10","pricing_plan_id":"cebpf4jnsgd1na2vs0mg"},{"bike_id":"40152862-2166-47da-a1bd-89fe0138f24b","system_id":"levelo_inurba_marseille","lat":43.25341,"lon":5.42161,"is_reserved":false,"is_disabled":false,"rental_uris":{"android":"levelo://app?vid=40152862-2166-47da-a1bd-89fe0138f24b","ios":"levelo://app?vid=40152862-2166-47da-a1bd-89fe0138f24b"},"vehicle_type_id":"4","last_reported":1761819069,"current_range_meters":22800,"station_id":"st_d2m65c5bi1j21697t3ng","pricing_plan_id":"cebpf4jnsgd1na2vs0mg"},{"bike_id":"4c048a96-d103-4561-9dfa-cea6174628b6","system_id":"levelo_inurba_marseille","lat":43.3211,"lon":5.367738,"is_reserved":false,"is_disabled":false,"rental_uris":{"android":"levelo://app?vid=4c048a96-d103-4561-9dfa-cea6174628b6","ios":"levelo://app?vid=4c048a96-d103-4561-9dfa-cea6174628b6"},"vehicle_type_id":"4","last_reported":1761819069,"current_range_meters":22800,"station_id":"ce4bhrh2rcd13ifvqhug","pricing_plan_id":"cebpf4jnsgd1na2vs0mg"},{"bike_id":"6b3658f9-7b9c-4b9a-8abf-f3260d6b9b76","system_id":"levelo_inurba_marseille","lat":43.246305,"lon":5.431466,"is_reserved":false,"is_disabled":false,"rental_uris":{"android":"levelo://app?vid=6b3658f9-7b9c-4b9a-8abf-f3260d6b9b76","ios":"levelo://app?vid=6b3658f9-7b9c-4b9a-8abf-f3260d6b9b76"},"vehicle_type_id":"4","last_reported":1761819069,"current_range_meters":22800,"station_id":"st_d2m6c4gdas8pm72e190g","pricing_plan_id":"cebpf4jnsgd1na2vs0mg"},{"bike_id":"ec2b772c-4bd8-4e23-8b5f-65b13a01f66b","system_id":"levelo_inurba_marseille","lat":43.26206,"lon":5.37923,"is_reserved":false,"is_disabled":false,"rental_uris":{"android":"levelo://app?vid=ec2b772c-4bd8-4e23-8b5f-65b13a01f66b","ios":"levelo://app?vid=ec2b772c-4bd8-4e23-8b5f-65b13a01f66b"},"vehicle_type_id":"4","last_reported":1761819069,"current_range_meters":22800,"station_id":"ce4bhjp2rcd13ifvqg90","pricing_plan_id":"cebpf4jnsgd1na2vs0mg"},{"bike_id":"52b117f2-4c01-4f66-887d-006722496528","system_id":"levelo_inurba_marseille","lat":43.30867,"lon":5.37152,"is_reserved":false,"is_disabled":false,"rental_uris":{"android":"levelo://app?vid=52b117f2-4c01-4f66-887d-006722496528","ios":"levelo://app?vid=52b117f2-4c01-4f66-887d-006722496528"},"vehicle_type_id":"4","last_reported":1761819069,"current_range_meters":22800,"station_id":"ce4bguh2rcd13ifvqckg","pricing_plan_id":"cebpf4jnsgd1na2vs0mg"},{"bike_id":"76c6eb99-cde4-4ff3-a6ba-4111db2625b0","system_id":"levelo_inurba_marseille","lat":43.24637,"lon":5.43132,"is_reserved":false,"is_disabled":false,"rental_uris":{"android":"levelo://app?vid=76c6eb99-cde4-4ff3-a6ba-4111db2625b0","ios":"levelo://app?vid=76c6eb99-cde4-4ff3-a6ba-4111db2625b0"},"vehicle_type_id":"4","last_reported":1761819069,"current_range_meters":22800,"station_id":"st_d2m6c4gdas8pm72e190g","pricing_plan_id":"cebpf4jnsgd1na2vs0mg"},{"bike_id":"34fc986f-789c-4899-9693-818653fddede","system_id":"levelo_inurba_marseille","lat":43.2621,"lon":5.40468,"is_reserved":false,"is_disabled":false,"rental_uris":{"android":"levelo://app?vid=34fc986f-789c-4899-9693-818653fddede","ios":"levelo://app?vid=34fc986f-789c-4899-9693-818653fddede"},"vehicle_type_id":"4","last_reported":1761819069,"current_range_meters":23200,"station_id":"ce4bhmh2rcd13ifvqgmg","pricing_plan_id":"cebpf4jnsgd1na2vs0mg"},{"bike_id":"231f89f8-c0d0-4d85-b266-b86f407ecfac","system_id":"levelo_inurba_marseille","lat":43.31324,"lon":5.39689,"is_reserved":false,"is_disabled":false,"rental_uris":{"android":"levelo://app?vid=231f89f8-c0d0-4d85-b266-b86f407ecfac","ios":"levelo://app?vid=231f89f8-c0d0-4d85-b266-b86f407ecfac"},"vehicle_type_id":"4","last_reported":1761819069,"current_range_meters":23200,"station_id":"ce4bgvp2rcd13ifvqcu0","pricing_plan_id":"cebpf4jnsgd1na2vs0mg"},{"bike_id":"dc019d93-95a9-47c6-b72a-c76434025334","system_id":"levelo_inurba_marseille","lat":43.30193,"lon":5.36628,"is_reserved":false,"is_disabled":false,"rental_uris":{"android":"levelo://app?vid=dc019d93-95a9-47c6-b72a-c76434025334","ios":"levelo://app?vid=dc019d93-95a9-47c6-b72a-c76434025334"},"vehicle_type_id":"4","last_reported":1761819069,"current_range_meters":24000,"station_id":"ce4bgrh2rcd13ifvqc8g","pricing_plan_id":"cebpf4jnsgd1na2vs0mg"},{"bike_id":"554538c1-4aaf-4092-ae77-a3e71955058a","system_id":"levelo_inurba_marseille","lat":43.24186,"lon":5.39727,"is_reserved":false,"is_disabled":false,"rental_uris":{"android":"levelo://app?vid=554538c1-4aaf-4092-ae77-a3e71955058a","ios":"levelo://app?vid=554538c1-4aaf-4092-ae77-a3e71955058a"},"vehicle_type_id":"4","last_reported":1761819069,"current_range_meters":24000,"station_id":"ce4bhn12rcd13ifvqgpg","pricing_plan_id":"cebpf4jnsgd1na2vs0mg"},{"bike_id":"a33ea933-156a-4016-9921-186c224291cc","system_id":"levelo_inurba_marseille","lat":43.23152,"lon":5.43703,"is_reserved":false,"is_disabled":false,"rental_uris":{"android":"levelo://app?vid=a33ea933-156a-4016-9921-186c224291cc","ios":"levelo://app?vid=a33ea933-156a-4016-9921-186c224291cc"},"vehicle_type_id":"4","last_reported":1761819069,"current_range_meters":24000,"station_id":"ce4bhmp2rcd13ifvqgog","pricing_plan_id":"cebpf4jnsgd1na2vs0mg"},{"bike_id":"2f135de3-dac9-41d8-b1a5-5874b62074d8","system_id":"levelo_inurba_marseille","lat":43.31335,"lon":5.39691,"is_reserved":false,"is_disabled":false,"rental_uris":{"android":"levelo://app?vid=2f135de3-dac9-41d8-b1a5-5874b62074d8","ios":"levelo://app?vid=2f135de3-dac9-41d8-b1a5-5874b62074d8"},"vehicle_type_id":"4","last_reported":1761819069,"current_range_meters":24000,"station_id":"ce4bgvp2rcd13ifvqcu0","pricing_plan_id":"cebpf4jnsgd1na2vs0mg"},{"bike_id":"f43a1e3d-9c30-42bc-b5f4-170669afe498","system_id":"levelo_inurba_marseille","lat":43.26865,"lon":5.41939,"is_reserved":false,"is_disabled":false,"rental_uris":{"android":"levelo://app?vid=f43a1e3d-9c30-42bc-b5f4-170669afe498","ios":"levelo://app?vid=f43a1e3d-9c30-42bc-b5f4-170669afe498"},"vehicle_type_id":"4","last_reported":1761819069,"current_range_meters":24000,"station_id":"","pricing_plan_id":"cebpf4jnsgd1na2vs0mg"},