{"last_updated":1691424489,"ttl":30,"version":"2.2","data":{"bikes":[{"bike_id":"577f79a0-a312-4e6f-85c4-f87652e530f1","system_id":"levelo_inurba_marseille","lat":43.31227,"lon":5.36857,"is_reserved":false,"is_disabled":false,"rental_uris":{"android":"levelo://app?vid=577f79a0-a312-4e6f-85c4-f87652e530f1","ios":"levelo://app?vid=577f79a0-a312-4e6f-85c4-f87652e530f1"},"vehicle_type_id":"4","last_reported":1691424489,"current_range_meters":18400,"station_id":"ce4bgl92rcd13ifvqbq0","pricing_plan_id":"free"},{"bike_id":"44b0c2df-2b3d-4d4f-ac3f-618468c7d062","system_id":"levelo_inurba_marseille","lat":43.31219,"lon":5.36856,"is_reserved":false,"is_disabled":false,"rental_uris":{"android":"levelo://app?vid=44b0c2df-2b3d-4d4f-ac3f-618468c7d062","ios":"levelo://app?vid=44b0c2df-2b3d-4d4f-ac3f-618468c7d062"},"vehicle_type_id":"4","last_reported":1691424489,"current_range_meters":16000,"station_id":"ce4bgl92rcd13ifvqbq0","pricing_plan_id":"free"},{"bike_id":"dc4f77c7-1cb3-40e3-aeab-c9218f21a0e3","system_id":"levelo_inurba_marseille","lat":43.31716,"lon":5.36868,"is_reserved":false,"is_disabled":false,"rental_uris":{"android":"levelo://app?vid=dc4f77c7-1cb3-40e3-aeab-c9218f21a0e3","ios":"levelo://app?vid=dc4f77c7-1cb3-40e3-aeab-c9218f21a0e3"},"vehicle_type_id":"4","last_reported":1691424489,"current_range_meters":0,"station_id":"","pricing_plan_id":"free"},{"bike_id":"054b61e4-02b1-4374-a9c4-d0f0eb8329c6","system_id":"levelo_inurba_marseille","lat":43.314811,"lon":5.373103,"is_reserved":false,"is_disabled":false,"rental_uris":{"android":"levelo://app?vid=054b61e4-02b1-4374-a9c4-d0f0eb8329c6","ios":"levelo://app?vid=054b61e4-02b1-4374-a9c4-d0f0eb8329c6"},"vehicle_type_id":"4","last_reported":1691424489,"current_range_meters":31200,"station_id":"ce4bgt12rcd13ifvqcd0","pricing_plan_id":"free"},{"bike_id":"8157fb66-3b83-4625-8b4c-28e6f9895fe9","system_id":"levelo_inurba_marseille","lat":43.314811,"lon":5.373103,"is_reserved":false,"is_disabled":false,"rental_uris":{"android":"levelo://app?vid=8157fb66-3b83-4625-8b4c-28e6f9895fe9","ios":"levelo://app?vid=8157fb66-3b83-4625-8b4c-28e6f9895fe9"},"vehicle_type_id":"4","last_reported":1691424489,"current_range_meters":0,"station_id":"ce4bgt12rcd13ifvqcd0","pricing_plan_id":"free"},{"bike_id":"64cbe807-096c-4c82-9b46-7338525d57cb","system_id":"levelo_inurba_marseille","lat":43.309003,"lon":5.371891,"is_reserved":false,"is_disabled":false,"rental_uris":{"android":"levelo://app?vid=64cbe807-096c-4c82-9b46-7338525d57cb","ios":"levelo://app?vid=64cbe807-096c-4c82-9b46-7338525d57cb"},"vehicle_type_id":"4","last_reported":1691424489,"current_range_meters":12400,"station_id":"ce4bguh2rcd13ifvqckg","pricing_plan_id":"free"},{"bike_id":"7b4b4caa-d154-4260-b87d-f202028e0fed","system_id":"levelo_inurba_marseille","lat":43.31372,"lon":5.37448,"is_reserved":false,"is_disabled":false,"rental_uris":{"android":"levelo://app?vid=7b4b4caa-d154-4260-b87d-f202028e0fed","ios":"levelo://app?vid=7b4b4caa-d154-4260-b87d-f202028e0fed"},"vehicle_type_id":"4","last_reported":1691424489,"current_range_meters":29600,"station_id":"","pricing_plan_id":"free"},{"bike_id":"80aed3dc-a480-43ea-87ed-e1a40baa8a44","system_id":"levelo_inurba_marseille","lat":43.30548,"lon":5.36704,"is_reserved":false,"is_disabled":false,"rental_uris":{"android":"levelo://app?vid=80aed3dc-a480-43ea-87ed-e1a40baa8a44","ios":"levelo://app?vid=80aed3dc-a480-43ea-87ed-e1a40baa8a44"},"vehicle_type_id":"4","last_reported":1691424489,"current_range_meters":26000,"station_id":"ce4bgrp2rcd13ifvqc9g","pricing_plan_id":"free"},{"bike_id":"e8750672-94e0-4b5c-9bf1-4bb68892ae10","system_id":"levelo_inurba_marseille","lat":43.30549,"lon":5.36544,"is_reserved":false,"is_disabled":false,"rental_uris":{"android":"levelo://app?vid=e8750672-94e0-4b5c-9bf1-4bb68892ae10","ios":"levelo://app?vid=e8750672-94e0-4b5c-9bf1-4bb68892ae10"},"vehicle_type_id":"4","last_reported":1691424489,"current_range_meters":22000,"station_id":"ce4bgs12rcd13ifvqcag","pricing_plan_id":"free"},{"bike_id":"9d3bf664-4a89-4fa6-bb61-d30d226eb650","system_id":"levelo_inurba_marseille","lat":43.30539,"lon":5.36534,"is_reserved":false,"is_disabled":false,"rental_uris":{"android":"levelo://app?vid=9d3bf664-4a89-4fa6-bb61-d30d226eb650","ios":"levelo://app?vid=9d3bf664-4a89-4fa6-bb61-d30d226eb650"},"vehicle_type_id":"4","last_reported":1691424489,"current_range_meters":17600,"station_id":"ce4bgs12rcd13ifvqcag","pricing_plan_id":"free"},{"bike_id":"d8690c47-d899-4d66-b924-927109a3465f","system_id":"levelo_inurba_marseille","lat":43.30536,"lon":5.36529,"is_reserved":false,"is_disabled":false,"rental_uris":{"android":"levelo://app?vid=d8690c47-d899-4d66-b924-927109a3465f","ios":"levelo://app?vid=d8690c47-d899-4d66-b924-927109a3465f"},"vehicle_type_id":"4","last_reported":1691424489,"current_range_meters":25600,"station_id":"ce4bgs12rcd13ifvqcag","pricing_plan_id":"free"},{"bike_id":"f20ea888-8740-440b-bfeb-8eb2a7c1f652","system_id":"levelo_inurba_marseille","lat":43.30597,"lon":5.37211,"is_reserved":false,"is_disabled":false,"rental_uris":{"android":"levelo://app?vid=f20ea888-8740-440b-bfeb-8eb2a7c1f652","ios":"levelo://app?vid=f20ea888-8740-440b-bfeb-8eb2a7c1f652"},"vehicle_type_id":"4","last_reported":1691424489,"current_range_meters":31200,"station_id":"ce4bgqh2rcd13ifvqc4g","pricing_plan_id":"free"},{"bike_id":"a87d192d-9a39-484e-aef8-a4a25e8df7b4","system_id":"levelo_inurba_marseille","lat":43.305989,"lon":5.37225,"is_reserved":false,"is_disabled":false,"rental_uris":{"android":"levelo://app?vid=a87d192d-9a39-484e-aef8-a4a25e8df7b4","ios":"levelo://app?vid=a87d192d-9a39-484e-aef8-a4a25e8df7b4"},"vehicle_type_id":"4","last_reported":1691424489,"current_range_meters":17600,"station_id":"ce4bgqh2rcd13ifvqc4g","pricing_plan_id":"free"},{"bike_id":"0db47f24-802d-4e62-9b20-b2db9c8ccf38","system_id":"levelo_inurba_marseille","lat":43.306,"lon":5.37231,"is_reserved":false,"is_disabled":false,"rental_uris":{"android":"levelo://app?vid=0db47f24-802d-4e62-9b20-b2db9c8ccf38","ios":"levelo://app?vid=0db47f24-802d-4e62-9b20-b2db9c8ccf38"},"vehicle_type_id":"4","last_reported":1691424489,"current_range_meters":21200,"station_id":"ce4bgqh2rcd13ifvqc4g","pricing_plan_id":"free"},{"bike_id":"af28bb5e-fd31-4dba-960e-864347781e49","system_id":"levelo_inurba_marseille","lat":43.30597,"lon":5.37235,"is_reserved":false,"is_disabled":false,"rental_uris":{"android":"levelo://app?vid=af28bb5e-fd31-4dba-960e-864347781e49","ios":"levelo://app?vid=af28bb5e-fd31-4dba-960e-864347781e49"},"vehicle_type_id":"4","last_reported":1691424489,"current_range_meters":12000,"station_id":"ce4bgqh2rcd13ifvqc4g","pricing_plan_id":"free"},{"bike_id":"5da34ebf-c34a-4d12-9aad-7782e74b2da6","system_id":"levelo_inurba_marseille","lat":43.30592,"lon":5.37234,"is_reserved":false,"is_disabled":false,"rental_uris":{"android":"levelo://app?vid=5da34ebf-c34a-4d12-9aad-7782e74b2da6","ios":"levelo://app?vid=5da34ebf-c34a-4d12-9aad-7782e74b2da6"},"vehicle_type_id":"4","last_reported":1691424489,"current_range_meters":6400,"station_id":"ce4bgqh2rcd13ifvqc4g","pricing_plan_id":"free"},{"bike_id":"f69c4de1-9d87-43b3-b597-40b23afaf2cd","system_id":"levelo_inurba_marseille","lat":43.311131,"lon":5.377651,"is_reserved":false,"is_disabled":false,"rental_uris":{"android":"levelo://app?vid=f69c4de1-9d87-43b3-b597-40b23afaf2cd","ios":"levelo://app?vid=f69c4de1-9d87-43b3-b597-40b23afaf2cd"},"vehicle_type_id":"4","last_reported":1691424489,"current_range_meters":9200,"station_id":"ce4bgt92rcd13ifvqcg0","pricing_plan_id":"free"},{"bike_id":"f1e96b20-ceea-41d5-86d8-b513fa13aaef","system_id":"levelo_inurba_marseille","lat":43.311131,"lon":5.377651,"is_reserved":false,"is_disabled":false,"rental_uris":{"android":"levelo://app?vid=f1e96b20-ceea-41d5-86d8-b513fa13aaef","ios":"levelo://app?vid=f1e96b20-ceea-41d5-86d8-b513fa13aaef"},"vehicle_type_id":"4","last_reported":1691424489,"current_range_meters":7200,"station_id":"ce4bgt92rcd13ifvqcg0","pricing_plan_id":"free"},{"bike_id":"a3b16a9d-b3d9-4e31-bfde-09a9edf7e0c1","system_id":"levelo_inurba_marseille","lat":43.307945,"lon":5.376487,"is_reserved":false,"is_disabled":false,"rental_uris":{"android":"levelo://app?vid=a3b16a9d-b3d9-4e31-bfde-09a9edf7e0c1","ios":"levelo://app?vid=a3b16a9d-b3d9-4e31-bfde-09a9edf7e0c1"},"vehicle_type_id":"4","last_reported":1691424489,"current_range_meters":24000,"station_id":"ce4bgv92rcd13ifvqcq0","pricing_plan_id":"free"},{"bike_id":"4bf207ce-e0ba-4ecc-888d-63a023ade371","system_id":"levelo_inurba_marseille","lat":43.30785,"lon":5.37653,"is_reserved":false,"is_disabled":false,"rental_uris":{"android":"levelo://app?vid=4bf207ce-e0ba-4ecc-888d-63a023ade371","ios":"levelo://app?vid=4bf207ce-e0ba-4ecc-888d-63a023ade371"},"vehicle_type_id":"4","last_reported":1691424489,"current_range_meters":8400,"station_id":"ce4bgv92rcd13ifvqcq0","pricing_plan_id":"free"},{"bike_id":"6fc7c2b3-e2bc-448d-b581-63438be6ed1b","system_id":"levelo_inurba_marseille","lat":43.3078,"lon":5.3765,"is_reserved":false,"is_disabled":false,"rental_uris":{"android":"levelo://app?vid=6fc7c2b3-e2bc-448d-b581-63438be6ed1b","ios":"levelo://app?vid=6fc7c2b3-e2bc-448d-b581-63438be6ed1b"},"vehicle_type_id":"4","last_reported":1691424489,"current_range_meters":18800,"station_id":"ce4bgv92rcd13ifvqcq0","pricing_plan_id":"free"},{"bike_id":"a8e08286-e9a6-473b-8fd8-a1975fedb575","system_id":"levelo_inurba_marseille","lat":43.317075,"lon":5.377367,"is_reserved":false,"is_disabled":false,"rental_uris":{"android":"levelo://app?vid=a8e08286-e9a6-473b-8fd8-a1975fedb575","ios":"levelo://app?vid=a8e08286-e9a6-473b-8fd8-a1975fedb575"},"vehicle_type_id":"4","last_reported":1691424489,"current_range_meters":24000,"station_id":"ce4bgth2rcd13ifvqch0","pricing_plan_id":"free"},{"bike_id":"36ea8287-97db-4eee-ac55-8ca09c6322ac","system_id":"levelo_inurba_marseille","lat":43.317075,"lon":5.377367,"is_reserved":false,"is_disabled":false,"rental_uris":{"android":"levelo://app?vid=36ea8287-97db-4eee-ac55-8ca09c6322ac","ios":"levelo://app?vid=36ea8287-97db-4eee-ac55-8ca09c6322ac"},"vehicle_type_id":"4","last_reported":1691424489,"current_range_meters":31600,"station_id":"ce4bgth2rcd13ifvqch0","pricing_plan_id":"free"},{"bike_id":"f49eae80-64b6-414d-9fd3-d297bfb2c072","system_id":"levelo_inurba_marseille","lat":43.31531,"lon":5.38037,"is_reserved":false,"is_disabled":false,"rental_uris":{"android":"levelo://app?vid=f49eae80-64b6-414d-9fd3-d297bfb2c072","ios":"levelo://app?vid=f49eae80-64b6-414d-9fd3-d297bfb2c072"},"vehicle_type_id":"4","last_reported":1691424489,"current_range_meters":11200,"station_id":"ce4bhsp2rcd13ifvqi50","pricing_plan_id":"free"},{"bike_id":"8a59888d-2b3c-42ea-afee-49391dd040bf","system_id":"levelo_inurba_marseille","lat":43.301939,"lon":5.366286,"is_reserved":false,"is_disabled":false,"rental_uris":{"android":"levelo://app?vid=8a59888d-2b3c-42ea-afee-49391dd040bf","ios":"levelo://app?vid=8a59888d-2b3c-42ea-afee-49391dd040bf"},"vehicle_type_id":"4","last_reported":1691424489,"current_range_meters":800,"station_id":"ce4bgrh2rcd13ifvqc8g","pricing_plan_id":"free"},{"bike_id":"f85b44b6-b4d4-4698-8810-bb5fde654a4f","system_id":"levelo_inurba_marseille","lat":43.297163,"lon":5.365866,"is_reserved":false,"is_disabled":false,"rental_uris":{"android":"levelo://app?vid=f85b44b6-b4d4-4698-8810-bb5fde654a4f","ios":"levelo://app?vid=f85b44b6-b4d4-4698-8810-bb5fde654a4f"},"vehicle_type_id":"4","last_reported":1691424489,"current_range_meters":22400,"station_id":"ce4bgn12rcd13ifvqbt0","pricing_plan_id":"free"},{"bike_id":"96b6fc98-8755-4f3a-8f5b-2d6ec83c2b62","system_id":"levelo_inurba_marseille","lat":43.301939,"lon":5.366286,"is_reserved":false,"is_disabled":false,"rental_uris":{"android":"levelo://app?vid=96b6fc98-8755-4f3a-8f5b-2d6ec83c2b62","ios":"levelo://app?vid=96b6fc98-8755-4f3a-8f5b-2d6ec83c2b62"},"vehicle_type_id":"4","last_reported":1691424489,"current_range_meters":30400,"station_id":"ce4bgrh2rcd13ifvqc8g","pricing_plan_id":"free"},{"bike_id":"a7bdcca2-8c87-4969-beb5-7ea838a2e0cb","system_id":"levelo_inurba_marseille","lat":43.304606,"lon":5.379026,"is_reserved":false,"is_disabled":false,"rental_uris":{"android":"levelo://app?vid=a7bdcca2-8c87-4969-beb5-7ea838a2e0cb","ios":"levelo://app?vid=a7bdcca2-8c87-4969-beb5-7ea838a2e0cb"},"vehicle_type_id":"4","last_reported":1691424489,"current_range_meters":30800,"station_id":"ce4bgup2rcd13ifvqcn0","pricing_plan_id":"free"},{"bike_id":"980e72c6-b037-4b1c-98bb-ae5b4472e178","system_id":"levelo_inurba_marseille","lat":43.31091,"lon":5.38338,"is_reserved":false,"is_disabled":false,"rental_uris":{"android":"levelo://app?vid=980e72c6-b037-4b1c-98bb-ae5b4472e178","ios":"levelo://app?vid=980e72c6-b037-4b1c-98bb-ae5b4472e178"},"vehicle_type_id":"4","last_reported":1691424489,"current_range_meters":22000,"station_id":"","pricing_plan_id":"free"},{"bike_id":"1cbf5d22-1e39-4456-bfab-96e1141daeb6","system_id":"levelo_inurba_marseille","lat":43.302784,"lon":5.377158,"is_reserved":false,"is_disabled":false,"rental_uris":{"android":"levelo://app?vid=1cbf5d22-1e39-4456-bfab-96e1141daeb6","ios":"levelo://app?vid=1cbf5d22-1e39-4456-bfab-96e1141daeb6"},"vehicle_type_id":"4","last_reported":1691424489,"current_range_meters":10400,"station_id":"ce4bguh2rcd13ifvqcj0","pricing_plan_id":"free"},{"bike_id":"91c1e68c-072c-41ed-ab7d-e40ec14976ba","system_id":"levelo_inurba_marseille","lat":43.319935,"lon":5.381699,"is_reserved":false,"is_disabled":false,"rental_uris":{"android":"levelo://app?vid=91c1e68c-072c-41ed-ab7d-e40ec14976ba","ios":"levelo://app?vid=91c1e68c-072c-41ed-ab7d-e40ec14976ba"},"vehicle_type_id":"4","last_reported":1691424489,"current_range_meters":29200,"station_id":"ce4bhr12rcd13ifvqhpg","pricing_plan_id":"free"},{"bike_id":"6099e017-02a5-43a9-b4e0-3688526986e2","system_id":"levelo_inurba_marseille","lat":43.32003,"lon":5.38153,"is_reserved":false,"is_disabled":false,"rental_uris":{"android":"levelo://app?vid=6099e017-02a5-43a9-b4e0-3688526986e2","ios":"levelo://app?vid=6099e017-02a5-43a9-b4e0-3688526986e2"},"vehicle_type_id":"4","last_reported":1691424489,"current_range_meters":6000,"station_id":"ce4bhr12rcd13ifvqhpg","pricing_plan_id":"free"},{"bike_id":"e9206a79-5a07-4a05-bc87-5e0f899a828b","system_id":"levelo_inurba_marseille","lat":43.313571,"lon":5.384829,"is_reserved":false,"is_disabled":false,"rental_uris":{"android":"levelo://app?vid=e9206a79-5a07-4a05-bc87-5e0f899a828b","ios":"levelo://app?vid=e9206a79-5a07-4a05-bc87-5e0f899a828b"},"vehicle_type_id":"4","last_reported":1691424489,"current_range_meters":25200,"station_id":"ce4bgt92rcd13ifvqcf0","pricing_plan_id":"free"},{"bike_id":"935db625-222c-4382-927f-ecb8b2f218cc","system_id":"levelo_inurba_marseille","lat":43.299222,"lon":5.365554,"is_reserved":false,"is_disabled":false,"rental_uris":{"android":"levelo://app?vid=935db625-222c-4382-927f-ecb8b2f218cc","ios":"levelo://app?vid=935db625-222c-4382-927f-ecb8b2f218cc"},"vehicle_type_id":"4","last_reported":1691424489,"current_range_meters":1200,"station_id":"ce4bgm92rcd13ifvqbr0","pricing_plan_id":"free"},{"bike_id":"30537d43-af02-4a10-b928-7b9b8cf633d2","system_id":"levelo_inurba_marseille","lat":43.305349,"lon":5.384196,"is_reserved":false,"is_disabled":false,"rental_uris":{"android":"levelo://app?vid=30537d43-af02-4a10-b928-7b9b8cf633d2","ios":"levelo://app?vid=30537d43-af02-4a10-b928-7b9b8cf633d2"},"vehicle_type_id":"4","last_reported":1691424489,"current_range_meters":27200,"station_id":"ce4bgg92rcd13ifvqb30","pricing_plan_id":"free"},{"bike_id":"b441a352-ea26-492c-9fcb-9e0505e7eaae","system_id":"levelo_inurba_marseille","lat":43.32289,"lon":5.38256,"is_reserved":false,"is_disabled":false,"rental_uris":{"android":"levelo://app?vid=b441a352-ea26-492c-9fcb-9e0505e7eaae","ios":"levelo://app?vid=b441a352-ea26-492c-9fcb-9e0505e7eaae"},"vehicle_type_id":"4","last_reported":1691424489,"current_range_meters":22800,"station_id":"ce4bhr12rcd13ifvqhqg","pricing_plan_id":"free"},{"bike_id":"15b2f289-e8da-4c30-a721-2cf15799ace1","system_id":"levelo_inurba_marseille","lat":43.32284,"lon":5.38268,"is_reserved":false,"is_disabled":false,"rental_uris":{"android":"levelo://app?vid=15b2f289-e8da-4c30-a721-2cf15799ace1","ios":"levelo://app?vid=15b2f289-e8da-4c30-a721-2cf15799ace1"},"vehicle_type_id":"4","last_reported":1691424489,"current_range_meters":14400,"station_id":"ce4bhr12rcd13ifvqhqg","pricing_plan_id":"free"},{"bike_id":"8aa03af3-658d-4e9c-b0f1-5b3ff184a559","system_id":"levelo_inurba_marseille","lat":43.297794,"lon":5.370888,"is_reserved":false,"is_disabled":false,"rental_uris":{"android":"levelo://app?vid=8aa03af3-658d-4e9c-b0f1-5b3ff184a559","ios":"levelo://app?vid=8aa03af3-658d-4e9c-b0f1-5b3ff184a559"},"vehicle_type_id":"4","last_reported":1691424489,"current_range_meters":1600,"station_id":"ce4bgop2rcd13ifvqc1g","pricing_plan_id":"free"},{"bike_id":"bf4a0016-24b8-4a88-b88f-1624c511c71a","system_id":"levelo_inurba_marseille","lat":43.32823,"lon":5.36679,"is_reserved":false,"is_disabled":false,"rental_uris":{"android":"levelo://app?vid=bf4a0016-24b8-4a88-b88f-1624c511c71a","ios":"levelo://app?vid=bf4a0016-24b8-4a88-b88f-1624c511c71a"},"vehicle_type_id":"4","last_reported":1691424489,"current_range_meters":30000,"station_id":"ce4bhs92rcd13ifvqi0g","pricing_plan_id":"free"},{"bike_id":"b903a53c-959d-44ad-9c03-1aaac919aac3","system_id":"levelo_inurba_marseille","lat":43.32824,"lon":5.36673,"is_reserved":false,"is_disabled":false,"rental_uris":{"android":"levelo://app?vid=b903a53c-959d-44ad-9c03-1aaac919aac3","ios":"levelo://app?vid=b903a53c-959d-44ad-9c03-1aaac919aac3"},"vehicle_type_id":"4","last_reported":1691424489,"current_range_meters":0,"station_id":"ce4bhs92rcd13ifvqi0g","pricing_plan_id":"free"},{"bike_id":"662f058c-a03f-4220-9182-f974f75d5bf8","system_id":"levelo_inurba_marseille","lat":43.32828,"lon":5.36673,"is_reserved":false,"is_disabled":false,"rental_uris":{"android":"levelo://app?vid=662f058c-a03f-4220-9182-f974f75d5bf8","ios":"levelo://app?vid=662f058c-a03f-4220-9182-f974f75d5bf8"},"vehicle_type_id":"4","last_reported":1691424489,"current_range_meters":24800,"station_id":"ce4bhs92rcd13ifvqi0g","pricing_plan_id":"free"},{"bike_id":"5836a1e4-4588-49af-9855-adde616cd7f7","system_id":"levelo_inurba_marseille","lat":43.32829,"lon":5.36677,"is_reserved":false,"is_disabled":false,"rental_uris":{"android":"levelo://app?vid=5836a1e4-4588-49af-9855-adde616cd7f7","ios":"levelo://app?vid=5836a1e4-4588-49af-9855-adde616cd7f7"},"vehicle_type_id":"4","last_reported":1691424489,"current_range_meters":14400,"station_id":"ce4bhs92rcd13ifvqi0g","pricing_plan_id":"free"},{"bike_id":"5598ba69-7d08-42d1-9376-d503db4ba6c0","system_id":"levelo_inurba_marseille","lat":43.32829,"lon":5.36672,"is_reserved":false,"is_disabled":false,"rental_uris":{"android":"levelo://app?vid=5598ba69-7d08-42d1-9376-d503db4ba6c0","ios":"levelo://app?vid=5598ba69-7d08-42d1-9376-d503db4ba6c0"},"vehicle_type_id":"4","last_reported":1691424489,"current_range_meters":29200,"station_id":"ce4bhs92rcd13ifvqi0g","pricing_plan_id":"free"},{"bike_id":"1dfb0f28-fb21-43e0-9b30-d5e6195e19ba","system_id":"levelo_inurba_marseille","lat":43.3283,"lon":5.36675,"is_reserved":false,"is_disabled":false,"rental_uris":{"android":"levelo://app?vid=1dfb0f28-fb21-43e0-9b30-d5e6195e19ba","ios":"levelo://app?vid=1dfb0f28-fb21-43e0-9b30-d5e6195e19ba"},"vehicle_type_id":"4","last_reported":1691424489,"current_range_meters":28800,"station_id":"ce4bhs92rcd13ifvqi0g","pricing_plan_id":"free"},{"bike_id":"dd789220-e7b5-42c1-b9dc-dc4243148021","system_id":"levelo_inurba_marseille","lat":43.297163,"lon":5.365866,"is_reserved":false,"is_disabled":false,"rental_uris":{"android":"levelo://app?vid=dd789220-e7b5-42c1-b9dc-dc4243148021","ios":"levelo://app?vid=dd789220-e7b5-42c1-b9dc-dc4243148021"},"vehicle_type_id":"4","last_reported":1691424489,"current_range_meters":31200,"station_id":"ce4bgn12rcd13ifvqbt0","pricing_plan_id":"free"},{"bike_id":"13b0235e-e788-4b9a-92eb-8f27694326b2","system_id":"levelo_inurba_marseille","lat":43.299028,"lon":5.381509,"is_reserved":false,"is_disabled":false,"rental_uris":{"android":"levelo://app?vid=13b0235e-e788-4b9a-92eb-8f27694326b2","ios":"levelo://app?vid=13b0235e-e788-4b9a-92eb-8f27694326b2"},"vehicle_type_id":"4","last_reported":1691424489,"current_range_meters":28800,"station_id":"ce4bgj12rcd13ifvqbc0","pricing_plan_id":"free"},{"bike_id":"d46d1060-69b9-4f02-9ec0-0e2ffd5d7e26","system_id":"levelo_inurba_marseille","lat":43.298037,"lon":5.381066,"is_reserved":false,"is_disabled":false,"rental_uris":{"android":"levelo://app?vid=d46d1060-69b9-4f02-9ec0-0e2ffd5d7e26","ios":"levelo://app?vid=d46d1060-69b9-4f02-9ec0-0e2ffd5d7e26"},"vehicle_type_id":"4","last_reported":1691424489,"current_range_meters":15600,"station_id":"ce4bgip2rcd13ifvqbb0","pricing_plan_id":"free"},{"bike_id":"a4df99ce-0488-49dd-a888-94686f562e88","system_id":"levelo_inurba_marseille","lat":43.295748,"lon":5.37522,"is_reserved":false,"is_disabled":false,"rental_uris":{"android":"levelo://app?vid=a4df99ce-0488-49dd-a888-94686f562e88","ios":"levelo://app?vid=a4df99ce-0488-49dd-a888-94686f562e88"},"vehicle_type_id":"4","last_reported":1691424489,"current_range_meters":31200,"station_id":"ce4bgh92rcd13ifvqb50","pricing_plan_id":"free"},{"bike_id":"bd2998c8-a292-4478-9141-ff3bb0c199db","system_id":"levelo_inurba_marseille","lat":43.304278,"lon":5.388868,"is_reserved":false,"is_disabled":false,"rental_uris":{"android":"levelo://app?vid=bd2998c8-a292-4478-9141-ff3bb0c199db","ios":"levelo://app?vid=bd2998c8-a292-4478-9141-ff3bb0c199db"},"vehicle_type_id":"4","last_reported":1691424489,"current_range_meters":19600,"station_id":"ce4bgk12rcd13ifvqbi0","pricing_plan_id":"free"},{"bike_id":"2e5ce100-fbbc-4265-9841-b9aa1bc22e5f","system_id":"levelo_inurba_marseille","lat":43.299717,"lon":5.384845,"is_reserved":false,"is_disabled":false,"rental_uris":{"android":"levelo://app?vid=2e5ce100-fbbc-4265-9841-b9aa1bc22e5f","ios":"levelo://app?vid=2e5ce100-fbbc-4265-9841-b9aa1bc22e5f"},"vehicle_type_id":"4","last_reported":1691424489,"current_range_meters":12400,"station_id":"ce4bgj92rcd13ifvqbd0","pricing_plan_id":"free"},{"bike_id":"28c05cf4-e640-45d6-9781-a5bea4d71ec2","system_id":"levelo_inurba_marseille","lat":43.299717,"lon":5.384845,"is_reserved":false,"is_disabled":false,"rental_uris":{"android":"levelo://app?vid=28c05cf4-e640-45d6-9781-a5bea4d71ec2","ios":"levelo://app?vid=28c05cf4-e640-45d6-9781-a5bea4d71ec2"},"vehicle_type_id":"4","last_reported":1691424489,"current_range_meters":7600,"station_id":"ce4bgj92rcd13ifvqbd0","pricing_plan_id":"free"},{"bike_id":"0385959f-e4a4-4b53-a83f-b81824876402","system_id":"levelo_inurba_marseille","lat":43.32362,"lon":5.38877,"is_reserved":false,"is_disabled":false,"rental_uris":{"android":"levelo://app?vid=0385959f-e4a4-4b53-a83f-b81824876402","ios":"levelo://app?vid=0385959f-e4a4-4b53-a83f-b81824876402"},"vehicle_type_id":"4","last_reported":1691424489,"current_range_meters":29600,"station_id":"ce4bhqp2rcd13ifvqhog","pricing_plan_id":"free"},{"bike_id":"1aee17c8-b1cb-4104-9d5b-c2b4641080c1","system_id":"levelo_inurba_marseille","lat":43.32365,"lon":5.38877,"is_reserved":false,"is_disabled":false,"rental_uris":{"android":"levelo://app?vid=1aee17c8-b1cb-4104-9d5b-c2b4641080c1","ios":"levelo://app?vid=1aee17c8-b1cb-4104-9d5b-c2b4641080c1"},"vehicle_type_id":"4","last_reported":1691424489,"current_range_meters":25600,"station_id":"ce4bhqp2rcd13ifvqhog","pricing_plan_id":"free"},{"bike_id":"5c764597-7da2-4dc2-af09-7f55fa8ed93c","system_id":"levelo_inurba_marseille","lat":43.32363,"lon":5.3888,"is_reserved":false,"is_disabled":false,"rental_uris":{"android":"levelo://app?vid=5c764597-7da2-4dc2-af09-7f55fa8ed93c","ios":"levelo://app?vid=5c764597-7da2-4dc2-af09-7f55fa8ed93c"},"vehicle_type_id":"4","last_reported":1691424489,"current_range_meters":2000,"station_id":"ce4bhqp2rcd13ifvqhog","pricing_plan_id":"free"},{"bike_id":"2aefb029-3927-4d47-8658-23116018ae40","system_id":"levelo_inurba_marseille","lat":43.32369,"lon":5.3888,"is_reserved":false,"is_disabled":false,"rental_uris":{"android":"levelo://app?vid=2aefb029-3927-4d47-8658-23116018ae40","ios":"levelo://app?vid=2aefb029-3927-4d47-8658-23116018ae40"},"vehicle_type_id":"4","last_reported":1691424489,"current_range_meters":29600,"station_id":"ce4bhqp2rcd13ifvqhog","pricing_plan_id":"free"},{"bike_id":"f3068030-0bc0-4652-83aa-23c8f393bacc","system_id":"levelo_inurba_marseille","lat":43.32362,"lon":5.3889,"is_reserved":false,"is_disabled":false,"rental_uris":{"android":"levelo://app?vid=f3068030-0bc0-4652-83aa-23c8f393bacc","ios":"levelo://app?vid=f3068030-0bc0-4652-83aa-23c8f393bacc"},"vehicle_type_id":"4","last_reported":1691424489,"current_range_meters":30400,"station_id":"ce4bhqp2rcd13ifvqhog","pricing_plan_id":"free"},{"bike_id":"b6507bfb-f7f7-4b6c-b009-2c34d3c1e104","system_id":"levelo_inurba_marseille","lat":43.32367,"lon":5.38886,"is_reserved":false,"is_disabled":false,"rental_uris":{"android":"levelo://app?vid=b6507bfb-f7f7-4b6c-b009-2c34d3c1e104","ios":"levelo://app?vid=b6507bfb-f7f7-4b6c-b009-2c34d3c1e104"},"vehicle_type_id":"4","last_reported":1691424489,"current_range_meters":30400,"station_id":"ce4bhqp2rcd13ifvqhog","pricing_plan_id":"free"},{"bike_id":"c075b882-9087-4faa-9754-b6047ec5ba58","system_id":"levelo_inurba_marseille","lat":43.3237,"lon":5.38885,"is_reserved":false,"is_disabled":false,"rental_uris":{"android":"levelo://app?vid=c075b882-9087-4faa-9754-b6047ec5ba58","ios":"levelo://app?vid=c075b882-9087-4faa-9754-b6047ec5ba58"},"vehicle_type_id":"4","last_reported":1691424489,"current_range_meters":28000,"station_id":"ce4bhqp2rcd13ifvqhog","pricing_plan_id":"free"},{"bike_id":"dbe406a0-e31d-4174-932b-0d8d584d17c2","system_id":"levelo_inurba_marseille","lat":43.292749,"lon":5.368398,"is_reserved":false,"is_disabled":false,"rental_uris":{"android":"levelo://app?vid=dbe406a0-e31d-4174-932b-0d8d584d17c2","ios":"levelo://app?vid=dbe406a0-e31d-4174-932b-0d8d584d17c2"},"vehicle_type_id":"4","last_reported":1691424489,"current_range_meters":31200,"station_id":"ce4bhbp2rcd13ifvqesg","pricing_plan_id":"free"},{"bike_id":"980d9af0-33f7-4393-808d-d0c6d6d67783","system_id":"levelo_inurba_marseille","lat":43.293009,"lon":5.374584,"is_reserved":false,"is_disabled":false,"rental_uris":{"android":"levelo://app?vid=980d9af0-33f7-4393-808d-d0c6d6d67783","ios":"levelo://app?vid=980d9af0-33f7-4393-808d-d0c6d6d67783"},"vehicle_type_id":"4","last_reported":1691424489,"current_range_meters":30400,"station_id":"ce4bgi12rcd13ifvqb70","pricing_plan_id":"free"},{"bike_id":"8266e674-dc71-47d6-9e4d-e53eea823b76","system_id":"levelo_inurba_marseille","lat":43.305994,"lon":5.393687,"is_reserved":false,"is_disabled":false,"rental_uris":{"android":"levelo://app?vid=8266e674-dc71-47d6-9e4d-e53eea823b76","ios":"levelo://app?vid=8266e674-dc71-47d6-9e4d-e53eea823b76"},"vehicle_type_id":"4","last_reported":1691424489,"current_range_meters":21600,"station_id":"ce4bh0p2rcd13ifvqd80","pricing_plan_id":"free"},{"bike_id":"3c66b226-9dff-47fa-ad76-2712031c46d3","system_id":"levelo_inurba_marseille","lat":43.2936,"lon":5.37835,"is_reserved":false,"is_disabled":false,"rental_uris":{"android":"levelo://app?vid=3c66b226-9dff-47fa-ad76-2712031c46d3","ios":"levelo://app?vid=3c66b226-9dff-47fa-ad76-2712031c46d3"},"vehicle_type_id":"4","last_reported":1691424489,"current_range_meters":15200,"station_id":"ce4bgjh2rcd13ifvqbf0","pricing_plan_id":"free"},{"bike_id":"3dfd4bfc-b771-4d8b-8943-fef1ab6a6fab","system_id":"levelo_inurba_marseille","lat":43.2936,"lon":5.37835,"is_reserved":false,"is_disabled":false,"rental_uris":{"android":"levelo://app?vid=3dfd4bfc-b771-4d8b-8943-fef1ab6a6fab","ios":"levelo://app?vid=3dfd4bfc-b771-4d8b-8943-fef1ab6a6fab"},"vehicle_type_id":"4","last_reported":1691424489,"current_range_meters":12000,"station_id":"ce4bgjh2rcd13ifvqbf0","pricing_plan_id":"free"},{"bike_id":"232af788-cada-49f2-aa65-18a96d57ddae","system_id":"levelo_inurba_marseille","lat":43.292311,"lon":5.360731,"is_reserved":false,"is_disabled":false,"rental_uris":{"android":"levelo://app?vid=232af788-cada-49f2-aa65-18a96d57ddae","ios":"levelo://app?vid=232af788-cada-49f2-aa65-18a96d57ddae"},"vehicle_type_id":"4","last_reported":1691424489,"current_range_meters":22800,"station_id":"ce4bhbh2rcd13ifvqeqg","pricing_plan_id":"free"},{"bike_id":"a0644de0-ad90-47f3-8288-70cdb94d4ae9","system_id":"levelo_inurba_marseille","lat":43.298764,"lon":5.388973,"is_reserved":false,"is_disabled":false,"rental_uris":{"android":"levelo://app?vid=a0644de0-ad90-47f3-8288-70cdb94d4ae9","ios":"levelo://app?vid=a0644de0-ad90-47f3-8288-70cdb94d4ae9"},"vehicle_type_id":"4","last_reported":1691424489,"current_range_meters":22400,"station_id":"ce4bh392rcd13ifvqdl0","pricing_plan_id":"free"},{"bike_id":"d6417c16-6a9e-42c6-8fa9-322cdf6775cd","system_id":"levelo_inurba_marseille","lat":43.291671,"lon":5.371575,"is_reserved":false,"is_disabled":false,"rental_uris":{"android":"levelo://app?vid=d6417c16-6a9e-42c6-8fa9-322cdf6775cd","ios":"levelo://app?vid=d6417c16-6a9e-42c6-8fa9-322cdf6775cd"},"vehicle_type_id":"4","last_reported":1691424489,"current_range_meters":14000,"station_id":"ce4bha92rcd13ifvqeh0","pricing_plan_id":"free"},{"bike_id":"0cefbc9c-4c72-4898-8f73-b4c0f068d63b","system_id":"levelo_inurba_marseille","lat":43.309047,"lon":5.396551,"is_reserved":false,"is_disabled":false,"rental_uris":{"android":"levelo://app?vid=0cefbc9c-4c72-4898-8f73-b4c0f068d63b","ios":"levelo://app?vid=0cefbc9c-4c72-4898-8f73-b4c0f068d63b"},"vehicle_type_id":"4","last_reported":1691424489,"current_range_meters":800,"station_id":"ce4bh012rcd13ifvqcv0","pricing_plan_id":"free"},{"bike_id":"ec34b224-082f-4e84-8213-2db6aac4df1d","system_id":"levelo_inurba_marseille","lat":43.30883,"lon":5.39654,"is_reserved":false,"is_disabled":false,"rental_uris":{"android":"levelo://app?vid=ec34b224-082f-4e84-8213-2db6aac4df1d","ios":"levelo://app?vid=ec34b224-082f-4e84-8213-2db6aac4df1d"},"vehicle_type_id":"4","last_reported":1691424489,"current_range_meters":23600,"station_id":"ce4bh012rcd13ifvqcv0","pricing_plan_id":"free"},{"bike_id":"57ff3957-7d41-4e54-8ce0-26fdc4900ce4","system_id":"levelo_inurba_marseille","lat":43.29076,"lon":5.37163,"is_reserved":false,"is_disabled":false,"rental_uris":{"android":"levelo://app?vid=57ff3957-7d41-4e54-8ce0-26fdc4900ce4","ios":"levelo://app?vid=57ff3957-7d41-4e54-8ce0-26fdc4900ce4"},"vehicle_type_id":"4","last_reported":1691424489,"current_range_meters":0,"station_id":"ce4bh5p2rcd13ifvqe4g","pricing_plan_id":"free"},{"bike_id":"10d6438d-8297-4000-9c9a-3e0c8a922177","system_id":"levelo_inurba_marseille","lat":43.29075,"lon":5.37172,"is_reserved":false,"is_disabled":false,"rental_uris":{"android":"levelo://app?vid=10d6438d-8297-4000-9c9a-3e0c8a922177","ios":"levelo://app?vid=10d6438d-8297-4000-9c9a-3e0c8a922177"},"vehicle_type_id":"4","last_reported":1691424489,"current_range_meters":15600,"station_id":"ce4bh5p2rcd13ifvqe4g","pricing_plan_id":"free"},{"bike_id":"50d2ad15-1af7-45a3-8b94-3da76ade3f05","system_id":"levelo_inurba_marseille","lat":43.290624,"lon":5.359245,"is_reserved":false,"is_disabled":false,"rental_uris":{"android":"levelo://app?vid=50d2ad15-1af7-45a3-8b94-3da76ade3f05","ios":"levelo://app?vid=50d2ad15-1af7-45a3-8b94-3da76ade3f05"},"vehicle_type_id":"4","last_reported":1691424489,"current_range_meters":24800,"station_id":"ce4bha92rcd13ifvqeg0","pricing_plan_id":"free"},{"bike_id":"7e54de5b-c239-41cf-8a3d-0c29da48a2a2","system_id":"levelo_inurba_marseille","lat":43.294162,"lon":5.386292,"is_reserved":false,"is_disabled":false,"rental_uris":{"android":"levelo://app?vid=7e54de5b-c239-41cf-8a3d-0c29da48a2a2","ios":"levelo://app?vid=7e54de5b-c239-41cf-8a3d-0c29da48a2a2"},"vehicle_type_id":"4","last_reported":1691424489,"current_range_meters":6800,"station_id":"ce4bh2h2rcd13ifvqdh0","pricing_plan_id":"free"},{"bike_id":"d92191b5-3897-428d-989c-4b986c7a7e64","system_id":"levelo_inurba_marseille","lat":43.29006,"lon":5.35606,"is_reserved":false,"is_disabled":false,"rental_uris":{"android":"levelo://app?vid=d92191b5-3897-428d-989c-4b986c7a7e64","ios":"levelo://app?vid=d92191b5-3897-428d-989c-4b986c7a7e64"},"vehicle_type_id":"4","last_reported":1691424489,"current_range_meters":14400,"station_id":"ce4bhb92rcd13ifvqen0","pricing_plan_id":"free"},{"bike_id":"78a1a5bb-1590-410b-a41c-786e430d786c","system_id":"levelo_inurba_marseille","lat":43.297815,"lon":5.393548,"is_reserved":false,"is_disabled":false,"rental_uris":{"android":"levelo://app?vid=78a1a5bb-1590-410b-a41c-786e430d786c","ios":"levelo://app?vid=78a1a5bb-1590-410b-a41c-786e430d786c"},"vehicle_type_id":"4","last_reported":1691424489,"current_range_meters":0,"station_id":"chh1huq6cuj3fo74tm60","pricing_plan_id":"free"},{"bike_id":"5369ce4b-275f-425e-bf01-e9bbd85b24a2","system_id":"levelo_inurba_marseille","lat":43.297815,"lon":5.393548,"is_reserved":false,"is_disabled":false,"rental_uris":{"android":"levelo://app?vid=5369ce4b-275f-425e-bf01-e9bbd85b24a2","ios":"levelo://app?vid=5369ce4b-275f-425e-bf01-e9bbd85b24a2"},"vehicle_type_id":"4","last_reported":1691424489,"current_range_meters":6400,"station_id":"chh1huq6cuj3fo74tm60","pricing_plan_id":"free"},{"bike_id":"5195085e-8e7c-4683-be9f-1f41b94d1f43","system_id":"levelo_inurba_marseille","lat":43.295169,"lon":5.390426,"is_reserved":false,"is_disabled":false,"rental_uris":{"android":"levelo://app?vid=5195085e-8e7c-4683-be9f-1f41b94d1f43","ios":"levelo://app?vid=5195085e-8e7c-4683-be9f-1f41b94d1f43"},"vehicle_type_id":"4","last_reported":1691424489,"current_range_meters":1600,"station_id":"ce4bh3p2rcd13ifvqdp0","pricing_plan_id":"free"},{"bike_id":"56b877d8-dd56-4d4e-91f1-b3f461345f27","system_id":"levelo_inurba_marseille","lat":43.28856,"lon":5.358371,"is_reserved":false,"is_disabled":false,"rental_uris":{"android":"levelo://app?vid=56b877d8-dd56-4d4e-91f1-b3f461345f27","ios":"levelo://app?vid=56b877d8-dd56-4d4e-91f1-b3f461345f27"},"vehicle_type_id":"4","last_reported":1691424489,"current_range_meters":28800,"station_id":"ce4bhb12rcd13ifvqem0","pricing_plan_id":"free"},{"bike_id":"6bf6d681-98e0-4a7f-a660-a989735b687a","system_id":"levelo_inurba_marseille","lat":43.28856,"lon":5.358371,"is_reserved":false,"is_disabled":false,"rental_uris":{"android":"levelo://app?vid=6bf6d681-98e0-4a7f-a660-a989735b687a","ios":"levelo://app?vid=6bf6d681-98e0-4a7f-a660-a989735b687a"},"vehicle_type_id":"4","last_reported":1691424489,"current_range_meters":30400,"station_id":"ce4bhb12rcd13ifvqem0","pricing_plan_id":"free"},{"bike_id":"ee77238a-73b2-4eb6-bf1b-6b00710d040b","system_id":"levelo_inurba_marseille","lat":43.29062,"lon":5.38302,"is_reserved":false,"is_disabled":false,"rental_uris":{"android":"levelo://app?vid=ee77238a-73b2-4eb6-bf1b-6b00710d040b","ios":"levelo://app?vid=ee77238a-73b2-4eb6-bf1b-6b00710d040b"},"vehicle_type_id":"4","last_reported":1691424489,"current_range_meters":26800,"station_id":"","pricing_plan_id":"free"},{"bike_id":"2251e321-f380-490f-89e3-772359b50744","system_id":"levelo_inurba_marseille","lat":43.30927,"lon":5.40146,"is_reserved":false,"is_disabled":false,"rental_uris":{"android":"levelo://app?vid=2251e321-f380-490f-89e3-772359b50744","ios":"levelo://app?vid=2251e321-f380-490f-89e3-772359b50744"},"vehicle_type_id":"4","last_reported":1691424489,"current_range_meters":23200,"station_id":"ce4bgvp2rcd13ifvqct0","pricing_plan_id":"free"},{"bike_id":"cab88d0c-d126-4084-a024-ee1fbe79ecb5","system_id":"levelo_inurba_marseille","lat":43.301117,"lon":5.398795,"is_reserved":false,"is_disabled":false,"rental_uris":{"android":"levelo://app?vid=cab88d0c-d126-4084-a024-ee1fbe79ecb5","ios":"levelo://app?vid=cab88d0c-d126-4084-a024-ee1fbe79ecb5"},"vehicle_type_id":"4","last_reported":1691424489,"current_range_meters":13200,"station_id":"ce4bh0h2rcd13ifvqd40","pricing_plan_id":"free"},{"bike_id":"8ab2a7b3-55bf-4db9-9b78-f1dd3e01851d","system_id":"levelo_inurba_marseille","lat":43.301117,"lon":5.398795,"is_reserved":false,"is_disabled":false,"rental_uris":{"android":"levelo://app?vid=8ab2a7b3-55bf-4db9-9b78-f1dd3e01851d","ios":"levelo://app?vid=8ab2a7b3-55bf-4db9-9b78-f1dd3e01851d"},"vehicle_type_id":"4","last_reported":1691424489,"current_range_meters":6400,"station_id":"ce4bh0h2rcd13ifvqd40","pricing_plan_id":"free"},{"bike_id":"68466372-b410-4771-ae5a-bbec3be82924","system_id":"levelo_inurba_marseille","lat":43.301117,"lon":5.398795,"is_reserved":false,"is_disabled":false,"rental_uris":{"android":"levelo://app?vid=68466372-b410-4771-ae5a-bbec3be82924","ios":"levelo://app?vid=68466372-b410-4771-ae5a-bbec3be82924"},"vehicle_type_id":"4","last_reported":1691424489,"current_range_meters":25600,"station_id":"ce4bh0h2rcd13ifvqd40","pricing_plan_id":"free"},{"bike_id":"80bed581-1089-4454-8eee-fcff8a3db227","system_id":"levelo_inurba_marseille","lat":43.33797,"lon":5.37433,"is_reserved":false,"is_disabled":false,"rental_uris":{"android":"levelo://app?vid=80bed581-1089-4454-8eee-fcff8a3db227","ios":"levelo://app?vid=80bed581-1089-4454-8eee-fcff8a3db227"},"vehicle_type_id":"4","last_reported":1691424489,"current_range_meters":31600,"station_id":"","pricing_plan_id":"free"},{"bike_id":"0509d5ce-f0a8-487a-b6e1-c1431f68e9a4","system_id":"levelo_inurba_marseille","lat":43.286591,"lon":5.363346,"is_reserved":false,"is_disabled":false,"rental_uris":{"android":"levelo://app?vid=0509d5ce-f0a8-487a-b6e1-c1431f68e9a4","ios":"levelo://app?vid=0509d5ce-f0a8-487a-b6e1-c1431f68e9a4"},"vehicle_type_id":"4","last_reported":1691424489,"current_range_meters":25200,"station_id":"ce4bhah2rcd13ifvqej0","pricing_plan_id":"free"},{"bike_id":"bf29fc5a-780e-430a-81ed-83f043208f08","system_id":"levelo_inurba_marseille","lat":43.298681,"lon":5.397225,"is_reserved":false,"is_disabled":false,"rental_uris":{"android":"levelo://app?vid=bf29fc5a-780e-430a-81ed-83f043208f08","ios":"levelo://app?vid=bf29fc5a-780e-430a-81ed-83f043208f08"},"vehicle_type_id":"4","last_reported":1691424489,"current_range_meters":19600,"station_id":"ce4bh0h2rcd13ifvqd50","pricing_plan_id":"free"},{"bike_id":"75199276-b705-4ad7-b6a9-49aeaa84628a","system_id":"levelo_inurba_marseille","lat":43.286591,"lon":5.363346,"is_reserved":false,"is_disabled":false,"rental_uris":{"android":"levelo://app?vid=75199276-b705-4ad7-b6a9-49aeaa84628a","ios":"levelo://app?vid=75199276-b705-4ad7-b6a9-49aeaa84628a"},"vehicle_type_id":"4","last_reported":1691424489,"current_range_meters":31200,"station_id":"ce4bhah2rcd13ifvqej0","pricing_plan_id":"free"},{"bike_id":"3ce9df0b-0847-45bd-bdbf-a61fb3b35f72","system_id":"levelo_inurba_marseille","lat":43.286591,"lon":5.363346,"is_reserved":false,"is_disabled":false,"rental_uris":{"android":"levelo://app?vid=3ce9df0b-0847-45bd-bdbf-a61fb3b35f72","ios":"levelo://app?vid=3ce9df0b-0847-45bd-bdbf-a61fb3b35f72"},"vehicle_type_id":"4","last_reported":1691424489,"current_range_meters":26800,"station_id":"ce4bhah2rcd13ifvqej0","pricing_plan_id":"free"},{"bike_id":"54f27ec0-5d52-4da6-97c8-8deee9957623","system_id":"levelo_inurba_marseille","lat":43.286961,"lon":5.373785,"is_reserved":false,"is_disabled":false,"rental_uris":{"android":"levelo://app?vid=54f27ec0-5d52-4da6-97c8-8deee9957623","ios":"levelo://app?vid=54f27ec0-5d52-4da6-97c8-8deee9957623"},"vehicle_type_id":"4","last_reported":1691424489,"current_range_meters":0,"station_id":"ce4bh3p2rcd13ifvqdq0","pricing_plan_id":"free"},{"bike_id":"f1bbdf08-2b1c-4d12-8cda-dcb9b43a83d8","system_id":"levelo_inurba_marseille","lat":43.283998,"lon":5.375062,"is_reserved":false,"is_disabled":false,"rental_uris":{"android":"levelo://app?vid=f1bbdf08-2b1c-4d12-8cda-dcb9b43a83d8","ios":"levelo://app?vid=f1bbdf08-2b1c-4d12-8cda-dcb9b43a83d8"},"vehicle_type_id":"4","last_reported":1691424489,"current_range_meters":22400,"station_id":"ce4bh412rcd13ifvqds0","pricing_plan_id":"free"},{"bike_id":"7b9e2d57-7c2f-4652-8ec0-ee4d147afe24","system_id":"levelo_inurba_marseille","lat":43.302548,"lon":5.400568,"is_reserved":false,"is_disabled":false,"rental_uris":{"android":"levelo://app?vid=7b9e2d57-7c2f-4652-8ec0-ee4d147afe24","ios":"levelo://app?vid=7b9e2d57-7c2f-4652-8ec0-ee4d147afe24"},"vehicle_type_id":"4","last_reported":1691424489,"current_range_meters":2800,"station_id":"","pricing_plan_id":"free"},{"bike_id":"ebc9b3c7-9584-4fd2-a40e-8587ec238016","system_id":"levelo_inurba_marseille","lat":43.302759,"lon":5.400793,"is_reserved":false,"is_disabled":false,"rental_uris":{"android":"levelo://app?vid=ebc9b3c7-9584-4fd2-a40e-8587ec238016","ios":"levelo://app?vid=ebc9b3c7-9584-4fd2-a40e-8587ec238016"},"vehicle_type_id":"4","last_reported":1691424489,"current_range_meters":7200,"station_id":"ce4bgvh2rcd13ifvqcs0","pricing_plan_id":"free"},{"bike_id":"863f9863-cfe6-42f7-8204-06d78d0b4fa7","system_id":"levelo_inurba_marseille","lat":43.28607,"lon":5.37056,"is_reserved":false,"is_disabled":false,"rental_uris":{"android":"levelo://app?vid=863f9863-cfe6-42f7-8204-06d78d0b4fa7","ios":"levelo://app?vid=863f9863-cfe6-42f7-8204-06d78d0b4fa7"},"vehicle_type_id":"4","last_reported":1691424489,"current_range_meters":16800,"station_id":"ce4bht12rcd13ifvqi60","pricing_plan_id":"free"},{"bike_id":"1a474f1a-e2e8-4fe1-9ee7-85b9f5376d66","system_id":"levelo_inurba_marseille","lat":43.286039,"lon":5.370679,"is_reserved":false,"is_disabled":false,"rental_uris":{"android":"levelo://app?vid=1a474f1a-e2e8-4fe1-9ee7-85b9f5376d66","ios":"levelo://app?vid=1a474f1a-e2e8-4fe1-9ee7-85b9f5376d66"},"vehicle_type_id":"4","last_reported":1691424489,"current_range_meters":30000,"station_id":"ce4bht12rcd13ifvqi60","pricing_plan_id":"free"},{"bike_id":"917f3d21-8aff-41a7-a15e-80d77a89132e","system_id":"levelo_inurba_marseille","lat":43.31641,"lon":5.40422,"is_reserved":false,"is_disabled":false,"rental_uris":{"android":"levelo://app?vid=917f3d21-8aff-41a7-a15e-80d77a89132e","ios":"levelo://app?vid=917f3d21-8aff-41a7-a15e-80d77a89132e"},"vehicle_type_id":"4","last_reported":1691424489,"current_range_meters":26400,"station_id":"ce4bh012rcd13ifvqd00","pricing_plan_id":"free"},{"bike_id":"a2c32661-2c8b-4ac3-9625-e2734fe83214","system_id":"levelo_inurba_marseille","lat":43.316523,"lon":5.404367,"is_reserved":false,"is_disabled":false,"rental_uris":{"android":"levelo://app?vid=a2c32661-2c8b-4ac3-9625-e2734fe83214","ios":"levelo://app?vid=a2c32661-2c8b-4ac3-9625-e2734fe83214"},"vehicle_type_id":"4","last_reported":1691424489,"current_range_meters":30000,"station_id":"ce4bh012rcd13ifvqd00","pricing_plan_id":"free"},{"bike_id":"12a26d8e-285f-4a3b-b447-3229cf77c984","system_id":"levelo_inurba_marseille","lat":43.31641,"lon":5.40427,"is_reserved":false,"is_disabled":false,"rental_uris":{"android":"levelo://app?vid=12a26d8e-285f-4a3b-b447-3229cf77c984","ios":"levelo://app?vid=12a26d8e-285f-4a3b-b447-3229cf77c984"},"vehicle_type_id":"4","last_reported":1691424489,"current_range_meters":27600,"station_id":"ce4bh012rcd13ifvqd00","pricing_plan_id":"free"},{"bike_id":"c7e983fb-690a-471b-b033-292c7e7289c8","system_id":"levelo_inurba_marseille","lat":43.31652,"lon":5.40427,"is_reserved":false,"is_disabled":false,"rental_uris":{"android":"levelo://app?vid=c7e983fb-690a-471b-b033-292c7e7289c8","ios":"levelo://app?vid=c7e983fb-690a-471b-b033-292c7e7289c8"},"vehicle_type_id":"4","last_reported":1691424489,"current_range_meters":18000,"station_id":"ce4bh012rcd13ifvqd00","pricing_plan_id":"free"},{"bike_id":"6a38dad5-ed23-4cf2-986e-5b73f06bb44b","system_id":"levelo_inurba_marseille","lat":43.316523,"lon":5.404367,"is_reserved":false,"is_disabled":false,"rental_uris":{"android":"levelo://app?vid=6a38dad5-ed23-4cf2-986e-5b73f06bb44b","ios":"levelo://app?vid=6a38dad5-ed23-4cf2-986e-5b73f06bb44b"},"vehicle_type_id":"4","last_reported":1691424489,"current_range_meters":31200,"station_id":"ce4bh012rcd13ifvqd00","pricing_plan_id":"free"},{"bike_id":"bba81357-e5cd-4a06-9bea-3e5b69789465","system_id":"levelo_inurba_marseille","lat":43.31642,"lon":5.4043,"is_reserved":false,"is_disabled":false,"rental_uris":{"android":"levelo://app?vid=bba81357-e5cd-4a06-9bea-3e5b69789465","ios":"levelo://app?vid=bba81357-e5cd-4a06-9bea-3e5b69789465"},"vehicle_type_id":"4","last_reported":1691424489,"current_range_meters":29600,"station_id":"ce4bh012rcd13ifvqd00","pricing_plan_id":"free"},{"bike_id":"31682d5c-fb13-465b-9f7f-1afd8203d238","system_id":"levelo_inurba_marseille","lat":43.316523,"lon":5.404367,"is_reserved":false,"is_disabled":false,"rental_uris":{"android":"levelo://app?vid=31682d5c-fb13-465b-9f7f-1afd8203d238","ios":"levelo://app?vid=31682d5c-fb13-465b-9f7f-1afd8203d238"},"vehicle_type_id":"4","last_reported":1691424489,"current_range_meters":30800,"station_id":"ce4bh012rcd13ifvqd00","pricing_plan_id":"free"},{"bike_id":"64cc1f04-2ec6-4a5f-8638-d30525d3f4a8","system_id":"levelo_inurba_marseille","lat":43.31644,"lon":5.40432,"is_reserved":false,"is_disabled":false,"rental_uris":{"android":"levelo://app?vid=64cc1f04-2ec6-4a5f-8638-d30525d3f4a8","ios":"levelo://app?vid=64cc1f04-2ec6-4a5f-8638-d30525d3f4a8"},"vehicle_type_id":"4","last_reported":1691424489,"current_range_meters":30400,"station_id":"ce4bh012rcd13ifvqd00","pricing_plan_id":"free"},{"bike_id":"39aa1114-e07d-4b76-bda8-591777b9c48a","system_id":"levelo_inurba_marseille","lat":43.316459,"lon":5.404329,"is_reserved":false,"is_disabled":false,"rental_uris":{"android":"levelo://app?vid=39aa1114-e07d-4b76-bda8-591777b9c48a","ios":"levelo://app?vid=39aa1114-e07d-4b76-bda8-591777b9c48a"},"vehicle_type_id":"4","last_reported":1691424489,"current_range_meters":27200,"station_id":"","pricing_plan_id":"free"},{"bike_id":"0238288f-0a11-4978-83ca-aa8bcde3e3f6","system_id":"levelo_inurba_marseille","lat":43.31646,"lon":5.40434,"is_reserved":false,"is_disabled":false,"rental_uris":{"android":"levelo://app?vid=0238288f-0a11-4978-83ca-aa8bcde3e3f6","ios":"levelo://app?vid=0238288f-0a11-4978-83ca-aa8bcde3e3f6"},"vehicle_type_id":"4","last_reported":1691424489,"current_range_meters":28000,"station_id":"ce4bh012rcd13ifvqd00","pricing_plan_id":"free"},{"bike_id":"db6c8fbd-431c-4cfc-a31f-9f1f15fe3b31","system_id":"levelo_inurba_marseille","lat":43.31646,"lon":5.40434,"is_reserved":false,"is_disabled":false,"rental_uris":{"android":"levelo://app?vid=db6c8fbd-431c-4cfc-a31f-9f1f15fe3b31","ios":"levelo://app?vid=db6c8fbd-431c-4cfc-a31f-9f1f15fe3b31"},"vehicle_type_id":"4","last_reported":1691424489,"current_range_meters":31200,"station_id":"ce4bh012rcd13ifvqd00","pricing_plan_id":"free"},{"bike_id":"89696661-9fc5-4e30-b38b-ce2ab61d936f","system_id":"levelo_inurba_marseille","lat":43.31647,"lon":5.40434,"is_reserved":false,"is_disabled":false,"rental_uris":{"android":"levelo://app?vid=89696661-9fc5-4e30-b38b-ce2ab61d936f","ios":"levelo://app?vid=89696661-9fc5-4e30-b38b-ce2ab61d936f"},"vehicle_type_id":"4","last_reported":1691424489,"current_range_meters":31200,"station_id":"ce4bh012rcd13ifvqd00","pricing_plan_id":"free"},{"bike_id":"11327d1c-8937-422b-b963-0f9ddf721f1b","system_id":"levelo_inurba_marseille","lat":43.31645,"lon":5.40435,"is_reserved":false,"is_disabled":false,"rental_uris":{"android":"levelo://app?vid=11327d1c-8937-422b-b963-0f9ddf721f1b","ios":"levelo://app?vid=11327d1c-8937-422b-b963-0f9ddf721f1b"},"vehicle_type_id":"4","last_reported":1691424489,"current_range_meters":29200,"station_id":"ce4bh012rcd13ifvqd00","pricing_plan_id":"free"},{"bike_id":"93c542a7-0a44-4c60-9997-7ce8c089f8cd","system_id":"levelo_inurba_marseille","lat":43.316517,"lon":5.404375,"is_reserved":false,"is_disabled":false,"rental_uris":{"android":"levelo://app?vid=93c542a7-0a44-4c60-9997-7ce8c089f8cd","ios":"levelo://app?vid=93c542a7-0a44-4c60-9997-7ce8c089f8cd"},"vehicle_type_id":"4","last_reported":1691424489,"current_range_meters":25200,"station_id":"ce4bh012rcd13ifvqd00","pricing_plan_id":"free"},{"bike_id":"18da9808-bd65-47c0-9b20-682656c752bd","system_id":"levelo_inurba_marseille","lat":43.31649,"lon":5.40436,"is_reserved":false,"is_disabled":false,"rental_uris":{"android":"levelo://app?vid=18da9808-bd65-47c0-9b20-682656c752bd","ios":"levelo://app?vid=18da9808-bd65-47c0-9b20-682656c752bd"},"vehicle_type_id":"4","last_reported":1691424489,"current_range_meters":31200,"station_id":"ce4bh012rcd13ifvqd00","pricing_plan_id":"free"},{"bike_id":"5d913dc5-3819-42c4-8a6b-44f200eed054","system_id":"levelo_inurba_marseille","lat":43.316385,"lon":5.404428,"is_reserved":false,"is_disabled":false,"rental_uris":{"android":"levelo://app?vid=5d913dc5-3819-42c4-8a6b-44f200eed054","ios":"levelo://app?vid=5d913dc5-3819-42c4-8a6b-44f200eed054"},"vehicle_type_id":"4","last_reported":1691424489,"current_range_meters":17200,"station_id":"ce4bh012rcd13ifvqd00","pricing_plan_id":"free"},{"bike_id":"7ff9713e-55fa-4570-bd02-996541cb34ac","system_id":"levelo_inurba_marseille","lat":43.291994,"lon":5.392907,"is_reserved":false,"is_disabled":false,"rental_uris":{"android":"levelo://app?vid=7ff9713e-55fa-4570-bd02-996541cb34ac","ios":"levelo://app?vid=7ff9713e-55fa-4570-bd02-996541cb34ac"},"vehicle_type_id":"4","last_reported":1691424489,"current_range_meters":21200,"station_id":"ce4bh192rcd13ifvqdd0","pricing_plan_id":"free"},{"bike_id":"8c676c62-d31b-4d46-8711-fe1cd55da75a","system_id":"levelo_inurba_marseille","lat":43.291994,"lon":5.392907,"is_reserved":false,"is_disabled":false,"rental_uris":{"android":"levelo://app?vid=8c676c62-d31b-4d46-8711-fe1cd55da75a","ios":"levelo://app?vid=8c676c62-d31b-4d46-8711-fe1cd55da75a"},"vehicle_type_id":"4","last_reported":1691424489,"current_range_meters":19600,"station_id":"ce4bh192rcd13ifvqdd0","pricing_plan_id":"free"},{"bike_id":"2a07ef3b-22e3-43af-8af5-369dbce2cf45","system_id":"levelo_inurba_marseille","lat":43.291994,"lon":5.392907,"is_reserved":false,"is_disabled":false,"rental_uris":{"android":"levelo://app?vid=2a07ef3b-22e3-43af-8af5-369dbce2cf45","ios":"levelo://app?vid=2a07ef3b-22e3-43af-8af5-369dbce2cf45"},"vehicle_type_id":"4","last_reported":1691424489,"current_range_meters":31200,"station_id":"ce4bh192rcd13ifvqdd0","pricing_plan_id":"free"},{"bike_id":"c1c0e7fd-aac8-4975-ad9e-10417149bb04","system_id":"levelo_inurba_marseille","lat":43.291994,"lon":5.392907,"is_reserved":false,"is_disabled":false,"rental_uris":{"android":"levelo://app?vid=c1c0e7fd-aac8-4975-ad9e-10417149bb04","ios":"levelo://app?vid=c1c0e7fd-aac8-4975-ad9e-10417149bb04"},"vehicle_type_id":"4","last_reported":1691424489,"current_range_meters":17200,"station_id":"ce4bh192rcd13ifvqdd0","pricing_plan_id":"free"},{"bike_id":"dc6ef6b1-8a17-4583-b58e-768dc1bb19dc","system_id":"levelo_inurba_marseille","lat":43.291994,"lon":5.392907,"is_reserved":false,"is_disabled":false,"rental_uris":{"android":"levelo://app?vid=dc6ef6b1-8a17-4583-b58e-768dc1bb19dc","ios":"levelo://app?vid=dc6ef6b1-8a17-4583-b58e-768dc1bb19dc"},"vehicle_type_id":"4","last_reported":1691424489,"current_range_meters":31600,"station_id":"ce4bh192rcd13ifvqdd0","pricing_plan_id":"free"},{"bike_id":"f242b78c-fc2d-4c45-83c4-0635d4d68350","system_id":"levelo_inurba_marseille","lat":43.284538,"lon":5.358657,"is_reserved":false,"is_disabled":false,"rental_uris":{"android":"levelo://app?vid=f242b78c-fc2d-4c45-83c4-0635d4d68350","ios":"levelo://app?vid=f242b78c-fc2d-4c45-83c4-0635d4d68350"},"vehicle_type_id":"4","last_reported":1691424489,"current_range_meters":26800,"station_id":"ce4bhah2rcd13ifvqei0","pricing_plan_id":"free"},{"bike_id":"5c17c60d-ed2d-4671-9d65-94962e4f9db7","system_id":"levelo_inurba_marseille","lat":43.284538,"lon":5.358657,"is_reserved":false,"is_disabled":false,"rental_uris":{"android":"levelo://app?vid=5c17c60d-ed2d-4671-9d65-94962e4f9db7","ios":"levelo://app?vid=5c17c60d-ed2d-4671-9d65-94962e4f9db7"},"vehicle_type_id":"4","last_reported":1691424489,"current_range_meters":7600,"station_id":"ce4bhah2rcd13ifvqei0","pricing_plan_id":"free"},{"bike_id":"7b78d55e-e99c-4fa7-968a-c672d6912f00","system_id":"levelo_inurba_marseille","lat":43.28458,"lon":5.35896,"is_reserved":false,"is_disabled":false,"rental_uris":{"android":"levelo://app?vid=7b78d55e-e99c-4fa7-968a-c672d6912f00","ios":"levelo://app?vid=7b78d55e-e99c-4fa7-968a-c672d6912f00"},"vehicle_type_id":"4","last_reported":1691424489,"current_range_meters":31200,"station_id":"ce4bhah2rcd13ifvqei0","pricing_plan_id":"free"},{"bike_id":"01535868-c7b1-4ebd-9133-8c3889bc92f2","system_id":"levelo_inurba_marseille","lat":43.32891,"lon":5.39969,"is_reserved":false,"is_disabled":false,"rental_uris":{"android":"levelo://app?vid=01535868-c7b1-4ebd-9133-8c3889bc92f2","ios":"levelo://app?vid=01535868-c7b1-4ebd-9133-8c3889bc92f2"},"vehicle_type_id":"4","last_reported":1691424489,"current_range_meters":7200,"station_id":"","pricing_plan_id":"free"},{"bike_id":"564ee38f-21b8-493e-a214-cf1551205e4b","system_id":"levelo_inurba_marseille","lat":43.28618,"lon":5.35107,"is_reserved":false,"is_disabled":false,"rental_uris":{"android":"levelo://app?vid=564ee38f-21b8-493e-a214-cf1551205e4b","ios":"levelo://app?vid=564ee38f-21b8-493e-a214-cf1551205e4b"},"vehicle_type_id":"4","last_reported":1691424489,"current_range_meters":9200,"station_id":"ce4bhch2rcd13ifvqeug","pricing_plan_id":"free"},{"bike_id":"f280f06e-d149-40d6-a57c-247ad8ceb2e3","system_id":"levelo_inurba_marseille","lat":43.28614,"lon":5.35103,"is_reserved":false,"is_disabled":false,"rental_uris":{"android":"levelo://app?vid=f280f06e-d149-40d6-a57c-247ad8ceb2e3","ios":"levelo://app?vid=f280f06e-d149-40d6-a57c-247ad8ceb2e3"},"vehicle_type_id":"4","last_reported":1691424489,"current_range_meters":15600,"station_id":"ce4bhch2rcd13ifvqeug","pricing_plan_id":"free"},{"bike_id":"98a0c241-69cf-4385-b8f6-90a1632ea150","system_id":"levelo_inurba_marseille","lat":43.28613,"lon":5.35103,"is_reserved":false,"is_disabled":false,"rental_uris":{"android":"levelo://app?vid=98a0c241-69cf-4385-b8f6-90a1632ea150","ios":"levelo://app?vid=98a0c241-69cf-4385-b8f6-90a1632ea150"},"vehicle_type_id":"4","last_reported":1691424489,"current_range_meters":31200,"station_id":"ce4bhch2rcd13ifvqeug","pricing_plan_id":"free"},{"bike_id":"eb7d051d-ab12-4a08-8082-8f4e73f100d0","system_id":"levelo_inurba_marseille","lat":43.283998,"lon":5.375062,"is_reserved":false,"is_disabled":false,"rental_uris":{"android":"levelo://app?vid=eb7d051d-ab12-4a08-8082-8f4e73f100d0","ios":"levelo://app?vid=eb7d051d-ab12-4a08-8082-8f4e73f100d0"},"vehicle_type_id":"4","last_reported":1691424489,"current_range_meters":5600,"station_id":"ce4bh412rcd13ifvqds0","pricing_plan_id":"free"},{"bike_id":"a3ea78c3-a208-4628-a7bb-db240c8d3b2f","system_id":"levelo_inurba_marseille","lat":43.283998,"lon":5.375062,"is_reserved":false,"is_disabled":false,"rental_uris":{"android":"levelo://app?vid=a3ea78c3-a208-4628-a7bb-db240c8d3b2f","ios":"levelo://app?vid=a3ea78c3-a208-4628-a7bb-db240c8d3b2f"},"vehicle_type_id":"4","last_reported":1691424489,"current_range_meters":9200,"station_id":"ce4bh412rcd13ifvqds0","pricing_plan_id":"free"},{"bike_id":"48ac7a91-cd52-4104-b582-eb0ece1b8c35","system_id":"levelo_inurba_marseille","lat":43.283998,"lon":5.375062,"is_reserved":false,"is_disabled":false,"rental_uris":{"android":"levelo://app?vid=48ac7a91-cd52-4104-b582-eb0ece1b8c35","ios":"levelo://app?vid=48ac7a91-cd52-4104-b582-eb0ece1b8c35"},"vehicle_type_id":"4","last_reported":1691424489,"current_range_meters":21600,"station_id":"ce4bh412rcd13ifvqds0","pricing_plan_id":"free"},{"bike_id":"a47ffbfb-7867-4625-8784-20278ef93288","system_id":"levelo_inurba_marseille","lat":43.283998,"lon":5.375062,"is_reserved":false,"is_disabled":false,"rental_uris":{"android":"levelo://app?vid=a47ffbfb-7867-4625-8784-20278ef93288","ios":"levelo://app?vid=a47ffbfb-7867-4625-8784-20278ef93288"},"vehicle_type_id":"4","last_reported":1691424489,"current_range_meters":17200,"station_id":"ce4bh412rcd13ifvqds0","pricing_plan_id":"free"},{"bike_id":"de4c0e6b-876b-401d-b5ba-ef3f505da0c9","system_id":"levelo_inurba_marseille","lat":43.295713,"lon":5.399639,"is_reserved":false,"is_disabled":false,"rental_uris":{"android":"levelo://app?vid=de4c0e6b-876b-401d-b5ba-ef3f505da0c9","ios":"levelo://app?vid=de4c0e6b-876b-401d-b5ba-ef3f505da0c9"},"vehicle_type_id":"4","last_reported":1691424489,"current_range_meters":800,"station_id":"ce4bh312rcd13ifvqdj0","pricing_plan_id":"free"},{"bike_id":"73b7b7e3-13c0-4a9b-a67d-233261708617","system_id":"levelo_inurba_marseille","lat":43.295713,"lon":5.399639,"is_reserved":false,"is_disabled":false,"rental_uris":{"android":"levelo://app?vid=73b7b7e3-13c0-4a9b-a67d-233261708617","ios":"levelo://app?vid=73b7b7e3-13c0-4a9b-a67d-233261708617"},"vehicle_type_id":"4","last_reported":1691424489,"current_range_meters":28000,"station_id":"ce4bh312rcd13ifvqdj0","pricing_plan_id":"free"},{"bike_id":"7f070500-2937-40f9-a480-923ff5ff3e33","system_id":"levelo_inurba_marseille","lat":43.31888,"lon":5.40731,"is_reserved":false,"is_disabled":false,"rental_uris":{"android":"levelo://app?vid=7f070500-2937-40f9-a480-923ff5ff3e33","ios":"levelo://app?vid=7f070500-2937-40f9-a480-923ff5ff3e33"},"vehicle_type_id":"4","last_reported":1691424489,"current_range_meters":15200,"station_id":"ce4bhq12rcd13ifvqhig","pricing_plan_id":"free"},{"bike_id":"15c03ea8-0d71-4a15-87f3-4f2f9d077a90","system_id":"levelo_inurba_marseille","lat":43.319179,"lon":5.407725,"is_reserved":false,"is_disabled":false,"rental_uris":{"android":"levelo://app?vid=15c03ea8-0d71-4a15-87f3-4f2f9d077a90","ios":"levelo://app?vid=15c03ea8-0d71-4a15-87f3-4f2f9d077a90"},"vehicle_type_id":"4","last_reported":1691424489,"current_range_meters":16800,"station_id":"ce4bhq12rcd13ifvqhig","pricing_plan_id":"free"},{"bike_id":"9d8dc018-8295-487e-aae9-79ce0f469cdf","system_id":"levelo_inurba_marseille","lat":43.33717,"lon":5.391857,"is_reserved":false,"is_disabled":false,"rental_uris":{"android":"levelo://app?vid=9d8dc018-8295-487e-aae9-79ce0f469cdf","ios":"levelo://app?vid=9d8dc018-8295-487e-aae9-79ce0f469cdf"},"vehicle_type_id":"4","last_reported":1691424489,"current_range_meters":30800,"station_id":"ce4bhr92rcd13ifvqhsg","pricing_plan_id":"free"},{"bike_id":"65e7209e-43de-4472-85bf-edccad84c81f","system_id":"levelo_inurba_marseille","lat":43.33717,"lon":5.391857,"is_reserved":false,"is_disabled":false,"rental_uris":{"android":"levelo://app?vid=65e7209e-43de-4472-85bf-edccad84c81f","ios":"levelo://app?vid=65e7209e-43de-4472-85bf-edccad84c81f"},"vehicle_type_id":"4","last_reported":1691424489,"current_range_meters":11600,"station_id":"ce4bhr92rcd13ifvqhsg","pricing_plan_id":"free"},{"bike_id":"5d98cffd-dff8-44ca-84fa-5d320780b681","system_id":"levelo_inurba_marseille","lat":43.33715,"lon":5.39188,"is_reserved":false,"is_disabled":false,"rental_uris":{"android":"levelo://app?vid=5d98cffd-dff8-44ca-84fa-5d320780b681","ios":"levelo://app?vid=5d98cffd-dff8-44ca-84fa-5d320780b681"},"vehicle_type_id":"4","last_reported":1691424489,"current_range_meters":29200,"station_id":"ce4bhr92rcd13ifvqhsg","pricing_plan_id":"free"},{"bike_id":"177a9fed-6c08-452b-bcd6-2b5c198428e0","system_id":"levelo_inurba_marseille","lat":43.33721,"lon":5.39181,"is_reserved":false,"is_disabled":false,"rental_uris":{"android":"levelo://app?vid=177a9fed-6c08-452b-bcd6-2b5c198428e0","ios":"levelo://app?vid=177a9fed-6c08-452b-bcd6-2b5c198428e0"},"vehicle_type_id":"4","last_reported":1691424489,"current_range_meters":22800,"station_id":"ce4bhr92rcd13ifvqhsg","pricing_plan_id":"free"},{"bike_id":"e6718a1b-850e-4ed7-ae2a-64fcbafe5f04","system_id":"levelo_inurba_marseille","lat":43.33721,"lon":5.39183,"is_reserved":false,"is_disabled":false,"rental_uris":{"android":"levelo://app?vid=e6718a1b-850e-4ed7-ae2a-64fcbafe5f04","ios":"levelo://app?vid=e6718a1b-850e-4ed7-ae2a-64fcbafe5f04"},"vehicle_type_id":"4","last_reported":1691424489,"current_range_meters":12000,"station_id":"ce4bhr92rcd13ifvqhsg","pricing_plan_id":"free"},{"bike_id":"dad64288-d6e3-4e88-9eb3-c7f2617994ee","system_id":"levelo_inurba_marseille","lat":43.323464,"lon":5.406297,"is_reserved":false,"is_disabled":false,"rental_uris":{"android":"levelo://app?vid=dad64288-d6e3-4e88-9eb3-c7f2617994ee","ios":"levelo://app?vid=dad64288-d6e3-4e88-9eb3-c7f2617994ee"},"vehicle_type_id":"4","last_reported":1691424489,"current_range_meters":14800,"station_id":"ce4bhq92rcd13ifvqhjg","pricing_plan_id":"free"},{"bike_id":"cbe9dd8c-e856-40de-9cf2-173ef948c81a","system_id":"levelo_inurba_marseille","lat":43.337249,"lon":5.391954,"is_reserved":false,"is_disabled":false,"rental_uris":{"android":"levelo://app?vid=cbe9dd8c-e856-40de-9cf2-173ef948c81a","ios":"levelo://app?vid=cbe9dd8c-e856-40de-9cf2-173ef948c81a"},"vehicle_type_id":"4","last_reported":1691424489,"current_range_meters":12400,"station_id":"ce4bhr92rcd13ifvqhsg","pricing_plan_id":"free"},{"bike_id":"8be9163e-5ea4-4acb-95d8-abf777dd0006","system_id":"levelo_inurba_marseille","lat":43.283498,"lon":5.380948,"is_reserved":false,"is_disabled":false,"rental_uris":{"android":"levelo://app?vid=8be9163e-5ea4-4acb-95d8-abf777dd0006","ios":"levelo://app?vid=8be9163e-5ea4-4acb-95d8-abf777dd0006"},"vehicle_type_id":"4","last_reported":1691424489,"current_range_meters":7200,"station_id":"ce4bh412rcd13ifvqdr0","pricing_plan_id":"free"},{"bike_id":"6263f938-d5a7-4e4d-90fe-fd9510129443","system_id":"levelo_inurba_marseille","lat":43.288501,"lon":5.393087,"is_reserved":false,"is_disabled":false,"rental_uris":{"android":"levelo://app?vid=6263f938-d5a7-4e4d-90fe-fd9510129443","ios":"levelo://app?vid=6263f938-d5a7-4e4d-90fe-fd9510129443"},"vehicle_type_id":"4","last_reported":1691424489,"current_range_meters":12400,"station_id":"ce4bh2p2rcd13ifvqdi0","pricing_plan_id":"free"},{"bike_id":"27316198-c2a5-4da8-9bce-b3ebc7c496fd","system_id":"levelo_inurba_marseille","lat":43.283498,"lon":5.380948,"is_reserved":false,"is_disabled":false,"rental_uris":{"android":"levelo://app?vid=27316198-c2a5-4da8-9bce-b3ebc7c496fd","ios":"levelo://app?vid=27316198-c2a5-4da8-9bce-b3ebc7c496fd"},"vehicle_type_id":"4","last_reported":1691424489,"current_range_meters":800,"station_id":"ce4bh412rcd13ifvqdr0","pricing_plan_id":"free"},{"bike_id":"1e0c1fbc-04c1-42fd-ac5b-5be47d68fd02","system_id":"levelo_inurba_marseille","lat":43.28425,"lon":5.349935,"is_reserved":false,"is_disabled":false,"rental_uris":{"android":"levelo://app?vid=1e0c1fbc-04c1-42fd-ac5b-5be47d68fd02","ios":"levelo://app?vid=1e0c1fbc-04c1-42fd-ac5b-5be47d68fd02"},"vehicle_type_id":"4","last_reported":1691424489,"current_range_meters":31200,"station_id":"ce4bhbh2rcd13ifvqepg","pricing_plan_id":"free"},{"bike_id":"3133945e-5c56-482c-8900-d556b89dd9f0","system_id":"levelo_inurba_marseille","lat":43.28423,"lon":5.34987,"is_reserved":false,"is_disabled":false,"rental_uris":{"android":"levelo://app?vid=3133945e-5c56-482c-8900-d556b89dd9f0","ios":"levelo://app?vid=3133945e-5c56-482c-8900-d556b89dd9f0"},"vehicle_type_id":"4","last_reported":1691424489,"current_range_meters":31200,"station_id":"ce4bhbh2rcd13ifvqepg","pricing_plan_id":"free"},{"bike_id":"e7dcd018-ca83-4926-9894-f0068868c9b1","system_id":"levelo_inurba_marseille","lat":43.284219,"lon":5.3497,"is_reserved":false,"is_disabled":false,"rental_uris":{"android":"levelo://app?vid=e7dcd018-ca83-4926-9894-f0068868c9b1","ios":"levelo://app?vid=e7dcd018-ca83-4926-9894-f0068868c9b1"},"vehicle_type_id":"4","last_reported":1691424489,"current_range_meters":27600,"station_id":"ce4bhbh2rcd13ifvqepg","pricing_plan_id":"free"},{"bike_id":"cedf5dbc-c95c-44f0-af5b-3597aa3f4657","system_id":"levelo_inurba_marseille","lat":43.284219,"lon":5.3497,"is_reserved":false,"is_disabled":false,"rental_uris":{"android":"levelo://app?vid=cedf5dbc-c95c-44f0-af5b-3597aa3f4657","ios":"levelo://app?vid=cedf5dbc-c95c-44f0-af5b-3597aa3f4657"},"vehicle_type_id":"4","last_reported":1691424489,"current_range_meters":14000,"station_id":"ce4bhbh2rcd13ifvqepg","pricing_plan_id":"free"},{"bike_id":"00f71d0d-fee9-472f-8be5-87f13593876e","system_id":"levelo_inurba_marseille","lat":43.28421,"lon":5.34985,"is_reserved":false,"is_disabled":false,"rental_uris":{"android":"levelo://app?vid=00f71d0d-fee9-472f-8be5-87f13593876e","ios":"levelo://app?vid=00f71d0d-fee9-472f-8be5-87f13593876e"},"vehicle_type_id":"4","last_reported":1691424489,"current_range_meters":19600,"station_id":"ce4bhbh2rcd13ifvqepg","pricing_plan_id":"free"},{"bike_id":"e9117fc5-188b-4029-8e23-02399333d086","system_id":"levelo_inurba_marseille","lat":43.284219,"lon":5.3497,"is_reserved":false,"is_disabled":false,"rental_uris":{"android":"levelo://app?vid=e9117fc5-188b-4029-8e23-02399333d086","ios":"levelo://app?vid=e9117fc5-188b-4029-8e23-02399333d086"},"vehicle_type_id":"4","last_reported":1691424489,"current_range_meters":25200,"station_id":"ce4bhbh2rcd13ifvqepg","pricing_plan_id":"free"},{"bike_id":"cc3f7709-ddb9-49b1-9fca-b9119c3fa7fa","system_id":"levelo_inurba_marseille","lat":43.284219,"lon":5.3497,"is_reserved":false,"is_disabled":false,"rental_uris":{"android":"levelo://app?vid=cc3f7709-ddb9-49b1-9fca-b9119c3fa7fa","ios":"levelo://app?vid=cc3f7709-ddb9-49b1-9fca-b9119c3fa7fa"},"vehicle_type_id":"4","last_reported":1691424489,"current_range_meters":12000,"station_id":"ce4bhbh2rcd13ifvqepg","pricing_plan_id":"free"},{"bike_id":"7b420d08-7849-4569-928b-33de998374aa","system_id":"levelo_inurba_marseille","lat":43.28419,"lon":5.3498,"is_reserved":false,"is_disabled":false,"rental_uris":{"android":"levelo://app?vid=7b420d08-7849-4569-928b-33de998374aa","ios":"levelo://app?vid=7b420d08-7849-4569-928b-33de998374aa"},"vehicle_type_id":"4","last_reported":1691424489,"current_range_meters":12000,"station_id":"ce4bhbh2rcd13ifvqepg","pricing_plan_id":"free"},{"bike_id":"a335cd74-c002-4d33-a187-8e07f032a97f","system_id":"levelo_inurba_marseille","lat":43.28417,"lon":5.34985,"is_reserved":false,"is_disabled":false,"rental_uris":{"android":"levelo://app?vid=a335cd74-c002-4d33-a187-8e07f032a97f","ios":"levelo://app?vid=a335cd74-c002-4d33-a187-8e07f032a97f"},"vehicle_type_id":"4","last_reported":1691424489,"current_range_meters":28800,"station_id":"ce4bhbh2rcd13ifvqepg","pricing_plan_id":"free"},{"bike_id":"465749d7-ec7e-4f31-a00c-77951aab3ea4","system_id":"levelo_inurba_marseille","lat":43.28417,"lon":5.34984,"is_reserved":false,"is_disabled":false,"rental_uris":{"android":"levelo://app?vid=465749d7-ec7e-4f31-a00c-77951aab3ea4","ios":"levelo://app?vid=465749d7-ec7e-4f31-a00c-77951aab3ea4"},"vehicle_type_id":"4","last_reported":1691424489,"current_range_meters":22400,"station_id":"ce4bhbh2rcd13ifvqepg","pricing_plan_id":"free"},{"bike_id":"c89f3697-de73-4648-a292-aa685d2035fa","system_id":"levelo_inurba_marseille","lat":43.28418,"lon":5.3498,"is_reserved":false,"is_disabled":false,"rental_uris":{"android":"levelo://app?vid=c89f3697-de73-4648-a292-aa685d2035fa","ios":"levelo://app?vid=c89f3697-de73-4648-a292-aa685d2035fa"},"vehicle_type_id":"4","last_reported":1691424489,"current_range_meters":31200,"station_id":"ce4bhbh2rcd13ifvqepg","pricing_plan_id":"free"},{"bike_id":"7ba975d9-7bde-4373-90b6-06c41551dbfc","system_id":"levelo_inurba_marseille","lat":43.28417,"lon":5.34981,"is_reserved":false,"is_disabled":false,"rental_uris":{"android":"levelo://app?vid=7ba975d9-7bde-4373-90b6-06c41551dbfc","ios":"levelo://app?vid=7ba975d9-7bde-4373-90b6-06c41551dbfc"},"vehicle_type_id":"4","last_reported":1691424489,"current_range_meters":22400,"station_id":"ce4bhbh2rcd13ifvqepg","pricing_plan_id":"free"},{"bike_id":"d87db6e6-b2a8-4a13-8d8a-5d0883426b85","system_id":"levelo_inurba_marseille","lat":43.284219,"lon":5.3497,"is_reserved":false,"is_disabled":false,"rental_uris":{"android":"levelo://app?vid=d87db6e6-b2a8-4a13-8d8a-5d0883426b85","ios":"levelo://app?vid=d87db6e6-b2a8-4a13-8d8a-5d0883426b85"},"vehicle_type_id":"4","last_reported":1691424489,"current_range_meters":27200,"station_id":"ce4bhbh2rcd13ifvqepg","pricing_plan_id":"free"},{"bike_id":"ad83f5a7-c34a-46ca-ae4d-2d8d80748848","system_id":"levelo_inurba_marseille","lat":43.28417,"lon":5.34979,"is_reserved":false,"is_disabled":false,"rental_uris":{"android":"levelo://app?vid=ad83f5a7-c34a-46ca-ae4d-2d8d80748848","ios":"levelo://app?vid=ad83f5a7-c34a-46ca-ae4d-2d8d80748848"},"vehicle_type_id":"4","last_reported":1691424489,"current_range_meters":25200,"station_id":"ce4bhbh2rcd13ifvqepg","pricing_plan_id":"free"},{"bike_id":"382a8c9c-b231-4149-9f94-8090d14afa0d","system_id":"levelo_inurba_marseille","lat":43.28416,"lon":5.34981,"is_reserved":false,"is_disabled":false,"rental_uris":{"android":"levelo://app?vid=382a8c9c-b231-4149-9f94-8090d14afa0d","ios":"levelo://app?vid=382a8c9c-b231-4149-9f94-8090d14afa0d"},"vehicle_type_id":"4","last_reported":1691424489,"current_range_meters":26800,"station_id":"ce4bhbh2rcd13ifvqepg","pricing_plan_id":"free"},{"bike_id":"4e9de8d9-f855-45b0-b22f-060eff3e64ef","system_id":"levelo_inurba_marseille","lat":43.284219,"lon":5.3497,"is_reserved":false,"is_disabled":false,"rental_uris":{"android":"levelo://app?vid=4e9de8d9-f855-45b0-b22f-060eff3e64ef","ios":"levelo://app?vid=4e9de8d9-f855-45b0-b22f-060eff3e64ef"},"vehicle_type_id":"4","last_reported":1691424489,"current_range_meters":14800,"station_id":"ce4bhbh2rcd13ifvqepg","pricing_plan_id":"free"},{"bike_id":"a006b88c-c05e-4052-b5a2-9bfe7d3971a9","system_id":"levelo_inurba_marseille","lat":43.28416,"lon":5.34975,"is_reserved":false,"is_disabled":false,"rental_uris":{"android":"levelo://app?vid=a006b88c-c05e-4052-b5a2-9bfe7d3971a9","ios":"levelo://app?vid=a006b88c-c05e-4052-b5a2-9bfe7d3971a9"},"vehicle_type_id":"4","last_reported":1691424489,"current_range_meters":26800,"station_id":"ce4bhbh2rcd13ifvqepg","pricing_plan_id":"free"},{"bike_id":"a1ce092a-c9bd-41f6-bdd6-1e149148f3e8","system_id":"levelo_inurba_marseille","lat":43.284219,"lon":5.3497,"is_reserved":false,"is_disabled":false,"rental_uris":{"android":"levelo://app?vid=a1ce092a-c9bd-41f6-bdd6-1e149148f3e8","ios":"levelo://app?vid=a1ce092a-c9bd-41f6-bdd6-1e149148f3e8"},"vehicle_type_id":"4","last_reported":1691424489,"current_range_meters":31600,"station_id":"ce4bhbh2rcd13ifvqepg","pricing_plan_id":"free"},{"bike_id":"ab749c0e-946c-43c5-90c4-0265601bf60d","system_id":"levelo_inurba_marseille","lat":43.28414,"lon":5.34979,"is_reserved":false,"is_disabled":false,"rental_uris":{"android":"levelo://app?vid=ab749c0e-946c-43c5-90c4-0265601bf60d","ios":"levelo://app?vid=ab749c0e-946c-43c5-90c4-0265601bf60d"},"vehicle_type_id":"4","last_reported":1691424489,"current_range_meters":9600,"station_id":"ce4bhbh2rcd13ifvqepg","pricing_plan_id":"free"},{"bike_id":"5c169501-3e07-45d0-9892-d4316f86d9ed","system_id":"levelo_inurba_marseille","lat":43.28409,"lon":5.34994,"is_reserved":false,"is_disabled":false,"rental_uris":{"android":"levelo://app?vid=5c169501-3e07-45d0-9892-d4316f86d9ed","ios":"levelo://app?vid=5c169501-3e07-45d0-9892-d4316f86d9ed"},"vehicle_type_id":"4","last_reported":1691424489,"current_range_meters":31600,"station_id":"ce4bhbh2rcd13ifvqepg","pricing_plan_id":"free"},{"bike_id":"bffeb117-007a-42a0-a12e-e795962dfe91","system_id":"levelo_inurba_marseille","lat":43.284219,"lon":5.3497,"is_reserved":false,"is_disabled":false,"rental_uris":{"android":"levelo://app?vid=bffeb117-007a-42a0-a12e-e795962dfe91","ios":"levelo://app?vid=bffeb117-007a-42a0-a12e-e795962dfe91"},"vehicle_type_id":"4","last_reported":1691424489,"current_range_meters":29600,"station_id":"ce4bhbh2rcd13ifvqepg","pricing_plan_id":"free"},{"bike_id":"f48fd65e-2eef-45d0-a069-ca664765d97e","system_id":"levelo_inurba_marseille","lat":43.28413,"lon":5.34981,"is_reserved":false,"is_disabled":false,"rental_uris":{"android":"levelo://app?vid=f48fd65e-2eef-45d0-a069-ca664765d97e","ios":"levelo://app?vid=f48fd65e-2eef-45d0-a069-ca664765d97e"},"vehicle_type_id":"4","last_reported":1691424489,"current_range_meters":20800,"station_id":"ce4bhbh2rcd13ifvqepg","pricing_plan_id":"free"},{"bike_id":"ae5d6b05-fbee-4503-8e40-caf0ede1e822","system_id":"levelo_inurba_marseille","lat":43.284219,"lon":5.3497,"is_reserved":false,"is_disabled":false,"rental_uris":{"android":"levelo://app?vid=ae5d6b05-fbee-4503-8e40-caf0ede1e822","ios":"levelo://app?vid=ae5d6b05-fbee-4503-8e40-caf0ede1e822"},"vehicle_type_id":"4","last_reported":1691424489,"current_range_meters":30800,"station_id":"ce4bhbh2rcd13ifvqepg","pricing_plan_id":"free"},{"bike_id":"5ee7afa3-8c2a-4135-8cb1-39d6dd74e32f","system_id":"levelo_inurba_marseille","lat":43.284219,"lon":5.3497,"is_reserved":false,"is_disabled":false,"rental_uris":{"android":"levelo://app?vid=5ee7afa3-8c2a-4135-8cb1-39d6dd74e32f","ios":"levelo://app?vid=5ee7afa3-8c2a-4135-8cb1-39d6dd74e32f"},"vehicle_type_id":"4","last_reported":1691424489,"current_range_meters":18800,"station_id":"ce4bhbh2rcd13ifvqepg","pricing_plan_id":"free"},{"bike_id":"d16dbeac-df9e-4ee7-aad4-33caf0e1c723","system_id":"levelo_inurba_marseille","lat":43.289363,"lon":5.396322,"is_reserved":false,"is_disabled":false,"rental_uris":{"android":"levelo://app?vid=d16dbeac-df9e-4ee7-aad4-33caf0e1c723","ios":"levelo://app?vid=d16dbeac-df9e-4ee7-aad4-33caf0e1c723"},"vehicle_type_id":"4","last_reported":1691424489,"current_range_meters":10400,"station_id":"ce4bh3h2rcd13ifvqdn0","pricing_plan_id":"free"},{"bike_id":"831601fa-c484-4bff-99da-e2b2e518b0f5","system_id":"levelo_inurba_marseille","lat":43.283384,"lon":5.350374,"is_reserved":false,"is_disabled":false,"rental_uris":{"android":"levelo://app?vid=831601fa-c484-4bff-99da-e2b2e518b0f5","ios":"levelo://app?vid=831601fa-c484-4bff-99da-e2b2e518b0f5"},"vehicle_type_id":"4","last_reported":1691424489,"current_range_meters":31200,"station_id":"ce4bhbp2rcd13ifvqerg","pricing_plan_id":"free"},{"bike_id":"4c69d80c-0354-4313-966f-136dd4c75838","system_id":"levelo_inurba_marseille","lat":43.292724,"lon":5.401131,"is_reserved":false,"is_disabled":false,"rental_uris":{"android":"levelo://app?vid=4c69d80c-0354-4313-966f-136dd4c75838","ios":"levelo://app?vid=4c69d80c-0354-4313-966f-136dd4c75838"},"vehicle_type_id":"4","last_reported":1691424489,"current_range_meters":28400,"station_id":"ce4bh312rcd13ifvqdk0","pricing_plan_id":"free"},{"bike_id":"17450256-db06-4def-83d4-94aeff9b35d2","system_id":"levelo_inurba_marseille","lat":43.292724,"lon":5.401131,"is_reserved":false,"is_disabled":false,"rental_uris":{"android":"levelo://app?vid=17450256-db06-4def-83d4-94aeff9b35d2","ios":"levelo://app?vid=17450256-db06-4def-83d4-94aeff9b35d2"},"vehicle_type_id":"4","last_reported":1691424489,"current_range_meters":13200,"station_id":"ce4bh312rcd13ifvqdk0","pricing_plan_id":"free"},{"bike_id":"a6408dff-e3a0-43fc-972b-cd06d0517a5f","system_id":"levelo_inurba_marseille","lat":43.292724,"lon":5.401131,"is_reserved":false,"is_disabled":false,"rental_uris":{"android":"levelo://app?vid=a6408dff-e3a0-43fc-972b-cd06d0517a5f","ios":"levelo://app?vid=a6408dff-e3a0-43fc-972b-cd06d0517a5f"},"vehicle_type_id":"4","last_reported":1691424489,"current_range_meters":28800,"station_id":"ce4bh312rcd13ifvqdk0","pricing_plan_id":"free"},{"bike_id":"f4161345-5634-4685-a913-eed1d8fcb7b3","system_id":"levelo_inurba_marseille","lat":43.28277,"lon":5.35074,"is_reserved":false,"is_disabled":false,"rental_uris":{"android":"levelo://app?vid=f4161345-5634-4685-a913-eed1d8fcb7b3","ios":"levelo://app?vid=f4161345-5634-4685-a913-eed1d8fcb7b3"},"vehicle_type_id":"4","last_reported":1691424489,"current_range_meters":29200,"station_id":"ce4bhbp2rcd13ifvqerg","pricing_plan_id":"free"},{"bike_id":"8045c412-1e14-4461-bd01-56aade5b3e52","system_id":"levelo_inurba_marseille","lat":43.28274,"lon":5.35073,"is_reserved":false,"is_disabled":false,"rental_uris":{"android":"levelo://app?vid=8045c412-1e14-4461-bd01-56aade5b3e52","ios":"levelo://app?vid=8045c412-1e14-4461-bd01-56aade5b3e52"},"vehicle_type_id":"4","last_reported":1691424489,"current_range_meters":23600,"station_id":"ce4bhbp2rcd13ifvqerg","pricing_plan_id":"free"},{"bike_id":"412b71df-1d97-4d5c-a174-8f4cb8dfa381","system_id":"levelo_inurba_marseille","lat":43.28272,"lon":5.35072,"is_reserved":false,"is_disabled":false,"rental_uris":{"android":"levelo://app?vid=412b71df-1d97-4d5c-a174-8f4cb8dfa381","ios":"levelo://app?vid=412b71df-1d97-4d5c-a174-8f4cb8dfa381"},"vehicle_type_id":"4","last_reported":1691424489,"current_range_meters":8800,"station_id":"ce4bhbp2rcd13ifvqerg","pricing_plan_id":"free"},{"bike_id":"8ce5ff06-f440-4874-963c-f5cb0e05d5d5","system_id":"levelo_inurba_marseille","lat":43.282754,"lon":5.350519,"is_reserved":false,"is_disabled":false,"rental_uris":{"android":"levelo://app?vid=8ce5ff06-f440-4874-963c-f5cb0e05d5d5","ios":"levelo://app?vid=8ce5ff06-f440-4874-963c-f5cb0e05d5d5"},"vehicle_type_id":"4","last_reported":1691424489,"current_range_meters":30400,"station_id":"ce4bhbp2rcd13ifvqerg","pricing_plan_id":"free"},{"bike_id":"0be2aa55-979e-4d30-87b1-d73f0793f4cf","system_id":"levelo_inurba_marseille","lat":43.28276,"lon":5.35051,"is_reserved":false,"is_disabled":false,"rental_uris":{"android":"levelo://app?vid=0be2aa55-979e-4d30-87b1-d73f0793f4cf","ios":"levelo://app?vid=0be2aa55-979e-4d30-87b1-d73f0793f4cf"},"vehicle_type_id":"4","last_reported":1691424489,"current_range_meters":18800,"station_id":"ce4bhbp2rcd13ifvqerg","pricing_plan_id":"free"},{"bike_id":"33b9ccef-863e-4f72-95c1-5314d3f2c428","system_id":"levelo_inurba_marseille","lat":43.292724,"lon":5.401131,"is_reserved":false,"is_disabled":false,"rental_uris":{"android":"levelo://app?vid=33b9ccef-863e-4f72-95c1-5314d3f2c428","ios":"levelo://app?vid=33b9ccef-863e-4f72-95c1-5314d3f2c428"},"vehicle_type_id":"4","last_reported":1691424489,"current_range_meters":24400,"station_id":"ce4bh312rcd13ifvqdk0","pricing_plan_id":"free"},{"bike_id":"67af6996-2eaf-4e8e-816c-285656901d07","system_id":"levelo_inurba_marseille","lat":43.282744,"lon":5.350533,"is_reserved":false,"is_disabled":false,"rental_uris":{"android":"levelo://app?vid=67af6996-2eaf-4e8e-816c-285656901d07","ios":"levelo://app?vid=67af6996-2eaf-4e8e-816c-285656901d07"},"vehicle_type_id":"4","last_reported":1691424489,"current_range_meters":10000,"station_id":"ce4bhbp2rcd13ifvqerg","pricing_plan_id":"free"},{"bike_id":"66ad1bf9-7804-4f1e-a3c3-37a9bc8fc2cd","system_id":"levelo_inurba_marseille","lat":43.28272,"lon":5.3506,"is_reserved":false,"is_disabled":false,"rental_uris":{"android":"levelo://app?vid=66ad1bf9-7804-4f1e-a3c3-37a9bc8fc2cd","ios":"levelo://app?vid=66ad1bf9-7804-4f1e-a3c3-37a9bc8fc2cd"},"vehicle_type_id":"4","last_reported":1691424489,"current_range_meters":0,"station_id":"ce4bhbp2rcd13ifvqerg","pricing_plan_id":"free"},{"bike_id":"b4267e20-9073-47e3-990e-7c7f0831b71e","system_id":"levelo_inurba_marseille","lat":43.28269,"lon":5.3507,"is_reserved":false,"is_disabled":false,"rental_uris":{"android":"levelo://app?vid=b4267e20-9073-47e3-990e-7c7f0831b71e","ios":"levelo://app?vid=b4267e20-9073-47e3-990e-7c7f0831b71e"},"vehicle_type_id":"4","last_reported":1691424489,"current_range_meters":30800,"station_id":"ce4bhbp2rcd13ifvqerg","pricing_plan_id":"free"},{"bike_id":"2ea49efb-0d99-45e9-a707-6fb993f530e1","system_id":"levelo_inurba_marseille","lat":43.283502,"lon":5.386471,"is_reserved":false,"is_disabled":false,"rental_uris":{"android":"levelo://app?vid=2ea49efb-0d99-45e9-a707-6fb993f530e1","ios":"levelo://app?vid=2ea49efb-0d99-45e9-a707-6fb993f530e1"},"vehicle_type_id":"4","last_reported":1691424489,"current_range_meters":5200,"station_id":"ce4bh492rcd13ifvqdvg","pricing_plan_id":"free"},{"bike_id":"90c4edc2-59e6-4758-8823-714cb1c81b36","system_id":"levelo_inurba_marseille","lat":43.28272,"lon":5.35055,"is_reserved":false,"is_disabled":false,"rental_uris":{"android":"levelo://app?vid=90c4edc2-59e6-4758-8823-714cb1c81b36","ios":"levelo://app?vid=90c4edc2-59e6-4758-8823-714cb1c81b36"},"vehicle_type_id":"4","last_reported":1691424489,"current_range_meters":10000,"station_id":"ce4bhbp2rcd13ifvqerg","pricing_plan_id":"free"},{"bike_id":"fe61eb18-9698-46c5-af38-df3f134b788d","system_id":"levelo_inurba_marseille","lat":43.28267,"lon":5.35068,"is_reserved":false,"is_disabled":false,"rental_uris":{"android":"levelo://app?vid=fe61eb18-9698-46c5-af38-df3f134b788d","ios":"levelo://app?vid=fe61eb18-9698-46c5-af38-df3f134b788d"},"vehicle_type_id":"4","last_reported":1691424489,"current_range_meters":20800,"station_id":"ce4bhbp2rcd13ifvqerg","pricing_plan_id":"free"},{"bike_id":"50708475-9872-4149-a633-6672f02210b1","system_id":"levelo_inurba_marseille","lat":43.28271,"lon":5.35053,"is_reserved":false,"is_disabled":false,"rental_uris":{"android":"levelo://app?vid=50708475-9872-4149-a633-6672f02210b1","ios":"levelo://app?vid=50708475-9872-4149-a633-6672f02210b1"},"vehicle_type_id":"4","last_reported":1691424489,"current_range_meters":10800,"station_id":"ce4bhbp2rcd13ifvqerg","pricing_plan_id":"free"},{"bike_id":"88940920-727e-47f8-bee6-24feedff1167","system_id":"levelo_inurba_marseille","lat":43.282744,"lon":5.350533,"is_reserved":false,"is_disabled":false,"rental_uris":{"android":"levelo://app?vid=88940920-727e-47f8-bee6-24feedff1167","ios":"levelo://app?vid=88940920-727e-47f8-bee6-24feedff1167"},"vehicle_type_id":"4","last_reported":1691424489,"current_range_meters":31600,"station_id":"ce4bhbp2rcd13ifvqerg","pricing_plan_id":"free"},{"bike_id":"a179282e-ee8c-4bf4-9fc4-f9aad737509d","system_id":"levelo_inurba_marseille","lat":43.28266,"lon":5.35068,"is_reserved":false,"is_disabled":false,"rental_uris":{"android":"levelo://app?vid=a179282e-ee8c-4bf4-9fc4-f9aad737509d","ios":"levelo://app?vid=a179282e-ee8c-4bf4-9fc4-f9aad737509d"},"vehicle_type_id":"4","last_reported":1691424489,"current_range_meters":24800,"station_id":"ce4bhbp2rcd13ifvqerg","pricing_plan_id":"free"},{"bike_id":"bbba2aba-696e-4e96-aae0-e6ffa5f8ea9a","system_id":"levelo_inurba_marseille","lat":43.282744,"lon":5.350533,"is_reserved":false,"is_disabled":false,"rental_uris":{"android":"levelo://app?vid=bbba2aba-696e-4e96-aae0-e6ffa5f8ea9a","ios":"levelo://app?vid=bbba2aba-696e-4e96-aae0-e6ffa5f8ea9a"},"vehicle_type_id":"4","last_reported":1691424489,"current_range_meters":23200,"station_id":"ce4bhbp2rcd13ifvqerg","pricing_plan_id":"free"},{"bike_id":"2771845b-7260-4f29-96b5-567977467c65","system_id":"levelo_inurba_marseille","lat":43.28365,"lon":5.38629,"is_reserved":false,"is_disabled":false,"rental_uris":{"android":"levelo://app?vid=2771845b-7260-4f29-96b5-567977467c65","ios":"levelo://app?vid=2771845b-7260-4f29-96b5-567977467c65"},"vehicle_type_id":"4","last_reported":1691424489,"current_range_meters":4800,"station_id":"","pricing_plan_id":"free"},{"bike_id":"3ab39ab9-1a6e-4073-bb00-3b4ecdfdf553","system_id":"levelo_inurba_marseille","lat":43.28269,"lon":5.35056,"is_reserved":false,"is_disabled":false,"rental_uris":{"android":"levelo://app?vid=3ab39ab9-1a6e-4073-bb00-3b4ecdfdf553","ios":"levelo://app?vid=3ab39ab9-1a6e-4073-bb00-3b4ecdfdf553"},"vehicle_type_id":"4","last_reported":1691424489,"current_range_meters":20800,"station_id":"ce4bhbp2rcd13ifvqerg","pricing_plan_id":"free"},{"bike_id":"c134b9b7-fd6c-4c26-b13a-d076ec6d171b","system_id":"levelo_inurba_marseille","lat":43.282744,"lon":5.350533,"is_reserved":false,"is_disabled":false,"rental_uris":{"android":"levelo://app?vid=c134b9b7-fd6c-4c26-b13a-d076ec6d171b","ios":"levelo://app?vid=c134b9b7-fd6c-4c26-b13a-d076ec6d171b"},"vehicle_type_id":"4","last_reported":1691424489,"current_range_meters":31200,"station_id":"ce4bhbp2rcd13ifvqerg","pricing_plan_id":"free"},{"bike_id":"cf696f29-56d6-4a64-96b7-bed6fc5f6d90","system_id":"levelo_inurba_marseille","lat":43.28265,"lon":5.35067,"is_reserved":false,"is_disabled":false,"rental_uris":{"android":"levelo://app?vid=cf696f29-56d6-4a64-96b7-bed6fc5f6d90","ios":"levelo://app?vid=cf696f29-56d6-4a64-96b7-bed6fc5f6d90"},"vehicle_type_id":"4","last_reported":1691424489,"current_range_meters":31200,"station_id":"ce4bhbp2rcd13ifvqerg","pricing_plan_id":"free"},{"bike_id":"2825ae9f-3839-4dad-bde2-c9261d98582f","system_id":"levelo_inurba_marseille","lat":43.282744,"lon":5.350533,"is_reserved":false,"is_disabled":false,"rental_uris":{"android":"levelo://app?vid=2825ae9f-3839-4dad-bde2-c9261d98582f","ios":"levelo://app?vid=2825ae9f-3839-4dad-bde2-c9261d98582f"},"vehicle_type_id":"4","last_reported":1691424489,"current_range_meters":31200,"station_id":"ce4bhbp2rcd13ifvqerg","pricing_plan_id":"free"},{"bike_id":"68cf0c5e-ec67-4f3c-857f-6616150e7cdd","system_id":"levelo_inurba_marseille","lat":43.28266,"lon":5.35061,"is_reserved":false,"is_disabled":false,"rental_uris":{"android":"levelo://app?vid=68cf0c5e-ec67-4f3c-857f-6616150e7cdd","ios":"levelo://app?vid=68cf0c5e-ec67-4f3c-857f-6616150e7cdd"},"vehicle_type_id":"4","last_reported":1691424489,"current_range_meters":18400,"station_id":"ce4bhbp2rcd13ifvqerg","pricing_plan_id":"free"},{"bike_id":"7fc65d1e-fed5-4a14-bcf4-1410fdfcb95c","system_id":"levelo_inurba_marseille","lat":43.28267,"lon":5.35057,"is_reserved":false,"is_disabled":false,"rental_uris":{"android":"levelo://app?vid=7fc65d1e-fed5-4a14-bcf4-1410fdfcb95c","ios":"levelo://app?vid=7fc65d1e-fed5-4a14-bcf4-1410fdfcb95c"},"vehicle_type_id":"4","last_reported":1691424489,"current_range_meters":18400,"station_id":"ce4bhbp2rcd13ifvqerg","pricing_plan_id":"free"},{"bike_id":"d60e3c12-6a6a-40f8-b5b3-473448f2c052","system_id":"levelo_inurba_marseille","lat":43.28267,"lon":5.35056,"is_reserved":false,"is_disabled":false,"rental_uris":{"android":"levelo://app?vid=d60e3c12-6a6a-40f8-b5b3-473448f2c052","ios":"levelo://app?vid=d60e3c12-6a6a-40f8-b5b3-473448f2c052"},"vehicle_type_id":"4","last_reported":1691424489,"current_range_meters":9200,"station_id":"ce4bhbp2rcd13ifvqerg","pricing_plan_id":"free"},{"bike_id":"1aab30e7-461e-42b7-a0c8-d70b60b802fe","system_id":"levelo_inurba_marseille","lat":43.28266,"lon":5.35059,"is_reserved":false,"is_disabled":false,"rental_uris":{"android":"levelo://app?vid=1aab30e7-461e-42b7-a0c8-d70b60b802fe","ios":"levelo://app?vid=1aab30e7-461e-42b7-a0c8-d70b60b802fe"},"vehicle_type_id":"4","last_reported":1691424489,"current_range_meters":22400,"station_id":"ce4bhbp2rcd13ifvqerg","pricing_plan_id":"free"},{"bike_id":"fff0ed6e-5d3c-475a-bb49-0102c38b1fc6","system_id":"levelo_inurba_marseille","lat":43.28265,"lon":5.35062,"is_reserved":false,"is_disabled":false,"rental_uris":{"android":"levelo://app?vid=fff0ed6e-5d3c-475a-bb49-0102c38b1fc6","ios":"levelo://app?vid=fff0ed6e-5d3c-475a-bb49-0102c38b1fc6"},"vehicle_type_id":"4","last_reported":1691424489,"current_range_meters":19200,"station_id":"ce4bhbp2rcd13ifvqerg","pricing_plan_id":"free"},{"bike_id":"6c9f22c7-32da-4bd0-b486-36a45cd963f5","system_id":"levelo_inurba_marseille","lat":43.282744,"lon":5.350533,"is_reserved":false,"is_disabled":false,"rental_uris":{"android":"levelo://app?vid=6c9f22c7-32da-4bd0-b486-36a45cd963f5","ios":"levelo://app?vid=6c9f22c7-32da-4bd0-b486-36a45cd963f5"},"vehicle_type_id":"4","last_reported":1691424489,"current_range_meters":31200,"station_id":"ce4bhbp2rcd13ifvqerg","pricing_plan_id":"free"},{"bike_id":"f83a6a0c-f4ae-4954-924a-709426c8964d","system_id":"levelo_inurba_marseille","lat":43.28263,"lon":5.35059,"is_reserved":false,"is_disabled":false,"rental_uris":{"android":"levelo://app?vid=f83a6a0c-f4ae-4954-924a-709426c8964d","ios":"levelo://app?vid=f83a6a0c-f4ae-4954-924a-709426c8964d"},"vehicle_type_id":"4","last_reported":1691424489,"current_range_meters":27600,"station_id":"ce4bhbp2rcd13ifvqerg","pricing_plan_id":"free"},{"bike_id":"c5f2f74d-6e02-4ccd-bbca-a38fabe5a585","system_id":"levelo_inurba_marseille","lat":43.28262,"lon":5.35061,"is_reserved":false,"is_disabled":false,"rental_uris":{"android":"levelo://app?vid=c5f2f74d-6e02-4ccd-bbca-a38fabe5a585","ios":"levelo://app?vid=c5f2f74d-6e02-4ccd-bbca-a38fabe5a585"},"vehicle_type_id":"4","last_reported":1691424489,"current_range_meters":22400,"station_id":"ce4bhbp2rcd13ifvqerg","pricing_plan_id":"free"},{"bike_id":"48890449-d5ce-4ad7-8f70-bc0bdc5da1c6","system_id":"levelo_inurba_marseille","lat":43.282744,"lon":5.350533,"is_reserved":false,"is_disabled":false,"rental_uris":{"android":"levelo://app?vid=48890449-d5ce-4ad7-8f70-bc0bdc5da1c6","ios":"levelo://app?vid=48890449-d5ce-4ad7-8f70-bc0bdc5da1c6"},"vehicle_type_id":"4","last_reported":1691424489,"current_range_meters":31200,"station_id":"ce4bhbp2rcd13ifvqerg","pricing_plan_id":"free"},{"bike_id":"ffa4655b-1f0f-4609-b17c-97199178b3d7","system_id":"levelo_inurba_marseille","lat":43.28261,"lon":5.35062,"is_reserved":false,"is_disabled":false,"rental_uris":{"android":"levelo://app?vid=ffa4655b-1f0f-4609-b17c-97199178b3d7","ios":"levelo://app?vid=ffa4655b-1f0f-4609-b17c-97199178b3d7"},"vehicle_type_id":"4","last_reported":1691424489,"current_range_meters":21600,"station_id":"ce4bhbp2rcd13ifvqerg","pricing_plan_id":"free"},{"bike_id":"131f0e32-7abe-4545-9cc7-8b561f4b08c7","system_id":"levelo_inurba_marseille","lat":43.28263,"lon":5.35054,"is_reserved":false,"is_disabled":false,"rental_uris":{"android":"levelo://app?vid=131f0e32-7abe-4545-9cc7-8b561f4b08c7","ios":"levelo://app?vid=131f0e32-7abe-4545-9cc7-8b561f4b08c7"},"vehicle_type_id":"4","last_reported":1691424489,"current_range_meters":16000,"station_id":"ce4bhbp2rcd13ifvqerg","pricing_plan_id":"free"},{"bike_id":"0fd8c1f1-0a75-4719-86ad-f66722baf040","system_id":"levelo_inurba_marseille","lat":43.283502,"lon":5.386471,"is_reserved":false,"is_disabled":false,"rental_uris":{"android":"levelo://app?vid=0fd8c1f1-0a75-4719-86ad-f66722baf040","ios":"levelo://app?vid=0fd8c1f1-0a75-4719-86ad-f66722baf040"},"vehicle_type_id":"4","last_reported":1691424489,"current_range_meters":20800,"station_id":"ce4bh492rcd13ifvqdvg","pricing_plan_id":"free"},{"bike_id":"6f6e3e46-331e-45b9-aab1-507727d46a36","system_id":"levelo_inurba_marseille","lat":43.28039,"lon":5.369297,"is_reserved":false,"is_disabled":false,"rental_uris":{"android":"levelo://app?vid=6f6e3e46-331e-45b9-aab1-507727d46a36","ios":"levelo://app?vid=6f6e3e46-331e-45b9-aab1-507727d46a36"},"vehicle_type_id":"4","last_reported":1691424489,"current_range_meters":23600,"station_id":"ce4bha12rcd13ifvqef0","pricing_plan_id":"free"},{"bike_id":"42bf066c-9f56-4802-91be-e95e96b20d56","system_id":"levelo_inurba_marseille","lat":43.280382,"lon":5.369291,"is_reserved":false,"is_disabled":false,"rental_uris":{"android":"levelo://app?vid=42bf066c-9f56-4802-91be-e95e96b20d56","ios":"levelo://app?vid=42bf066c-9f56-4802-91be-e95e96b20d56"},"vehicle_type_id":"4","last_reported":1691424489,"current_range_meters":28400,"station_id":"ce4bha12rcd13ifvqef0","pricing_plan_id":"free"},{"bike_id":"9d9a7449-1382-43c0-be53-4ad61c1d3fd4","system_id":"levelo_inurba_marseille","lat":43.280382,"lon":5.369291,"is_reserved":false,"is_disabled":false,"rental_uris":{"android":"levelo://app?vid=9d9a7449-1382-43c0-be53-4ad61c1d3fd4","ios":"levelo://app?vid=9d9a7449-1382-43c0-be53-4ad61c1d3fd4"},"vehicle_type_id":"4","last_reported":1691424489,"current_range_meters":0,"station_id":"ce4bha12rcd13ifvqef0","pricing_plan_id":"free"},{"bike_id":"869afdfa-23a7-499d-8a63-a92c730aeae5","system_id":"levelo_inurba_marseille","lat":43.29041,"lon":5.39964,"is_reserved":false,"is_disabled":false,"rental_uris":{"android":"levelo://app?vid=869afdfa-23a7-499d-8a63-a92c730aeae5","ios":"levelo://app?vid=869afdfa-23a7-499d-8a63-a92c730aeae5"},"vehicle_type_id":"4","last_reported":1691424489,"current_range_meters":6000,"station_id":"ce4bh392rcd13ifvqdm0","pricing_plan_id":"free"},{"bike_id":"ae8cc6d3-2ffd-4fdc-9c63-ca4d14769ad6","system_id":"levelo_inurba_marseille","lat":43.29041,"lon":5.399634,"is_reserved":false,"is_disabled":false,"rental_uris":{"android":"levelo://app?vid=ae8cc6d3-2ffd-4fdc-9c63-ca4d14769ad6","ios":"levelo://app?vid=ae8cc6d3-2ffd-4fdc-9c63-ca4d14769ad6"},"vehicle_type_id":"4","last_reported":1691424489,"current_range_meters":14000,"station_id":"ce4bh392rcd13ifvqdm0","pricing_plan_id":"free"},{"bike_id":"a799d964-3e40-4ca9-88a7-013f1d0b9015","system_id":"levelo_inurba_marseille","lat":43.29041,"lon":5.399634,"is_reserved":false,"is_disabled":false,"rental_uris":{"android":"levelo://app?vid=a799d964-3e40-4ca9-88a7-013f1d0b9015","ios":"levelo://app?vid=a799d964-3e40-4ca9-88a7-013f1d0b9015"},"vehicle_type_id":"4","last_reported":1691424489,"current_range_meters":8400,"station_id":"ce4bh392rcd13ifvqdm0","pricing_plan_id":"free"},{"bike_id":"8457f531-4916-4fc0-b5d7-4077341d9061","system_id":"levelo_inurba_marseille","lat":43.281044,"lon":5.378308,"is_reserved":false,"is_disabled":false,"rental_uris":{"android":"levelo://app?vid=8457f531-4916-4fc0-b5d7-4077341d9061","ios":"levelo://app?vid=8457f531-4916-4fc0-b5d7-4077341d9061"},"vehicle_type_id":"4","last_reported":1691424489,"current_range_meters":21200,"station_id":"ce4bha12rcd13ifvqee0","pricing_plan_id":"free"},{"bike_id":"99314e57-4da2-40d0-9e6e-02280be64f2d","system_id":"levelo_inurba_marseille","lat":43.28102,"lon":5.37841,"is_reserved":false,"is_disabled":false,"rental_uris":{"android":"levelo://app?vid=99314e57-4da2-40d0-9e6e-02280be64f2d","ios":"levelo://app?vid=99314e57-4da2-40d0-9e6e-02280be64f2d"},"vehicle_type_id":"4","last_reported":1691424489,"current_range_meters":0,"station_id":"ce4bha12rcd13ifvqee0","pricing_plan_id":"free"},{"bike_id":"6c214075-43d4-4634-b335-83f3336940a5","system_id":"levelo_inurba_marseille","lat":43.296263,"lon":5.40601,"is_reserved":false,"is_disabled":false,"rental_uris":{"android":"levelo://app?vid=6c214075-43d4-4634-b335-83f3336940a5","ios":"levelo://app?vid=6c214075-43d4-4634-b335-83f3336940a5"},"vehicle_type_id":"4","last_reported":1691424489,"current_range_meters":5200,"station_id":"ce4bh0h2rcd13ifvqd60","pricing_plan_id":"free"},{"bike_id":"b2d03303-d257-4e2b-b76b-9e58fccd9b4d","system_id":"levelo_inurba_marseille","lat":43.32632,"lon":5.40936,"is_reserved":false,"is_disabled":false,"rental_uris":{"android":"levelo://app?vid=b2d03303-d257-4e2b-b76b-9e58fccd9b4d","ios":"levelo://app?vid=b2d03303-d257-4e2b-b76b-9e58fccd9b4d"},"vehicle_type_id":"4","last_reported":1691424489,"current_range_meters":10000,"station_id":"","pricing_plan_id":"free"},{"bike_id":"8a72f798-3b61-4365-bdf5-62c42611d638","system_id":"levelo_inurba_marseille","lat":43.32656,"lon":5.40987,"is_reserved":false,"is_disabled":false,"rental_uris":{"android":"levelo://app?vid=8a72f798-3b61-4365-bdf5-62c42611d638","ios":"levelo://app?vid=8a72f798-3b61-4365-bdf5-62c42611d638"},"vehicle_type_id":"4","last_reported":1691424489,"current_range_meters":10000,"station_id":"ce4bhpp2rcd13ifvqhgg","pricing_plan_id":"free"},{"bike_id":"f7eb8970-b12f-46ff-af4d-c33bd8bf9f5f","system_id":"levelo_inurba_marseille","lat":43.326605,"lon":5.409903,"is_reserved":false,"is_disabled":false,"rental_uris":{"android":"levelo://app?vid=f7eb8970-b12f-46ff-af4d-c33bd8bf9f5f","ios":"levelo://app?vid=f7eb8970-b12f-46ff-af4d-c33bd8bf9f5f"},"vehicle_type_id":"4","last_reported":1691424489,"current_range_meters":22000,"station_id":"ce4bhpp2rcd13ifvqhgg","pricing_plan_id":"free"},{"bike_id":"fe204c24-f8b6-4f58-bde1-7013ebf61531","system_id":"levelo_inurba_marseille","lat":43.32661,"lon":5.40988,"is_reserved":false,"is_disabled":false,"rental_uris":{"android":"levelo://app?vid=fe204c24-f8b6-4f58-bde1-7013ebf61531","ios":"levelo://app?vid=fe204c24-f8b6-4f58-bde1-7013ebf61531"},"vehicle_type_id":"4","last_reported":1691424489,"current_range_meters":10000,"station_id":"ce4bhpp2rcd13ifvqhgg","pricing_plan_id":"free"},{"bike_id":"045bfddd-6cf9-400c-b2ae-f1238b992e27","system_id":"levelo_inurba_marseille","lat":43.32656,"lon":5.40992,"is_reserved":false,"is_disabled":false,"rental_uris":{"android":"levelo://app?vid=045bfddd-6cf9-400c-b2ae-f1238b992e27","ios":"levelo://app?vid=045bfddd-6cf9-400c-b2ae-f1238b992e27"},"vehicle_type_id":"4","last_reported":1691424489,"current_range_meters":30000,"station_id":"ce4bhpp2rcd13ifvqhgg","pricing_plan_id":"free"},{"bike_id":"372796c3-e2ca-469f-957a-bbdbb22997f5","system_id":"levelo_inurba_marseille","lat":43.326605,"lon":5.409903,"is_reserved":false,"is_disabled":false,"rental_uris":{"android":"levelo://app?vid=372796c3-e2ca-469f-957a-bbdbb22997f5","ios":"levelo://app?vid=372796c3-e2ca-469f-957a-bbdbb22997f5"},"vehicle_type_id":"4","last_reported":1691424489,"current_range_meters":29600,"station_id":"ce4bhpp2rcd13ifvqhgg","pricing_plan_id":"free"},{"bike_id":"001e3895-dcca-436d-8647-ea41e39b6e5d","system_id":"levelo_inurba_marseille","lat":43.2915,"lon":5.40417,"is_reserved":false,"is_disabled":false,"rental_uris":{"android":"levelo://app?vid=001e3895-dcca-436d-8647-ea41e39b6e5d","ios":"levelo://app?vid=001e3895-dcca-436d-8647-ea41e39b6e5d"},"vehicle_type_id":"4","last_reported":1691424489,"current_range_meters":24400,"station_id":"","pricing_plan_id":"free"},{"bike_id":"d0f2da66-752a-46d8-891e-097dae9dda6e","system_id":"levelo_inurba_marseille","lat":43.279087,"lon":5.380114,"is_reserved":false,"is_disabled":false,"rental_uris":{"android":"levelo://app?vid=d0f2da66-752a-46d8-891e-097dae9dda6e","ios":"levelo://app?vid=d0f2da66-752a-46d8-891e-097dae9dda6e"},"vehicle_type_id":"4","last_reported":1691424489,"current_range_meters":24800,"station_id":"ce4bhf92rcd13ifvqf50","pricing_plan_id":"free"},{"bike_id":"b61a045f-4bed-43e3-9bc3-1b5b64581f4b","system_id":"levelo_inurba_marseille","lat":43.320045,"lon":5.415046,"is_reserved":false,"is_disabled":false,"rental_uris":{"android":"levelo://app?vid=b61a045f-4bed-43e3-9bc3-1b5b64581f4b","ios":"levelo://app?vid=b61a045f-4bed-43e3-9bc3-1b5b64581f4b"},"vehicle_type_id":"4","last_reported":1691424489,"current_range_meters":31200,"station_id":"ce4bhq92rcd13ifvqhkg","pricing_plan_id":"free"},{"bike_id":"fca57ec6-648c-4b7c-aba8-325c18d937f0","system_id":"levelo_inurba_marseille","lat":43.320045,"lon":5.415046,"is_reserved":false,"is_disabled":false,"rental_uris":{"android":"levelo://app?vid=fca57ec6-648c-4b7c-aba8-325c18d937f0","ios":"levelo://app?vid=fca57ec6-648c-4b7c-aba8-325c18d937f0"},"vehicle_type_id":"4","last_reported":1691424489,"current_range_meters":6000,"station_id":"ce4bhq92rcd13ifvqhkg","pricing_plan_id":"free"},{"bike_id":"4b52bb74-8b04-49cf-84c7-e858cffecf92","system_id":"levelo_inurba_marseille","lat":43.320045,"lon":5.415046,"is_reserved":false,"is_disabled":false,"rental_uris":{"android":"levelo://app?vid=4b52bb74-8b04-49cf-84c7-e858cffecf92","ios":"levelo://app?vid=4b52bb74-8b04-49cf-84c7-e858cffecf92"},"vehicle_type_id":"4","last_reported":1691424489,"current_range_meters":31200,"station_id":"ce4bhq92rcd13ifvqhkg","pricing_plan_id":"free"},{"bike_id":"9b4f9449-4798-4fde-a7bf-53432cbf9ae4","system_id":"levelo_inurba_marseille","lat":43.320045,"lon":5.415046,"is_reserved":false,"is_disabled":false,"rental_uris":{"android":"levelo://app?vid=9b4f9449-4798-4fde-a7bf-53432cbf9ae4","ios":"levelo://app?vid=9b4f9449-4798-4fde-a7bf-53432cbf9ae4"},"vehicle_type_id":"4","last_reported":1691424489,"current_range_meters":31200,"station_id":"ce4bhq92rcd13ifvqhkg","pricing_plan_id":"free"},{"bike_id":"27f5aac6-d8e1-4a02-87b3-607a4cf39cab","system_id":"levelo_inurba_marseille","lat":43.320045,"lon":5.415046,"is_reserved":false,"is_disabled":false,"rental_uris":{"android":"levelo://app?vid=27f5aac6-d8e1-4a02-87b3-607a4cf39cab","ios":"levelo://app?vid=27f5aac6-d8e1-4a02-87b3-607a4cf39cab"},"vehicle_type_id":"4","last_reported":1691424489,"current_range_meters":31200,"station_id":"ce4bhq92rcd13ifvqhkg","pricing_plan_id":"free"},{"bike_id":"a8bc62e0-a51b-4b4a-a1e8-353f0120b1ff","system_id":"levelo_inurba_marseille","lat":43.29957,"lon":5.4132,"is_reserved":false,"is_disabled":false,"rental_uris":{"android":"levelo://app?vid=a8bc62e0-a51b-4b4a-a1e8-353f0120b1ff","ios":"levelo://app?vid=a8bc62e0-a51b-4b4a-a1e8-353f0120b1ff"},"vehicle_type_id":"4","last_reported":1691424489,"current_range_meters":29200,"station_id":"","pricing_plan_id":"free"},{"bike_id":"a4e74975-0e5e-4750-8194-b56f0944f975","system_id":"levelo_inurba_marseille","lat":43.320045,"lon":5.415048,"is_reserved":false,"is_disabled":false,"rental_uris":{"android":"levelo://app?vid=a4e74975-0e5e-4750-8194-b56f0944f975","ios":"levelo://app?vid=a4e74975-0e5e-4750-8194-b56f0944f975"},"vehicle_type_id":"4","last_reported":1691424489,"current_range_meters":31200,"station_id":"ce4bhq92rcd13ifvqhkg","pricing_plan_id":"free"},{"bike_id":"8fdfd881-3d13-490f-900f-00607f6b3f51","system_id":"levelo_inurba_marseille","lat":43.320045,"lon":5.415046,"is_reserved":false,"is_disabled":false,"rental_uris":{"android":"levelo://app?vid=8fdfd881-3d13-490f-900f-00607f6b3f51","ios":"levelo://app?vid=8fdfd881-3d13-490f-900f-00607f6b3f51"},