{"last_updated":1711976844,"ttl":30,"version":"2.2","data":{"bikes":[{"bike_id":"bf836dab-ec9e-4f24-8e28-7fbd50312ec6","system_id":"levelo_inurba_marseille","lat":43.31341,"lon":5.367098,"is_reserved":false,"is_disabled":false,"rental_uris":{"android":"levelo://app?vid=bf836dab-ec9e-4f24-8e28-7fbd50312ec6","ios":"levelo://app?vid=bf836dab-ec9e-4f24-8e28-7fbd50312ec6"},"vehicle_type_id":"4","last_reported":1711976844,"current_range_meters":12800,"station_id":"ce4bgr92rcd13ifvqc6g","pricing_plan_id":"cebpf4jnsgd1na2vs0mg"},{"bike_id":"5f863353-8086-4fd7-8273-2a8c1ffdef46","system_id":"levelo_inurba_marseille","lat":43.313391,"lon":5.36706,"is_reserved":false,"is_disabled":false,"rental_uris":{"android":"levelo://app?vid=5f863353-8086-4fd7-8273-2a8c1ffdef46","ios":"levelo://app?vid=5f863353-8086-4fd7-8273-2a8c1ffdef46"},"vehicle_type_id":"4","last_reported":1711976844,"current_range_meters":22400,"station_id":"ce4bgr92rcd13ifvqc6g","pricing_plan_id":"cebpf4jnsgd1na2vs0mg"},{"bike_id":"2efce654-b239-4ef3-af95-637409649ed0","system_id":"levelo_inurba_marseille","lat":43.313391,"lon":5.36706,"is_reserved":false,"is_disabled":false,"rental_uris":{"android":"levelo://app?vid=2efce654-b239-4ef3-af95-637409649ed0","ios":"levelo://app?vid=2efce654-b239-4ef3-af95-637409649ed0"},"vehicle_type_id":"4","last_reported":1711976844,"current_range_meters":32000,"station_id":"ce4bgr92rcd13ifvqc6g","pricing_plan_id":"cebpf4jnsgd1na2vs0mg"},{"bike_id":"ecb32b6a-d39c-49bb-aab8-1867c926a3e2","system_id":"levelo_inurba_marseille","lat":43.31341,"lon":5.367098,"is_reserved":false,"is_disabled":false,"rental_uris":{"android":"levelo://app?vid=ecb32b6a-d39c-49bb-aab8-1867c926a3e2","ios":"levelo://app?vid=ecb32b6a-d39c-49bb-aab8-1867c926a3e2"},"vehicle_type_id":"4","last_reported":1711976844,"current_range_meters":31600,"station_id":"ce4bgr92rcd13ifvqc6g","pricing_plan_id":"cebpf4jnsgd1na2vs0mg"},{"bike_id":"521ac311-ee98-4186-8d28-d060c5ffe646","system_id":"levelo_inurba_marseille","lat":43.31341,"lon":5.367098,"is_reserved":false,"is_disabled":false,"rental_uris":{"android":"levelo://app?vid=521ac311-ee98-4186-8d28-d060c5ffe646","ios":"levelo://app?vid=521ac311-ee98-4186-8d28-d060c5ffe646"},"vehicle_type_id":"4","last_reported":1711976844,"current_range_meters":18800,"station_id":"ce4bgr92rcd13ifvqc6g","pricing_plan_id":"cebpf4jnsgd1na2vs0mg"},{"bike_id":"b4032b84-be55-4143-94d2-f0ab3708336a","system_id":"levelo_inurba_marseille","lat":43.31341,"lon":5.367098,"is_reserved":false,"is_disabled":false,"rental_uris":{"android":"levelo://app?vid=b4032b84-be55-4143-94d2-f0ab3708336a","ios":"levelo://app?vid=b4032b84-be55-4143-94d2-f0ab3708336a"},"vehicle_type_id":"4","last_reported":1711976844,"current_range_meters":20400,"station_id":"ce4bgr92rcd13ifvqc6g","pricing_plan_id":"cebpf4jnsgd1na2vs0mg"},{"bike_id":"9647b857-c5cb-4e31-abee-152b0fadb761","system_id":"levelo_inurba_marseille","lat":43.31341,"lon":5.367098,"is_reserved":false,"is_disabled":false,"rental_uris":{"android":"levelo://app?vid=9647b857-c5cb-4e31-abee-152b0fadb761","ios":"levelo://app?vid=9647b857-c5cb-4e31-abee-152b0fadb761"},"vehicle_type_id":"4","last_reported":1711976844,"current_range_meters":26800,"station_id":"ce4bgr92rcd13ifvqc6g","pricing_plan_id":"cebpf4jnsgd1na2vs0mg"},{"bike_id":"e63ba5c1-5518-4285-a292-a723101af8bd","system_id":"levelo_inurba_marseille","lat":43.313391,"lon":5.36706,"is_reserved":false,"is_disabled":false,"rental_uris":{"android":"levelo://app?vid=e63ba5c1-5518-4285-a292-a723101af8bd","ios":"levelo://app?vid=e63ba5c1-5518-4285-a292-a723101af8bd"},"vehicle_type_id":"4","last_reported":1711976844,"current_range_meters":20800,"station_id":"ce4bgr92rcd13ifvqc6g","pricing_plan_id":"cebpf4jnsgd1na2vs0mg"},{"bike_id":"575057c4-d799-4674-adda-ba59c65b9e71","system_id":"levelo_inurba_marseille","lat":43.31341,"lon":5.367098,"is_reserved":false,"is_disabled":false,"rental_uris":{"android":"levelo://app?vid=575057c4-d799-4674-adda-ba59c65b9e71","ios":"levelo://app?vid=575057c4-d799-4674-adda-ba59c65b9e71"},"vehicle_type_id":"4","last_reported":1711976844,"current_range_meters":8800,"station_id":"ce4bgr92rcd13ifvqc6g","pricing_plan_id":"cebpf4jnsgd1na2vs0mg"},{"bike_id":"e874d237-32ed-47f1-ab25-ed61064ac8ed","system_id":"levelo_inurba_marseille","lat":43.31341,"lon":5.367098,"is_reserved":false,"is_disabled":false,"rental_uris":{"android":"levelo://app?vid=e874d237-32ed-47f1-ab25-ed61064ac8ed","ios":"levelo://app?vid=e874d237-32ed-47f1-ab25-ed61064ac8ed"},"vehicle_type_id":"4","last_reported":1711976844,"current_range_meters":11600,"station_id":"ce4bgr92rcd13ifvqc6g","pricing_plan_id":"cebpf4jnsgd1na2vs0mg"},{"bike_id":"498a5706-fb73-4846-82de-150ad9819421","system_id":"levelo_inurba_marseille","lat":43.31341,"lon":5.367098,"is_reserved":false,"is_disabled":false,"rental_uris":{"android":"levelo://app?vid=498a5706-fb73-4846-82de-150ad9819421","ios":"levelo://app?vid=498a5706-fb73-4846-82de-150ad9819421"},"vehicle_type_id":"4","last_reported":1711976844,"current_range_meters":29200,"station_id":"ce4bgr92rcd13ifvqc6g","pricing_plan_id":"cebpf4jnsgd1na2vs0mg"},{"bike_id":"aaa40d02-a217-45b9-9e23-c98d843c70e9","system_id":"levelo_inurba_marseille","lat":43.313391,"lon":5.36706,"is_reserved":false,"is_disabled":false,"rental_uris":{"android":"levelo://app?vid=aaa40d02-a217-45b9-9e23-c98d843c70e9","ios":"levelo://app?vid=aaa40d02-a217-45b9-9e23-c98d843c70e9"},"vehicle_type_id":"4","last_reported":1711976844,"current_range_meters":30800,"station_id":"ce4bgr92rcd13ifvqc6g","pricing_plan_id":"cebpf4jnsgd1na2vs0mg"},{"bike_id":"90fcb6c3-049c-4297-a839-605339c2e5eb","system_id":"levelo_inurba_marseille","lat":43.313391,"lon":5.36706,"is_reserved":false,"is_disabled":false,"rental_uris":{"android":"levelo://app?vid=90fcb6c3-049c-4297-a839-605339c2e5eb","ios":"levelo://app?vid=90fcb6c3-049c-4297-a839-605339c2e5eb"},"vehicle_type_id":"4","last_reported":1711976844,"current_range_meters":18800,"station_id":"ce4bgr92rcd13ifvqc6g","pricing_plan_id":"cebpf4jnsgd1na2vs0mg"},{"bike_id":"de839a4d-cacf-46ab-805e-6be34a129f6b","system_id":"levelo_inurba_marseille","lat":43.31341,"lon":5.367098,"is_reserved":false,"is_disabled":false,"rental_uris":{"android":"levelo://app?vid=de839a4d-cacf-46ab-805e-6be34a129f6b","ios":"levelo://app?vid=de839a4d-cacf-46ab-805e-6be34a129f6b"},"vehicle_type_id":"4","last_reported":1711976844,"current_range_meters":9600,"station_id":"ce4bgr92rcd13ifvqc6g","pricing_plan_id":"cebpf4jnsgd1na2vs0mg"},{"bike_id":"a56fe6f1-0e13-46d3-bca7-c7a3e6258115","system_id":"levelo_inurba_marseille","lat":43.31341,"lon":5.367098,"is_reserved":false,"is_disabled":false,"rental_uris":{"android":"levelo://app?vid=a56fe6f1-0e13-46d3-bca7-c7a3e6258115","ios":"levelo://app?vid=a56fe6f1-0e13-46d3-bca7-c7a3e6258115"},"vehicle_type_id":"4","last_reported":1711976844,"current_range_meters":23600,"station_id":"ce4bgr92rcd13ifvqc6g","pricing_plan_id":"cebpf4jnsgd1na2vs0mg"},{"bike_id":"3cf71738-9d07-4709-a860-2d23a7dd7774","system_id":"levelo_inurba_marseille","lat":43.312239,"lon":5.368562,"is_reserved":false,"is_disabled":false,"rental_uris":{"android":"levelo://app?vid=3cf71738-9d07-4709-a860-2d23a7dd7774","ios":"levelo://app?vid=3cf71738-9d07-4709-a860-2d23a7dd7774"},"vehicle_type_id":"4","last_reported":1711976844,"current_range_meters":8400,"station_id":"ce4bgl92rcd13ifvqbq0","pricing_plan_id":"cebpf4jnsgd1na2vs0mg"},{"bike_id":"3d876a47-d0d3-4715-abc5-1d3417806fc8","system_id":"levelo_inurba_marseille","lat":43.312239,"lon":5.368562,"is_reserved":false,"is_disabled":false,"rental_uris":{"android":"levelo://app?vid=3d876a47-d0d3-4715-abc5-1d3417806fc8","ios":"levelo://app?vid=3d876a47-d0d3-4715-abc5-1d3417806fc8"},"vehicle_type_id":"4","last_reported":1711976844,"current_range_meters":31600,"station_id":"ce4bgl92rcd13ifvqbq0","pricing_plan_id":"cebpf4jnsgd1na2vs0mg"},{"bike_id":"f227772c-e19f-42c0-9fcb-00955954d6c3","system_id":"levelo_inurba_marseille","lat":43.312239,"lon":5.368562,"is_reserved":false,"is_disabled":false,"rental_uris":{"android":"levelo://app?vid=f227772c-e19f-42c0-9fcb-00955954d6c3","ios":"levelo://app?vid=f227772c-e19f-42c0-9fcb-00955954d6c3"},"vehicle_type_id":"4","last_reported":1711976844,"current_range_meters":31200,"station_id":"ce4bgl92rcd13ifvqbq0","pricing_plan_id":"cebpf4jnsgd1na2vs0mg"},{"bike_id":"0aa7ac01-5628-4ebc-8f78-5683c7a0ffb9","system_id":"levelo_inurba_marseille","lat":43.309187,"lon":5.3685,"is_reserved":false,"is_disabled":false,"rental_uris":{"android":"levelo://app?vid=0aa7ac01-5628-4ebc-8f78-5683c7a0ffb9","ios":"levelo://app?vid=0aa7ac01-5628-4ebc-8f78-5683c7a0ffb9"},"vehicle_type_id":"4","last_reported":1711976844,"current_range_meters":10000,"station_id":"ce4bgn92rcd13ifvqbvg","pricing_plan_id":"cebpf4jnsgd1na2vs0mg"},{"bike_id":"b780665c-61bf-4c71-ade0-7ed4090eeccc","system_id":"levelo_inurba_marseille","lat":43.309076,"lon":5.368465,"is_reserved":false,"is_disabled":false,"rental_uris":{"android":"levelo://app?vid=b780665c-61bf-4c71-ade0-7ed4090eeccc","ios":"levelo://app?vid=b780665c-61bf-4c71-ade0-7ed4090eeccc"},"vehicle_type_id":"4","last_reported":1711976844,"current_range_meters":14800,"station_id":"ce4bgn92rcd13ifvqbvg","pricing_plan_id":"cebpf4jnsgd1na2vs0mg"},{"bike_id":"8d217d63-a7a8-4119-93db-e5a88f675335","system_id":"levelo_inurba_marseille","lat":43.309076,"lon":5.368465,"is_reserved":false,"is_disabled":false,"rental_uris":{"android":"levelo://app?vid=8d217d63-a7a8-4119-93db-e5a88f675335","ios":"levelo://app?vid=8d217d63-a7a8-4119-93db-e5a88f675335"},"vehicle_type_id":"4","last_reported":1711976844,"current_range_meters":8000,"station_id":"ce4bgn92rcd13ifvqbvg","pricing_plan_id":"cebpf4jnsgd1na2vs0mg"},{"bike_id":"0909865b-7959-48cd-bd76-252973c371ae","system_id":"levelo_inurba_marseille","lat":43.309076,"lon":5.368465,"is_reserved":false,"is_disabled":false,"rental_uris":{"android":"levelo://app?vid=0909865b-7959-48cd-bd76-252973c371ae","ios":"levelo://app?vid=0909865b-7959-48cd-bd76-252973c371ae"},"vehicle_type_id":"4","last_reported":1711976844,"current_range_meters":31600,"station_id":"ce4bgn92rcd13ifvqbvg","pricing_plan_id":"cebpf4jnsgd1na2vs0mg"},{"bike_id":"0a3452cb-8ef4-4306-b697-fd73ff561e42","system_id":"levelo_inurba_marseille","lat":43.309076,"lon":5.368465,"is_reserved":false,"is_disabled":false,"rental_uris":{"android":"levelo://app?vid=0a3452cb-8ef4-4306-b697-fd73ff561e42","ios":"levelo://app?vid=0a3452cb-8ef4-4306-b697-fd73ff561e42"},"vehicle_type_id":"4","last_reported":1711976844,"current_range_meters":3200,"station_id":"ce4bgn92rcd13ifvqbvg","pricing_plan_id":"cebpf4jnsgd1na2vs0mg"},{"bike_id":"be23b56c-2b4f-4f6b-8338-bcba287cb581","system_id":"levelo_inurba_marseille","lat":43.309076,"lon":5.368465,"is_reserved":false,"is_disabled":false,"rental_uris":{"android":"levelo://app?vid=be23b56c-2b4f-4f6b-8338-bcba287cb581","ios":"levelo://app?vid=be23b56c-2b4f-4f6b-8338-bcba287cb581"},"vehicle_type_id":"4","last_reported":1711976844,"current_range_meters":11600,"station_id":"ce4bgn92rcd13ifvqbvg","pricing_plan_id":"cebpf4jnsgd1na2vs0mg"},{"bike_id":"412a765d-223f-4cc4-b066-54bf97e827fd","system_id":"levelo_inurba_marseille","lat":43.309076,"lon":5.368465,"is_reserved":false,"is_disabled":false,"rental_uris":{"android":"levelo://app?vid=412a765d-223f-4cc4-b066-54bf97e827fd","ios":"levelo://app?vid=412a765d-223f-4cc4-b066-54bf97e827fd"},"vehicle_type_id":"4","last_reported":1711976844,"current_range_meters":31600,"station_id":"ce4bgn92rcd13ifvqbvg","pricing_plan_id":"cebpf4jnsgd1na2vs0mg"},{"bike_id":"a0ebaee8-c2e6-4263-888f-c35fa11e9d07","system_id":"levelo_inurba_marseille","lat":43.309076,"lon":5.368465,"is_reserved":false,"is_disabled":false,"rental_uris":{"android":"levelo://app?vid=a0ebaee8-c2e6-4263-888f-c35fa11e9d07","ios":"levelo://app?vid=a0ebaee8-c2e6-4263-888f-c35fa11e9d07"},"vehicle_type_id":"4","last_reported":1711976844,"current_range_meters":15200,"station_id":"ce4bgn92rcd13ifvqbvg","pricing_plan_id":"cebpf4jnsgd1na2vs0mg"},{"bike_id":"d0d07280-bd3e-478e-8feb-921348980181","system_id":"levelo_inurba_marseille","lat":43.314811,"lon":5.373103,"is_reserved":false,"is_disabled":false,"rental_uris":{"android":"levelo://app?vid=d0d07280-bd3e-478e-8feb-921348980181","ios":"levelo://app?vid=d0d07280-bd3e-478e-8feb-921348980181"},"vehicle_type_id":"4","last_reported":1711976844,"current_range_meters":31200,"station_id":"ce4bgt12rcd13ifvqcd0","pricing_plan_id":"cebpf4jnsgd1na2vs0mg"},{"bike_id":"dbb4e45a-2c97-4191-af24-6852fc01e5a6","system_id":"levelo_inurba_marseille","lat":43.31483,"lon":5.37299,"is_reserved":false,"is_disabled":false,"rental_uris":{"android":"levelo://app?vid=dbb4e45a-2c97-4191-af24-6852fc01e5a6","ios":"levelo://app?vid=dbb4e45a-2c97-4191-af24-6852fc01e5a6"},"vehicle_type_id":"4","last_reported":1711976844,"current_range_meters":16000,"station_id":"","pricing_plan_id":"cebpf4jnsgd1na2vs0mg"},{"bike_id":"e87a4af5-822d-4420-87f0-bfbe53c9e50b","system_id":"levelo_inurba_marseille","lat":43.314811,"lon":5.373103,"is_reserved":false,"is_disabled":false,"rental_uris":{"android":"levelo://app?vid=e87a4af5-822d-4420-87f0-bfbe53c9e50b","ios":"levelo://app?vid=e87a4af5-822d-4420-87f0-bfbe53c9e50b"},"vehicle_type_id":"4","last_reported":1711976844,"current_range_meters":26800,"station_id":"ce4bgt12rcd13ifvqcd0","pricing_plan_id":"cebpf4jnsgd1na2vs0mg"},{"bike_id":"3120ed4c-925e-4b01-a579-82ac09551fc9","system_id":"levelo_inurba_marseille","lat":43.314811,"lon":5.373104,"is_reserved":false,"is_disabled":false,"rental_uris":{"android":"levelo://app?vid=3120ed4c-925e-4b01-a579-82ac09551fc9","ios":"levelo://app?vid=3120ed4c-925e-4b01-a579-82ac09551fc9"},"vehicle_type_id":"4","last_reported":1711976844,"current_range_meters":20000,"station_id":"ce4bgt12rcd13ifvqcd0","pricing_plan_id":"cebpf4jnsgd1na2vs0mg"},{"bike_id":"1810a7c2-f11d-4415-adf2-cadb3f27e9aa","system_id":"levelo_inurba_marseille","lat":43.314811,"lon":5.373104,"is_reserved":false,"is_disabled":false,"rental_uris":{"android":"levelo://app?vid=1810a7c2-f11d-4415-adf2-cadb3f27e9aa","ios":"levelo://app?vid=1810a7c2-f11d-4415-adf2-cadb3f27e9aa"},"vehicle_type_id":"4","last_reported":1711976844,"current_range_meters":28400,"station_id":"ce4bgt12rcd13ifvqcd0","pricing_plan_id":"cebpf4jnsgd1na2vs0mg"},{"bike_id":"af878f02-ce2b-4d4c-a5f9-9a0c1f4641b0","system_id":"levelo_inurba_marseille","lat":43.314811,"lon":5.373104,"is_reserved":false,"is_disabled":false,"rental_uris":{"android":"levelo://app?vid=af878f02-ce2b-4d4c-a5f9-9a0c1f4641b0","ios":"levelo://app?vid=af878f02-ce2b-4d4c-a5f9-9a0c1f4641b0"},"vehicle_type_id":"4","last_reported":1711976844,"current_range_meters":31200,"station_id":"ce4bgt12rcd13ifvqcd0","pricing_plan_id":"cebpf4jnsgd1na2vs0mg"},{"bike_id":"2eda6ed3-89ad-4f13-9508-2d18dcb50f20","system_id":"levelo_inurba_marseille","lat":43.30558,"lon":5.36538,"is_reserved":false,"is_disabled":false,"rental_uris":{"android":"levelo://app?vid=2eda6ed3-89ad-4f13-9508-2d18dcb50f20","ios":"levelo://app?vid=2eda6ed3-89ad-4f13-9508-2d18dcb50f20"},"vehicle_type_id":"4","last_reported":1711976844,"current_range_meters":22400,"station_id":"ce4bgs12rcd13ifvqcag","pricing_plan_id":"cebpf4jnsgd1na2vs0mg"},{"bike_id":"53858ca0-41d2-4e3e-8b3a-a370dc2f5110","system_id":"levelo_inurba_marseille","lat":43.305712,"lon":5.365641,"is_reserved":false,"is_disabled":false,"rental_uris":{"android":"levelo://app?vid=53858ca0-41d2-4e3e-8b3a-a370dc2f5110","ios":"levelo://app?vid=53858ca0-41d2-4e3e-8b3a-a370dc2f5110"},"vehicle_type_id":"4","last_reported":1711976844,"current_range_meters":12000,"station_id":"ce4bgs12rcd13ifvqcag","pricing_plan_id":"cebpf4jnsgd1na2vs0mg"},{"bike_id":"c3047176-b536-454b-abda-82533103c9cd","system_id":"levelo_inurba_marseille","lat":43.305712,"lon":5.365641,"is_reserved":false,"is_disabled":false,"rental_uris":{"android":"levelo://app?vid=c3047176-b536-454b-abda-82533103c9cd","ios":"levelo://app?vid=c3047176-b536-454b-abda-82533103c9cd"},"vehicle_type_id":"4","last_reported":1711976844,"current_range_meters":26800,"station_id":"ce4bgs12rcd13ifvqcag","pricing_plan_id":"cebpf4jnsgd1na2vs0mg"},{"bike_id":"f1b0f72a-dc71-41ac-aa0c-e3b0c6f47dfb","system_id":"levelo_inurba_marseille","lat":43.305714,"lon":5.365633,"is_reserved":false,"is_disabled":false,"rental_uris":{"android":"levelo://app?vid=f1b0f72a-dc71-41ac-aa0c-e3b0c6f47dfb","ios":"levelo://app?vid=f1b0f72a-dc71-41ac-aa0c-e3b0c6f47dfb"},"vehicle_type_id":"4","last_reported":1711976844,"current_range_meters":18800,"station_id":"ce4bgs12rcd13ifvqcag","pricing_plan_id":"cebpf4jnsgd1na2vs0mg"},{"bike_id":"fdf22e6a-4772-46af-a47e-c16ca5acf909","system_id":"levelo_inurba_marseille","lat":43.30537,"lon":5.367345,"is_reserved":false,"is_disabled":false,"rental_uris":{"android":"levelo://app?vid=fdf22e6a-4772-46af-a47e-c16ca5acf909","ios":"levelo://app?vid=fdf22e6a-4772-46af-a47e-c16ca5acf909"},"vehicle_type_id":"4","last_reported":1711976844,"current_range_meters":23200,"station_id":"ce4bgrp2rcd13ifvqc9g","pricing_plan_id":"cebpf4jnsgd1na2vs0mg"},{"bike_id":"2124baca-c833-49aa-b256-87874341c6f5","system_id":"levelo_inurba_marseille","lat":43.305714,"lon":5.365633,"is_reserved":false,"is_disabled":false,"rental_uris":{"android":"levelo://app?vid=2124baca-c833-49aa-b256-87874341c6f5","ios":"levelo://app?vid=2124baca-c833-49aa-b256-87874341c6f5"},"vehicle_type_id":"4","last_reported":1711976844,"current_range_meters":29600,"station_id":"ce4bgs12rcd13ifvqcag","pricing_plan_id":"cebpf4jnsgd1na2vs0mg"},{"bike_id":"319999c6-85a3-4930-98ff-73522a11db8c","system_id":"levelo_inurba_marseille","lat":43.305714,"lon":5.365633,"is_reserved":false,"is_disabled":false,"rental_uris":{"android":"levelo://app?vid=319999c6-85a3-4930-98ff-73522a11db8c","ios":"levelo://app?vid=319999c6-85a3-4930-98ff-73522a11db8c"},"vehicle_type_id":"4","last_reported":1711976844,"current_range_meters":12800,"station_id":"ce4bgs12rcd13ifvqcag","pricing_plan_id":"cebpf4jnsgd1na2vs0mg"},{"bike_id":"0644954f-b189-492a-a953-dd12dce9ffe8","system_id":"levelo_inurba_marseille","lat":43.305714,"lon":5.365633,"is_reserved":false,"is_disabled":false,"rental_uris":{"android":"levelo://app?vid=0644954f-b189-492a-a953-dd12dce9ffe8","ios":"levelo://app?vid=0644954f-b189-492a-a953-dd12dce9ffe8"},"vehicle_type_id":"4","last_reported":1711976844,"current_range_meters":18400,"station_id":"ce4bgs12rcd13ifvqcag","pricing_plan_id":"cebpf4jnsgd1na2vs0mg"},{"bike_id":"3e3a2ebf-168b-4620-b63e-37554a5171d2","system_id":"levelo_inurba_marseille","lat":43.30538,"lon":5.36555,"is_reserved":false,"is_disabled":false,"rental_uris":{"android":"levelo://app?vid=3e3a2ebf-168b-4620-b63e-37554a5171d2","ios":"levelo://app?vid=3e3a2ebf-168b-4620-b63e-37554a5171d2"},"vehicle_type_id":"4","last_reported":1711976844,"current_range_meters":11600,"station_id":"ce4bgs12rcd13ifvqcag","pricing_plan_id":"cebpf4jnsgd1na2vs0mg"},{"bike_id":"aeceda36-06b3-4913-b45e-047dca44f244","system_id":"levelo_inurba_marseille","lat":43.261782,"lon":5.374515,"is_reserved":false,"is_disabled":false,"rental_uris":{"android":"levelo://app?vid=aeceda36-06b3-4913-b45e-047dca44f244","ios":"levelo://app?vid=aeceda36-06b3-4913-b45e-047dca44f244"},"vehicle_type_id":"4","last_reported":1711976844,"current_range_meters":13200,"station_id":"ce4bhgp2rcd13ifvqfc0","pricing_plan_id":"cebpf4jnsgd1na2vs0mg"},{"bike_id":"0407c1f1-8e2a-4a82-8455-414bae0f8b1b","system_id":"levelo_inurba_marseille","lat":43.305706,"lon":5.365654,"is_reserved":false,"is_disabled":false,"rental_uris":{"android":"levelo://app?vid=0407c1f1-8e2a-4a82-8455-414bae0f8b1b","ios":"levelo://app?vid=0407c1f1-8e2a-4a82-8455-414bae0f8b1b"},"vehicle_type_id":"4","last_reported":1711976844,"current_range_meters":26000,"station_id":"ce4bgs12rcd13ifvqcag","pricing_plan_id":"cebpf4jnsgd1na2vs0mg"},{"bike_id":"c458f0ad-de0f-487b-b66e-e11b29773e9d","system_id":"levelo_inurba_marseille","lat":43.30532,"lon":5.36537,"is_reserved":false,"is_disabled":false,"rental_uris":{"android":"levelo://app?vid=c458f0ad-de0f-487b-b66e-e11b29773e9d","ios":"levelo://app?vid=c458f0ad-de0f-487b-b66e-e11b29773e9d"},"vehicle_type_id":"4","last_reported":1711976844,"current_range_meters":28000,"station_id":"ce4bgs12rcd13ifvqcag","pricing_plan_id":"cebpf4jnsgd1na2vs0mg"},{"bike_id":"d8cd28fb-f050-4363-aefd-a4828d990657","system_id":"levelo_inurba_marseille","lat":43.305989,"lon":5.37225,"is_reserved":false,"is_disabled":false,"rental_uris":{"android":"levelo://app?vid=d8cd28fb-f050-4363-aefd-a4828d990657","ios":"levelo://app?vid=d8cd28fb-f050-4363-aefd-a4828d990657"},"vehicle_type_id":"4","last_reported":1711976844,"current_range_meters":7200,"station_id":"ce4bgqh2rcd13ifvqc4g","pricing_plan_id":"cebpf4jnsgd1na2vs0mg"},{"bike_id":"571d400a-5ac8-4541-bffc-85b5a1e4392c","system_id":"levelo_inurba_marseille","lat":43.305989,"lon":5.37225,"is_reserved":false,"is_disabled":false,"rental_uris":{"android":"levelo://app?vid=571d400a-5ac8-4541-bffc-85b5a1e4392c","ios":"levelo://app?vid=571d400a-5ac8-4541-bffc-85b5a1e4392c"},"vehicle_type_id":"4","last_reported":1711976844,"current_range_meters":16000,"station_id":"ce4bgqh2rcd13ifvqc4g","pricing_plan_id":"cebpf4jnsgd1na2vs0mg"},{"bike_id":"30763556-935c-4c2c-a795-ab566fb6ff1f","system_id":"levelo_inurba_marseille","lat":43.317075,"lon":5.377367,"is_reserved":false,"is_disabled":false,"rental_uris":{"android":"levelo://app?vid=30763556-935c-4c2c-a795-ab566fb6ff1f","ios":"levelo://app?vid=30763556-935c-4c2c-a795-ab566fb6ff1f"},"vehicle_type_id":"4","last_reported":1711976844,"current_range_meters":30800,"station_id":"ce4bgth2rcd13ifvqch0","pricing_plan_id":"cebpf4jnsgd1na2vs0mg"},{"bike_id":"764e0489-1842-46ce-8ebf-3263ce2c7dc1","system_id":"levelo_inurba_marseille","lat":43.307945,"lon":5.376487,"is_reserved":false,"is_disabled":false,"rental_uris":{"android":"levelo://app?vid=764e0489-1842-46ce-8ebf-3263ce2c7dc1","ios":"levelo://app?vid=764e0489-1842-46ce-8ebf-3263ce2c7dc1"},"vehicle_type_id":"4","last_reported":1711976844,"current_range_meters":5200,"station_id":"ce4bgv92rcd13ifvqcq0","pricing_plan_id":"cebpf4jnsgd1na2vs0mg"},{"bike_id":"bbfed310-f5ca-41c8-bf3a-f83cd6959697","system_id":"levelo_inurba_marseille","lat":43.313254,"lon":5.37881,"is_reserved":false,"is_disabled":false,"rental_uris":{"android":"levelo://app?vid=bbfed310-f5ca-41c8-bf3a-f83cd6959697","ios":"levelo://app?vid=bbfed310-f5ca-41c8-bf3a-f83cd6959697"},"vehicle_type_id":"4","last_reported":1711976844,"current_range_meters":20400,"station_id":"","pricing_plan_id":"cebpf4jnsgd1na2vs0mg"},{"bike_id":"c2b56bb4-6ff7-4a77-a40e-e8522e7b5f23","system_id":"levelo_inurba_marseille","lat":43.317075,"lon":5.377367,"is_reserved":false,"is_disabled":false,"rental_uris":{"android":"levelo://app?vid=c2b56bb4-6ff7-4a77-a40e-e8522e7b5f23","ios":"levelo://app?vid=c2b56bb4-6ff7-4a77-a40e-e8522e7b5f23"},"vehicle_type_id":"4","last_reported":1711976844,"current_range_meters":28000,"station_id":"ce4bgth2rcd13ifvqch0","pricing_plan_id":"cebpf4jnsgd1na2vs0mg"},{"bike_id":"d6b563d2-9d65-4eb4-9575-a30e861bab98","system_id":"levelo_inurba_marseille","lat":43.317075,"lon":5.377367,"is_reserved":false,"is_disabled":false,"rental_uris":{"android":"levelo://app?vid=d6b563d2-9d65-4eb4-9575-a30e861bab98","ios":"levelo://app?vid=d6b563d2-9d65-4eb4-9575-a30e861bab98"},"vehicle_type_id":"4","last_reported":1711976844,"current_range_meters":31200,"station_id":"ce4bgth2rcd13ifvqch0","pricing_plan_id":"cebpf4jnsgd1na2vs0mg"},{"bike_id":"2ef8d1c9-aaf4-4725-946a-373f143b92bc","system_id":"levelo_inurba_marseille","lat":43.317125,"lon":5.377535,"is_reserved":false,"is_disabled":false,"rental_uris":{"android":"levelo://app?vid=2ef8d1c9-aaf4-4725-946a-373f143b92bc","ios":"levelo://app?vid=2ef8d1c9-aaf4-4725-946a-373f143b92bc"},"vehicle_type_id":"4","last_reported":1711976844,"current_range_meters":30000,"station_id":"ce4bgth2rcd13ifvqch0","pricing_plan_id":"cebpf4jnsgd1na2vs0mg"},{"bike_id":"7aaa3701-c833-47d5-b2d5-29d13e5a2ae5","system_id":"levelo_inurba_marseille","lat":43.317075,"lon":5.377367,"is_reserved":false,"is_disabled":false,"rental_uris":{"android":"levelo://app?vid=7aaa3701-c833-47d5-b2d5-29d13e5a2ae5","ios":"levelo://app?vid=7aaa3701-c833-47d5-b2d5-29d13e5a2ae5"},"vehicle_type_id":"4","last_reported":1711976844,"current_range_meters":21600,"station_id":"ce4bgth2rcd13ifvqch0","pricing_plan_id":"cebpf4jnsgd1na2vs0mg"},{"bike_id":"52868e05-bed6-4986-8dd8-a99fd8ee4ed2","system_id":"levelo_inurba_marseille","lat":43.303046,"lon":5.368981,"is_reserved":false,"is_disabled":false,"rental_uris":{"android":"levelo://app?vid=52868e05-bed6-4986-8dd8-a99fd8ee4ed2","ios":"levelo://app?vid=52868e05-bed6-4986-8dd8-a99fd8ee4ed2"},"vehicle_type_id":"4","last_reported":1711976844,"current_range_meters":27200,"station_id":"ce4bgqh2rcd13ifvqc5g","pricing_plan_id":"cebpf4jnsgd1na2vs0mg"},{"bike_id":"36ed4503-4d3d-418c-97d0-f4a96bfdbf18","system_id":"levelo_inurba_marseille","lat":43.315289,"lon":5.380349,"is_reserved":false,"is_disabled":false,"rental_uris":{"android":"levelo://app?vid=36ed4503-4d3d-418c-97d0-f4a96bfdbf18","ios":"levelo://app?vid=36ed4503-4d3d-418c-97d0-f4a96bfdbf18"},"vehicle_type_id":"4","last_reported":1711976844,"current_range_meters":11600,"station_id":"ce4bhsp2rcd13ifvqi50","pricing_plan_id":"cebpf4jnsgd1na2vs0mg"},{"bike_id":"2351bb02-2c3d-41ca-b451-5bf19d57d20a","system_id":"levelo_inurba_marseille","lat":43.315289,"lon":5.380349,"is_reserved":false,"is_disabled":false,"rental_uris":{"android":"levelo://app?vid=2351bb02-2c3d-41ca-b451-5bf19d57d20a","ios":"levelo://app?vid=2351bb02-2c3d-41ca-b451-5bf19d57d20a"},"vehicle_type_id":"4","last_reported":1711976844,"current_range_meters":20000,"station_id":"ce4bhsp2rcd13ifvqi50","pricing_plan_id":"cebpf4jnsgd1na2vs0mg"},{"bike_id":"d2958bd2-6a5d-42b2-9bde-72c1ae409864","system_id":"levelo_inurba_marseille","lat":43.315293,"lon":5.380349,"is_reserved":false,"is_disabled":false,"rental_uris":{"android":"levelo://app?vid=d2958bd2-6a5d-42b2-9bde-72c1ae409864","ios":"levelo://app?vid=d2958bd2-6a5d-42b2-9bde-72c1ae409864"},"vehicle_type_id":"4","last_reported":1711976844,"current_range_meters":20400,"station_id":"ce4bhsp2rcd13ifvqi50","pricing_plan_id":"cebpf4jnsgd1na2vs0mg"},{"bike_id":"1179b424-e642-4cc9-8eef-6573e93ba9dd","system_id":"levelo_inurba_marseille","lat":43.302957,"lon":5.372327,"is_reserved":false,"is_disabled":false,"rental_uris":{"android":"levelo://app?vid=1179b424-e642-4cc9-8eef-6573e93ba9dd","ios":"levelo://app?vid=1179b424-e642-4cc9-8eef-6573e93ba9dd"},"vehicle_type_id":"4","last_reported":1711976844,"current_range_meters":15200,"station_id":"","pricing_plan_id":"cebpf4jnsgd1na2vs0mg"},{"bike_id":"6f71212d-f0ce-4606-a79c-fdb777d539dc","system_id":"levelo_inurba_marseille","lat":43.301939,"lon":5.366286,"is_reserved":false,"is_disabled":false,"rental_uris":{"android":"levelo://app?vid=6f71212d-f0ce-4606-a79c-fdb777d539dc","ios":"levelo://app?vid=6f71212d-f0ce-4606-a79c-fdb777d539dc"},"vehicle_type_id":"4","last_reported":1711976844,"current_range_meters":17200,"station_id":"ce4bgrh2rcd13ifvqc8g","pricing_plan_id":"cebpf4jnsgd1na2vs0mg"},{"bike_id":"fc8bdba6-1035-413f-9699-53ad7084b799","system_id":"levelo_inurba_marseille","lat":43.284217,"lon":5.349697,"is_reserved":false,"is_disabled":false,"rental_uris":{"android":"levelo://app?vid=fc8bdba6-1035-413f-9699-53ad7084b799","ios":"levelo://app?vid=fc8bdba6-1035-413f-9699-53ad7084b799"},"vehicle_type_id":"4","last_reported":1711976844,"current_range_meters":13200,"station_id":"ce4bhbh2rcd13ifvqepg","pricing_plan_id":"cebpf4jnsgd1na2vs0mg"},{"bike_id":"a2976864-ea29-4383-a2cb-92891c7953bb","system_id":"levelo_inurba_marseille","lat":43.304606,"lon":5.379026,"is_reserved":false,"is_disabled":false,"rental_uris":{"android":"levelo://app?vid=a2976864-ea29-4383-a2cb-92891c7953bb","ios":"levelo://app?vid=a2976864-ea29-4383-a2cb-92891c7953bb"},"vehicle_type_id":"4","last_reported":1711976844,"current_range_meters":20000,"station_id":"ce4bgup2rcd13ifvqcn0","pricing_plan_id":"cebpf4jnsgd1na2vs0mg"},{"bike_id":"bebf9b22-c84c-4571-a014-1cca25e28554","system_id":"levelo_inurba_marseille","lat":43.324771,"lon":5.36557,"is_reserved":false,"is_disabled":false,"rental_uris":{"android":"levelo://app?vid=bebf9b22-c84c-4571-a014-1cca25e28554","ios":"levelo://app?vid=bebf9b22-c84c-4571-a014-1cca25e28554"},"vehicle_type_id":"4","last_reported":1711976844,"current_range_meters":27200,"station_id":"ce4bhs12rcd13ifvqhvg","pricing_plan_id":"cebpf4jnsgd1na2vs0mg"},{"bike_id":"93b002c0-01eb-4a5e-838c-35d520bad3fc","system_id":"levelo_inurba_marseille","lat":43.324771,"lon":5.36557,"is_reserved":false,"is_disabled":false,"rental_uris":{"android":"levelo://app?vid=93b002c0-01eb-4a5e-838c-35d520bad3fc","ios":"levelo://app?vid=93b002c0-01eb-4a5e-838c-35d520bad3fc"},"vehicle_type_id":"4","last_reported":1711976844,"current_range_meters":20800,"station_id":"ce4bhs12rcd13ifvqhvg","pricing_plan_id":"cebpf4jnsgd1na2vs0mg"},{"bike_id":"ee90edf0-1805-45fb-98df-d22bd3a01aec","system_id":"levelo_inurba_marseille","lat":43.324771,"lon":5.36557,"is_reserved":false,"is_disabled":false,"rental_uris":{"android":"levelo://app?vid=ee90edf0-1805-45fb-98df-d22bd3a01aec","ios":"levelo://app?vid=ee90edf0-1805-45fb-98df-d22bd3a01aec"},"vehicle_type_id":"4","last_reported":1711976844,"current_range_meters":24800,"station_id":"ce4bhs12rcd13ifvqhvg","pricing_plan_id":"cebpf4jnsgd1na2vs0mg"},{"bike_id":"3933c208-afb2-45ee-92a4-2a4fc6ee3abe","system_id":"levelo_inurba_marseille","lat":43.324771,"lon":5.36557,"is_reserved":false,"is_disabled":false,"rental_uris":{"android":"levelo://app?vid=3933c208-afb2-45ee-92a4-2a4fc6ee3abe","ios":"levelo://app?vid=3933c208-afb2-45ee-92a4-2a4fc6ee3abe"},"vehicle_type_id":"4","last_reported":1711976844,"current_range_meters":25600,"station_id":"ce4bhs12rcd13ifvqhvg","pricing_plan_id":"cebpf4jnsgd1na2vs0mg"},{"bike_id":"006c9a0e-94af-4a0b-ae4a-3949a0ade38b","system_id":"levelo_inurba_marseille","lat":43.324805,"lon":5.365744,"is_reserved":false,"is_disabled":false,"rental_uris":{"android":"levelo://app?vid=006c9a0e-94af-4a0b-ae4a-3949a0ade38b","ios":"levelo://app?vid=006c9a0e-94af-4a0b-ae4a-3949a0ade38b"},"vehicle_type_id":"4","last_reported":1711976844,"current_range_meters":27200,"station_id":"ce4bhs12rcd13ifvqhvg","pricing_plan_id":"cebpf4jnsgd1na2vs0mg"},{"bike_id":"a47d18d1-58b8-4180-8a69-25f81aa5de1b","system_id":"levelo_inurba_marseille","lat":43.324771,"lon":5.36557,"is_reserved":false,"is_disabled":false,"rental_uris":{"android":"levelo://app?vid=a47d18d1-58b8-4180-8a69-25f81aa5de1b","ios":"levelo://app?vid=a47d18d1-58b8-4180-8a69-25f81aa5de1b"},"vehicle_type_id":"4","last_reported":1711976844,"current_range_meters":17600,"station_id":"ce4bhs12rcd13ifvqhvg","pricing_plan_id":"cebpf4jnsgd1na2vs0mg"},{"bike_id":"401bc7b5-9ce9-443b-a290-c2f943b6888e","system_id":"levelo_inurba_marseille","lat":43.324771,"lon":5.36557,"is_reserved":false,"is_disabled":false,"rental_uris":{"android":"levelo://app?vid=401bc7b5-9ce9-443b-a290-c2f943b6888e","ios":"levelo://app?vid=401bc7b5-9ce9-443b-a290-c2f943b6888e"},"vehicle_type_id":"4","last_reported":1711976844,"current_range_meters":25600,"station_id":"ce4bhs12rcd13ifvqhvg","pricing_plan_id":"cebpf4jnsgd1na2vs0mg"},{"bike_id":"c3bd56c1-e72a-442f-8628-8c0fca4e57d8","system_id":"levelo_inurba_marseille","lat":43.324771,"lon":5.36557,"is_reserved":false,"is_disabled":false,"rental_uris":{"android":"levelo://app?vid=c3bd56c1-e72a-442f-8628-8c0fca4e57d8","ios":"levelo://app?vid=c3bd56c1-e72a-442f-8628-8c0fca4e57d8"},"vehicle_type_id":"4","last_reported":1711976844,"current_range_meters":25200,"station_id":"ce4bhs12rcd13ifvqhvg","pricing_plan_id":"cebpf4jnsgd1na2vs0mg"},{"bike_id":"b69eb4e9-6a06-4e49-9463-0467fee1bdb8","system_id":"levelo_inurba_marseille","lat":43.324771,"lon":5.36557,"is_reserved":false,"is_disabled":false,"rental_uris":{"android":"levelo://app?vid=b69eb4e9-6a06-4e49-9463-0467fee1bdb8","ios":"levelo://app?vid=b69eb4e9-6a06-4e49-9463-0467fee1bdb8"},"vehicle_type_id":"4","last_reported":1711976844,"current_range_meters":28000,"station_id":"ce4bhs12rcd13ifvqhvg","pricing_plan_id":"cebpf4jnsgd1na2vs0mg"},{"bike_id":"cdbf7076-7e1c-4277-9d57-17692054ed98","system_id":"levelo_inurba_marseille","lat":43.324835,"lon":5.365783,"is_reserved":false,"is_disabled":false,"rental_uris":{"android":"levelo://app?vid=cdbf7076-7e1c-4277-9d57-17692054ed98","ios":"levelo://app?vid=cdbf7076-7e1c-4277-9d57-17692054ed98"},"vehicle_type_id":"4","last_reported":1711976844,"current_range_meters":27200,"station_id":"ce4bhs12rcd13ifvqhvg","pricing_plan_id":"cebpf4jnsgd1na2vs0mg"},{"bike_id":"b5941529-309c-4b13-8811-1367d1854615","system_id":"levelo_inurba_marseille","lat":43.324858,"lon":5.365722,"is_reserved":false,"is_disabled":false,"rental_uris":{"android":"levelo://app?vid=b5941529-309c-4b13-8811-1367d1854615","ios":"levelo://app?vid=b5941529-309c-4b13-8811-1367d1854615"},"vehicle_type_id":"4","last_reported":1711976844,"current_range_meters":29200,"station_id":"ce4bhs12rcd13ifvqhvg","pricing_plan_id":"cebpf4jnsgd1na2vs0mg"},{"bike_id":"e9ed05f5-be52-4263-930f-30c22a466d11","system_id":"levelo_inurba_marseille","lat":43.324771,"lon":5.36557,"is_reserved":false,"is_disabled":false,"rental_uris":{"android":"levelo://app?vid=e9ed05f5-be52-4263-930f-30c22a466d11","ios":"levelo://app?vid=e9ed05f5-be52-4263-930f-30c22a466d11"},"vehicle_type_id":"4","last_reported":1711976844,"current_range_meters":25600,"station_id":"ce4bhs12rcd13ifvqhvg","pricing_plan_id":"cebpf4jnsgd1na2vs0mg"},{"bike_id":"dbd7f320-4b3f-4a53-a519-26730ad5a9ad","system_id":"levelo_inurba_marseille","lat":43.30143,"lon":5.37413,"is_reserved":false,"is_disabled":false,"rental_uris":{"android":"levelo://app?vid=dbd7f320-4b3f-4a53-a519-26730ad5a9ad","ios":"levelo://app?vid=dbd7f320-4b3f-4a53-a519-26730ad5a9ad"},"vehicle_type_id":"4","last_reported":1711976844,"current_range_meters":29200,"station_id":"ce4bgs92rcd13ifvqcc0","pricing_plan_id":"cebpf4jnsgd1na2vs0mg"},{"bike_id":"74f07b1b-ea08-427f-a9a3-39f3b1837a49","system_id":"levelo_inurba_marseille","lat":43.31501,"lon":5.383935,"is_reserved":false,"is_disabled":false,"rental_uris":{"android":"levelo://app?vid=74f07b1b-ea08-427f-a9a3-39f3b1837a49","ios":"levelo://app?vid=74f07b1b-ea08-427f-a9a3-39f3b1837a49"},"vehicle_type_id":"4","last_reported":1711976844,"current_range_meters":25200,"station_id":"","pricing_plan_id":"cebpf4jnsgd1na2vs0mg"},{"bike_id":"47906416-3a3d-4d6e-b620-2af45065a840","system_id":"levelo_inurba_marseille","lat":43.319935,"lon":5.381699,"is_reserved":false,"is_disabled":false,"rental_uris":{"android":"levelo://app?vid=47906416-3a3d-4d6e-b620-2af45065a840","ios":"levelo://app?vid=47906416-3a3d-4d6e-b620-2af45065a840"},"vehicle_type_id":"4","last_reported":1711976844,"current_range_meters":2800,"station_id":"ce4bhr12rcd13ifvqhpg","pricing_plan_id":"cebpf4jnsgd1na2vs0mg"},{"bike_id":"86a2e2ed-ef3c-4a15-a784-914ef06db1a3","system_id":"levelo_inurba_marseille","lat":43.319935,"lon":5.381699,"is_reserved":false,"is_disabled":false,"rental_uris":{"android":"levelo://app?vid=86a2e2ed-ef3c-4a15-a784-914ef06db1a3","ios":"levelo://app?vid=86a2e2ed-ef3c-4a15-a784-914ef06db1a3"},"vehicle_type_id":"4","last_reported":1711976844,"current_range_meters":0,"station_id":"ce4bhr12rcd13ifvqhpg","pricing_plan_id":"cebpf4jnsgd1na2vs0mg"},{"bike_id":"34bad35b-084c-4afb-90ed-203b5ed28702","system_id":"levelo_inurba_marseille","lat":43.319935,"lon":5.381699,"is_reserved":false,"is_disabled":false,"rental_uris":{"android":"levelo://app?vid=34bad35b-084c-4afb-90ed-203b5ed28702","ios":"levelo://app?vid=34bad35b-084c-4afb-90ed-203b5ed28702"},"vehicle_type_id":"4","last_reported":1711976844,"current_range_meters":17600,"station_id":"ce4bhr12rcd13ifvqhpg","pricing_plan_id":"cebpf4jnsgd1na2vs0mg"},{"bike_id":"83c4b162-ba2e-4672-900c-f6fb8cee32b5","system_id":"levelo_inurba_marseille","lat":43.31994,"lon":5.38145,"is_reserved":false,"is_disabled":false,"rental_uris":{"android":"levelo://app?vid=83c4b162-ba2e-4672-900c-f6fb8cee32b5","ios":"levelo://app?vid=83c4b162-ba2e-4672-900c-f6fb8cee32b5"},"vehicle_type_id":"4","last_reported":1711976844,"current_range_meters":18000,"station_id":"ce4bhr12rcd13ifvqhpg","pricing_plan_id":"cebpf4jnsgd1na2vs0mg"},{"bike_id":"d5e62f71-6706-4bc6-81b2-d3ea836ba196","system_id":"levelo_inurba_marseille","lat":43.31992,"lon":5.381508,"is_reserved":false,"is_disabled":false,"rental_uris":{"android":"levelo://app?vid=d5e62f71-6706-4bc6-81b2-d3ea836ba196","ios":"levelo://app?vid=d5e62f71-6706-4bc6-81b2-d3ea836ba196"},"vehicle_type_id":"4","last_reported":1711976844,"current_range_meters":18000,"station_id":"ce4bhr12rcd13ifvqhpg","pricing_plan_id":"cebpf4jnsgd1na2vs0mg"},{"bike_id":"66bdbd4f-dcbb-491c-80f5-779c31e138b1","system_id":"levelo_inurba_marseille","lat":43.319935,"lon":5.381699,"is_reserved":false,"is_disabled":false,"rental_uris":{"android":"levelo://app?vid=66bdbd4f-dcbb-491c-80f5-779c31e138b1","ios":"levelo://app?vid=66bdbd4f-dcbb-491c-80f5-779c31e138b1"},"vehicle_type_id":"4","last_reported":1711976844,"current_range_meters":14800,"station_id":"ce4bhr12rcd13ifvqhpg","pricing_plan_id":"cebpf4jnsgd1na2vs0mg"},{"bike_id":"e2be1cd4-3f14-42d2-9f93-d9794f502b33","system_id":"levelo_inurba_marseille","lat":43.319935,"lon":5.381699,"is_reserved":false,"is_disabled":false,"rental_uris":{"android":"levelo://app?vid=e2be1cd4-3f14-42d2-9f93-d9794f502b33","ios":"levelo://app?vid=e2be1cd4-3f14-42d2-9f93-d9794f502b33"},"vehicle_type_id":"4","last_reported":1711976844,"current_range_meters":12000,"station_id":"ce4bhr12rcd13ifvqhpg","pricing_plan_id":"cebpf4jnsgd1na2vs0mg"},{"bike_id":"6dd8fa8f-c8da-4197-b498-e7ba41a54ca4","system_id":"levelo_inurba_marseille","lat":43.313571,"lon":5.384829,"is_reserved":false,"is_disabled":false,"rental_uris":{"android":"levelo://app?vid=6dd8fa8f-c8da-4197-b498-e7ba41a54ca4","ios":"levelo://app?vid=6dd8fa8f-c8da-4197-b498-e7ba41a54ca4"},"vehicle_type_id":"4","last_reported":1711976844,"current_range_meters":30800,"station_id":"ce4bgt92rcd13ifvqcf0","pricing_plan_id":"cebpf4jnsgd1na2vs0mg"},{"bike_id":"4a1bd48a-000f-419b-8616-ff0a8d02a0f2","system_id":"levelo_inurba_marseille","lat":43.29937,"lon":5.36707,"is_reserved":false,"is_disabled":false,"rental_uris":{"android":"levelo://app?vid=4a1bd48a-000f-419b-8616-ff0a8d02a0f2","ios":"levelo://app?vid=4a1bd48a-000f-419b-8616-ff0a8d02a0f2"},"vehicle_type_id":"4","last_reported":1711976844,"current_range_meters":0,"station_id":"","pricing_plan_id":"cebpf4jnsgd1na2vs0mg"},{"bike_id":"8c632d3a-0682-4286-8dd3-54c03e234874","system_id":"levelo_inurba_marseille","lat":43.299222,"lon":5.365554,"is_reserved":false,"is_disabled":false,"rental_uris":{"android":"levelo://app?vid=8c632d3a-0682-4286-8dd3-54c03e234874","ios":"levelo://app?vid=8c632d3a-0682-4286-8dd3-54c03e234874"},"vehicle_type_id":"4","last_reported":1711976844,"current_range_meters":22000,"station_id":"ce4bgm92rcd13ifvqbr0","pricing_plan_id":"cebpf4jnsgd1na2vs0mg"},{"bike_id":"0a65d216-e108-4799-9d0b-faea61fa201d","system_id":"levelo_inurba_marseille","lat":43.299222,"lon":5.365554,"is_reserved":false,"is_disabled":false,"rental_uris":{"android":"levelo://app?vid=0a65d216-e108-4799-9d0b-faea61fa201d","ios":"levelo://app?vid=0a65d216-e108-4799-9d0b-faea61fa201d"},"vehicle_type_id":"4","last_reported":1711976844,"current_range_meters":0,"station_id":"ce4bgm92rcd13ifvqbr0","pricing_plan_id":"cebpf4jnsgd1na2vs0mg"},{"bike_id":"6f59843b-05bd-4eb4-b626-97e2e43aec10","system_id":"levelo_inurba_marseille","lat":43.299222,"lon":5.365554,"is_reserved":false,"is_disabled":false,"rental_uris":{"android":"levelo://app?vid=6f59843b-05bd-4eb4-b626-97e2e43aec10","ios":"levelo://app?vid=6f59843b-05bd-4eb4-b626-97e2e43aec10"},"vehicle_type_id":"4","last_reported":1711976844,"current_range_meters":21200,"station_id":"ce4bgm92rcd13ifvqbr0","pricing_plan_id":"cebpf4jnsgd1na2vs0mg"},{"bike_id":"4776a997-d53e-49c7-8e4f-38d1085481ae","system_id":"levelo_inurba_marseille","lat":43.299222,"lon":5.365554,"is_reserved":false,"is_disabled":false,"rental_uris":{"android":"levelo://app?vid=4776a997-d53e-49c7-8e4f-38d1085481ae","ios":"levelo://app?vid=4776a997-d53e-49c7-8e4f-38d1085481ae"},"vehicle_type_id":"4","last_reported":1711976844,"current_range_meters":30400,"station_id":"ce4bgm92rcd13ifvqbr0","pricing_plan_id":"cebpf4jnsgd1na2vs0mg"},{"bike_id":"21851ffe-3398-4005-8c1d-f724e77588d6","system_id":"levelo_inurba_marseille","lat":43.299222,"lon":5.365554,"is_reserved":false,"is_disabled":false,"rental_uris":{"android":"levelo://app?vid=21851ffe-3398-4005-8c1d-f724e77588d6","ios":"levelo://app?vid=21851ffe-3398-4005-8c1d-f724e77588d6"},"vehicle_type_id":"4","last_reported":1711976844,"current_range_meters":22800,"station_id":"ce4bgm92rcd13ifvqbr0","pricing_plan_id":"cebpf4jnsgd1na2vs0mg"},{"bike_id":"e2f9ee15-c2f5-4b87-ab0b-0c7f3401aeed","system_id":"levelo_inurba_marseille","lat":43.299222,"lon":5.365554,"is_reserved":false,"is_disabled":false,"rental_uris":{"android":"levelo://app?vid=e2f9ee15-c2f5-4b87-ab0b-0c7f3401aeed","ios":"levelo://app?vid=e2f9ee15-c2f5-4b87-ab0b-0c7f3401aeed"},"vehicle_type_id":"4","last_reported":1711976844,"current_range_meters":21200,"station_id":"ce4bgm92rcd13ifvqbr0","pricing_plan_id":"cebpf4jnsgd1na2vs0mg"},{"bike_id":"5d6aaa14-a18b-4fcf-a3c5-88d54a8c71d6","system_id":"levelo_inurba_marseille","lat":43.299222,"lon":5.365554,"is_reserved":false,"is_disabled":false,"rental_uris":{"android":"levelo://app?vid=5d6aaa14-a18b-4fcf-a3c5-88d54a8c71d6","ios":"levelo://app?vid=5d6aaa14-a18b-4fcf-a3c5-88d54a8c71d6"},"vehicle_type_id":"4","last_reported":1711976844,"current_range_meters":16000,"station_id":"ce4bgm92rcd13ifvqbr0","pricing_plan_id":"cebpf4jnsgd1na2vs0mg"},{"bike_id":"06e8c71d-542e-4d6a-ad50-2097223a0130","system_id":"levelo_inurba_marseille","lat":43.299222,"lon":5.365554,"is_reserved":false,"is_disabled":false,"rental_uris":{"android":"levelo://app?vid=06e8c71d-542e-4d6a-ad50-2097223a0130","ios":"levelo://app?vid=06e8c71d-542e-4d6a-ad50-2097223a0130"},"vehicle_type_id":"4","last_reported":1711976844,"current_range_meters":25600,"station_id":"ce4bgm92rcd13ifvqbr0","pricing_plan_id":"cebpf4jnsgd1na2vs0mg"},{"bike_id":"0937fdc7-21d4-43fe-9c4a-73e106ad26f3","system_id":"levelo_inurba_marseille","lat":43.299222,"lon":5.365554,"is_reserved":false,"is_disabled":false,"rental_uris":{"android":"levelo://app?vid=0937fdc7-21d4-43fe-9c4a-73e106ad26f3","ios":"levelo://app?vid=0937fdc7-21d4-43fe-9c4a-73e106ad26f3"},"vehicle_type_id":"4","last_reported":1711976844,"current_range_meters":26000,"station_id":"ce4bgm92rcd13ifvqbr0","pricing_plan_id":"cebpf4jnsgd1na2vs0mg"},{"bike_id":"ed02224f-9da9-4a00-9e92-f0085f4949e2","system_id":"levelo_inurba_marseille","lat":43.299343,"lon":5.365353,"is_reserved":false,"is_disabled":false,"rental_uris":{"android":"levelo://app?vid=ed02224f-9da9-4a00-9e92-f0085f4949e2","ios":"levelo://app?vid=ed02224f-9da9-4a00-9e92-f0085f4949e2"},"vehicle_type_id":"4","last_reported":1711976844,"current_range_meters":31200,"station_id":"ce4bgm92rcd13ifvqbr0","pricing_plan_id":"cebpf4jnsgd1na2vs0mg"},{"bike_id":"06aa9c54-8480-4763-93a5-4293d314e44e","system_id":"levelo_inurba_marseille","lat":43.2993,"lon":5.36549,"is_reserved":false,"is_disabled":false,"rental_uris":{"android":"levelo://app?vid=06aa9c54-8480-4763-93a5-4293d314e44e","ios":"levelo://app?vid=06aa9c54-8480-4763-93a5-4293d314e44e"},"vehicle_type_id":"4","last_reported":1711976844,"current_range_meters":24400,"station_id":"ce4bgm92rcd13ifvqbr0","pricing_plan_id":"cebpf4jnsgd1na2vs0mg"},{"bike_id":"fd267712-4924-4d91-a1b2-63c0dbfcda38","system_id":"levelo_inurba_marseille","lat":43.299307,"lon":5.365357,"is_reserved":false,"is_disabled":false,"rental_uris":{"android":"levelo://app?vid=fd267712-4924-4d91-a1b2-63c0dbfcda38","ios":"levelo://app?vid=fd267712-4924-4d91-a1b2-63c0dbfcda38"},"vehicle_type_id":"4","last_reported":1711976844,"current_range_meters":31200,"station_id":"ce4bgm92rcd13ifvqbr0","pricing_plan_id":"cebpf4jnsgd1na2vs0mg"},{"bike_id":"ffe85d6a-d841-4e95-9208-750a49a5d163","system_id":"levelo_inurba_marseille","lat":43.29926,"lon":5.36521,"is_reserved":false,"is_disabled":false,"rental_uris":{"android":"levelo://app?vid=ffe85d6a-d841-4e95-9208-750a49a5d163","ios":"levelo://app?vid=ffe85d6a-d841-4e95-9208-750a49a5d163"},"vehicle_type_id":"4","last_reported":1711976844,"current_range_meters":20400,"station_id":"ce4bgm92rcd13ifvqbr0","pricing_plan_id":"cebpf4jnsgd1na2vs0mg"},{"bike_id":"0f1de0b1-2bb8-42c2-be80-6c9e75b1f9ab","system_id":"levelo_inurba_marseille","lat":43.299628,"lon":5.371923,"is_reserved":false,"is_disabled":false,"rental_uris":{"android":"levelo://app?vid=0f1de0b1-2bb8-42c2-be80-6c9e75b1f9ab","ios":"levelo://app?vid=0f1de0b1-2bb8-42c2-be80-6c9e75b1f9ab"},"vehicle_type_id":"4","last_reported":1711976844,"current_range_meters":24000,"station_id":"ce4bgkh2rcd13ifvqbl0","pricing_plan_id":"cebpf4jnsgd1na2vs0mg"},{"bike_id":"e89ad0d0-46d9-4e96-8f21-1d13905d1f32","system_id":"levelo_inurba_marseille","lat":43.30213,"lon":5.37996,"is_reserved":false,"is_disabled":false,"rental_uris":{"android":"levelo://app?vid=e89ad0d0-46d9-4e96-8f21-1d13905d1f32","ios":"levelo://app?vid=e89ad0d0-46d9-4e96-8f21-1d13905d1f32"},"vehicle_type_id":"4","last_reported":1711976844,"current_range_meters":14800,"station_id":"","pricing_plan_id":"cebpf4jnsgd1na2vs0mg"},{"bike_id":"f2753c83-8a2d-4379-8f0e-e120e38d0f49","system_id":"levelo_inurba_marseille","lat":43.29851,"lon":5.36275,"is_reserved":false,"is_disabled":false,"rental_uris":{"android":"levelo://app?vid=f2753c83-8a2d-4379-8f0e-e120e38d0f49","ios":"levelo://app?vid=f2753c83-8a2d-4379-8f0e-e120e38d0f49"},"vehicle_type_id":"4","last_reported":1711976844,"current_range_meters":18400,"station_id":"ce4bgpp2rcd13ifvqc3g","pricing_plan_id":"cebpf4jnsgd1na2vs0mg"},{"bike_id":"f31b9733-6823-420a-909f-5dd5139d3166","system_id":"levelo_inurba_marseille","lat":43.298495,"lon":5.36285,"is_reserved":false,"is_disabled":false,"rental_uris":{"android":"levelo://app?vid=f31b9733-6823-420a-909f-5dd5139d3166","ios":"levelo://app?vid=f31b9733-6823-420a-909f-5dd5139d3166"},"vehicle_type_id":"4","last_reported":1711976844,"current_range_meters":20000,"station_id":"ce4bgpp2rcd13ifvqc3g","pricing_plan_id":"cebpf4jnsgd1na2vs0mg"},{"bike_id":"c5110f6d-192d-4b8f-9443-63373095c8b9","system_id":"levelo_inurba_marseille","lat":43.298433,"lon":5.362774,"is_reserved":false,"is_disabled":false,"rental_uris":{"android":"levelo://app?vid=c5110f6d-192d-4b8f-9443-63373095c8b9","ios":"levelo://app?vid=c5110f6d-192d-4b8f-9443-63373095c8b9"},"vehicle_type_id":"4","last_reported":1711976844,"current_range_meters":10400,"station_id":"ce4bgpp2rcd13ifvqc3g","pricing_plan_id":"cebpf4jnsgd1na2vs0mg"},{"bike_id":"ea8cf963-3f47-4a84-9358-b795042de218","system_id":"levelo_inurba_marseille","lat":43.298433,"lon":5.362774,"is_reserved":false,"is_disabled":false,"rental_uris":{"android":"levelo://app?vid=ea8cf963-3f47-4a84-9358-b795042de218","ios":"levelo://app?vid=ea8cf963-3f47-4a84-9358-b795042de218"},"vehicle_type_id":"4","last_reported":1711976844,"current_range_meters":23600,"station_id":"ce4bgpp2rcd13ifvqc3g","pricing_plan_id":"cebpf4jnsgd1na2vs0mg"},{"bike_id":"6e558284-9972-4183-b2ab-01d03b039ad0","system_id":"levelo_inurba_marseille","lat":43.29843,"lon":5.36269,"is_reserved":false,"is_disabled":false,"rental_uris":{"android":"levelo://app?vid=6e558284-9972-4183-b2ab-01d03b039ad0","ios":"levelo://app?vid=6e558284-9972-4183-b2ab-01d03b039ad0"},"vehicle_type_id":"4","last_reported":1711976844,"current_range_meters":25200,"station_id":"ce4bgpp2rcd13ifvqc3g","pricing_plan_id":"cebpf4jnsgd1na2vs0mg"},{"bike_id":"329ad59b-38b4-4a10-bd18-6276bb6d0c3e","system_id":"levelo_inurba_marseille","lat":43.298433,"lon":5.362774,"is_reserved":false,"is_disabled":false,"rental_uris":{"android":"levelo://app?vid=329ad59b-38b4-4a10-bd18-6276bb6d0c3e","ios":"levelo://app?vid=329ad59b-38b4-4a10-bd18-6276bb6d0c3e"},"vehicle_type_id":"4","last_reported":1711976844,"current_range_meters":31600,"station_id":"ce4bgpp2rcd13ifvqc3g","pricing_plan_id":"cebpf4jnsgd1na2vs0mg"},{"bike_id":"2f6561ed-c184-4661-8196-84d67a5c07e9","system_id":"levelo_inurba_marseille","lat":43.29842,"lon":5.36273,"is_reserved":false,"is_disabled":false,"rental_uris":{"android":"levelo://app?vid=2f6561ed-c184-4661-8196-84d67a5c07e9","ios":"levelo://app?vid=2f6561ed-c184-4661-8196-84d67a5c07e9"},"vehicle_type_id":"4","last_reported":1711976844,"current_range_meters":21200,"station_id":"ce4bgpp2rcd13ifvqc3g","pricing_plan_id":"cebpf4jnsgd1na2vs0mg"},{"bike_id":"f99b89c5-2e28-47fc-89f8-8276987ab44f","system_id":"levelo_inurba_marseille","lat":43.298433,"lon":5.362774,"is_reserved":false,"is_disabled":false,"rental_uris":{"android":"levelo://app?vid=f99b89c5-2e28-47fc-89f8-8276987ab44f","ios":"levelo://app?vid=f99b89c5-2e28-47fc-89f8-8276987ab44f"},"vehicle_type_id":"4","last_reported":1711976844,"current_range_meters":31200,"station_id":"ce4bgpp2rcd13ifvqc3g","pricing_plan_id":"cebpf4jnsgd1na2vs0mg"},{"bike_id":"3b201d52-1287-4655-879e-9b0c146df87a","system_id":"levelo_inurba_marseille","lat":43.305706,"lon":5.365654,"is_reserved":false,"is_disabled":false,"rental_uris":{"android":"levelo://app?vid=3b201d52-1287-4655-879e-9b0c146df87a","ios":"levelo://app?vid=3b201d52-1287-4655-879e-9b0c146df87a"},"vehicle_type_id":"4","last_reported":1711976844,"current_range_meters":8800,"station_id":"ce4bgs12rcd13ifvqcag","pricing_plan_id":"cebpf4jnsgd1na2vs0mg"},{"bike_id":"dcd4b2c9-65c8-434b-ba69-cb793e1bb03b","system_id":"levelo_inurba_marseille","lat":43.330442,"lon":5.389148,"is_reserved":false,"is_disabled":false,"rental_uris":{"android":"levelo://app?vid=dcd4b2c9-65c8-434b-ba69-cb793e1bb03b","ios":"levelo://app?vid=dcd4b2c9-65c8-434b-ba69-cb793e1bb03b"},"vehicle_type_id":"4","last_reported":1711976844,"current_range_meters":15600,"station_id":"ce4bhr92rcd13ifvqhrg","pricing_plan_id":"cebpf4jnsgd1na2vs0mg"},{"bike_id":"c68f42d7-5ceb-4280-a4f1-873166ae8525","system_id":"levelo_inurba_marseille","lat":43.322872,"lon":5.382756,"is_reserved":false,"is_disabled":false,"rental_uris":{"android":"levelo://app?vid=c68f42d7-5ceb-4280-a4f1-873166ae8525","ios":"levelo://app?vid=c68f42d7-5ceb-4280-a4f1-873166ae8525"},"vehicle_type_id":"4","last_reported":1711976844,"current_range_meters":27200,"station_id":"ce4bhr12rcd13ifvqhqg","pricing_plan_id":"cebpf4jnsgd1na2vs0mg"},{"bike_id":"135f7f16-2517-4380-bcf8-f29778b10fb2","system_id":"levelo_inurba_marseille","lat":43.322872,"lon":5.382756,"is_reserved":false,"is_disabled":false,"rental_uris":{"android":"levelo://app?vid=135f7f16-2517-4380-bcf8-f29778b10fb2","ios":"levelo://app?vid=135f7f16-2517-4380-bcf8-f29778b10fb2"},"vehicle_type_id":"4","last_reported":1711976844,"current_range_meters":31600,"station_id":"ce4bhr12rcd13ifvqhqg","pricing_plan_id":"cebpf4jnsgd1na2vs0mg"},{"bike_id":"f53fdd79-9293-409d-8cdc-a30301757225","system_id":"levelo_inurba_marseille","lat":43.322872,"lon":5.382756,"is_reserved":false,"is_disabled":false,"rental_uris":{"android":"levelo://app?vid=f53fdd79-9293-409d-8cdc-a30301757225","ios":"levelo://app?vid=f53fdd79-9293-409d-8cdc-a30301757225"},"vehicle_type_id":"4","last_reported":1711976844,"current_range_meters":30800,"station_id":"ce4bhr12rcd13ifvqhqg","pricing_plan_id":"cebpf4jnsgd1na2vs0mg"},{"bike_id":"e7bb4eba-90c9-4d46-8f88-c4063d2e98fb","system_id":"levelo_inurba_marseille","lat":43.322872,"lon":5.382756,"is_reserved":false,"is_disabled":false,"rental_uris":{"android":"levelo://app?vid=e7bb4eba-90c9-4d46-8f88-c4063d2e98fb","ios":"levelo://app?vid=e7bb4eba-90c9-4d46-8f88-c4063d2e98fb"},"vehicle_type_id":"4","last_reported":1711976844,"current_range_meters":17200,"station_id":"ce4bhr12rcd13ifvqhqg","pricing_plan_id":"cebpf4jnsgd1na2vs0mg"},{"bike_id":"b554c75f-7c2f-473e-934d-75c22c27be51","system_id":"levelo_inurba_marseille","lat":43.322872,"lon":5.382756,"is_reserved":false,"is_disabled":false,"rental_uris":{"android":"levelo://app?vid=b554c75f-7c2f-473e-934d-75c22c27be51","ios":"levelo://app?vid=b554c75f-7c2f-473e-934d-75c22c27be51"},"vehicle_type_id":"4","last_reported":1711976844,"current_range_meters":16400,"station_id":"ce4bhr12rcd13ifvqhqg","pricing_plan_id":"cebpf4jnsgd1na2vs0mg"},{"bike_id":"46a9bc73-14bf-4bae-91d8-3b58688c11d7","system_id":"levelo_inurba_marseille","lat":43.322903,"lon":5.38265,"is_reserved":false,"is_disabled":false,"rental_uris":{"android":"levelo://app?vid=46a9bc73-14bf-4bae-91d8-3b58688c11d7","ios":"levelo://app?vid=46a9bc73-14bf-4bae-91d8-3b58688c11d7"},"vehicle_type_id":"4","last_reported":1711976844,"current_range_meters":2000,"station_id":"ce4bhr12rcd13ifvqhqg","pricing_plan_id":"cebpf4jnsgd1na2vs0mg"},{"bike_id":"98d95963-c08f-466d-98e0-8f8d61da974d","system_id":"levelo_inurba_marseille","lat":43.32292,"lon":5.38263,"is_reserved":false,"is_disabled":false,"rental_uris":{"android":"levelo://app?vid=98d95963-c08f-466d-98e0-8f8d61da974d","ios":"levelo://app?vid=98d95963-c08f-466d-98e0-8f8d61da974d"},"vehicle_type_id":"4","last_reported":1711976844,"current_range_meters":26400,"station_id":"ce4bhr12rcd13ifvqhqg","pricing_plan_id":"cebpf4jnsgd1na2vs0mg"},{"bike_id":"c2b6ec39-cf52-44eb-ae94-bbedc38fd17f","system_id":"levelo_inurba_marseille","lat":43.322872,"lon":5.382756,"is_reserved":false,"is_disabled":false,"rental_uris":{"android":"levelo://app?vid=c2b6ec39-cf52-44eb-ae94-bbedc38fd17f","ios":"levelo://app?vid=c2b6ec39-cf52-44eb-ae94-bbedc38fd17f"},"vehicle_type_id":"4","last_reported":1711976844,"current_range_meters":0,"station_id":"ce4bhr12rcd13ifvqhqg","pricing_plan_id":"cebpf4jnsgd1na2vs0mg"},{"bike_id":"c57e4eff-3408-4b5c-a41f-d125e19bb09b","system_id":"levelo_inurba_marseille","lat":43.3229,"lon":5.38266,"is_reserved":false,"is_disabled":false,"rental_uris":{"android":"levelo://app?vid=c57e4eff-3408-4b5c-a41f-d125e19bb09b","ios":"levelo://app?vid=c57e4eff-3408-4b5c-a41f-d125e19bb09b"},"vehicle_type_id":"4","last_reported":1711976844,"current_range_meters":8000,"station_id":"ce4bhr12rcd13ifvqhqg","pricing_plan_id":"cebpf4jnsgd1na2vs0mg"},{"bike_id":"daad3144-008d-4c70-83c5-cbb99de5cc8c","system_id":"levelo_inurba_marseille","lat":43.322872,"lon":5.382756,"is_reserved":false,"is_disabled":false,"rental_uris":{"android":"levelo://app?vid=daad3144-008d-4c70-83c5-cbb99de5cc8c","ios":"levelo://app?vid=daad3144-008d-4c70-83c5-cbb99de5cc8c"},"vehicle_type_id":"4","last_reported":1711976844,"current_range_meters":14000,"station_id":"ce4bhr12rcd13ifvqhqg","pricing_plan_id":"cebpf4jnsgd1na2vs0mg"},{"bike_id":"dedc4631-51f8-4916-a749-c45ed77872be","system_id":"levelo_inurba_marseille","lat":43.322872,"lon":5.382756,"is_reserved":false,"is_disabled":false,"rental_uris":{"android":"levelo://app?vid=dedc4631-51f8-4916-a749-c45ed77872be","ios":"levelo://app?vid=dedc4631-51f8-4916-a749-c45ed77872be"},"vehicle_type_id":"4","last_reported":1711976844,"current_range_meters":18000,"station_id":"ce4bhr12rcd13ifvqhqg","pricing_plan_id":"cebpf4jnsgd1na2vs0mg"},{"bike_id":"35195ee1-bb08-4c3b-997d-bf52f02f6b5a","system_id":"levelo_inurba_marseille","lat":43.322872,"lon":5.382756,"is_reserved":false,"is_disabled":false,"rental_uris":{"android":"levelo://app?vid=35195ee1-bb08-4c3b-997d-bf52f02f6b5a","ios":"levelo://app?vid=35195ee1-bb08-4c3b-997d-bf52f02f6b5a"},"vehicle_type_id":"4","last_reported":1711976844,"current_range_meters":3600,"station_id":"ce4bhr12rcd13ifvqhqg","pricing_plan_id":"cebpf4jnsgd1na2vs0mg"},{"bike_id":"0be0d559-3c93-446b-962e-978017e572e9","system_id":"levelo_inurba_marseille","lat":43.322872,"lon":5.382756,"is_reserved":false,"is_disabled":false,"rental_uris":{"android":"levelo://app?vid=0be0d559-3c93-446b-962e-978017e572e9","ios":"levelo://app?vid=0be0d559-3c93-446b-962e-978017e572e9"},"vehicle_type_id":"4","last_reported":1711976844,"current_range_meters":15200,"station_id":"ce4bhr12rcd13ifvqhqg","pricing_plan_id":"cebpf4jnsgd1na2vs0mg"},{"bike_id":"af91ee66-ebec-4e5f-b566-646a8b5863b7","system_id":"levelo_inurba_marseille","lat":43.322872,"lon":5.382756,"is_reserved":false,"is_disabled":false,"rental_uris":{"android":"levelo://app?vid=af91ee66-ebec-4e5f-b566-646a8b5863b7","ios":"levelo://app?vid=af91ee66-ebec-4e5f-b566-646a8b5863b7"},"vehicle_type_id":"4","last_reported":1711976844,"current_range_meters":13600,"station_id":"ce4bhr12rcd13ifvqhqg","pricing_plan_id":"cebpf4jnsgd1na2vs0mg"},{"bike_id":"5ed1088d-e0ad-4614-a220-0449cb3d1e58","system_id":"levelo_inurba_marseille","lat":43.322872,"lon":5.382756,"is_reserved":false,"is_disabled":false,"rental_uris":{"android":"levelo://app?vid=5ed1088d-e0ad-4614-a220-0449cb3d1e58","ios":"levelo://app?vid=5ed1088d-e0ad-4614-a220-0449cb3d1e58"},"vehicle_type_id":"4","last_reported":1711976844,"current_range_meters":12400,"station_id":"ce4bhr12rcd13ifvqhqg","pricing_plan_id":"cebpf4jnsgd1na2vs0mg"},{"bike_id":"10099c05-c94c-45d3-97e9-a6b3aab30da2","system_id":"levelo_inurba_marseille","lat":43.322872,"lon":5.382756,"is_reserved":false,"is_disabled":false,"rental_uris":{"android":"levelo://app?vid=10099c05-c94c-45d3-97e9-a6b3aab30da2","ios":"levelo://app?vid=10099c05-c94c-45d3-97e9-a6b3aab30da2"},"vehicle_type_id":"4","last_reported":1711976844,"current_range_meters":10800,"station_id":"ce4bhr12rcd13ifvqhqg","pricing_plan_id":"cebpf4jnsgd1na2vs0mg"},{"bike_id":"6db4ba56-cdbd-44f6-826d-1abf96302385","system_id":"levelo_inurba_marseille","lat":43.322872,"lon":5.382756,"is_reserved":false,"is_disabled":false,"rental_uris":{"android":"levelo://app?vid=6db4ba56-cdbd-44f6-826d-1abf96302385","ios":"levelo://app?vid=6db4ba56-cdbd-44f6-826d-1abf96302385"},"vehicle_type_id":"4","last_reported":1711976844,"current_range_meters":31600,"station_id":"ce4bhr12rcd13ifvqhqg","pricing_plan_id":"cebpf4jnsgd1na2vs0mg"},{"bike_id":"c0ed0665-625c-4d6d-b345-13d489f8e3b9","system_id":"levelo_inurba_marseille","lat":43.297163,"lon":5.365866,"is_reserved":false,"is_disabled":false,"rental_uris":{"android":"levelo://app?vid=c0ed0665-625c-4d6d-b345-13d489f8e3b9","ios":"levelo://app?vid=c0ed0665-625c-4d6d-b345-13d489f8e3b9"},"vehicle_type_id":"4","last_reported":1711976844,"current_range_meters":8400,"station_id":"ce4bgn12rcd13ifvqbt0","pricing_plan_id":"cebpf4jnsgd1na2vs0mg"},{"bike_id":"389ddf51-c243-4b03-92c2-34943bc2a092","system_id":"levelo_inurba_marseille","lat":43.297163,"lon":5.365866,"is_reserved":false,"is_disabled":false,"rental_uris":{"android":"levelo://app?vid=389ddf51-c243-4b03-92c2-34943bc2a092","ios":"levelo://app?vid=389ddf51-c243-4b03-92c2-34943bc2a092"},"vehicle_type_id":"4","last_reported":1711976844,"current_range_meters":19200,"station_id":"ce4bgn12rcd13ifvqbt0","pricing_plan_id":"cebpf4jnsgd1na2vs0mg"},{"bike_id":"9810585f-0df9-4068-aa9e-da3384e2ee4d","system_id":"levelo_inurba_marseille","lat":43.297163,"lon":5.365866,"is_reserved":false,"is_disabled":false,"rental_uris":{"android":"levelo://app?vid=9810585f-0df9-4068-aa9e-da3384e2ee4d","ios":"levelo://app?vid=9810585f-0df9-4068-aa9e-da3384e2ee4d"},"vehicle_type_id":"4","last_reported":1711976844,"current_range_meters":23200,"station_id":"ce4bgn12rcd13ifvqbt0","pricing_plan_id":"cebpf4jnsgd1na2vs0mg"},{"bike_id":"b9cf1c73-9144-4c74-a87a-e99f1a34c67c","system_id":"levelo_inurba_marseille","lat":43.297163,"lon":5.365866,"is_reserved":false,"is_disabled":false,"rental_uris":{"android":"levelo://app?vid=b9cf1c73-9144-4c74-a87a-e99f1a34c67c","ios":"levelo://app?vid=b9cf1c73-9144-4c74-a87a-e99f1a34c67c"},"vehicle_type_id":"4","last_reported":1711976844,"current_range_meters":13200,"station_id":"ce4bgn12rcd13ifvqbt0","pricing_plan_id":"cebpf4jnsgd1na2vs0mg"},{"bike_id":"1310b3b0-e2fb-46cc-a7e1-e7b059cd66a4","system_id":"levelo_inurba_marseille","lat":43.297163,"lon":5.365866,"is_reserved":false,"is_disabled":false,"rental_uris":{"android":"levelo://app?vid=1310b3b0-e2fb-46cc-a7e1-e7b059cd66a4","ios":"levelo://app?vid=1310b3b0-e2fb-46cc-a7e1-e7b059cd66a4"},"vehicle_type_id":"4","last_reported":1711976844,"current_range_meters":24400,"station_id":"ce4bgn12rcd13ifvqbt0","pricing_plan_id":"cebpf4jnsgd1na2vs0mg"},{"bike_id":"10bcff42-f279-4829-982e-17f85f5aa1f0","system_id":"levelo_inurba_marseille","lat":43.305364,"lon":5.384119,"is_reserved":false,"is_disabled":false,"rental_uris":{"android":"levelo://app?vid=10bcff42-f279-4829-982e-17f85f5aa1f0","ios":"levelo://app?vid=10bcff42-f279-4829-982e-17f85f5aa1f0"},"vehicle_type_id":"4","last_reported":1711976844,"current_range_meters":2800,"station_id":"ce4bgg92rcd13ifvqb30","pricing_plan_id":"cebpf4jnsgd1na2vs0mg"},{"bike_id":"2a51ae86-dc82-4d37-a65b-ee5ccfbe596e","system_id":"levelo_inurba_marseille","lat":43.2968,"lon":5.37291,"is_reserved":false,"is_disabled":false,"rental_uris":{"android":"levelo://app?vid=2a51ae86-dc82-4d37-a65b-ee5ccfbe596e","ios":"levelo://app?vid=2a51ae86-dc82-4d37-a65b-ee5ccfbe596e"},"vehicle_type_id":"4","last_reported":1711976844,"current_range_meters":0,"station_id":"ce4bgk12rcd13ifvqbj0","pricing_plan_id":"cebpf4jnsgd1na2vs0mg"},{"bike_id":"b1c0541d-d04c-438e-83de-745acad08b3c","system_id":"levelo_inurba_marseille","lat":43.296131,"lon":5.370773,"is_reserved":false,"is_disabled":false,"rental_uris":{"android":"levelo://app?vid=b1c0541d-d04c-438e-83de-745acad08b3c","ios":"levelo://app?vid=b1c0541d-d04c-438e-83de-745acad08b3c"},"vehicle_type_id":"4","last_reported":1711976844,"current_range_meters":7200,"station_id":"ce4bgnh2rcd13ifvqc0g","pricing_plan_id":"cebpf4jnsgd1na2vs0mg"},{"bike_id":"a85f107e-c8c1-4309-b65d-bd5b5031642f","system_id":"levelo_inurba_marseille","lat":43.296131,"lon":5.370773,"is_reserved":false,"is_disabled":false,"rental_uris":{"android":"levelo://app?vid=a85f107e-c8c1-4309-b65d-bd5b5031642f","ios":"levelo://app?vid=a85f107e-c8c1-4309-b65d-bd5b5031642f"},"vehicle_type_id":"4","last_reported":1711976844,"current_range_meters":14400,"station_id":"ce4bgnh2rcd13ifvqc0g","pricing_plan_id":"cebpf4jnsgd1na2vs0mg"},{"bike_id":"c2a3ece4-def4-4965-87c3-d8255ecd74f9","system_id":"levelo_inurba_marseille","lat":43.29587,"lon":5.36744,"is_reserved":false,"is_disabled":false,"rental_uris":{"android":"levelo://app?vid=c2a3ece4-def4-4965-87c3-d8255ecd74f9","ios":"levelo://app?vid=c2a3ece4-def4-4965-87c3-d8255ecd74f9"},"vehicle_type_id":"4","last_reported":1711976844,"current_range_meters":12000,"station_id":"ce4bgph2rcd13ifvqc2g","pricing_plan_id":"cebpf4jnsgd1na2vs0mg"},{"bike_id":"0f6f8c26-8074-4c60-81fd-24be3d5ea278","system_id":"levelo_inurba_marseille","lat":43.296129,"lon":5.370777,"is_reserved":false,"is_disabled":false,"rental_uris":{"android":"levelo://app?vid=0f6f8c26-8074-4c60-81fd-24be3d5ea278","ios":"levelo://app?vid=0f6f8c26-8074-4c60-81fd-24be3d5ea278"},"vehicle_type_id":"4","last_reported":1711976844,"current_range_meters":15200,"station_id":"ce4bgnh2rcd13ifvqc0g","pricing_plan_id":"cebpf4jnsgd1na2vs0mg"},{"bike_id":"8b34f67c-44c4-4a3c-92f1-cf7b0d88c0a6","system_id":"levelo_inurba_marseille","lat":43.29573,"lon":5.367355,"is_reserved":false,"is_disabled":false,"rental_uris":{"android":"levelo://app?vid=8b34f67c-44c4-4a3c-92f1-cf7b0d88c0a6","ios":"levelo://app?vid=8b34f67c-44c4-4a3c-92f1-cf7b0d88c0a6"},"vehicle_type_id":"4","last_reported":1711976844,"current_range_meters":3200,"station_id":"ce4bgph2rcd13ifvqc2g","pricing_plan_id":"cebpf4jnsgd1na2vs0mg"},{"bike_id":"f003088a-3c21-4f50-b768-acfc089b677d","system_id":"levelo_inurba_marseille","lat":43.29573,"lon":5.367355,"is_reserved":false,"is_disabled":false,"rental_uris":{"android":"levelo://app?vid=f003088a-3c21-4f50-b768-acfc089b677d","ios":"levelo://app?vid=f003088a-3c21-4f50-b768-acfc089b677d"},"vehicle_type_id":"4","last_reported":1711976844,"current_range_meters":17600,"station_id":"ce4bgph2rcd13ifvqc2g","pricing_plan_id":"cebpf4jnsgd1na2vs0mg"},{"bike_id":"9870a82f-c4bf-4ed4-915a-d64229c5ed64","system_id":"levelo_inurba_marseille","lat":43.296131,"lon":5.370773,"is_reserved":false,"is_disabled":false,"rental_uris":{"android":"levelo://app?vid=9870a82f-c4bf-4ed4-915a-d64229c5ed64","ios":"levelo://app?vid=9870a82f-c4bf-4ed4-915a-d64229c5ed64"},"vehicle_type_id":"4","last_reported":1711976844,"current_range_meters":9200,"station_id":"ce4bgnh2rcd13ifvqc0g","pricing_plan_id":"cebpf4jnsgd1na2vs0mg"},{"bike_id":"ffa15693-15ec-4db2-965b-8276afa281ab","system_id":"levelo_inurba_marseille","lat":43.29573,"lon":5.367355,"is_reserved":false,"is_disabled":false,"rental_uris":{"android":"levelo://app?vid=ffa15693-15ec-4db2-965b-8276afa281ab","ios":"levelo://app?vid=ffa15693-15ec-4db2-965b-8276afa281ab"},"vehicle_type_id":"4","last_reported":1711976844,"current_range_meters":26000,"station_id":"ce4bgph2rcd13ifvqc2g","pricing_plan_id":"cebpf4jnsgd1na2vs0mg"},{"bike_id":"6aeae9b8-ec6f-4487-a3dd-c38919e6a8cb","system_id":"levelo_inurba_marseille","lat":43.2958,"lon":5.36742,"is_reserved":false,"is_disabled":false,"rental_uris":{"android":"levelo://app?vid=6aeae9b8-ec6f-4487-a3dd-c38919e6a8cb","ios":"levelo://app?vid=6aeae9b8-ec6f-4487-a3dd-c38919e6a8cb"},"vehicle_type_id":"4","last_reported":1711976844,"current_range_meters":25600,"station_id":"ce4bgph2rcd13ifvqc2g","pricing_plan_id":"cebpf4jnsgd1na2vs0mg"},{"bike_id":"a87791c2-f65f-4425-9e3c-b8ff5f3dfe05","system_id":"levelo_inurba_marseille","lat":43.295796,"lon":5.367334,"is_reserved":false,"is_disabled":false,"rental_uris":{"android":"levelo://app?vid=a87791c2-f65f-4425-9e3c-b8ff5f3dfe05","ios":"levelo://app?vid=a87791c2-f65f-4425-9e3c-b8ff5f3dfe05"},"vehicle_type_id":"4","last_reported":1711976844,"current_range_meters":23600,"station_id":"ce4bgph2rcd13ifvqc2g","pricing_plan_id":"cebpf4jnsgd1na2vs0mg"},{"bike_id":"065192d3-4e9e-443f-b289-e434bca9c02b","system_id":"levelo_inurba_marseille","lat":43.29573,"lon":5.367355,"is_reserved":false,"is_disabled":false,"rental_uris":{"android":"levelo://app?vid=065192d3-4e9e-443f-b289-e434bca9c02b","ios":"levelo://app?vid=065192d3-4e9e-443f-b289-e434bca9c02b"},"vehicle_type_id":"4","last_reported":1711976844,"current_range_meters":25200,"station_id":"ce4bgph2rcd13ifvqc2g","pricing_plan_id":"cebpf4jnsgd1na2vs0mg"},{"bike_id":"c4f64018-b249-41dd-b567-495970756940","system_id":"levelo_inurba_marseille","lat":43.29573,"lon":5.367355,"is_reserved":false,"is_disabled":false,"rental_uris":{"android":"levelo://app?vid=c4f64018-b249-41dd-b567-495970756940","ios":"levelo://app?vid=c4f64018-b249-41dd-b567-495970756940"},"vehicle_type_id":"4","last_reported":1711976844,"current_range_meters":31200,"station_id":"ce4bgph2rcd13ifvqc2g","pricing_plan_id":"cebpf4jnsgd1na2vs0mg"},{"bike_id":"cec88477-c27e-4816-9ab3-e136f1966b51","system_id":"levelo_inurba_marseille","lat":43.296506,"lon":5.374701,"is_reserved":false,"is_disabled":false,"rental_uris":{"android":"levelo://app?vid=cec88477-c27e-4816-9ab3-e136f1966b51","ios":"levelo://app?vid=cec88477-c27e-4816-9ab3-e136f1966b51"},"vehicle_type_id":"4","last_reported":1711976844,"current_range_meters":400,"station_id":"ce4bgh92rcd13ifvqb50","pricing_plan_id":"cebpf4jnsgd1na2vs0mg"},{"bike_id":"9793914c-64c1-4bd8-8638-60c788172fee","system_id":"levelo_inurba_marseille","lat":43.296921,"lon":5.376579,"is_reserved":false,"is_disabled":false,"rental_uris":{"android":"levelo://app?vid=9793914c-64c1-4bd8-8638-60c788172fee","ios":"levelo://app?vid=9793914c-64c1-4bd8-8638-60c788172fee"},"vehicle_type_id":"4","last_reported":1711976844,"current_range_meters":9200,"station_id":"ce4bgkh2rcd13ifvqbl0","pricing_plan_id":"cebpf4jnsgd1na2vs0mg"},{"bike_id":"766a7896-130b-45f3-aa21-28fa61b3bb41","system_id":"levelo_inurba_marseille","lat":43.29618,"lon":5.37358,"is_reserved":false,"is_disabled":false,"rental_uris":{"android":"levelo://app?vid=766a7896-130b-45f3-aa21-28fa61b3bb41","ios":"levelo://app?vid=766a7896-130b-45f3-aa21-28fa61b3bb41"},"vehicle_type_id":"4","last_reported":1711976844,"current_range_meters":5200,"station_id":"","pricing_plan_id":"cebpf4jnsgd1na2vs0mg"},{"bike_id":"a48d2fd9-8254-4404-a6fd-76e387e8408e","system_id":"levelo_inurba_marseille","lat":43.296935,"lon":5.376544,"is_reserved":false,"is_disabled":false,"rental_uris":{"android":"levelo://app?vid=a48d2fd9-8254-4404-a6fd-76e387e8408e","ios":"levelo://app?vid=a48d2fd9-8254-4404-a6fd-76e387e8408e"},"vehicle_type_id":"4","last_reported":1711976844,"current_range_meters":7200,"station_id":"ce4bgkh2rcd13ifvqbl0","pricing_plan_id":"cebpf4jnsgd1na2vs0mg"},{"bike_id":"aa988cc7-f116-430f-8251-49c9855fc7a5","system_id":"levelo_inurba_marseille","lat":43.296921,"lon":5.376579,"is_reserved":false,"is_disabled":false,"rental_uris":{"android":"levelo://app?vid=aa988cc7-f116-430f-8251-49c9855fc7a5","ios":"levelo://app?vid=aa988cc7-f116-430f-8251-49c9855fc7a5"},"vehicle_type_id":"4","last_reported":1711976844,"current_range_meters":8800,"station_id":"ce4bgkh2rcd13ifvqbl0","pricing_plan_id":"cebpf4jnsgd1na2vs0mg"},{"bike_id":"00313dc3-331f-4b72-9828-4010609f7813","system_id":"levelo_inurba_marseille","lat":43.317121,"lon":5.423936,"is_reserved":false,"is_disabled":false,"rental_uris":{"android":"levelo://app?vid=00313dc3-331f-4b72-9828-4010609f7813","ios":"levelo://app?vid=00313dc3-331f-4b72-9828-4010609f7813"},"vehicle_type_id":"4","last_reported":1711976844,"current_range_meters":24000,"station_id":"ce4bhp92rcd13ifvqhbg","pricing_plan_id":"cebpf4jnsgd1na2vs0mg"},{"bike_id":"442e9418-c020-4a88-afb4-a6105321b761","system_id":"levelo_inurba_marseille","lat":43.309589,"lon":5.390258,"is_reserved":false,"is_disabled":false,"rental_uris":{"android":"levelo://app?vid=442e9418-c020-4a88-afb4-a6105321b761","ios":"levelo://app?vid=442e9418-c020-4a88-afb4-a6105321b761"},"vehicle_type_id":"4","last_reported":1711976844,"current_range_meters":0,"station_id":"ce4bgup2rcd13ifvqco0","pricing_plan_id":"cebpf4jnsgd1na2vs0mg"},{"bike_id":"8548fa8f-8e6e-4699-b829-5d0c163443cd","system_id":"levelo_inurba_marseille","lat":43.309589,"lon":5.390258,"is_reserved":false,"is_disabled":false,"rental_uris":{"android":"levelo://app?vid=8548fa8f-8e6e-4699-b829-5d0c163443cd","ios":"levelo://app?vid=8548fa8f-8e6e-4699-b829-5d0c163443cd"},"vehicle_type_id":"4","last_reported":1711976844,"current_range_meters":0,"station_id":"ce4bgup2rcd13ifvqco0","pricing_plan_id":"cebpf4jnsgd1na2vs0mg"},{"bike_id":"5799b394-2133-4b96-ad98-b917b3f6ae74","system_id":"levelo_inurba_marseille","lat":43.309589,"lon":5.390258,"is_reserved":false,"is_disabled":false,"rental_uris":{"android":"levelo://app?vid=5799b394-2133-4b96-ad98-b917b3f6ae74","ios":"levelo://app?vid=5799b394-2133-4b96-ad98-b917b3f6ae74"},"vehicle_type_id":"4","last_reported":1711976844,"current_range_meters":18000,"station_id":"ce4bgup2rcd13ifvqco0","pricing_plan_id":"cebpf4jnsgd1na2vs0mg"},{"bike_id":"05fc4123-9e43-46f1-a45a-3c96547aaed5","system_id":"levelo_inurba_marseille","lat":43.317557,"lon":5.390173,"is_reserved":false,"is_disabled":false,"rental_uris":{"android":"levelo://app?vid=05fc4123-9e43-46f1-a45a-3c96547aaed5","ios":"levelo://app?vid=05fc4123-9e43-46f1-a45a-3c96547aaed5"},"vehicle_type_id":"4","last_reported":1711976844,"current_range_meters":14800,"station_id":"ce4bhqp2rcd13ifvqhng","pricing_plan_id":"cebpf4jnsgd1na2vs0mg"},{"bike_id":"7c46e0c1-85b2-40e6-93f5-e0a13a19e2ac","system_id":"levelo_inurba_marseille","lat":43.317567,"lon":5.390213,"is_reserved":false,"is_disabled":false,"rental_uris":{"android":"levelo://app?vid=7c46e0c1-85b2-40e6-93f5-e0a13a19e2ac","ios":"levelo://app?vid=7c46e0c1-85b2-40e6-93f5-e0a13a19e2ac"},"vehicle_type_id":"4","last_reported":1711976844,"current_range_meters":19200,"station_id":"ce4bhqp2rcd13ifvqhng","pricing_plan_id":"cebpf4jnsgd1na2vs0mg"},{"bike_id":"9ab3f9ee-41e7-4ca5-b16c-87ce95d3f40c","system_id":"levelo_inurba_marseille","lat":43.262012,"lon":5.379307,"is_reserved":false,"is_disabled":false,"rental_uris":{"android":"levelo://app?vid=9ab3f9ee-41e7-4ca5-b16c-87ce95d3f40c","ios":"levelo://app?vid=9ab3f9ee-41e7-4ca5-b16c-87ce95d3f40c"},"vehicle_type_id":"4","last_reported":1711976844,"current_range_meters":10000,"station_id":"ce4bhjp2rcd13ifvqg90","pricing_plan_id":"cebpf4jnsgd1na2vs0mg"},{"bike_id":"cabc2df0-9c94-4be6-b564-27344c738fc6","system_id":"levelo_inurba_marseille","lat":43.292749,"lon":5.368402,"is_reserved":false,"is_disabled":false,"rental_uris":{"android":"levelo://app?vid=cabc2df0-9c94-4be6-b564-27344c738fc6","ios":"levelo://app?vid=cabc2df0-9c94-4be6-b564-27344c738fc6"},"vehicle_type_id":"4","last_reported":1711976844,"current_range_meters":18400,"station_id":"ce4bhbp2rcd13ifvqesg","pricing_plan_id":"cebpf4jnsgd1na2vs0mg"},{"bike_id":"9e45ffe2-23f5-4990-98aa-20ff1b0b0751","system_id":"levelo_inurba_marseille","lat":43.296263,"lon":5.377094,"is_reserved":false,"is_disabled":false,"rental_uris":{"android":"levelo://app?vid=9e45ffe2-23f5-4990-98aa-20ff1b0b0751","ios":"levelo://app?vid=9e45ffe2-23f5-4990-98aa-20ff1b0b0751"},"vehicle_type_id":"4","last_reported":1711976844,"current_range_meters":9600,"station_id":"ce4bgi92rcd13ifvqb90","pricing_plan_id":"cebpf4jnsgd1na2vs0mg"},{"bike_id":"d6b8b181-fe52-47bf-bdae-8a95c12a4594","system_id":"levelo_inurba_marseille","lat":43.295279,"lon":5.375048,"is_reserved":false,"is_disabled":false,"rental_uris":{"android":"levelo://app?vid=d6b8b181-fe52-47bf-bdae-8a95c12a4594","ios":"levelo://app?vid=d6b8b181-fe52-47bf-bdae-8a95c12a4594"},"vehicle_type_id":"4","last_reported":1711976844,"current_range_meters":22800,"station_id":"ce4bgkp2rcd13ifvqbmg","pricing_plan_id":"cebpf4jnsgd1na2vs0mg"},{"bike_id":"ea5fd2ea-81df-4d68-ab5e-c4547e11c862","system_id":"levelo_inurba_marseille","lat":43.299717,"lon":5.384845,"is_reserved":false,"is_disabled":false,"rental_uris":{"android":"levelo://app?vid=ea5fd2ea-81df-4d68-ab5e-c4547e11c862","ios":"levelo://app?vid=ea5fd2ea-81df-4d68-ab5e-c4547e11c862"},"vehicle_type_id":"4","last_reported":1711976844,"current_range_meters":12000,"station_id":"ce4bgj92rcd13ifvqbd0","pricing_plan_id":"cebpf4jnsgd1na2vs0mg"},{"bike_id":"9e8e7e4a-8129-4769-a2a7-dc4814c20ad7","system_id":"levelo_inurba_marseille","lat":43.32363,"lon":5.38878,"is_reserved":false,"is_disabled":false,"rental_uris":{"android":"levelo://app?vid=9e8e7e4a-8129-4769-a2a7-dc4814c20ad7","ios":"levelo://app?vid=9e8e7e4a-8129-4769-a2a7-dc4814c20ad7"},"vehicle_type_id":"4","last_reported":1711976844,"current_range_meters":16000,"station_id":"ce4bhqp2rcd13ifvqhog","pricing_plan_id":"cebpf4jnsgd1na2vs0mg"},{"bike_id":"381cfc16-f19f-4fc8-8616-3865c4858cbf","system_id":"levelo_inurba_marseille","lat":43.32368,"lon":5.38874,"is_reserved":false,"is_disabled":false,"rental_uris":{"android":"levelo://app?vid=381cfc16-f19f-4fc8-8616-3865c4858cbf","ios":"levelo://app?vid=381cfc16-f19f-4fc8-8616-3865c4858cbf"},"vehicle_type_id":"4","last_reported":1711976844,"current_range_meters":14000,"station_id":"ce4bhqp2rcd13ifvqhog","pricing_plan_id":"cebpf4jnsgd1na2vs0mg"},{"bike_id":"afdf460e-00f7-480e-b3f7-bcca47219735","system_id":"levelo_inurba_marseille","lat":43.32361,"lon":5.388837,"is_reserved":false,"is_disabled":false,"rental_uris":{"android":"levelo://app?vid=afdf460e-00f7-480e-b3f7-bcca47219735","ios":"levelo://app?vid=afdf460e-00f7-480e-b3f7-bcca47219735"},"vehicle_type_id":"4","last_reported":1711976844,"current_range_meters":4800,"station_id":"ce4bhqp2rcd13ifvqhog","pricing_plan_id":"cebpf4jnsgd1na2vs0mg"},{"bike_id":"5f4c5f1b-f895-4fb2-b1bc-4704c9900c78","system_id":"levelo_inurba_marseille","lat":43.32367,"lon":5.388836,"is_reserved":false,"is_disabled":false,"rental_uris":{"android":"levelo://app?vid=5f4c5f1b-f895-4fb2-b1bc-4704c9900c78","ios":"levelo://app?vid=5f4c5f1b-f895-4fb2-b1bc-4704c9900c78"},"vehicle_type_id":"4","last_reported":1711976844,"current_range_meters":2400,"station_id":"ce4bhqp2rcd13ifvqhog","pricing_plan_id":"cebpf4jnsgd1na2vs0mg"},{"bike_id":"0f59f449-1e35-49d3-b940-a11d326ed611","system_id":"levelo_inurba_marseille","lat":43.32373,"lon":5.38877,"is_reserved":false,"is_disabled":false,"rental_uris":{"android":"levelo://app?vid=0f59f449-1e35-49d3-b940-a11d326ed611","ios":"levelo://app?vid=0f59f449-1e35-49d3-b940-a11d326ed611"},"vehicle_type_id":"4","last_reported":1711976844,"current_range_meters":6400,"station_id":"ce4bhqp2rcd13ifvqhog","pricing_plan_id":"cebpf4jnsgd1na2vs0mg"},{"bike_id":"a7139ce8-a352-4d57-8aac-2c55f8217d5f","system_id":"levelo_inurba_marseille","lat":43.32364,"lon":5.38886,"is_reserved":false,"is_disabled":false,"rental_uris":{"android":"levelo://app?vid=a7139ce8-a352-4d57-8aac-2c55f8217d5f","ios":"levelo://app?vid=a7139ce8-a352-4d57-8aac-2c55f8217d5f"},"vehicle_type_id":"4","last_reported":1711976844,"current_range_meters":0,"station_id":"ce4bhqp2rcd13ifvqhog","pricing_plan_id":"cebpf4jnsgd1na2vs0mg"},{"bike_id":"0cdd6911-9cf6-4d97-a186-22d8bfc40700","system_id":"levelo_inurba_marseille","lat":43.32364,"lon":5.38886,"is_reserved":false,"is_disabled":false,"rental_uris":{"android":"levelo://app?vid=0cdd6911-9cf6-4d97-a186-22d8bfc40700","ios":"levelo://app?vid=0cdd6911-9cf6-4d97-a186-22d8bfc40700"},"vehicle_type_id":"4","last_reported":1711976844,"current_range_meters":8400,"station_id":"ce4bhqp2rcd13ifvqhog","pricing_plan_id":"cebpf4jnsgd1na2vs0mg"},{"bike_id":"9bf4ec31-28f9-4936-8e76-915995fa6006","system_id":"levelo_inurba_marseille","lat":43.32368,"lon":5.38884,"is_reserved":false,"is_disabled":false,"rental_uris":{"android":"levelo://app?vid=9bf4ec31-28f9-4936-8e76-915995fa6006","ios":"levelo://app?vid=9bf4ec31-28f9-4936-8e76-915995fa6006"},"vehicle_type_id":"4","last_reported":1711976844,"current_range_meters":6400,"station_id":"ce4bhqp2rcd13ifvqhog","pricing_plan_id":"cebpf4jnsgd1na2vs0mg"},{"bike_id":"8c1aec95-8e52-4439-8b52-8484b8389574","system_id":"levelo_inurba_marseille","lat":43.32367,"lon":5.388836,"is_reserved":false,"is_disabled":false,"rental_uris":{"android":"levelo://app?vid=8c1aec95-8e52-4439-8b52-8484b8389574","ios":"levelo://app?vid=8c1aec95-8e52-4439-8b52-8484b8389574"},"vehicle_type_id":"4","last_reported":1711976844,"current_range_meters":27600,"station_id":"ce4bhqp2rcd13ifvqhog","pricing_plan_id":"cebpf4jnsgd1na2vs0mg"},{"bike_id":"5abf0cc1-e33d-4b3b-858e-698431edae16","system_id":"levelo_inurba_marseille","lat":43.32369,"lon":5.38886,"is_reserved":false,"is_disabled":false,"rental_uris":{"android":"levelo://app?vid=5abf0cc1-e33d-4b3b-858e-698431edae16","ios":"levelo://app?vid=5abf0cc1-e33d-4b3b-858e-698431edae16"},"vehicle_type_id":"4","last_reported":1711976844,"current_range_meters":0,"station_id":"ce4bhqp2rcd13ifvqhog","pricing_plan_id":"cebpf4jnsgd1na2vs0mg"},{"bike_id":"5df2aef7-7a9c-48dc-a1e6-3cf356fb8fa8","system_id":"levelo_inurba_marseille","lat":43.323633,"lon":5.388943,"is_reserved":false,"is_disabled":false,"rental_uris":{"android":"levelo://app?vid=5df2aef7-7a9c-48dc-a1e6-3cf356fb8fa8","ios":"levelo://app?vid=5df2aef7-7a9c-48dc-a1e6-3cf356fb8fa8"},"vehicle_type_id":"4","last_reported":1711976844,"current_range_meters":5600,"station_id":"ce4bhqp2rcd13ifvqhog","pricing_plan_id":"cebpf4jnsgd1na2vs0mg"},{"bike_id":"c08509ef-5c83-4f01-bf9e-491962311faa","system_id":"levelo_inurba_marseille","lat":43.231793,"lon":5.400044,"is_reserved":false,"is_disabled":false,"rental_uris":{"android":"levelo://app?vid=c08509ef-5c83-4f01-bf9e-491962311faa","ios":"levelo://app?vid=c08509ef-5c83-4f01-bf9e-491962311faa"},"vehicle_type_id":"4","last_reported":1711976844,"current_range_meters":800,"station_id":"ce4bhn12rcd13ifvqgqg","pricing_plan_id":"cebpf4jnsgd1na2vs0mg"},{"bike_id":"f7fdd7c5-0039-45e7-af77-2c691d8a6572","system_id":"levelo_inurba_marseille","lat":43.32381,"lon":5.38895,"is_reserved":false,"is_disabled":false,"rental_uris":{"android":"levelo://app?vid=f7fdd7c5-0039-45e7-af77-2c691d8a6572","ios":"levelo://app?vid=f7fdd7c5-0039-45e7-af77-2c691d8a6572"},"vehicle_type_id":"4","last_reported":1711976844,"current_range_meters":14800,"station_id":"ce4bhqp2rcd13ifvqhog","pricing_plan_id":"cebpf4jnsgd1na2vs0mg"},{"bike_id":"fa201359-f735-4b59-a62b-3adf57ae7882","system_id":"levelo_inurba_marseille","lat":43.29602,"lon":5.381084,"is_reserved":false,"is_disabled":false,"rental_uris":{"android":"levelo://app?vid=fa201359-f735-4b59-a62b-3adf57ae7882","ios":"levelo://app?vid=fa201359-f735-4b59-a62b-3adf57ae7882"},"vehicle_type_id":"4","last_reported":1711976844,"current_range_meters":1600,"station_id":"ce4bgl12rcd13ifvqbo0","pricing_plan_id":"cebpf4jnsgd1na2vs0mg"},{"bike_id":"15bc7675-b8c0-4ffe-8d49-fff20dfd5958","system_id":"levelo_inurba_marseille","lat":43.29328,"lon":5.37076,"is_reserved":false,"is_disabled":false,"rental_uris":{"android":"levelo://app?vid=15bc7675-b8c0-4ffe-8d49-fff20dfd5958","ios":"levelo://app?vid=15bc7675-b8c0-4ffe-8d49-fff20dfd5958"},"vehicle_type_id":"4","last_reported":1711976844,"current_range_meters":400,"station_id":"ce4bhgp2rcd13ifvqfc0","pricing_plan_id":"cebpf4jnsgd1na2vs0mg"},{"bike_id":"17a51bef-b000-42bd-ad03-a76b8537762d","system_id":"levelo_inurba_marseille","lat":43.29602,"lon":5.381084,"is_reserved":false,"is_disabled":false,"rental_uris":{"android":"levelo://app?vid=17a51bef-b000-42bd-ad03-a76b8537762d","ios":"levelo://app?vid=17a51bef-b000-42bd-ad03-a76b8537762d"},"vehicle_type_id":"4","last_reported":1711976844,"current_range_meters":12000,"station_id":"ce4bgl12rcd13ifvqbo0","pricing_plan_id":"cebpf4jnsgd1na2vs0mg"},{"bike_id":"f5911556-a27b-4b12-aa1f-a6feed3deb88","system_id":"levelo_inurba_marseille","lat":43.292749,"lon":5.368402,"is_reserved":false,"is_disabled":false,"rental_uris":{"android":"levelo://app?vid=f5911556-a27b-4b12-aa1f-a6feed3deb88","ios":"levelo://app?vid=f5911556-a27b-4b12-aa1f-a6feed3deb88"},"vehicle_type_id":"4","last_reported":1711976844,"current_range_meters":2400,"station_id":"ce4bhbp2rcd13ifvqesg","pricing_plan_id":"cebpf4jnsgd1na2vs0mg"},{"bike_id":"c1c44bf4-1fb1-4b34-9fa2-bc8a25427d88","system_id":"levelo_inurba_marseille","lat":43.292749,"lon":5.368402,"is_reserved":false,"is_disabled":false,"rental_uris":{"android":"levelo://app?vid=c1c44bf4-1fb1-4b34-9fa2-bc8a25427d88","ios":"levelo://app?vid=c1c44bf4-1fb1-4b34-9fa2-bc8a25427d88"},"vehicle_type_id":"4","last_reported":1711976844,"current_range_meters":9600,"station_id":"ce4bhbp2rcd13ifvqesg","pricing_plan_id":"cebpf4jnsgd1na2vs0mg"},{"bike_id":"8fde7d83-bedf-4ccc-8b4b-5c5a59d826cc","system_id":"levelo_inurba_marseille","lat":43.2936,"lon":5.37835,"is_reserved":false,"is_disabled":false,"rental_uris":{"android":"levelo://app?vid=8fde7d83-bedf-4ccc-8b4b-5c5a59d826cc","ios":"levelo://app?vid=8fde7d83-bedf-4ccc-8b4b-5c5a59d826cc"},"vehicle_type_id":"4","last_reported":1711976844,"current_range_meters":24000,"station_id":"ce4bgjh2rcd13ifvqbf0","pricing_plan_id":"cebpf4jnsgd1na2vs0mg"},{"bike_id":"01993bbf-4f32-49b2-a84d-1937a2e05ac9","system_id":"levelo_inurba_marseille","lat":43.292749,"lon":5.368402,"is_reserved":false,"is_disabled":false,"rental_uris":{"android":"levelo://app?vid=01993bbf-4f32-49b2-a84d-1937a2e05ac9","ios":"levelo://app?vid=01993bbf-4f32-49b2-a84d-1937a2e05ac9"},"vehicle_type_id":"4","last_reported":1711976844,"current_range_meters":22000,"station_id":"ce4bhbp2rcd13ifvqesg","pricing_plan_id":"cebpf4jnsgd1na2vs0mg"},{"bike_id":"fa9c9cd7-1dfc-41c0-8467-a910a92edab4","system_id":"levelo_inurba_marseille","lat":43.292311,"lon":5.360731,"is_reserved":false,"is_disabled":false,"rental_uris":{"android":"levelo://app?vid=fa9c9cd7-1dfc-41c0-8467-a910a92edab4","ios":"levelo://app?vid=fa9c9cd7-1dfc-41c0-8467-a910a92edab4"},"vehicle_type_id":"4","last_reported":1711976844,"current_range_meters":1600,"station_id":"ce4bhbh2rcd13ifvqeqg","pricing_plan_id":"cebpf4jnsgd1na2vs0mg"},{"bike_id":"04a30207-b871-49fc-96e8-7121f55debfc","system_id":"levelo_inurba_marseille","lat":43.291671,"lon":5.371575,"is_reserved":false,"is_disabled":false,"rental_uris":{"android":"levelo://app?vid=04a30207-b871-49fc-96e8-7121f55debfc","ios":"levelo://app?vid=04a30207-b871-49fc-96e8-7121f55debfc"},"vehicle_type_id":"4","last_reported":1711976844,"current_range_meters":25600,"station_id":"ce4bha92rcd13ifvqeh0","pricing_plan_id":"cebpf4jnsgd1na2vs0mg"},{"bike_id":"812a8c3b-db8c-4797-983c-e9b3ea2c072b","system_id":"levelo_inurba_marseille","lat":43.291671,"lon":5.371575,"is_reserved":false,"is_disabled":false,"rental_uris":{"android":"levelo://app?vid=812a8c3b-db8c-4797-983c-e9b3ea2c072b","ios":"levelo://app?vid=812a8c3b-db8c-4797-983c-e9b3ea2c072b"},"vehicle_type_id":"4","last_reported":1711976844,"current_range_meters":11600,"station_id":"ce4bha92rcd13ifvqeh0","pricing_plan_id":"cebpf4jnsgd1na2vs0mg"},{"bike_id":"07d39bbe-23c6-4356-afbf-2e85b7ab2450","system_id":"levelo_inurba_marseille","lat":43.292005,"lon":5.357875,"is_reserved":false,"is_disabled":false,"rental_uris":{"android":"levelo://app?vid=07d39bbe-23c6-4356-afbf-2e85b7ab2450","ios":"levelo://app?vid=07d39bbe-23c6-4356-afbf-2e85b7ab2450"},"vehicle_type_id":"4","last_reported":1711976844,"current_range_meters":26400,"station_id":"ce4bhb12rcd13ifvqel0","pricing_plan_id":"cebpf4jnsgd1na2vs0mg"},{"bike_id":"3cbdba4a-7307-4047-8c34-716a00604c6f","system_id":"levelo_inurba_marseille","lat":43.31326,"lon":5.39684,"is_reserved":false,"is_disabled":false,"rental_uris":{"android":"levelo://app?vid=3cbdba4a-7307-4047-8c34-716a00604c6f","ios":"levelo://app?vid=3cbdba4a-7307-4047-8c34-716a00604c6f"},"vehicle_type_id":"4","last_reported":1711976844,"current_range_meters":11200,"station_id":"ce4bgvp2rcd13ifvqcu0","pricing_plan_id":"cebpf4jnsgd1na2vs0mg"},{"bike_id":"a9cb5a9e-086d-4990-ba9d-07bb118aa28f","system_id":"levelo_inurba_marseille","lat":43.29197,"lon":5.35789,"is_reserved":false,"is_disabled":false,"rental_uris":{"android":"levelo://app?vid=a9cb5a9e-086d-4990-ba9d-07bb118aa28f","ios":"levelo://app?vid=a9cb5a9e-086d-4990-ba9d-07bb118aa28f"},"vehicle_type_id":"4","last_reported":1711976844,"current_range_meters":4400,"station_id":"ce4bhb12rcd13ifvqel0","pricing_plan_id":"cebpf4jnsgd1na2vs0mg"},{"bike_id":"852c0cf9-6eb4-4846-85be-6ec9280db7b3","system_id":"levelo_inurba_marseille","lat":43.313291,"lon":5.396838,"is_reserved":false,"is_disabled":false,"rental_uris":{"android":"levelo://app?vid=852c0cf9-6eb4-4846-85be-6ec9280db7b3","ios":"levelo://app?vid=852c0cf9-6eb4-4846-85be-6ec9280db7b3"},"vehicle_type_id":"4","last_reported":1711976844,"current_range_meters":14000,"station_id":"ce4bgvp2rcd13ifvqcu0","pricing_plan_id":"cebpf4jnsgd1na2vs0mg"},{"bike_id":"b131dc10-d886-4cf7-924d-95787a759587","system_id":"levelo_inurba_marseille","lat":43.31333,"lon":5.39689,"is_reserved":false,"is_disabled":false,"rental_uris":{"android":"levelo://app?vid=b131dc10-d886-4cf7-924d-95787a759587","ios":"levelo://app?vid=b131dc10-d886-4cf7-924d-95787a759587"},"vehicle_type_id":"4","last_reported":1711976844,"current_range_meters":0,"station_id":"ce4bgvp2rcd13ifvqcu0","pricing_plan_id":"cebpf4jnsgd1na2vs0mg"},{"bike_id":"15527c72-4eca-47ba-a2e6-b9896a1fc5ba","system_id":"levelo_inurba_marseille","lat":43.292005,"lon":5.357875,"is_reserved":false,"is_disabled":false,"rental_uris":{"android":"levelo://app?vid=15527c72-4eca-47ba-a2e6-b9896a1fc5ba","ios":"levelo://app?vid=15527c72-4eca-47ba-a2e6-b9896a1fc5ba"},"vehicle_type_id":"4","last_reported":1711976844,"current_range_meters":13200,"station_id":"ce4bhb12rcd13ifvqel0","pricing_plan_id":"cebpf4jnsgd1na2vs0mg"},{"bike_id":"988d09cb-a747-4747-bfaf-1f2255313636","system_id":"levelo_inurba_marseille","lat":43.31337,"lon":5.39691,"is_reserved":false,"is_disabled":false,"rental_uris":{"android":"levelo://app?vid=988d09cb-a747-4747-bfaf-1f2255313636","ios":"levelo://app?vid=988d09cb-a747-4747-bfaf-1f2255313636"},"vehicle_type_id":"4","last_reported":1711976844,"current_range_meters":11600,"station_id":"ce4bgvp2rcd13ifvqcu0","pricing_plan_id":"cebpf4jnsgd1na2vs0mg"},{"bike_id":"600b59b6-09cf-45e9-8e3b-2defba774475","system_id":"levelo_inurba_marseille","lat":43.291994,"lon":5.357886,"is_reserved":false,"is_disabled":false,"rental_uris":{"android":"levelo://app?vid=600b59b6-09cf-45e9-8e3b-2defba774475","ios":"levelo://app?vid=600b59b6-09cf-45e9-8e3b-2defba774475"},"vehicle_type_id":"4","last_reported":1711976844,"current_range_meters":27600,"station_id":"ce4bhb12rcd13ifvqel0","pricing_plan_id":"cebpf4jnsgd1na2vs0mg"},{"bike_id":"c54f7fcd-c3de-4129-87a4-6b76192203b0","system_id":"levelo_inurba_marseille","lat":43.31331,"lon":5.39692,"is_reserved":false,"is_disabled":false,"rental_uris":{"android":"levelo://app?vid=c54f7fcd-c3de-4129-87a4-6b76192203b0","ios":"levelo://app?vid=c54f7fcd-c3de-4129-87a4-6b76192203b0"},"vehicle_type_id":"4","last_reported":1711976844,"current_range_meters":24800,"station_id":"ce4bgvp2rcd13ifvqcu0","pricing_plan_id":"cebpf4jnsgd1na2vs0mg"},{"bike_id":"6f434413-8c5b-45c7-9576-11c1ed5363bf","system_id":"levelo_inurba_marseille","lat":43.31331,"lon":5.39694,"is_reserved":false,"is_disabled":false,"rental_uris":{"android":"levelo://app?vid=6f434413-8c5b-45c7-9576-11c1ed5363bf","ios":"levelo://app?vid=6f434413-8c5b-45c7-9576-11c1ed5363bf"},"vehicle_type_id":"4","last_reported":1711976844,"current_range_meters":31200,"station_id":"ce4bgvp2rcd13ifvqcu0","pricing_plan_id":"cebpf4jnsgd1na2vs0mg"},{"bike_id":"9f8b0551-fe2f-43eb-b43e-e864d2c4ee4d","system_id":"levelo_inurba_marseille","lat":43.3133,"lon":5.396949,"is_reserved":false,"is_disabled":false,"rental_uris":{"android":"levelo://app?vid=9f8b0551-fe2f-43eb-b43e-e864d2c4ee4d","ios":"levelo://app?vid=9f8b0551-fe2f-43eb-b43e-e864d2c4ee4d"},"vehicle_type_id":"4","last_reported":1711976844,"current_range_meters":11600,"station_id":"ce4bgvp2rcd13ifvqcu0","pricing_plan_id":"cebpf4jnsgd1na2vs0mg"},{"bike_id":"a5b40d28-0246-473a-bf6c-2e62385e02be","system_id":"levelo_inurba_marseille","lat":43.31333,"lon":5.39696,"is_reserved":false,"is_disabled":false,"rental_uris":{"android":"levelo://app?vid=a5b40d28-0246-473a-bf6c-2e62385e02be","ios":"levelo://app?vid=a5b40d28-0246-473a-bf6c-2e62385e02be"},"vehicle_type_id":"4","last_reported":1711976844,"current_range_meters":22000,"station_id":"ce4bgvp2rcd13ifvqcu0","pricing_plan_id":"cebpf4jnsgd1na2vs0mg"},{"bike_id":"60412e7b-0627-42c1-9749-95df5db7a93e","system_id":"levelo_inurba_marseille","lat":43.291885,"lon":5.35791,"is_reserved":false,"is_disabled":false,"rental_uris":{"android":"levelo://app?vid=60412e7b-0627-42c1-9749-95df5db7a93e","ios":"levelo://app?vid=60412e7b-0627-42c1-9749-95df5db7a93e"},"vehicle_type_id":"4","last_reported":1711976844,"current_range_meters":22000,"station_id":"ce4bhb12rcd13ifvqel0","pricing_plan_id":"cebpf4jnsgd1na2vs0mg"},{"bike_id":"14aff644-a1ad-4dab-88f5-69a39c37530a","system_id":"levelo_inurba_marseille","lat":43.31332,"lon":5.39697,"is_reserved":false,"is_disabled":false,"rental_uris":{"android":"levelo://app?vid=14aff644-a1ad-4dab-88f5-69a39c37530a","ios":"levelo://app?vid=14aff644-a1ad-4dab-88f5-69a39c37530a"},"vehicle_type_id":"4","last_reported":1711976844,"current_range_meters":0,"station_id":"ce4bgvp2rcd13ifvqcu0","pricing_plan_id":"cebpf4jnsgd1na2vs0mg"},{"bike_id":"9f1d1ebf-1b98-4edf-ab84-f77ac9bd3f4f","system_id":"levelo_inurba_marseille","lat":43.29186,"lon":5.35794,"is_reserved":false,"is_disabled":false,"rental_uris":{"android":"levelo://app?vid=9f1d1ebf-1b98-4edf-ab84-f77ac9bd3f4f","ios":"levelo://app?vid=9f1d1ebf-1b98-4edf-ab84-f77ac9bd3f4f"},"vehicle_type_id":"4","last_reported":1711976844,"current_range_meters":4400,"station_id":"ce4bhb12rcd13ifvqel0","pricing_plan_id":"cebpf4jnsgd1na2vs0mg"},{"bike_id":"2b694901-41a2-4521-b6aa-7fa8eca51e6a","system_id":"levelo_inurba_marseille","lat":43.291855,"lon":5.357928,"is_reserved":false,"is_disabled":false,"rental_uris":{"android":"levelo://app?vid=2b694901-41a2-4521-b6aa-7fa8eca51e6a","ios":"levelo://app?vid=2b694901-41a2-4521-b6aa-7fa8eca51e6a"},"vehicle_type_id":"4","last_reported":1711976844,"current_range_meters":1200,"station_id":"ce4bhb12rcd13ifvqel0","pricing_plan_id":"cebpf4jnsgd1na2vs0mg"},{"bike_id":"553be6ba-c65d-4cef-80a9-9bd5e9dea82e","system_id":"levelo_inurba_marseille","lat":43.328077,"lon":5.388814,"is_reserved":false,"is_disabled":false,"rental_uris":{"android":"levelo://app?vid=553be6ba-c65d-4cef-80a9-9bd5e9dea82e","ios":"levelo://app?vid=553be6ba-c65d-4cef-80a9-9bd5e9dea82e"},"vehicle_type_id":"4","last_reported":1711976844,"current_range_meters":800,"station_id":"","pricing_plan_id":"cebpf4jnsgd1na2vs0mg"},{"bike_id":"0377fe2c-7cc4-4970-a023-b69b1e129b3f","system_id":"levelo_inurba_marseille","lat":43.290631,"lon":5.359244,"is_reserved":false,"is_disabled":false,"rental_uris":{"android":"levelo://app?vid=0377fe2c-7cc4-4970-a023-b69b1e129b3f","ios":"levelo://app?vid=0377fe2c-7cc4-4970-a023-b69b1e129b3f"},"vehicle_type_id":"4","last_reported":1711976844,"current_range_meters":20000,"station_id":"ce4bha92rcd13ifvqeg0","pricing_plan_id":"cebpf4jnsgd1na2vs0mg"},{"bike_id":"16e1de44-596f-4e6e-a3d9-b1310851cd25","system_id":"levelo_inurba_marseille","lat":43.289184,"lon":5.366408,"is_reserved":false,"is_disabled":false,"rental_uris":{"android":"levelo://app?vid=16e1de44-596f-4e6e-a3d9-b1310851cd25","ios":"levelo://app?vid=16e1de44-596f-4e6e-a3d9-b1310851cd25"},"vehicle_type_id":"4","last_reported":1711976844,"current_range_meters":13600,"station_id":"ce4bhap2rcd13ifvqek0","pricing_plan_id":"cebpf4jnsgd1na2vs0mg"},{"bike_id":"20dcb717-8837-4c9d-993f-84f5f390e875","system_id":"levelo_inurba_marseille","lat":43.289468,"lon":5.363719,"is_reserved":false,"is_disabled":false,"rental_uris":{"android":"levelo://app?vid=20dcb717-8837-4c9d-993f-84f5f390e875","ios":"levelo://app?vid=20dcb717-8837-4c9d-993f-84f5f390e875"},"vehicle_type_id":"4","last_reported":1711976844,"current_range_meters":10000,"station_id":"ce4bhc92rcd13ifvqetg","pricing_plan_id":"cebpf4jnsgd1na2vs0mg"},{"bike_id":"c4ee2bfc-8457-4e7c-be52-276321cd331f","system_id":"levelo_inurba_marseille","lat":43.313391,"lon":5.36706,"is_reserved":false,"is_disabled":false,"rental_uris":{"android":"levelo://app?vid=c4ee2bfc-8457-4e7c-be52-276321cd331f","ios":"levelo://app?vid=c4ee2bfc-8457-4e7c-be52-276321cd331f"},"vehicle_type_id":"4","last_reported":1711976844,"current_range_meters":8000,"station_id":"ce4bgr92rcd13ifvqc6g","pricing_plan_id":"cebpf4jnsgd1na2vs0mg"},{"bike_id":"e5b348e2-5899-465e-9f68-0c0b3a7db23e","system_id":"levelo_inurba_marseille","lat":43.290104,"lon":5.356111,"is_reserved":false,"is_disabled":false,"rental_uris":{"android":"levelo://app?vid=e5b348e2-5899-465e-9f68-0c0b3a7db23e","ios":"levelo://app?vid=e5b348e2-5899-465e-9f68-0c0b3a7db23e"},"vehicle_type_id":"4","last_reported":1711976844,"current_range_meters":0,"station_id":"ce4bhb92rcd13ifvqen0","pricing_plan_id":"cebpf4jnsgd1na2vs0mg"},{"bike_id":"52f908f7-d3a7-4ef2-8caa-6a032e2c52df","system_id":"levelo_inurba_marseille","lat":43.296129,"lon":5.370777,"is_reserved":false,"is_disabled":false,"rental_uris":{"android":"levelo://app?vid=52f908f7-d3a7-4ef2-8caa-6a032e2c52df","ios":"levelo://app?vid=52f908f7-d3a7-4ef2-8caa-6a032e2c52df"},"vehicle_type_id":"4","last_reported":1711976844,"current_range_meters":11200,"station_id":"ce4bgnh2rcd13ifvqc0g","pricing_plan_id":"cebpf4jnsgd1na2vs0mg"},{"bike_id":"6c883a85-594e-4827-939c-4cdb1af375a2","system_id":"levelo_inurba_marseille","lat":43.290104,"lon":5.356111,"is_reserved":false,"is_disabled":false,"rental_uris":{"android":"levelo://app?vid=6c883a85-594e-4827-939c-4cdb1af375a2","ios":"levelo://app?vid=6c883a85-594e-4827-939c-4cdb1af375a2"},"vehicle_type_id":"4","last_reported":1711976844,"current_range_meters":14400,"station_id":"ce4bhb92rcd13ifvqen0","pricing_plan_id":"cebpf4jnsgd1na2vs0mg"},{"bike_id":"7e69282c-2cc8-4823-b9ee-2ccef2eb10cc","system_id":"levelo_inurba_marseille","lat":43.290104,"lon":5.356111,"is_reserved":false,"is_disabled":false,"rental_uris":{"android":"levelo://app?vid=7e69282c-2cc8-4823-b9ee-2ccef2eb10cc","ios":"levelo://app?vid=7e69282c-2cc8-4823-b9ee-2ccef2eb10cc"},"vehicle_type_id":"4","last_reported":1711976844,"current_range_meters":19600,"station_id":"ce4bhb92rcd13ifvqen0","pricing_plan_id":"cebpf4jnsgd1na2vs0mg"},{"bike_id":"c1fe7a1d-e106-4334-8051-2b34b900e6d3","system_id":"levelo_inurba_marseille","lat":43.290104,"lon":5.356111,"is_reserved":false,"is_disabled":false,"rental_uris":{"android":"levelo://app?vid=c1fe7a1d-e106-4334-8051-2b34b900e6d3","ios":"levelo://app?vid=c1fe7a1d-e106-4334-8051-2b34b900e6d3"},"vehicle_type_id":"4","last_reported":1711976844,"current_range_meters":31200,"station_id":"ce4bhb92rcd13ifvqen0","pricing_plan_id":"cebpf4jnsgd1na2vs0mg"},{"bike_id":"c0170a8d-6b34-4fdb-b0e3-bb90ee61890d","system_id":"levelo_inurba_marseille","lat":43.290104,"lon":5.356111,"is_reserved":false,"is_disabled":false,"rental_uris":{"android":"levelo://app?vid=c0170a8d-6b34-4fdb-b0e3-bb90ee61890d","ios":"levelo://app?vid=c0170a8d-6b34-4fdb-b0e3-bb90ee61890d"},"vehicle_type_id":"4","last_reported":1711976844,"current_range_meters":30000,"station_id":"ce4bhb92rcd13ifvqen0","pricing_plan_id":"cebpf4jnsgd1na2vs0mg"},{"bike_id":"2a7f3fa2-b4fe-4140-941b-ae98a5c927dc","system_id":"levelo_inurba_marseille","lat":43.290104,"lon":5.356111,"is_reserved":false,"is_disabled":false,"rental_uris":{"android":"levelo://app?vid=2a7f3fa2-b4fe-4140-941b-ae98a5c927dc","ios":"levelo://app?vid=2a7f3fa2-b4fe-4140-941b-ae98a5c927dc"},"vehicle_type_id":"4","last_reported":1711976844,"current_range_meters":20400,"station_id":"ce4bhb92rcd13ifvqen0","pricing_plan_id":"cebpf4jnsgd1na2vs0mg"},{"bike_id":"8b3e8f4c-7d93-4839-97aa-19a97ebab074","system_id":"levelo_inurba_marseille","lat":43.290104,"lon":5.356111,"is_reserved":false,"is_disabled":false,"rental_uris":{"android":"levelo://app?vid=8b3e8f4c-7d93-4839-97aa-19a97ebab074","ios":"levelo://app?vid=8b3e8f4c-7d93-4839-97aa-19a97ebab074"},"vehicle_type_id":"4","last_reported":1711976844,"current_range_meters":16400,"station_id":"ce4bhb92rcd13ifvqen0","pricing_plan_id":"cebpf4jnsgd1na2vs0mg"},{"bike_id":"73b7409d-2019-42ca-bf3f-2911663307e3","system_id":"levelo_inurba_marseille","lat":43.290103,"lon":5.356114,"is_reserved":false,"is_disabled":false,"rental_uris":{"android":"levelo://app?vid=73b7409d-2019-42ca-bf3f-2911663307e3","ios":"levelo://app?vid=73b7409d-2019-42ca-bf3f-2911663307e3"},"vehicle_type_id":"4","last_reported":1711976844,"current_range_meters":17600,"station_id":"ce4bhb92rcd13ifvqen0","pricing_plan_id":"cebpf4jnsgd1na2vs0mg"},{"bike_id":"a0f562df-0273-4dab-b446-94ba5a098a4b","system_id":"levelo_inurba_marseille","lat":43.290104,"lon":5.356111,"is_reserved":false,"is_disabled":false,"rental_uris":{"android":"levelo://app?vid=a0f562df-0273-4dab-b446-94ba5a098a4b","ios":"levelo://app?vid=a0f562df-0273-4dab-b446-94ba5a098a4b"},"vehicle_type_id":"4","last_reported":1711976844,"current_range_meters":27600,"station_id":"ce4bhb92rcd13ifvqen0","pricing_plan_id":"cebpf4jnsgd1na2vs0mg"},{"bike_id":"c133edfb-8112-4982-a844-2527518dde97","system_id":"levelo_inurba_marseille","lat":43.330442,"lon":5.389148,"is_reserved":false,"is_disabled":false,"rental_uris":{"android":"levelo://app?vid=c133edfb-8112-4982-a844-2527518dde97","ios":"levelo://app?vid=c133edfb-8112-4982-a844-2527518dde97"},"vehicle_type_id":"4","last_reported":1711976844,"current_range_meters":21200,"station_id":"ce4bhr92rcd13ifvqhrg","pricing_plan_id":"cebpf4jnsgd1na2vs0mg"},{"bike_id":"a217f175-8bd5-4c11-9d73-a27a3f3a90cc","system_id":"levelo_inurba_marseille","lat":43.330442,"lon":5.389148,"is_reserved":false,"is_disabled":false,"rental_uris":{"android":"levelo://app?vid=a217f175-8bd5-4c11-9d73-a27a3f3a90cc","ios":"levelo://app?vid=a217f175-8bd5-4c11-9d73-a27a3f3a90cc"},"vehicle_type_id":"4","last_reported":1711976844,"current_range_meters":2400,"station_id":"ce4bhr92rcd13ifvqhrg","pricing_plan_id":"cebpf4jnsgd1na2vs0mg"},{"bike_id":"b953551b-4d9e-4ba9-9558-9049748de300","system_id":"levelo_inurba_marseille","lat":43.309076,"lon":5.368465,"is_reserved":false,"is_disabled":false,"rental_uris":{"android":"levelo://app?vid=b953551b-4d9e-4ba9-9558-9049748de300","ios":"levelo://app?vid=b953551b-4d9e-4ba9-9558-9049748de300"},"vehicle_type_id":"4","last_reported":1711976844,"current_range_meters":4000,"station_id":"ce4bgn92rcd13ifvqbvg","pricing_plan_id":"cebpf4jnsgd1na2vs0mg"},