{"last_updated":1746457874,"ttl":60,"version":"2.2","data":{"bikes":[{"bike_id":"efc62ce5-203d-4de9-ba4e-b3278015039f","system_id":"levelo_inurba_marseille","lat":43.29971,"lon":5.38507,"is_reserved":false,"is_disabled":false,"rental_uris":{"android":"levelo://app?vid=efc62ce5-203d-4de9-ba4e-b3278015039f","ios":"levelo://app?vid=efc62ce5-203d-4de9-ba4e-b3278015039f"},"vehicle_type_id":"4","last_reported":1746457874,"current_range_meters":2800,"station_id":"ce4bgj92rcd13ifvqbd0","pricing_plan_id":"cebpf4jnsgd1na2vs0mg"},{"bike_id":"eb898817-b374-4cef-a0b6-9e75ab62e0cb","system_id":"levelo_inurba_marseille","lat":43.250013,"lon":5.389251,"is_reserved":false,"is_disabled":false,"rental_uris":{"android":"levelo://app?vid=eb898817-b374-4cef-a0b6-9e75ab62e0cb","ios":"levelo://app?vid=eb898817-b374-4cef-a0b6-9e75ab62e0cb"},"vehicle_type_id":"4","last_reported":1746457874,"current_range_meters":2800,"station_id":"ce4bhgp2rcd13ifvqfd0","pricing_plan_id":"cebpf4jnsgd1na2vs0mg"},{"bike_id":"1a6a5ad0-8698-4061-8513-5d78e790689d","system_id":"levelo_inurba_marseille","lat":43.28571,"lon":5.39499,"is_reserved":false,"is_disabled":false,"rental_uris":{"android":"levelo://app?vid=1a6a5ad0-8698-4061-8513-5d78e790689d","ios":"levelo://app?vid=1a6a5ad0-8698-4061-8513-5d78e790689d"},"vehicle_type_id":"4","last_reported":1746457874,"current_range_meters":3200,"station_id":"ce4bh292rcd13ifvqdg0","pricing_plan_id":"cebpf4jnsgd1na2vs0mg"},{"bike_id":"76670916-7d74-4da2-9bae-c1fa83336515","system_id":"levelo_inurba_marseille","lat":43.284665,"lon":5.358893,"is_reserved":false,"is_disabled":false,"rental_uris":{"android":"levelo://app?vid=76670916-7d74-4da2-9bae-c1fa83336515","ios":"levelo://app?vid=76670916-7d74-4da2-9bae-c1fa83336515"},"vehicle_type_id":"4","last_reported":1746457874,"current_range_meters":3200,"station_id":"ce4bhah2rcd13ifvqei0","pricing_plan_id":"cebpf4jnsgd1na2vs0mg"},{"bike_id":"41983149-5e2d-4175-98a4-85ea37963d75","system_id":"levelo_inurba_marseille","lat":43.26943,"lon":5.40264,"is_reserved":false,"is_disabled":false,"rental_uris":{"android":"levelo://app?vid=41983149-5e2d-4175-98a4-85ea37963d75","ios":"levelo://app?vid=41983149-5e2d-4175-98a4-85ea37963d75"},"vehicle_type_id":"4","last_reported":1746457874,"current_range_meters":3200,"station_id":"cjm6bp8fraef2m0cb0m0","pricing_plan_id":"cebpf4jnsgd1na2vs0mg"},{"bike_id":"1f71b3b4-71c4-49b5-96eb-3545dcc6a0f7","system_id":"levelo_inurba_marseille","lat":43.21749,"lon":5.346032,"is_reserved":false,"is_disabled":false,"rental_uris":{"android":"levelo://app?vid=1f71b3b4-71c4-49b5-96eb-3545dcc6a0f7","ios":"levelo://app?vid=1f71b3b4-71c4-49b5-96eb-3545dcc6a0f7"},"vehicle_type_id":"4","last_reported":1746457874,"current_range_meters":3200,"station_id":"","pricing_plan_id":"cebpf4jnsgd1na2vs0mg"},{"bike_id":"a87c5762-f19a-4b7e-b381-7a9e003cc172","system_id":"levelo_inurba_marseille","lat":43.29271,"lon":5.38438,"is_reserved":false,"is_disabled":false,"rental_uris":{"android":"levelo://app?vid=a87c5762-f19a-4b7e-b381-7a9e003cc172","ios":"levelo://app?vid=a87c5762-f19a-4b7e-b381-7a9e003cc172"},"vehicle_type_id":"4","last_reported":1746457874,"current_range_meters":3600,"station_id":"ce4bh692rcd13ifvqea0","pricing_plan_id":"cebpf4jnsgd1na2vs0mg"},{"bike_id":"fb21307b-9c10-4f47-a427-6c5a7e7aa3f3","system_id":"levelo_inurba_marseille","lat":43.30217,"lon":5.39468,"is_reserved":false,"is_disabled":false,"rental_uris":{"android":"levelo://app?vid=fb21307b-9c10-4f47-a427-6c5a7e7aa3f3","ios":"levelo://app?vid=fb21307b-9c10-4f47-a427-6c5a7e7aa3f3"},"vehicle_type_id":"4","last_reported":1746457874,"current_range_meters":3600,"station_id":"ce4bh0p2rcd13ifvqd70","pricing_plan_id":"cebpf4jnsgd1na2vs0mg"},{"bike_id":"72ce879e-d715-493f-958a-46f9c7d119d9","system_id":"levelo_inurba_marseille","lat":43.32893,"lon":5.383,"is_reserved":false,"is_disabled":false,"rental_uris":{"android":"levelo://app?vid=72ce879e-d715-493f-958a-46f9c7d119d9","ios":"levelo://app?vid=72ce879e-d715-493f-958a-46f9c7d119d9"},"vehicle_type_id":"4","last_reported":1746457874,"current_range_meters":3600,"station_id":"","pricing_plan_id":"cebpf4jnsgd1na2vs0mg"},{"bike_id":"1e11db65-99f2-434d-9f68-d63583be4916","system_id":"levelo_inurba_marseille","lat":43.29911,"lon":5.38145,"is_reserved":false,"is_disabled":false,"rental_uris":{"android":"levelo://app?vid=1e11db65-99f2-434d-9f68-d63583be4916","ios":"levelo://app?vid=1e11db65-99f2-434d-9f68-d63583be4916"},"vehicle_type_id":"4","last_reported":1746457874,"current_range_meters":3200,"station_id":"ce4bgj12rcd13ifvqbc0","pricing_plan_id":"cebpf4jnsgd1na2vs0mg"},{"bike_id":"87b2304b-ba54-4eb0-97e1-009d5f88277d","system_id":"levelo_inurba_marseille","lat":43.28845,"lon":5.39325,"is_reserved":false,"is_disabled":false,"rental_uris":{"android":"levelo://app?vid=87b2304b-ba54-4eb0-97e1-009d5f88277d","ios":"levelo://app?vid=87b2304b-ba54-4eb0-97e1-009d5f88277d"},"vehicle_type_id":"4","last_reported":1746457874,"current_range_meters":3200,"station_id":"ce4bh2p2rcd13ifvqdi0","pricing_plan_id":"cebpf4jnsgd1na2vs0mg"},{"bike_id":"29ad1899-be93-42f3-84fd-82b218a91657","system_id":"levelo_inurba_marseille","lat":43.30751,"lon":5.4004,"is_reserved":false,"is_disabled":false,"rental_uris":{"android":"levelo://app?vid=29ad1899-be93-42f3-84fd-82b218a91657","ios":"levelo://app?vid=29ad1899-be93-42f3-84fd-82b218a91657"},"vehicle_type_id":"4","last_reported":1746457874,"current_range_meters":3600,"station_id":"","pricing_plan_id":"cebpf4jnsgd1na2vs0mg"},{"bike_id":"088ba929-6fc1-46c2-9445-89f6653cd3bd","system_id":"levelo_inurba_marseille","lat":43.2694,"lon":5.40264,"is_reserved":false,"is_disabled":false,"rental_uris":{"android":"levelo://app?vid=088ba929-6fc1-46c2-9445-89f6653cd3bd","ios":"levelo://app?vid=088ba929-6fc1-46c2-9445-89f6653cd3bd"},"vehicle_type_id":"4","last_reported":1746457874,"current_range_meters":4000,"station_id":"cjm6bp8fraef2m0cb0m0","pricing_plan_id":"cebpf4jnsgd1na2vs0mg"},{"bike_id":"3476b044-71ff-4a8a-b446-605a63849426","system_id":"levelo_inurba_marseille","lat":43.29261,"lon":5.37632,"is_reserved":false,"is_disabled":false,"rental_uris":{"android":"levelo://app?vid=3476b044-71ff-4a8a-b446-605a63849426","ios":"levelo://app?vid=3476b044-71ff-4a8a-b446-605a63849426"},"vehicle_type_id":"4","last_reported":1746457874,"current_range_meters":4000,"station_id":"ce4bgi12rcd13ifvqb80","pricing_plan_id":"cebpf4jnsgd1na2vs0mg"},{"bike_id":"7b17dca9-b0e4-4171-96e0-542e5b3dd5b8","system_id":"levelo_inurba_marseille","lat":43.294047,"lon":5.386522,"is_reserved":false,"is_disabled":false,"rental_uris":{"android":"levelo://app?vid=7b17dca9-b0e4-4171-96e0-542e5b3dd5b8","ios":"levelo://app?vid=7b17dca9-b0e4-4171-96e0-542e5b3dd5b8"},"vehicle_type_id":"4","last_reported":1746457874,"current_range_meters":4000,"station_id":"ce4bh2h2rcd13ifvqdh0","pricing_plan_id":"cebpf4jnsgd1na2vs0mg"},{"bike_id":"a9b6e54e-c9a6-469e-bfc9-2b4a9486c682","system_id":"levelo_inurba_marseille","lat":43.30597,"lon":5.37234,"is_reserved":false,"is_disabled":false,"rental_uris":{"android":"levelo://app?vid=a9b6e54e-c9a6-469e-bfc9-2b4a9486c682","ios":"levelo://app?vid=a9b6e54e-c9a6-469e-bfc9-2b4a9486c682"},"vehicle_type_id":"4","last_reported":1746457874,"current_range_meters":4400,"station_id":"ce4bgqh2rcd13ifvqc4g","pricing_plan_id":"cebpf4jnsgd1na2vs0mg"},{"bike_id":"1bc7af09-5fcd-4960-bf7f-6b5429095807","system_id":"levelo_inurba_marseille","lat":43.29795,"lon":5.39344,"is_reserved":false,"is_disabled":false,"rental_uris":{"android":"levelo://app?vid=1bc7af09-5fcd-4960-bf7f-6b5429095807","ios":"levelo://app?vid=1bc7af09-5fcd-4960-bf7f-6b5429095807"},"vehicle_type_id":"4","last_reported":1746457874,"current_range_meters":4400,"station_id":"chh1huq6cuj3fo74tm60","pricing_plan_id":"cebpf4jnsgd1na2vs0mg"},{"bike_id":"3a4df137-b090-4e97-acf4-62f782cb3c61","system_id":"levelo_inurba_marseille","lat":43.254948,"lon":5.376467,"is_reserved":false,"is_disabled":false,"rental_uris":{"android":"levelo://app?vid=3a4df137-b090-4e97-acf4-62f782cb3c61","ios":"levelo://app?vid=3a4df137-b090-4e97-acf4-62f782cb3c61"},"vehicle_type_id":"4","last_reported":1746457874,"current_range_meters":4800,"station_id":"ce4bhh12rcd13ifvqff0","pricing_plan_id":"cebpf4jnsgd1na2vs0mg"},{"bike_id":"fedf72f4-0437-48db-afd3-5f8fc0bb6b93","system_id":"levelo_inurba_marseille","lat":43.27388,"lon":5.39016,"is_reserved":false,"is_disabled":false,"rental_uris":{"android":"levelo://app?vid=fedf72f4-0437-48db-afd3-5f8fc0bb6b93","ios":"levelo://app?vid=fedf72f4-0437-48db-afd3-5f8fc0bb6b93"},"vehicle_type_id":"4","last_reported":1746457874,"current_range_meters":5600,"station_id":"","pricing_plan_id":"cebpf4jnsgd1na2vs0mg"},{"bike_id":"158ef965-63b7-4e6b-8d1f-19cab1ec7d12","system_id":"levelo_inurba_marseille","lat":43.28459,"lon":5.3589,"is_reserved":false,"is_disabled":false,"rental_uris":{"android":"levelo://app?vid=158ef965-63b7-4e6b-8d1f-19cab1ec7d12","ios":"levelo://app?vid=158ef965-63b7-4e6b-8d1f-19cab1ec7d12"},"vehicle_type_id":"4","last_reported":1746457874,"current_range_meters":5600,"station_id":"ce4bhah2rcd13ifvqei0","pricing_plan_id":"cebpf4jnsgd1na2vs0mg"},{"bike_id":"e0b23479-d77a-4588-846b-119d32ffd651","system_id":"levelo_inurba_marseille","lat":43.28571,"lon":5.39502,"is_reserved":false,"is_disabled":false,"rental_uris":{"android":"levelo://app?vid=e0b23479-d77a-4588-846b-119d32ffd651","ios":"levelo://app?vid=e0b23479-d77a-4588-846b-119d32ffd651"},"vehicle_type_id":"4","last_reported":1746457874,"current_range_meters":5600,"station_id":"ce4bh292rcd13ifvqdg0","pricing_plan_id":"cebpf4jnsgd1na2vs0mg"},{"bike_id":"886df8c2-a926-4209-962a-e72ed2686d58","system_id":"levelo_inurba_marseille","lat":43.31114,"lon":5.37763,"is_reserved":false,"is_disabled":false,"rental_uris":{"android":"levelo://app?vid=886df8c2-a926-4209-962a-e72ed2686d58","ios":"levelo://app?vid=886df8c2-a926-4209-962a-e72ed2686d58"},"vehicle_type_id":"4","last_reported":1746457874,"current_range_meters":6000,"station_id":"ce4bgt92rcd13ifvqcg0","pricing_plan_id":"cebpf4jnsgd1na2vs0mg"},{"bike_id":"04ae0066-267e-4f52-b48c-c722ec591f3d","system_id":"levelo_inurba_marseille","lat":43.29006,"lon":5.35611,"is_reserved":false,"is_disabled":false,"rental_uris":{"android":"levelo://app?vid=04ae0066-267e-4f52-b48c-c722ec591f3d","ios":"levelo://app?vid=04ae0066-267e-4f52-b48c-c722ec591f3d"},"vehicle_type_id":"4","last_reported":1746457874,"current_range_meters":6000,"station_id":"ce4bhb92rcd13ifvqen0","pricing_plan_id":"cebpf4jnsgd1na2vs0mg"},{"bike_id":"742d2f10-8ea5-4696-95cc-14ff01e1235e","system_id":"levelo_inurba_marseille","lat":43.28454,"lon":5.35889,"is_reserved":false,"is_disabled":false,"rental_uris":{"android":"levelo://app?vid=742d2f10-8ea5-4696-95cc-14ff01e1235e","ios":"levelo://app?vid=742d2f10-8ea5-4696-95cc-14ff01e1235e"},"vehicle_type_id":"4","last_reported":1746457874,"current_range_meters":6000,"station_id":"ce4bhah2rcd13ifvqei0","pricing_plan_id":"cebpf4jnsgd1na2vs0mg"},{"bike_id":"cdc1668f-85ab-439d-adf5-10582e30c671","system_id":"levelo_inurba_marseille","lat":43.30728,"lon":5.42428,"is_reserved":false,"is_disabled":false,"rental_uris":{"android":"levelo://app?vid=cdc1668f-85ab-439d-adf5-10582e30c671","ios":"levelo://app?vid=cdc1668f-85ab-439d-adf5-10582e30c671"},"vehicle_type_id":"4","last_reported":1746457874,"current_range_meters":6000,"station_id":"st_cvj6ca6bvosntc0bfgr0","pricing_plan_id":"cebpf4jnsgd1na2vs0mg"},{"bike_id":"7e8f093a-f32e-4b81-9adf-946e36f18dd0","system_id":"levelo_inurba_marseille","lat":43.26221,"lon":5.37438,"is_reserved":false,"is_disabled":false,"rental_uris":{"android":"levelo://app?vid=7e8f093a-f32e-4b81-9adf-946e36f18dd0","ios":"levelo://app?vid=7e8f093a-f32e-4b81-9adf-946e36f18dd0"},"vehicle_type_id":"4","last_reported":1746457874,"current_range_meters":6400,"station_id":"ce4bhgp2rcd13ifvqfc0","pricing_plan_id":"cebpf4jnsgd1na2vs0mg"},{"bike_id":"db35f7ff-1f4a-4548-a9d7-775b42ae7be3","system_id":"levelo_inurba_marseille","lat":43.28705,"lon":5.39988,"is_reserved":false,"is_disabled":false,"rental_uris":{"android":"levelo://app?vid=db35f7ff-1f4a-4548-a9d7-775b42ae7be3","ios":"levelo://app?vid=db35f7ff-1f4a-4548-a9d7-775b42ae7be3"},"vehicle_type_id":"4","last_reported":1746457874,"current_range_meters":6400,"station_id":"ce4bho92rcd13ifvqh3g","pricing_plan_id":"cebpf4jnsgd1na2vs0mg"},{"bike_id":"cb6088e5-64f9-4685-a820-c3da8c9a0ed6","system_id":"levelo_inurba_marseille","lat":43.258362,"lon":5.399376,"is_reserved":false,"is_disabled":false,"rental_uris":{"android":"levelo://app?vid=cb6088e5-64f9-4685-a820-c3da8c9a0ed6","ios":"levelo://app?vid=cb6088e5-64f9-4685-a820-c3da8c9a0ed6"},"vehicle_type_id":"4","last_reported":1746457874,"current_range_meters":6800,"station_id":"ce4bhl92rcd13ifvqghg","pricing_plan_id":"cebpf4jnsgd1na2vs0mg"},{"bike_id":"ed07a573-dec7-428a-b8bd-6704574ba89d","system_id":"levelo_inurba_marseille","lat":43.278114,"lon":5.406852,"is_reserved":false,"is_disabled":false,"rental_uris":{"android":"levelo://app?vid=ed07a573-dec7-428a-b8bd-6704574ba89d","ios":"levelo://app?vid=ed07a573-dec7-428a-b8bd-6704574ba89d"},"vehicle_type_id":"4","last_reported":1746457874,"current_range_meters":6800,"station_id":"","pricing_plan_id":"cebpf4jnsgd1na2vs0mg"},{"bike_id":"e4eb158e-32b4-4f62-a43f-1dcbcf65bf2f","system_id":"levelo_inurba_marseille","lat":43.25826,"lon":5.39439,"is_reserved":false,"is_disabled":false,"rental_uris":{"android":"levelo://app?vid=e4eb158e-32b4-4f62-a43f-1dcbcf65bf2f","ios":"levelo://app?vid=e4eb158e-32b4-4f62-a43f-1dcbcf65bf2f"},"vehicle_type_id":"4","last_reported":1746457874,"current_range_meters":6800,"station_id":"ce4bhip2rcd13ifvqft0","pricing_plan_id":"cebpf4jnsgd1na2vs0mg"},{"bike_id":"c4f5b2cb-9c7f-4e93-a265-9b44d0128e51","system_id":"levelo_inurba_marseille","lat":43.28408,"lon":5.37512,"is_reserved":false,"is_disabled":false,"rental_uris":{"android":"levelo://app?vid=c4f5b2cb-9c7f-4e93-a265-9b44d0128e51","ios":"levelo://app?vid=c4f5b2cb-9c7f-4e93-a265-9b44d0128e51"},"vehicle_type_id":"4","last_reported":1746457874,"current_range_meters":6800,"station_id":"ce4bh412rcd13ifvqds0","pricing_plan_id":"cebpf4jnsgd1na2vs0mg"},{"bike_id":"8671f432-1724-41e7-9040-3e156f995106","system_id":"levelo_inurba_marseille","lat":43.24386,"lon":5.37064,"is_reserved":false,"is_disabled":false,"rental_uris":{"android":"levelo://app?vid=8671f432-1724-41e7-9040-3e156f995106","ios":"levelo://app?vid=8671f432-1724-41e7-9040-3e156f995106"},"vehicle_type_id":"4","last_reported":1746457874,"current_range_meters":6400,"station_id":"ce4bhhh2rcd13ifvqfk0","pricing_plan_id":"cebpf4jnsgd1na2vs0mg"},{"bike_id":"66b646b3-6352-44bb-9bfb-21570512e3e5","system_id":"levelo_inurba_marseille","lat":43.28115,"lon":5.40415,"is_reserved":false,"is_disabled":false,"rental_uris":{"android":"levelo://app?vid=66b646b3-6352-44bb-9bfb-21570512e3e5","ios":"levelo://app?vid=66b646b3-6352-44bb-9bfb-21570512e3e5"},"vehicle_type_id":"4","last_reported":1746457874,"current_range_meters":7200,"station_id":"","pricing_plan_id":"cebpf4jnsgd1na2vs0mg"},{"bike_id":"26dd9f4d-ce9e-4365-b279-fc9c56040cc4","system_id":"levelo_inurba_marseille","lat":43.32349,"lon":5.36716,"is_reserved":false,"is_disabled":false,"rental_uris":{"android":"levelo://app?vid=26dd9f4d-ce9e-4365-b279-fc9c56040cc4","ios":"levelo://app?vid=26dd9f4d-ce9e-4365-b279-fc9c56040cc4"},"vehicle_type_id":"4","last_reported":1746457874,"current_range_meters":7200,"station_id":"ce4bhsh2rcd13ifvqi2g","pricing_plan_id":"cebpf4jnsgd1na2vs0mg"},{"bike_id":"16d5e9ce-2ae5-4a76-bfca-4e904497de5c","system_id":"levelo_inurba_marseille","lat":43.28455,"lon":5.3589,"is_reserved":false,"is_disabled":false,"rental_uris":{"android":"levelo://app?vid=16d5e9ce-2ae5-4a76-bfca-4e904497de5c","ios":"levelo://app?vid=16d5e9ce-2ae5-4a76-bfca-4e904497de5c"},"vehicle_type_id":"4","last_reported":1746457874,"current_range_meters":8000,"station_id":"ce4bhah2rcd13ifvqei0","pricing_plan_id":"cebpf4jnsgd1na2vs0mg"},{"bike_id":"9dda1e11-8eac-4d06-a89a-fd90289c28a1","system_id":"levelo_inurba_marseille","lat":43.27907,"lon":5.38,"is_reserved":false,"is_disabled":false,"rental_uris":{"android":"levelo://app?vid=9dda1e11-8eac-4d06-a89a-fd90289c28a1","ios":"levelo://app?vid=9dda1e11-8eac-4d06-a89a-fd90289c28a1"},"vehicle_type_id":"4","last_reported":1746457874,"current_range_meters":8000,"station_id":"ce4bhf92rcd13ifvqf50","pricing_plan_id":"cebpf4jnsgd1na2vs0mg"},{"bike_id":"f4058794-639c-4973-ab5d-8009a25ee731","system_id":"levelo_inurba_marseille","lat":43.23968,"lon":5.36628,"is_reserved":false,"is_disabled":false,"rental_uris":{"android":"levelo://app?vid=f4058794-639c-4973-ab5d-8009a25ee731","ios":"levelo://app?vid=f4058794-639c-4973-ab5d-8009a25ee731"},"vehicle_type_id":"4","last_reported":1746457874,"current_range_meters":8400,"station_id":"ce4bhi12rcd13ifvqfp0","pricing_plan_id":"cebpf4jnsgd1na2vs0mg"},{"bike_id":"a850cf2e-533f-4d38-8025-e2242781de3e","system_id":"levelo_inurba_marseille","lat":43.23962,"lon":5.36633,"is_reserved":false,"is_disabled":false,"rental_uris":{"android":"levelo://app?vid=a850cf2e-533f-4d38-8025-e2242781de3e","ios":"levelo://app?vid=a850cf2e-533f-4d38-8025-e2242781de3e"},"vehicle_type_id":"4","last_reported":1746457874,"current_range_meters":8400,"station_id":"ce4bhi12rcd13ifvqfp0","pricing_plan_id":"cebpf4jnsgd1na2vs0mg"},{"bike_id":"db16832c-19d1-4bad-af9d-1f9369063c19","system_id":"levelo_inurba_marseille","lat":43.25851,"lon":5.39888,"is_reserved":false,"is_disabled":false,"rental_uris":{"android":"levelo://app?vid=db16832c-19d1-4bad-af9d-1f9369063c19","ios":"levelo://app?vid=db16832c-19d1-4bad-af9d-1f9369063c19"},"vehicle_type_id":"4","last_reported":1746457874,"current_range_meters":8400,"station_id":"ce4bhl92rcd13ifvqghg","pricing_plan_id":"cebpf4jnsgd1na2vs0mg"},{"bike_id":"a611f7d9-1159-4308-a6ea-f570defdef89","system_id":"levelo_inurba_marseille","lat":43.24653,"lon":5.38905,"is_reserved":false,"is_disabled":false,"rental_uris":{"android":"levelo://app?vid=a611f7d9-1159-4308-a6ea-f570defdef89","ios":"levelo://app?vid=a611f7d9-1159-4308-a6ea-f570defdef89"},"vehicle_type_id":"4","last_reported":1746457874,"current_range_meters":8400,"station_id":"ce4bhg12rcd13ifvqf60","pricing_plan_id":"cebpf4jnsgd1na2vs0mg"},{"bike_id":"a85e993e-7504-4719-b7e0-ff515eeb11ae","system_id":"levelo_inurba_marseille","lat":43.29007,"lon":5.35615,"is_reserved":false,"is_disabled":false,"rental_uris":{"android":"levelo://app?vid=a85e993e-7504-4719-b7e0-ff515eeb11ae","ios":"levelo://app?vid=a85e993e-7504-4719-b7e0-ff515eeb11ae"},"vehicle_type_id":"4","last_reported":1746457874,"current_range_meters":8400,"station_id":"ce4bhb92rcd13ifvqen0","pricing_plan_id":"cebpf4jnsgd1na2vs0mg"},{"bike_id":"65474360-194a-4219-b29e-22bdde1c5482","system_id":"levelo_inurba_marseille","lat":43.32059,"lon":5.41523,"is_reserved":false,"is_disabled":false,"rental_uris":{"android":"levelo://app?vid=65474360-194a-4219-b29e-22bdde1c5482","ios":"levelo://app?vid=65474360-194a-4219-b29e-22bdde1c5482"},"vehicle_type_id":"4","last_reported":1746457874,"current_range_meters":8800,"station_id":"ce4bhq92rcd13ifvqhkg","pricing_plan_id":"cebpf4jnsgd1na2vs0mg"},{"bike_id":"66f99520-eddc-46f9-8e56-ea297db3eccf","system_id":"levelo_inurba_marseille","lat":43.311356,"lon":5.377749,"is_reserved":false,"is_disabled":false,"rental_uris":{"android":"levelo://app?vid=66f99520-eddc-46f9-8e56-ea297db3eccf","ios":"levelo://app?vid=66f99520-eddc-46f9-8e56-ea297db3eccf"},"vehicle_type_id":"4","last_reported":1746457874,"current_range_meters":8800,"station_id":"ce4bgt92rcd13ifvqcg0","pricing_plan_id":"cebpf4jnsgd1na2vs0mg"},{"bike_id":"7095a240-7492-4f71-87d5-9e313cf4c4ac","system_id":"levelo_inurba_marseille","lat":43.2953,"lon":5.38536,"is_reserved":false,"is_disabled":false,"rental_uris":{"android":"levelo://app?vid=7095a240-7492-4f71-87d5-9e313cf4c4ac","ios":"levelo://app?vid=7095a240-7492-4f71-87d5-9e313cf4c4ac"},"vehicle_type_id":"4","last_reported":1746457874,"current_range_meters":8400,"station_id":"ce4bgih2rcd13ifvqba0","pricing_plan_id":"cebpf4jnsgd1na2vs0mg"},{"bike_id":"dde77f7b-722d-4765-b105-b453e273eb3a","system_id":"levelo_inurba_marseille","lat":43.241763,"lon":5.397247,"is_reserved":false,"is_disabled":false,"rental_uris":{"android":"levelo://app?vid=dde77f7b-722d-4765-b105-b453e273eb3a","ios":"levelo://app?vid=dde77f7b-722d-4765-b105-b453e273eb3a"},"vehicle_type_id":"4","last_reported":1746457874,"current_range_meters":8800,"station_id":"ce4bhn12rcd13ifvqgpg","pricing_plan_id":"cebpf4jnsgd1na2vs0mg"},{"bike_id":"47d4a63d-bab1-43ad-9290-2f089fc0e561","system_id":"levelo_inurba_marseille","lat":43.312261,"lon":5.368605,"is_reserved":false,"is_disabled":false,"rental_uris":{"android":"levelo://app?vid=47d4a63d-bab1-43ad-9290-2f089fc0e561","ios":"levelo://app?vid=47d4a63d-bab1-43ad-9290-2f089fc0e561"},"vehicle_type_id":"4","last_reported":1746457874,"current_range_meters":8800,"station_id":"ce4bgl92rcd13ifvqbq0","pricing_plan_id":"cebpf4jnsgd1na2vs0mg"},{"bike_id":"5c7249a3-596f-4101-8dbd-1087a1f3b438","system_id":"levelo_inurba_marseille","lat":43.23189,"lon":5.355571,"is_reserved":false,"is_disabled":false,"rental_uris":{"android":"levelo://app?vid=5c7249a3-596f-4101-8dbd-1087a1f3b438","ios":"levelo://app?vid=5c7249a3-596f-4101-8dbd-1087a1f3b438"},"vehicle_type_id":"4","last_reported":1746457874,"current_range_meters":9200,"station_id":"ce4bhu92rcd13ifvqi70","pricing_plan_id":"cebpf4jnsgd1na2vs0mg"},{"bike_id":"42f07844-d481-429d-9e2e-c81cdeafb2a7","system_id":"levelo_inurba_marseille","lat":43.30801,"lon":5.38159,"is_reserved":false,"is_disabled":false,"rental_uris":{"android":"levelo://app?vid=42f07844-d481-429d-9e2e-c81cdeafb2a7","ios":"levelo://app?vid=42f07844-d481-429d-9e2e-c81cdeafb2a7"},"vehicle_type_id":"4","last_reported":1746457874,"current_range_meters":9200,"station_id":"ce4bgt12rcd13ifvqce0","pricing_plan_id":"cebpf4jnsgd1na2vs0mg"},{"bike_id":"c693c1f2-2115-4143-b5bb-52402545c6d1","system_id":"levelo_inurba_marseille","lat":43.26559,"lon":5.37283,"is_reserved":false,"is_disabled":false,"rental_uris":{"android":"levelo://app?vid=c693c1f2-2115-4143-b5bb-52402545c6d1","ios":"levelo://app?vid=c693c1f2-2115-4143-b5bb-52402545c6d1"},"vehicle_type_id":"4","last_reported":1746457874,"current_range_meters":9200,"station_id":"ce4bhg12rcd13ifvqf70","pricing_plan_id":"cebpf4jnsgd1na2vs0mg"},{"bike_id":"cb5867f8-3dac-4e9e-ae91-20a70d61b291","system_id":"levelo_inurba_marseille","lat":43.29037,"lon":5.37566,"is_reserved":false,"is_disabled":false,"rental_uris":{"android":"levelo://app?vid=cb5867f8-3dac-4e9e-ae91-20a70d61b291","ios":"levelo://app?vid=cb5867f8-3dac-4e9e-ae91-20a70d61b291"},"vehicle_type_id":"4","last_reported":1746457874,"current_range_meters":9200,"station_id":"ce4bh692rcd13ifvqe90","pricing_plan_id":"cebpf4jnsgd1na2vs0mg"},{"bike_id":"f4d956cf-0d51-4f62-b10d-f67224d60fc1","system_id":"levelo_inurba_marseille","lat":43.30136,"lon":5.38787,"is_reserved":false,"is_disabled":false,"rental_uris":{"android":"levelo://app?vid=f4d956cf-0d51-4f62-b10d-f67224d60fc1","ios":"levelo://app?vid=f4d956cf-0d51-4f62-b10d-f67224d60fc1"},"vehicle_type_id":"4","last_reported":1746457874,"current_range_meters":9200,"station_id":"ce4bghh2rcd13ifvqb60","pricing_plan_id":"cebpf4jnsgd1na2vs0mg"},{"bike_id":"d04df948-5509-40e6-91b4-e0cb919e00c8","system_id":"levelo_inurba_marseille","lat":43.29523,"lon":5.39398,"is_reserved":false,"is_disabled":false,"rental_uris":{"android":"levelo://app?vid=d04df948-5509-40e6-91b4-e0cb919e00c8","ios":"levelo://app?vid=d04df948-5509-40e6-91b4-e0cb919e00c8"},"vehicle_type_id":"4","last_reported":1746457874,"current_range_meters":9200,"station_id":"ce4bh292rcd13ifvqdf0","pricing_plan_id":"cebpf4jnsgd1na2vs0mg"},{"bike_id":"9fc13afb-e947-475e-b143-9f3ee51b87b5","system_id":"levelo_inurba_marseille","lat":43.30311,"lon":5.39193,"is_reserved":false,"is_disabled":true,"rental_uris":{"android":"levelo://app?vid=9fc13afb-e947-475e-b143-9f3ee51b87b5","ios":"levelo://app?vid=9fc13afb-e947-475e-b143-9f3ee51b87b5"},"vehicle_type_id":"4","last_reported":1746457874,"current_range_meters":9600,"station_id":"ce4bgkh2rcd13ifvqbk0","pricing_plan_id":"cebpf4jnsgd1na2vs0mg"},{"bike_id":"fed314d9-ad1d-4a56-ae31-25a8ec063390","system_id":"levelo_inurba_marseille","lat":43.29042,"lon":5.37553,"is_reserved":false,"is_disabled":false,"rental_uris":{"android":"levelo://app?vid=fed314d9-ad1d-4a56-ae31-25a8ec063390","ios":"levelo://app?vid=fed314d9-ad1d-4a56-ae31-25a8ec063390"},"vehicle_type_id":"4","last_reported":1746457874,"current_range_meters":9200,"station_id":"ce4bh692rcd13ifvqe90","pricing_plan_id":"cebpf4jnsgd1na2vs0mg"},{"bike_id":"bedf4636-aa26-4e05-b6fa-e0fd52e42eb0","system_id":"levelo_inurba_marseille","lat":43.2998,"lon":5.38474,"is_reserved":false,"is_disabled":false,"rental_uris":{"android":"levelo://app?vid=bedf4636-aa26-4e05-b6fa-e0fd52e42eb0","ios":"levelo://app?vid=bedf4636-aa26-4e05-b6fa-e0fd52e42eb0"},"vehicle_type_id":"4","last_reported":1746457874,"current_range_meters":9600,"station_id":"ce4bgj92rcd13ifvqbd0","pricing_plan_id":"cebpf4jnsgd1na2vs0mg"},{"bike_id":"fa97aa56-bee3-431e-b51d-50b3eca34229","system_id":"levelo_inurba_marseille","lat":43.2991,"lon":5.38132,"is_reserved":false,"is_disabled":false,"rental_uris":{"android":"levelo://app?vid=fa97aa56-bee3-431e-b51d-50b3eca34229","ios":"levelo://app?vid=fa97aa56-bee3-431e-b51d-50b3eca34229"},"vehicle_type_id":"4","last_reported":1746457874,"current_range_meters":9600,"station_id":"ce4bgj12rcd13ifvqbc0","pricing_plan_id":"cebpf4jnsgd1na2vs0mg"},{"bike_id":"403bec27-12f0-46b4-8d75-e48a64112b44","system_id":"levelo_inurba_marseille","lat":43.2418,"lon":5.39723,"is_reserved":false,"is_disabled":false,"rental_uris":{"android":"levelo://app?vid=403bec27-12f0-46b4-8d75-e48a64112b44","ios":"levelo://app?vid=403bec27-12f0-46b4-8d75-e48a64112b44"},"vehicle_type_id":"4","last_reported":1746457874,"current_range_meters":9600,"station_id":"ce4bhn12rcd13ifvqgpg","pricing_plan_id":"cebpf4jnsgd1na2vs0mg"},{"bike_id":"d7ced594-6501-48d1-9888-8fe268de6fad","system_id":"levelo_inurba_marseille","lat":43.24193,"lon":5.39695,"is_reserved":false,"is_disabled":false,"rental_uris":{"android":"levelo://app?vid=d7ced594-6501-48d1-9888-8fe268de6fad","ios":"levelo://app?vid=d7ced594-6501-48d1-9888-8fe268de6fad"},"vehicle_type_id":"4","last_reported":1746457874,"current_range_meters":9600,"station_id":"ce4bhn12rcd13ifvqgpg","pricing_plan_id":"cebpf4jnsgd1na2vs0mg"},{"bike_id":"ae39190f-08dd-447a-a875-c05e2ae01e0a","system_id":"levelo_inurba_marseille","lat":43.27924,"lon":5.3959,"is_reserved":false,"is_disabled":false,"rental_uris":{"android":"levelo://app?vid=ae39190f-08dd-447a-a875-c05e2ae01e0a","ios":"levelo://app?vid=ae39190f-08dd-447a-a875-c05e2ae01e0a"},"vehicle_type_id":"4","last_reported":1746457874,"current_range_meters":10000,"station_id":"ce4bhf92rcd13ifvqf40","pricing_plan_id":"cebpf4jnsgd1na2vs0mg"},{"bike_id":"dede376b-e480-459c-a0e1-cff0e2950c4b","system_id":"levelo_inurba_marseille","lat":43.24185,"lon":5.39727,"is_reserved":false,"is_disabled":false,"rental_uris":{"android":"levelo://app?vid=dede376b-e480-459c-a0e1-cff0e2950c4b","ios":"levelo://app?vid=dede376b-e480-459c-a0e1-cff0e2950c4b"},"vehicle_type_id":"4","last_reported":1746457874,"current_range_meters":10800,"station_id":"ce4bhn12rcd13ifvqgpg","pricing_plan_id":"cebpf4jnsgd1na2vs0mg"},{"bike_id":"297723b9-da65-4b4c-bc5d-1768afb9cce5","system_id":"levelo_inurba_marseille","lat":43.298753,"lon":5.397343,"is_reserved":false,"is_disabled":false,"rental_uris":{"android":"levelo://app?vid=297723b9-da65-4b4c-bc5d-1768afb9cce5","ios":"levelo://app?vid=297723b9-da65-4b4c-bc5d-1768afb9cce5"},"vehicle_type_id":"4","last_reported":1746457874,"current_range_meters":10800,"station_id":"ce4bh0h2rcd13ifvqd50","pricing_plan_id":"cebpf4jnsgd1na2vs0mg"},{"bike_id":"7be27595-1fce-4659-babc-dd7a5cf4bf84","system_id":"levelo_inurba_marseille","lat":43.29523,"lon":5.39397,"is_reserved":false,"is_disabled":false,"rental_uris":{"android":"levelo://app?vid=7be27595-1fce-4659-babc-dd7a5cf4bf84","ios":"levelo://app?vid=7be27595-1fce-4659-babc-dd7a5cf4bf84"},"vehicle_type_id":"4","last_reported":1746457874,"current_range_meters":10000,"station_id":"ce4bh292rcd13ifvqdf0","pricing_plan_id":"cebpf4jnsgd1na2vs0mg"},{"bike_id":"c7d8bcea-0651-4117-a3ff-a304302270ab","system_id":"levelo_inurba_marseille","lat":43.29551,"lon":5.42278,"is_reserved":false,"is_disabled":false,"rental_uris":{"android":"levelo://app?vid=c7d8bcea-0651-4117-a3ff-a304302270ab","ios":"levelo://app?vid=c7d8bcea-0651-4117-a3ff-a304302270ab"},"vehicle_type_id":"4","last_reported":1746457874,"current_range_meters":10800,"station_id":"ce4bhph2rcd13ifvqhdg","pricing_plan_id":"cebpf4jnsgd1na2vs0mg"},{"bike_id":"45a45f69-f575-43ac-b7b8-9b5fcefad8dc","system_id":"levelo_inurba_marseille","lat":43.24388,"lon":5.37062,"is_reserved":false,"is_disabled":false,"rental_uris":{"android":"levelo://app?vid=45a45f69-f575-43ac-b7b8-9b5fcefad8dc","ios":"levelo://app?vid=45a45f69-f575-43ac-b7b8-9b5fcefad8dc"},"vehicle_type_id":"4","last_reported":1746457874,"current_range_meters":10800,"station_id":"ce4bhhh2rcd13ifvqfk0","pricing_plan_id":"cebpf4jnsgd1na2vs0mg"},{"bike_id":"2fc87110-fd35-4fce-a6eb-68b1811b07c3","system_id":"levelo_inurba_marseille","lat":43.28416,"lon":5.34978,"is_reserved":false,"is_disabled":false,"rental_uris":{"android":"levelo://app?vid=2fc87110-fd35-4fce-a6eb-68b1811b07c3","ios":"levelo://app?vid=2fc87110-fd35-4fce-a6eb-68b1811b07c3"},"vehicle_type_id":"4","last_reported":1746457874,"current_range_meters":10800,"station_id":"ce4bhbh2rcd13ifvqepg","pricing_plan_id":"cebpf4jnsgd1na2vs0mg"},{"bike_id":"2eaac6a8-2197-495f-b26f-f8a53befbe22","system_id":"levelo_inurba_marseille","lat":43.26045,"lon":5.37532,"is_reserved":false,"is_disabled":false,"rental_uris":{"android":"levelo://app?vid=2eaac6a8-2197-495f-b26f-f8a53befbe22","ios":"levelo://app?vid=2eaac6a8-2197-495f-b26f-f8a53befbe22"},"vehicle_type_id":"4","last_reported":1746457874,"current_range_meters":10800,"station_id":"ce4bhgh2rcd13ifvqfa0","pricing_plan_id":"cebpf4jnsgd1na2vs0mg"},{"bike_id":"1a82a0e9-f369-4d01-ae50-ae98884bab48","system_id":"levelo_inurba_marseille","lat":43.33078,"lon":5.38708,"is_reserved":false,"is_disabled":false,"rental_uris":{"android":"levelo://app?vid=1a82a0e9-f369-4d01-ae50-ae98884bab48","ios":"levelo://app?vid=1a82a0e9-f369-4d01-ae50-ae98884bab48"},"vehicle_type_id":"4","last_reported":1746457874,"current_range_meters":10800,"station_id":"","pricing_plan_id":"cebpf4jnsgd1na2vs0mg"},{"bike_id":"f6965056-e655-4311-bc7b-140fed5bf9b6","system_id":"levelo_inurba_marseille","lat":43.24182,"lon":5.39731,"is_reserved":false,"is_disabled":false,"rental_uris":{"android":"levelo://app?vid=f6965056-e655-4311-bc7b-140fed5bf9b6","ios":"levelo://app?vid=f6965056-e655-4311-bc7b-140fed5bf9b6"},"vehicle_type_id":"4","last_reported":1746457874,"current_range_meters":10800,"station_id":"ce4bhn12rcd13ifvqgpg","pricing_plan_id":"cebpf4jnsgd1na2vs0mg"},{"bike_id":"42d05213-2d04-48f0-b328-53d2a108acea","system_id":"levelo_inurba_marseille","lat":43.287,"lon":5.37396,"is_reserved":false,"is_disabled":false,"rental_uris":{"android":"levelo://app?vid=42d05213-2d04-48f0-b328-53d2a108acea","ios":"levelo://app?vid=42d05213-2d04-48f0-b328-53d2a108acea"},"vehicle_type_id":"4","last_reported":1746457874,"current_range_meters":10800,"station_id":"ce4bh3p2rcd13ifvqdq0","pricing_plan_id":"cebpf4jnsgd1na2vs0mg"},{"bike_id":"a497742f-c244-43cc-ae61-a68c22f59bec","system_id":"levelo_inurba_marseille","lat":43.31356,"lon":5.38505,"is_reserved":false,"is_disabled":false,"rental_uris":{"android":"levelo://app?vid=a497742f-c244-43cc-ae61-a68c22f59bec","ios":"levelo://app?vid=a497742f-c244-43cc-ae61-a68c22f59bec"},"vehicle_type_id":"4","last_reported":1746457874,"current_range_meters":11200,"station_id":"ce4bgt92rcd13ifvqcf0","pricing_plan_id":"cebpf4jnsgd1na2vs0mg"},{"bike_id":"9f37cdb3-f73c-4ddd-ae44-91e6564c9a19","system_id":"levelo_inurba_marseille","lat":43.27315,"lon":5.39084,"is_reserved":false,"is_disabled":false,"rental_uris":{"android":"levelo://app?vid=9f37cdb3-f73c-4ddd-ae44-91e6564c9a19","ios":"levelo://app?vid=9f37cdb3-f73c-4ddd-ae44-91e6564c9a19"},"vehicle_type_id":"4","last_reported":1746457874,"current_range_meters":10800,"station_id":"ce4bhgp2rcd13ifvqfe0","pricing_plan_id":"cebpf4jnsgd1na2vs0mg"},{"bike_id":"9e657064-762d-430d-8081-80d021f7832d","system_id":"levelo_inurba_marseille","lat":43.31118,"lon":5.37766,"is_reserved":false,"is_disabled":false,"rental_uris":{"android":"levelo://app?vid=9e657064-762d-430d-8081-80d021f7832d","ios":"levelo://app?vid=9e657064-762d-430d-8081-80d021f7832d"},"vehicle_type_id":"4","last_reported":1746457874,"current_range_meters":11200,"station_id":"ce4bgt92rcd13ifvqcg0","pricing_plan_id":"cebpf4jnsgd1na2vs0mg"},{"bike_id":"01d42fca-fbc9-4355-9fff-bcf25497bafd","system_id":"levelo_inurba_marseille","lat":43.28131,"lon":5.42723,"is_reserved":false,"is_disabled":false,"rental_uris":{"android":"levelo://app?vid=01d42fca-fbc9-4355-9fff-bcf25497bafd","ios":"levelo://app?vid=01d42fca-fbc9-4355-9fff-bcf25497bafd"},"vehicle_type_id":"4","last_reported":1746457874,"current_range_meters":10800,"station_id":"ce4bhnh2rcd13ifvqgug","pricing_plan_id":"cebpf4jnsgd1na2vs0mg"},{"bike_id":"d1aa6e5d-6beb-440c-afb6-1d488c12e5a1","system_id":"levelo_inurba_marseille","lat":43.32101,"lon":5.36773,"is_reserved":false,"is_disabled":false,"rental_uris":{"android":"levelo://app?vid=d1aa6e5d-6beb-440c-afb6-1d488c12e5a1","ios":"levelo://app?vid=d1aa6e5d-6beb-440c-afb6-1d488c12e5a1"},"vehicle_type_id":"4","last_reported":1746457874,"current_range_meters":11200,"station_id":"ce4bhrh2rcd13ifvqhug","pricing_plan_id":"cebpf4jnsgd1na2vs0mg"},{"bike_id":"79df2d56-8431-46eb-b7c1-70def8f2661b","system_id":"levelo_inurba_marseille","lat":43.29537,"lon":5.38536,"is_reserved":false,"is_disabled":false,"rental_uris":{"android":"levelo://app?vid=79df2d56-8431-46eb-b7c1-70def8f2661b","ios":"levelo://app?vid=79df2d56-8431-46eb-b7c1-70def8f2661b"},"vehicle_type_id":"4","last_reported":1746457874,"current_range_meters":11600,"station_id":"","pricing_plan_id":"cebpf4jnsgd1na2vs0mg"},{"bike_id":"ccc23581-106b-4ffa-a2fa-214b18171db5","system_id":"levelo_inurba_marseille","lat":43.26067,"lon":5.39398,"is_reserved":false,"is_disabled":false,"rental_uris":{"android":"levelo://app?vid=ccc23581-106b-4ffa-a2fa-214b18171db5","ios":"levelo://app?vid=ccc23581-106b-4ffa-a2fa-214b18171db5"},"vehicle_type_id":"4","last_reported":1746457874,"current_range_meters":11600,"station_id":"ce4bhh92rcd13ifvqfj0","pricing_plan_id":"cebpf4jnsgd1na2vs0mg"},{"bike_id":"d033acbf-1b6c-48de-8915-71cf75246dd2","system_id":"levelo_inurba_marseille","lat":43.31139,"lon":5.36976,"is_reserved":false,"is_disabled":false,"rental_uris":{"android":"levelo://app?vid=d033acbf-1b6c-48de-8915-71cf75246dd2","ios":"levelo://app?vid=d033acbf-1b6c-48de-8915-71cf75246dd2"},"vehicle_type_id":"4","last_reported":1746457874,"current_range_meters":12000,"station_id":"","pricing_plan_id":"cebpf4jnsgd1na2vs0mg"},{"bike_id":"2c3793f3-fcf4-4e33-827b-99eb25b5b981","system_id":"levelo_inurba_marseille","lat":43.31173,"lon":5.38712,"is_reserved":false,"is_disabled":false,"rental_uris":{"android":"levelo://app?vid=2c3793f3-fcf4-4e33-827b-99eb25b5b981","ios":"levelo://app?vid=2c3793f3-fcf4-4e33-827b-99eb25b5b981"},"vehicle_type_id":"4","last_reported":1746457874,"current_range_meters":12000,"station_id":"ce4bgv12rcd13ifvqcp0","pricing_plan_id":"cebpf4jnsgd1na2vs0mg"},{"bike_id":"0c27ef1d-de54-4e45-8e35-d8db02e8bbba","system_id":"levelo_inurba_marseille","lat":43.28419,"lon":5.34988,"is_reserved":false,"is_disabled":false,"rental_uris":{"android":"levelo://app?vid=0c27ef1d-de54-4e45-8e35-d8db02e8bbba","ios":"levelo://app?vid=0c27ef1d-de54-4e45-8e35-d8db02e8bbba"},"vehicle_type_id":"4","last_reported":1746457874,"current_range_meters":12000,"station_id":"ce4bhbh2rcd13ifvqepg","pricing_plan_id":"cebpf4jnsgd1na2vs0mg"},{"bike_id":"ccc598be-0134-4f7f-b90f-a2b5da7a0248","system_id":"levelo_inurba_marseille","lat":43.31992,"lon":5.38144,"is_reserved":false,"is_disabled":false,"rental_uris":{"android":"levelo://app?vid=ccc598be-0134-4f7f-b90f-a2b5da7a0248","ios":"levelo://app?vid=ccc598be-0134-4f7f-b90f-a2b5da7a0248"},"vehicle_type_id":"4","last_reported":1746457874,"current_range_meters":12000,"station_id":"ce4bhr12rcd13ifvqhpg","pricing_plan_id":"cebpf4jnsgd1na2vs0mg"},{"bike_id":"dd5a5c21-1777-4eb2-bf90-e13ab28f2166","system_id":"levelo_inurba_marseille","lat":43.280355,"lon":5.36952,"is_reserved":false,"is_disabled":false,"rental_uris":{"android":"levelo://app?vid=dd5a5c21-1777-4eb2-bf90-e13ab28f2166","ios":"levelo://app?vid=dd5a5c21-1777-4eb2-bf90-e13ab28f2166"},"vehicle_type_id":"4","last_reported":1746457874,"current_range_meters":12400,"station_id":"ce4bha12rcd13ifvqef0","pricing_plan_id":"cebpf4jnsgd1na2vs0mg"},{"bike_id":"58c8a54a-65cd-421f-af62-73f362c0df41","system_id":"levelo_inurba_marseille","lat":43.23965,"lon":5.36634,"is_reserved":false,"is_disabled":false,"rental_uris":{"android":"levelo://app?vid=58c8a54a-65cd-421f-af62-73f362c0df41","ios":"levelo://app?vid=58c8a54a-65cd-421f-af62-73f362c0df41"},"vehicle_type_id":"4","last_reported":1746457874,"current_range_meters":12000,"station_id":"ce4bhi12rcd13ifvqfp0","pricing_plan_id":"cebpf4jnsgd1na2vs0mg"},{"bike_id":"9ebc8853-7ad1-4c69-a93d-fc5e87cca133","system_id":"levelo_inurba_marseille","lat":43.31277,"lon":5.40173,"is_reserved":false,"is_disabled":false,"rental_uris":{"android":"levelo://app?vid=9ebc8853-7ad1-4c69-a93d-fc5e87cca133","ios":"levelo://app?vid=9ebc8853-7ad1-4c69-a93d-fc5e87cca133"},"vehicle_type_id":"4","last_reported":1746457874,"current_range_meters":12400,"station_id":"ce4bh092rcd13ifvqd30","pricing_plan_id":"cebpf4jnsgd1na2vs0mg"},{"bike_id":"5b8d1337-a035-4531-8ae9-843647d6f95e","system_id":"levelo_inurba_marseille","lat":43.23188,"lon":5.3997,"is_reserved":false,"is_disabled":false,"rental_uris":{"android":"levelo://app?vid=5b8d1337-a035-4531-8ae9-843647d6f95e","ios":"levelo://app?vid=5b8d1337-a035-4531-8ae9-843647d6f95e"},"vehicle_type_id":"4","last_reported":1746457874,"current_range_meters":12800,"station_id":"ce4bhn12rcd13ifvqgqg","pricing_plan_id":"cebpf4jnsgd1na2vs0mg"},{"bike_id":"6d138f64-7b6f-4f20-9d4f-662d30213077","system_id":"levelo_inurba_marseille","lat":43.28718,"lon":5.36088,"is_reserved":false,"is_disabled":false,"rental_uris":{"android":"levelo://app?vid=6d138f64-7b6f-4f20-9d4f-662d30213077","ios":"levelo://app?vid=6d138f64-7b6f-4f20-9d4f-662d30213077"},"vehicle_type_id":"4","last_reported":1746457874,"current_range_meters":12800,"station_id":"cki0cbj6b192h4jlfktg","pricing_plan_id":"cebpf4jnsgd1na2vs0mg"},{"bike_id":"62bfa9fa-531f-4d2b-9e57-eb50b2d48c8c","system_id":"levelo_inurba_marseille","lat":43.24312,"lon":5.3803,"is_reserved":false,"is_disabled":false,"rental_uris":{"android":"levelo://app?vid=62bfa9fa-531f-4d2b-9e57-eb50b2d48c8c","ios":"levelo://app?vid=62bfa9fa-531f-4d2b-9e57-eb50b2d48c8c"},"vehicle_type_id":"4","last_reported":1746457874,"current_range_meters":12800,"station_id":"","pricing_plan_id":"cebpf4jnsgd1na2vs0mg"},{"bike_id":"fd5bc2c2-9d28-48ff-8793-64af25d324f4","system_id":"levelo_inurba_marseille","lat":43.21745,"lon":5.34611,"is_reserved":false,"is_disabled":false,"rental_uris":{"android":"levelo://app?vid=fd5bc2c2-9d28-48ff-8793-64af25d324f4","ios":"levelo://app?vid=fd5bc2c2-9d28-48ff-8793-64af25d324f4"},"vehicle_type_id":"4","last_reported":1746457874,"current_range_meters":12800,"station_id":"st_cvj6r9ubvosntc0bgbag","pricing_plan_id":"cebpf4jnsgd1na2vs0mg"},{"bike_id":"7e7dc147-9fb8-4df0-905e-a56344049728","system_id":"levelo_inurba_marseille","lat":43.29026,"lon":5.38635,"is_reserved":false,"is_disabled":true,"rental_uris":{"android":"levelo://app?vid=7e7dc147-9fb8-4df0-905e-a56344049728","ios":"levelo://app?vid=7e7dc147-9fb8-4df0-905e-a56344049728"},"vehicle_type_id":"4","last_reported":1746457874,"current_range_meters":12800,"station_id":"ce4bh4p2rcd13ifvqe0g","pricing_plan_id":"cebpf4jnsgd1na2vs0mg"},{"bike_id":"1d1dee7e-6eaf-4dff-a697-1f80f49d40ae","system_id":"levelo_inurba_marseille","lat":43.307313,"lon":5.42437,"is_reserved":false,"is_disabled":false,"rental_uris":{"android":"levelo://app?vid=1d1dee7e-6eaf-4dff-a697-1f80f49d40ae","ios":"levelo://app?vid=1d1dee7e-6eaf-4dff-a697-1f80f49d40ae"},"vehicle_type_id":"4","last_reported":1746457874,"current_range_meters":12800,"station_id":"st_cvj6ca6bvosntc0bfgr0","pricing_plan_id":"cebpf4jnsgd1na2vs0mg"},{"bike_id":"9d8f73eb-df09-4699-86a7-d631e2319093","system_id":"levelo_inurba_marseille","lat":43.26256,"lon":5.37381,"is_reserved":false,"is_disabled":false,"rental_uris":{"android":"levelo://app?vid=9d8f73eb-df09-4699-86a7-d631e2319093","ios":"levelo://app?vid=9d8f73eb-df09-4699-86a7-d631e2319093"},"vehicle_type_id":"4","last_reported":1746457874,"current_range_meters":13600,"station_id":"","pricing_plan_id":"cebpf4jnsgd1na2vs0mg"},{"bike_id":"ae7a57f4-cd01-40e5-8161-67ce60ccc5c9","system_id":"levelo_inurba_marseille","lat":43.23186,"lon":5.39986,"is_reserved":false,"is_disabled":false,"rental_uris":{"android":"levelo://app?vid=ae7a57f4-cd01-40e5-8161-67ce60ccc5c9","ios":"levelo://app?vid=ae7a57f4-cd01-40e5-8161-67ce60ccc5c9"},"vehicle_type_id":"4","last_reported":1746457874,"current_range_meters":13600,"station_id":"ce4bhn12rcd13ifvqgqg","pricing_plan_id":"cebpf4jnsgd1na2vs0mg"},{"bike_id":"e2f77417-b145-46a0-9e62-f33d8d9c33eb","system_id":"levelo_inurba_marseille","lat":43.3148,"lon":5.3731,"is_reserved":false,"is_disabled":false,"rental_uris":{"android":"levelo://app?vid=e2f77417-b145-46a0-9e62-f33d8d9c33eb","ios":"levelo://app?vid=e2f77417-b145-46a0-9e62-f33d8d9c33eb"},"vehicle_type_id":"4","last_reported":1746457874,"current_range_meters":14000,"station_id":"ce4bgt12rcd13ifvqcd0","pricing_plan_id":"cebpf4jnsgd1na2vs0mg"},{"bike_id":"369f1694-4704-4bc1-bd0f-2aeffc62b724","system_id":"levelo_inurba_marseille","lat":43.28719,"lon":5.37944,"is_reserved":false,"is_disabled":false,"rental_uris":{"android":"levelo://app?vid=369f1694-4704-4bc1-bd0f-2aeffc62b724","ios":"levelo://app?vid=369f1694-4704-4bc1-bd0f-2aeffc62b724"},"vehicle_type_id":"4","last_reported":1746457874,"current_range_meters":14000,"station_id":"ce4bh9p2rcd13ifvqec0","pricing_plan_id":"cebpf4jnsgd1na2vs0mg"},{"bike_id":"8113a4b4-4494-41fb-8f60-838b42cad832","system_id":"levelo_inurba_marseille","lat":43.28087,"lon":5.39648,"is_reserved":false,"is_disabled":false,"rental_uris":{"android":"levelo://app?vid=8113a4b4-4494-41fb-8f60-838b42cad832","ios":"levelo://app?vid=8113a4b4-4494-41fb-8f60-838b42cad832"},"vehicle_type_id":"4","last_reported":1746457874,"current_range_meters":14000,"station_id":"ce4bho12rcd13ifvqh2g","pricing_plan_id":"cebpf4jnsgd1na2vs0mg"},{"bike_id":"d801a9be-f2ff-4d84-b388-3f2552301547","system_id":"levelo_inurba_marseille","lat":43.28135,"lon":5.42664,"is_reserved":false,"is_disabled":false,"rental_uris":{"android":"levelo://app?vid=d801a9be-f2ff-4d84-b388-3f2552301547","ios":"levelo://app?vid=d801a9be-f2ff-4d84-b388-3f2552301547"},"vehicle_type_id":"4","last_reported":1746457874,"current_range_meters":14000,"station_id":"ce4bhnh2rcd13ifvqgug","pricing_plan_id":"cebpf4jnsgd1na2vs0mg"},{"bike_id":"b60c17f5-436e-489e-8f3c-790e6084ac64","system_id":"levelo_inurba_marseille","lat":43.21186,"lon":5.3508,"is_reserved":false,"is_disabled":false,"rental_uris":{"android":"levelo://app?vid=b60c17f5-436e-489e-8f3c-790e6084ac64","ios":"levelo://app?vid=b60c17f5-436e-489e-8f3c-790e6084ac64"},"vehicle_type_id":"4","last_reported":1746457874,"current_range_meters":14400,"station_id":"st_cvj6sg6p6f1abm77japg","pricing_plan_id":"cebpf4jnsgd1na2vs0mg"},{"bike_id":"0c377d9d-9a3a-47a7-9944-6039314b5e15","system_id":"levelo_inurba_marseille","lat":43.245852,"lon":5.404954,"is_reserved":false,"is_disabled":false,"rental_uris":{"android":"levelo://app?vid=0c377d9d-9a3a-47a7-9944-6039314b5e15","ios":"levelo://app?vid=0c377d9d-9a3a-47a7-9944-6039314b5e15"},"vehicle_type_id":"4","last_reported":1746457874,"current_range_meters":14400,"station_id":"","pricing_plan_id":"cebpf4jnsgd1na2vs0mg"},{"bike_id":"9788bc84-2221-4efa-83a6-c358d7a3e66e","system_id":"levelo_inurba_marseille","lat":43.25826,"lon":5.39447,"is_reserved":false,"is_disabled":false,"rental_uris":{"android":"levelo://app?vid=9788bc84-2221-4efa-83a6-c358d7a3e66e","ios":"levelo://app?vid=9788bc84-2221-4efa-83a6-c358d7a3e66e"},"vehicle_type_id":"4","last_reported":1746457874,"current_range_meters":14000,"station_id":"ce4bhip2rcd13ifvqft0","pricing_plan_id":"cebpf4jnsgd1na2vs0mg"},{"bike_id":"05a84f69-0592-442a-b098-6253d0b70e9e","system_id":"levelo_inurba_marseille","lat":43.30014,"lon":5.37233,"is_reserved":false,"is_disabled":false,"rental_uris":{"android":"levelo://app?vid=05a84f69-0592-442a-b098-6253d0b70e9e","ios":"levelo://app?vid=05a84f69-0592-442a-b098-6253d0b70e9e"},"vehicle_type_id":"4","last_reported":1746457874,"current_range_meters":14400,"station_id":"","pricing_plan_id":"cebpf4jnsgd1na2vs0mg"},{"bike_id":"94e4bd09-832d-43d5-9c6b-2a96ad855091","system_id":"levelo_inurba_marseille","lat":43.26221,"lon":5.37953,"is_reserved":false,"is_disabled":false,"rental_uris":{"android":"levelo://app?vid=94e4bd09-832d-43d5-9c6b-2a96ad855091","ios":"levelo://app?vid=94e4bd09-832d-43d5-9c6b-2a96ad855091"},"vehicle_type_id":"4","last_reported":1746457874,"current_range_meters":14800,"station_id":"ce4bhjp2rcd13ifvqg90","pricing_plan_id":"cebpf4jnsgd1na2vs0mg"},{"bike_id":"f23acd9c-414e-4ddd-96fd-d068ce3827ab","system_id":"levelo_inurba_marseille","lat":43.28465,"lon":5.35877,"is_reserved":false,"is_disabled":false,"rental_uris":{"android":"levelo://app?vid=f23acd9c-414e-4ddd-96fd-d068ce3827ab","ios":"levelo://app?vid=f23acd9c-414e-4ddd-96fd-d068ce3827ab"},"vehicle_type_id":"4","last_reported":1746457874,"current_range_meters":14400,"station_id":"ce4bhah2rcd13ifvqei0","pricing_plan_id":"cebpf4jnsgd1na2vs0mg"},{"bike_id":"a46b5721-597c-404e-8ddb-3ba6469f967d","system_id":"levelo_inurba_marseille","lat":43.23193,"lon":5.35567,"is_reserved":false,"is_disabled":false,"rental_uris":{"android":"levelo://app?vid=a46b5721-597c-404e-8ddb-3ba6469f967d","ios":"levelo://app?vid=a46b5721-597c-404e-8ddb-3ba6469f967d"},"vehicle_type_id":"4","last_reported":1746457874,"current_range_meters":14800,"station_id":"ce4bhu92rcd13ifvqi70","pricing_plan_id":"cebpf4jnsgd1na2vs0mg"},{"bike_id":"53bffe96-90ed-4ef0-bddd-80d33659c6df","system_id":"levelo_inurba_marseille","lat":43.26805,"lon":5.40277,"is_reserved":false,"is_disabled":false,"rental_uris":{"android":"levelo://app?vid=53bffe96-90ed-4ef0-bddd-80d33659c6df","ios":"levelo://app?vid=53bffe96-90ed-4ef0-bddd-80d33659c6df"},"vehicle_type_id":"4","last_reported":1746457874,"current_range_meters":14800,"station_id":"ce501612rcd8frsf0b60","pricing_plan_id":"cebpf4jnsgd1na2vs0mg"},{"bike_id":"c52c7400-bc15-40aa-b53f-f5bdc3dab172","system_id":"levelo_inurba_marseille","lat":43.3017,"lon":5.39841,"is_reserved":false,"is_disabled":false,"rental_uris":{"android":"levelo://app?vid=c52c7400-bc15-40aa-b53f-f5bdc3dab172","ios":"levelo://app?vid=c52c7400-bc15-40aa-b53f-f5bdc3dab172"},"vehicle_type_id":"4","last_reported":1746457874,"current_range_meters":15200,"station_id":"ce4bh0h2rcd13ifvqd60","pricing_plan_id":"cebpf4jnsgd1na2vs0mg"},{"bike_id":"16cf44a7-e87f-4c98-8e5a-a574b375ac8a","system_id":"levelo_inurba_marseille","lat":43.31076,"lon":5.38353,"is_reserved":false,"is_disabled":false,"rental_uris":{"android":"levelo://app?vid=16cf44a7-e87f-4c98-8e5a-a574b375ac8a","ios":"levelo://app?vid=16cf44a7-e87f-4c98-8e5a-a574b375ac8a"},"vehicle_type_id":"4","last_reported":1746457874,"current_range_meters":15200,"station_id":"ce4bgv92rcd13ifvqcr0","pricing_plan_id":"cebpf4jnsgd1na2vs0mg"},{"bike_id":"9b813420-e5ec-4089-8bf0-d8b4fe7e55fc","system_id":"levelo_inurba_marseille","lat":43.28036,"lon":5.36953,"is_reserved":false,"is_disabled":false,"rental_uris":{"android":"levelo://app?vid=9b813420-e5ec-4089-8bf0-d8b4fe7e55fc","ios":"levelo://app?vid=9b813420-e5ec-4089-8bf0-d8b4fe7e55fc"},"vehicle_type_id":"4","last_reported":1746457874,"current_range_meters":15200,"station_id":"ce4bha12rcd13ifvqef0","pricing_plan_id":"cebpf4jnsgd1na2vs0mg"},{"bike_id":"23b35bb8-c11d-4e2b-9b06-9dd4b8a6363c","system_id":"levelo_inurba_marseille","lat":43.29782,"lon":5.39342,"is_reserved":false,"is_disabled":false,"rental_uris":{"android":"levelo://app?vid=23b35bb8-c11d-4e2b-9b06-9dd4b8a6363c","ios":"levelo://app?vid=23b35bb8-c11d-4e2b-9b06-9dd4b8a6363c"},"vehicle_type_id":"4","last_reported":1746457874,"current_range_meters":15200,"station_id":"chh1huq6cuj3fo74tm60","pricing_plan_id":"cebpf4jnsgd1na2vs0mg"},{"bike_id":"db607aba-0db6-423b-a818-c23224727203","system_id":"levelo_inurba_marseille","lat":43.231538,"lon":5.437006,"is_reserved":false,"is_disabled":false,"rental_uris":{"android":"levelo://app?vid=db607aba-0db6-423b-a818-c23224727203","ios":"levelo://app?vid=db607aba-0db6-423b-a818-c23224727203"},"vehicle_type_id":"4","last_reported":1746457874,"current_range_meters":15200,"station_id":"ce4bhmp2rcd13ifvqgog","pricing_plan_id":"cebpf4jnsgd1na2vs0mg"},{"bike_id":"20ab3ae1-7046-4d1c-8964-5e4bc459429f","system_id":"levelo_inurba_marseille","lat":43.29534,"lon":5.38539,"is_reserved":false,"is_disabled":false,"rental_uris":{"android":"levelo://app?vid=20ab3ae1-7046-4d1c-8964-5e4bc459429f","ios":"levelo://app?vid=20ab3ae1-7046-4d1c-8964-5e4bc459429f"},"vehicle_type_id":"4","last_reported":1746457874,"current_range_meters":13600,"station_id":"ce4bgih2rcd13ifvqba0","pricing_plan_id":"cebpf4jnsgd1na2vs0mg"},{"bike_id":"d2cdff3e-610c-47f6-9a92-3063f8bd03ae","system_id":"levelo_inurba_marseille","lat":43.32025,"lon":5.41587,"is_reserved":false,"is_disabled":false,"rental_uris":{"android":"levelo://app?vid=d2cdff3e-610c-47f6-9a92-3063f8bd03ae","ios":"levelo://app?vid=d2cdff3e-610c-47f6-9a92-3063f8bd03ae"},"vehicle_type_id":"4","last_reported":1746457874,"current_range_meters":16000,"station_id":"ce4bhq92rcd13ifvqhkg","pricing_plan_id":"cebpf4jnsgd1na2vs0mg"},{"bike_id":"d9fc1943-495c-485c-a161-6c3f92105a41","system_id":"levelo_inurba_marseille","lat":43.24384,"lon":5.37057,"is_reserved":false,"is_disabled":false,"rental_uris":{"android":"levelo://app?vid=d9fc1943-495c-485c-a161-6c3f92105a41","ios":"levelo://app?vid=d9fc1943-495c-485c-a161-6c3f92105a41"},"vehicle_type_id":"4","last_reported":1746457874,"current_range_meters":18800,"station_id":"ce4bhhh2rcd13ifvqfk0","pricing_plan_id":"cebpf4jnsgd1na2vs0mg"},{"bike_id":"87797748-1c98-48a5-816a-8edf0a11c811","system_id":"levelo_inurba_marseille","lat":43.30281,"lon":5.37698,"is_reserved":false,"is_disabled":false,"rental_uris":{"android":"levelo://app?vid=87797748-1c98-48a5-816a-8edf0a11c811","ios":"levelo://app?vid=87797748-1c98-48a5-816a-8edf0a11c811"},"vehicle_type_id":"4","last_reported":1746457874,"current_range_meters":15200,"station_id":"ce4bguh2rcd13ifvqcj0","pricing_plan_id":"cebpf4jnsgd1na2vs0mg"},{"bike_id":"4907b14c-7dcd-4ede-b10d-baf61794af70","system_id":"levelo_inurba_marseille","lat":43.2857,"lon":5.39501,"is_reserved":false,"is_disabled":false,"rental_uris":{"android":"levelo://app?vid=4907b14c-7dcd-4ede-b10d-baf61794af70","ios":"levelo://app?vid=4907b14c-7dcd-4ede-b10d-baf61794af70"},"vehicle_type_id":"4","last_reported":1746457874,"current_range_meters":16000,"station_id":"ce4bh292rcd13ifvqdg0","pricing_plan_id":"cebpf4jnsgd1na2vs0mg"},{"bike_id":"c7c53d64-79a5-4133-8656-b2d8e6d462eb","system_id":"levelo_inurba_marseille","lat":43.25822,"lon":5.39439,"is_reserved":false,"is_disabled":false,"rental_uris":{"android":"levelo://app?vid=c7c53d64-79a5-4133-8656-b2d8e6d462eb","ios":"levelo://app?vid=c7c53d64-79a5-4133-8656-b2d8e6d462eb"},"vehicle_type_id":"4","last_reported":1746457874,"current_range_meters":16400,"station_id":"ce4bhip2rcd13ifvqft0","pricing_plan_id":"cebpf4jnsgd1na2vs0mg"},{"bike_id":"2550f07d-c910-4b0f-b681-6ed893e51766","system_id":"levelo_inurba_marseille","lat":43.26207,"lon":5.37445,"is_reserved":false,"is_disabled":false,"rental_uris":{"android":"levelo://app?vid=2550f07d-c910-4b0f-b681-6ed893e51766","ios":"levelo://app?vid=2550f07d-c910-4b0f-b681-6ed893e51766"},"vehicle_type_id":"4","last_reported":1746457874,"current_range_meters":16400,"station_id":"ce4bhgp2rcd13ifvqfc0","pricing_plan_id":"cebpf4jnsgd1na2vs0mg"},{"bike_id":"c9592205-9409-4f74-aed1-7c4141a58caa","system_id":"levelo_inurba_marseille","lat":43.27138,"lon":5.36377,"is_reserved":false,"is_disabled":false,"rental_uris":{"android":"levelo://app?vid=c9592205-9409-4f74-aed1-7c4141a58caa","ios":"levelo://app?vid=c9592205-9409-4f74-aed1-7c4141a58caa"},"vehicle_type_id":"4","last_reported":1746457874,"current_range_meters":16400,"station_id":"","pricing_plan_id":"cebpf4jnsgd1na2vs0mg"},{"bike_id":"aec1c2d9-1387-43dc-8bd6-73652e164a3c","system_id":"levelo_inurba_marseille","lat":43.30568,"lon":5.36523,"is_reserved":false,"is_disabled":false,"rental_uris":{"android":"levelo://app?vid=aec1c2d9-1387-43dc-8bd6-73652e164a3c","ios":"levelo://app?vid=aec1c2d9-1387-43dc-8bd6-73652e164a3c"},"vehicle_type_id":"4","last_reported":1746457874,"current_range_meters":16800,"station_id":"ce4bgs12rcd13ifvqcag","pricing_plan_id":"cebpf4jnsgd1na2vs0mg"},{"bike_id":"51b69e7a-8cf8-485a-9a16-2dea53f64860","system_id":"levelo_inurba_marseille","lat":43.287065,"lon":5.373814,"is_reserved":false,"is_disabled":false,"rental_uris":{"android":"levelo://app?vid=51b69e7a-8cf8-485a-9a16-2dea53f64860","ios":"levelo://app?vid=51b69e7a-8cf8-485a-9a16-2dea53f64860"},"vehicle_type_id":"4","last_reported":1746457874,"current_range_meters":16800,"station_id":"","pricing_plan_id":"cebpf4jnsgd1na2vs0mg"},{"bike_id":"8252a9fc-b3a7-4c9e-abfe-3422a8408208","system_id":"levelo_inurba_marseille","lat":43.290008,"lon":5.356053,"is_reserved":false,"is_disabled":false,"rental_uris":{"android":"levelo://app?vid=8252a9fc-b3a7-4c9e-abfe-3422a8408208","ios":"levelo://app?vid=8252a9fc-b3a7-4c9e-abfe-3422a8408208"},"vehicle_type_id":"4","last_reported":1746457874,"current_range_meters":16800,"station_id":"ce4bhb92rcd13ifvqen0","pricing_plan_id":"cebpf4jnsgd1na2vs0mg"},{"bike_id":"858bed88-3c9c-4c60-b913-cfc9a1021309","system_id":"levelo_inurba_marseille","lat":43.317545,"lon":5.39018,"is_reserved":false,"is_disabled":true,"rental_uris":{"android":"levelo://app?vid=858bed88-3c9c-4c60-b913-cfc9a1021309","ios":"levelo://app?vid=858bed88-3c9c-4c60-b913-cfc9a1021309"},"vehicle_type_id":"4","last_reported":1746457874,"current_range_meters":16800,"station_id":"ce4bhqp2rcd13ifvqhng","pricing_plan_id":"cebpf4jnsgd1na2vs0mg"},{"bike_id":"7ca09d8d-51db-4057-abe2-e9c1bdbcdfac","system_id":"levelo_inurba_marseille","lat":43.22923,"lon":5.35376,"is_reserved":false,"is_disabled":true,"rental_uris":{"android":"levelo://app?vid=7ca09d8d-51db-4057-abe2-e9c1bdbcdfac","ios":"levelo://app?vid=7ca09d8d-51db-4057-abe2-e9c1bdbcdfac"},"vehicle_type_id":"4","last_reported":1746457874,"current_range_meters":16800,"station_id":"cpo3532slgdg3j2ikp40","pricing_plan_id":"cebpf4jnsgd1na2vs0mg"},{"bike_id":"cf879115-c2de-40ca-9402-55ca035aa2f4","system_id":"levelo_inurba_marseille","lat":43.273092,"lon":5.36298,"is_reserved":false,"is_disabled":false,"rental_uris":{"android":"levelo://app?vid=cf879115-c2de-40ca-9402-55ca035aa2f4","ios":"levelo://app?vid=cf879115-c2de-40ca-9402-55ca035aa2f4"},"vehicle_type_id":"4","last_reported":1746457874,"current_range_meters":17200,"station_id":"ce4bhbh2rcd13ifvqeo0","pricing_plan_id":"cebpf4jnsgd1na2vs0mg"},{"bike_id":"99097e50-dd2e-47c3-a879-f48655baf4d9","system_id":"levelo_inurba_marseille","lat":43.245938,"lon":5.408316,"is_reserved":false,"is_disabled":false,"rental_uris":{"android":"levelo://app?vid=99097e50-dd2e-47c3-a879-f48655baf4d9","ios":"levelo://app?vid=99097e50-dd2e-47c3-a879-f48655baf4d9"},"vehicle_type_id":"4","last_reported":1746457874,"current_range_meters":17200,"station_id":"","pricing_plan_id":"cebpf4jnsgd1na2vs0mg"},{"bike_id":"07ee090e-b0fa-4b99-8008-de8369e7bda4","system_id":"levelo_inurba_marseille","lat":43.26216,"lon":5.37441,"is_reserved":false,"is_disabled":false,"rental_uris":{"android":"levelo://app?vid=07ee090e-b0fa-4b99-8008-de8369e7bda4","ios":"levelo://app?vid=07ee090e-b0fa-4b99-8008-de8369e7bda4"},"vehicle_type_id":"4","last_reported":1746457874,"current_range_meters":17200,"station_id":"ce4bhgp2rcd13ifvqfc0","pricing_plan_id":"cebpf4jnsgd1na2vs0mg"},{"bike_id":"e3bb4c0a-ea28-4d8b-a92a-340ecfdd5f1d","system_id":"levelo_inurba_marseille","lat":43.31041,"lon":5.37565,"is_reserved":false,"is_disabled":false,"rental_uris":{"android":"levelo://app?vid=e3bb4c0a-ea28-4d8b-a92a-340ecfdd5f1d","ios":"levelo://app?vid=e3bb4c0a-ea28-4d8b-a92a-340ecfdd5f1d"},"vehicle_type_id":"4","last_reported":1746457874,"current_range_meters":17200,"station_id":"","pricing_plan_id":"cebpf4jnsgd1na2vs0mg"},{"bike_id":"baf84009-c554-4da8-a4eb-0bab0496f2c1","system_id":"levelo_inurba_marseille","lat":43.29076,"lon":5.37175,"is_reserved":false,"is_disabled":false,"rental_uris":{"android":"levelo://app?vid=baf84009-c554-4da8-a4eb-0bab0496f2c1","ios":"levelo://app?vid=baf84009-c554-4da8-a4eb-0bab0496f2c1"},"vehicle_type_id":"4","last_reported":1746457874,"current_range_meters":17200,"station_id":"ce4bh5p2rcd13ifvqe4g","pricing_plan_id":"cebpf4jnsgd1na2vs0mg"},{"bike_id":"92aaf629-750c-4d7e-b48d-ab8b723b9d16","system_id":"levelo_inurba_marseille","lat":43.296864,"lon":5.379145,"is_reserved":false,"is_disabled":false,"rental_uris":{"android":"levelo://app?vid=92aaf629-750c-4d7e-b48d-ab8b723b9d16","ios":"levelo://app?vid=92aaf629-750c-4d7e-b48d-ab8b723b9d16"},"vehicle_type_id":"4","last_reported":1746457874,"current_range_meters":17200,"station_id":"ce4bgj92rcd13ifvqbd0","pricing_plan_id":"cebpf4jnsgd1na2vs0mg"},{"bike_id":"5a28b215-9e81-47e3-810a-e05e0062eaef","system_id":"levelo_inurba_marseille","lat":43.2952,"lon":5.39041,"is_reserved":false,"is_disabled":false,"rental_uris":{"android":"levelo://app?vid=5a28b215-9e81-47e3-810a-e05e0062eaef","ios":"levelo://app?vid=5a28b215-9e81-47e3-810a-e05e0062eaef"},"vehicle_type_id":"4","last_reported":1746457874,"current_range_meters":17200,"station_id":"ce4bh3p2rcd13ifvqdp0","pricing_plan_id":"cebpf4jnsgd1na2vs0mg"},{"bike_id":"af5e13ed-acf1-4224-abb0-760ca6c13e74","system_id":"levelo_inurba_marseille","lat":43.32656,"lon":5.40994,"is_reserved":false,"is_disabled":false,"rental_uris":{"android":"levelo://app?vid=af5e13ed-acf1-4224-abb0-760ca6c13e74","ios":"levelo://app?vid=af5e13ed-acf1-4224-abb0-760ca6c13e74"},"vehicle_type_id":"4","last_reported":1746457874,"current_range_meters":17200,"station_id":"ce4bhpp2rcd13ifvqhgg","pricing_plan_id":"cebpf4jnsgd1na2vs0mg"},{"bike_id":"3f84d55c-f7b3-443f-a8ba-1f83ba8291a2","system_id":"levelo_inurba_marseille","lat":43.21191,"lon":5.35075,"is_reserved":false,"is_disabled":false,"rental_uris":{"android":"levelo://app?vid=3f84d55c-f7b3-443f-a8ba-1f83ba8291a2","ios":"levelo://app?vid=3f84d55c-f7b3-443f-a8ba-1f83ba8291a2"},"vehicle_type_id":"4","last_reported":1746457874,"current_range_meters":17200,"station_id":"st_cvj6sg6p6f1abm77japg","pricing_plan_id":"cebpf4jnsgd1na2vs0mg"},{"bike_id":"44c2bfb7-3fdc-4727-8072-840b49e408d0","system_id":"levelo_inurba_marseille","lat":43.27812,"lon":5.40709,"is_reserved":false,"is_disabled":false,"rental_uris":{"android":"levelo://app?vid=44c2bfb7-3fdc-4727-8072-840b49e408d0","ios":"levelo://app?vid=44c2bfb7-3fdc-4727-8072-840b49e408d0"},"vehicle_type_id":"4","last_reported":1746457874,"current_range_meters":17200,"station_id":"ce4bhnh2rcd13ifvqgtg","pricing_plan_id":"cebpf4jnsgd1na2vs0mg"},{"bike_id":"b13fc276-f1de-4b03-978a-838903bfc8b5","system_id":"levelo_inurba_marseille","lat":43.28271,"lon":5.35065,"is_reserved":false,"is_disabled":false,"rental_uris":{"android":"levelo://app?vid=b13fc276-f1de-4b03-978a-838903bfc8b5","ios":"levelo://app?vid=b13fc276-f1de-4b03-978a-838903bfc8b5"},"vehicle_type_id":"4","last_reported":1746457874,"current_range_meters":17600,"station_id":"ce4bhbp2rcd13ifvqerg","pricing_plan_id":"cebpf4jnsgd1na2vs0mg"},{"bike_id":"d9766e1c-c799-4d16-aa57-1d47be3d5579","system_id":"levelo_inurba_marseille","lat":43.32662,"lon":5.40439,"is_reserved":false,"is_disabled":false,"rental_uris":{"android":"levelo://app?vid=d9766e1c-c799-4d16-aa57-1d47be3d5579","ios":"levelo://app?vid=d9766e1c-c799-4d16-aa57-1d47be3d5579"},"vehicle_type_id":"4","last_reported":1746457874,"current_range_meters":17600,"station_id":"","pricing_plan_id":"cebpf4jnsgd1na2vs0mg"},{"bike_id":"00902b00-cf1c-4ed7-b952-688da20d0733","system_id":"levelo_inurba_marseille","lat":43.32663,"lon":5.40988,"is_reserved":false,"is_disabled":false,"rental_uris":{"android":"levelo://app?vid=00902b00-cf1c-4ed7-b952-688da20d0733","ios":"levelo://app?vid=00902b00-cf1c-4ed7-b952-688da20d0733"},"vehicle_type_id":"4","last_reported":1746457874,"current_range_meters":17200,"station_id":"ce4bhpp2rcd13ifvqhgg","pricing_plan_id":"cebpf4jnsgd1na2vs0mg"},{"bike_id":"5987d684-ebbc-4e3b-9225-d827a0b9ff39","system_id":"levelo_inurba_marseille","lat":43.2396,"lon":5.3664,"is_reserved":false,"is_disabled":false,"rental_uris":{"android":"levelo://app?vid=5987d684-ebbc-4e3b-9225-d827a0b9ff39","ios":"levelo://app?vid=5987d684-ebbc-4e3b-9225-d827a0b9ff39"},"vehicle_type_id":"4","last_reported":1746457874,"current_range_meters":17600,"station_id":"ce4bhi12rcd13ifvqfp0","pricing_plan_id":"cebpf4jnsgd1na2vs0mg"},{"bike_id":"bfb768d4-db43-4db8-8659-afeb33dd4edd","system_id":"levelo_inurba_marseille","lat":43.30747,"lon":5.42455,"is_reserved":false,"is_disabled":false,"rental_uris":{"android":"levelo://app?vid=bfb768d4-db43-4db8-8659-afeb33dd4edd","ios":"levelo://app?vid=bfb768d4-db43-4db8-8659-afeb33dd4edd"},"vehicle_type_id":"4","last_reported":1746457874,"current_range_meters":17600,"station_id":"st_cvj6ca6bvosntc0bfgr0","pricing_plan_id":"cebpf4jnsgd1na2vs0mg"},{"bike_id":"a663771d-95dc-4674-ad1c-415719945ba3","system_id":"levelo_inurba_marseille","lat":43.32367,"lon":5.3889,"is_reserved":false,"is_disabled":false,"rental_uris":{"android":"levelo://app?vid=a663771d-95dc-4674-ad1c-415719945ba3","ios":"levelo://app?vid=a663771d-95dc-4674-ad1c-415719945ba3"},"vehicle_type_id":"4","last_reported":1746457874,"current_range_meters":17600,"station_id":"ce4bhqp2rcd13ifvqhog","pricing_plan_id":"cebpf4jnsgd1na2vs0mg"},{"bike_id":"8614d70c-5274-4c95-bda3-d1d7ed02fdda","system_id":"levelo_inurba_marseille","lat":43.32366,"lon":5.36736,"is_reserved":false,"is_disabled":false,"rental_uris":{"android":"levelo://app?vid=8614d70c-5274-4c95-bda3-d1d7ed02fdda","ios":"levelo://app?vid=8614d70c-5274-4c95-bda3-d1d7ed02fdda"},"vehicle_type_id":"4","last_reported":1746457874,"current_range_meters":17600,"station_id":"ce4bhsh2rcd13ifvqi2g","pricing_plan_id":"cebpf4jnsgd1na2vs0mg"},{"bike_id":"323a0983-2da9-498b-aedf-c3474555e8d8","system_id":"levelo_inurba_marseille","lat":43.301526,"lon":5.387763,"is_reserved":false,"is_disabled":false,"rental_uris":{"android":"levelo://app?vid=323a0983-2da9-498b-aedf-c3474555e8d8","ios":"levelo://app?vid=323a0983-2da9-498b-aedf-c3474555e8d8"},"vehicle_type_id":"4","last_reported":1746457874,"current_range_meters":17600,"station_id":"ce4bgg92rcd13ifvqb30","pricing_plan_id":"cebpf4jnsgd1na2vs0mg"},{"bike_id":"bff49253-c096-4b8e-a270-da7ad053d738","system_id":"levelo_inurba_marseille","lat":43.31166,"lon":5.38716,"is_reserved":false,"is_disabled":false,"rental_uris":{"android":"levelo://app?vid=bff49253-c096-4b8e-a270-da7ad053d738","ios":"levelo://app?vid=bff49253-c096-4b8e-a270-da7ad053d738"},"vehicle_type_id":"4","last_reported":1746457874,"current_range_meters":18000,"station_id":"ce4bgv12rcd13ifvqcp0","pricing_plan_id":"cebpf4jnsgd1na2vs0mg"},{"bike_id":"c7a326c4-f4aa-428b-8d80-40cb76c04bac","system_id":"levelo_inurba_marseille","lat":43.31716,"lon":5.37745,"is_reserved":false,"is_disabled":false,"rental_uris":{"android":"levelo://app?vid=c7a326c4-f4aa-428b-8d80-40cb76c04bac","ios":"levelo://app?vid=c7a326c4-f4aa-428b-8d80-40cb76c04bac"},"vehicle_type_id":"4","last_reported":1746457874,"current_range_meters":17600,"station_id":"ce4bgth2rcd13ifvqch0","pricing_plan_id":"cebpf4jnsgd1na2vs0mg"},{"bike_id":"a07db7df-d212-4a63-ba71-2fc2a43e04a0","system_id":"levelo_inurba_marseille","lat":43.31709,"lon":5.43675,"is_reserved":false,"is_disabled":false,"rental_uris":{"android":"levelo://app?vid=a07db7df-d212-4a63-ba71-2fc2a43e04a0","ios":"levelo://app?vid=a07db7df-d212-4a63-ba71-2fc2a43e04a0"},"vehicle_type_id":"4","last_reported":1746457874,"current_range_meters":18000,"station_id":"ce4bhp92rcd13ifvqhcg","pricing_plan_id":"cebpf4jnsgd1na2vs0mg"},{"bike_id":"7565e6a3-5cd9-4cf5-9cb6-d096dd38b162","system_id":"levelo_inurba_marseille","lat":43.31071,"lon":5.38356,"is_reserved":false,"is_disabled":false,"rental_uris":{"android":"levelo://app?vid=7565e6a3-5cd9-4cf5-9cb6-d096dd38b162","ios":"levelo://app?vid=7565e6a3-5cd9-4cf5-9cb6-d096dd38b162"},"vehicle_type_id":"4","last_reported":1746457874,"current_range_meters":18000,"station_id":"ce4bgv92rcd13ifvqcr0","pricing_plan_id":"cebpf4jnsgd1na2vs0mg"},{"bike_id":"ab90e9b6-0de2-4ade-b5fd-575dd5de365d","system_id":"levelo_inurba_marseille","lat":43.28151,"lon":5.42648,"is_reserved":false,"is_disabled":false,"rental_uris":{"android":"levelo://app?vid=ab90e9b6-0de2-4ade-b5fd-575dd5de365d","ios":"levelo://app?vid=ab90e9b6-0de2-4ade-b5fd-575dd5de365d"},"vehicle_type_id":"4","last_reported":1746457874,"current_range_meters":19600,"station_id":"ce4bhnh2rcd13ifvqgug","pricing_plan_id":"cebpf4jnsgd1na2vs0mg"},{"bike_id":"cac36750-2637-4fa4-bee0-9da800ac5a01","system_id":"levelo_inurba_marseille","lat":43.30783,"lon":5.37058,"is_reserved":false,"is_disabled":false,"rental_uris":{"android":"levelo://app?vid=cac36750-2637-4fa4-bee0-9da800ac5a01","ios":"levelo://app?vid=cac36750-2637-4fa4-bee0-9da800ac5a01"},"vehicle_type_id":"4","last_reported":1746457874,"current_range_meters":18800,"station_id":"","pricing_plan_id":"cebpf4jnsgd1na2vs0mg"},{"bike_id":"e6346de7-a60a-4fe2-a934-286e37d3b258","system_id":"levelo_inurba_marseille","lat":43.25821,"lon":5.39442,"is_reserved":false,"is_disabled":false,"rental_uris":{"android":"levelo://app?vid=e6346de7-a60a-4fe2-a934-286e37d3b258","ios":"levelo://app?vid=e6346de7-a60a-4fe2-a934-286e37d3b258"},"vehicle_type_id":"4","last_reported":1746457874,"current_range_meters":18800,"station_id":"ce4bhip2rcd13ifvqft0","pricing_plan_id":"cebpf4jnsgd1na2vs0mg"},{"bike_id":"394d0216-20e1-46ff-8aa6-ea499c976185","system_id":"levelo_inurba_marseille","lat":43.29897,"lon":5.4367,"is_reserved":false,"is_disabled":false,"rental_uris":{"android":"levelo://app?vid=394d0216-20e1-46ff-8aa6-ea499c976185","ios":"levelo://app?vid=394d0216-20e1-46ff-8aa6-ea499c976185"},"vehicle_type_id":"4","last_reported":1746457874,"current_range_meters":18800,"station_id":"ce4bhpp2rcd13ifvqhfg","pricing_plan_id":"cebpf4jnsgd1na2vs0mg"},{"bike_id":"a327ed7c-cb3d-44b1-bb3d-7951cd226f01","system_id":"levelo_inurba_marseille","lat":43.293396,"lon":5.371296,"is_reserved":false,"is_disabled":false,"rental_uris":{"android":"levelo://app?vid=a327ed7c-cb3d-44b1-bb3d-7951cd226f01","ios":"levelo://app?vid=a327ed7c-cb3d-44b1-bb3d-7951cd226f01"},"vehicle_type_id":"4","last_reported":1746457874,"current_range_meters":19200,"station_id":"","pricing_plan_id":"cebpf4jnsgd1na2vs0mg"},{"bike_id":"49e6f1a0-3667-46b6-bb46-ba8d71b1df96","system_id":"levelo_inurba_marseille","lat":43.21753,"lon":5.34638,"is_reserved":false,"is_disabled":false,"rental_uris":{"android":"levelo://app?vid=49e6f1a0-3667-46b6-bb46-ba8d71b1df96","ios":"levelo://app?vid=49e6f1a0-3667-46b6-bb46-ba8d71b1df96"},"vehicle_type_id":"4","last_reported":1746457874,"current_range_meters":19600,"station_id":"st_cvj6r9ubvosntc0bgbag","pricing_plan_id":"cebpf4jnsgd1na2vs0mg"},{"bike_id":"c8398de4-b3d4-47e5-aec6-3c8125260be0","system_id":"levelo_inurba_marseille","lat":43.2926,"lon":5.37626,"is_reserved":false,"is_disabled":false,"rental_uris":{"android":"levelo://app?vid=c8398de4-b3d4-47e5-aec6-3c8125260be0","ios":"levelo://app?vid=c8398de4-b3d4-47e5-aec6-3c8125260be0"},"vehicle_type_id":"4","last_reported":1746457874,"current_range_meters":19600,"station_id":"ce4bgi12rcd13ifvqb80","pricing_plan_id":"cebpf4jnsgd1na2vs0mg"},{"bike_id":"6ce81efa-e8f3-477a-b7a1-a1c58c727c56","system_id":"levelo_inurba_marseille","lat":43.21192,"lon":5.35076,"is_reserved":false,"is_disabled":false,"rental_uris":{"android":"levelo://app?vid=6ce81efa-e8f3-477a-b7a1-a1c58c727c56","ios":"levelo://app?vid=6ce81efa-e8f3-477a-b7a1-a1c58c727c56"},"vehicle_type_id":"4","last_reported":1746457874,"current_range_meters":19600,"station_id":"","pricing_plan_id":"cebpf4jnsgd1na2vs0mg"},{"bike_id":"13d72c90-097d-44e3-a161-c92142027aeb","system_id":"levelo_inurba_marseille","lat":43.32103,"lon":5.368,"is_reserved":false,"is_disabled":false,"rental_uris":{"android":"levelo://app?vid=13d72c90-097d-44e3-a161-c92142027aeb","ios":"levelo://app?vid=13d72c90-097d-44e3-a161-c92142027aeb"},"vehicle_type_id":"4","last_reported":1746457874,"current_range_meters":19600,"station_id":"ce4bhrh2rcd13ifvqhug","pricing_plan_id":"cebpf4jnsgd1na2vs0mg"},{"bike_id":"8f81c30e-d162-4132-9fd4-28a5180162bf","system_id":"levelo_inurba_marseille","lat":43.2804,"lon":5.36944,"is_reserved":false,"is_disabled":false,"rental_uris":{"android":"levelo://app?vid=8f81c30e-d162-4132-9fd4-28a5180162bf","ios":"levelo://app?vid=8f81c30e-d162-4132-9fd4-28a5180162bf"},"vehicle_type_id":"4","last_reported":1746457874,"current_range_meters":19200,"station_id":"ce4bha12rcd13ifvqef0","pricing_plan_id":"cebpf4jnsgd1na2vs0mg"},{"bike_id":"903e95bc-829e-45b9-a5c5-906f1151ff02","system_id":"levelo_inurba_marseille","lat":43.29522,"lon":5.39407,"is_reserved":false,"is_disabled":false,"rental_uris":{"android":"levelo://app?vid=903e95bc-829e-45b9-a5c5-906f1151ff02","ios":"levelo://app?vid=903e95bc-829e-45b9-a5c5-906f1151ff02"},"vehicle_type_id":"4","last_reported":1746457874,"current_range_meters":19600,"station_id":"ce4bh292rcd13ifvqdf0","pricing_plan_id":"cebpf4jnsgd1na2vs0mg"},{"bike_id":"f2d79ca6-cec6-4b04-9cc2-9a38b80e2e9e","system_id":"levelo_inurba_marseille","lat":43.25003,"lon":5.38927,"is_reserved":false,"is_disabled":false,"rental_uris":{"android":"levelo://app?vid=f2d79ca6-cec6-4b04-9cc2-9a38b80e2e9e","ios":"levelo://app?vid=f2d79ca6-cec6-4b04-9cc2-9a38b80e2e9e"},"vehicle_type_id":"4","last_reported":1746457874,"current_range_meters":19600,"station_id":"ce4bhgp2rcd13ifvqfd0","pricing_plan_id":"cebpf4jnsgd1na2vs0mg"},{"bike_id":"06b55a0c-a3ab-47ff-87d0-837d3530a140","system_id":"levelo_inurba_marseille","lat":43.31692,"lon":5.40479,"is_reserved":false,"is_disabled":false,"rental_uris":{"android":"levelo://app?vid=06b55a0c-a3ab-47ff-87d0-837d3530a140","ios":"levelo://app?vid=06b55a0c-a3ab-47ff-87d0-837d3530a140"},"vehicle_type_id":"4","last_reported":1746457874,"current_range_meters":19600,"station_id":"ce4bh012rcd13ifvqd00","pricing_plan_id":"cebpf4jnsgd1na2vs0mg"},{"bike_id":"91ccb5f4-40f8-49d9-8d5f-0a4465869c98","system_id":"levelo_inurba_marseille","lat":43.23236,"lon":5.355,"is_reserved":false,"is_disabled":false,"rental_uris":{"android":"levelo://app?vid=91ccb5f4-40f8-49d9-8d5f-0a4465869c98","ios":"levelo://app?vid=91ccb5f4-40f8-49d9-8d5f-0a4465869c98"},"vehicle_type_id":"4","last_reported":1746457874,"current_range_meters":20000,"station_id":"ce4bhu92rcd13ifvqi70","pricing_plan_id":"cebpf4jnsgd1na2vs0mg"},{"bike_id":"89d3f377-5a64-405e-ad75-45e8469ae3f6","system_id":"levelo_inurba_marseille","lat":43.26937,"lon":5.40269,"is_reserved":false,"is_disabled":true,"rental_uris":{"android":"levelo://app?vid=89d3f377-5a64-405e-ad75-45e8469ae3f6","ios":"levelo://app?vid=89d3f377-5a64-405e-ad75-45e8469ae3f6"},"vehicle_type_id":"4","last_reported":1746457874,"current_range_meters":20000,"station_id":"cjm6bp8fraef2m0cb0m0","pricing_plan_id":"cebpf4jnsgd1na2vs0mg"},{"bike_id":"28f05847-abf0-4337-9930-853e76ec1429","system_id":"levelo_inurba_marseille","lat":43.3204,"lon":5.41556,"is_reserved":false,"is_disabled":false,"rental_uris":{"android":"levelo://app?vid=28f05847-abf0-4337-9930-853e76ec1429","ios":"levelo://app?vid=28f05847-abf0-4337-9930-853e76ec1429"},"vehicle_type_id":"4","last_reported":1746457874,"current_range_meters":20400,"station_id":"ce4bhq92rcd13ifvqhkg","pricing_plan_id":"cebpf4jnsgd1na2vs0mg"},{"bike_id":"a300f7e6-aafc-472e-b32e-0f7a0f5c1689","system_id":"levelo_inurba_marseille","lat":43.305397,"lon":5.365574,"is_reserved":false,"is_disabled":false,"rental_uris":{"android":"levelo://app?vid=a300f7e6-aafc-472e-b32e-0f7a0f5c1689","ios":"levelo://app?vid=a300f7e6-aafc-472e-b32e-0f7a0f5c1689"},"vehicle_type_id":"4","last_reported":1746457874,"current_range_meters":20400,"station_id":"ce4bgs12rcd13ifvqcag","pricing_plan_id":"cebpf4jnsgd1na2vs0mg"},{"bike_id":"44496384-61d0-4fad-99d2-b003c939d4ec","system_id":"levelo_inurba_marseille","lat":43.30916,"lon":5.37277,"is_reserved":false,"is_disabled":false,"rental_uris":{"android":"levelo://app?vid=44496384-61d0-4fad-99d2-b003c939d4ec","ios":"levelo://app?vid=44496384-61d0-4fad-99d2-b003c939d4ec"},"vehicle_type_id":"4","last_reported":1746457874,"current_range_meters":20400,"station_id":"","pricing_plan_id":"cebpf4jnsgd1na2vs0mg"},{"bike_id":"9e1847a2-f320-4171-9620-2a69efe4344c","system_id":"levelo_inurba_marseille","lat":43.30754,"lon":5.40033,"is_reserved":false,"is_disabled":false,"rental_uris":{"android":"levelo://app?vid=9e1847a2-f320-4171-9620-2a69efe4344c","ios":"levelo://app?vid=9e1847a2-f320-4171-9620-2a69efe4344c"},"vehicle_type_id":"4","last_reported":1746457874,"current_range_meters":20400,"station_id":"","pricing_plan_id":"cebpf4jnsgd1na2vs0mg"},{"bike_id":"418ab636-f140-4478-acdc-21c7c14d6713","system_id":"levelo_inurba_marseille","lat":43.27316,"lon":5.39082,"is_reserved":false,"is_disabled":false,"rental_uris":{"android":"levelo://app?vid=418ab636-f140-4478-acdc-21c7c14d6713","ios":"levelo://app?vid=418ab636-f140-4478-acdc-21c7c14d6713"},"vehicle_type_id":"4","last_reported":1746457874,"current_range_meters":20000,"station_id":"ce4bhgp2rcd13ifvqfe0","pricing_plan_id":"cebpf4jnsgd1na2vs0mg"},{"bike_id":"4f29ae27-e2ec-4b53-be24-66da79a7738e","system_id":"levelo_inurba_marseille","lat":43.28705,"lon":5.39989,"is_reserved":false,"is_disabled":false,"rental_uris":{"android":"levelo://app?vid=4f29ae27-e2ec-4b53-be24-66da79a7738e","ios":"levelo://app?vid=4f29ae27-e2ec-4b53-be24-66da79a7738e"},"vehicle_type_id":"4","last_reported":1746457874,"current_range_meters":20800,"station_id":"ce4bho92rcd13ifvqh3g","pricing_plan_id":"cebpf4jnsgd1na2vs0mg"},{"bike_id":"8b743c37-334e-4ad4-86a0-c5a343bdeaaf","system_id":"levelo_inurba_marseille","lat":43.30301,"lon":5.39214,"is_reserved":false,"is_disabled":false,"rental_uris":{"android":"levelo://app?vid=8b743c37-334e-4ad4-86a0-c5a343bdeaaf","ios":"levelo://app?vid=8b743c37-334e-4ad4-86a0-c5a343bdeaaf"},"vehicle_type_id":"4","last_reported":1746457874,"current_range_meters":20800,"station_id":"ce4bgkh2rcd13ifvqbk0","pricing_plan_id":"cebpf4jnsgd1na2vs0mg"},{"bike_id":"671eaa72-e53a-466a-8a75-fadf305abbfe","system_id":"levelo_inurba_marseille","lat":43.29247,"lon":5.37617,"is_reserved":false,"is_disabled":false,"rental_uris":{"android":"levelo://app?vid=671eaa72-e53a-466a-8a75-fadf305abbfe","ios":"levelo://app?vid=671eaa72-e53a-466a-8a75-fadf305abbfe"},"vehicle_type_id":"4","last_reported":1746457874,"current_range_meters":20800,"station_id":"ce4bgi12rcd13ifvqb80","pricing_plan_id":"cebpf4jnsgd1na2vs0mg"},{"bike_id":"c871eee8-0da6-4377-a846-0bf7400cb3c3","system_id":"levelo_inurba_marseille","lat":43.27822,"lon":5.40721,"is_reserved":false,"is_disabled":true,"rental_uris":{"android":"levelo://app?vid=c871eee8-0da6-4377-a846-0bf7400cb3c3","ios":"levelo://app?vid=c871eee8-0da6-4377-a846-0bf7400cb3c3"},"vehicle_type_id":"4","last_reported":1746457874,"current_range_meters":21600,"station_id":"ce4bhnh2rcd13ifvqgtg","pricing_plan_id":"cebpf4jnsgd1na2vs0mg"},{"bike_id":"a23cb42d-f870-496e-b899-a14e06b44e93","system_id":"levelo_inurba_marseille","lat":43.29096,"lon":5.38147,"is_reserved":false,"is_disabled":false,"rental_uris":{"android":"levelo://app?vid=a23cb42d-f870-496e-b899-a14e06b44e93","ios":"levelo://app?vid=a23cb42d-f870-496e-b899-a14e06b44e93"},"vehicle_type_id":"4","last_reported":1746457874,"current_range_meters":20800,"station_id":"ce4bh512rcd13ifvqe2g","pricing_plan_id":"cebpf4jnsgd1na2vs0mg"},{"bike_id":"6076519d-9e56-4116-ac3f-cf1b55b1f768","system_id":"levelo_inurba_marseille","lat":43.24195,"lon":5.39715,"is_reserved":false,"is_disabled":false,"rental_uris":{"android":"levelo://app?vid=6076519d-9e56-4116-ac3f-cf1b55b1f768","ios":"levelo://app?vid=6076519d-9e56-4116-ac3f-cf1b55b1f768"},"vehicle_type_id":"4","last_reported":1746457874,"current_range_meters":21600,"station_id":"ce4bhn12rcd13ifvqgpg","pricing_plan_id":"cebpf4jnsgd1na2vs0mg"},{"bike_id":"f4f6f1b7-8fd6-4ed6-bf5e-e0ce83bb46bb","system_id":"levelo_inurba_marseille","lat":43.259298,"lon":5.409008,"is_reserved":false,"is_disabled":false,"rental_uris":{"android":"levelo://app?vid=f4f6f1b7-8fd6-4ed6-bf5e-e0ce83bb46bb","ios":"levelo://app?vid=f4f6f1b7-8fd6-4ed6-bf5e-e0ce83bb46bb"},"vehicle_type_id":"4","last_reported":1746457874,"current_range_meters":22400,"station_id":"ce4bhm92rcd13ifvqglg","pricing_plan_id":"cebpf4jnsgd1na2vs0mg"},{"bike_id":"1d93dc16-0832-499f-9386-5e2a1697fc1a","system_id":"levelo_inurba_marseille","lat":43.29829,"lon":5.37436,"is_reserved":false,"is_disabled":false,"rental_uris":{"android":"levelo://app?vid=1d93dc16-0832-499f-9386-5e2a1697fc1a","ios":"levelo://app?vid=1d93dc16-0832-499f-9386-5e2a1697fc1a"},"vehicle_type_id":"4","last_reported":1746457874,"current_range_meters":22400,"station_id":"","pricing_plan_id":"cebpf4jnsgd1na2vs0mg"},{"bike_id":"a5282e01-c144-4546-bc32-08cfde33aa76","system_id":"levelo_inurba_marseille","lat":43.28445,"lon":5.39177,"is_reserved":false,"is_disabled":false,"rental_uris":{"android":"levelo://app?vid=a5282e01-c144-4546-bc32-08cfde33aa76","ios":"levelo://app?vid=a5282e01-c144-4546-bc32-08cfde33aa76"},"vehicle_type_id":"4","last_reported":1746457874,"current_range_meters":22800,"station_id":"ce4bhoh2rcd13ifvqh5g","pricing_plan_id":"cebpf4jnsgd1na2vs0mg"},{"bike_id":"289f9f86-82b2-4d3d-83e5-701a9b04ed94","system_id":"levelo_inurba_marseille","lat":43.28266,"lon":5.3506,"is_reserved":false,"is_disabled":false,"rental_uris":{"android":"levelo://app?vid=289f9f86-82b2-4d3d-83e5-701a9b04ed94","ios":"levelo://app?vid=289f9f86-82b2-4d3d-83e5-701a9b04ed94"},"vehicle_type_id":"4","last_reported":1746457874,"current_range_meters":22800,"station_id":"ce4bhbp2rcd13ifvqerg","pricing_plan_id":"cebpf4jnsgd1na2vs0mg"},{"bike_id":"13df5d7f-7a13-4cac-8dc6-474579365af1","system_id":"levelo_inurba_marseille","lat":43.31117,"lon":5.37757,"is_reserved":false,"is_disabled":false,"rental_uris":{"android":"levelo://app?vid=13df5d7f-7a13-4cac-8dc6-474579365af1","ios":"levelo://app?vid=13df5d7f-7a13-4cac-8dc6-474579365af1"},"vehicle_type_id":"4","last_reported":1746457874,"current_range_meters":22800,"station_id":"ce4bgt92rcd13ifvqcg0","pricing_plan_id":"cebpf4jnsgd1na2vs0mg"},{"bike_id":"99b1c938-0bc4-42ba-9b47-225d974ee405","system_id":"levelo_inurba_marseille","lat":43.24188,"lon":5.39728,"is_reserved":false,"is_disabled":false,"rental_uris":{"android":"levelo://app?vid=99b1c938-0bc4-42ba-9b47-225d974ee405","ios":"levelo://app?vid=99b1c938-0bc4-42ba-9b47-225d974ee405"},"vehicle_type_id":"4","last_reported":1746457874,"current_range_meters":22800,"station_id":"ce4bhn12rcd13ifvqgpg","pricing_plan_id":"cebpf4jnsgd1na2vs0mg"},{"bike_id":"ac700e2e-c129-4f82-a3c3-f628077933a6","system_id":"levelo_inurba_marseille","lat":43.21189,"lon":5.35066,"is_reserved":false,"is_disabled":false,"rental_uris":{"android":"levelo://app?vid=ac700e2e-c129-4f82-a3c3-f628077933a6","ios":"levelo://app?vid=ac700e2e-c129-4f82-a3c3-f628077933a6"},"vehicle_type_id":"4","last_reported":1746457874,"current_range_meters":22800,"station_id":"st_cvj6sg6p6f1abm77japg","pricing_plan_id":"cebpf4jnsgd1na2vs0mg"},{"bike_id":"0d2882d1-9928-4254-b6d6-fe1e721bf7da","system_id":"levelo_inurba_marseille","lat":43.2926,"lon":5.37623,"is_reserved":false,"is_disabled":false,"rental_uris":{"android":"levelo://app?vid=0d2882d1-9928-4254-b6d6-fe1e721bf7da","ios":"levelo://app?vid=0d2882d1-9928-4254-b6d6-fe1e721bf7da"},"vehicle_type_id":"4","last_reported":1746457874,"current_range_meters":22800,"station_id":"ce4bgi12rcd13ifvqb80","pricing_plan_id":"cebpf4jnsgd1na2vs0mg"},{"bike_id":"fb50a817-c80b-41f4-a0eb-a351b9f977dc","system_id":"levelo_inurba_marseille","lat":43.30144,"lon":5.39868,"is_reserved":false,"is_disabled":false,"rental_uris":{"android":"levelo://app?vid=fb50a817-c80b-41f4-a0eb-a351b9f977dc","ios":"levelo://app?vid=fb50a817-c80b-41f4-a0eb-a351b9f977dc"},"vehicle_type_id":"4","last_reported":1746457874,"current_range_meters":22800,"station_id":"ce4bh0h2rcd13ifvqd40","pricing_plan_id":"cebpf4jnsgd1na2vs0mg"},{"bike_id":"8fa70930-3d89-410a-8a0d-ae58e85113d9","system_id":"levelo_inurba_marseille","lat":43.33751,"lon":5.37487,"is_reserved":false,"is_disabled":false,"rental_uris":{"android":"levelo://app?vid=8fa70930-3d89-410a-8a0d-ae58e85113d9","ios":"levelo://app?vid=8fa70930-3d89-410a-8a0d-ae58e85113d9"},"vehicle_type_id":"4","last_reported":1746457874,"current_range_meters":23200,"station_id":"","pricing_plan_id":"cebpf4jnsgd1na2vs0mg"},{"bike_id":"ef12a685-ba83-466b-86f2-cd9fe17bb3b1","system_id":"levelo_inurba_marseille","lat":43.32006,"lon":5.41564,"is_reserved":false,"is_disabled":false,"rental_uris":{"android":"levelo://app?vid=ef12a685-ba83-466b-86f2-cd9fe17bb3b1","ios":"levelo://app?vid=ef12a685-ba83-466b-86f2-cd9fe17bb3b1"},"vehicle_type_id":"4","last_reported":1746457874,"current_range_meters":23200,"station_id":"ce4bhq92rcd13ifvqhkg","pricing_plan_id":"cebpf4jnsgd1na2vs0mg"},{"bike_id":"76b2e26a-d1ed-47f3-a49b-06681f98f27f","system_id":"levelo_inurba_marseille","lat":43.23195,"lon":5.35551,"is_reserved":false,"is_disabled":false,"rental_uris":{"android":"levelo://app?vid=76b2e26a-d1ed-47f3-a49b-06681f98f27f","ios":"levelo://app?vid=76b2e26a-d1ed-47f3-a49b-06681f98f27f"},"vehicle_type_id":"4","last_reported":1746457874,"current_range_meters":23200,"station_id":"ce4bhu92rcd13ifvqi70","pricing_plan_id":"cebpf4jnsgd1na2vs0mg"},{"bike_id":"2af030d3-456e-428c-b868-62e40e83db57","system_id":"levelo_inurba_marseille","lat":43.29515,"lon":5.39397,"is_reserved":false,"is_disabled":false,"rental_uris":{"android":"levelo://app?vid=2af030d3-456e-428c-b868-62e40e83db57","ios":"levelo://app?vid=2af030d3-456e-428c-b868-62e40e83db57"},"vehicle_type_id":"4","last_reported":1746457874,"current_range_meters":23200,"station_id":"ce4bh292rcd13ifvqdf0","pricing_plan_id":"cebpf4jnsgd1na2vs0mg"},{"bike_id":"b4216838-733b-46cd-aae7-8693e0287a61","system_id":"levelo_inurba_marseille","lat":43.22924,"lon":5.35379,"is_reserved":false,"is_disabled":false,"rental_uris":{"android":"levelo://app?vid=b4216838-733b-46cd-aae7-8693e0287a61","ios":"levelo://app?vid=b4216838-733b-46cd-aae7-8693e0287a61"},"vehicle_type_id":"4","last_reported":1746457874,"current_range_meters":23200,"station_id":"cpo3532slgdg3j2ikp40","pricing_plan_id":"cebpf4jnsgd1na2vs0mg"},{"bike_id":"11fc333e-a6ef-4e35-8386-14da5aeaff85","system_id":"levelo_inurba_marseille","lat":43.31763,"lon":5.39017,"is_reserved":false,"is_disabled":false,"rental_uris":{"android":"levelo://app?vid=11fc333e-a6ef-4e35-8386-14da5aeaff85","ios":"levelo://app?vid=11fc333e-a6ef-4e35-8386-14da5aeaff85"},"vehicle_type_id":"4","last_reported":1746457874,"current_range_meters":23200,"station_id":"ce4bhqp2rcd13ifvqhng","pricing_plan_id":"cebpf4jnsgd1na2vs0mg"},{"bike_id":"6c12b20f-eae6-4447-9d08-60268bcc27e0","system_id":"levelo_inurba_marseille","lat":43.29082,"lon":5.37169,"is_reserved":false,"is_disabled":false,"rental_uris":{"android":"levelo://app?vid=6c12b20f-eae6-4447-9d08-60268bcc27e0","ios":"levelo://app?vid=6c12b20f-eae6-4447-9d08-60268bcc27e0"},"vehicle_type_id":"4","last_reported":1746457874,"current_range_meters":22800,"station_id":"ce4bh5p2rcd13ifvqe4g","pricing_plan_id":"cebpf4jnsgd1na2vs0mg"},{"bike_id":"235a669b-ae6f-417c-ab3c-d30974ea072a","system_id":"levelo_inurba_marseille","lat":43.296577,"lon":5.386437,"is_reserved":false,"is_disabled":false,"rental_uris":{"android":"levelo://app?vid=235a669b-ae6f-417c-ab3c-d30974ea072a","ios":"levelo://app?vid=235a669b-ae6f-417c-ab3c-d30974ea072a"},"vehicle_type_id":"4","last_reported":1746457874,"current_range_meters":23200,"station_id":"","pricing_plan_id":"cebpf4jnsgd1na2vs0mg"},{"bike_id":"1b21088e-ab8e-49b4-845a-067a8f6ccf93","system_id":"levelo_inurba_marseille","lat":43.2606,"lon":5.39394,"is_reserved":false,"is_disabled":false,"rental_uris":{"android":"levelo://app?vid=1b21088e-ab8e-49b4-845a-067a8f6ccf93","ios":"levelo://app?vid=1b21088e-ab8e-49b4-845a-067a8f6ccf93"},"vehicle_type_id":"4","last_reported":1746457874,"current_range_meters":22800,"station_id":"ce4bhh92rcd13ifvqfj0","pricing_plan_id":"cebpf4jnsgd1na2vs0mg"},{"bike_id":"1c39873e-2996-4942-9a37-5c3709a0392c","system_id":"levelo_inurba_marseille","lat":43.32663,"lon":5.40996,"is_reserved":false,"is_disabled":false,"rental_uris":{"android":"levelo://app?vid=1c39873e-2996-4942-9a37-5c3709a0392c","ios":"levelo://app?vid=1c39873e-2996-4942-9a37-5c3709a0392c"},"vehicle_type_id":"4","last_reported":1746457874,"current_range_meters":26000,"station_id":"ce4bhpp2rcd13ifvqhgg","pricing_plan_id":"cebpf4jnsgd1na2vs0mg"},{"bike_id":"b18ab5b8-bfd9-488f-896b-8a30401e8eb9","system_id":"levelo_inurba_marseille","lat":43.27214,"lon":5.39177,"is_reserved":false,"is_disabled":false,"rental_uris":{"android":"levelo://app?vid=b18ab5b8-bfd9-488f-896b-8a30401e8eb9","ios":"levelo://app?vid=b18ab5b8-bfd9-488f-896b-8a30401e8eb9"},"vehicle_type_id":"4","last_reported":1746457874,"current_range_meters":22800,"station_id":"ce4bhhp2rcd13ifvqfm0","pricing_plan_id":"cebpf4jnsgd1na2vs0mg"},{"bike_id":"9c3b9e33-6131-436f-a0bd-6ce00b9d515a","system_id":"levelo_inurba_marseille","lat":43.312243,"lon":5.368622,"is_reserved":false,"is_disabled":false,"rental_uris":{"android":"levelo://app?vid=9c3b9e33-6131-436f-a0bd-6ce00b9d515a","ios":"levelo://app?vid=9c3b9e33-6131-436f-a0bd-6ce00b9d515a"},"vehicle_type_id":"4","last_reported":1746457874,"current_range_meters":24000,"station_id":"ce4bgl92rcd13ifvqbq0","pricing_plan_id":"cebpf4jnsgd1na2vs0mg"},{"bike_id":"d814363f-7464-46c8-a461-632803600e5c","system_id":"levelo_inurba_marseille","lat":43.30871,"lon":5.40128,"is_reserved":false,"is_disabled":false,"rental_uris":{"android":"levelo://app?vid=d814363f-7464-46c8-a461-632803600e5c","ios":"levelo://app?vid=d814363f-7464-46c8-a461-632803600e5c"},"vehicle_type_id":"4","last_reported":1746457874,"current_range_meters":24400,"station_id":"","pricing_plan_id":"cebpf4jnsgd1na2vs0mg"},{"bike_id":"b4bac287-3615-423a-bca2-a11fb80cb066","system_id":"levelo_inurba_marseille","lat":43.230556,"lon":5.354904,"is_reserved":false,"is_disabled":false,"rental_uris":{"android":"levelo://app?vid=b4bac287-3615-423a-bca2-a11fb80cb066","ios":"levelo://app?vid=b4bac287-3615-423a-bca2-a11fb80cb066"},"vehicle_type_id":"4","last_reported":1746457874,"current_range_meters":24000,"station_id":"cpo3342slgdg3j2ifvpg","pricing_plan_id":"cebpf4jnsgd1na2vs0mg"},{"bike_id":"1ce91d32-87f1-400d-b8b0-4aa55d105388","system_id":"levelo_inurba_marseille","lat":43.25001,"lon":5.38921,"is_reserved":false,"is_disabled":false,"rental_uris":{"android":"levelo://app?vid=1ce91d32-87f1-400d-b8b0-4aa55d105388","ios":"levelo://app?vid=1ce91d32-87f1-400d-b8b0-4aa55d105388"},"vehicle_type_id":"4","last_reported":1746457874,"current_range_meters":24000,"station_id":"ce4bhgp2rcd13ifvqfd0","pricing_plan_id":"cebpf4jnsgd1na2vs0mg"},{"bike_id":"ebb3f176-d133-4ccc-8191-8a3c1893e108","system_id":"levelo_inurba_marseille","lat":43.25932,"lon":5.4091,"is_reserved":false,"is_disabled":false,"rental_uris":{"android":"levelo://app?vid=ebb3f176-d133-4ccc-8191-8a3c1893e108","ios":"levelo://app?vid=ebb3f176-d133-4ccc-8191-8a3c1893e108"},"vehicle_type_id":"4","last_reported":1746457874,"current_range_meters":24000,"station_id":"ce4bhm92rcd13ifvqglg","pricing_plan_id":"cebpf4jnsgd1na2vs0mg"},{"bike_id":"3ded0a6e-38e2-4175-acc2-3d56c45bd252","system_id":"levelo_inurba_marseille","lat":43.29198,"lon":5.35805,"is_reserved":false,"is_disabled":false,"rental_uris":{"android":"levelo://app?vid=3ded0a6e-38e2-4175-acc2-3d56c45bd252","ios":"levelo://app?vid=3ded0a6e-38e2-4175-acc2-3d56c45bd252"},"vehicle_type_id":"4","last_reported":1746457874,"current_range_meters":23200,"station_id":"ce4bhb12rcd13ifvqel0","pricing_plan_id":"cebpf4jnsgd1na2vs0mg"},{"bike_id":"206d449d-8708-40f5-a7ab-ae70c1507780","system_id":"levelo_inurba_marseille","lat":43.28436,"lon":5.3918,"is_reserved":false,"is_disabled":false,"rental_uris":{"android":"levelo://app?vid=206d449d-8708-40f5-a7ab-ae70c1507780","ios":"levelo://app?vid=206d449d-8708-40f5-a7ab-ae70c1507780"},"vehicle_type_id":"4","last_reported":1746457874,"current_range_meters":24000,"station_id":"ce4bhoh2rcd13ifvqh5g","pricing_plan_id":"cebpf4jnsgd1na2vs0mg"},{"bike_id":"92a6e98a-7e2c-445a-a00d-cfe031fc99e9","system_id":"levelo_inurba_marseille","lat":43.28615,"lon":5.35103,"is_reserved":false,"is_disabled":false,"rental_uris":{"android":"levelo://app?vid=92a6e98a-7e2c-445a-a00d-cfe031fc99e9","ios":"levelo://app?vid=92a6e98a-7e2c-445a-a00d-cfe031fc99e9"},"vehicle_type_id":"4","last_reported":1746457874,"current_range_meters":24000,"station_id":"ce4bhch2rcd13ifvqeug","pricing_plan_id":"cebpf4jnsgd1na2vs0mg"},{"bike_id":"2fa0b816-7ec6-4882-9376-089f3a9e406c","system_id":"levelo_inurba_marseille","lat":43.33755,"lon":5.37482,"is_reserved":false,"is_disabled":false,"rental_uris":{"android":"levelo://app?vid=2fa0b816-7ec6-4882-9376-089f3a9e406c","ios":"levelo://app?vid=2fa0b816-7ec6-4882-9376-089f3a9e406c"},"vehicle_type_id":"4","last_reported":1746457874,"current_range_meters":24000,"station_id":"","pricing_plan_id":"cebpf4jnsgd1na2vs0mg"},{"bike_id":"3fd0ba29-65b6-4d26-b8f0-0d5bd44edbca","system_id":"levelo_inurba_marseille","lat":43.3053,"lon":5.36541,"is_reserved":false,"is_disabled":false,"rental_uris":{"android":"levelo://app?vid=3fd0ba29-65b6-4d26-b8f0-0d5bd44edbca","ios":"levelo://app?vid=3fd0ba29-65b6-4d26-b8f0-0d5bd44edbca"},"vehicle_type_id":"4","last_reported":1746457874,"current_range_meters":24400,"station_id":"ce4bgs12rcd13ifvqcag","pricing_plan_id":"cebpf4jnsgd1na2vs0mg"},{"bike_id":"41b27247-7e43-4f5b-96a0-e41abce6fce6","system_id":"levelo_inurba_marseille","lat":43.29871,"lon":5.3973,"is_reserved":false,"is_disabled":false,"rental_uris":{"android":"levelo://app?vid=41b27247-7e43-4f5b-96a0-e41abce6fce6","ios":"levelo://app?vid=41b27247-7e43-4f5b-96a0-e41abce6fce6"},"vehicle_type_id":"4","last_reported":1746457874,"current_range_meters":24000,"station_id":"ce4bh0h2rcd13ifvqd50","pricing_plan_id":"cebpf4jnsgd1na2vs0mg"},{"bike_id":"22e69884-d911-4af5-adfc-70bc769b5fdc","system_id":"levelo_inurba_marseille","lat":43.262084,"lon":5.379381,"is_reserved":false,"is_disabled":false,"rental_uris":{"android":"levelo://app?vid=22e69884-d911-4af5-adfc-70bc769b5fdc","ios":"levelo://app?vid=22e69884-d911-4af5-adfc-70bc769b5fdc"},"vehicle_type_id":"4","last_reported":1746457874,"current_range_meters":24400,"station_id":"ce4bhjp2rcd13ifvqg90","pricing_plan_id":"cebpf4jnsgd1na2vs0mg"},{"bike_id":"43c5485d-06ed-451f-bc1f-812a0afc8c31","system_id":"levelo_inurba_marseille","lat":43.29841,"lon":5.36267,"is_reserved":false,"is_disabled":false,"rental_uris":{"android":"levelo://app?vid=43c5485d-06ed-451f-bc1f-812a0afc8c31","ios":"levelo://app?vid=43c5485d-06ed-451f-bc1f-812a0afc8c31"},"vehicle_type_id":"4","last_reported":1746457874,"current_range_meters":24400,"station_id":"ce4bgpp2rcd13ifvqc3g","pricing_plan_id":"cebpf4jnsgd1na2vs0mg"},{"bike_id":"04ab3126-0a59-4dae-a8f8-7cf9310d0866","system_id":"levelo_inurba_marseille","lat":43.280872,"lon":5.396582,"is_reserved":false,"is_disabled":false,"rental_uris":{"android":"levelo://app?vid=04ab3126-0a59-4dae-a8f8-7cf9310d0866","ios":"levelo://app?vid=04ab3126-0a59-4dae-a8f8-7cf9310d0866"},"vehicle_type_id":"4","last_reported":1746457874,"current_range_meters":24400,"station_id":"ce4bho12rcd13ifvqh2g","pricing_plan_id":"cebpf4jnsgd1na2vs0mg"},{"bike_id":"d8335d22-67e6-4497-9d95-611f5a019dd6","system_id":"levelo_inurba_marseille","lat":43.30528,"lon":5.36585,"is_reserved":false,"is_disabled":false,"rental_uris":{"android":"levelo://app?vid=d8335d22-67e6-4497-9d95-611f5a019dd6","ios":"levelo://app?vid=d8335d22-67e6-4497-9d95-611f5a019dd6"},"vehicle_type_id":"4","last_reported":1746457874,"current_range_meters":24400,"station_id":"ce4bgs12rcd13ifvqcag","pricing_plan_id":"cebpf4jnsgd1na2vs0mg"},{"bike_id":"ffe224d4-725f-40b7-8ee9-e1984fda9ebf","system_id":"levelo_inurba_marseille","lat":43.29046,"lon":5.35911,"is_reserved":false,"is_disabled":false,"rental_uris":{"android":"levelo://app?vid=ffe224d4-725f-40b7-8ee9-e1984fda9ebf","ios":"levelo://app?vid=ffe224d4-725f-40b7-8ee9-e1984fda9ebf"},"vehicle_type_id":"4","last_reported":1746457874,"current_range_meters":24400,"station_id":"ce4bha92rcd13ifvqeg0","pricing_plan_id":"cebpf4jnsgd1na2vs0mg"},{"bike_id":"cd622887-3dba-4e5e-ac9d-bf6e69f2ff90","system_id":"levelo_inurba_marseille","lat":43.24665,"lon":5.38162,"is_reserved":false,"is_disabled":false,"rental_uris":{"android":"levelo://app?vid=cd622887-3dba-4e5e-ac9d-bf6e69f2ff90","ios":"levelo://app?vid=cd622887-3dba-4e5e-ac9d-bf6e69f2ff90"},"vehicle_type_id":"4","last_reported":1746457874,"current_range_meters":24400,"station_id":"ce4bhih2rcd13ifvqfr0","pricing_plan_id":"cebpf4jnsgd1na2vs0mg"},{"bike_id":"8abeae87-7c2d-42c5-9813-6746a9e5a791","system_id":"levelo_inurba_marseille","lat":43.29422,"lon":5.38625,"is_reserved":false,"is_disabled":false,"rental_uris":{"android":"levelo://app?vid=8abeae87-7c2d-42c5-9813-6746a9e5a791","ios":"levelo://app?vid=8abeae87-7c2d-42c5-9813-6746a9e5a791"},"vehicle_type_id":"4","last_reported":1746457874,"current_range_meters":24400,"station_id":"ce4bh2h2rcd13ifvqdh0","pricing_plan_id":"cebpf4jnsgd1na2vs0mg"},{"bike_id":"e24c180a-7856-4c5a-86ee-c22273dc6a60","system_id":"levelo_inurba_marseille","lat":43.30798,"lon":5.43527,"is_reserved":false,"is_disabled":false,"rental_uris":{"android":"levelo://app?vid=e24c180a-7856-4c5a-86ee-c22273dc6a60","ios":"levelo://app?vid=e24c180a-7856-4c5a-86ee-c22273dc6a60"},"vehicle_type_id":"4","last_reported":1746457874,"current_range_meters":24400,"station_id":"ce4bhph2rcd13ifvqheg","pricing_plan_id":"cebpf4jnsgd1na2vs0mg"},{"bike_id":"bbe0ef64-47b0-4826-a350-c19cd691c1fe","system_id":"levelo_inurba_marseille","lat":43.26224,"lon":5.40449,"is_reserved":false,"is_disabled":false,"rental_uris":{"android":"levelo://app?vid=bbe0ef64-47b0-4826-a350-c19cd691c1fe","ios":"levelo://app?vid=bbe0ef64-47b0-4826-a350-c19cd691c1fe"},"vehicle_type_id":"4","last_reported":1746457874,"current_range_meters":24800,"station_id":"ce4bhmh2rcd13ifvqgmg","pricing_plan_id":"cebpf4jnsgd1na2vs0mg"},{"bike_id":"6c855517-e696-4ce7-861e-31f1f89773db","system_id":"levelo_inurba_marseille","lat":43.26215,"lon":5.37445,"is_reserved":false,"is_disabled":false,"rental_uris":{"android":"levelo://app?vid=6c855517-e696-4ce7-861e-31f1f89773db","ios":"levelo://app?vid=6c855517-e696-4ce7-861e-31f1f89773db"},"vehicle_type_id":"4","last_reported":1746457874,"current_range_meters":24800,"station_id":"ce4bhgp2rcd13ifvqfc0","pricing_plan_id":"cebpf4jnsgd1na2vs0mg"},{"bike_id":"f8e38fe4-ff30-44cf-805b-b403e5d456af","system_id":"levelo_inurba_marseille","lat":43.31758,"lon":5.39025,"is_reserved":false,"is_disabled":false,"rental_uris":{"android":"levelo://app?vid=f8e38fe4-ff30-44cf-805b-b403e5d456af","ios":"levelo://app?vid=f8e38fe4-ff30-44cf-805b-b403e5d456af"},"vehicle_type_id":"4","last_reported":1746457874,"current_range_meters":24800,"station_id":"ce4bhqp2rcd13ifvqhng","pricing_plan_id":"cebpf4jnsgd1na2vs0mg"},{"bike_id":"74f23f29-b341-40d6-8fdf-30133cab036a","system_id":"levelo_inurba_marseille","lat":43.330193,"lon":5.390347,"is_reserved":false,"is_disabled":false,"rental_uris":{"android":"levelo://app?vid=74f23f29-b341-40d6-8fdf-30133cab036a","ios":"levelo://app?vid=74f23f29-b341-40d6-8fdf-30133cab036a"},"vehicle_type_id":"4","last_reported":1746457874,"current_range_meters":24800,"station_id":"ce4bhr92rcd13ifvqhrg","pricing_plan_id":"cebpf4jnsgd1na2vs0mg"},{"bike_id":"5a912a1c-9726-40b7-b336-7ff0f4265fe3","system_id":"levelo_inurba_marseille","lat":43.2953,"lon":5.39406,"is_reserved":false,"is_disabled":false,"rental_uris":{"android":"levelo://app?vid=5a912a1c-9726-40b7-b336-7ff0f4265fe3","ios":"levelo://app?vid=5a912a1c-9726-40b7-b336-7ff0f4265fe3"},"vehicle_type_id":"4","last_reported":1746457874,"current_range_meters":24800,"station_id":"ce4bh292rcd13ifvqdf0","pricing_plan_id":"cebpf4jnsgd1na2vs0mg"},{"bike_id":"87470c34-0138-4fc5-962a-73384fac1d10","system_id":"levelo_inurba_marseille","lat":43.305217,"lon":5.367333,"is_reserved":false,"is_disabled":false,"rental_uris":{"android":"levelo://app?vid=87470c34-0138-4fc5-962a-73384fac1d10","ios":"levelo://app?vid=87470c34-0138-4fc5-962a-73384fac1d10"},"vehicle_type_id":"4","last_reported":1746457874,"current_range_meters":24800,"station_id":"ce4bgrp2rcd13ifvqc9g","pricing_plan_id":"cebpf4jnsgd1na2vs0mg"},{"bike_id":"f5774a0b-ba08-4a39-beee-b3ec8dcb2483","system_id":"levelo_inurba_marseille","lat":43.23963,"lon":5.36638,"is_reserved":false,"is_disabled":false,"rental_uris":{"android":"levelo://app?vid=f5774a0b-ba08-4a39-beee-b3ec8dcb2483","ios":"levelo://app?vid=f5774a0b-ba08-4a39-beee-b3ec8dcb2483"},"vehicle_type_id":"4","last_reported":1746457874,"current_range_meters":24800,"station_id":"ce4bhi12rcd13ifvqfp0","pricing_plan_id":"cebpf4jnsgd1na2vs0mg"},{"bike_id":"6623756c-7f81-4853-b09f-58f3d46def1f","system_id":"levelo_inurba_marseille","lat":43.25495,"lon":5.37647,"is_reserved":false,"is_disabled":false,"rental_uris":{"android":"levelo://app?vid=6623756c-7f81-4853-b09f-58f3d46def1f","ios":"levelo://app?vid=6623756c-7f81-4853-b09f-58f3d46def1f"},"vehicle_type_id":"4","last_reported":1746457874,"current_range_meters":25200,"station_id":"ce4bhh12rcd13ifvqff0","pricing_plan_id":"cebpf4jnsgd1na2vs0mg"},{"bike_id":"d84c1485-c1c8-4598-90da-232295d991ad","system_id":"levelo_inurba_marseille","lat":43.25501,"lon":5.37649,"is_reserved":false,"is_disabled":false,"rental_uris":{"android":"levelo://app?vid=d84c1485-c1c8-4598-90da-232295d991ad","ios":"levelo://app?vid=d84c1485-c1c8-4598-90da-232295d991ad"},"vehicle_type_id":"4","last_reported":1746457874,"current_range_meters":24800,"station_id":"ce4bhh12rcd13ifvqff0","pricing_plan_id":"cebpf4jnsgd1na2vs0mg"},{"bike_id":"9bf4f199-db79-41e1-b588-691dd6e10373","system_id":"levelo_inurba_marseille","lat":43.231794,"lon":5.399753,"is_reserved":false,"is_disabled":false,"rental_uris":{"android":"levelo://app?vid=9bf4f199-db79-41e1-b588-691dd6e10373","ios":"levelo://app?vid=9bf4f199-db79-41e1-b588-691dd6e10373"},"vehicle_type_id":"4","last_reported":1746457874,"current_range_meters":25200,"station_id":"ce4bhn12rcd13ifvqgqg","pricing_plan_id":"cebpf4jnsgd1na2vs0mg"},{"bike_id":"25b43ff9-4552-4193-9ae4-3c6087d1cce5","system_id":"levelo_inurba_marseille","lat":43.31758,"lon":5.39018,"is_reserved":false,"is_disabled":false,"rental_uris":{"android":"levelo://app?vid=25b43ff9-4552-4193-9ae4-3c6087d1cce5","ios":"levelo://app?vid=25b43ff9-4552-4193-9ae4-3c6087d1cce5"},"vehicle_type_id":"4","last_reported":1746457874,"current_range_meters":25200,"station_id":"ce4bhqp2rcd13ifvqhng","pricing_plan_id":"cebpf4jnsgd1na2vs0mg"},{"bike_id":"b608902f-8c0c-493f-ba10-38e74a0f373d","system_id":"levelo_inurba_marseille","lat":43.311017,"lon":5.424909,"is_reserved":false,"is_disabled":false,"rental_uris":{"android":"levelo://app?vid=b608902f-8c0c-493f-ba10-38e74a0f373d","ios":"levelo://app?vid=b608902f-8c0c-493f-ba10-38e74a0f373d"},