{"last_updated":1685362345,"ttl":30,"version":"2.2","data":{"bikes":[{"bike_id":"402ccca3-6035-40e5-adb3-51301963a9d6","system_id":"levelo_inurba_marseille","lat":43.31354,"lon":5.36689,"is_reserved":false,"is_disabled":false,"rental_uris":{"android":"levelo://app?vid=402ccca3-6035-40e5-adb3-51301963a9d6","ios":"levelo://app?vid=402ccca3-6035-40e5-adb3-51301963a9d6"},"vehicle_type_id":"4","last_reported":1685362345,"current_range_meters":30000,"station_id":"","pricing_plan_id":"free"},{"bike_id":"8c2c6a1f-bfcd-48a0-be6c-00b274b3cc94","system_id":"levelo_inurba_marseille","lat":43.31354,"lon":5.36699,"is_reserved":false,"is_disabled":false,"rental_uris":{"android":"levelo://app?vid=8c2c6a1f-bfcd-48a0-be6c-00b274b3cc94","ios":"levelo://app?vid=8c2c6a1f-bfcd-48a0-be6c-00b274b3cc94"},"vehicle_type_id":"4","last_reported":1685362345,"current_range_meters":29200,"station_id":"","pricing_plan_id":"free"},{"bike_id":"fc5df670-e00a-4882-86d6-57562b4778e7","system_id":"levelo_inurba_marseille","lat":43.31358,"lon":5.36701,"is_reserved":false,"is_disabled":false,"rental_uris":{"android":"levelo://app?vid=fc5df670-e00a-4882-86d6-57562b4778e7","ios":"levelo://app?vid=fc5df670-e00a-4882-86d6-57562b4778e7"},"vehicle_type_id":"4","last_reported":1685362345,"current_range_meters":28800,"station_id":"","pricing_plan_id":"free"},{"bike_id":"f5283d3b-cdd9-431d-b947-2400e1e55a44","system_id":"levelo_inurba_marseille","lat":43.312239,"lon":5.368562,"is_reserved":false,"is_disabled":false,"rental_uris":{"android":"levelo://app?vid=f5283d3b-cdd9-431d-b947-2400e1e55a44","ios":"levelo://app?vid=f5283d3b-cdd9-431d-b947-2400e1e55a44"},"vehicle_type_id":"4","last_reported":1685362345,"current_range_meters":30000,"station_id":"ce4bgl92rcd13ifvqbq0","pricing_plan_id":"free"},{"bike_id":"bde12189-5015-496c-ad9a-d34e59533c5b","system_id":"levelo_inurba_marseille","lat":43.312239,"lon":5.368562,"is_reserved":false,"is_disabled":false,"rental_uris":{"android":"levelo://app?vid=bde12189-5015-496c-ad9a-d34e59533c5b","ios":"levelo://app?vid=bde12189-5015-496c-ad9a-d34e59533c5b"},"vehicle_type_id":"4","last_reported":1685362345,"current_range_meters":28000,"station_id":"ce4bgl92rcd13ifvqbq0","pricing_plan_id":"free"},{"bike_id":"01597115-3ff6-48f6-a95f-5aa90ffcff55","system_id":"levelo_inurba_marseille","lat":43.312239,"lon":5.368562,"is_reserved":false,"is_disabled":false,"rental_uris":{"android":"levelo://app?vid=01597115-3ff6-48f6-a95f-5aa90ffcff55","ios":"levelo://app?vid=01597115-3ff6-48f6-a95f-5aa90ffcff55"},"vehicle_type_id":"4","last_reported":1685362345,"current_range_meters":27600,"station_id":"ce4bgl92rcd13ifvqbq0","pricing_plan_id":"free"},{"bike_id":"9325ecf4-ff47-40c3-bdbb-ecbdb9361211","system_id":"levelo_inurba_marseille","lat":43.312239,"lon":5.368562,"is_reserved":false,"is_disabled":false,"rental_uris":{"android":"levelo://app?vid=9325ecf4-ff47-40c3-bdbb-ecbdb9361211","ios":"levelo://app?vid=9325ecf4-ff47-40c3-bdbb-ecbdb9361211"},"vehicle_type_id":"4","last_reported":1685362345,"current_range_meters":32000,"station_id":"ce4bgl92rcd13ifvqbq0","pricing_plan_id":"free"},{"bike_id":"0077bbf9-38f1-4511-907e-3972b2141d66","system_id":"levelo_inurba_marseille","lat":43.312239,"lon":5.368562,"is_reserved":false,"is_disabled":false,"rental_uris":{"android":"levelo://app?vid=0077bbf9-38f1-4511-907e-3972b2141d66","ios":"levelo://app?vid=0077bbf9-38f1-4511-907e-3972b2141d66"},"vehicle_type_id":"4","last_reported":1685362345,"current_range_meters":28400,"station_id":"ce4bgl92rcd13ifvqbq0","pricing_plan_id":"free"},{"bike_id":"6506bcc2-b846-45f6-a165-8fb31e4eea8e","system_id":"levelo_inurba_marseille","lat":43.312239,"lon":5.368562,"is_reserved":false,"is_disabled":false,"rental_uris":{"android":"levelo://app?vid=6506bcc2-b846-45f6-a165-8fb31e4eea8e","ios":"levelo://app?vid=6506bcc2-b846-45f6-a165-8fb31e4eea8e"},"vehicle_type_id":"4","last_reported":1685362345,"current_range_meters":8000,"station_id":"ce4bgl92rcd13ifvqbq0","pricing_plan_id":"free"},{"bike_id":"6da8ba28-ab59-4dcc-b931-3ed5088f6463","system_id":"levelo_inurba_marseille","lat":43.312239,"lon":5.368562,"is_reserved":false,"is_disabled":false,"rental_uris":{"android":"levelo://app?vid=6da8ba28-ab59-4dcc-b931-3ed5088f6463","ios":"levelo://app?vid=6da8ba28-ab59-4dcc-b931-3ed5088f6463"},"vehicle_type_id":"4","last_reported":1685362345,"current_range_meters":22400,"station_id":"ce4bgl92rcd13ifvqbq0","pricing_plan_id":"free"},{"bike_id":"e9120509-e70a-4e8c-8483-97813eb4e02d","system_id":"levelo_inurba_marseille","lat":43.309076,"lon":5.368465,"is_reserved":false,"is_disabled":false,"rental_uris":{"android":"levelo://app?vid=e9120509-e70a-4e8c-8483-97813eb4e02d","ios":"levelo://app?vid=e9120509-e70a-4e8c-8483-97813eb4e02d"},"vehicle_type_id":"4","last_reported":1685362345,"current_range_meters":11600,"station_id":"ce4bgn92rcd13ifvqbvg","pricing_plan_id":"free"},{"bike_id":"37a434f9-42e3-4af9-8bb2-d31cc17ca9dc","system_id":"levelo_inurba_marseille","lat":43.314811,"lon":5.373103,"is_reserved":false,"is_disabled":false,"rental_uris":{"android":"levelo://app?vid=37a434f9-42e3-4af9-8bb2-d31cc17ca9dc","ios":"levelo://app?vid=37a434f9-42e3-4af9-8bb2-d31cc17ca9dc"},"vehicle_type_id":"4","last_reported":1685362345,"current_range_meters":17600,"station_id":"ce4bgt12rcd13ifvqcd0","pricing_plan_id":"free"},{"bike_id":"a7bd5c53-347d-4acc-bfb5-2becadb15754","system_id":"levelo_inurba_marseille","lat":43.314811,"lon":5.373103,"is_reserved":false,"is_disabled":false,"rental_uris":{"android":"levelo://app?vid=a7bd5c53-347d-4acc-bfb5-2becadb15754","ios":"levelo://app?vid=a7bd5c53-347d-4acc-bfb5-2becadb15754"},"vehicle_type_id":"4","last_reported":1685362345,"current_range_meters":16000,"station_id":"ce4bgt12rcd13ifvqcd0","pricing_plan_id":"free"},{"bike_id":"41ffa87d-a512-4f94-a2e8-70f21f89ce53","system_id":"levelo_inurba_marseille","lat":43.314811,"lon":5.373103,"is_reserved":false,"is_disabled":false,"rental_uris":{"android":"levelo://app?vid=41ffa87d-a512-4f94-a2e8-70f21f89ce53","ios":"levelo://app?vid=41ffa87d-a512-4f94-a2e8-70f21f89ce53"},"vehicle_type_id":"4","last_reported":1685362345,"current_range_meters":32000,"station_id":"ce4bgt12rcd13ifvqcd0","pricing_plan_id":"free"},{"bike_id":"7570ee14-00dd-48cf-a6dc-3e43c9d417d0","system_id":"levelo_inurba_marseille","lat":43.314811,"lon":5.373103,"is_reserved":false,"is_disabled":false,"rental_uris":{"android":"levelo://app?vid=7570ee14-00dd-48cf-a6dc-3e43c9d417d0","ios":"levelo://app?vid=7570ee14-00dd-48cf-a6dc-3e43c9d417d0"},"vehicle_type_id":"4","last_reported":1685362345,"current_range_meters":28800,"station_id":"ce4bgt12rcd13ifvqcd0","pricing_plan_id":"free"},{"bike_id":"2ba23640-e1c1-4cc5-a881-a4ead8b840d9","system_id":"levelo_inurba_marseille","lat":43.314811,"lon":5.373103,"is_reserved":false,"is_disabled":false,"rental_uris":{"android":"levelo://app?vid=2ba23640-e1c1-4cc5-a881-a4ead8b840d9","ios":"levelo://app?vid=2ba23640-e1c1-4cc5-a881-a4ead8b840d9"},"vehicle_type_id":"4","last_reported":1685362345,"current_range_meters":30400,"station_id":"ce4bgt12rcd13ifvqcd0","pricing_plan_id":"free"},{"bike_id":"5cb08692-98af-4cf7-ba4a-cd60b2fd95c2","system_id":"levelo_inurba_marseille","lat":43.314811,"lon":5.373103,"is_reserved":false,"is_disabled":false,"rental_uris":{"android":"levelo://app?vid=5cb08692-98af-4cf7-ba4a-cd60b2fd95c2","ios":"levelo://app?vid=5cb08692-98af-4cf7-ba4a-cd60b2fd95c2"},"vehicle_type_id":"4","last_reported":1685362345,"current_range_meters":20000,"station_id":"ce4bgt12rcd13ifvqcd0","pricing_plan_id":"free"},{"bike_id":"cafa39a6-151e-4b43-8798-0e078854a369","system_id":"levelo_inurba_marseille","lat":43.314811,"lon":5.373104,"is_reserved":false,"is_disabled":false,"rental_uris":{"android":"levelo://app?vid=cafa39a6-151e-4b43-8798-0e078854a369","ios":"levelo://app?vid=cafa39a6-151e-4b43-8798-0e078854a369"},"vehicle_type_id":"4","last_reported":1685362345,"current_range_meters":31200,"station_id":"ce4bgt12rcd13ifvqcd0","pricing_plan_id":"free"},{"bike_id":"fb845587-1cce-4283-8985-9fe21f142ed3","system_id":"levelo_inurba_marseille","lat":43.314811,"lon":5.373103,"is_reserved":false,"is_disabled":false,"rental_uris":{"android":"levelo://app?vid=fb845587-1cce-4283-8985-9fe21f142ed3","ios":"levelo://app?vid=fb845587-1cce-4283-8985-9fe21f142ed3"},"vehicle_type_id":"4","last_reported":1685362345,"current_range_meters":27200,"station_id":"ce4bgt12rcd13ifvqcd0","pricing_plan_id":"free"},{"bike_id":"d226e977-3f0b-4b0c-a0e0-157c44aec210","system_id":"levelo_inurba_marseille","lat":43.314811,"lon":5.373104,"is_reserved":false,"is_disabled":false,"rental_uris":{"android":"levelo://app?vid=d226e977-3f0b-4b0c-a0e0-157c44aec210","ios":"levelo://app?vid=d226e977-3f0b-4b0c-a0e0-157c44aec210"},"vehicle_type_id":"4","last_reported":1685362345,"current_range_meters":28400,"station_id":"ce4bgt12rcd13ifvqcd0","pricing_plan_id":"free"},{"bike_id":"fe11987b-b92a-46bc-a528-06af47b13f75","system_id":"levelo_inurba_marseille","lat":43.30886,"lon":5.37194,"is_reserved":false,"is_disabled":false,"rental_uris":{"android":"levelo://app?vid=fe11987b-b92a-46bc-a528-06af47b13f75","ios":"levelo://app?vid=fe11987b-b92a-46bc-a528-06af47b13f75"},"vehicle_type_id":"4","last_reported":1685362345,"current_range_meters":10800,"station_id":"","pricing_plan_id":"free"},{"bike_id":"23b18efb-ea05-418b-a97f-c634d85706bb","system_id":"levelo_inurba_marseille","lat":43.30549,"lon":5.36523,"is_reserved":false,"is_disabled":false,"rental_uris":{"android":"levelo://app?vid=23b18efb-ea05-418b-a97f-c634d85706bb","ios":"levelo://app?vid=23b18efb-ea05-418b-a97f-c634d85706bb"},"vehicle_type_id":"4","last_reported":1685362345,"current_range_meters":30800,"station_id":"","pricing_plan_id":"free"},{"bike_id":"58577d8e-28a9-4193-984e-10dbe2f3f5c9","system_id":"levelo_inurba_marseille","lat":43.305706,"lon":5.365654,"is_reserved":false,"is_disabled":false,"rental_uris":{"android":"levelo://app?vid=58577d8e-28a9-4193-984e-10dbe2f3f5c9","ios":"levelo://app?vid=58577d8e-28a9-4193-984e-10dbe2f3f5c9"},"vehicle_type_id":"4","last_reported":1685362345,"current_range_meters":16800,"station_id":"ce4bgs12rcd13ifvqcag","pricing_plan_id":"free"},{"bike_id":"919a36b9-ae6c-438a-aaa3-37ab5c02734d","system_id":"levelo_inurba_marseille","lat":43.305706,"lon":5.365654,"is_reserved":false,"is_disabled":false,"rental_uris":{"android":"levelo://app?vid=919a36b9-ae6c-438a-aaa3-37ab5c02734d","ios":"levelo://app?vid=919a36b9-ae6c-438a-aaa3-37ab5c02734d"},"vehicle_type_id":"4","last_reported":1685362345,"current_range_meters":23600,"station_id":"ce4bgs12rcd13ifvqcag","pricing_plan_id":"free"},{"bike_id":"f62f5bf6-0958-4f7e-8a90-6db6546ccb9e","system_id":"levelo_inurba_marseille","lat":43.305706,"lon":5.365654,"is_reserved":false,"is_disabled":false,"rental_uris":{"android":"levelo://app?vid=f62f5bf6-0958-4f7e-8a90-6db6546ccb9e","ios":"levelo://app?vid=f62f5bf6-0958-4f7e-8a90-6db6546ccb9e"},"vehicle_type_id":"4","last_reported":1685362345,"current_range_meters":14000,"station_id":"ce4bgs12rcd13ifvqcag","pricing_plan_id":"free"},{"bike_id":"a15574de-0b84-4e7e-8d3b-cd8b2d5f802a","system_id":"levelo_inurba_marseille","lat":43.305706,"lon":5.365654,"is_reserved":false,"is_disabled":false,"rental_uris":{"android":"levelo://app?vid=a15574de-0b84-4e7e-8d3b-cd8b2d5f802a","ios":"levelo://app?vid=a15574de-0b84-4e7e-8d3b-cd8b2d5f802a"},"vehicle_type_id":"4","last_reported":1685362345,"current_range_meters":16800,"station_id":"ce4bgs12rcd13ifvqcag","pricing_plan_id":"free"},{"bike_id":"e7618ff6-87bc-45ba-a1a1-889a57112968","system_id":"levelo_inurba_marseille","lat":43.305706,"lon":5.365654,"is_reserved":false,"is_disabled":false,"rental_uris":{"android":"levelo://app?vid=e7618ff6-87bc-45ba-a1a1-889a57112968","ios":"levelo://app?vid=e7618ff6-87bc-45ba-a1a1-889a57112968"},"vehicle_type_id":"4","last_reported":1685362345,"current_range_meters":17200,"station_id":"ce4bgs12rcd13ifvqcag","pricing_plan_id":"free"},{"bike_id":"1e23fd3e-394c-43a5-8f90-f0043b99d7ee","system_id":"levelo_inurba_marseille","lat":43.30531,"lon":5.36539,"is_reserved":false,"is_disabled":false,"rental_uris":{"android":"levelo://app?vid=1e23fd3e-394c-43a5-8f90-f0043b99d7ee","ios":"levelo://app?vid=1e23fd3e-394c-43a5-8f90-f0043b99d7ee"},"vehicle_type_id":"4","last_reported":1685362345,"current_range_meters":25200,"station_id":"","pricing_plan_id":"free"},{"bike_id":"2abbeb27-eb13-49ef-b37f-1fcac8570c65","system_id":"levelo_inurba_marseille","lat":43.305989,"lon":5.37225,"is_reserved":false,"is_disabled":false,"rental_uris":{"android":"levelo://app?vid=2abbeb27-eb13-49ef-b37f-1fcac8570c65","ios":"levelo://app?vid=2abbeb27-eb13-49ef-b37f-1fcac8570c65"},"vehicle_type_id":"4","last_reported":1685362345,"current_range_meters":16000,"station_id":"ce4bgqh2rcd13ifvqc4g","pricing_plan_id":"free"},{"bike_id":"9e6539e6-addd-4cb9-a871-ce0c5f834281","system_id":"levelo_inurba_marseille","lat":43.305989,"lon":5.37225,"is_reserved":false,"is_disabled":false,"rental_uris":{"android":"levelo://app?vid=9e6539e6-addd-4cb9-a871-ce0c5f834281","ios":"levelo://app?vid=9e6539e6-addd-4cb9-a871-ce0c5f834281"},"vehicle_type_id":"4","last_reported":1685362345,"current_range_meters":31200,"station_id":"ce4bgqh2rcd13ifvqc4g","pricing_plan_id":"free"},{"bike_id":"00ff1957-d89a-409f-a388-9a018ba2d252","system_id":"levelo_inurba_marseille","lat":43.305989,"lon":5.37225,"is_reserved":false,"is_disabled":false,"rental_uris":{"android":"levelo://app?vid=00ff1957-d89a-409f-a388-9a018ba2d252","ios":"levelo://app?vid=00ff1957-d89a-409f-a388-9a018ba2d252"},"vehicle_type_id":"4","last_reported":1685362345,"current_range_meters":23200,"station_id":"ce4bgqh2rcd13ifvqc4g","pricing_plan_id":"free"},{"bike_id":"eaed64db-2954-471b-831d-2b27165b510c","system_id":"levelo_inurba_marseille","lat":43.305989,"lon":5.37225,"is_reserved":false,"is_disabled":false,"rental_uris":{"android":"levelo://app?vid=eaed64db-2954-471b-831d-2b27165b510c","ios":"levelo://app?vid=eaed64db-2954-471b-831d-2b27165b510c"},"vehicle_type_id":"4","last_reported":1685362345,"current_range_meters":26800,"station_id":"ce4bgqh2rcd13ifvqc4g","pricing_plan_id":"free"},{"bike_id":"6f340458-3b47-4749-b62b-6c6b1c44fedb","system_id":"levelo_inurba_marseille","lat":43.305989,"lon":5.37225,"is_reserved":false,"is_disabled":false,"rental_uris":{"android":"levelo://app?vid=6f340458-3b47-4749-b62b-6c6b1c44fedb","ios":"levelo://app?vid=6f340458-3b47-4749-b62b-6c6b1c44fedb"},"vehicle_type_id":"4","last_reported":1685362345,"current_range_meters":11200,"station_id":"ce4bgqh2rcd13ifvqc4g","pricing_plan_id":"free"},{"bike_id":"cfe8b94b-e6f8-4730-bb47-d0b7129b7594","system_id":"levelo_inurba_marseille","lat":43.30916,"lon":5.37672,"is_reserved":false,"is_disabled":false,"rental_uris":{"android":"levelo://app?vid=cfe8b94b-e6f8-4730-bb47-d0b7129b7594","ios":"levelo://app?vid=cfe8b94b-e6f8-4730-bb47-d0b7129b7594"},"vehicle_type_id":"4","last_reported":1685362345,"current_range_meters":20800,"station_id":"","pricing_plan_id":"free"},{"bike_id":"ab61e461-6e58-460b-a6af-f36ba6890613","system_id":"levelo_inurba_marseille","lat":43.311125,"lon":5.377624,"is_reserved":false,"is_disabled":false,"rental_uris":{"android":"levelo://app?vid=ab61e461-6e58-460b-a6af-f36ba6890613","ios":"levelo://app?vid=ab61e461-6e58-460b-a6af-f36ba6890613"},"vehicle_type_id":"4","last_reported":1685362345,"current_range_meters":4400,"station_id":"ce4bgt92rcd13ifvqcg0","pricing_plan_id":"free"},{"bike_id":"ac46bd21-4552-4c0d-9719-e4d4af40510d","system_id":"levelo_inurba_marseille","lat":43.317075,"lon":5.377367,"is_reserved":false,"is_disabled":false,"rental_uris":{"android":"levelo://app?vid=ac46bd21-4552-4c0d-9719-e4d4af40510d","ios":"levelo://app?vid=ac46bd21-4552-4c0d-9719-e4d4af40510d"},"vehicle_type_id":"4","last_reported":1685362345,"current_range_meters":23200,"station_id":"ce4bgth2rcd13ifvqch0","pricing_plan_id":"free"},{"bike_id":"bfdd1e9b-6280-49f7-b9b8-d698e08c570c","system_id":"levelo_inurba_marseille","lat":43.317075,"lon":5.377367,"is_reserved":false,"is_disabled":false,"rental_uris":{"android":"levelo://app?vid=bfdd1e9b-6280-49f7-b9b8-d698e08c570c","ios":"levelo://app?vid=bfdd1e9b-6280-49f7-b9b8-d698e08c570c"},"vehicle_type_id":"4","last_reported":1685362345,"current_range_meters":22000,"station_id":"ce4bgth2rcd13ifvqch0","pricing_plan_id":"free"},{"bike_id":"db297c34-d4b1-4342-a5ff-9683d5f35f5f","system_id":"levelo_inurba_marseille","lat":43.315293,"lon":5.380349,"is_reserved":false,"is_disabled":false,"rental_uris":{"android":"levelo://app?vid=db297c34-d4b1-4342-a5ff-9683d5f35f5f","ios":"levelo://app?vid=db297c34-d4b1-4342-a5ff-9683d5f35f5f"},"vehicle_type_id":"4","last_reported":1685362345,"current_range_meters":22800,"station_id":"ce4bhsp2rcd13ifvqi50","pricing_plan_id":"free"},{"bike_id":"9a7d1a88-7bc5-4bee-a909-7b1c07088442","system_id":"levelo_inurba_marseille","lat":43.315293,"lon":5.380349,"is_reserved":false,"is_disabled":false,"rental_uris":{"android":"levelo://app?vid=9a7d1a88-7bc5-4bee-a909-7b1c07088442","ios":"levelo://app?vid=9a7d1a88-7bc5-4bee-a909-7b1c07088442"},"vehicle_type_id":"4","last_reported":1685362345,"current_range_meters":24800,"station_id":"ce4bhsp2rcd13ifvqi50","pricing_plan_id":"free"},{"bike_id":"d03dfde3-848d-4a12-b8c5-302f4c16e8c3","system_id":"levelo_inurba_marseille","lat":43.31556,"lon":5.38048,"is_reserved":false,"is_disabled":false,"rental_uris":{"android":"levelo://app?vid=d03dfde3-848d-4a12-b8c5-302f4c16e8c3","ios":"levelo://app?vid=d03dfde3-848d-4a12-b8c5-302f4c16e8c3"},"vehicle_type_id":"4","last_reported":1685362345,"current_range_meters":18000,"station_id":"","pricing_plan_id":"free"},{"bike_id":"c7299b71-f8ad-40e6-9cc2-98137858aa73","system_id":"levelo_inurba_marseille","lat":43.32004,"lon":5.38166,"is_reserved":false,"is_disabled":false,"rental_uris":{"android":"levelo://app?vid=c7299b71-f8ad-40e6-9cc2-98137858aa73","ios":"levelo://app?vid=c7299b71-f8ad-40e6-9cc2-98137858aa73"},"vehicle_type_id":"4","last_reported":1685362345,"current_range_meters":400,"station_id":"ce4bhr12rcd13ifvqhpg","pricing_plan_id":"free"},{"bike_id":"9ff55cc4-5649-4efc-b25d-0259ea602dbd","system_id":"levelo_inurba_marseille","lat":43.299222,"lon":5.365554,"is_reserved":false,"is_disabled":false,"rental_uris":{"android":"levelo://app?vid=9ff55cc4-5649-4efc-b25d-0259ea602dbd","ios":"levelo://app?vid=9ff55cc4-5649-4efc-b25d-0259ea602dbd"},"vehicle_type_id":"4","last_reported":1685362345,"current_range_meters":12800,"station_id":"ce4bgm92rcd13ifvqbr0","pricing_plan_id":"free"},{"bike_id":"cfbeaa0d-d5e1-4854-831f-55481f86303c","system_id":"levelo_inurba_marseille","lat":43.298433,"lon":5.362774,"is_reserved":false,"is_disabled":false,"rental_uris":{"android":"levelo://app?vid=cfbeaa0d-d5e1-4854-831f-55481f86303c","ios":"levelo://app?vid=cfbeaa0d-d5e1-4854-831f-55481f86303c"},"vehicle_type_id":"4","last_reported":1685362345,"current_range_meters":28000,"station_id":"ce4bgpp2rcd13ifvqc3g","pricing_plan_id":"free"},{"bike_id":"bb77bde5-926f-48cb-9302-4de2641e52d3","system_id":"levelo_inurba_marseille","lat":43.298433,"lon":5.362774,"is_reserved":false,"is_disabled":false,"rental_uris":{"android":"levelo://app?vid=bb77bde5-926f-48cb-9302-4de2641e52d3","ios":"levelo://app?vid=bb77bde5-926f-48cb-9302-4de2641e52d3"},"vehicle_type_id":"4","last_reported":1685362345,"current_range_meters":22000,"station_id":"ce4bgpp2rcd13ifvqc3g","pricing_plan_id":"free"},{"bike_id":"e15d0be6-369b-4bf0-9084-2907e33ad23f","system_id":"levelo_inurba_marseille","lat":43.298433,"lon":5.362774,"is_reserved":false,"is_disabled":false,"rental_uris":{"android":"levelo://app?vid=e15d0be6-369b-4bf0-9084-2907e33ad23f","ios":"levelo://app?vid=e15d0be6-369b-4bf0-9084-2907e33ad23f"},"vehicle_type_id":"4","last_reported":1685362345,"current_range_meters":31600,"station_id":"ce4bgpp2rcd13ifvqc3g","pricing_plan_id":"free"},{"bike_id":"af8a7e6f-ff97-4cb2-acc2-ca7cb75722c7","system_id":"levelo_inurba_marseille","lat":43.298433,"lon":5.362774,"is_reserved":false,"is_disabled":false,"rental_uris":{"android":"levelo://app?vid=af8a7e6f-ff97-4cb2-acc2-ca7cb75722c7","ios":"levelo://app?vid=af8a7e6f-ff97-4cb2-acc2-ca7cb75722c7"},"vehicle_type_id":"4","last_reported":1685362345,"current_range_meters":27600,"station_id":"ce4bgpp2rcd13ifvqc3g","pricing_plan_id":"free"},{"bike_id":"d0a855ff-854d-4c0e-9d8b-c58962b3840b","system_id":"levelo_inurba_marseille","lat":43.298433,"lon":5.362774,"is_reserved":false,"is_disabled":false,"rental_uris":{"android":"levelo://app?vid=d0a855ff-854d-4c0e-9d8b-c58962b3840b","ios":"levelo://app?vid=d0a855ff-854d-4c0e-9d8b-c58962b3840b"},"vehicle_type_id":"4","last_reported":1685362345,"current_range_meters":10400,"station_id":"ce4bgpp2rcd13ifvqc3g","pricing_plan_id":"free"},{"bike_id":"81a2c496-206b-42db-91a2-88b5b3f3c6c4","system_id":"levelo_inurba_marseille","lat":43.298433,"lon":5.362774,"is_reserved":false,"is_disabled":false,"rental_uris":{"android":"levelo://app?vid=81a2c496-206b-42db-91a2-88b5b3f3c6c4","ios":"levelo://app?vid=81a2c496-206b-42db-91a2-88b5b3f3c6c4"},"vehicle_type_id":"4","last_reported":1685362345,"current_range_meters":23200,"station_id":"ce4bgpp2rcd13ifvqc3g","pricing_plan_id":"free"},{"bike_id":"731aeef7-187a-42db-bbb6-15f8718bc8c6","system_id":"levelo_inurba_marseille","lat":43.298433,"lon":5.362774,"is_reserved":false,"is_disabled":false,"rental_uris":{"android":"levelo://app?vid=731aeef7-187a-42db-bbb6-15f8718bc8c6","ios":"levelo://app?vid=731aeef7-187a-42db-bbb6-15f8718bc8c6"},"vehicle_type_id":"4","last_reported":1685362345,"current_range_meters":8400,"station_id":"ce4bgpp2rcd13ifvqc3g","pricing_plan_id":"free"},{"bike_id":"936957ae-1140-4f5c-9809-7e628422a747","system_id":"levelo_inurba_marseille","lat":43.298433,"lon":5.362774,"is_reserved":false,"is_disabled":false,"rental_uris":{"android":"levelo://app?vid=936957ae-1140-4f5c-9809-7e628422a747","ios":"levelo://app?vid=936957ae-1140-4f5c-9809-7e628422a747"},"vehicle_type_id":"4","last_reported":1685362345,"current_range_meters":18800,"station_id":"ce4bgpp2rcd13ifvqc3g","pricing_plan_id":"free"},{"bike_id":"14f2d4ab-ef49-4fce-a47b-7cdf9b51c3ed","system_id":"levelo_inurba_marseille","lat":43.298433,"lon":5.362774,"is_reserved":false,"is_disabled":false,"rental_uris":{"android":"levelo://app?vid=14f2d4ab-ef49-4fce-a47b-7cdf9b51c3ed","ios":"levelo://app?vid=14f2d4ab-ef49-4fce-a47b-7cdf9b51c3ed"},"vehicle_type_id":"4","last_reported":1685362345,"current_range_meters":31200,"station_id":"ce4bgpp2rcd13ifvqc3g","pricing_plan_id":"free"},{"bike_id":"99a83d4a-6b12-4379-b8ee-383c670dc125","system_id":"levelo_inurba_marseille","lat":43.298433,"lon":5.362774,"is_reserved":false,"is_disabled":false,"rental_uris":{"android":"levelo://app?vid=99a83d4a-6b12-4379-b8ee-383c670dc125","ios":"levelo://app?vid=99a83d4a-6b12-4379-b8ee-383c670dc125"},"vehicle_type_id":"4","last_reported":1685362345,"current_range_meters":28400,"station_id":"ce4bgpp2rcd13ifvqc3g","pricing_plan_id":"free"},{"bike_id":"cd28fc2b-138a-473c-aad7-21112d3b9f91","system_id":"levelo_inurba_marseille","lat":43.311722,"lon":5.387247,"is_reserved":false,"is_disabled":false,"rental_uris":{"android":"levelo://app?vid=cd28fc2b-138a-473c-aad7-21112d3b9f91","ios":"levelo://app?vid=cd28fc2b-138a-473c-aad7-21112d3b9f91"},"vehicle_type_id":"4","last_reported":1685362345,"current_range_meters":20400,"station_id":"ce4bgv12rcd13ifvqcp0","pricing_plan_id":"free"},{"bike_id":"d11da2d4-50ab-475d-a497-999f76f85bd5","system_id":"levelo_inurba_marseille","lat":43.32758,"lon":5.36696,"is_reserved":false,"is_disabled":false,"rental_uris":{"android":"levelo://app?vid=d11da2d4-50ab-475d-a497-999f76f85bd5","ios":"levelo://app?vid=d11da2d4-50ab-475d-a497-999f76f85bd5"},"vehicle_type_id":"4","last_reported":1685362345,"current_range_meters":22400,"station_id":"","pricing_plan_id":"free"},{"bike_id":"6092bd11-98f2-4ca6-8f80-636cf35cdf20","system_id":"levelo_inurba_marseille","lat":43.299243,"lon":5.37481,"is_reserved":false,"is_disabled":false,"rental_uris":{"android":"levelo://app?vid=6092bd11-98f2-4ca6-8f80-636cf35cdf20","ios":"levelo://app?vid=6092bd11-98f2-4ca6-8f80-636cf35cdf20"},"vehicle_type_id":"4","last_reported":1685362345,"current_range_meters":21200,"station_id":"ce4bgjh2rcd13ifvqbg0","pricing_plan_id":"free"},{"bike_id":"2f05bc16-17ef-42d6-a1ba-c66453858cbd","system_id":"levelo_inurba_marseille","lat":43.297794,"lon":5.370888,"is_reserved":false,"is_disabled":false,"rental_uris":{"android":"levelo://app?vid=2f05bc16-17ef-42d6-a1ba-c66453858cbd","ios":"levelo://app?vid=2f05bc16-17ef-42d6-a1ba-c66453858cbd"},"vehicle_type_id":"4","last_reported":1685362345,"current_range_meters":22400,"station_id":"ce4bgop2rcd13ifvqc1g","pricing_plan_id":"free"},{"bike_id":"29558480-af09-40bb-98cf-77dadb2d034c","system_id":"levelo_inurba_marseille","lat":43.2978,"lon":5.37099,"is_reserved":false,"is_disabled":false,"rental_uris":{"android":"levelo://app?vid=29558480-af09-40bb-98cf-77dadb2d034c","ios":"levelo://app?vid=29558480-af09-40bb-98cf-77dadb2d034c"},"vehicle_type_id":"4","last_reported":1685362345,"current_range_meters":22800,"station_id":"ce4bgop2rcd13ifvqc1g","pricing_plan_id":"free"},{"bike_id":"85bd337c-95b8-41c4-acad-eea10ed96e55","system_id":"levelo_inurba_marseille","lat":43.328371,"lon":5.366912,"is_reserved":false,"is_disabled":false,"rental_uris":{"android":"levelo://app?vid=85bd337c-95b8-41c4-acad-eea10ed96e55","ios":"levelo://app?vid=85bd337c-95b8-41c4-acad-eea10ed96e55"},"vehicle_type_id":"4","last_reported":1685362345,"current_range_meters":10000,"station_id":"ce4bhs92rcd13ifvqi0g","pricing_plan_id":"free"},{"bike_id":"eaaaca8a-5144-400c-a545-6580a399e6dc","system_id":"levelo_inurba_marseille","lat":43.328371,"lon":5.366912,"is_reserved":false,"is_disabled":false,"rental_uris":{"android":"levelo://app?vid=eaaaca8a-5144-400c-a545-6580a399e6dc","ios":"levelo://app?vid=eaaaca8a-5144-400c-a545-6580a399e6dc"},"vehicle_type_id":"4","last_reported":1685362345,"current_range_meters":16400,"station_id":"ce4bhs92rcd13ifvqi0g","pricing_plan_id":"free"},{"bike_id":"5895156f-f83a-4b54-a0b5-57f02c18ef1a","system_id":"levelo_inurba_marseille","lat":43.328371,"lon":5.366912,"is_reserved":false,"is_disabled":false,"rental_uris":{"android":"levelo://app?vid=5895156f-f83a-4b54-a0b5-57f02c18ef1a","ios":"levelo://app?vid=5895156f-f83a-4b54-a0b5-57f02c18ef1a"},"vehicle_type_id":"4","last_reported":1685362345,"current_range_meters":22400,"station_id":"ce4bhs92rcd13ifvqi0g","pricing_plan_id":"free"},{"bike_id":"39f0b63d-3425-4917-a4ec-6e10d4e34869","system_id":"levelo_inurba_marseille","lat":43.3283,"lon":5.36679,"is_reserved":false,"is_disabled":false,"rental_uris":{"android":"levelo://app?vid=39f0b63d-3425-4917-a4ec-6e10d4e34869","ios":"levelo://app?vid=39f0b63d-3425-4917-a4ec-6e10d4e34869"},"vehicle_type_id":"4","last_reported":1685362345,"current_range_meters":22400,"station_id":"ce4bhs92rcd13ifvqi0g","pricing_plan_id":"free"},{"bike_id":"450e3cce-c604-4299-8daa-749739d3bfa4","system_id":"levelo_inurba_marseille","lat":43.328332,"lon":5.366961,"is_reserved":false,"is_disabled":false,"rental_uris":{"android":"levelo://app?vid=450e3cce-c604-4299-8daa-749739d3bfa4","ios":"levelo://app?vid=450e3cce-c604-4299-8daa-749739d3bfa4"},"vehicle_type_id":"4","last_reported":1685362345,"current_range_meters":16000,"station_id":"","pricing_plan_id":"free"},{"bike_id":"60edb3b2-d8e9-4c71-b2fa-9e940834a4e9","system_id":"levelo_inurba_marseille","lat":43.32835,"lon":5.36684,"is_reserved":false,"is_disabled":false,"rental_uris":{"android":"levelo://app?vid=60edb3b2-d8e9-4c71-b2fa-9e940834a4e9","ios":"levelo://app?vid=60edb3b2-d8e9-4c71-b2fa-9e940834a4e9"},"vehicle_type_id":"4","last_reported":1685362345,"current_range_meters":25200,"station_id":"ce4bhs92rcd13ifvqi0g","pricing_plan_id":"free"},{"bike_id":"bb02e8c4-7ece-4a76-841a-f5003b7fc8ba","system_id":"levelo_inurba_marseille","lat":43.29709,"lon":5.36594,"is_reserved":false,"is_disabled":false,"rental_uris":{"android":"levelo://app?vid=bb02e8c4-7ece-4a76-841a-f5003b7fc8ba","ios":"levelo://app?vid=bb02e8c4-7ece-4a76-841a-f5003b7fc8ba"},"vehicle_type_id":"4","last_reported":1685362345,"current_range_meters":10400,"station_id":"","pricing_plan_id":"free"},{"bike_id":"c729d032-b7c7-4195-860f-c6ddf11ba30f","system_id":"levelo_inurba_marseille","lat":43.231794,"lon":5.400052,"is_reserved":false,"is_disabled":false,"rental_uris":{"android":"levelo://app?vid=c729d032-b7c7-4195-860f-c6ddf11ba30f","ios":"levelo://app?vid=c729d032-b7c7-4195-860f-c6ddf11ba30f"},"vehicle_type_id":"4","last_reported":1685362345,"current_range_meters":20000,"station_id":"ce4bhn12rcd13ifvqgqg","pricing_plan_id":"free"},{"bike_id":"d5ed4f6f-3bfa-4568-891f-abcdd0702eaf","system_id":"levelo_inurba_marseille","lat":43.2968,"lon":5.37291,"is_reserved":false,"is_disabled":false,"rental_uris":{"android":"levelo://app?vid=d5ed4f6f-3bfa-4568-891f-abcdd0702eaf","ios":"levelo://app?vid=d5ed4f6f-3bfa-4568-891f-abcdd0702eaf"},"vehicle_type_id":"4","last_reported":1685362345,"current_range_meters":30800,"station_id":"ce4bgk12rcd13ifvqbj0","pricing_plan_id":"free"},{"bike_id":"c22e45ef-1c0f-427a-b44b-39103566ef42","system_id":"levelo_inurba_marseille","lat":43.296131,"lon":5.370791,"is_reserved":false,"is_disabled":false,"rental_uris":{"android":"levelo://app?vid=c22e45ef-1c0f-427a-b44b-39103566ef42","ios":"levelo://app?vid=c22e45ef-1c0f-427a-b44b-39103566ef42"},"vehicle_type_id":"4","last_reported":1685362345,"current_range_meters":23600,"station_id":"ce4bgnh2rcd13ifvqc0g","pricing_plan_id":"free"},{"bike_id":"e3083d5d-a639-4c19-9f2f-1dda4b2905f1","system_id":"levelo_inurba_marseille","lat":43.296921,"lon":5.376579,"is_reserved":false,"is_disabled":false,"rental_uris":{"android":"levelo://app?vid=e3083d5d-a639-4c19-9f2f-1dda4b2905f1","ios":"levelo://app?vid=e3083d5d-a639-4c19-9f2f-1dda4b2905f1"},"vehicle_type_id":"4","last_reported":1685362345,"current_range_meters":6800,"station_id":"ce4bgkh2rcd13ifvqbl0","pricing_plan_id":"free"},{"bike_id":"b0d4e2ad-3549-4cdf-ba8e-845396640965","system_id":"levelo_inurba_marseille","lat":43.317557,"lon":5.390173,"is_reserved":false,"is_disabled":false,"rental_uris":{"android":"levelo://app?vid=b0d4e2ad-3549-4cdf-ba8e-845396640965","ios":"levelo://app?vid=b0d4e2ad-3549-4cdf-ba8e-845396640965"},"vehicle_type_id":"4","last_reported":1685362345,"current_range_meters":16800,"station_id":"ce4bhqp2rcd13ifvqhng","pricing_plan_id":"free"},{"bike_id":"138ec146-4c71-4860-b120-447204718390","system_id":"levelo_inurba_marseille","lat":43.317557,"lon":5.390173,"is_reserved":false,"is_disabled":false,"rental_uris":{"android":"levelo://app?vid=138ec146-4c71-4860-b120-447204718390","ios":"levelo://app?vid=138ec146-4c71-4860-b120-447204718390"},"vehicle_type_id":"4","last_reported":1685362345,"current_range_meters":30000,"station_id":"ce4bhqp2rcd13ifvqhng","pricing_plan_id":"free"},{"bike_id":"8ffec77f-9122-41b9-a2ad-8ca531ebc0f7","system_id":"levelo_inurba_marseille","lat":43.295748,"lon":5.37522,"is_reserved":false,"is_disabled":false,"rental_uris":{"android":"levelo://app?vid=8ffec77f-9122-41b9-a2ad-8ca531ebc0f7","ios":"levelo://app?vid=8ffec77f-9122-41b9-a2ad-8ca531ebc0f7"},"vehicle_type_id":"4","last_reported":1685362345,"current_range_meters":17600,"station_id":"ce4bgh92rcd13ifvqb50","pricing_plan_id":"free"},{"bike_id":"ce9828d3-a313-4d51-91ea-5c403fe40ee0","system_id":"levelo_inurba_marseille","lat":43.304274,"lon":5.388873,"is_reserved":false,"is_disabled":false,"rental_uris":{"android":"levelo://app?vid=ce9828d3-a313-4d51-91ea-5c403fe40ee0","ios":"levelo://app?vid=ce9828d3-a313-4d51-91ea-5c403fe40ee0"},"vehicle_type_id":"4","last_reported":1685362345,"current_range_meters":13200,"station_id":"ce4bgk12rcd13ifvqbi0","pricing_plan_id":"free"},{"bike_id":"7dd606be-afba-4363-901b-a742644df9a4","system_id":"levelo_inurba_marseille","lat":43.304274,"lon":5.388873,"is_reserved":false,"is_disabled":false,"rental_uris":{"android":"levelo://app?vid=7dd606be-afba-4363-901b-a742644df9a4","ios":"levelo://app?vid=7dd606be-afba-4363-901b-a742644df9a4"},"vehicle_type_id":"4","last_reported":1685362345,"current_range_meters":3600,"station_id":"ce4bgk12rcd13ifvqbi0","pricing_plan_id":"free"},{"bike_id":"34baaa94-5915-43d9-8d0f-ea1580b84db3","system_id":"levelo_inurba_marseille","lat":43.304274,"lon":5.388873,"is_reserved":false,"is_disabled":false,"rental_uris":{"android":"levelo://app?vid=34baaa94-5915-43d9-8d0f-ea1580b84db3","ios":"levelo://app?vid=34baaa94-5915-43d9-8d0f-ea1580b84db3"},"vehicle_type_id":"4","last_reported":1685362345,"current_range_meters":13600,"station_id":"ce4bgk12rcd13ifvqbi0","pricing_plan_id":"free"},{"bike_id":"2845efbb-b4df-4626-a45a-7ef5256e41ac","system_id":"levelo_inurba_marseille","lat":43.304274,"lon":5.388873,"is_reserved":false,"is_disabled":false,"rental_uris":{"android":"levelo://app?vid=2845efbb-b4df-4626-a45a-7ef5256e41ac","ios":"levelo://app?vid=2845efbb-b4df-4626-a45a-7ef5256e41ac"},"vehicle_type_id":"4","last_reported":1685362345,"current_range_meters":21200,"station_id":"ce4bgk12rcd13ifvqbi0","pricing_plan_id":"free"},{"bike_id":"f2065064-93f4-4338-b452-40d9d3b407d6","system_id":"levelo_inurba_marseille","lat":43.29535,"lon":5.37502,"is_reserved":false,"is_disabled":false,"rental_uris":{"android":"levelo://app?vid=f2065064-93f4-4338-b452-40d9d3b407d6","ios":"levelo://app?vid=f2065064-93f4-4338-b452-40d9d3b407d6"},"vehicle_type_id":"4","last_reported":1685362345,"current_range_meters":3600,"station_id":"ce4bgkp2rcd13ifvqbmg","pricing_plan_id":"free"},{"bike_id":"a94e82f9-1fb3-4ed4-8226-bf86d38bc1b5","system_id":"levelo_inurba_marseille","lat":43.295279,"lon":5.375048,"is_reserved":false,"is_disabled":false,"rental_uris":{"android":"levelo://app?vid=a94e82f9-1fb3-4ed4-8226-bf86d38bc1b5","ios":"levelo://app?vid=a94e82f9-1fb3-4ed4-8226-bf86d38bc1b5"},"vehicle_type_id":"4","last_reported":1685362345,"current_range_meters":0,"station_id":"ce4bgkp2rcd13ifvqbmg","pricing_plan_id":"free"},{"bike_id":"f8f51b86-d2f8-4ab1-9bd3-ab99e476a69d","system_id":"levelo_inurba_marseille","lat":43.299724,"lon":5.384848,"is_reserved":false,"is_disabled":false,"rental_uris":{"android":"levelo://app?vid=f8f51b86-d2f8-4ab1-9bd3-ab99e476a69d","ios":"levelo://app?vid=f8f51b86-d2f8-4ab1-9bd3-ab99e476a69d"},"vehicle_type_id":"4","last_reported":1685362345,"current_range_meters":4800,"station_id":"ce4bgj92rcd13ifvqbd0","pricing_plan_id":"free"},{"bike_id":"f09b87b6-4ede-43bd-896d-3269af15e09f","system_id":"levelo_inurba_marseille","lat":43.32367,"lon":5.388836,"is_reserved":false,"is_disabled":false,"rental_uris":{"android":"levelo://app?vid=f09b87b6-4ede-43bd-896d-3269af15e09f","ios":"levelo://app?vid=f09b87b6-4ede-43bd-896d-3269af15e09f"},"vehicle_type_id":"4","last_reported":1685362345,"current_range_meters":18000,"station_id":"ce4bhqp2rcd13ifvqhog","pricing_plan_id":"free"},{"bike_id":"958255bf-0436-4033-b487-b86b02586b49","system_id":"levelo_inurba_marseille","lat":43.32367,"lon":5.388836,"is_reserved":false,"is_disabled":false,"rental_uris":{"android":"levelo://app?vid=958255bf-0436-4033-b487-b86b02586b49","ios":"levelo://app?vid=958255bf-0436-4033-b487-b86b02586b49"},"vehicle_type_id":"4","last_reported":1685362345,"current_range_meters":2000,"station_id":"ce4bhqp2rcd13ifvqhog","pricing_plan_id":"free"},{"bike_id":"b7ac9e2c-87cf-401b-bad7-00452cbee97b","system_id":"levelo_inurba_marseille","lat":43.293249,"lon":5.371578,"is_reserved":false,"is_disabled":false,"rental_uris":{"android":"levelo://app?vid=b7ac9e2c-87cf-401b-bad7-00452cbee97b","ios":"levelo://app?vid=b7ac9e2c-87cf-401b-bad7-00452cbee97b"},"vehicle_type_id":"4","last_reported":1685362345,"current_range_meters":10000,"station_id":"ce4bgh92rcd13ifvqb40","pricing_plan_id":"free"},{"bike_id":"e72d3787-562f-4deb-8716-23a56ce41b84","system_id":"levelo_inurba_marseille","lat":43.292749,"lon":5.368402,"is_reserved":false,"is_disabled":false,"rental_uris":{"android":"levelo://app?vid=e72d3787-562f-4deb-8716-23a56ce41b84","ios":"levelo://app?vid=e72d3787-562f-4deb-8716-23a56ce41b84"},"vehicle_type_id":"4","last_reported":1685362345,"current_range_meters":21600,"station_id":"ce4bhbp2rcd13ifvqesg","pricing_plan_id":"free"},{"bike_id":"1222c15a-dac0-433d-93f1-b2924f7c34dc","system_id":"levelo_inurba_marseille","lat":43.292749,"lon":5.368398,"is_reserved":false,"is_disabled":false,"rental_uris":{"android":"levelo://app?vid=1222c15a-dac0-433d-93f1-b2924f7c34dc","ios":"levelo://app?vid=1222c15a-dac0-433d-93f1-b2924f7c34dc"},"vehicle_type_id":"4","last_reported":1685362345,"current_range_meters":26800,"station_id":"ce4bhbp2rcd13ifvqesg","pricing_plan_id":"free"},{"bike_id":"72c8830c-506f-4e74-9fa5-a1f14fe8d049","system_id":"levelo_inurba_marseille","lat":43.292749,"lon":5.368398,"is_reserved":false,"is_disabled":false,"rental_uris":{"android":"levelo://app?vid=72c8830c-506f-4e74-9fa5-a1f14fe8d049","ios":"levelo://app?vid=72c8830c-506f-4e74-9fa5-a1f14fe8d049"},"vehicle_type_id":"4","last_reported":1685362345,"current_range_meters":2800,"station_id":"ce4bhbp2rcd13ifvqesg","pricing_plan_id":"free"},{"bike_id":"72b8e3fb-ecc5-4398-8b71-59997403d3dd","system_id":"levelo_inurba_marseille","lat":43.29275,"lon":5.36846,"is_reserved":false,"is_disabled":false,"rental_uris":{"android":"levelo://app?vid=72b8e3fb-ecc5-4398-8b71-59997403d3dd","ios":"levelo://app?vid=72b8e3fb-ecc5-4398-8b71-59997403d3dd"},"vehicle_type_id":"4","last_reported":1685362345,"current_range_meters":24000,"station_id":"ce4bhbp2rcd13ifvqesg","pricing_plan_id":"free"},{"bike_id":"5ada6cf3-15bb-42dc-88ba-c52e45820400","system_id":"levelo_inurba_marseille","lat":43.29301,"lon":5.37169,"is_reserved":false,"is_disabled":false,"rental_uris":{"android":"levelo://app?vid=5ada6cf3-15bb-42dc-88ba-c52e45820400","ios":"levelo://app?vid=5ada6cf3-15bb-42dc-88ba-c52e45820400"},"vehicle_type_id":"4","last_reported":1685362345,"current_range_meters":14400,"station_id":"","pricing_plan_id":"free"},{"bike_id":"89c9d6d1-659b-44a9-9314-7b55a7885be7","system_id":"levelo_inurba_marseille","lat":43.292749,"lon":5.368398,"is_reserved":false,"is_disabled":false,"rental_uris":{"android":"levelo://app?vid=89c9d6d1-659b-44a9-9314-7b55a7885be7","ios":"levelo://app?vid=89c9d6d1-659b-44a9-9314-7b55a7885be7"},"vehicle_type_id":"4","last_reported":1685362345,"current_range_meters":20800,"station_id":"ce4bhbp2rcd13ifvqesg","pricing_plan_id":"free"},{"bike_id":"3a5621eb-b22d-44fd-9f65-18958288d727","system_id":"levelo_inurba_marseille","lat":43.292749,"lon":5.368398,"is_reserved":false,"is_disabled":false,"rental_uris":{"android":"levelo://app?vid=3a5621eb-b22d-44fd-9f65-18958288d727","ios":"levelo://app?vid=3a5621eb-b22d-44fd-9f65-18958288d727"},"vehicle_type_id":"4","last_reported":1685362345,"current_range_meters":14800,"station_id":"ce4bhbp2rcd13ifvqesg","pricing_plan_id":"free"},{"bike_id":"945adaec-4cff-4750-a222-a426a167a494","system_id":"levelo_inurba_marseille","lat":43.292749,"lon":5.368398,"is_reserved":false,"is_disabled":false,"rental_uris":{"android":"levelo://app?vid=945adaec-4cff-4750-a222-a426a167a494","ios":"levelo://app?vid=945adaec-4cff-4750-a222-a426a167a494"},"vehicle_type_id":"4","last_reported":1685362345,"current_range_meters":25600,"station_id":"ce4bhbp2rcd13ifvqesg","pricing_plan_id":"free"},{"bike_id":"36aec88d-a222-4e3c-99e1-347c249190b6","system_id":"levelo_inurba_marseille","lat":43.292749,"lon":5.368398,"is_reserved":false,"is_disabled":false,"rental_uris":{"android":"levelo://app?vid=36aec88d-a222-4e3c-99e1-347c249190b6","ios":"levelo://app?vid=36aec88d-a222-4e3c-99e1-347c249190b6"},"vehicle_type_id":"4","last_reported":1685362345,"current_range_meters":24800,"station_id":"ce4bhbp2rcd13ifvqesg","pricing_plan_id":"free"},{"bike_id":"63e00f38-aa1b-4a61-a4e6-8156c8c84d22","system_id":"levelo_inurba_marseille","lat":43.292749,"lon":5.368398,"is_reserved":false,"is_disabled":false,"rental_uris":{"android":"levelo://app?vid=63e00f38-aa1b-4a61-a4e6-8156c8c84d22","ios":"levelo://app?vid=63e00f38-aa1b-4a61-a4e6-8156c8c84d22"},"vehicle_type_id":"4","last_reported":1685362345,"current_range_meters":25200,"station_id":"ce4bhbp2rcd13ifvqesg","pricing_plan_id":"free"},{"bike_id":"310cc453-dc9d-4ac8-b368-7ec916d41541","system_id":"levelo_inurba_marseille","lat":43.305994,"lon":5.393687,"is_reserved":false,"is_disabled":false,"rental_uris":{"android":"levelo://app?vid=310cc453-dc9d-4ac8-b368-7ec916d41541","ios":"levelo://app?vid=310cc453-dc9d-4ac8-b368-7ec916d41541"},"vehicle_type_id":"4","last_reported":1685362345,"current_range_meters":20800,"station_id":"ce4bh0p2rcd13ifvqd80","pricing_plan_id":"free"},{"bike_id":"3fabbb75-1076-492a-9a39-ebd6b283741d","system_id":"levelo_inurba_marseille","lat":43.305994,"lon":5.393687,"is_reserved":false,"is_disabled":false,"rental_uris":{"android":"levelo://app?vid=3fabbb75-1076-492a-9a39-ebd6b283741d","ios":"levelo://app?vid=3fabbb75-1076-492a-9a39-ebd6b283741d"},"vehicle_type_id":"4","last_reported":1685362345,"current_range_meters":24800,"station_id":"ce4bh0p2rcd13ifvqd80","pricing_plan_id":"free"},{"bike_id":"2b412d59-7100-44a2-847e-3ef57970b4a7","system_id":"levelo_inurba_marseille","lat":43.303002,"lon":5.392142,"is_reserved":false,"is_disabled":false,"rental_uris":{"android":"levelo://app?vid=2b412d59-7100-44a2-847e-3ef57970b4a7","ios":"levelo://app?vid=2b412d59-7100-44a2-847e-3ef57970b4a7"},"vehicle_type_id":"4","last_reported":1685362345,"current_range_meters":16400,"station_id":"ce4bgkh2rcd13ifvqbk0","pricing_plan_id":"free"},{"bike_id":"87300116-cfff-4ce7-bca1-781e01e14efc","system_id":"levelo_inurba_marseille","lat":43.2937,"lon":5.37854,"is_reserved":false,"is_disabled":false,"rental_uris":{"android":"levelo://app?vid=87300116-cfff-4ce7-bca1-781e01e14efc","ios":"levelo://app?vid=87300116-cfff-4ce7-bca1-781e01e14efc"},"vehicle_type_id":"4","last_reported":1685362345,"current_range_meters":13600,"station_id":"ce4bgjh2rcd13ifvqbf0","pricing_plan_id":"free"},{"bike_id":"f2be58f5-e29c-42e5-aa91-b4cc506ed840","system_id":"levelo_inurba_marseille","lat":43.292311,"lon":5.360731,"is_reserved":false,"is_disabled":false,"rental_uris":{"android":"levelo://app?vid=f2be58f5-e29c-42e5-aa91-b4cc506ed840","ios":"levelo://app?vid=f2be58f5-e29c-42e5-aa91-b4cc506ed840"},"vehicle_type_id":"4","last_reported":1685362345,"current_range_meters":17600,"station_id":"ce4bhbh2rcd13ifvqeqg","pricing_plan_id":"free"},{"bike_id":"ad2d5b04-c7dd-4461-b29f-7fded3cfff6f","system_id":"levelo_inurba_marseille","lat":43.292311,"lon":5.360731,"is_reserved":false,"is_disabled":false,"rental_uris":{"android":"levelo://app?vid=ad2d5b04-c7dd-4461-b29f-7fded3cfff6f","ios":"levelo://app?vid=ad2d5b04-c7dd-4461-b29f-7fded3cfff6f"},"vehicle_type_id":"4","last_reported":1685362345,"current_range_meters":29600,"station_id":"ce4bhbh2rcd13ifvqeqg","pricing_plan_id":"free"},{"bike_id":"6afd68ab-a7c8-4320-a2d6-e53fc2bd6a33","system_id":"levelo_inurba_marseille","lat":43.292311,"lon":5.360731,"is_reserved":false,"is_disabled":false,"rental_uris":{"android":"levelo://app?vid=6afd68ab-a7c8-4320-a2d6-e53fc2bd6a33","ios":"levelo://app?vid=6afd68ab-a7c8-4320-a2d6-e53fc2bd6a33"},"vehicle_type_id":"4","last_reported":1685362345,"current_range_meters":26400,"station_id":"ce4bhbh2rcd13ifvqeqg","pricing_plan_id":"free"},{"bike_id":"8ce02624-7350-4133-b01d-4f06203bf09a","system_id":"levelo_inurba_marseille","lat":43.292311,"lon":5.360731,"is_reserved":false,"is_disabled":false,"rental_uris":{"android":"levelo://app?vid=8ce02624-7350-4133-b01d-4f06203bf09a","ios":"levelo://app?vid=8ce02624-7350-4133-b01d-4f06203bf09a"},"vehicle_type_id":"4","last_reported":1685362345,"current_range_meters":12000,"station_id":"ce4bhbh2rcd13ifvqeqg","pricing_plan_id":"free"},{"bike_id":"4090d63c-01cc-4301-941a-ebb6e64e8220","system_id":"levelo_inurba_marseille","lat":43.29229,"lon":5.36067,"is_reserved":false,"is_disabled":false,"rental_uris":{"android":"levelo://app?vid=4090d63c-01cc-4301-941a-ebb6e64e8220","ios":"levelo://app?vid=4090d63c-01cc-4301-941a-ebb6e64e8220"},"vehicle_type_id":"4","last_reported":1685362345,"current_range_meters":26800,"station_id":"ce4bhb12rcd13ifvqel0","pricing_plan_id":"free"},{"bike_id":"e722ebee-d7d1-401c-a361-2ceb835754d5","system_id":"levelo_inurba_marseille","lat":43.291675,"lon":5.371583,"is_reserved":false,"is_disabled":false,"rental_uris":{"android":"levelo://app?vid=e722ebee-d7d1-401c-a361-2ceb835754d5","ios":"levelo://app?vid=e722ebee-d7d1-401c-a361-2ceb835754d5"},"vehicle_type_id":"4","last_reported":1685362345,"current_range_meters":25600,"station_id":"ce4bha92rcd13ifvqeh0","pricing_plan_id":"free"},{"bike_id":"ff56cce9-92dc-4cd9-ade1-ed577eb14360","system_id":"levelo_inurba_marseille","lat":43.291675,"lon":5.371583,"is_reserved":false,"is_disabled":false,"rental_uris":{"android":"levelo://app?vid=ff56cce9-92dc-4cd9-ade1-ed577eb14360","ios":"levelo://app?vid=ff56cce9-92dc-4cd9-ade1-ed577eb14360"},"vehicle_type_id":"4","last_reported":1685362345,"current_range_meters":24800,"station_id":"ce4bha92rcd13ifvqeh0","pricing_plan_id":"free"},{"bike_id":"c7eab746-ac91-4183-9d39-87c949074c54","system_id":"levelo_inurba_marseille","lat":43.29175,"lon":5.37149,"is_reserved":false,"is_disabled":false,"rental_uris":{"android":"levelo://app?vid=c7eab746-ac91-4183-9d39-87c949074c54","ios":"levelo://app?vid=c7eab746-ac91-4183-9d39-87c949074c54"},"vehicle_type_id":"4","last_reported":1685362345,"current_range_meters":25200,"station_id":"ce4bha92rcd13ifvqeh0","pricing_plan_id":"free"},{"bike_id":"2c3d83bc-b438-456a-af19-662740185ec3","system_id":"levelo_inurba_marseille","lat":43.291994,"lon":5.357886,"is_reserved":false,"is_disabled":false,"rental_uris":{"android":"levelo://app?vid=2c3d83bc-b438-456a-af19-662740185ec3","ios":"levelo://app?vid=2c3d83bc-b438-456a-af19-662740185ec3"},"vehicle_type_id":"4","last_reported":1685362345,"current_range_meters":21600,"station_id":"ce4bhb12rcd13ifvqel0","pricing_plan_id":"free"},{"bike_id":"f0ab8d33-91d8-40e8-8756-0a30cbb7b81b","system_id":"levelo_inurba_marseille","lat":43.291994,"lon":5.357886,"is_reserved":false,"is_disabled":false,"rental_uris":{"android":"levelo://app?vid=f0ab8d33-91d8-40e8-8756-0a30cbb7b81b","ios":"levelo://app?vid=f0ab8d33-91d8-40e8-8756-0a30cbb7b81b"},"vehicle_type_id":"4","last_reported":1685362345,"current_range_meters":16400,"station_id":"ce4bhb12rcd13ifvqel0","pricing_plan_id":"free"},{"bike_id":"da0c23e1-2310-4370-879c-7558a93c0d32","system_id":"levelo_inurba_marseille","lat":43.29188,"lon":5.35798,"is_reserved":false,"is_disabled":false,"rental_uris":{"android":"levelo://app?vid=da0c23e1-2310-4370-879c-7558a93c0d32","ios":"levelo://app?vid=da0c23e1-2310-4370-879c-7558a93c0d32"},"vehicle_type_id":"4","last_reported":1685362345,"current_range_meters":0,"station_id":"ce4bhb12rcd13ifvqel0","pricing_plan_id":"free"},{"bike_id":"f55e1789-5a2c-4bb8-bf43-153e48741bf3","system_id":"levelo_inurba_marseille","lat":43.29538,"lon":5.38542,"is_reserved":false,"is_disabled":false,"rental_uris":{"android":"levelo://app?vid=f55e1789-5a2c-4bb8-bf43-153e48741bf3","ios":"levelo://app?vid=f55e1789-5a2c-4bb8-bf43-153e48741bf3"},"vehicle_type_id":"4","last_reported":1685362345,"current_range_meters":18400,"station_id":"ce4bgih2rcd13ifvqba0","pricing_plan_id":"free"},{"bike_id":"5f8d1a3d-dedb-4c2e-8865-d052cba29a2b","system_id":"levelo_inurba_marseille","lat":43.290327,"lon":5.375711,"is_reserved":false,"is_disabled":false,"rental_uris":{"android":"levelo://app?vid=5f8d1a3d-dedb-4c2e-8865-d052cba29a2b","ios":"levelo://app?vid=5f8d1a3d-dedb-4c2e-8865-d052cba29a2b"},"vehicle_type_id":"4","last_reported":1685362345,"current_range_meters":16000,"station_id":"ce4bh692rcd13ifvqe90","pricing_plan_id":"free"},{"bike_id":"9fb30e72-47b9-4cd5-8463-eeabef8092b4","system_id":"levelo_inurba_marseille","lat":43.290357,"lon":5.375613,"is_reserved":false,"is_disabled":false,"rental_uris":{"android":"levelo://app?vid=9fb30e72-47b9-4cd5-8463-eeabef8092b4","ios":"levelo://app?vid=9fb30e72-47b9-4cd5-8463-eeabef8092b4"},"vehicle_type_id":"4","last_reported":1685362345,"current_range_meters":19200,"station_id":"","pricing_plan_id":"free"},{"bike_id":"4322112d-c1cc-4652-adc8-a2af43931945","system_id":"levelo_inurba_marseille","lat":43.29031,"lon":5.37555,"is_reserved":false,"is_disabled":false,"rental_uris":{"android":"levelo://app?vid=4322112d-c1cc-4652-adc8-a2af43931945","ios":"levelo://app?vid=4322112d-c1cc-4652-adc8-a2af43931945"},"vehicle_type_id":"4","last_reported":1685362345,"current_range_meters":29600,"station_id":"ce4bh692rcd13ifvqe90","pricing_plan_id":"free"},{"bike_id":"595825f7-8c05-44b7-bfe6-1c49418e6f37","system_id":"levelo_inurba_marseille","lat":43.2894,"lon":5.3663,"is_reserved":false,"is_disabled":false,"rental_uris":{"android":"levelo://app?vid=595825f7-8c05-44b7-bfe6-1c49418e6f37","ios":"levelo://app?vid=595825f7-8c05-44b7-bfe6-1c49418e6f37"},"vehicle_type_id":"4","last_reported":1685362345,"current_range_meters":24000,"station_id":"ce4bhap2rcd13ifvqek0","pricing_plan_id":"free"},{"bike_id":"2abef03e-ad64-4847-b29c-476fc0bd1645","system_id":"levelo_inurba_marseille","lat":43.284219,"lon":5.3497,"is_reserved":false,"is_disabled":false,"rental_uris":{"android":"levelo://app?vid=2abef03e-ad64-4847-b29c-476fc0bd1645","ios":"levelo://app?vid=2abef03e-ad64-4847-b29c-476fc0bd1645"},"vehicle_type_id":"4","last_reported":1685362345,"current_range_meters":18000,"station_id":"ce4bhbh2rcd13ifvqepg","pricing_plan_id":"free"},{"bike_id":"3432a8ff-bd0c-48d0-a4c7-03cd6f20ab76","system_id":"levelo_inurba_marseille","lat":43.290103,"lon":5.356114,"is_reserved":false,"is_disabled":false,"rental_uris":{"android":"levelo://app?vid=3432a8ff-bd0c-48d0-a4c7-03cd6f20ab76","ios":"levelo://app?vid=3432a8ff-bd0c-48d0-a4c7-03cd6f20ab76"},"vehicle_type_id":"4","last_reported":1685362345,"current_range_meters":30800,"station_id":"ce4bhb92rcd13ifvqen0","pricing_plan_id":"free"},{"bike_id":"021021a5-330a-4683-a4ec-afded28abda4","system_id":"levelo_inurba_marseille","lat":43.29096,"lon":5.3814,"is_reserved":false,"is_disabled":false,"rental_uris":{"android":"levelo://app?vid=021021a5-330a-4683-a4ec-afded28abda4","ios":"levelo://app?vid=021021a5-330a-4683-a4ec-afded28abda4"},"vehicle_type_id":"4","last_reported":1685362345,"current_range_meters":30800,"station_id":"ce4bh512rcd13ifvqe2g","pricing_plan_id":"free"},{"bike_id":"141c14ea-594b-43ee-894e-8c44af1dcd73","system_id":"levelo_inurba_marseille","lat":43.33731,"lon":5.37452,"is_reserved":false,"is_disabled":false,"rental_uris":{"android":"levelo://app?vid=141c14ea-594b-43ee-894e-8c44af1dcd73","ios":"levelo://app?vid=141c14ea-594b-43ee-894e-8c44af1dcd73"},"vehicle_type_id":"4","last_reported":1685362345,"current_range_meters":30000,"station_id":"","pricing_plan_id":"free"},{"bike_id":"493860ce-e063-4684-ab33-c360eaf64153","system_id":"levelo_inurba_marseille","lat":43.33744,"lon":5.37451,"is_reserved":false,"is_disabled":false,"rental_uris":{"android":"levelo://app?vid=493860ce-e063-4684-ab33-c360eaf64153","ios":"levelo://app?vid=493860ce-e063-4684-ab33-c360eaf64153"},"vehicle_type_id":"4","last_reported":1685362345,"current_range_meters":14400,"station_id":"","pricing_plan_id":"free"},{"bike_id":"c67b547c-3fcb-4384-8614-e15f558fec55","system_id":"levelo_inurba_marseille","lat":43.33744,"lon":5.37451,"is_reserved":false,"is_disabled":false,"rental_uris":{"android":"levelo://app?vid=c67b547c-3fcb-4384-8614-e15f558fec55","ios":"levelo://app?vid=c67b547c-3fcb-4384-8614-e15f558fec55"},"vehicle_type_id":"4","last_reported":1685362345,"current_range_meters":23600,"station_id":"","pricing_plan_id":"free"},{"bike_id":"556c6db1-2600-4c2b-9521-aae8453517c1","system_id":"levelo_inurba_marseille","lat":43.33749,"lon":5.37439,"is_reserved":false,"is_disabled":false,"rental_uris":{"android":"levelo://app?vid=556c6db1-2600-4c2b-9521-aae8453517c1","ios":"levelo://app?vid=556c6db1-2600-4c2b-9521-aae8453517c1"},"vehicle_type_id":"4","last_reported":1685362345,"current_range_meters":10400,"station_id":"","pricing_plan_id":"free"},{"bike_id":"5aaf445f-f097-4041-99e9-0b2edc8a39b1","system_id":"levelo_inurba_marseille","lat":43.33756,"lon":5.37444,"is_reserved":false,"is_disabled":false,"rental_uris":{"android":"levelo://app?vid=5aaf445f-f097-4041-99e9-0b2edc8a39b1","ios":"levelo://app?vid=5aaf445f-f097-4041-99e9-0b2edc8a39b1"},"vehicle_type_id":"4","last_reported":1685362345,"current_range_meters":29600,"station_id":"","pricing_plan_id":"free"},{"bike_id":"d78bb7ca-b17a-4ad9-91fc-3451c06b56fa","system_id":"levelo_inurba_marseille","lat":43.33771,"lon":5.3743,"is_reserved":false,"is_disabled":false,"rental_uris":{"android":"levelo://app?vid=d78bb7ca-b17a-4ad9-91fc-3451c06b56fa","ios":"levelo://app?vid=d78bb7ca-b17a-4ad9-91fc-3451c06b56fa"},"vehicle_type_id":"4","last_reported":1685362345,"current_range_meters":28800,"station_id":"","pricing_plan_id":"free"},{"bike_id":"88082252-2d00-4fd7-abd5-5c2572b70b6a","system_id":"levelo_inurba_marseille","lat":43.33773,"lon":5.37435,"is_reserved":false,"is_disabled":false,"rental_uris":{"android":"levelo://app?vid=88082252-2d00-4fd7-abd5-5c2572b70b6a","ios":"levelo://app?vid=88082252-2d00-4fd7-abd5-5c2572b70b6a"},"vehicle_type_id":"4","last_reported":1685362345,"current_range_meters":30000,"station_id":"","pricing_plan_id":"free"},{"bike_id":"a72afe6a-62c1-460e-9c73-cb9ec9122d4a","system_id":"levelo_inurba_marseille","lat":43.298681,"lon":5.397225,"is_reserved":false,"is_disabled":false,"rental_uris":{"android":"levelo://app?vid=a72afe6a-62c1-460e-9c73-cb9ec9122d4a","ios":"levelo://app?vid=a72afe6a-62c1-460e-9c73-cb9ec9122d4a"},"vehicle_type_id":"4","last_reported":1685362345,"current_range_meters":27600,"station_id":"ce4bh0h2rcd13ifvqd50","pricing_plan_id":"free"},{"bike_id":"e6926be4-c9bf-4a66-b833-fc9fe7a2a536","system_id":"levelo_inurba_marseille","lat":43.286591,"lon":5.363346,"is_reserved":false,"is_disabled":false,"rental_uris":{"android":"levelo://app?vid=e6926be4-c9bf-4a66-b833-fc9fe7a2a536","ios":"levelo://app?vid=e6926be4-c9bf-4a66-b833-fc9fe7a2a536"},"vehicle_type_id":"4","last_reported":1685362345,"current_range_meters":28800,"station_id":"ce4bhah2rcd13ifvqej0","pricing_plan_id":"free"},{"bike_id":"9adcd410-e156-4a25-84e7-537cc8924d91","system_id":"levelo_inurba_marseille","lat":43.298681,"lon":5.397225,"is_reserved":false,"is_disabled":false,"rental_uris":{"android":"levelo://app?vid=9adcd410-e156-4a25-84e7-537cc8924d91","ios":"levelo://app?vid=9adcd410-e156-4a25-84e7-537cc8924d91"},"vehicle_type_id":"4","last_reported":1685362345,"current_range_meters":4400,"station_id":"ce4bh0h2rcd13ifvqd50","pricing_plan_id":"free"},{"bike_id":"977733d9-2e12-465a-98d9-c94fc2a4483f","system_id":"levelo_inurba_marseille","lat":43.28701,"lon":5.37387,"is_reserved":false,"is_disabled":false,"rental_uris":{"android":"levelo://app?vid=977733d9-2e12-465a-98d9-c94fc2a4483f","ios":"levelo://app?vid=977733d9-2e12-465a-98d9-c94fc2a4483f"},"vehicle_type_id":"4","last_reported":1685362345,"current_range_meters":6000,"station_id":"","pricing_plan_id":"free"},{"bike_id":"e934ccea-1ac9-4c80-9655-7ff12523080d","system_id":"levelo_inurba_marseille","lat":43.302759,"lon":5.400793,"is_reserved":false,"is_disabled":false,"rental_uris":{"android":"levelo://app?vid=e934ccea-1ac9-4c80-9655-7ff12523080d","ios":"levelo://app?vid=e934ccea-1ac9-4c80-9655-7ff12523080d"},"vehicle_type_id":"4","last_reported":1685362345,"current_range_meters":29600,"station_id":"ce4bgvh2rcd13ifvqcs0","pricing_plan_id":"free"},{"bike_id":"0d70e390-a33e-4b22-99c7-69481eb269c8","system_id":"levelo_inurba_marseille","lat":43.286039,"lon":5.370679,"is_reserved":false,"is_disabled":false,"rental_uris":{"android":"levelo://app?vid=0d70e390-a33e-4b22-99c7-69481eb269c8","ios":"levelo://app?vid=0d70e390-a33e-4b22-99c7-69481eb269c8"},"vehicle_type_id":"4","last_reported":1685362345,"current_range_meters":22800,"station_id":"ce4bht12rcd13ifvqi60","pricing_plan_id":"free"},{"bike_id":"250a7466-1aa2-4085-8271-de65b16e5004","system_id":"levelo_inurba_marseille","lat":43.284534,"lon":5.358662,"is_reserved":false,"is_disabled":false,"rental_uris":{"android":"levelo://app?vid=250a7466-1aa2-4085-8271-de65b16e5004","ios":"levelo://app?vid=250a7466-1aa2-4085-8271-de65b16e5004"},"vehicle_type_id":"4","last_reported":1685362345,"current_range_meters":16000,"station_id":"ce4bhah2rcd13ifvqei0","pricing_plan_id":"free"},{"bike_id":"b4ba89ce-3cb2-476b-8b61-721eb40ca07e","system_id":"levelo_inurba_marseille","lat":43.284534,"lon":5.358662,"is_reserved":false,"is_disabled":false,"rental_uris":{"android":"levelo://app?vid=b4ba89ce-3cb2-476b-8b61-721eb40ca07e","ios":"levelo://app?vid=b4ba89ce-3cb2-476b-8b61-721eb40ca07e"},"vehicle_type_id":"4","last_reported":1685362345,"current_range_meters":19200,"station_id":"ce4bhah2rcd13ifvqei0","pricing_plan_id":"free"},{"bike_id":"d166c49f-2d6f-4844-9f70-fa02f7c16541","system_id":"levelo_inurba_marseille","lat":43.285856,"lon":5.350771,"is_reserved":false,"is_disabled":false,"rental_uris":{"android":"levelo://app?vid=d166c49f-2d6f-4844-9f70-fa02f7c16541","ios":"levelo://app?vid=d166c49f-2d6f-4844-9f70-fa02f7c16541"},"vehicle_type_id":"4","last_reported":1685362345,"current_range_meters":1200,"station_id":"ce4bhch2rcd13ifvqeug","pricing_plan_id":"free"},{"bike_id":"54c05652-49de-43f6-b4c9-fbf1d6119344","system_id":"levelo_inurba_marseille","lat":43.28618,"lon":5.35103,"is_reserved":false,"is_disabled":false,"rental_uris":{"android":"levelo://app?vid=54c05652-49de-43f6-b4c9-fbf1d6119344","ios":"levelo://app?vid=54c05652-49de-43f6-b4c9-fbf1d6119344"},"vehicle_type_id":"4","last_reported":1685362345,"current_range_meters":29200,"station_id":"","pricing_plan_id":"free"},{"bike_id":"7d0ce5b7-7c22-4977-a515-21bdbacf9a39","system_id":"levelo_inurba_marseille","lat":43.285856,"lon":5.350771,"is_reserved":false,"is_disabled":false,"rental_uris":{"android":"levelo://app?vid=7d0ce5b7-7c22-4977-a515-21bdbacf9a39","ios":"levelo://app?vid=7d0ce5b7-7c22-4977-a515-21bdbacf9a39"},"vehicle_type_id":"4","last_reported":1685362345,"current_range_meters":10000,"station_id":"ce4bhch2rcd13ifvqeug","pricing_plan_id":"free"},{"bike_id":"ba121738-0cb6-44a2-8d20-c3754a326cad","system_id":"levelo_inurba_marseille","lat":43.285856,"lon":5.350771,"is_reserved":false,"is_disabled":false,"rental_uris":{"android":"levelo://app?vid=ba121738-0cb6-44a2-8d20-c3754a326cad","ios":"levelo://app?vid=ba121738-0cb6-44a2-8d20-c3754a326cad"},"vehicle_type_id":"4","last_reported":1685362345,"current_range_meters":26000,"station_id":"ce4bhch2rcd13ifvqeug","pricing_plan_id":"free"},{"bike_id":"26c9141e-1e63-4741-9e6e-1d6a42ac54f0","system_id":"levelo_inurba_marseille","lat":43.285856,"lon":5.350771,"is_reserved":false,"is_disabled":false,"rental_uris":{"android":"levelo://app?vid=26c9141e-1e63-4741-9e6e-1d6a42ac54f0","ios":"levelo://app?vid=26c9141e-1e63-4741-9e6e-1d6a42ac54f0"},"vehicle_type_id":"4","last_reported":1685362345,"current_range_meters":20400,"station_id":"ce4bhch2rcd13ifvqeug","pricing_plan_id":"free"},{"bike_id":"dea2517c-b43b-4ab0-b1aa-68c41a5d4cb1","system_id":"levelo_inurba_marseille","lat":43.285856,"lon":5.350771,"is_reserved":false,"is_disabled":false,"rental_uris":{"android":"levelo://app?vid=dea2517c-b43b-4ab0-b1aa-68c41a5d4cb1","ios":"levelo://app?vid=dea2517c-b43b-4ab0-b1aa-68c41a5d4cb1"},"vehicle_type_id":"4","last_reported":1685362345,"current_range_meters":23200,"station_id":"ce4bhch2rcd13ifvqeug","pricing_plan_id":"free"},{"bike_id":"315611b6-0de4-4557-ae14-aa4f56a40418","system_id":"levelo_inurba_marseille","lat":43.28615,"lon":5.35106,"is_reserved":false,"is_disabled":false,"rental_uris":{"android":"levelo://app?vid=315611b6-0de4-4557-ae14-aa4f56a40418","ios":"levelo://app?vid=315611b6-0de4-4557-ae14-aa4f56a40418"},"vehicle_type_id":"4","last_reported":1685362345,"current_range_meters":24800,"station_id":"","pricing_plan_id":"free"},{"bike_id":"244fadeb-34d4-4aca-8e18-cbee6ccef617","system_id":"levelo_inurba_marseille","lat":43.285856,"lon":5.350771,"is_reserved":false,"is_disabled":false,"rental_uris":{"android":"levelo://app?vid=244fadeb-34d4-4aca-8e18-cbee6ccef617","ios":"levelo://app?vid=244fadeb-34d4-4aca-8e18-cbee6ccef617"},"vehicle_type_id":"4","last_reported":1685362345,"current_range_meters":20800,"station_id":"ce4bhch2rcd13ifvqeug","pricing_plan_id":"free"},{"bike_id":"3242e8e5-db8f-410e-b898-549cbf86dd65","system_id":"levelo_inurba_marseille","lat":43.28614,"lon":5.35104,"is_reserved":false,"is_disabled":false,"rental_uris":{"android":"levelo://app?vid=3242e8e5-db8f-410e-b898-549cbf86dd65","ios":"levelo://app?vid=3242e8e5-db8f-410e-b898-549cbf86dd65"},"vehicle_type_id":"4","last_reported":1685362345,"current_range_meters":20000,"station_id":"","pricing_plan_id":"free"},{"bike_id":"401123a3-5c3b-4953-9cf4-c80dbbae5696","system_id":"levelo_inurba_marseille","lat":43.28615,"lon":5.351,"is_reserved":false,"is_disabled":false,"rental_uris":{"android":"levelo://app?vid=401123a3-5c3b-4953-9cf4-c80dbbae5696","ios":"levelo://app?vid=401123a3-5c3b-4953-9cf4-c80dbbae5696"},"vehicle_type_id":"4","last_reported":1685362345,"current_range_meters":31200,"station_id":"","pricing_plan_id":"free"},{"bike_id":"5851205b-55f1-41a3-af49-480741ab379f","system_id":"levelo_inurba_marseille","lat":43.28613,"lon":5.35103,"is_reserved":false,"is_disabled":false,"rental_uris":{"android":"levelo://app?vid=5851205b-55f1-41a3-af49-480741ab379f","ios":"levelo://app?vid=5851205b-55f1-41a3-af49-480741ab379f"},"vehicle_type_id":"4","last_reported":1685362345,"current_range_meters":15600,"station_id":"","pricing_plan_id":"free"},{"bike_id":"5def35d2-320b-4ffd-922c-4d28df7eed1f","system_id":"levelo_inurba_marseille","lat":43.28611,"lon":5.35104,"is_reserved":false,"is_disabled":false,"rental_uris":{"android":"levelo://app?vid=5def35d2-320b-4ffd-922c-4d28df7eed1f","ios":"levelo://app?vid=5def35d2-320b-4ffd-922c-4d28df7eed1f"},"vehicle_type_id":"4","last_reported":1685362345,"current_range_meters":28800,"station_id":"","pricing_plan_id":"free"},{"bike_id":"59c2ff1a-35a0-4e6e-a0d0-1d4165bdaf6a","system_id":"levelo_inurba_marseille","lat":43.295713,"lon":5.399639,"is_reserved":false,"is_disabled":false,"rental_uris":{"android":"levelo://app?vid=59c2ff1a-35a0-4e6e-a0d0-1d4165bdaf6a","ios":"levelo://app?vid=59c2ff1a-35a0-4e6e-a0d0-1d4165bdaf6a"},"vehicle_type_id":"4","last_reported":1685362345,"current_range_meters":28400,"station_id":"ce4bh312rcd13ifvqdj0","pricing_plan_id":"free"},{"bike_id":"5e5d3276-6cce-4ae2-809e-6ea9ea8cc5d1","system_id":"levelo_inurba_marseille","lat":43.295713,"lon":5.399639,"is_reserved":false,"is_disabled":false,"rental_uris":{"android":"levelo://app?vid=5e5d3276-6cce-4ae2-809e-6ea9ea8cc5d1","ios":"levelo://app?vid=5e5d3276-6cce-4ae2-809e-6ea9ea8cc5d1"},"vehicle_type_id":"4","last_reported":1685362345,"current_range_meters":16400,"station_id":"ce4bh312rcd13ifvqdj0","pricing_plan_id":"free"},{"bike_id":"fecc7520-63be-49ab-a706-3635f950f3f8","system_id":"levelo_inurba_marseille","lat":43.295713,"lon":5.399639,"is_reserved":false,"is_disabled":false,"rental_uris":{"android":"levelo://app?vid=fecc7520-63be-49ab-a706-3635f950f3f8","ios":"levelo://app?vid=fecc7520-63be-49ab-a706-3635f950f3f8"},"vehicle_type_id":"4","last_reported":1685362345,"current_range_meters":19600,"station_id":"ce4bh312rcd13ifvqdj0","pricing_plan_id":"free"},{"bike_id":"00a52d09-3411-4b71-bc39-9d9c06ca2926","system_id":"levelo_inurba_marseille","lat":43.286595,"lon":5.386795,"is_reserved":false,"is_disabled":false,"rental_uris":{"android":"levelo://app?vid=00a52d09-3411-4b71-bc39-9d9c06ca2926","ios":"levelo://app?vid=00a52d09-3411-4b71-bc39-9d9c06ca2926"},"vehicle_type_id":"4","last_reported":1685362345,"current_range_meters":22400,"station_id":"ce4bh492rcd13ifvqdug","pricing_plan_id":"free"},{"bike_id":"e4722eef-8163-4a9c-99ad-b6e7b0ffc23a","system_id":"levelo_inurba_marseille","lat":43.286595,"lon":5.386795,"is_reserved":false,"is_disabled":false,"rental_uris":{"android":"levelo://app?vid=e4722eef-8163-4a9c-99ad-b6e7b0ffc23a","ios":"levelo://app?vid=e4722eef-8163-4a9c-99ad-b6e7b0ffc23a"},"vehicle_type_id":"4","last_reported":1685362345,"current_range_meters":18800,"station_id":"ce4bh492rcd13ifvqdug","pricing_plan_id":"free"},{"bike_id":"059f2e6f-6bbe-4659-8c95-66147d34e084","system_id":"levelo_inurba_marseille","lat":43.286595,"lon":5.386795,"is_reserved":false,"is_disabled":false,"rental_uris":{"android":"levelo://app?vid=059f2e6f-6bbe-4659-8c95-66147d34e084","ios":"levelo://app?vid=059f2e6f-6bbe-4659-8c95-66147d34e084"},"vehicle_type_id":"4","last_reported":1685362345,"current_range_meters":0,"station_id":"ce4bh492rcd13ifvqdug","pricing_plan_id":"free"},{"bike_id":"7eb73f98-cb7b-4616-84ef-1d598986dfdf","system_id":"levelo_inurba_marseille","lat":43.28484,"lon":5.38416,"is_reserved":false,"is_disabled":false,"rental_uris":{"android":"levelo://app?vid=7eb73f98-cb7b-4616-84ef-1d598986dfdf","ios":"levelo://app?vid=7eb73f98-cb7b-4616-84ef-1d598986dfdf"},"vehicle_type_id":"4","last_reported":1685362345,"current_range_meters":16000,"station_id":"ce4bh512rcd13ifvqe3g","pricing_plan_id":"free"},{"bike_id":"a0a7b536-5987-496a-bba9-613d20fa3be7","system_id":"levelo_inurba_marseille","lat":43.28477,"lon":5.38416,"is_reserved":false,"is_disabled":false,"rental_uris":{"android":"levelo://app?vid=a0a7b536-5987-496a-bba9-613d20fa3be7","ios":"levelo://app?vid=a0a7b536-5987-496a-bba9-613d20fa3be7"},"vehicle_type_id":"4","last_reported":1685362345,"current_range_meters":24000,"station_id":"ce4bh512rcd13ifvqe3g","pricing_plan_id":"free"},{"bike_id":"986e4551-fac6-4082-b548-ac20a4a3937f","system_id":"levelo_inurba_marseille","lat":43.28859,"lon":5.39308,"is_reserved":false,"is_disabled":false,"rental_uris":{"android":"levelo://app?vid=986e4551-fac6-4082-b548-ac20a4a3937f","ios":"levelo://app?vid=986e4551-fac6-4082-b548-ac20a4a3937f"},"vehicle_type_id":"4","last_reported":1685362345,"current_range_meters":16000,"station_id":"ce4bh2p2rcd13ifvqdi0","pricing_plan_id":"free"},{"bike_id":"e1aae608-e2b7-4ae3-963f-749209eaa2cf","system_id":"levelo_inurba_marseille","lat":43.28852,"lon":5.39304,"is_reserved":false,"is_disabled":false,"rental_uris":{"android":"levelo://app?vid=e1aae608-e2b7-4ae3-963f-749209eaa2cf","ios":"levelo://app?vid=e1aae608-e2b7-4ae3-963f-749209eaa2cf"},"vehicle_type_id":"4","last_reported":1685362345,"current_range_meters":26800,"station_id":"ce4bh2p2rcd13ifvqdi0","pricing_plan_id":"free"},{"bike_id":"64732a70-fce7-4154-a8c9-9672eb72f483","system_id":"levelo_inurba_marseille","lat":43.284219,"lon":5.3497,"is_reserved":false,"is_disabled":false,"rental_uris":{"android":"levelo://app?vid=64732a70-fce7-4154-a8c9-9672eb72f483","ios":"levelo://app?vid=64732a70-fce7-4154-a8c9-9672eb72f483"},"vehicle_type_id":"4","last_reported":1685362345,"current_range_meters":31600,"station_id":"ce4bhbh2rcd13ifvqepg","pricing_plan_id":"free"},{"bike_id":"6aa63b05-16a0-4a87-a1fb-a3f95acee867","system_id":"levelo_inurba_marseille","lat":43.284219,"lon":5.3497,"is_reserved":false,"is_disabled":false,"rental_uris":{"android":"levelo://app?vid=6aa63b05-16a0-4a87-a1fb-a3f95acee867","ios":"levelo://app?vid=6aa63b05-16a0-4a87-a1fb-a3f95acee867"},"vehicle_type_id":"4","last_reported":1685362345,"current_range_meters":31600,"station_id":"ce4bhbh2rcd13ifvqepg","pricing_plan_id":"free"},{"bike_id":"ce429d90-d737-4307-a97c-9bef8896c4f3","system_id":"levelo_inurba_marseille","lat":43.284219,"lon":5.3497,"is_reserved":false,"is_disabled":false,"rental_uris":{"android":"levelo://app?vid=ce429d90-d737-4307-a97c-9bef8896c4f3","ios":"levelo://app?vid=ce429d90-d737-4307-a97c-9bef8896c4f3"},"vehicle_type_id":"4","last_reported":1685362345,"current_range_meters":31600,"station_id":"ce4bhbh2rcd13ifvqepg","pricing_plan_id":"free"},{"bike_id":"3c7ca04a-d89f-4b76-b2f2-f7ba9382ef25","system_id":"levelo_inurba_marseille","lat":43.28421,"lon":5.34986,"is_reserved":false,"is_disabled":false,"rental_uris":{"android":"levelo://app?vid=3c7ca04a-d89f-4b76-b2f2-f7ba9382ef25","ios":"levelo://app?vid=3c7ca04a-d89f-4b76-b2f2-f7ba9382ef25"},"vehicle_type_id":"4","last_reported":1685362345,"current_range_meters":24400,"station_id":"ce4bhbh2rcd13ifvqepg","pricing_plan_id":"free"},{"bike_id":"7f26a831-ef87-4067-ae81-e01f335dc546","system_id":"levelo_inurba_marseille","lat":43.284219,"lon":5.3497,"is_reserved":false,"is_disabled":false,"rental_uris":{"android":"levelo://app?vid=7f26a831-ef87-4067-ae81-e01f335dc546","ios":"levelo://app?vid=7f26a831-ef87-4067-ae81-e01f335dc546"},"vehicle_type_id":"4","last_reported":1685362345,"current_range_meters":31200,"station_id":"ce4bhbh2rcd13ifvqepg","pricing_plan_id":"free"},{"bike_id":"c00bf755-034a-4160-914f-cd8a1035af91","system_id":"levelo_inurba_marseille","lat":43.284217,"lon":5.349697,"is_reserved":false,"is_disabled":false,"rental_uris":{"android":"levelo://app?vid=c00bf755-034a-4160-914f-cd8a1035af91","ios":"levelo://app?vid=c00bf755-034a-4160-914f-cd8a1035af91"},"vehicle_type_id":"4","last_reported":1685362345,"current_range_meters":31200,"station_id":"ce4bhbh2rcd13ifvqepg","pricing_plan_id":"free"},{"bike_id":"5f581570-a5ac-49b3-a9ce-22540a19a64a","system_id":"levelo_inurba_marseille","lat":43.284219,"lon":5.3497,"is_reserved":false,"is_disabled":false,"rental_uris":{"android":"levelo://app?vid=5f581570-a5ac-49b3-a9ce-22540a19a64a","ios":"levelo://app?vid=5f581570-a5ac-49b3-a9ce-22540a19a64a"},"vehicle_type_id":"4","last_reported":1685362345,"current_range_meters":31200,"station_id":"ce4bhbh2rcd13ifvqepg","pricing_plan_id":"free"},{"bike_id":"8814a642-7f18-4f8b-b81b-f4474527ccb2","system_id":"levelo_inurba_marseille","lat":43.284219,"lon":5.3497,"is_reserved":false,"is_disabled":false,"rental_uris":{"android":"levelo://app?vid=8814a642-7f18-4f8b-b81b-f4474527ccb2","ios":"levelo://app?vid=8814a642-7f18-4f8b-b81b-f4474527ccb2"},"vehicle_type_id":"4","last_reported":1685362345,"current_range_meters":29200,"station_id":"ce4bhbh2rcd13ifvqepg","pricing_plan_id":"free"},{"bike_id":"e604ad9a-5014-4b90-960d-3e400174b613","system_id":"levelo_inurba_marseille","lat":43.284219,"lon":5.3497,"is_reserved":false,"is_disabled":false,"rental_uris":{"android":"levelo://app?vid=e604ad9a-5014-4b90-960d-3e400174b613","ios":"levelo://app?vid=e604ad9a-5014-4b90-960d-3e400174b613"},"vehicle_type_id":"4","last_reported":1685362345,"current_range_meters":19600,"station_id":"ce4bhbh2rcd13ifvqepg","pricing_plan_id":"free"},{"bike_id":"18795326-8baa-4d93-9853-4f400af5d994","system_id":"levelo_inurba_marseille","lat":43.28417,"lon":5.34982,"is_reserved":false,"is_disabled":false,"rental_uris":{"android":"levelo://app?vid=18795326-8baa-4d93-9853-4f400af5d994","ios":"levelo://app?vid=18795326-8baa-4d93-9853-4f400af5d994"},"vehicle_type_id":"4","last_reported":1685362345,"current_range_meters":8800,"station_id":"ce4bhbh2rcd13ifvqepg","pricing_plan_id":"free"},{"bike_id":"997aad4a-7a02-4932-9d5e-12ffcda6a693","system_id":"levelo_inurba_marseille","lat":43.28414,"lon":5.34989,"is_reserved":false,"is_disabled":false,"rental_uris":{"android":"levelo://app?vid=997aad4a-7a02-4932-9d5e-12ffcda6a693","ios":"levelo://app?vid=997aad4a-7a02-4932-9d5e-12ffcda6a693"},"vehicle_type_id":"4","last_reported":1685362345,"current_range_meters":31200,"station_id":"ce4bhbh2rcd13ifvqepg","pricing_plan_id":"free"},{"bike_id":"652ae861-51fd-4a5a-ad3f-27a3015fa4d9","system_id":"levelo_inurba_marseille","lat":43.28415,"lon":5.3498,"is_reserved":false,"is_disabled":false,"rental_uris":{"android":"levelo://app?vid=652ae861-51fd-4a5a-ad3f-27a3015fa4d9","ios":"levelo://app?vid=652ae861-51fd-4a5a-ad3f-27a3015fa4d9"},"vehicle_type_id":"4","last_reported":1685362345,"current_range_meters":0,"station_id":"ce4bhbh2rcd13ifvqepg","pricing_plan_id":"free"},{"bike_id":"0bc19cd4-1014-4112-b989-0b5e62c2c663","system_id":"levelo_inurba_marseille","lat":43.292724,"lon":5.401131,"is_reserved":false,"is_disabled":false,"rental_uris":{"android":"levelo://app?vid=0bc19cd4-1014-4112-b989-0b5e62c2c663","ios":"levelo://app?vid=0bc19cd4-1014-4112-b989-0b5e62c2c663"},"vehicle_type_id":"4","last_reported":1685362345,"current_range_meters":10800,"station_id":"ce4bh312rcd13ifvqdk0","pricing_plan_id":"free"},{"bike_id":"1a9beee7-96cb-47da-94aa-6ba5b085b16f","system_id":"levelo_inurba_marseille","lat":43.292724,"lon":5.401131,"is_reserved":false,"is_disabled":false,"rental_uris":{"android":"levelo://app?vid=1a9beee7-96cb-47da-94aa-6ba5b085b16f","ios":"levelo://app?vid=1a9beee7-96cb-47da-94aa-6ba5b085b16f"},"vehicle_type_id":"4","last_reported":1685362345,"current_range_meters":15200,"station_id":"ce4bh312rcd13ifvqdk0","pricing_plan_id":"free"},{"bike_id":"3491d796-e454-4825-affc-cc9f1f780252","system_id":"levelo_inurba_marseille","lat":43.28274,"lon":5.35075,"is_reserved":false,"is_disabled":false,"rental_uris":{"android":"levelo://app?vid=3491d796-e454-4825-affc-cc9f1f780252","ios":"levelo://app?vid=3491d796-e454-4825-affc-cc9f1f780252"},"vehicle_type_id":"4","last_reported":1685362345,"current_range_meters":24000,"station_id":"ce4bhbp2rcd13ifvqerg","pricing_plan_id":"free"},{"bike_id":"9b300d98-8ed5-4cdd-9add-7f7d560da12f","system_id":"levelo_inurba_marseille","lat":43.28272,"lon":5.35067,"is_reserved":false,"is_disabled":false,"rental_uris":{"android":"levelo://app?vid=9b300d98-8ed5-4cdd-9add-7f7d560da12f","ios":"levelo://app?vid=9b300d98-8ed5-4cdd-9add-7f7d560da12f"},"vehicle_type_id":"4","last_reported":1685362345,"current_range_meters":24400,"station_id":"ce4bhbp2rcd13ifvqerg","pricing_plan_id":"free"},{"bike_id":"0837b651-c24c-4268-804c-591413d04750","system_id":"levelo_inurba_marseille","lat":43.28273,"lon":5.35061,"is_reserved":false,"is_disabled":false,"rental_uris":{"android":"levelo://app?vid=0837b651-c24c-4268-804c-591413d04750","ios":"levelo://app?vid=0837b651-c24c-4268-804c-591413d04750"},"vehicle_type_id":"4","last_reported":1685362345,"current_range_meters":7600,"station_id":"ce4bhbp2rcd13ifvqerg","pricing_plan_id":"free"},{"bike_id":"fba8e799-9e67-4b20-b8a9-bbfb077563ab","system_id":"levelo_inurba_marseille","lat":43.2827,"lon":5.35071,"is_reserved":false,"is_disabled":false,"rental_uris":{"android":"levelo://app?vid=fba8e799-9e67-4b20-b8a9-bbfb077563ab","ios":"levelo://app?vid=fba8e799-9e67-4b20-b8a9-bbfb077563ab"},"vehicle_type_id":"4","last_reported":1685362345,"current_range_meters":31200,"station_id":"ce4bhbp2rcd13ifvqerg","pricing_plan_id":"free"},{"bike_id":"f8a827df-ec6d-4d2f-86af-1a28e82607d8","system_id":"levelo_inurba_marseille","lat":43.28268,"lon":5.35067,"is_reserved":false,"is_disabled":false,"rental_uris":{"android":"levelo://app?vid=f8a827df-ec6d-4d2f-86af-1a28e82607d8","ios":"levelo://app?vid=f8a827df-ec6d-4d2f-86af-1a28e82607d8"},"vehicle_type_id":"4","last_reported":1685362345,"current_range_meters":20800,"station_id":"ce4bhbp2rcd13ifvqerg","pricing_plan_id":"free"},{"bike_id":"5bd9ecee-1780-43d1-ab04-fcb1655ddc52","system_id":"levelo_inurba_marseille","lat":43.28267,"lon":5.35068,"is_reserved":false,"is_disabled":false,"rental_uris":{"android":"levelo://app?vid=5bd9ecee-1780-43d1-ab04-fcb1655ddc52","ios":"levelo://app?vid=5bd9ecee-1780-43d1-ab04-fcb1655ddc52"},"vehicle_type_id":"4","last_reported":1685362345,"current_range_meters":0,"station_id":"ce4bhbp2rcd13ifvqerg","pricing_plan_id":"free"},{"bike_id":"99172a0d-909f-44ef-a03a-dd2959fce7d4","system_id":"levelo_inurba_marseille","lat":43.28265,"lon":5.35074,"is_reserved":false,"is_disabled":false,"rental_uris":{"android":"levelo://app?vid=99172a0d-909f-44ef-a03a-dd2959fce7d4","ios":"levelo://app?vid=99172a0d-909f-44ef-a03a-dd2959fce7d4"},"vehicle_type_id":"4","last_reported":1685362345,"current_range_meters":25200,"station_id":"ce4bhbp2rcd13ifvqerg","pricing_plan_id":"free"},{"bike_id":"b858907a-2522-4c0a-818c-3ef7a6a5b381","system_id":"levelo_inurba_marseille","lat":43.28268,"lon":5.35062,"is_reserved":false,"is_disabled":false,"rental_uris":{"android":"levelo://app?vid=b858907a-2522-4c0a-818c-3ef7a6a5b381","ios":"levelo://app?vid=b858907a-2522-4c0a-818c-3ef7a6a5b381"},"vehicle_type_id":"4","last_reported":1685362345,"current_range_meters":20800,"station_id":"ce4bhbp2rcd13ifvqerg","pricing_plan_id":"free"},{"bike_id":"2184408e-d3ae-4090-9dbc-203b39bed9db","system_id":"levelo_inurba_marseille","lat":43.28266,"lon":5.35067,"is_reserved":false,"is_disabled":false,"rental_uris":{"android":"levelo://app?vid=2184408e-d3ae-4090-9dbc-203b39bed9db","ios":"levelo://app?vid=2184408e-d3ae-4090-9dbc-203b39bed9db"},"vehicle_type_id":"4","last_reported":1685362345,"current_range_meters":24000,"station_id":"ce4bhbp2rcd13ifvqerg","pricing_plan_id":"free"},{"bike_id":"0651c420-0366-4590-a892-741f3c670c8e","system_id":"levelo_inurba_marseille","lat":43.28265,"lon":5.35069,"is_reserved":false,"is_disabled":false,"rental_uris":{"android":"levelo://app?vid=0651c420-0366-4590-a892-741f3c670c8e","ios":"levelo://app?vid=0651c420-0366-4590-a892-741f3c670c8e"},"vehicle_type_id":"4","last_reported":1685362345,"current_range_meters":22000,"station_id":"ce4bhbp2rcd13ifvqerg","pricing_plan_id":"free"},{"bike_id":"208895ae-5ff6-4c45-b47f-179bda42d2b4","system_id":"levelo_inurba_marseille","lat":43.28264,"lon":5.35071,"is_reserved":false,"is_disabled":false,"rental_uris":{"android":"levelo://app?vid=208895ae-5ff6-4c45-b47f-179bda42d2b4","ios":"levelo://app?vid=208895ae-5ff6-4c45-b47f-179bda42d2b4"},"vehicle_type_id":"4","last_reported":1685362345,"current_range_meters":22000,"station_id":"ce4bhbp2rcd13ifvqerg","pricing_plan_id":"free"},{"bike_id":"a0e3d4cb-6282-41ed-81cb-64ff6cdf8713","system_id":"levelo_inurba_marseille","lat":43.28264,"lon":5.3507,"is_reserved":false,"is_disabled":false,"rental_uris":{"android":"levelo://app?vid=a0e3d4cb-6282-41ed-81cb-64ff6cdf8713","ios":"levelo://app?vid=a0e3d4cb-6282-41ed-81cb-64ff6cdf8713"},"vehicle_type_id":"4","last_reported":1685362345,"current_range_meters":22800,"station_id":"ce4bhbp2rcd13ifvqerg","pricing_plan_id":"free"},{"bike_id":"56b845ae-9882-4124-9eda-070e9332378a","system_id":"levelo_inurba_marseille","lat":43.28264,"lon":5.3507,"is_reserved":false,"is_disabled":false,"rental_uris":{"android":"levelo://app?vid=56b845ae-9882-4124-9eda-070e9332378a","ios":"levelo://app?vid=56b845ae-9882-4124-9eda-070e9332378a"},"vehicle_type_id":"4","last_reported":1685362345,"current_range_meters":11600,"station_id":"ce4bhbp2rcd13ifvqerg","pricing_plan_id":"free"},{"bike_id":"c6d1ac23-8830-41b5-b69a-7756f780af46","system_id":"levelo_inurba_marseille","lat":43.282754,"lon":5.350519,"is_reserved":false,"is_disabled":false,"rental_uris":{"android":"levelo://app?vid=c6d1ac23-8830-41b5-b69a-7756f780af46","ios":"levelo://app?vid=c6d1ac23-8830-41b5-b69a-7756f780af46"},"vehicle_type_id":"4","last_reported":1685362345,"current_range_meters":30800,"station_id":"ce4bhbp2rcd13ifvqerg","pricing_plan_id":"free"},{"bike_id":"824d221b-5588-4248-8630-185fa4112b0e","system_id":"levelo_inurba_marseille","lat":43.28262,"lon":5.35069,"is_reserved":false,"is_disabled":false,"rental_uris":{"android":"levelo://app?vid=824d221b-5588-4248-8630-185fa4112b0e","ios":"levelo://app?vid=824d221b-5588-4248-8630-185fa4112b0e"},"vehicle_type_id":"4","last_reported":1685362345,"current_range_meters":30000,"station_id":"ce4bhbp2rcd13ifvqerg","pricing_plan_id":"free"},{"bike_id":"0280ca28-3c48-4394-a12c-3aa64f899a2c","system_id":"levelo_inurba_marseille","lat":43.28264,"lon":5.35062,"is_reserved":false,"is_disabled":false,"rental_uris":{"android":"levelo://app?vid=0280ca28-3c48-4394-a12c-3aa64f899a2c","ios":"levelo://app?vid=0280ca28-3c48-4394-a12c-3aa64f899a2c"},"vehicle_type_id":"4","last_reported":1685362345,"current_range_meters":16800,"station_id":"ce4bhbp2rcd13ifvqerg","pricing_plan_id":"free"},{"bike_id":"63a2389e-913c-47af-ae6b-a4ca29de72f0","system_id":"levelo_inurba_marseille","lat":43.28039,"lon":5.369297,"is_reserved":false,"is_disabled":false,"rental_uris":{"android":"levelo://app?vid=63a2389e-913c-47af-ae6b-a4ca29de72f0","ios":"levelo://app?vid=63a2389e-913c-47af-ae6b-a4ca29de72f0"},"vehicle_type_id":"4","last_reported":1685362345,"current_range_meters":6000,"station_id":"ce4bha12rcd13ifvqef0","pricing_plan_id":"free"},{"bike_id":"0588983e-3c25-4872-ad53-c8740fea039e","system_id":"levelo_inurba_marseille","lat":43.280382,"lon":5.369291,"is_reserved":false,"is_disabled":false,"rental_uris":{"android":"levelo://app?vid=0588983e-3c25-4872-ad53-c8740fea039e","ios":"levelo://app?vid=0588983e-3c25-4872-ad53-c8740fea039e"},"vehicle_type_id":"4","last_reported":1685362345,"current_range_meters":19200,"station_id":"ce4bha12rcd13ifvqef0","pricing_plan_id":"free"},{"bike_id":"d8cce05c-da65-4de8-9d94-15642aa4b5a9","system_id":"levelo_inurba_marseille","lat":43.29041,"lon":5.399634,"is_reserved":false,"is_disabled":false,"rental_uris":{"android":"levelo://app?vid=d8cce05c-da65-4de8-9d94-15642aa4b5a9","ios":"levelo://app?vid=d8cce05c-da65-4de8-9d94-15642aa4b5a9"},"vehicle_type_id":"4","last_reported":1685362345,"current_range_meters":13200,"station_id":"ce4bh392rcd13ifvqdm0","pricing_plan_id":"free"},{"bike_id":"63378168-6273-416c-ab4f-165dfcab9966","system_id":"levelo_inurba_marseille","lat":43.29041,"lon":5.399634,"is_reserved":false,"is_disabled":false,"rental_uris":{"android":"levelo://app?vid=63378168-6273-416c-ab4f-165dfcab9966","ios":"levelo://app?vid=63378168-6273-416c-ab4f-165dfcab9966"},"vehicle_type_id":"4","last_reported":1685362345,"current_range_meters":22800,"station_id":"ce4bh392rcd13ifvqdm0","pricing_plan_id":"free"},{"bike_id":"f3d1e93a-06bf-47f5-a90c-48fd1b22448e","system_id":"levelo_inurba_marseille","lat":43.28437,"lon":5.39189,"is_reserved":false,"is_disabled":false,"rental_uris":{"android":"levelo://app?vid=f3d1e93a-06bf-47f5-a90c-48fd1b22448e","ios":"levelo://app?vid=f3d1e93a-06bf-47f5-a90c-48fd1b22448e"},"vehicle_type_id":"4","last_reported":1685362345,"current_range_meters":26000,"station_id":"ce4bhoh2rcd13ifvqh5g","pricing_plan_id":"free"},{"bike_id":"580766b3-c34b-419b-ba86-50b0b82e058d","system_id":"levelo_inurba_marseille","lat":43.284462,"lon":5.392121,"is_reserved":false,"is_disabled":false,"rental_uris":{"android":"levelo://app?vid=580766b3-c34b-419b-ba86-50b0b82e058d","ios":"levelo://app?vid=580766b3-c34b-419b-ba86-50b0b82e058d"},"vehicle_type_id":"4","last_reported":1685362345,"current_range_meters":14000,"station_id":"ce4bhoh2rcd13ifvqh5g","pricing_plan_id":"free"},{"bike_id":"dba6061f-3478-445a-a53a-f3b57a86dd67","system_id":"levelo_inurba_marseille","lat":43.28166,"lon":5.38622,"is_reserved":false,"is_disabled":false,"rental_uris":{"android":"levelo://app?vid=dba6061f-3478-445a-a53a-f3b57a86dd67","ios":"levelo://app?vid=dba6061f-3478-445a-a53a-f3b57a86dd67"},"vehicle_type_id":"4","last_reported":1685362345,"current_range_meters":19600,"station_id":"","pricing_plan_id":"free"},{"bike_id":"db1489de-a7c4-4c0f-8abf-73d0898bb77a","system_id":"levelo_inurba_marseille","lat":43.28172,"lon":5.39172,"is_reserved":false,"is_disabled":false,"rental_uris":{"android":"levelo://app?vid=db1489de-a7c4-4c0f-8abf-73d0898bb77a","ios":"levelo://app?vid=db1489de-a7c4-4c0f-8abf-73d0898bb77a"},"vehicle_type_id":"4","last_reported":1685362345,"current_range_meters":14800,"station_id":"","pricing_plan_id":"free"},{"bike_id":"e37bc7d8-eb13-42f0-b444-d4080a4488a6","system_id":"levelo_inurba_marseille","lat":43.325233,"lon":5.414318,"is_reserved":false,"is_disabled":false,"rental_uris":{"android":"levelo://app?vid=e37bc7d8-eb13-42f0-b444-d4080a4488a6","ios":"levelo://app?vid=e37bc7d8-eb13-42f0-b444-d4080a4488a6"},"vehicle_type_id":"4","last_reported":1685362345,"current_range_meters":18400,"station_id":"ce4bhq12rcd13ifvqhhg","pricing_plan_id":"free"},{"bike_id":"4d334810-6f4b-4c1d-a3f0-85988ce1a134","system_id":"levelo_inurba_marseille","lat":43.276179,"lon":5.361009,"is_reserved":false,"is_disabled":false,"rental_uris":{"android":"levelo://app?vid=4d334810-6f4b-4c1d-a3f0-85988ce1a134","ios":"levelo://app?vid=4d334810-6f4b-4c1d-a3f0-85988ce1a134"},"vehicle_type_id":"4","last_reported":1685362345,"current_range_meters":24800,"station_id":"ce4bgj92rcd13ifvqbe0","pricing_plan_id":"free"},{"bike_id":"a2e9cbfa-4b2b-4934-a99d-91122d833ef6","system_id":"levelo_inurba_marseille","lat":43.276179,"lon":5.361009,"is_reserved":false,"is_disabled":false,"rental_uris":{"android":"levelo://app?vid=a2e9cbfa-4b2b-4934-a99d-91122d833ef6","ios":"levelo://app?vid=a2e9cbfa-4b2b-4934-a99d-91122d833ef6"},"vehicle_type_id":"4","last_reported":1685362345,"current_range_meters":28000,"station_id":"ce4bgj92rcd13ifvqbe0","pricing_plan_id":"free"},{"bike_id":"3c23a1ba-2251-441d-bb72-cfe28ecee408","system_id":"levelo_inurba_marseille","lat":43.27612,"lon":5.36116,"is_reserved":false,"is_disabled":false,"rental_uris":{"android":"levelo://app?vid=3c23a1ba-2251-441d-bb72-cfe28ecee408","ios":"levelo://app?vid=3c23a1ba-2251-441d-bb72-cfe28ecee408"},"vehicle_type_id":"4","last_reported":1685362345,"current_range_meters":24800,"station_id":"ce4bgj92rcd13ifvqbe0","pricing_plan_id":"free"},{"bike_id":"eca66c1d-ae2c-4bc5-ae81-3fed2c4309c4","system_id":"levelo_inurba_marseille","lat":43.27611,"lon":5.36113,"is_reserved":false,"is_disabled":false,"rental_uris":{"android":"levelo://app?vid=eca66c1d-ae2c-4bc5-ae81-3fed2c4309c4","ios":"levelo://app?vid=eca66c1d-ae2c-4bc5-ae81-3fed2c4309c4"},"vehicle_type_id":"4","last_reported":1685362345,"current_range_meters":24800,"station_id":"ce4bgj92rcd13ifvqbe0","pricing_plan_id":"free"},{"bike_id":"ca6faf05-0f3b-4010-a2f1-8fb9acd54108","system_id":"levelo_inurba_marseille","lat":43.303837,"lon":5.418724,"is_reserved":false,"is_disabled":false,"rental_uris":{"android":"levelo://app?vid=ca6faf05-0f3b-4010-a2f1-8fb9acd54108","ios":"levelo://app?vid=ca6faf05-0f3b-4010-a2f1-8fb9acd54108"},"vehicle_type_id":"4","last_reported":1685362345,"current_range_meters":31200,"station_id":"ce4bhop2rcd13ifvqh7g","pricing_plan_id":"free"},{"bike_id":"24001c60-21fc-47db-9007-08af1f6d3561","system_id":"levelo_inurba_marseille","lat":43.273609,"lon":5.362708,"is_reserved":false,"is_disabled":false,"rental_uris":{"android":"levelo://app?vid=24001c60-21fc-47db-9007-08af1f6d3561","ios":"levelo://app?vid=24001c60-21fc-47db-9007-08af1f6d3561"},"vehicle_type_id":"4","last_reported":1685362345,"current_range_meters":2000,"station_id":"ce4bhbh2rcd13ifvqeo0","pricing_plan_id":"free"},{"bike_id":"c9479f6c-dd6a-43b7-86d1-59fddd68cfd8","system_id":"levelo_inurba_marseille","lat":43.27379,"lon":5.36263,"is_reserved":false,"is_disabled":false,"rental_uris":{"android":"levelo://app?vid=c9479f6c-dd6a-43b7-86d1-59fddd68cfd8","ios":"levelo://app?vid=c9479f6c-dd6a-43b7-86d1-59fddd68cfd8"},"vehicle_type_id":"4","last_reported":1685362345,"current_range_meters":28400,"station_id":"ce4bhbh2rcd13ifvqeo0","pricing_plan_id":"free"},{"bike_id":"f4b30abf-81fc-4ef2-bc9b-8b99aba61d5c","system_id":"levelo_inurba_marseille","lat":43.27378,"lon":5.36254,"is_reserved":false,"is_disabled":false,"rental_uris":{"android":"levelo://app?vid=f4b30abf-81fc-4ef2-bc9b-8b99aba61d5c","ios":"levelo://app?vid=f4b30abf-81fc-4ef2-bc9b-8b99aba61d5c"},"vehicle_type_id":"4","last_reported":1685362345,"current_range_meters":13200,"station_id":"ce4bhbh2rcd13ifvqeo0","pricing_plan_id":"free"},{"bike_id":"1f9fbc39-f010-4190-a08d-1dcfa098a0a6","system_id":"levelo_inurba_marseille","lat":43.27376,"lon":5.36257,"is_reserved":false,"is_disabled":false,"rental_uris":{"android":"levelo://app?vid=1f9fbc39-f010-4190-a08d-1dcfa098a0a6","ios":"levelo://app?vid=1f9fbc39-f010-4190-a08d-1dcfa098a0a6"},"vehicle_type_id":"4","last_reported":1685362345,"current_range_meters":15200,"station_id":"ce4bhbh2rcd13ifvqeo0","pricing_plan_id":"free"},{"bike_id":"b17318f2-8ca9-44be-9033-bcc68967c998","system_id":"levelo_inurba_marseille","lat":43.27376,"lon":5.36246,"is_reserved":false,"is_disabled":false,"rental_uris":{"android":"levelo://app?vid=b17318f2-8ca9-44be-9033-bcc68967c998","ios":"levelo://app?vid=b17318f2-8ca9-44be-9033-bcc68967c998"},"vehicle_type_id":"4","last_reported":1685362345,"current_range_meters":25600,"station_id":"ce4bhbh2rcd13ifvqeo0","pricing_plan_id":"free"},{"bike_id":"90028714-f1a0-4dbd-8ede-050aa4b12b73","system_id":"levelo_inurba_marseille","lat":43.27375,"lon":5.36249,"is_reserved":false,"is_disabled":false,"rental_uris":{"android":"levelo://app?vid=90028714-f1a0-4dbd-8ede-050aa4b12b73","ios":"levelo://app?vid=90028714-f1a0-4dbd-8ede-050aa4b12b73"},"vehicle_type_id":"4","last_reported":1685362345,"current_range_meters":19200,"station_id":"ce4bhbh2rcd13ifvqeo0","pricing_plan_id":"free"},{"bike_id":"94023db1-6bb7-415c-8a3e-28a4f1a183de","system_id":"levelo_inurba_marseille","lat":43.27374,"lon":5.36257,"is_reserved":false,"is_disabled":false,"rental_uris":{"android":"levelo://app?vid=94023db1-6bb7-415c-8a3e-28a4f1a183de","ios":"levelo://app?vid=94023db1-6bb7-415c-8a3e-28a4f1a183de"},"vehicle_type_id":"4","last_reported":1685362345,"current_range_meters":20000,"station_id":"ce4bhbh2rcd13ifvqeo0","pricing_plan_id":"free"},{"bike_id":"78a3dbcd-8d00-43e0-a5fd-eebbea8c4401","system_id":"levelo_inurba_marseille","lat":43.273609,"lon":5.362708,"is_reserved":false,"is_disabled":false,"rental_uris":{"android":"levelo://app?vid=78a3dbcd-8d00-43e0-a5fd-eebbea8c4401","ios":"levelo://app?vid=78a3dbcd-8d00-43e0-a5fd-eebbea8c4401"},"vehicle_type_id":"4","last_reported":1685362345,"current_range_meters":16400,"station_id":"ce4bhbh2rcd13ifvqeo0","pricing_plan_id":"free"},{"bike_id":"ff645cf7-de40-47c8-814d-b4e7df3d0296","system_id":"levelo_inurba_marseille","lat":43.273609,"lon":5.362708,"is_reserved":false,"is_disabled":false,"rental_uris":{"android":"levelo://app?vid=ff645cf7-de40-47c8-814d-b4e7df3d0296","ios":"levelo://app?vid=ff645cf7-de40-47c8-814d-b4e7df3d0296"},"vehicle_type_id":"4","last_reported":1685362345,"current_range_meters":32000,"station_id":"ce4bhbh2rcd13ifvqeo0","pricing_plan_id":"free"},{"bike_id":"cd50e38f-be01-4043-b35c-a9a528b15b22","system_id":"levelo_inurba_marseille","lat":43.27372,"lon":5.36251,"is_reserved":false,"is_disabled":false,"rental_uris":{"android":"levelo://app?vid=cd50e38f-be01-4043-b35c-a9a528b15b22","ios":"levelo://app?vid=cd50e38f-be01-4043-b35c-a9a528b15b22"},"vehicle_type_id":"4","last_reported":1685362345,"current_range_meters":21200,"station_id":"ce4bhbh2rcd13ifvqeo0","pricing_plan_id":"free"},{"bike_id":"85cfc301-dd03-4d26-9397-68f5e98cae37","system_id":"levelo_inurba_marseille","lat":43.27567,"lon":5.38424,"is_reserved":false,"is_disabled":false,"rental_uris":{"android":"levelo://app?vid=85cfc301-dd03-4d26-9397-68f5e98cae37","ios":"levelo://app?vid=85cfc301-dd03-4d26-9397-68f5e98cae37"},"vehicle_type_id":"4","last_reported":1685362345,"current_range_meters":27200,"station_id":"","pricing_plan_id":"free"},{"bike_id":"6bac119f-7fdc-462a-b9aa-b2ea52a69389","system_id":"levelo_inurba_marseille","lat":43.273723,"lon":5.362434,"is_reserved":false,"is_disabled":false,"rental_uris":{"android":"levelo://app?vid=6bac119f-7fdc-462a-b9aa-b2ea52a69389","ios":"levelo://app?vid=6bac119f-7fdc-462a-b9aa-b2ea52a69389"},"vehicle_type_id":"4","last_reported":1685362345,"current_range_meters":22400,"station_id":"ce4bhbh2rcd13ifvqeo0","pricing_plan_id":"free"},{"bike_id":"4b518eea-3ade-417b-9f42-e5bc7ba9e638","system_id":"levelo_inurba_marseille","lat":43.273609,"lon":5.362708,"is_reserved":false,"is_disabled":false,"rental_uris":{"android":"levelo://app?vid=4b518eea-3ade-417b-9f42-e5bc7ba9e638","ios":"levelo://app?vid=4b518eea-3ade-417b-9f42-e5bc7ba9e638"},"vehicle_type_id":"4","last_reported":1685362345,"current_range_meters":32000,"station_id":"ce4bhbh2rcd13ifvqeo0","pricing_plan_id":"free"},{"bike_id":"64da8fbd-86c0-47be-ac09-98ca95bce499","system_id":"levelo_inurba_marseille","lat":43.273609,"lon":5.362708,"is_reserved":false,"is_disabled":false,"rental_uris":{"android":"levelo://app?vid=64da8fbd-86c0-47be-ac09-98ca95bce499","ios":"levelo://app?vid=64da8fbd-86c0-47be-ac09-98ca95bce499"},"vehicle_type_id":"4","last_reported":1685362345,"current_range_meters":0,"station_id":"ce4bhbh2rcd13ifvqeo0","pricing_plan_id":"free"},{"bike_id":"dfd821b6-1cff-4c91-9436-b16e7721e3b1","system_id":"levelo_inurba_marseille","lat":43.273609,"lon":5.362708,"is_reserved":false,"is_disabled":false,"rental_uris":{"android":"levelo://app?vid=dfd821b6-1cff-4c91-9436-b16e7721e3b1","ios":"levelo://app?vid=dfd821b6-1cff-4c91-9436-b16e7721e3b1"},"vehicle_type_id":"4","last_reported":1685362345,"current_range_meters":9200,"station_id":"ce4bhbh2rcd13ifvqeo0","pricing_plan_id":"free"},{"bike_id":"91b49189-18df-431a-bbbf-f0b2350181de","system_id":"levelo_inurba_marseille","lat":43.28424,"lon":5.40795,"is_reserved":false,"is_disabled":false,"rental_uris":{"android":"levelo://app?vid=91b49189-18df-431a-bbbf-f0b2350181de","ios":"levelo://app?vid=91b49189-18df-431a-bbbf-f0b2350181de"},"vehicle_type_id":"4","last_reported":1685362345,"current_range_meters":3600,"station_id":"","pricing_plan_id":"free"},{"bike_id":"1f44f758-4f60-46d5-9cba-c2cdfa4441e4","system_id":"levelo_inurba_marseille","lat":43.317121,"lon":5.423936,"is_reserved":false,"is_disabled":false,"rental_uris":{"android":"levelo://app?vid=1f44f758-4f60-46d5-9cba-c2cdfa4441e4","ios":"levelo://app?vid=1f44f758-4f60-46d5-9cba-c2cdfa4441e4"},"vehicle_type_id":"4","last_reported":1685362345,"current_range_meters":18000,"station_id":"ce4bhp92rcd13ifvqhbg","pricing_plan_id":"free"},{"bike_id":"36248cfd-5559-4c03-b797-d1d0be3cf1df","system_id":"levelo_inurba_marseille","lat":43.317121,"lon":5.423936,"is_reserved":false,"is_disabled":false,"rental_uris":{"android":"levelo://app?vid=36248cfd-5559-4c03-b797-d1d0be3cf1df","ios":"levelo://app?vid=36248cfd-5559-4c03-b797-d1d0be3cf1df"},"vehicle_type_id":"4","last_reported":1685362345,"current_range_meters":8000,"station_id":"ce4bhp92rcd13ifvqhbg","pricing_plan_id":"free"},{"bike_id":"cc1cc54e-1a9a-49f4-a8bd-07697f28e60a","system_id":"levelo_inurba_marseille","lat":43.317121,"lon":5.423936,"is_reserved":false,"is_disabled":false,"rental_uris":{"android":"levelo://app?vid=cc1cc54e-1a9a-49f4-a8bd-07697f28e60a","ios":"levelo://app?vid=cc1cc54e-1a9a-49f4-a8bd-07697f28e60a"},"vehicle_type_id":"4","last_reported":1685362345,"current_range_meters":31600,"station_id":"ce4bhp92rcd13ifvqhbg","pricing_plan_id":"free"},{"bike_id":"b6fde87d-9380-4612-9856-6a4c15e474d5","system_id":"levelo_inurba_marseille","lat":43.310785,"lon":5.424305,"is_reserved":false,"is_disabled":false,"rental_uris":{"android":"levelo://app?vid=b6fde87d-9380-4612-9856-6a4c15e474d5","ios":"levelo://app?vid=b6fde87d-9380-4612-9856-6a4c15e474d5"},"vehicle_type_id":"4","last_reported":1685362345,"current_range_meters":31200,"station_id":"ce4bhp92rcd13ifvqhag","pricing_plan_id":"free"},{"bike_id":"6b586849-4cb2-4f0c-a6d8-7549b3a03b77","system_id":"levelo_inurba_marseille","lat":43.310785,"lon":5.424305,"is_reserved":false,"is_disabled":false,"rental_uris":{"android":"levelo://app?vid=6b586849-4cb2-4f0c-a6d8-7549b3a03b77","ios":"levelo://app?vid=6b586849-4cb2-4f0c-a6d8-7549b3a03b77"},"vehicle_type_id":"4","last_reported":1685362345,"current_range_meters":26400,"station_id":"ce4bhp92rcd13ifvqhag","pricing_plan_id":"free"},{"bike_id":"a6c5099f-fac0-4b23-86a2-4db6eeeb83ae","system_id":"levelo_inurba_marseille","lat":43.317121,"lon":5.423936,"is_reserved":false,"is_disabled":false,"rental_uris":{"android":"levelo://app?vid=a6c5099f-fac0-4b23-86a2-4db6eeeb83ae","ios":"levelo://app?vid=a6c5099f-fac0-4b23-86a2-4db6eeeb83ae"},"vehicle_type_id":"4","last_reported":1685362345,"current_range_meters":28400,"station_id":"ce4bhp92rcd13ifvqhbg","pricing_plan_id":"free"},{"bike_id":"8e977a37-a7ca-4220-846a-4b55fd0d9c3a","system_id":"levelo_inurba_marseille","lat":43.310785,"lon":5.424305,"is_reserved":false,"is_disabled":false,"rental_uris":{"android":"levelo://app?vid=8e977a37-a7ca-4220-846a-4b55fd0d9c3a","ios":"levelo://app?vid=8e977a37-a7ca-4220-846a-4b55fd0d9c3a"},"vehicle_type_id":"4","last_reported":1685362345,"current_range_meters":10000,"station_id":"ce4bhp92rcd13ifvqhag","pricing_plan_id":"free"},{"bike_id":"1aa99106-6380-4167-a5ae-4a6e083874c9","system_id":"levelo_inurba_marseille","lat":43.310785,"lon":5.424305,"is_reserved":false,"is_disabled":false,"rental_uris":{"android":"levelo://app?vid=1aa99106-6380-4167-a5ae-4a6e083874c9","ios":"levelo://app?vid=1aa99106-6380-4167-a5ae-4a6e083874c9"},"vehicle_type_id":"4","last_reported":1685362345,"current_range_meters":29600,"station_id":"ce4bhp92rcd13ifvqhag","pricing_plan_id":"free"},{"bike_id":"a836af40-09af-4eb0-8db9-1fc5b0f18843","system_id":"levelo_inurba_marseille","lat":43.27323,"lon":5.39095,"is_reserved":false,"is_disabled":false,"rental_uris":{"android":"levelo://app?vid=a836af40-09af-4eb0-8db9-1fc5b0f18843","ios":"levelo://app?vid=a836af40-09af-4eb0-8db9-1fc5b0f18843"},"vehicle_type_id":"4","last_reported":1685362345,"current_range_meters":0,"station_id":"ce4bhgp2rcd13ifvqfe0","pricing_plan_id":"free"},{"bike_id":"d80e67f3-5599-493a-bad1-1f92ebef0b95","system_id":"levelo_inurba_marseille","lat":43.304096,"lon":5.425385,"is_reserved":false,"is_disabled":false,"rental_uris":{"android":"levelo://app?vid=d80e67f3-5599-493a-bad1-1f92ebef0b95","ios":"levelo://app?vid=d80e67f3-5599-493a-bad1-1f92ebef0b95"},"vehicle_type_id":"4","last_reported":1685362345,"current_range_meters":10000,"station_id":"ce4bhoh2rcd13ifvqh6g","pricing_plan_id":"free"},{"bike_id":"006b1477-59d9-4abf-bf30-fe468e8a0337","system_id":"levelo_inurba_marseille","lat":43.30448,"lon":5.42547,"is_reserved":false,"is_disabled":false,"rental_uris":{"android":"levelo://app?vid=006b1477-59d9-4abf-bf30-fe468e8a0337","ios":"levelo://app?vid=006b1477-59d9-4abf-bf30-fe468e8a0337"},"vehicle_type_id":"4","last_reported":1685362345,"current_range_meters":26800,"station_id":"","pricing_plan_id":"free"},{"bike_id":"4ccce2f7-ce49-4f2d-854c-e845debf3029","system_id":"levelo_inurba_marseille","lat":43.30412,"lon":5.42545,"is_reserved":false,"is_disabled":false,"rental_uris":{"android":"levelo://app?vid=4ccce2f7-ce49-4f2d-854c-e845debf3029","ios":"levelo://app?vid=4ccce2f7-ce49-4f2d-854c-e845debf3029"},"vehicle_type_id":"4","last_reported":1685362345,"current_range_meters":16400,"station_id":"ce4bhoh2rcd13ifvqh6g","pricing_plan_id":"free"},{"bike_id":"6390dd97-3f50-4160-bb3e-8286a27a0e7b","system_id":"levelo_inurba_marseille","lat":43.30392,"lon":5.42594,"is_reserved":false,"is_disabled":false,"rental_uris":{"android":"levelo://app?vid=6390dd97-3f50-4160-bb3e-8286a27a0e7b","ios":"levelo://app?vid=6390dd97-3f50-4160-bb3e-8286a27a0e7b"},"vehicle_type_id":"4","last_reported":1685362345,"current_range_meters":25200,"station_id":"","pricing_plan_id":"free"},{"bike_id":"c48a506e-09b4-4099-96ba-a47f2e5a96c1","system_id":"levelo_inurba_marseille","lat":43.272116,"lon":5.391747,"is_reserved":false,"is_disabled":false,"rental_uris":{"android":"levelo://app?vid=c48a506e-09b4-4099-96ba-a47f2e5a96c1","ios":"levelo://app?vid=c48a506e-09b4-4099-96ba-a47f2e5a96c1"},"vehicle_type_id":"4","last_reported":1685362345,"current_range_meters":4000,"station_id":"ce4bhhp2rcd13ifvqfm0","pricing_plan_id":"free"},{"bike_id":"28d17aae-de41-4d8b-a6ce-5205a9925019","system_id":"levelo_inurba_marseille","lat":43.269467,"lon":5.386439,"is_reserved":false,"is_disabled":false,"rental_uris":{"android":"levelo://app?vid=28d17aae-de41-4d8b-a6ce-5205a9925019","ios":"levelo://app?vid=28d17aae-de41-4d8b-a6ce-5205a9925019"},"vehicle_type_id":"4","last_reported":1685362345,"current_range_meters":15600,"station_id":"ce4bhh92rcd13ifvqfh0","pricing_plan_id":"free"},{"bike_id":"0f017e38-1240-478f-92c4-d9bcc9b156cc","system_id":"levelo_inurba_marseille","lat":43.265714,"lon":5.372891,"is_reserved":false,"is_disabled":false,"rental_uris":{"android":"levelo://app?vid=0f017e38-1240-478f-92c4-d9bcc9b156cc","ios":"levelo://app?vid=0f017e38-1240-478f-92c4-d9bcc9b156cc"},"vehicle_type_id":"4","last_reported":1685362345,"current_range_meters":18000,"station_id":"ce4bhg12rcd13ifvqf70","pricing_plan_id":"free"},