{"last_updated":1726909712,"ttl":30,"version":"2.2","data":{"bikes":[{"bike_id":"0bbee90f-8502-443f-ba84-24be626a4a28","system_id":"levelo_inurba_marseille","lat":43.28176,"lon":5.42641,"is_reserved":false,"is_disabled":false,"rental_uris":{"android":"levelo://app?vid=0bbee90f-8502-443f-ba84-24be626a4a28","ios":"levelo://app?vid=0bbee90f-8502-443f-ba84-24be626a4a28"},"vehicle_type_id":"4","last_reported":1726909712,"current_range_meters":19200,"station_id":"ce4bhnh2rcd13ifvqgug","pricing_plan_id":"cebpf4jnsgd1na2vs0mg"},{"bike_id":"376fe6fa-2eba-483a-b897-5c2d17578f3b","system_id":"levelo_inurba_marseille","lat":43.27997,"lon":5.40014,"is_reserved":false,"is_disabled":false,"rental_uris":{"android":"levelo://app?vid=376fe6fa-2eba-483a-b897-5c2d17578f3b","ios":"levelo://app?vid=376fe6fa-2eba-483a-b897-5c2d17578f3b"},"vehicle_type_id":"4","last_reported":1726909712,"current_range_meters":34800,"station_id":"ce4bho92rcd13ifvqh4g","pricing_plan_id":"cebpf4jnsgd1na2vs0mg"},{"bike_id":"c39e6c5f-c85b-4e66-a113-8b66e7e02132","system_id":"levelo_inurba_marseille","lat":43.24391,"lon":5.37063,"is_reserved":false,"is_disabled":false,"rental_uris":{"android":"levelo://app?vid=c39e6c5f-c85b-4e66-a113-8b66e7e02132","ios":"levelo://app?vid=c39e6c5f-c85b-4e66-a113-8b66e7e02132"},"vehicle_type_id":"4","last_reported":1726909712,"current_range_meters":32400,"station_id":"ce4bhhh2rcd13ifvqfk0","pricing_plan_id":"cebpf4jnsgd1na2vs0mg"},{"bike_id":"5fd38519-98f4-4f00-93ed-1daeb76c790e","system_id":"levelo_inurba_marseille","lat":43.27493,"lon":5.42449,"is_reserved":false,"is_disabled":false,"rental_uris":{"android":"levelo://app?vid=5fd38519-98f4-4f00-93ed-1daeb76c790e","ios":"levelo://app?vid=5fd38519-98f4-4f00-93ed-1daeb76c790e"},"vehicle_type_id":"4","last_reported":1726909712,"current_range_meters":22000,"station_id":"ce4bhn92rcd13ifvqgrg","pricing_plan_id":"cebpf4jnsgd1na2vs0mg"},{"bike_id":"8266021d-2594-45f8-989f-eb797477d1db","system_id":"levelo_inurba_marseille","lat":43.2901,"lon":5.35601,"is_reserved":false,"is_disabled":false,"rental_uris":{"android":"levelo://app?vid=8266021d-2594-45f8-989f-eb797477d1db","ios":"levelo://app?vid=8266021d-2594-45f8-989f-eb797477d1db"},"vehicle_type_id":"4","last_reported":1726909712,"current_range_meters":28000,"station_id":"ce4bhb92rcd13ifvqen0","pricing_plan_id":"cebpf4jnsgd1na2vs0mg"},{"bike_id":"c943e2f3-933e-4efb-97de-45246d483f08","system_id":"levelo_inurba_marseille","lat":43.2656,"lon":5.3729,"is_reserved":false,"is_disabled":false,"rental_uris":{"android":"levelo://app?vid=c943e2f3-933e-4efb-97de-45246d483f08","ios":"levelo://app?vid=c943e2f3-933e-4efb-97de-45246d483f08"},"vehicle_type_id":"4","last_reported":1726909712,"current_range_meters":8000,"station_id":"ce4bhg12rcd13ifvqf70","pricing_plan_id":"cebpf4jnsgd1na2vs0mg"},{"bike_id":"c80ed0b2-5a0a-41b2-80b6-6ee9abf92ddc","system_id":"levelo_inurba_marseille","lat":43.28411,"lon":5.34986,"is_reserved":false,"is_disabled":false,"rental_uris":{"android":"levelo://app?vid=c80ed0b2-5a0a-41b2-80b6-6ee9abf92ddc","ios":"levelo://app?vid=c80ed0b2-5a0a-41b2-80b6-6ee9abf92ddc"},"vehicle_type_id":"4","last_reported":1726909712,"current_range_meters":39200,"station_id":"ce4bhbh2rcd13ifvqepg","pricing_plan_id":"cebpf4jnsgd1na2vs0mg"},{"bike_id":"caeb01e1-f6ca-4785-8d66-d5a031a43aa7","system_id":"levelo_inurba_marseille","lat":43.2509,"lon":5.3951,"is_reserved":false,"is_disabled":false,"rental_uris":{"android":"levelo://app?vid=caeb01e1-f6ca-4785-8d66-d5a031a43aa7","ios":"levelo://app?vid=caeb01e1-f6ca-4785-8d66-d5a031a43aa7"},"vehicle_type_id":"4","last_reported":1726909712,"current_range_meters":32000,"station_id":"ce4bhm12rcd13ifvqgkg","pricing_plan_id":"cebpf4jnsgd1na2vs0mg"},{"bike_id":"d0b1249e-7f56-497f-be5a-6ef1ae77562a","system_id":"levelo_inurba_marseille","lat":43.337444,"lon":5.374475,"is_reserved":false,"is_disabled":false,"rental_uris":{"android":"levelo://app?vid=d0b1249e-7f56-497f-be5a-6ef1ae77562a","ios":"levelo://app?vid=d0b1249e-7f56-497f-be5a-6ef1ae77562a"},"vehicle_type_id":"4","last_reported":1726909712,"current_range_meters":38000,"station_id":"ce4bh0h2rcd13ifvqd50","pricing_plan_id":"cebpf4jnsgd1na2vs0mg"},{"bike_id":"e6cc81cc-c8e9-490e-8988-0482ffb7c86d","system_id":"levelo_inurba_marseille","lat":43.29727,"lon":5.37682,"is_reserved":false,"is_disabled":false,"rental_uris":{"android":"levelo://app?vid=e6cc81cc-c8e9-490e-8988-0482ffb7c86d","ios":"levelo://app?vid=e6cc81cc-c8e9-490e-8988-0482ffb7c86d"},"vehicle_type_id":"4","last_reported":1726909712,"current_range_meters":38800,"station_id":"ce4bgkh2rcd13ifvqbl0","pricing_plan_id":"cebpf4jnsgd1na2vs0mg"},{"bike_id":"c7578a98-3e33-46e3-8817-30f14b194cac","system_id":"levelo_inurba_marseille","lat":43.27496,"lon":5.42447,"is_reserved":false,"is_disabled":false,"rental_uris":{"android":"levelo://app?vid=c7578a98-3e33-46e3-8817-30f14b194cac","ios":"levelo://app?vid=c7578a98-3e33-46e3-8817-30f14b194cac"},"vehicle_type_id":"4","last_reported":1726909712,"current_range_meters":14800,"station_id":"ce4bhn92rcd13ifvqgrg","pricing_plan_id":"cebpf4jnsgd1na2vs0mg"},{"bike_id":"987d3f73-44e5-4b49-84e9-87bcfffeb69c","system_id":"levelo_inurba_marseille","lat":43.25732,"lon":5.41104,"is_reserved":false,"is_disabled":false,"rental_uris":{"android":"levelo://app?vid=987d3f73-44e5-4b49-84e9-87bcfffeb69c","ios":"levelo://app?vid=987d3f73-44e5-4b49-84e9-87bcfffeb69c"},"vehicle_type_id":"4","last_reported":1726909712,"current_range_meters":37600,"station_id":"ce4bhkp2rcd13ifvqgd0","pricing_plan_id":"cebpf4jnsgd1na2vs0mg"},{"bike_id":"5f3f2703-e50a-4bcd-94e9-7b782bdf49ca","system_id":"levelo_inurba_marseille","lat":43.25939,"lon":5.40894,"is_reserved":false,"is_disabled":false,"rental_uris":{"android":"levelo://app?vid=5f3f2703-e50a-4bcd-94e9-7b782bdf49ca","ios":"levelo://app?vid=5f3f2703-e50a-4bcd-94e9-7b782bdf49ca"},"vehicle_type_id":"4","last_reported":1726909712,"current_range_meters":37600,"station_id":"ce4bhm92rcd13ifvqglg","pricing_plan_id":"cebpf4jnsgd1na2vs0mg"},{"bike_id":"e72675ee-df91-4c95-be7b-357a9a99a13c","system_id":"levelo_inurba_marseille","lat":43.29371,"lon":5.37854,"is_reserved":false,"is_disabled":false,"rental_uris":{"android":"levelo://app?vid=e72675ee-df91-4c95-be7b-357a9a99a13c","ios":"levelo://app?vid=e72675ee-df91-4c95-be7b-357a9a99a13c"},"vehicle_type_id":"4","last_reported":1726909712,"current_range_meters":36400,"station_id":"ce4bgjh2rcd13ifvqbf0","pricing_plan_id":"cebpf4jnsgd1na2vs0mg"},{"bike_id":"952727d5-10c0-49c8-a6ee-a4efa34b8c23","system_id":"levelo_inurba_marseille","lat":43.23968,"lon":5.36631,"is_reserved":false,"is_disabled":false,"rental_uris":{"android":"levelo://app?vid=952727d5-10c0-49c8-a6ee-a4efa34b8c23","ios":"levelo://app?vid=952727d5-10c0-49c8-a6ee-a4efa34b8c23"},"vehicle_type_id":"4","last_reported":1726909712,"current_range_meters":39200,"station_id":"ce4bhi12rcd13ifvqfp0","pricing_plan_id":"cebpf4jnsgd1na2vs0mg"},{"bike_id":"2adee1c7-7c9b-46f8-baf8-cb14ecb8958e","system_id":"levelo_inurba_marseille","lat":43.29529,"lon":5.38529,"is_reserved":false,"is_disabled":false,"rental_uris":{"android":"levelo://app?vid=2adee1c7-7c9b-46f8-baf8-cb14ecb8958e","ios":"levelo://app?vid=2adee1c7-7c9b-46f8-baf8-cb14ecb8958e"},"vehicle_type_id":"4","last_reported":1726909712,"current_range_meters":12400,"station_id":"ce4bgih2rcd13ifvqba0","pricing_plan_id":"cebpf4jnsgd1na2vs0mg"},{"bike_id":"c615a26e-e225-43ca-9cd4-17e66362f8c7","system_id":"levelo_inurba_marseille","lat":43.29965,"lon":5.41315,"is_reserved":false,"is_disabled":false,"rental_uris":{"android":"levelo://app?vid=c615a26e-e225-43ca-9cd4-17e66362f8c7","ios":"levelo://app?vid=c615a26e-e225-43ca-9cd4-17e66362f8c7"},"vehicle_type_id":"4","last_reported":1726909712,"current_range_meters":38800,"station_id":"ce4bhp12rcd13ifvqh9g","pricing_plan_id":"cebpf4jnsgd1na2vs0mg"},{"bike_id":"df5e993e-296b-4f33-baf5-eb5fbb9ac75e","system_id":"levelo_inurba_marseille","lat":43.30422,"lon":5.4128,"is_reserved":false,"is_disabled":false,"rental_uris":{"android":"levelo://app?vid=df5e993e-296b-4f33-baf5-eb5fbb9ac75e","ios":"levelo://app?vid=df5e993e-296b-4f33-baf5-eb5fbb9ac75e"},"vehicle_type_id":"4","last_reported":1726909712,"current_range_meters":37600,"station_id":"ce4bhop2rcd13ifvqh8g","pricing_plan_id":"cebpf4jnsgd1na2vs0mg"},{"bike_id":"e22352b5-e9a0-4afb-bba7-1fffc50d9e43","system_id":"levelo_inurba_marseille","lat":43.23067,"lon":5.35487,"is_reserved":false,"is_disabled":false,"rental_uris":{"android":"levelo://app?vid=e22352b5-e9a0-4afb-bba7-1fffc50d9e43","ios":"levelo://app?vid=e22352b5-e9a0-4afb-bba7-1fffc50d9e43"},"vehicle_type_id":"4","last_reported":1726909712,"current_range_meters":8400,"station_id":"cpo3342slgdg3j2ifvpg","pricing_plan_id":"cebpf4jnsgd1na2vs0mg"},{"bike_id":"2d889fd7-cf97-48ae-b622-41b1e0bdce76","system_id":"levelo_inurba_marseille","lat":43.27569,"lon":5.38439,"is_reserved":false,"is_disabled":false,"rental_uris":{"android":"levelo://app?vid=2d889fd7-cf97-48ae-b622-41b1e0bdce76","ios":"levelo://app?vid=2d889fd7-cf97-48ae-b622-41b1e0bdce76"},"vehicle_type_id":"4","last_reported":1726909712,"current_range_meters":33200,"station_id":"ce4bhh92rcd13ifvqfi0","pricing_plan_id":"cebpf4jnsgd1na2vs0mg"},{"bike_id":"787888e2-6206-46d5-a768-f37fbf332ec0","system_id":"levelo_inurba_marseille","lat":43.25113,"lon":5.40321,"is_reserved":false,"is_disabled":false,"rental_uris":{"android":"levelo://app?vid=787888e2-6206-46d5-a768-f37fbf332ec0","ios":"levelo://app?vid=787888e2-6206-46d5-a768-f37fbf332ec0"},"vehicle_type_id":"4","last_reported":1726909712,"current_range_meters":27600,"station_id":"ce4bhlh2rcd13ifvqgig","pricing_plan_id":"cebpf4jnsgd1na2vs0mg"},{"bike_id":"3cea86a1-9a58-478d-b244-957f4139aef0","system_id":"levelo_inurba_marseille","lat":43.33603,"lon":5.41028,"is_reserved":false,"is_disabled":false,"rental_uris":{"android":"levelo://app?vid=3cea86a1-9a58-478d-b244-957f4139aef0","ios":"levelo://app?vid=3cea86a1-9a58-478d-b244-957f4139aef0"},"vehicle_type_id":"4","last_reported":1726909712,"current_range_meters":39200,"station_id":"ce4bhqh2rcd13ifvqhmg","pricing_plan_id":"cebpf4jnsgd1na2vs0mg"},{"bike_id":"e52ef3fc-ef91-4db8-832e-7bedb018bf4b","system_id":"levelo_inurba_marseille","lat":43.337444,"lon":5.374475,"is_reserved":false,"is_disabled":false,"rental_uris":{"android":"levelo://app?vid=e52ef3fc-ef91-4db8-832e-7bedb018bf4b","ios":"levelo://app?vid=e52ef3fc-ef91-4db8-832e-7bedb018bf4b"},"vehicle_type_id":"4","last_reported":1726909712,"current_range_meters":39200,"station_id":"ce4bh0h2rcd13ifvqd50","pricing_plan_id":"cebpf4jnsgd1na2vs0mg"},{"bike_id":"7a9d9acf-ffb9-4ba8-a339-281db3c869d2","system_id":"levelo_inurba_marseille","lat":43.26561,"lon":5.39017,"is_reserved":false,"is_disabled":false,"rental_uris":{"android":"levelo://app?vid=7a9d9acf-ffb9-4ba8-a339-281db3c869d2","ios":"levelo://app?vid=7a9d9acf-ffb9-4ba8-a339-281db3c869d2"},"vehicle_type_id":"4","last_reported":1726909712,"current_range_meters":29600,"station_id":"ce4bhe12rcd13ifvqf30","pricing_plan_id":"cebpf4jnsgd1na2vs0mg"},{"bike_id":"375e717a-6fb5-4af9-babc-dc456df036e8","system_id":"levelo_inurba_marseille","lat":43.29224,"lon":5.36068,"is_reserved":false,"is_disabled":false,"rental_uris":{"android":"levelo://app?vid=375e717a-6fb5-4af9-babc-dc456df036e8","ios":"levelo://app?vid=375e717a-6fb5-4af9-babc-dc456df036e8"},"vehicle_type_id":"4","last_reported":1726909712,"current_range_meters":35200,"station_id":"ce4bhbh2rcd13ifvqeqg","pricing_plan_id":"cebpf4jnsgd1na2vs0mg"},{"bike_id":"83e5d7e1-b7a2-47dc-871d-a20fbcd4f395","system_id":"levelo_inurba_marseille","lat":43.26568,"lon":5.39024,"is_reserved":false,"is_disabled":false,"rental_uris":{"android":"levelo://app?vid=83e5d7e1-b7a2-47dc-871d-a20fbcd4f395","ios":"levelo://app?vid=83e5d7e1-b7a2-47dc-871d-a20fbcd4f395"},"vehicle_type_id":"4","last_reported":1726909712,"current_range_meters":32800,"station_id":"ce4bhe12rcd13ifvqf30","pricing_plan_id":"cebpf4jnsgd1na2vs0mg"},{"bike_id":"548ff5e8-4be6-4fa2-b210-beb1ef8053de","system_id":"levelo_inurba_marseille","lat":43.29586,"lon":5.36749,"is_reserved":false,"is_disabled":false,"rental_uris":{"android":"levelo://app?vid=548ff5e8-4be6-4fa2-b210-beb1ef8053de","ios":"levelo://app?vid=548ff5e8-4be6-4fa2-b210-beb1ef8053de"},"vehicle_type_id":"4","last_reported":1726909712,"current_range_meters":17200,"station_id":"ce4bgph2rcd13ifvqc2g","pricing_plan_id":"cebpf4jnsgd1na2vs0mg"},{"bike_id":"fa520986-39e7-4e30-bd0c-782c813be45b","system_id":"levelo_inurba_marseille","lat":43.30464,"lon":5.37891,"is_reserved":false,"is_disabled":false,"rental_uris":{"android":"levelo://app?vid=fa520986-39e7-4e30-bd0c-782c813be45b","ios":"levelo://app?vid=fa520986-39e7-4e30-bd0c-782c813be45b"},"vehicle_type_id":"4","last_reported":1726909712,"current_range_meters":36800,"station_id":"ce4bgup2rcd13ifvqcn0","pricing_plan_id":"cebpf4jnsgd1na2vs0mg"},{"bike_id":"414ef2d8-3b7f-4f0c-8e8c-3293a2c6876e","system_id":"levelo_inurba_marseille","lat":43.32478,"lon":5.36567,"is_reserved":false,"is_disabled":false,"rental_uris":{"android":"levelo://app?vid=414ef2d8-3b7f-4f0c-8e8c-3293a2c6876e","ios":"levelo://app?vid=414ef2d8-3b7f-4f0c-8e8c-3293a2c6876e"},"vehicle_type_id":"4","last_reported":1726909712,"current_range_meters":19600,"station_id":"ce4bhs12rcd13ifvqhvg","pricing_plan_id":"cebpf4jnsgd1na2vs0mg"},{"bike_id":"9ca8b5df-7819-442b-83e6-2ef3e3c04cd8","system_id":"levelo_inurba_marseille","lat":43.24386,"lon":5.37059,"is_reserved":false,"is_disabled":false,"rental_uris":{"android":"levelo://app?vid=9ca8b5df-7819-442b-83e6-2ef3e3c04cd8","ios":"levelo://app?vid=9ca8b5df-7819-442b-83e6-2ef3e3c04cd8"},"vehicle_type_id":"4","last_reported":1726909712,"current_range_meters":24400,"station_id":"ce4bhhh2rcd13ifvqfk0","pricing_plan_id":"cebpf4jnsgd1na2vs0mg"},{"bike_id":"6347a7e4-710f-4f61-bf2f-1b77f242d9b9","system_id":"levelo_inurba_marseille","lat":43.23177,"lon":5.39985,"is_reserved":false,"is_disabled":false,"rental_uris":{"android":"levelo://app?vid=6347a7e4-710f-4f61-bf2f-1b77f242d9b9","ios":"levelo://app?vid=6347a7e4-710f-4f61-bf2f-1b77f242d9b9"},"vehicle_type_id":"4","last_reported":1726909712,"current_range_meters":26000,"station_id":"ce4bhn12rcd13ifvqgqg","pricing_plan_id":"cebpf4jnsgd1na2vs0mg"},{"bike_id":"ee7da271-2586-49b9-8b27-7c1d2ffc4c67","system_id":"levelo_inurba_marseille","lat":43.25117,"lon":5.40331,"is_reserved":false,"is_disabled":false,"rental_uris":{"android":"levelo://app?vid=ee7da271-2586-49b9-8b27-7c1d2ffc4c67","ios":"levelo://app?vid=ee7da271-2586-49b9-8b27-7c1d2ffc4c67"},"vehicle_type_id":"4","last_reported":1726909712,"current_range_meters":29600,"station_id":"ce4bhlh2rcd13ifvqgig","pricing_plan_id":"cebpf4jnsgd1na2vs0mg"},{"bike_id":"e4905779-3343-4f3c-ab4c-5f6f9ef2c0e4","system_id":"levelo_inurba_marseille","lat":43.29193,"lon":5.35802,"is_reserved":false,"is_disabled":false,"rental_uris":{"android":"levelo://app?vid=e4905779-3343-4f3c-ab4c-5f6f9ef2c0e4","ios":"levelo://app?vid=e4905779-3343-4f3c-ab4c-5f6f9ef2c0e4"},"vehicle_type_id":"4","last_reported":1726909712,"current_range_meters":36400,"station_id":"ce4bhb12rcd13ifvqel0","pricing_plan_id":"cebpf4jnsgd1na2vs0mg"},{"bike_id":"bb156f37-8ab9-4037-aa93-864d3c19d89a","system_id":"levelo_inurba_marseille","lat":43.289307,"lon":5.366413,"is_reserved":false,"is_disabled":false,"rental_uris":{"android":"levelo://app?vid=bb156f37-8ab9-4037-aa93-864d3c19d89a","ios":"levelo://app?vid=bb156f37-8ab9-4037-aa93-864d3c19d89a"},"vehicle_type_id":"4","last_reported":1726909712,"current_range_meters":18800,"station_id":"ce4bgkp2rcd13ifvqbmg","pricing_plan_id":"cebpf4jnsgd1na2vs0mg"},{"bike_id":"248d15db-0bdd-4ea1-b88c-229ae48018b8","system_id":"levelo_inurba_marseille","lat":43.29228,"lon":5.36075,"is_reserved":false,"is_disabled":false,"rental_uris":{"android":"levelo://app?vid=248d15db-0bdd-4ea1-b88c-229ae48018b8","ios":"levelo://app?vid=248d15db-0bdd-4ea1-b88c-229ae48018b8"},"vehicle_type_id":"4","last_reported":1726909712,"current_range_meters":38800,"station_id":"ce4bhbh2rcd13ifvqeqg","pricing_plan_id":"cebpf4jnsgd1na2vs0mg"},{"bike_id":"4054ff49-dc3a-424d-9e09-451ef9607aae","system_id":"levelo_inurba_marseille","lat":43.29362,"lon":5.4086,"is_reserved":false,"is_disabled":false,"rental_uris":{"android":"levelo://app?vid=4054ff49-dc3a-424d-9e09-451ef9607aae","ios":"levelo://app?vid=4054ff49-dc3a-424d-9e09-451ef9607aae"},"vehicle_type_id":"4","last_reported":1726909712,"current_range_meters":3600,"station_id":"","pricing_plan_id":"cebpf4jnsgd1na2vs0mg"},{"bike_id":"eed2e9b2-bac4-4a0a-a4a3-7174f66d1c2b","system_id":"levelo_inurba_marseille","lat":43.29007,"lon":5.3561,"is_reserved":false,"is_disabled":false,"rental_uris":{"android":"levelo://app?vid=eed2e9b2-bac4-4a0a-a4a3-7174f66d1c2b","ios":"levelo://app?vid=eed2e9b2-bac4-4a0a-a4a3-7174f66d1c2b"},"vehicle_type_id":"4","last_reported":1726909712,"current_range_meters":15200,"station_id":"ce4bhb92rcd13ifvqen0","pricing_plan_id":"cebpf4jnsgd1na2vs0mg"},{"bike_id":"f2fdefcd-a050-4065-a802-75d2680309bd","system_id":"levelo_inurba_marseille","lat":43.23191,"lon":5.39984,"is_reserved":false,"is_disabled":false,"rental_uris":{"android":"levelo://app?vid=f2fdefcd-a050-4065-a802-75d2680309bd","ios":"levelo://app?vid=f2fdefcd-a050-4065-a802-75d2680309bd"},"vehicle_type_id":"4","last_reported":1726909712,"current_range_meters":23200,"station_id":"ce4bhn12rcd13ifvqgqg","pricing_plan_id":"cebpf4jnsgd1na2vs0mg"},{"bike_id":"14cba0ea-4932-4120-ba2f-1e13201aa231","system_id":"levelo_inurba_marseille","lat":43.3376,"lon":5.37439,"is_reserved":false,"is_disabled":false,"rental_uris":{"android":"levelo://app?vid=14cba0ea-4932-4120-ba2f-1e13201aa231","ios":"levelo://app?vid=14cba0ea-4932-4120-ba2f-1e13201aa231"},"vehicle_type_id":"4","last_reported":1726909712,"current_range_meters":38000,"station_id":"","pricing_plan_id":"cebpf4jnsgd1na2vs0mg"},{"bike_id":"3ee1782d-0f6c-4271-b416-970c1c1ccc56","system_id":"levelo_inurba_marseille","lat":43.25862,"lon":5.3991,"is_reserved":false,"is_disabled":false,"rental_uris":{"android":"levelo://app?vid=3ee1782d-0f6c-4271-b416-970c1c1ccc56","ios":"levelo://app?vid=3ee1782d-0f6c-4271-b416-970c1c1ccc56"},"vehicle_type_id":"4","last_reported":1726909712,"current_range_meters":35200,"station_id":"ce4bhl92rcd13ifvqghg","pricing_plan_id":"cebpf4jnsgd1na2vs0mg"},{"bike_id":"9e59b77a-0ad3-4e15-b84f-739c8dfaffc3","system_id":"levelo_inurba_marseille","lat":43.31754,"lon":5.39017,"is_reserved":false,"is_disabled":false,"rental_uris":{"android":"levelo://app?vid=9e59b77a-0ad3-4e15-b84f-739c8dfaffc3","ios":"levelo://app?vid=9e59b77a-0ad3-4e15-b84f-739c8dfaffc3"},"vehicle_type_id":"4","last_reported":1726909712,"current_range_meters":36800,"station_id":"ce4bhqp2rcd13ifvqhng","pricing_plan_id":"cebpf4jnsgd1na2vs0mg"},{"bike_id":"d099bf9e-3688-4ea4-a6f7-cc8c13b7b5f2","system_id":"levelo_inurba_marseille","lat":43.253969,"lon":5.381475,"is_reserved":false,"is_disabled":false,"rental_uris":{"android":"levelo://app?vid=d099bf9e-3688-4ea4-a6f7-cc8c13b7b5f2","ios":"levelo://app?vid=d099bf9e-3688-4ea4-a6f7-cc8c13b7b5f2"},"vehicle_type_id":"4","last_reported":1726909712,"current_range_meters":14800,"station_id":"ce4bhhp2rcd13ifvqfm0","pricing_plan_id":"cebpf4jnsgd1na2vs0mg"},{"bike_id":"2a7db943-6265-4479-9604-043d344eb7a6","system_id":"levelo_inurba_marseille","lat":43.30294,"lon":5.38392,"is_reserved":false,"is_disabled":false,"rental_uris":{"android":"levelo://app?vid=2a7db943-6265-4479-9604-043d344eb7a6","ios":"levelo://app?vid=2a7db943-6265-4479-9604-043d344eb7a6"},"vehicle_type_id":"4","last_reported":1726909712,"current_range_meters":24000,"station_id":"","pricing_plan_id":"cebpf4jnsgd1na2vs0mg"},{"bike_id":"f2fef844-5040-4248-b617-512847cda779","system_id":"levelo_inurba_marseille","lat":43.307882,"lon":5.37636,"is_reserved":false,"is_disabled":false,"rental_uris":{"android":"levelo://app?vid=f2fef844-5040-4248-b617-512847cda779","ios":"levelo://app?vid=f2fef844-5040-4248-b617-512847cda779"},"vehicle_type_id":"4","last_reported":1726909712,"current_range_meters":38000,"station_id":"ce4bguh2rcd13ifvqcj0","pricing_plan_id":"cebpf4jnsgd1na2vs0mg"},{"bike_id":"b00c7d75-a17e-496a-9df8-d1534ff39245","system_id":"levelo_inurba_marseille","lat":43.27665,"lon":5.38891,"is_reserved":false,"is_disabled":false,"rental_uris":{"android":"levelo://app?vid=b00c7d75-a17e-496a-9df8-d1534ff39245","ios":"levelo://app?vid=b00c7d75-a17e-496a-9df8-d1534ff39245"},"vehicle_type_id":"4","last_reported":1726909712,"current_range_meters":36000,"station_id":"ce4bhi12rcd13ifvqfo0","pricing_plan_id":"cebpf4jnsgd1na2vs0mg"},{"bike_id":"1ac0a20c-401d-4777-af73-d334affd0e09","system_id":"levelo_inurba_marseille","lat":43.25091,"lon":5.39516,"is_reserved":false,"is_disabled":false,"rental_uris":{"android":"levelo://app?vid=1ac0a20c-401d-4777-af73-d334affd0e09","ios":"levelo://app?vid=1ac0a20c-401d-4777-af73-d334affd0e09"},"vehicle_type_id":"4","last_reported":1726909712,"current_range_meters":38400,"station_id":"ce4bhm12rcd13ifvqgkg","pricing_plan_id":"cebpf4jnsgd1na2vs0mg"},{"bike_id":"b8afe22f-c0f3-483c-bb5f-6071483e5e25","system_id":"levelo_inurba_marseille","lat":43.25944,"lon":5.40896,"is_reserved":false,"is_disabled":false,"rental_uris":{"android":"levelo://app?vid=b8afe22f-c0f3-483c-bb5f-6071483e5e25","ios":"levelo://app?vid=b8afe22f-c0f3-483c-bb5f-6071483e5e25"},"vehicle_type_id":"4","last_reported":1726909712,"current_range_meters":30800,"station_id":"ce4bhm92rcd13ifvqglg","pricing_plan_id":"cebpf4jnsgd1na2vs0mg"},{"bike_id":"db8f2356-1071-4e8e-9473-f7c779818ee6","system_id":"levelo_inurba_marseille","lat":43.29194,"lon":5.3581,"is_reserved":false,"is_disabled":false,"rental_uris":{"android":"levelo://app?vid=db8f2356-1071-4e8e-9473-f7c779818ee6","ios":"levelo://app?vid=db8f2356-1071-4e8e-9473-f7c779818ee6"},"vehicle_type_id":"4","last_reported":1726909712,"current_range_meters":26800,"station_id":"ce4bhb12rcd13ifvqel0","pricing_plan_id":"cebpf4jnsgd1na2vs0mg"},{"bike_id":"b8c4fb30-143a-40da-a94d-ac106aff7dd4","system_id":"levelo_inurba_marseille","lat":43.31283,"lon":5.40168,"is_reserved":false,"is_disabled":false,"rental_uris":{"android":"levelo://app?vid=b8c4fb30-143a-40da-a94d-ac106aff7dd4","ios":"levelo://app?vid=b8c4fb30-143a-40da-a94d-ac106aff7dd4"},"vehicle_type_id":"4","last_reported":1726909712,"current_range_meters":5600,"station_id":"ce4bh092rcd13ifvqd30","pricing_plan_id":"cebpf4jnsgd1na2vs0mg"},{"bike_id":"edfb1ff5-b81b-4225-8da9-100a9115b1e3","system_id":"levelo_inurba_marseille","lat":43.29735,"lon":5.36561,"is_reserved":false,"is_disabled":false,"rental_uris":{"android":"levelo://app?vid=edfb1ff5-b81b-4225-8da9-100a9115b1e3","ios":"levelo://app?vid=edfb1ff5-b81b-4225-8da9-100a9115b1e3"},"vehicle_type_id":"4","last_reported":1726909712,"current_range_meters":9200,"station_id":"","pricing_plan_id":"cebpf4jnsgd1na2vs0mg"},{"bike_id":"0df805ca-5348-4169-979d-f0b036f1fe02","system_id":"levelo_inurba_marseille","lat":43.31997,"lon":5.38149,"is_reserved":false,"is_disabled":false,"rental_uris":{"android":"levelo://app?vid=0df805ca-5348-4169-979d-f0b036f1fe02","ios":"levelo://app?vid=0df805ca-5348-4169-979d-f0b036f1fe02"},"vehicle_type_id":"4","last_reported":1726909712,"current_range_meters":18000,"station_id":"ce4bhr12rcd13ifvqhpg","pricing_plan_id":"cebpf4jnsgd1na2vs0mg"},{"bike_id":"9618a837-e110-434e-8dfb-8d546f014248","system_id":"levelo_inurba_marseille","lat":43.30071,"lon":5.37977,"is_reserved":false,"is_disabled":false,"rental_uris":{"android":"levelo://app?vid=9618a837-e110-434e-8dfb-8d546f014248","ios":"levelo://app?vid=9618a837-e110-434e-8dfb-8d546f014248"},"vehicle_type_id":"4","last_reported":1726909712,"current_range_meters":16400,"station_id":"","pricing_plan_id":"cebpf4jnsgd1na2vs0mg"},{"bike_id":"a46f474a-57e8-44f2-96d1-7f0a8dde5b54","system_id":"levelo_inurba_marseille","lat":43.24075,"lon":5.37759,"is_reserved":false,"is_disabled":false,"rental_uris":{"android":"levelo://app?vid=a46f474a-57e8-44f2-96d1-7f0a8dde5b54","ios":"levelo://app?vid=a46f474a-57e8-44f2-96d1-7f0a8dde5b54"},"vehicle_type_id":"4","last_reported":1726909712,"current_range_meters":36400,"station_id":"ce4bhnp2rcd13ifvqgvg","pricing_plan_id":"cebpf4jnsgd1na2vs0mg"},{"bike_id":"a0bf7713-c0be-4861-9ca3-127524a31ea4","system_id":"levelo_inurba_marseille","lat":43.29005,"lon":5.35609,"is_reserved":false,"is_disabled":false,"rental_uris":{"android":"levelo://app?vid=a0bf7713-c0be-4861-9ca3-127524a31ea4","ios":"levelo://app?vid=a0bf7713-c0be-4861-9ca3-127524a31ea4"},"vehicle_type_id":"4","last_reported":1726909712,"current_range_meters":33600,"station_id":"ce4bhb92rcd13ifvqen0","pricing_plan_id":"cebpf4jnsgd1na2vs0mg"},{"bike_id":"98976a28-447b-4140-9f23-d9c8550f3b55","system_id":"levelo_inurba_marseille","lat":43.26058,"lon":5.39386,"is_reserved":false,"is_disabled":false,"rental_uris":{"android":"levelo://app?vid=98976a28-447b-4140-9f23-d9c8550f3b55","ios":"levelo://app?vid=98976a28-447b-4140-9f23-d9c8550f3b55"},"vehicle_type_id":"4","last_reported":1726909712,"current_range_meters":39200,"station_id":"ce4bhh92rcd13ifvqfj0","pricing_plan_id":"cebpf4jnsgd1na2vs0mg"},{"bike_id":"cbcf8a9d-aedd-4d1a-82d6-8cba3de7881d","system_id":"levelo_inurba_marseille","lat":43.28616,"lon":5.35098,"is_reserved":false,"is_disabled":false,"rental_uris":{"android":"levelo://app?vid=cbcf8a9d-aedd-4d1a-82d6-8cba3de7881d","ios":"levelo://app?vid=cbcf8a9d-aedd-4d1a-82d6-8cba3de7881d"},"vehicle_type_id":"4","last_reported":1726909712,"current_range_meters":18800,"station_id":"ce4bhch2rcd13ifvqeug","pricing_plan_id":"cebpf4jnsgd1na2vs0mg"},{"bike_id":"e4cd288b-58e9-4c73-81ff-0e54d332441e","system_id":"levelo_inurba_marseille","lat":43.29582,"lon":5.36737,"is_reserved":false,"is_disabled":false,"rental_uris":{"android":"levelo://app?vid=e4cd288b-58e9-4c73-81ff-0e54d332441e","ios":"levelo://app?vid=e4cd288b-58e9-4c73-81ff-0e54d332441e"},"vehicle_type_id":"4","last_reported":1726909712,"current_range_meters":28400,"station_id":"ce4bgph2rcd13ifvqc2g","pricing_plan_id":"cebpf4jnsgd1na2vs0mg"},{"bike_id":"72964c67-6aed-4707-911d-186df8a12b64","system_id":"levelo_inurba_marseille","lat":43.32111,"lon":5.40795,"is_reserved":false,"is_disabled":false,"rental_uris":{"android":"levelo://app?vid=72964c67-6aed-4707-911d-186df8a12b64","ios":"levelo://app?vid=72964c67-6aed-4707-911d-186df8a12b64"},"vehicle_type_id":"4","last_reported":1726909712,"current_range_meters":38800,"station_id":"ce4bh012rcd13ifvqd00","pricing_plan_id":"cebpf4jnsgd1na2vs0mg"},{"bike_id":"4b6b713b-93ef-4577-8cb4-3af4ca0ba4cf","system_id":"levelo_inurba_marseille","lat":43.24075,"lon":5.37759,"is_reserved":false,"is_disabled":false,"rental_uris":{"android":"levelo://app?vid=4b6b713b-93ef-4577-8cb4-3af4ca0ba4cf","ios":"levelo://app?vid=4b6b713b-93ef-4577-8cb4-3af4ca0ba4cf"},"vehicle_type_id":"4","last_reported":1726909712,"current_range_meters":8400,"station_id":"ce4bhnp2rcd13ifvqgvg","pricing_plan_id":"cebpf4jnsgd1na2vs0mg"},{"bike_id":"b4d8cc2f-08fa-447c-98aa-3fb508700768","system_id":"levelo_inurba_marseille","lat":43.28959,"lon":5.35778,"is_reserved":false,"is_disabled":false,"rental_uris":{"android":"levelo://app?vid=b4d8cc2f-08fa-447c-98aa-3fb508700768","ios":"levelo://app?vid=b4d8cc2f-08fa-447c-98aa-3fb508700768"},"vehicle_type_id":"4","last_reported":1726909712,"current_range_meters":3600,"station_id":"","pricing_plan_id":"cebpf4jnsgd1na2vs0mg"},{"bike_id":"bc053ddb-d682-4976-9a9f-d752d8d0f2ff","system_id":"levelo_inurba_marseille","lat":43.304321,"lon":5.388925,"is_reserved":false,"is_disabled":false,"rental_uris":{"android":"levelo://app?vid=bc053ddb-d682-4976-9a9f-d752d8d0f2ff","ios":"levelo://app?vid=bc053ddb-d682-4976-9a9f-d752d8d0f2ff"},"vehicle_type_id":"4","last_reported":1726909712,"current_range_meters":12400,"station_id":"ce4bgk12rcd13ifvqbi0","pricing_plan_id":"cebpf4jnsgd1na2vs0mg"},{"bike_id":"f21eab61-d138-4b2f-83ff-2d501b8fe47e","system_id":"levelo_inurba_marseille","lat":43.27491,"lon":5.42451,"is_reserved":false,"is_disabled":false,"rental_uris":{"android":"levelo://app?vid=f21eab61-d138-4b2f-83ff-2d501b8fe47e","ios":"levelo://app?vid=f21eab61-d138-4b2f-83ff-2d501b8fe47e"},"vehicle_type_id":"4","last_reported":1726909712,"current_range_meters":39200,"station_id":"ce4bhn92rcd13ifvqgrg","pricing_plan_id":"cebpf4jnsgd1na2vs0mg"},{"bike_id":"922d4b04-eec2-4ce5-ab91-75e6f5446751","system_id":"levelo_inurba_marseille","lat":43.29519,"lon":5.37485,"is_reserved":false,"is_disabled":false,"rental_uris":{"android":"levelo://app?vid=922d4b04-eec2-4ce5-ab91-75e6f5446751","ios":"levelo://app?vid=922d4b04-eec2-4ce5-ab91-75e6f5446751"},"vehicle_type_id":"4","last_reported":1726909712,"current_range_meters":25200,"station_id":"ce4bgkp2rcd13ifvqbmg","pricing_plan_id":"cebpf4jnsgd1na2vs0mg"},{"bike_id":"56acf405-8a38-44b1-92cd-b90e5c6ff518","system_id":"levelo_inurba_marseille","lat":43.26564,"lon":5.39019,"is_reserved":false,"is_disabled":false,"rental_uris":{"android":"levelo://app?vid=56acf405-8a38-44b1-92cd-b90e5c6ff518","ios":"levelo://app?vid=56acf405-8a38-44b1-92cd-b90e5c6ff518"},"vehicle_type_id":"4","last_reported":1726909712,"current_range_meters":27600,"station_id":"ce4bhe12rcd13ifvqf30","pricing_plan_id":"cebpf4jnsgd1na2vs0mg"},{"bike_id":"2e90fdec-ac30-4c01-b560-aaa7fd03d055","system_id":"levelo_inurba_marseille","lat":43.29262,"lon":5.38433,"is_reserved":false,"is_disabled":false,"rental_uris":{"android":"levelo://app?vid=2e90fdec-ac30-4c01-b560-aaa7fd03d055","ios":"levelo://app?vid=2e90fdec-ac30-4c01-b560-aaa7fd03d055"},"vehicle_type_id":"4","last_reported":1726909712,"current_range_meters":36400,"station_id":"ce4bh692rcd13ifvqea0","pricing_plan_id":"cebpf4jnsgd1na2vs0mg"},{"bike_id":"bcd9d067-b093-4910-baae-4106d4c6d258","system_id":"levelo_inurba_marseille","lat":43.29219,"lon":5.36054,"is_reserved":false,"is_disabled":false,"rental_uris":{"android":"levelo://app?vid=bcd9d067-b093-4910-baae-4106d4c6d258","ios":"levelo://app?vid=bcd9d067-b093-4910-baae-4106d4c6d258"},"vehicle_type_id":"4","last_reported":1726909712,"current_range_meters":37600,"station_id":"ce4bhbh2rcd13ifvqeqg","pricing_plan_id":"cebpf4jnsgd1na2vs0mg"},{"bike_id":"f7822dd3-1f6c-42e6-8c2d-df65d3a8793d","system_id":"levelo_inurba_marseille","lat":43.337444,"lon":5.374475,"is_reserved":false,"is_disabled":false,"rental_uris":{"android":"levelo://app?vid=f7822dd3-1f6c-42e6-8c2d-df65d3a8793d","ios":"levelo://app?vid=f7822dd3-1f6c-42e6-8c2d-df65d3a8793d"},"vehicle_type_id":"4","last_reported":1726909712,"current_range_meters":24800,"station_id":"ce4bh0h2rcd13ifvqd50","pricing_plan_id":"cebpf4jnsgd1na2vs0mg"},{"bike_id":"ae736cb6-c25f-4200-a574-819f5c7f8fb4","system_id":"levelo_inurba_marseille","lat":43.24167,"lon":5.36393,"is_reserved":false,"is_disabled":false,"rental_uris":{"android":"levelo://app?vid=ae736cb6-c25f-4200-a574-819f5c7f8fb4","ios":"levelo://app?vid=ae736cb6-c25f-4200-a574-819f5c7f8fb4"},"vehicle_type_id":"4","last_reported":1726909712,"current_range_meters":28400,"station_id":"cpo36qri1sfpv3e86is0","pricing_plan_id":"cebpf4jnsgd1na2vs0mg"},{"bike_id":"4427ff4a-f15d-42ad-8f79-fdc6f1b59087","system_id":"levelo_inurba_marseille","lat":43.30888,"lon":5.37206,"is_reserved":false,"is_disabled":false,"rental_uris":{"android":"levelo://app?vid=4427ff4a-f15d-42ad-8f79-fdc6f1b59087","ios":"levelo://app?vid=4427ff4a-f15d-42ad-8f79-fdc6f1b59087"},"vehicle_type_id":"4","last_reported":1726909712,"current_range_meters":38800,"station_id":"ce4bguh2rcd13ifvqckg","pricing_plan_id":"cebpf4jnsgd1na2vs0mg"},{"bike_id":"f7ad2e7a-a575-4361-994a-0ff95a85d018","system_id":"levelo_inurba_marseille","lat":43.30641,"lon":5.37189,"is_reserved":false,"is_disabled":false,"rental_uris":{"android":"levelo://app?vid=f7ad2e7a-a575-4361-994a-0ff95a85d018","ios":"levelo://app?vid=f7ad2e7a-a575-4361-994a-0ff95a85d018"},"vehicle_type_id":"4","last_reported":1726909712,"current_range_meters":3600,"station_id":"","pricing_plan_id":"cebpf4jnsgd1na2vs0mg"},{"bike_id":"6dc6f439-d4f1-41c9-b6a4-732401976389","system_id":"levelo_inurba_marseille","lat":43.26685,"lon":5.38264,"is_reserved":false,"is_disabled":false,"rental_uris":{"android":"levelo://app?vid=6dc6f439-d4f1-41c9-b6a4-732401976389","ios":"levelo://app?vid=6dc6f439-d4f1-41c9-b6a4-732401976389"},"vehicle_type_id":"4","last_reported":1726909712,"current_range_meters":39200,"station_id":"ce4bhg92rcd13ifvqf90","pricing_plan_id":"cebpf4jnsgd1na2vs0mg"},{"bike_id":"b5ba6754-8523-46dd-a9aa-c920819a2baa","system_id":"levelo_inurba_marseille","lat":43.30667,"lon":5.40092,"is_reserved":false,"is_disabled":false,"rental_uris":{"android":"levelo://app?vid=b5ba6754-8523-46dd-a9aa-c920819a2baa","ios":"levelo://app?vid=b5ba6754-8523-46dd-a9aa-c920819a2baa"},"vehicle_type_id":"4","last_reported":1726909712,"current_range_meters":7200,"station_id":"ce4bh112rcd13ifvqda0","pricing_plan_id":"cebpf4jnsgd1na2vs0mg"},{"bike_id":"198cd00d-14db-4eb9-b87e-6248e2745627","system_id":"levelo_inurba_marseille","lat":43.30328,"lon":5.40432,"is_reserved":false,"is_disabled":false,"rental_uris":{"android":"levelo://app?vid=198cd00d-14db-4eb9-b87e-6248e2745627","ios":"levelo://app?vid=198cd00d-14db-4eb9-b87e-6248e2745627"},"vehicle_type_id":"4","last_reported":1726909712,"current_range_meters":27600,"station_id":"ce4bh012rcd13ifvqd10","pricing_plan_id":"cebpf4jnsgd1na2vs0mg"},{"bike_id":"c839c5b6-c700-4148-9427-6f6c3691baa7","system_id":"levelo_inurba_marseille","lat":43.23963,"lon":5.36638,"is_reserved":false,"is_disabled":false,"rental_uris":{"android":"levelo://app?vid=c839c5b6-c700-4148-9427-6f6c3691baa7","ios":"levelo://app?vid=c839c5b6-c700-4148-9427-6f6c3691baa7"},"vehicle_type_id":"4","last_reported":1726909712,"current_range_meters":26000,"station_id":"ce4bhi12rcd13ifvqfp0","pricing_plan_id":"cebpf4jnsgd1na2vs0mg"},{"bike_id":"f3e78405-1905-4ba6-aa45-d361d02b6629","system_id":"levelo_inurba_marseille","lat":43.2984,"lon":5.36283,"is_reserved":false,"is_disabled":false,"rental_uris":{"android":"levelo://app?vid=f3e78405-1905-4ba6-aa45-d361d02b6629","ios":"levelo://app?vid=f3e78405-1905-4ba6-aa45-d361d02b6629"},"vehicle_type_id":"4","last_reported":1726909712,"current_range_meters":17200,"station_id":"ce4bgpp2rcd13ifvqc3g","pricing_plan_id":"cebpf4jnsgd1na2vs0mg"},{"bike_id":"44b5283a-c1ef-4923-b78b-f454ec8819a2","system_id":"levelo_inurba_marseille","lat":43.31883,"lon":5.40735,"is_reserved":false,"is_disabled":false,"rental_uris":{"android":"levelo://app?vid=44b5283a-c1ef-4923-b78b-f454ec8819a2","ios":"levelo://app?vid=44b5283a-c1ef-4923-b78b-f454ec8819a2"},"vehicle_type_id":"4","last_reported":1726909712,"current_range_meters":22000,"station_id":"ce4bhq12rcd13ifvqhig","pricing_plan_id":"cebpf4jnsgd1na2vs0mg"},{"bike_id":"5840a821-7b4a-4179-8856-92a74917e83c","system_id":"levelo_inurba_marseille","lat":43.25005,"lon":5.38922,"is_reserved":false,"is_disabled":false,"rental_uris":{"android":"levelo://app?vid=5840a821-7b4a-4179-8856-92a74917e83c","ios":"levelo://app?vid=5840a821-7b4a-4179-8856-92a74917e83c"},"vehicle_type_id":"4","last_reported":1726909712,"current_range_meters":39200,"station_id":"ce4bhgp2rcd13ifvqfd0","pricing_plan_id":"cebpf4jnsgd1na2vs0mg"},{"bike_id":"18ed6761-1d5d-4de3-aa2a-beacac3c5557","system_id":"levelo_inurba_marseille","lat":43.29301,"lon":5.37457,"is_reserved":false,"is_disabled":false,"rental_uris":{"android":"levelo://app?vid=18ed6761-1d5d-4de3-aa2a-beacac3c5557","ios":"levelo://app?vid=18ed6761-1d5d-4de3-aa2a-beacac3c5557"},"vehicle_type_id":"4","last_reported":1726909712,"current_range_meters":31200,"station_id":"ce4bgi12rcd13ifvqb70","pricing_plan_id":"cebpf4jnsgd1na2vs0mg"},{"bike_id":"5419b1bf-d37c-4076-a34c-52ede101758e","system_id":"levelo_inurba_marseille","lat":43.337444,"lon":5.374475,"is_reserved":false,"is_disabled":false,"rental_uris":{"android":"levelo://app?vid=5419b1bf-d37c-4076-a34c-52ede101758e","ios":"levelo://app?vid=5419b1bf-d37c-4076-a34c-52ede101758e"},"vehicle_type_id":"4","last_reported":1726909712,"current_range_meters":33200,"station_id":"","pricing_plan_id":"cebpf4jnsgd1na2vs0mg"},{"bike_id":"7566a062-2936-4314-a5af-e308aef61f3b","system_id":"levelo_inurba_marseille","lat":43.30299,"lon":5.39215,"is_reserved":false,"is_disabled":false,"rental_uris":{"android":"levelo://app?vid=7566a062-2936-4314-a5af-e308aef61f3b","ios":"levelo://app?vid=7566a062-2936-4314-a5af-e308aef61f3b"},"vehicle_type_id":"4","last_reported":1726909712,"current_range_meters":30000,"station_id":"ce4bgkh2rcd13ifvqbk0","pricing_plan_id":"cebpf4jnsgd1na2vs0mg"},{"bike_id":"5fa401fe-e19a-409d-bab6-25ac551ce9fe","system_id":"levelo_inurba_marseille","lat":43.3025,"lon":5.40051,"is_reserved":false,"is_disabled":false,"rental_uris":{"android":"levelo://app?vid=5fa401fe-e19a-409d-bab6-25ac551ce9fe","ios":"levelo://app?vid=5fa401fe-e19a-409d-bab6-25ac551ce9fe"},"vehicle_type_id":"4","last_reported":1726909712,"current_range_meters":37600,"station_id":"ce4bgvh2rcd13ifvqcs0","pricing_plan_id":"cebpf4jnsgd1na2vs0mg"},{"bike_id":"55677341-2cba-41a2-861f-7b165b732782","system_id":"levelo_inurba_marseille","lat":43.29225,"lon":5.36071,"is_reserved":false,"is_disabled":false,"rental_uris":{"android":"levelo://app?vid=55677341-2cba-41a2-861f-7b165b732782","ios":"levelo://app?vid=55677341-2cba-41a2-861f-7b165b732782"},"vehicle_type_id":"4","last_reported":1726909712,"current_range_meters":38000,"station_id":"ce4bhbh2rcd13ifvqeqg","pricing_plan_id":"cebpf4jnsgd1na2vs0mg"},{"bike_id":"4eef0d21-d850-40fa-a5d8-1d28e2cbd99e","system_id":"levelo_inurba_marseille","lat":43.23962,"lon":5.36638,"is_reserved":false,"is_disabled":false,"rental_uris":{"android":"levelo://app?vid=4eef0d21-d850-40fa-a5d8-1d28e2cbd99e","ios":"levelo://app?vid=4eef0d21-d850-40fa-a5d8-1d28e2cbd99e"},"vehicle_type_id":"4","last_reported":1726909712,"current_range_meters":33200,"station_id":"ce4bhi12rcd13ifvqfp0","pricing_plan_id":"cebpf4jnsgd1na2vs0mg"},{"bike_id":"f55d82a5-a2f1-4a59-a6a0-790c179f4953","system_id":"levelo_inurba_marseille","lat":43.29903,"lon":5.43667,"is_reserved":false,"is_disabled":false,"rental_uris":{"android":"levelo://app?vid=f55d82a5-a2f1-4a59-a6a0-790c179f4953","ios":"levelo://app?vid=f55d82a5-a2f1-4a59-a6a0-790c179f4953"},"vehicle_type_id":"4","last_reported":1726909712,"current_range_meters":38000,"station_id":"ce4bhpp2rcd13ifvqhfg","pricing_plan_id":"cebpf4jnsgd1na2vs0mg"},{"bike_id":"a020a923-89fb-4175-829b-bdb01d885f9c","system_id":"levelo_inurba_marseille","lat":43.23061,"lon":5.355,"is_reserved":false,"is_disabled":false,"rental_uris":{"android":"levelo://app?vid=a020a923-89fb-4175-829b-bdb01d885f9c","ios":"levelo://app?vid=a020a923-89fb-4175-829b-bdb01d885f9c"},"vehicle_type_id":"4","last_reported":1726909712,"current_range_meters":28800,"station_id":"cpo3342slgdg3j2ifvpg","pricing_plan_id":"cebpf4jnsgd1na2vs0mg"},{"bike_id":"42e17fab-c938-475b-b106-da7eaf0d52d9","system_id":"levelo_inurba_marseille","lat":43.26556,"lon":5.37283,"is_reserved":false,"is_disabled":false,"rental_uris":{"android":"levelo://app?vid=42e17fab-c938-475b-b106-da7eaf0d52d9","ios":"levelo://app?vid=42e17fab-c938-475b-b106-da7eaf0d52d9"},"vehicle_type_id":"4","last_reported":1726909712,"current_range_meters":30000,"station_id":"ce4bhg12rcd13ifvqf70","pricing_plan_id":"cebpf4jnsgd1na2vs0mg"},{"bike_id":"ad936cc3-b1e2-4a45-816c-ea480f89da29","system_id":"levelo_inurba_marseille","lat":43.29302,"lon":5.37457,"is_reserved":false,"is_disabled":false,"rental_uris":{"android":"levelo://app?vid=ad936cc3-b1e2-4a45-816c-ea480f89da29","ios":"levelo://app?vid=ad936cc3-b1e2-4a45-816c-ea480f89da29"},"vehicle_type_id":"4","last_reported":1726909712,"current_range_meters":40000,"station_id":"ce4bgi12rcd13ifvqb70","pricing_plan_id":"cebpf4jnsgd1na2vs0mg"},{"bike_id":"f4fbb148-6cf6-4b27-8e50-9ec961d6462b","system_id":"levelo_inurba_marseille","lat":43.29732,"lon":5.37685,"is_reserved":false,"is_disabled":false,"rental_uris":{"android":"levelo://app?vid=f4fbb148-6cf6-4b27-8e50-9ec961d6462b","ios":"levelo://app?vid=f4fbb148-6cf6-4b27-8e50-9ec961d6462b"},"vehicle_type_id":"4","last_reported":1726909712,"current_range_meters":16800,"station_id":"ce4bgkh2rcd13ifvqbl0","pricing_plan_id":"cebpf4jnsgd1na2vs0mg"},{"bike_id":"f07c738f-64b7-4b12-9acd-387f3c4d2596","system_id":"levelo_inurba_marseille","lat":43.27212,"lon":5.39182,"is_reserved":false,"is_disabled":false,"rental_uris":{"android":"levelo://app?vid=f07c738f-64b7-4b12-9acd-387f3c4d2596","ios":"levelo://app?vid=f07c738f-64b7-4b12-9acd-387f3c4d2596"},"vehicle_type_id":"4","last_reported":1726909712,"current_range_meters":39200,"station_id":"ce4bhhp2rcd13ifvqfm0","pricing_plan_id":"cebpf4jnsgd1na2vs0mg"},{"bike_id":"6e2fd8fb-799c-468d-a60b-38d2bf81aa37","system_id":"levelo_inurba_marseille","lat":43.23955,"lon":5.36629,"is_reserved":false,"is_disabled":false,"rental_uris":{"android":"levelo://app?vid=6e2fd8fb-799c-468d-a60b-38d2bf81aa37","ios":"levelo://app?vid=6e2fd8fb-799c-468d-a60b-38d2bf81aa37"},"vehicle_type_id":"4","last_reported":1726909712,"current_range_meters":3600,"station_id":"ce4bhi12rcd13ifvqfp0","pricing_plan_id":"cebpf4jnsgd1na2vs0mg"},{"bike_id":"39d1b46c-20f6-4b72-a076-b879b382349f","system_id":"levelo_inurba_marseille","lat":43.31278,"lon":5.40166,"is_reserved":false,"is_disabled":false,"rental_uris":{"android":"levelo://app?vid=39d1b46c-20f6-4b72-a076-b879b382349f","ios":"levelo://app?vid=39d1b46c-20f6-4b72-a076-b879b382349f"},"vehicle_type_id":"4","last_reported":1726909712,"current_range_meters":11600,"station_id":"ce4bh092rcd13ifvqd30","pricing_plan_id":"cebpf4jnsgd1na2vs0mg"},{"bike_id":"fb730c85-cef2-43fb-877c-de273059500e","system_id":"levelo_inurba_marseille","lat":43.31755,"lon":5.39004,"is_reserved":false,"is_disabled":false,"rental_uris":{"android":"levelo://app?vid=fb730c85-cef2-43fb-877c-de273059500e","ios":"levelo://app?vid=fb730c85-cef2-43fb-877c-de273059500e"},"vehicle_type_id":"4","last_reported":1726909712,"current_range_meters":30000,"station_id":"ce4bhqp2rcd13ifvqhng","pricing_plan_id":"cebpf4jnsgd1na2vs0mg"},{"bike_id":"2b8be722-7142-4bf8-b6c4-dff7429f48c9","system_id":"levelo_inurba_marseille","lat":43.337444,"lon":5.374475,"is_reserved":false,"is_disabled":false,"rental_uris":{"android":"levelo://app?vid=2b8be722-7142-4bf8-b6c4-dff7429f48c9","ios":"levelo://app?vid=2b8be722-7142-4bf8-b6c4-dff7429f48c9"},"vehicle_type_id":"4","last_reported":1726909712,"current_range_meters":22000,"station_id":"ce4bh0h2rcd13ifvqd40","pricing_plan_id":"cebpf4jnsgd1na2vs0mg"},{"bike_id":"2d4c5d95-ea92-45b3-9d59-2caa88986228","system_id":"levelo_inurba_marseille","lat":43.255856,"lon":5.382227,"is_reserved":false,"is_disabled":false,"rental_uris":{"android":"levelo://app?vid=2d4c5d95-ea92-45b3-9d59-2caa88986228","ios":"levelo://app?vid=2d4c5d95-ea92-45b3-9d59-2caa88986228"},"vehicle_type_id":"4","last_reported":1726909712,"current_range_meters":18000,"station_id":"ce4bhih2rcd13ifvqfs0","pricing_plan_id":"cebpf4jnsgd1na2vs0mg"},{"bike_id":"79481e02-a9d5-4445-a123-35ef5e0afab9","system_id":"levelo_inurba_marseille","lat":43.29196,"lon":5.35807,"is_reserved":false,"is_disabled":false,"rental_uris":{"android":"levelo://app?vid=79481e02-a9d5-4445-a123-35ef5e0afab9","ios":"levelo://app?vid=79481e02-a9d5-4445-a123-35ef5e0afab9"},"vehicle_type_id":"4","last_reported":1726909712,"current_range_meters":20400,"station_id":"ce4bhb12rcd13ifvqel0","pricing_plan_id":"cebpf4jnsgd1na2vs0mg"},{"bike_id":"2b9037e6-c457-49bd-96ba-d4428882aa58","system_id":"levelo_inurba_marseille","lat":43.26483,"lon":5.39552,"is_reserved":false,"is_disabled":false,"rental_uris":{"android":"levelo://app?vid=2b9037e6-c457-49bd-96ba-d4428882aa58","ios":"levelo://app?vid=2b9037e6-c457-49bd-96ba-d4428882aa58"},"vehicle_type_id":"4","last_reported":1726909712,"current_range_meters":38400,"station_id":"ce4bhi12rcd13ifvqfq0","pricing_plan_id":"cebpf4jnsgd1na2vs0mg"},{"bike_id":"504ff727-9c4b-4598-87d7-a3a6747823fe","system_id":"levelo_inurba_marseille","lat":43.31707,"lon":5.37727,"is_reserved":false,"is_disabled":false,"rental_uris":{"android":"levelo://app?vid=504ff727-9c4b-4598-87d7-a3a6747823fe","ios":"levelo://app?vid=504ff727-9c4b-4598-87d7-a3a6747823fe"},"vehicle_type_id":"4","last_reported":1726909712,"current_range_meters":33600,"station_id":"ce4bgth2rcd13ifvqch0","pricing_plan_id":"cebpf4jnsgd1na2vs0mg"},{"bike_id":"fdcd1faf-6bae-4b82-a121-20f4542e73d0","system_id":"levelo_inurba_marseille","lat":43.28938,"lon":5.36397,"is_reserved":false,"is_disabled":false,"rental_uris":{"android":"levelo://app?vid=fdcd1faf-6bae-4b82-a121-20f4542e73d0","ios":"levelo://app?vid=fdcd1faf-6bae-4b82-a121-20f4542e73d0"},"vehicle_type_id":"4","last_reported":1726909712,"current_range_meters":39200,"station_id":"ce4bhc92rcd13ifvqetg","pricing_plan_id":"cebpf4jnsgd1na2vs0mg"},{"bike_id":"df9b1c9e-0ed6-4804-941c-22e2aebb94dd","system_id":"levelo_inurba_marseille","lat":43.23153,"lon":5.43713,"is_reserved":false,"is_disabled":false,"rental_uris":{"android":"levelo://app?vid=df9b1c9e-0ed6-4804-941c-22e2aebb94dd","ios":"levelo://app?vid=df9b1c9e-0ed6-4804-941c-22e2aebb94dd"},"vehicle_type_id":"4","last_reported":1726909712,"current_range_meters":39200,"station_id":"ce4bhmp2rcd13ifvqgog","pricing_plan_id":"cebpf4jnsgd1na2vs0mg"},{"bike_id":"546ee6bf-55f8-4946-bcee-e7096c9be4b7","system_id":"levelo_inurba_marseille","lat":43.24395,"lon":5.3706,"is_reserved":false,"is_disabled":false,"rental_uris":{"android":"levelo://app?vid=546ee6bf-55f8-4946-bcee-e7096c9be4b7","ios":"levelo://app?vid=546ee6bf-55f8-4946-bcee-e7096c9be4b7"},"vehicle_type_id":"4","last_reported":1726909712,"current_range_meters":26800,"station_id":"ce4bhhh2rcd13ifvqfk0","pricing_plan_id":"cebpf4jnsgd1na2vs0mg"},{"bike_id":"e487b570-ae0a-441e-8d21-21f51ea56705","system_id":"levelo_inurba_marseille","lat":43.33607,"lon":5.41018,"is_reserved":false,"is_disabled":false,"rental_uris":{"android":"levelo://app?vid=e487b570-ae0a-441e-8d21-21f51ea56705","ios":"levelo://app?vid=e487b570-ae0a-441e-8d21-21f51ea56705"},"vehicle_type_id":"4","last_reported":1726909712,"current_range_meters":39200,"station_id":"ce4bhqh2rcd13ifvqhmg","pricing_plan_id":"cebpf4jnsgd1na2vs0mg"},{"bike_id":"cfadb427-980c-46ba-be8a-a8bbe831a630","system_id":"levelo_inurba_marseille","lat":43.31123,"lon":5.37761,"is_reserved":false,"is_disabled":false,"rental_uris":{"android":"levelo://app?vid=cfadb427-980c-46ba-be8a-a8bbe831a630","ios":"levelo://app?vid=cfadb427-980c-46ba-be8a-a8bbe831a630"},"vehicle_type_id":"4","last_reported":1726909712,"current_range_meters":12400,"station_id":"","pricing_plan_id":"cebpf4jnsgd1na2vs0mg"},{"bike_id":"1eda8e40-c959-41b9-bfc3-2cc6646fffb0","system_id":"levelo_inurba_marseille","lat":43.29622,"lon":5.37707,"is_reserved":false,"is_disabled":false,"rental_uris":{"android":"levelo://app?vid=1eda8e40-c959-41b9-bfc3-2cc6646fffb0","ios":"levelo://app?vid=1eda8e40-c959-41b9-bfc3-2cc6646fffb0"},"vehicle_type_id":"4","last_reported":1726909712,"current_range_meters":8400,"station_id":"ce4bgkp2rcd13ifvqbmg","pricing_plan_id":"cebpf4jnsgd1na2vs0mg"},{"bike_id":"e8585762-5782-4245-8437-ba5bdda9084f","system_id":"levelo_inurba_marseille","lat":43.30801,"lon":5.38143,"is_reserved":false,"is_disabled":false,"rental_uris":{"android":"levelo://app?vid=e8585762-5782-4245-8437-ba5bdda9084f","ios":"levelo://app?vid=e8585762-5782-4245-8437-ba5bdda9084f"},"vehicle_type_id":"4","last_reported":1726909712,"current_range_meters":32400,"station_id":"ce4bgt12rcd13ifvqce0","pricing_plan_id":"cebpf4jnsgd1na2vs0mg"},{"bike_id":"4c1dec89-8af3-48ba-9392-8ce53e8e66e3","system_id":"levelo_inurba_marseille","lat":43.29512,"lon":5.37503,"is_reserved":false,"is_disabled":false,"rental_uris":{"android":"levelo://app?vid=4c1dec89-8af3-48ba-9392-8ce53e8e66e3","ios":"levelo://app?vid=4c1dec89-8af3-48ba-9392-8ce53e8e66e3"},"vehicle_type_id":"4","last_reported":1726909712,"current_range_meters":35600,"station_id":"ce4bgkp2rcd13ifvqbmg","pricing_plan_id":"cebpf4jnsgd1na2vs0mg"},{"bike_id":"241123d7-9c83-407a-a950-6b5477a52451","system_id":"levelo_inurba_marseille","lat":43.29713,"lon":5.37692,"is_reserved":false,"is_disabled":false,"rental_uris":{"android":"levelo://app?vid=241123d7-9c83-407a-a950-6b5477a52451","ios":"levelo://app?vid=241123d7-9c83-407a-a950-6b5477a52451"},"vehicle_type_id":"4","last_reported":1726909712,"current_range_meters":33200,"station_id":"ce4bgkh2rcd13ifvqbl0","pricing_plan_id":"cebpf4jnsgd1na2vs0mg"},{"bike_id":"326b5419-126b-4fb3-a779-7560db12d1e6","system_id":"levelo_inurba_marseille","lat":43.337444,"lon":5.374475,"is_reserved":false,"is_disabled":false,"rental_uris":{"android":"levelo://app?vid=326b5419-126b-4fb3-a779-7560db12d1e6","ios":"levelo://app?vid=326b5419-126b-4fb3-a779-7560db12d1e6"},"vehicle_type_id":"4","last_reported":1726909712,"current_range_meters":19600,"station_id":"","pricing_plan_id":"cebpf4jnsgd1na2vs0mg"},{"bike_id":"604c9531-be4f-4974-bfe2-bd7828d7386f","system_id":"levelo_inurba_marseille","lat":43.299,"lon":5.43674,"is_reserved":false,"is_disabled":false,"rental_uris":{"android":"levelo://app?vid=604c9531-be4f-4974-bfe2-bd7828d7386f","ios":"levelo://app?vid=604c9531-be4f-4974-bfe2-bd7828d7386f"},"vehicle_type_id":"4","last_reported":1726909712,"current_range_meters":24400,"station_id":"ce4bhpp2rcd13ifvqhfg","pricing_plan_id":"cebpf4jnsgd1na2vs0mg"},{"bike_id":"ffc6af84-75e9-4c16-ad2a-5c25f5a35736","system_id":"levelo_inurba_marseille","lat":43.298,"lon":5.40403,"is_reserved":false,"is_disabled":false,"rental_uris":{"android":"levelo://app?vid=ffc6af84-75e9-4c16-ad2a-5c25f5a35736","ios":"levelo://app?vid=ffc6af84-75e9-4c16-ad2a-5c25f5a35736"},"vehicle_type_id":"4","last_reported":1726909712,"current_range_meters":29600,"station_id":"ce4bh112rcd13ifvqd90","pricing_plan_id":"cebpf4jnsgd1na2vs0mg"},{"bike_id":"217ef1e6-255c-4998-83d2-821ac1a80098","system_id":"levelo_inurba_marseille","lat":43.27206,"lon":5.39182,"is_reserved":false,"is_disabled":false,"rental_uris":{"android":"levelo://app?vid=217ef1e6-255c-4998-83d2-821ac1a80098","ios":"levelo://app?vid=217ef1e6-255c-4998-83d2-821ac1a80098"},"vehicle_type_id":"4","last_reported":1726909712,"current_range_meters":4800,"station_id":"ce4bhhp2rcd13ifvqfm0","pricing_plan_id":"cebpf4jnsgd1na2vs0mg"},{"bike_id":"ac06cbe3-c5d5-4918-8fc0-6bf0136274b7","system_id":"levelo_inurba_marseille","lat":43.27496,"lon":5.4245,"is_reserved":false,"is_disabled":false,"rental_uris":{"android":"levelo://app?vid=ac06cbe3-c5d5-4918-8fc0-6bf0136274b7","ios":"levelo://app?vid=ac06cbe3-c5d5-4918-8fc0-6bf0136274b7"},"vehicle_type_id":"4","last_reported":1726909712,"current_range_meters":22400,"station_id":"ce4bhn92rcd13ifvqgrg","pricing_plan_id":"cebpf4jnsgd1na2vs0mg"},{"bike_id":"a86ca6ef-f59c-4d36-8be9-e9365d872989","system_id":"levelo_inurba_marseille","lat":43.27371,"lon":5.36263,"is_reserved":false,"is_disabled":false,"rental_uris":{"android":"levelo://app?vid=a86ca6ef-f59c-4d36-8be9-e9365d872989","ios":"levelo://app?vid=a86ca6ef-f59c-4d36-8be9-e9365d872989"},"vehicle_type_id":"4","last_reported":1726909712,"current_range_meters":37600,"station_id":"ce4bhbh2rcd13ifvqeo0","pricing_plan_id":"cebpf4jnsgd1na2vs0mg"},{"bike_id":"10b5f711-bd58-456b-b8a4-8ef82ac4bd60","system_id":"levelo_inurba_marseille","lat":43.29934,"lon":5.36544,"is_reserved":false,"is_disabled":false,"rental_uris":{"android":"levelo://app?vid=10b5f711-bd58-456b-b8a4-8ef82ac4bd60","ios":"levelo://app?vid=10b5f711-bd58-456b-b8a4-8ef82ac4bd60"},"vehicle_type_id":"4","last_reported":1726909712,"current_range_meters":23200,"station_id":"ce4bgm92rcd13ifvqbr0","pricing_plan_id":"cebpf4jnsgd1na2vs0mg"},{"bike_id":"e3c7bd1a-9ccc-4b4e-8e4a-2ca600ee7f59","system_id":"levelo_inurba_marseille","lat":43.25505,"lon":5.37584,"is_reserved":false,"is_disabled":false,"rental_uris":{"android":"levelo://app?vid=e3c7bd1a-9ccc-4b4e-8e4a-2ca600ee7f59","ios":"levelo://app?vid=e3c7bd1a-9ccc-4b4e-8e4a-2ca600ee7f59"},"vehicle_type_id":"4","last_reported":1726909712,"current_range_meters":8000,"station_id":"","pricing_plan_id":"cebpf4jnsgd1na2vs0mg"},{"bike_id":"50a407c1-22a7-475d-b040-e06e3d3dd289","system_id":"levelo_inurba_marseille","lat":43.2951,"lon":5.37506,"is_reserved":false,"is_disabled":false,"rental_uris":{"android":"levelo://app?vid=50a407c1-22a7-475d-b040-e06e3d3dd289","ios":"levelo://app?vid=50a407c1-22a7-475d-b040-e06e3d3dd289"},"vehicle_type_id":"4","last_reported":1726909712,"current_range_meters":35600,"station_id":"ce4bgkp2rcd13ifvqbmg","pricing_plan_id":"cebpf4jnsgd1na2vs0mg"},{"bike_id":"e342b90c-5848-4336-97a0-9fa180c077f1","system_id":"levelo_inurba_marseille","lat":43.31067,"lon":5.38348,"is_reserved":false,"is_disabled":false,"rental_uris":{"android":"levelo://app?vid=e342b90c-5848-4336-97a0-9fa180c077f1","ios":"levelo://app?vid=e342b90c-5848-4336-97a0-9fa180c077f1"},"vehicle_type_id":"4","last_reported":1726909712,"current_range_meters":22800,"station_id":"ce4bgv92rcd13ifvqcr0","pricing_plan_id":"cebpf4jnsgd1na2vs0mg"},{"bike_id":"a09b131e-b0a8-4938-a802-317747afbde1","system_id":"levelo_inurba_marseille","lat":43.29965,"lon":5.36966,"is_reserved":false,"is_disabled":false,"rental_uris":{"android":"levelo://app?vid=a09b131e-b0a8-4938-a802-317747afbde1","ios":"levelo://app?vid=a09b131e-b0a8-4938-a802-317747afbde1"},"vehicle_type_id":"4","last_reported":1726909712,"current_range_meters":2800,"station_id":"","pricing_plan_id":"cebpf4jnsgd1na2vs0mg"},{"bike_id":"28c8281e-e5bc-4ed3-94a5-f0ec62d95659","system_id":"levelo_inurba_marseille","lat":43.25082,"lon":5.39519,"is_reserved":false,"is_disabled":false,"rental_uris":{"android":"levelo://app?vid=28c8281e-e5bc-4ed3-94a5-f0ec62d95659","ios":"levelo://app?vid=28c8281e-e5bc-4ed3-94a5-f0ec62d95659"},"vehicle_type_id":"4","last_reported":1726909712,"current_range_meters":38000,"station_id":"ce4bhm12rcd13ifvqgkg","pricing_plan_id":"cebpf4jnsgd1na2vs0mg"},{"bike_id":"542e2c69-6cd2-413d-9cfd-2c5f9a60a140","system_id":"levelo_inurba_marseille","lat":43.24076,"lon":5.37756,"is_reserved":false,"is_disabled":false,"rental_uris":{"android":"levelo://app?vid=542e2c69-6cd2-413d-9cfd-2c5f9a60a140","ios":"levelo://app?vid=542e2c69-6cd2-413d-9cfd-2c5f9a60a140"},"vehicle_type_id":"4","last_reported":1726909712,"current_range_meters":8800,"station_id":"ce4bhnp2rcd13ifvqgvg","pricing_plan_id":"cebpf4jnsgd1na2vs0mg"},{"bike_id":"f9c9be8e-ea20-4727-9516-26ff2df08de7","system_id":"levelo_inurba_marseille","lat":43.29971,"lon":5.41351,"is_reserved":false,"is_disabled":false,"rental_uris":{"android":"levelo://app?vid=f9c9be8e-ea20-4727-9516-26ff2df08de7","ios":"levelo://app?vid=f9c9be8e-ea20-4727-9516-26ff2df08de7"},"vehicle_type_id":"4","last_reported":1726909712,"current_range_meters":38800,"station_id":"ce4bhp12rcd13ifvqh9g","pricing_plan_id":"cebpf4jnsgd1na2vs0mg"},{"bike_id":"ed6a2d27-decb-4217-98ed-2534b8c0e601","system_id":"levelo_inurba_marseille","lat":43.23181,"lon":5.39995,"is_reserved":false,"is_disabled":false,"rental_uris":{"android":"levelo://app?vid=ed6a2d27-decb-4217-98ed-2534b8c0e601","ios":"levelo://app?vid=ed6a2d27-decb-4217-98ed-2534b8c0e601"},"vehicle_type_id":"4","last_reported":1726909712,"current_range_meters":36000,"station_id":"ce4bhn12rcd13ifvqgqg","pricing_plan_id":"cebpf4jnsgd1na2vs0mg"},{"bike_id":"8273c267-5219-4186-8f32-c3e55203a7ac","system_id":"levelo_inurba_marseille","lat":43.23964,"lon":5.39715,"is_reserved":false,"is_disabled":false,"rental_uris":{"android":"levelo://app?vid=8273c267-5219-4186-8f32-c3e55203a7ac","ios":"levelo://app?vid=8273c267-5219-4186-8f32-c3e55203a7ac"},"vehicle_type_id":"4","last_reported":1726909712,"current_range_meters":6000,"station_id":"","pricing_plan_id":"cebpf4jnsgd1na2vs0mg"},{"bike_id":"9c92648a-f006-4167-bb4c-b3ce8835b4ad","system_id":"levelo_inurba_marseille","lat":43.31713,"lon":5.43706,"is_reserved":false,"is_disabled":false,"rental_uris":{"android":"levelo://app?vid=9c92648a-f006-4167-bb4c-b3ce8835b4ad","ios":"levelo://app?vid=9c92648a-f006-4167-bb4c-b3ce8835b4ad"},"vehicle_type_id":"4","last_reported":1726909712,"current_range_meters":38400,"station_id":"ce4bhp92rcd13ifvqhcg","pricing_plan_id":"cebpf4jnsgd1na2vs0mg"},{"bike_id":"0758898b-c621-4049-b058-e9cd0ceaa979","system_id":"levelo_inurba_marseille","lat":43.30466,"lon":5.37896,"is_reserved":false,"is_disabled":false,"rental_uris":{"android":"levelo://app?vid=0758898b-c621-4049-b058-e9cd0ceaa979","ios":"levelo://app?vid=0758898b-c621-4049-b058-e9cd0ceaa979"},"vehicle_type_id":"4","last_reported":1726909712,"current_range_meters":34000,"station_id":"ce4bgup2rcd13ifvqcn0","pricing_plan_id":"cebpf4jnsgd1na2vs0mg"},{"bike_id":"fe61791c-21d9-4b25-a0b8-c74c8e3b9350","system_id":"levelo_inurba_marseille","lat":43.22933,"lon":5.35377,"is_reserved":false,"is_disabled":false,"rental_uris":{"android":"levelo://app?vid=fe61791c-21d9-4b25-a0b8-c74c8e3b9350","ios":"levelo://app?vid=fe61791c-21d9-4b25-a0b8-c74c8e3b9350"},"vehicle_type_id":"4","last_reported":1726909712,"current_range_meters":30400,"station_id":"cpo3532slgdg3j2ikp40","pricing_plan_id":"cebpf4jnsgd1na2vs0mg"},{"bike_id":"b299246a-62f3-46c4-8f62-da9b0aecadbd","system_id":"levelo_inurba_marseille","lat":43.26486,"lon":5.39556,"is_reserved":false,"is_disabled":false,"rental_uris":{"android":"levelo://app?vid=b299246a-62f3-46c4-8f62-da9b0aecadbd","ios":"levelo://app?vid=b299246a-62f3-46c4-8f62-da9b0aecadbd"},"vehicle_type_id":"4","last_reported":1726909712,"current_range_meters":37600,"station_id":"ce4bhi12rcd13ifvqfq0","pricing_plan_id":"cebpf4jnsgd1na2vs0mg"},{"bike_id":"87d8bf2c-d1f7-4f52-bf68-384092e34fcb","system_id":"levelo_inurba_marseille","lat":43.28615,"lon":5.35102,"is_reserved":false,"is_disabled":false,"rental_uris":{"android":"levelo://app?vid=87d8bf2c-d1f7-4f52-bf68-384092e34fcb","ios":"levelo://app?vid=87d8bf2c-d1f7-4f52-bf68-384092e34fcb"},"vehicle_type_id":"4","last_reported":1726909712,"current_range_meters":35200,"station_id":"ce4bhch2rcd13ifvqeug","pricing_plan_id":"cebpf4jnsgd1na2vs0mg"},{"bike_id":"d092ea46-5081-444c-9ab4-9000c6f4b483","system_id":"levelo_inurba_marseille","lat":43.29836,"lon":5.36281,"is_reserved":false,"is_disabled":false,"rental_uris":{"android":"levelo://app?vid=d092ea46-5081-444c-9ab4-9000c6f4b483","ios":"levelo://app?vid=d092ea46-5081-444c-9ab4-9000c6f4b483"},"vehicle_type_id":"4","last_reported":1726909712,"current_range_meters":39200,"station_id":"ce4bgpp2rcd13ifvqc3g","pricing_plan_id":"cebpf4jnsgd1na2vs0mg"},{"bike_id":"42fac7e5-89b5-43a0-86e0-6d691ed14493","system_id":"levelo_inurba_marseille","lat":43.31286,"lon":5.40174,"is_reserved":false,"is_disabled":false,"rental_uris":{"android":"levelo://app?vid=42fac7e5-89b5-43a0-86e0-6d691ed14493","ios":"levelo://app?vid=42fac7e5-89b5-43a0-86e0-6d691ed14493"},"vehicle_type_id":"4","last_reported":1726909712,"current_range_meters":27600,"station_id":"ce4bh092rcd13ifvqd30","pricing_plan_id":"cebpf4jnsgd1na2vs0mg"},{"bike_id":"5c3ab3ff-b3a8-4b03-ac72-d1c8a4f76c80","system_id":"levelo_inurba_marseille","lat":43.29222,"lon":5.36072,"is_reserved":false,"is_disabled":false,"rental_uris":{"android":"levelo://app?vid=5c3ab3ff-b3a8-4b03-ac72-d1c8a4f76c80","ios":"levelo://app?vid=5c3ab3ff-b3a8-4b03-ac72-d1c8a4f76c80"},"vehicle_type_id":"4","last_reported":1726909712,"current_range_meters":35200,"station_id":"ce4bhbh2rcd13ifvqeqg","pricing_plan_id":"cebpf4jnsgd1na2vs0mg"},{"bike_id":"5ea30f80-2212-405d-b80f-b1043d7c9096","system_id":"levelo_inurba_marseille","lat":43.337444,"lon":5.374475,"is_reserved":false,"is_disabled":false,"rental_uris":{"android":"levelo://app?vid=5ea30f80-2212-405d-b80f-b1043d7c9096","ios":"levelo://app?vid=5ea30f80-2212-405d-b80f-b1043d7c9096"},"vehicle_type_id":"4","last_reported":1726909712,"current_range_meters":39200,"station_id":"ce4bh0h2rcd13ifvqd50","pricing_plan_id":"cebpf4jnsgd1na2vs0mg"},{"bike_id":"79843328-0d3a-458f-b307-040b507cb00d","system_id":"levelo_inurba_marseille","lat":43.28103,"lon":5.37845,"is_reserved":false,"is_disabled":false,"rental_uris":{"android":"levelo://app?vid=79843328-0d3a-458f-b307-040b507cb00d","ios":"levelo://app?vid=79843328-0d3a-458f-b307-040b507cb00d"},"vehicle_type_id":"4","last_reported":1726909712,"current_range_meters":36800,"station_id":"ce4bha12rcd13ifvqee0","pricing_plan_id":"cebpf4jnsgd1na2vs0mg"},{"bike_id":"290d0bf1-0e1c-405f-b7a8-d4b009dd690e","system_id":"levelo_inurba_marseille","lat":43.291658,"lon":5.371713,"is_reserved":false,"is_disabled":false,"rental_uris":{"android":"levelo://app?vid=290d0bf1-0e1c-405f-b7a8-d4b009dd690e","ios":"levelo://app?vid=290d0bf1-0e1c-405f-b7a8-d4b009dd690e"},"vehicle_type_id":"4","last_reported":1726909712,"current_range_meters":30800,"station_id":"ce4bgj92rcd13ifvqbd0","pricing_plan_id":"cebpf4jnsgd1na2vs0mg"},{"bike_id":"7db34aab-bb83-4943-a5a0-93955f52a4ec","system_id":"levelo_inurba_marseille","lat":43.33718,"lon":5.39173,"is_reserved":false,"is_disabled":false,"rental_uris":{"android":"levelo://app?vid=7db34aab-bb83-4943-a5a0-93955f52a4ec","ios":"levelo://app?vid=7db34aab-bb83-4943-a5a0-93955f52a4ec"},"vehicle_type_id":"4","last_reported":1726909712,"current_range_meters":38400,"station_id":"ce4bhr92rcd13ifvqhsg","pricing_plan_id":"cebpf4jnsgd1na2vs0mg"},{"bike_id":"b3b9b23c-db59-46c4-af5c-638c0ce2737d","system_id":"levelo_inurba_marseille","lat":43.337444,"lon":5.374475,"is_reserved":false,"is_disabled":false,"rental_uris":{"android":"levelo://app?vid=b3b9b23c-db59-46c4-af5c-638c0ce2737d","ios":"levelo://app?vid=b3b9b23c-db59-46c4-af5c-638c0ce2737d"},"vehicle_type_id":"4","last_reported":1726909712,"current_range_meters":32400,"station_id":"","pricing_plan_id":"cebpf4jnsgd1na2vs0mg"},{"bike_id":"bf9b17b0-2f1a-48e3-851e-8b68f3673f51","system_id":"levelo_inurba_marseille","lat":43.306434,"lon":5.400807,"is_reserved":false,"is_disabled":false,"rental_uris":{"android":"levelo://app?vid=bf9b17b0-2f1a-48e3-851e-8b68f3673f51","ios":"levelo://app?vid=bf9b17b0-2f1a-48e3-851e-8b68f3673f51"},"vehicle_type_id":"4","last_reported":1726909712,"current_range_meters":12000,"station_id":"ce4bh112rcd13ifvqda0","pricing_plan_id":"cebpf4jnsgd1na2vs0mg"},{"bike_id":"7b7cf89d-5325-4d4a-8061-5cf0c5bab16f","system_id":"levelo_inurba_marseille","lat":43.26192,"lon":5.37451,"is_reserved":false,"is_disabled":false,"rental_uris":{"android":"levelo://app?vid=7b7cf89d-5325-4d4a-8061-5cf0c5bab16f","ios":"levelo://app?vid=7b7cf89d-5325-4d4a-8061-5cf0c5bab16f"},"vehicle_type_id":"4","last_reported":1726909712,"current_range_meters":30800,"station_id":"","pricing_plan_id":"cebpf4jnsgd1na2vs0mg"},{"bike_id":"fe02eabb-a2b4-4ea9-918d-8498504a82a3","system_id":"levelo_inurba_marseille","lat":43.26193,"lon":5.37445,"is_reserved":false,"is_disabled":false,"rental_uris":{"android":"levelo://app?vid=fe02eabb-a2b4-4ea9-918d-8498504a82a3","ios":"levelo://app?vid=fe02eabb-a2b4-4ea9-918d-8498504a82a3"},"vehicle_type_id":"4","last_reported":1726909712,"current_range_meters":15200,"station_id":"ce4bhgp2rcd13ifvqfc0","pricing_plan_id":"cebpf4jnsgd1na2vs0mg"},{"bike_id":"23e5fcf4-4fac-4b05-9a6c-be73f5a6d743","system_id":"levelo_inurba_marseille","lat":43.28145,"lon":5.42643,"is_reserved":false,"is_disabled":false,"rental_uris":{"android":"levelo://app?vid=23e5fcf4-4fac-4b05-9a6c-be73f5a6d743","ios":"levelo://app?vid=23e5fcf4-4fac-4b05-9a6c-be73f5a6d743"},"vehicle_type_id":"4","last_reported":1726909712,"current_range_meters":18800,"station_id":"ce4bhnh2rcd13ifvqgug","pricing_plan_id":"cebpf4jnsgd1na2vs0mg"},{"bike_id":"ef589534-e446-4616-b524-e6b5eab7e7c6","system_id":"levelo_inurba_marseille","lat":43.29845,"lon":5.36274,"is_reserved":false,"is_disabled":false,"rental_uris":{"android":"levelo://app?vid=ef589534-e446-4616-b524-e6b5eab7e7c6","ios":"levelo://app?vid=ef589534-e446-4616-b524-e6b5eab7e7c6"},"vehicle_type_id":"4","last_reported":1726909712,"current_range_meters":30800,"station_id":"ce4bgpp2rcd13ifvqc3g","pricing_plan_id":"cebpf4jnsgd1na2vs0mg"},{"bike_id":"9455a10c-c08f-4c95-bb85-e08f847ecbc5","system_id":"levelo_inurba_marseille","lat":43.24079,"lon":5.3775,"is_reserved":false,"is_disabled":false,"rental_uris":{"android":"levelo://app?vid=9455a10c-c08f-4c95-bb85-e08f847ecbc5","ios":"levelo://app?vid=9455a10c-c08f-4c95-bb85-e08f847ecbc5"},"vehicle_type_id":"4","last_reported":1726909712,"current_range_meters":8400,"station_id":"ce4bhnp2rcd13ifvqgvg","pricing_plan_id":"cebpf4jnsgd1na2vs0mg"},{"bike_id":"bddff95a-19c2-4fd3-bdbe-da5d658cfae4","system_id":"levelo_inurba_marseille","lat":43.24999,"lon":5.3893,"is_reserved":false,"is_disabled":false,"rental_uris":{"android":"levelo://app?vid=bddff95a-19c2-4fd3-bdbe-da5d658cfae4","ios":"levelo://app?vid=bddff95a-19c2-4fd3-bdbe-da5d658cfae4"},"vehicle_type_id":"4","last_reported":1726909712,"current_range_meters":24800,"station_id":"ce4bhgp2rcd13ifvqfd0","pricing_plan_id":"cebpf4jnsgd1na2vs0mg"},{"bike_id":"146ac5f2-7c1e-46d5-9347-54e9005d3585","system_id":"levelo_inurba_marseille","lat":43.26947,"lon":5.40248,"is_reserved":false,"is_disabled":false,"rental_uris":{"android":"levelo://app?vid=146ac5f2-7c1e-46d5-9347-54e9005d3585","ios":"levelo://app?vid=146ac5f2-7c1e-46d5-9347-54e9005d3585"},"vehicle_type_id":"4","last_reported":1726909712,"current_range_meters":39200,"station_id":"cjm6bp8fraef2m0cb0m0","pricing_plan_id":"cebpf4jnsgd1na2vs0mg"},{"bike_id":"7b9dd459-340b-4978-bfb0-6c163a5263e8","system_id":"levelo_inurba_marseille","lat":43.23191,"lon":5.35536,"is_reserved":false,"is_disabled":false,"rental_uris":{"android":"levelo://app?vid=7b9dd459-340b-4978-bfb0-6c163a5263e8","ios":"levelo://app?vid=7b9dd459-340b-4978-bfb0-6c163a5263e8"},"vehicle_type_id":"4","last_reported":1726909712,"current_range_meters":39200,"station_id":"ce4bhu92rcd13ifvqi70","pricing_plan_id":"cebpf4jnsgd1na2vs0mg"},{"bike_id":"59544bc1-8fdd-48ca-a6dd-306dff0c8a94","system_id":"levelo_inurba_marseille","lat":43.28934,"lon":5.36632,"is_reserved":false,"is_disabled":false,"rental_uris":{"android":"levelo://app?vid=59544bc1-8fdd-48ca-a6dd-306dff0c8a94","ios":"levelo://app?vid=59544bc1-8fdd-48ca-a6dd-306dff0c8a94"},"vehicle_type_id":"4","last_reported":1726909712,"current_range_meters":28000,"station_id":"ce4bhap2rcd13ifvqek0","pricing_plan_id":"cebpf4jnsgd1na2vs0mg"},{"bike_id":"390c4f0b-10c2-412a-978a-dd95f6e88eaf","system_id":"levelo_inurba_marseille","lat":43.28483,"lon":5.38417,"is_reserved":false,"is_disabled":false,"rental_uris":{"android":"levelo://app?vid=390c4f0b-10c2-412a-978a-dd95f6e88eaf","ios":"levelo://app?vid=390c4f0b-10c2-412a-978a-dd95f6e88eaf"},"vehicle_type_id":"4","last_reported":1726909712,"current_range_meters":38000,"station_id":"ce4bh512rcd13ifvqe3g","pricing_plan_id":"cebpf4jnsgd1na2vs0mg"},{"bike_id":"4f05b3f0-ac9f-4adb-93a4-2d6aabe7d48c","system_id":"levelo_inurba_marseille","lat":43.2582,"lon":5.39436,"is_reserved":false,"is_disabled":false,"rental_uris":{"android":"levelo://app?vid=4f05b3f0-ac9f-4adb-93a4-2d6aabe7d48c","ios":"levelo://app?vid=4f05b3f0-ac9f-4adb-93a4-2d6aabe7d48c"},"vehicle_type_id":"4","last_reported":1726909712,"current_range_meters":36400,"station_id":"ce4bhip2rcd13ifvqft0","pricing_plan_id":"cebpf4jnsgd1na2vs0mg"},{"bike_id":"1409bd11-b908-4cb6-af30-4e2a4dd422cd","system_id":"levelo_inurba_marseille","lat":43.30474,"lon":5.37903,"is_reserved":false,"is_disabled":false,"rental_uris":{"android":"levelo://app?vid=1409bd11-b908-4cb6-af30-4e2a4dd422cd","ios":"levelo://app?vid=1409bd11-b908-4cb6-af30-4e2a4dd422cd"},"vehicle_type_id":"4","last_reported":1726909712,"current_range_meters":39200,"station_id":"ce4bgup2rcd13ifvqcn0","pricing_plan_id":"cebpf4jnsgd1na2vs0mg"},{"bike_id":"655232e5-dd47-4aeb-b051-4bd3e3ea8975","system_id":"levelo_inurba_marseille","lat":43.25718,"lon":5.41123,"is_reserved":false,"is_disabled":false,"rental_uris":{"android":"levelo://app?vid=655232e5-dd47-4aeb-b051-4bd3e3ea8975","ios":"levelo://app?vid=655232e5-dd47-4aeb-b051-4bd3e3ea8975"},"vehicle_type_id":"4","last_reported":1726909712,"current_range_meters":38800,"station_id":"ce4bhkp2rcd13ifvqgd0","pricing_plan_id":"cebpf4jnsgd1na2vs0mg"},{"bike_id":"71aa8592-ddf7-4343-aed4-c00d3433340f","system_id":"levelo_inurba_marseille","lat":43.337444,"lon":5.374475,"is_reserved":false,"is_disabled":false,"rental_uris":{"android":"levelo://app?vid=71aa8592-ddf7-4343-aed4-c00d3433340f","ios":"levelo://app?vid=71aa8592-ddf7-4343-aed4-c00d3433340f"},"vehicle_type_id":"4","last_reported":1726909712,"current_range_meters":36400,"station_id":"","pricing_plan_id":"cebpf4jnsgd1na2vs0mg"},{"bike_id":"3740c6df-06cd-419b-9ae6-b8d9e5eff548","system_id":"levelo_inurba_marseille","lat":43.2753,"lon":5.40935,"is_reserved":false,"is_disabled":false,"rental_uris":{"android":"levelo://app?vid=3740c6df-06cd-419b-9ae6-b8d9e5eff548","ios":"levelo://app?vid=3740c6df-06cd-419b-9ae6-b8d9e5eff548"},"vehicle_type_id":"4","last_reported":1726909712,"current_range_meters":18800,"station_id":"","pricing_plan_id":"cebpf4jnsgd1na2vs0mg"},{"bike_id":"663fe0ef-43bf-4b6b-9105-239442a173f7","system_id":"levelo_inurba_marseille","lat":43.2974,"lon":5.40159,"is_reserved":false,"is_disabled":false,"rental_uris":{"android":"levelo://app?vid=663fe0ef-43bf-4b6b-9105-239442a173f7","ios":"levelo://app?vid=663fe0ef-43bf-4b6b-9105-239442a173f7"},"vehicle_type_id":"4","last_reported":1726909712,"current_range_meters":10800,"station_id":"","pricing_plan_id":"cebpf4jnsgd1na2vs0mg"},{"bike_id":"fb8d5711-d1cf-489c-836c-1bc6f5c3b747","system_id":"levelo_inurba_marseille","lat":43.23152,"lon":5.43717,"is_reserved":false,"is_disabled":false,"rental_uris":{"android":"levelo://app?vid=fb8d5711-d1cf-489c-836c-1bc6f5c3b747","ios":"levelo://app?vid=fb8d5711-d1cf-489c-836c-1bc6f5c3b747"},"vehicle_type_id":"4","last_reported":1726909712,"current_range_meters":39200,"station_id":"ce4bhmp2rcd13ifvqgog","pricing_plan_id":"cebpf4jnsgd1na2vs0mg"},{"bike_id":"101a5fe6-15d3-437c-957b-711d2d82c189","system_id":"levelo_inurba_marseille","lat":43.28262,"lon":5.35068,"is_reserved":false,"is_disabled":false,"rental_uris":{"android":"levelo://app?vid=101a5fe6-15d3-437c-957b-711d2d82c189","ios":"levelo://app?vid=101a5fe6-15d3-437c-957b-711d2d82c189"},"vehicle_type_id":"4","last_reported":1726909712,"current_range_meters":33200,"station_id":"ce4bhbp2rcd13ifvqerg","pricing_plan_id":"cebpf4jnsgd1na2vs0mg"},{"bike_id":"c6a5b1c0-1ce2-46f3-8262-a62ae2cf80bf","system_id":"levelo_inurba_marseille","lat":43.32661,"lon":5.40987,"is_reserved":false,"is_disabled":false,"rental_uris":{"android":"levelo://app?vid=c6a5b1c0-1ce2-46f3-8262-a62ae2cf80bf","ios":"levelo://app?vid=c6a5b1c0-1ce2-46f3-8262-a62ae2cf80bf"},"vehicle_type_id":"4","last_reported":1726909712,"current_range_meters":37600,"station_id":"ce4bhpp2rcd13ifvqhgg","pricing_plan_id":"cebpf4jnsgd1na2vs0mg"},{"bike_id":"b5487105-cdd6-473c-84fa-638992900f27","system_id":"levelo_inurba_marseille","lat":43.31487,"lon":5.40342,"is_reserved":false,"is_disabled":false,"rental_uris":{"android":"levelo://app?vid=b5487105-cdd6-473c-84fa-638992900f27","ios":"levelo://app?vid=b5487105-cdd6-473c-84fa-638992900f27"},"vehicle_type_id":"4","last_reported":1726909712,"current_range_meters":39200,"station_id":"ce4bgvp2rcd13ifvqct0","pricing_plan_id":"cebpf4jnsgd1na2vs0mg"},{"bike_id":"cbd6d8ad-05dd-4ae8-8e79-5d5bd81cde11","system_id":"levelo_inurba_marseille","lat":43.26948,"lon":5.38639,"is_reserved":false,"is_disabled":false,"rental_uris":{"android":"levelo://app?vid=cbd6d8ad-05dd-4ae8-8e79-5d5bd81cde11","ios":"levelo://app?vid=cbd6d8ad-05dd-4ae8-8e79-5d5bd81cde11"},"vehicle_type_id":"4","last_reported":1726909712,"current_range_meters":19200,"station_id":"ce4bhh92rcd13ifvqfh0","pricing_plan_id":"cebpf4jnsgd1na2vs0mg"},{"bike_id":"d050b7b6-47ad-4582-9d90-edb6ebf2db9c","system_id":"levelo_inurba_marseille","lat":43.28036,"lon":5.36948,"is_reserved":false,"is_disabled":false,"rental_uris":{"android":"levelo://app?vid=d050b7b6-47ad-4582-9d90-edb6ebf2db9c","ios":"levelo://app?vid=d050b7b6-47ad-4582-9d90-edb6ebf2db9c"},"vehicle_type_id":"4","last_reported":1726909712,"current_range_meters":23200,"station_id":"ce4bha12rcd13ifvqef0","pricing_plan_id":"cebpf4jnsgd1na2vs0mg"},{"bike_id":"ac95fbfc-4c95-4c4c-95d8-03386a7d800d","system_id":"levelo_inurba_marseille","lat":43.310771,"lon":5.424284,"is_reserved":false,"is_disabled":false,"rental_uris":{"android":"levelo://app?vid=ac95fbfc-4c95-4c4c-95d8-03386a7d800d","ios":"levelo://app?vid=ac95fbfc-4c95-4c4c-95d8-03386a7d800d"},"vehicle_type_id":"4","last_reported":1726909712,"current_range_meters":23200,"station_id":"ce4bhp92rcd13ifvqhag","pricing_plan_id":"cebpf4jnsgd1na2vs0mg"},{"bike_id":"36804418-55ab-48a2-8e52-fdbd55d4360a","system_id":"levelo_inurba_marseille","lat":43.2511,"lon":5.40323,"is_reserved":false,"is_disabled":false,"rental_uris":{"android":"levelo://app?vid=36804418-55ab-48a2-8e52-fdbd55d4360a","ios":"levelo://app?vid=36804418-55ab-48a2-8e52-fdbd55d4360a"},"vehicle_type_id":"4","last_reported":1726909712,"current_range_meters":25600,"station_id":"ce4bhlh2rcd13ifvqgig","pricing_plan_id":"cebpf4jnsgd1na2vs0mg"},{"bike_id":"2ff576ae-00ce-4bb8-84e3-2657237c6398","system_id":"levelo_inurba_marseille","lat":43.295819,"lon":5.367341,"is_reserved":false,"is_disabled":false,"rental_uris":{"android":"levelo://app?vid=2ff576ae-00ce-4bb8-84e3-2657237c6398","ios":"levelo://app?vid=2ff576ae-00ce-4bb8-84e3-2657237c6398"},"vehicle_type_id":"4","last_reported":1726909712,"current_range_meters":36800,"station_id":"ce4bgph2rcd13ifvqc2g","pricing_plan_id":"cebpf4jnsgd1na2vs0mg"},{"bike_id":"af1baffb-5f49-4ab2-ac81-fe84e616aac3","system_id":"levelo_inurba_marseille","lat":43.289276,"lon":5.384,"is_reserved":false,"is_disabled":false,"rental_uris":{"android":"levelo://app?vid=af1baffb-5f49-4ab2-ac81-fe84e616aac3","ios":"levelo://app?vid=af1baffb-5f49-4ab2-ac81-fe84e616aac3"},"vehicle_type_id":"4","last_reported":1726909712,"current_range_meters":2000,"station_id":"ce4bh612rcd13ifvqe6g","pricing_plan_id":"cebpf4jnsgd1na2vs0mg"},{"bike_id":"2ecff0f7-6f51-42e7-a611-f83779145da4","system_id":"levelo_inurba_marseille","lat":43.305389,"lon":5.384207,"is_reserved":false,"is_disabled":false,"rental_uris":{"android":"levelo://app?vid=2ecff0f7-6f51-42e7-a611-f83779145da4","ios":"levelo://app?vid=2ecff0f7-6f51-42e7-a611-f83779145da4"},"vehicle_type_id":"4","last_reported":1726909712,"current_range_meters":38800,"station_id":"ce4bgg92rcd13ifvqb30","pricing_plan_id":"cebpf4jnsgd1na2vs0mg"},{"bike_id":"183eb22f-76d4-4d15-9b3f-4751c806e2b1","system_id":"levelo_inurba_marseille","lat":43.30153,"lon":5.38071,"is_reserved":false,"is_disabled":false,"rental_uris":{"android":"levelo://app?vid=183eb22f-76d4-4d15-9b3f-4751c806e2b1","ios":"levelo://app?vid=183eb22f-76d4-4d15-9b3f-4751c806e2b1"},"vehicle_type_id":"4","last_reported":1726909712,"current_range_meters":35600,"station_id":"ce4bgjp2rcd13ifvqbh0","pricing_plan_id":"cebpf4jnsgd1na2vs0mg"},{"bike_id":"9ec67a72-4b27-4726-b5bc-30782f712c4d","system_id":"levelo_inurba_marseille","lat":43.33746,"lon":5.37453,"is_reserved":false,"is_disabled":false,"rental_uris":{"android":"levelo://app?vid=9ec67a72-4b27-4726-b5bc-30782f712c4d","ios":"levelo://app?vid=9ec67a72-4b27-4726-b5bc-30782f712c4d"},"vehicle_type_id":"4","last_reported":1726909712,"current_range_meters":38000,"station_id":"","pricing_plan_id":"cebpf4jnsgd1na2vs0mg"},{"bike_id":"a5facacb-53d8-4132-831c-f8e98548aad9","system_id":"levelo_inurba_marseille","lat":43.305489,"lon":5.365609,"is_reserved":false,"is_disabled":false,"rental_uris":{"android":"levelo://app?vid=a5facacb-53d8-4132-831c-f8e98548aad9","ios":"levelo://app?vid=a5facacb-53d8-4132-831c-f8e98548aad9"},"vehicle_type_id":"4","last_reported":1726909712,"current_range_meters":31200,"station_id":"ce4bgs12rcd13ifvqcag","pricing_plan_id":"cebpf4jnsgd1na2vs0mg"},{"bike_id":"26dc596b-6f80-4a18-acc0-2be2c8ca11c0","system_id":"levelo_inurba_marseille","lat":43.27207,"lon":5.39188,"is_reserved":false,"is_disabled":false,"rental_uris":{"android":"levelo://app?vid=26dc596b-6f80-4a18-acc0-2be2c8ca11c0","ios":"levelo://app?vid=26dc596b-6f80-4a18-acc0-2be2c8ca11c0"},"vehicle_type_id":"4","last_reported":1726909712,"current_range_meters":39200,"station_id":"ce4bhhp2rcd13ifvqfm0","pricing_plan_id":"cebpf4jnsgd1na2vs0mg"},{"bike_id":"d65cbc32-3a83-4b2e-90d3-f60b7e66b84a","system_id":"levelo_inurba_marseille","lat":43.29554,"lon":5.42281,"is_reserved":false,"is_disabled":false,"rental_uris":{"android":"levelo://app?vid=d65cbc32-3a83-4b2e-90d3-f60b7e66b84a","ios":"levelo://app?vid=d65cbc32-3a83-4b2e-90d3-f60b7e66b84a"},"vehicle_type_id":"4","last_reported":1726909712,"current_range_meters":38000,"station_id":"ce4bhph2rcd13ifvqhdg","pricing_plan_id":"cebpf4jnsgd1na2vs0mg"},{"bike_id":"a2d61c29-2c60-4705-aa1d-113830ec0302","system_id":"levelo_inurba_marseille","lat":43.296204,"lon":5.376986,"is_reserved":false,"is_disabled":false,"rental_uris":{"android":"levelo://app?vid=a2d61c29-2c60-4705-aa1d-113830ec0302","ios":"levelo://app?vid=a2d61c29-2c60-4705-aa1d-113830ec0302"},"vehicle_type_id":"4","last_reported":1726909712,"current_range_meters":4400,"station_id":"ce4bgi92rcd13ifvqb90","pricing_plan_id":"cebpf4jnsgd1na2vs0mg"},{"bike_id":"ce3f4d41-5784-49d7-ad3b-b6ba37a3ddf9","system_id":"levelo_inurba_marseille","lat":43.269223,"lon":5.389194,"is_reserved":false,"is_disabled":false,"rental_uris":{"android":"levelo://app?vid=ce3f4d41-5784-49d7-ad3b-b6ba37a3ddf9","ios":"levelo://app?vid=ce3f4d41-5784-49d7-ad3b-b6ba37a3ddf9"},"vehicle_type_id":"4","last_reported":1726909712,"current_range_meters":35600,"station_id":"ce4bhip2rcd13ifvqft0","pricing_plan_id":"cebpf4jnsgd1na2vs0mg"},{"bike_id":"4f3d3e74-f1ba-413d-89e7-73f57504b479","system_id":"levelo_inurba_marseille","lat":43.28663,"lon":5.36345,"is_reserved":false,"is_disabled":false,"rental_uris":{"android":"levelo://app?vid=4f3d3e74-f1ba-413d-89e7-73f57504b479","ios":"levelo://app?vid=4f3d3e74-f1ba-413d-89e7-73f57504b479"},"vehicle_type_id":"4","last_reported":1726909712,"current_range_meters":28800,"station_id":"ce4bhah2rcd13ifvqej0","pricing_plan_id":"cebpf4jnsgd1na2vs0mg"},{"bike_id":"48a551fb-2db6-4046-ae28-b022de91d86e","system_id":"levelo_inurba_marseille","lat":43.29523,"lon":5.37492,"is_reserved":false,"is_disabled":false,"rental_uris":{"android":"levelo://app?vid=48a551fb-2db6-4046-ae28-b022de91d86e","ios":"levelo://app?vid=48a551fb-2db6-4046-ae28-b022de91d86e"},"vehicle_type_id":"4","last_reported":1726909712,"current_range_meters":39200,"station_id":"ce4bgkp2rcd13ifvqbmg","pricing_plan_id":"cebpf4jnsgd1na2vs0mg"},{"bike_id":"db48f0ee-51e8-47dc-8ad8-0a75c90cecea","system_id":"levelo_inurba_marseille","lat":43.2743,"lon":5.39407,"is_reserved":false,"is_disabled":false,"rental_uris":{"android":"levelo://app?vid=db48f0ee-51e8-47dc-8ad8-0a75c90cecea","ios":"levelo://app?vid=db48f0ee-51e8-47dc-8ad8-0a75c90cecea"},"vehicle_type_id":"4","last_reported":1726909712,"current_range_meters":38400,"station_id":"ce4bhdp2rcd13ifvqf20","pricing_plan_id":"cebpf4jnsgd1na2vs0mg"},{"bike_id":"1e1c92ea-4100-48a4-80e0-a529141b8530","system_id":"levelo_inurba_marseille","lat":43.30656,"lon":5.40079,"is_reserved":false,"is_disabled":false,"rental_uris":{"android":"levelo://app?vid=1e1c92ea-4100-48a4-80e0-a529141b8530","ios":"levelo://app?vid=1e1c92ea-4100-48a4-80e0-a529141b8530"},"vehicle_type_id":"4","last_reported":1726909712,"current_range_meters":23200,"station_id":"ce4bh112rcd13ifvqda0","pricing_plan_id":"cebpf4jnsgd1na2vs0mg"},{"bike_id":"81437a93-aba3-423a-96ab-d420c4e83f71","system_id":"levelo_inurba_marseille","lat":43.31761,"lon":5.39012,"is_reserved":false,"is_disabled":false,"rental_uris":{"android":"levelo://app?vid=81437a93-aba3-423a-96ab-d420c4e83f71","ios":"levelo://app?vid=81437a93-aba3-423a-96ab-d420c4e83f71"},"vehicle_type_id":"4","last_reported":1726909712,"current_range_meters":22800,"station_id":"ce4bhqp2rcd13ifvqhng","pricing_plan_id":"cebpf4jnsgd1na2vs0mg"},{"bike_id":"8af8c321-de1a-48b7-85ee-6b8f84590c25","system_id":"levelo_inurba_marseille","lat":43.27192,"lon":5.40987,"is_reserved":false,"is_disabled":false,"rental_uris":{"android":"levelo://app?vid=8af8c321-de1a-48b7-85ee-6b8f84590c25","ios":"levelo://app?vid=8af8c321-de1a-48b7-85ee-6b8f84590c25"},"vehicle_type_id":"4","last_reported":1726909712,"current_range_meters":36800,"station_id":"ce4bhl12rcd13ifvqgf0","pricing_plan_id":"cebpf4jnsgd1na2vs0mg"},{"bike_id":"dd1151ce-70ca-48f7-8c99-628bdadc1307","system_id":"levelo_inurba_marseille","lat":43.31704,"lon":5.37753,"is_reserved":false,"is_disabled":false,"rental_uris":{"android":"levelo://app?vid=dd1151ce-70ca-48f7-8c99-628bdadc1307","ios":"levelo://app?vid=dd1151ce-70ca-48f7-8c99-628bdadc1307"},"vehicle_type_id":"4","last_reported":1726909712,"current_range_meters":19600,"station_id":"ce4bgth2rcd13ifvqch0","pricing_plan_id":"cebpf4jnsgd1na2vs0mg"},{"bike_id":"7c41281a-b5c2-4204-8c8a-e7cda1244ca8","system_id":"levelo_inurba_marseille","lat":43.2871,"lon":5.37943,"is_reserved":false,"is_disabled":false,"rental_uris":{"android":"levelo://app?vid=7c41281a-b5c2-4204-8c8a-e7cda1244ca8","ios":"levelo://app?vid=7c41281a-b5c2-4204-8c8a-e7cda1244ca8"},"vehicle_type_id":"4","last_reported":1726909712,"current_range_meters":36800,"station_id":"ce4bh9p2rcd13ifvqec0","pricing_plan_id":"cebpf4jnsgd1na2vs0mg"},{"bike_id":"bf1dc1e6-3bd9-4825-a101-84a79780d290","system_id":"levelo_inurba_marseille","lat":43.2961,"lon":5.37706,"is_reserved":false,"is_disabled":false,"rental_uris":{"android":"levelo://app?vid=bf1dc1e6-3bd9-4825-a101-84a79780d290","ios":"levelo://app?vid=bf1dc1e6-3bd9-4825-a101-84a79780d290"},"vehicle_type_id":"4","last_reported":1726909712,"current_range_meters":27600,"station_id":"ce4bgrp2rcd13ifvqc9g","pricing_plan_id":"cebpf4jnsgd1na2vs0mg"},{"bike_id":"8360ed6d-2fc9-4744-b621-c76e82cc3b28","system_id":"levelo_inurba_marseille","lat":43.2985,"lon":5.36287,"is_reserved":false,"is_disabled":false,"rental_uris":{"android":"levelo://app?vid=8360ed6d-2fc9-4744-b621-c76e82cc3b28","ios":"levelo://app?vid=8360ed6d-2fc9-4744-b621-c76e82cc3b28"},"vehicle_type_id":"4","last_reported":1726909712,"current_range_meters":13600,"station_id":"ce4bgpp2rcd13ifvqc3g","pricing_plan_id":"cebpf4jnsgd1na2vs0mg"},{"bike_id":"4f6cd953-65f5-4d4f-a052-70118d864e1d","system_id":"levelo_inurba_marseille","lat":43.29897,"lon":5.43671,"is_reserved":false,"is_disabled":false,"rental_uris":{"android":"levelo://app?vid=4f6cd953-65f5-4d4f-a052-70118d864e1d","ios":"levelo://app?vid=4f6cd953-65f5-4d4f-a052-70118d864e1d"},"vehicle_type_id":"4","last_reported":1726909712,"current_range_meters":8800,"station_id":"ce4bhpp2rcd13ifvqhfg","pricing_plan_id":"cebpf4jnsgd1na2vs0mg"},{"bike_id":"559fbaf9-3144-4b9a-af53-ba8c83483c4e","system_id":"levelo_inurba_marseille","lat":43.29008,"lon":5.35613,"is_reserved":false,"is_disabled":false,"rental_uris":{"android":"levelo://app?vid=559fbaf9-3144-4b9a-af53-ba8c83483c4e","ios":"levelo://app?vid=559fbaf9-3144-4b9a-af53-ba8c83483c4e"},"vehicle_type_id":"4","last_reported":1726909712,"current_range_meters":26800,"station_id":"ce4bhb92rcd13ifvqen0","pricing_plan_id":"cebpf4jnsgd1na2vs0mg"},{"bike_id":"96b36058-63fe-47d2-8076-60d5de0dc330","system_id":"levelo_inurba_marseille","lat":43.337444,"lon":5.374475,"is_reserved":false,"is_disabled":false,"rental_uris":{"android":"levelo://app?vid=96b36058-63fe-47d2-8076-60d5de0dc330","ios":"levelo://app?vid=96b36058-63fe-47d2-8076-60d5de0dc330"},"vehicle_type_id":"4","last_reported":1726909712,"current_range_meters":38400,"station_id":"ce4bh0h2rcd13ifvqd50","pricing_plan_id":"cebpf4jnsgd1na2vs0mg"},{"bike_id":"ade059c3-fdac-479f-aaf2-ec3ec14f57c1","system_id":"levelo_inurba_marseille","lat":43.31888,"lon":5.40735,"is_reserved":false,"is_disabled":false,"rental_uris":{"android":"levelo://app?vid=ade059c3-fdac-479f-aaf2-ec3ec14f57c1","ios":"levelo://app?vid=ade059c3-fdac-479f-aaf2-ec3ec14f57c1"},"vehicle_type_id":"4","last_reported":1726909712,"current_range_meters":11600,"station_id":"ce4bhq12rcd13ifvqhig","pricing_plan_id":"cebpf4jnsgd1na2vs0mg"},{"bike_id":"f1395b71-6930-464d-92fe-86108776e9a1","system_id":"levelo_inurba_marseille","lat":43.27204,"lon":5.39179,"is_reserved":false,"is_disabled":false,"rental_uris":{"android":"levelo://app?vid=f1395b71-6930-464d-92fe-86108776e9a1","ios":"levelo://app?vid=f1395b71-6930-464d-92fe-86108776e9a1"},"vehicle_type_id":"4","last_reported":1726909712,"current_range_meters":17200,"station_id":"ce4bhhp2rcd13ifvqfm0","pricing_plan_id":"cebpf4jnsgd1na2vs0mg"},{"bike_id":"b77e7349-7681-4fe6-8776-a07294d279bc","system_id":"levelo_inurba_marseille","lat":43.29299,"lon":5.37455,"is_reserved":false,"is_disabled":false,"rental_uris":{"android":"levelo://app?vid=b77e7349-7681-4fe6-8776-a07294d279bc","ios":"levelo://app?vid=b77e7349-7681-4fe6-8776-a07294d279bc"},"vehicle_type_id":"4","last_reported":1726909712,"current_range_meters":24400,"station_id":"ce4bgi12rcd13ifvqb70","pricing_plan_id":"cebpf4jnsgd1na2vs0mg"},{"bike_id":"54c9d1f1-f9fb-4d4e-8185-6fb646890270","system_id":"levelo_inurba_marseille","lat":43.3128,"lon":5.40171,"is_reserved":false,"is_disabled":false,"rental_uris":{"android":"levelo://app?vid=54c9d1f1-f9fb-4d4e-8185-6fb646890270","ios":"levelo://app?vid=54c9d1f1-f9fb-4d4e-8185-6fb646890270"},"vehicle_type_id":"4","last_reported":1726909712,"current_range_meters":8400,"station_id":"ce4bh092rcd13ifvqd30","pricing_plan_id":"cebpf4jnsgd1na2vs0mg"},{"bike_id":"c919cd9a-c9fb-4572-ac0c-97f80a66c128","system_id":"levelo_inurba_marseille","lat":43.22928,"lon":5.35376,"is_reserved":false,"is_disabled":false,"rental_uris":{"android":"levelo://app?vid=c919cd9a-c9fb-4572-ac0c-97f80a66c128","ios":"levelo://app?vid=c919cd9a-c9fb-4572-ac0c-97f80a66c128"},"vehicle_type_id":"4","last_reported":1726909712,"current_range_meters":6800,"station_id":"cpo3532slgdg3j2ikp40","pricing_plan_id":"cebpf4jnsgd1na2vs0mg"},{"bike_id":"f734fa96-5742-4fdc-b8b9-11accd9a3ab0","system_id":"levelo_inurba_marseille","lat":43.28268,"lon":5.35066,"is_reserved":false,"is_disabled":false,"rental_uris":{"android":"levelo://app?vid=f734fa96-5742-4fdc-b8b9-11accd9a3ab0","ios":"levelo://app?vid=f734fa96-5742-4fdc-b8b9-11accd9a3ab0"},"vehicle_type_id":"4","last_reported":1726909712,"current_range_meters":18000,"station_id":"ce4bhbp2rcd13ifvqerg","pricing_plan_id":"cebpf4jnsgd1na2vs0mg"},{"bike_id":"284f3c47-c269-4f04-a9b8-bd27a8c13c07","system_id":"levelo_inurba_marseille","lat":43.26493,"lon":5.39545,"is_reserved":false,"is_disabled":false,"rental_uris":{"android":"levelo://app?vid=284f3c47-c269-4f04-a9b8-bd27a8c13c07","ios":"levelo://app?vid=284f3c47-c269-4f04-a9b8-bd27a8c13c07"},"vehicle_type_id":"4","last_reported":1726909712,"current_range_meters":38800,"station_id":"ce4bhi12rcd13ifvqfq0","pricing_plan_id":"cebpf4jnsgd1na2vs0mg"},{"bike_id":"5bc67a66-8cdc-489c-aaa4-9b424d2cc160","system_id":"levelo_inurba_marseille","lat":43.27214,"lon":5.39182,"is_reserved":false,"is_disabled":false,"rental_uris":{"android":"levelo://app?vid=5bc67a66-8cdc-489c-aaa4-9b424d2cc160","ios":"levelo://app?vid=5bc67a66-8cdc-489c-aaa4-9b424d2cc160"},"vehicle_type_id":"4","last_reported":1726909712,"current_range_meters":20000,"station_id":"ce4bhhp2rcd13ifvqfm0","pricing_plan_id":"cebpf4jnsgd1na2vs0mg"},{"bike_id":"5a2da216-d42c-41d5-b580-09904f3a8906","system_id":"levelo_inurba_marseille","lat":43.24075,"lon":5.37761,"is_reserved":false,"is_disabled":false,"rental_uris":{"android":"levelo://app?vid=5a2da216-d42c-41d5-b580-09904f3a8906","ios":"levelo://app?vid=5a2da216-d42c-41d5-b580-09904f3a8906"},"vehicle_type_id":"4","last_reported":1726909712,"current_range_meters":27600,"station_id":"ce4bhnp2rcd13ifvqgvg","pricing_plan_id":"cebpf4jnsgd1na2vs0mg"},{"bike_id":"ce38387f-a874-4c18-89e8-601b2a49e470","system_id":"levelo_inurba_marseille","lat":43.29225,"lon":5.36067,"is_reserved":false,"is_disabled":false,"rental_uris":{"android":"levelo://app?vid=ce38387f-a874-4c18-89e8-601b2a49e470","ios":"levelo://app?vid=ce38387f-a874-4c18-89e8-601b2a49e470"},"vehicle_type_id":"4","last_reported":1726909712,"current_range_meters":30000,"station_id":"ce4bhbh2rcd13ifvqeqg","pricing_plan_id":"cebpf4jnsgd1na2vs0mg"},{"bike_id":"58014cc6-4f39-4119-a8a0-cdc0e2507820","system_id":"levelo_inurba_marseille","lat":43.32285,"lon":5.38276,"is_reserved":false,"is_disabled":false,"rental_uris":{"android":"levelo://app?vid=58014cc6-4f39-4119-a8a0-cdc0e2507820","ios":"levelo://app?vid=58014cc6-4f39-4119-a8a0-cdc0e2507820"},"vehicle_type_id":"4","last_reported":1726909712,"current_range_meters":39200,"station_id":"ce4bhr12rcd13ifvqhqg","pricing_plan_id":"cebpf4jnsgd1na2vs0mg"},{"bike_id":"99eeafe6-366f-429a-b8f8-8a504a89203b","system_id":"levelo_inurba_marseille","lat":43.28502,"lon":5.35596,"is_reserved":false,"is_disabled":false,"rental_uris":{"android":"levelo://app?vid=99eeafe6-366f-429a-b8f8-8a504a89203b","ios":"levelo://app?vid=99eeafe6-366f-429a-b8f8-8a504a89203b"},"vehicle_type_id":"4","last_reported":1726909712,"current_range_meters":33200,"station_id":"","pricing_plan_id":"cebpf4jnsgd1na2vs0mg"},{"bike_id":"56fe06f8-953a-42fb-a92d-be52d26a7855","system_id":"levelo_inurba_marseille","lat":43.29007,"lon":5.35611,"is_reserved":false,"is_disabled":false,"rental_uris":{"android":"levelo://app?vid=56fe06f8-953a-42fb-a92d-be52d26a7855","ios":"levelo://app?vid=56fe06f8-953a-42fb-a92d-be52d26a7855"},"vehicle_type_id":"4","last_reported":1726909712,"current_range_meters":15200,"station_id":"ce4bhb92rcd13ifvqen0","pricing_plan_id":"cebpf4jnsgd1na2vs0mg"},{"bike_id":"29058ff5-4d24-4c57-9c80-3c616b905bac","system_id":"levelo_inurba_marseille","lat":43.29547,"lon":5.42282,"is_reserved":false,"is_disabled":false,"rental_uris":{"android":"levelo://app?vid=29058ff5-4d24-4c57-9c80-3c616b905bac","ios":"levelo://app?vid=29058ff5-4d24-4c57-9c80-3c616b905bac"},"vehicle_type_id":"4","last_reported":1726909712,"current_range_meters":38000,"station_id":"ce4bhph2rcd13ifvqhdg","pricing_plan_id":"cebpf4jnsgd1na2vs0mg"},{"bike_id":"e126a63b-7f82-43ed-ba09-1eb7c90a032e","system_id":"levelo_inurba_marseille","lat":43.31703,"lon":5.37769,"is_reserved":false,"is_disabled":false,"rental_uris":{"android":"levelo://app?vid=e126a63b-7f82-43ed-ba09-1eb7c90a032e","ios":"levelo://app?vid=e126a63b-7f82-43ed-ba09-1eb7c90a032e"},"vehicle_type_id":"4","last_reported":1726909712,"current_range_meters":14400,"station_id":"ce4bgth2rcd13ifvqch0","pricing_plan_id":"cebpf4jnsgd1na2vs0mg"},{"bike_id":"a8f42b00-253d-47ad-a605-1725bcde5b9c","system_id":"levelo_inurba_marseille","lat":43.26684,"lon":5.38262,"is_reserved":false,"is_disabled":false,"rental_uris":{"android":"levelo://app?vid=a8f42b00-253d-47ad-a605-1725bcde5b9c","ios":"levelo://app?vid=a8f42b00-253d-47ad-a605-1725bcde5b9c"},"vehicle_type_id":"4","last_reported":1726909712,"current_range_meters":28000,"station_id":"ce4bhg92rcd13ifvqf90","pricing_plan_id":"cebpf4jnsgd1na2vs0mg"},{"bike_id":"a689988e-b999-48c3-9d40-21418840ab09","system_id":"levelo_inurba_marseille","lat":43.3015,"lon":5.38074,"is_reserved":false,"is_disabled":false,"rental_uris":{"android":"levelo://app?vid=a689988e-b999-48c3-9d40-21418840ab09","ios":"levelo://app?vid=a689988e-b999-48c3-9d40-21418840ab09"},"vehicle_type_id":"4","last_reported":1726909712,"current_range_meters":15200,"station_id":"ce4bgjp2rcd13ifvqbh0","pricing_plan_id":"cebpf4jnsgd1na2vs0mg"},{"bike_id":"bce83964-771d-421d-a795-c2b376c5b9dc","system_id":"levelo_inurba_marseille","lat":43.23189,"lon":5.35542,"is_reserved":false,"is_disabled":false,"rental_uris":{"android":"levelo://app?vid=bce83964-771d-421d-a795-c2b376c5b9dc","ios":"levelo://app?vid=bce83964-771d-421d-a795-c2b376c5b9dc"},"vehicle_type_id":"4","last_reported":1726909712,"current_range_meters":18000,"station_id":"ce4bhu92rcd13ifvqi70","pricing_plan_id":"cebpf4jnsgd1na2vs0mg"},{"bike_id":"a959b33f-c829-4241-9caf-4a3f3ccca013","system_id":"levelo_inurba_marseille","lat":43.296631,"lon":5.381318,"is_reserved":false,"is_disabled":false,"rental_uris":{"android":"levelo://app?vid=a959b33f-c829-4241-9caf-4a3f3ccca013","ios":"levelo://app?vid=a959b33f-c829-4241-9caf-4a3f3ccca013"},"vehicle_type_id":"4","last_reported":1726909712,"current_range_meters":25600,"station_id":"ce4bgl12rcd13ifvqbo0","pricing_plan_id":"cebpf4jnsgd1na2vs0mg"},{"bike_id":"f90a267b-7bda-4dfc-a104-d10e13a82276","system_id":"levelo_inurba_marseille","lat":43.24078,"lon":5.37759,"is_reserved":false,"is_disabled":false,"rental_uris":{"android":"levelo://app?vid=f90a267b-7bda-4dfc-a104-d10e13a82276","ios":"levelo://app?vid=f90a267b-7bda-4dfc-a104-d10e13a82276"},"vehicle_type_id":"4","last_reported":1726909712,"current_range_meters":3200,"station_id":"ce4bhnp2rcd13ifvqgvg","pricing_plan_id":"cebpf4jnsgd1na2vs0mg"},{"bike_id":"33bbb1ea-089a-4bb4-9093-6dfbee50a6f1","system_id":"levelo_inurba_marseille","lat":43.296173,"lon":5.371538,"is_reserved":false,"is_disabled":false,"rental_uris":{"android":"levelo://app?vid=33bbb1ea-089a-4bb4-9093-6dfbee50a6f1","ios":"levelo://app?vid=33bbb1ea-089a-4bb4-9093-6dfbee50a6f1"},"vehicle_type_id":"4","last_reported":1726909712,"current_range_meters":28400,"station_id":"ce4bgnh2rcd13ifvqc0g","pricing_plan_id":"cebpf4jnsgd1na2vs0mg"},{"bike_id":"9418d43d-dce8-4f9a-89f8-74e31cd7355a","system_id":"levelo_inurba_marseille","lat":43.30328,"lon":5.40444,"is_reserved":false,"is_disabled":false,"rental_uris":{"android":"levelo://app?vid=9418d43d-dce8-4f9a-89f8-74e31cd7355a","ios":"levelo://app?vid=9418d43d-dce8-4f9a-89f8-74e31cd7355a"},"vehicle_type_id":"4","last_reported":1726909712,"current_range_meters":24400,"station_id":"ce4bh012rcd13ifvqd10","pricing_plan_id":"cebpf4jnsgd1na2vs0mg"},{"bike_id":"ef24a03b-af1b-4494-b785-6b93b60fc9d5","system_id":"levelo_inurba_marseille","lat":43.29272,"lon":5.3683,"is_reserved":false,"is_disabled":false,"rental_uris":{"android":"levelo://app?vid=ef24a03b-af1b-4494-b785-6b93b60fc9d5","ios":"levelo://app?vid=ef24a03b-af1b-4494-b785-6b93b60fc9d5"},"vehicle_type_id":"4","last_reported":1726909712,"current_range_meters":31200,"station_id":"ce4bhbp2rcd13ifvqesg","pricing_plan_id":"cebpf4jnsgd1na2vs0mg"},{"bike_id":"da4508dc-41c0-4202-9324-2a4c11586e5c","system_id":"levelo_inurba_marseille","lat":43.251147,"lon":5.403246,"is_reserved":false,"is_disabled":false,"rental_uris":{"android":"levelo://app?vid=da4508dc-41c0-4202-9324-2a4c11586e5c","ios":"levelo://app?vid=da4508dc-41c0-4202-9324-2a4c11586e5c"},"vehicle_type_id":"4","last_reported":1726909712,"current_range_meters":31200,"station_id":"ce4bhu92rcd13ifvqi70","pricing_plan_id":"cebpf4jnsgd1na2vs0mg"},{"bike_id":"1fde404c-9cf2-4958-aae0-8663260fee10","system_id":"levelo_inurba_marseille","lat":43.33607,"lon":5.41007,"is_reserved":false,"is_disabled":false,"rental_uris":{"android":"levelo://app?vid=1fde404c-9cf2-4958-aae0-8663260fee10","ios":"levelo://app?vid=1fde404c-9cf2-4958-aae0-8663260fee10"},"vehicle_type_id":"4","last_reported":1726909712,"current_range_meters":39200,"station_id":"ce4bhqh2rcd13ifvqhmg","pricing_plan_id":"cebpf4jnsgd1na2vs0mg"},{"bike_id":"773ede1d-a43a-4288-ba6f-24b7c3d922dc","system_id":"levelo_inurba_marseille","lat":43.28619,"lon":5.35103,"is_reserved":false,"is_disabled":false,"rental_uris":{"android":"levelo://app?vid=773ede1d-a43a-4288-ba6f-24b7c3d922dc","ios":"levelo://app?vid=773ede1d-a43a-4288-ba6f-24b7c3d922dc"},"vehicle_type_id":"4","last_reported":1726909712,"current_range_meters":17600,"station_id":"ce4bhch2rcd13ifvqeug","pricing_plan_id":"cebpf4jnsgd1na2vs0mg"},{"bike_id":"e9b7c1b6-92e4-4190-860d-64b1dd953ffb","system_id":"levelo_inurba_marseille","lat":43.30945,"lon":5.39039,"is_reserved":false,"is_disabled":false,"rental_uris":{"android":"levelo://app?vid=e9b7c1b6-92e4-4190-860d-64b1dd953ffb","ios":"levelo://app?vid=e9b7c1b6-92e4-4190-860d-64b1dd953ffb"},"vehicle_type_id":"4","last_reported":1726909712,"current_range_meters":19600,"station_id":"ce4bgup2rcd13ifvqco0","pricing_plan_id":"cebpf4jnsgd1na2vs0mg"},{"bike_id":"9409eb56-e002-4986-b690-d4464056aefa","system_id":"levelo_inurba_marseille","lat":43.27309,"lon":5.39104,"is_reserved":false,"is_disabled":false,"rental_uris":{"android":"levelo://app?vid=9409eb56-e002-4986-b690-d4464056aefa","ios":"levelo://app?vid=9409eb56-e002-4986-b690-d4464056aefa"},"vehicle_type_id":"4","last_reported":1726909712,"current_range_meters":6400,"station_id":"ce4bhgp2rcd13ifvqfe0","pricing_plan_id":"cebpf4jnsgd1na2vs0mg"},{"bike_id":"80b6baeb-ba54-4307-a6e1-6281926ae38c","system_id":"levelo_inurba_marseille","lat":43.23191,"lon":5.39976,"is_reserved":false,"is_disabled":false,"rental_uris":{"android":"levelo://app?vid=80b6baeb-ba54-4307-a6e1-6281926ae38c","ios":"levelo://app?vid=80b6baeb-ba54-4307-a6e1-6281926ae38c"},"vehicle_type_id":"4","last_reported":1726909712,"current_range_meters":37600,"station_id":"ce4bhn12rcd13ifvqgqg","pricing_plan_id":"cebpf4jnsgd1na2vs0mg"},{"bike_id":"fa2e946d-01fe-4bb4-a2b0-55af60a0bcec","system_id":"levelo_inurba_marseille","lat":43.33728,"lon":5.39181,"is_reserved":false,"is_disabled":false,"rental_uris":{"android":"levelo://app?vid=fa2e946d-01fe-4bb4-a2b0-55af60a0bcec","ios":"levelo://app?vid=fa2e946d-01fe-4bb4-a2b0-55af60a0bcec"},"vehicle_type_id":"4","last_reported":1726909712,"current_range_meters":38000,"station_id":"ce4bhr92rcd13ifvqhsg","pricing_plan_id":"cebpf4jnsgd1na2vs0mg"},{"bike_id":"ee615e7a-964d-4640-bac8-7221d523fdb3","system_id":"levelo_inurba_marseille","lat":43.24649,"lon":5.38889,"is_reserved":false,"is_disabled":false,"rental_uris":{"android":"levelo://app?vid=ee615e7a-964d-4640-bac8-7221d523fdb3","ios":"levelo://app?vid=ee615e7a-964d-4640-bac8-7221d523fdb3"},"vehicle_type_id":"4","last_reported":1726909712,"current_range_meters":39200,"station_id":"ce4bhg12rcd13ifvqf60","pricing_plan_id":"cebpf4jnsgd1na2vs0mg"},{"bike_id":"14ca6b25-0f6d-4629-9d68-fff946f78086","system_id":"levelo_inurba_marseille","lat":43.29005,"lon":5.3561,"is_reserved":false,"is_disabled":false,"rental_uris":{"android":"levelo://app?vid=14ca6b25-0f6d-4629-9d68-fff946f78086","ios":"levelo://app?vid=14ca6b25-0f6d-4629-9d68-fff946f78086"},"vehicle_type_id":"4","last_reported":1726909712,"current_range_meters":13600,"station_id":"ce4bhb92rcd13ifvqen0","pricing_plan_id":"cebpf4jnsgd1na2vs0mg"},{"bike_id":"96f9a91d-428e-493e-b8c0-fcd22d3c14f4","system_id":"levelo_inurba_marseille","lat":43.23188,"lon":5.39979,"is_reserved":false,"is_disabled":false,"rental_uris":{"android":"levelo://app?vid=96f9a91d-428e-493e-b8c0-fcd22d3c14f4","ios":"levelo://app?vid=96f9a91d-428e-493e-b8c0-fcd22d3c14f4"},"vehicle_type_id":"4","last_reported":1726909712,"current_range_meters":38800,"station_id":"ce4bhn12rcd13ifvqgqg","pricing_plan_id":"cebpf4jnsgd1na2vs0mg"},{"bike_id":"6b92d5db-9190-4131-a58b-f1428871f0a3","system_id":"levelo_inurba_marseille","lat":43.2705,"lon":5.40266,"is_reserved":false,"is_disabled":false,"rental_uris":{"android":"levelo://app?vid=6b92d5db-9190-4131-a58b-f1428871f0a3","ios":"levelo://app?vid=6b92d5db-9190-4131-a58b-f1428871f0a3"},"vehicle_type_id":"4","last_reported":1726909712,"current_range_meters":26000,"station_id":"ce4bhk92rcd13ifvqgc0","pricing_plan_id":"cebpf4jnsgd1na2vs0mg"},{"bike_id":"b9b686a7-3257-4d0b-8a82-75ee0d22ab68","system_id":"levelo_inurba_marseille","lat":43.29583,"lon":5.36738,"is_reserved":false,"is_disabled":false,"rental_uris":{"android":"levelo://app?vid=b9b686a7-3257-4d0b-8a82-75ee0d22ab68","ios":"levelo://app?vid=b9b686a7-3257-4d0b-8a82-75ee0d22ab68"},"vehicle_type_id":"4","last_reported":1726909712,"current_range_meters":39200,"station_id":"ce4bgph2rcd13ifvqc2g","pricing_plan_id":"cebpf4jnsgd1na2vs0mg"},{"bike_id":"8a82df45-865b-4da1-95c1-9fdaeebf84f9","system_id":"levelo_inurba_marseille","lat":43.31692,"lon":5.40456,"is_reserved":false,"is_disabled":false,"rental_uris":{"android":"levelo://app?vid=8a82df45-865b-4da1-95c1-9fdaeebf84f9","ios":"levelo://app?vid=8a82df45-865b-4da1-95c1-9fdaeebf84f9"},"vehicle_type_id":"4","last_reported":1726909712,"current_range_meters":38400,"station_id":"ce4bh012rcd13ifvqd00","pricing_plan_id":"cebpf4jnsgd1na2vs0mg"},