{"last_updated":1756246188,"ttl":60,"version":"2.2","data":{"bikes":[{"bike_id":"932266f1-6d81-484b-bfc3-906276f16aea","system_id":"levelo_inurba_marseille","lat":43.33145,"lon":5.39572,"is_reserved":false,"is_disabled":false,"rental_uris":{"android":"levelo://app?vid=932266f1-6d81-484b-bfc3-906276f16aea","ios":"levelo://app?vid=932266f1-6d81-484b-bfc3-906276f16aea"},"vehicle_type_id":"4","last_reported":1756246189,"current_range_meters":2800,"station_id":"","pricing_plan_id":"cebpf4jnsgd1na2vs0mg"},{"bike_id":"1a41c80e-6246-4b13-9943-84f5726bfd1b","system_id":"levelo_inurba_marseille","lat":43.2953,"lon":5.38547,"is_reserved":false,"is_disabled":false,"rental_uris":{"android":"levelo://app?vid=1a41c80e-6246-4b13-9943-84f5726bfd1b","ios":"levelo://app?vid=1a41c80e-6246-4b13-9943-84f5726bfd1b"},"vehicle_type_id":"4","last_reported":1756246189,"current_range_meters":3200,"station_id":"ce4bgih2rcd13ifvqba0","pricing_plan_id":"cebpf4jnsgd1na2vs0mg"},{"bike_id":"41b1d83d-450d-4f85-a248-16582d62ea04","system_id":"levelo_inurba_marseille","lat":43.31527,"lon":5.38034,"is_reserved":false,"is_disabled":false,"rental_uris":{"android":"levelo://app?vid=41b1d83d-450d-4f85-a248-16582d62ea04","ios":"levelo://app?vid=41b1d83d-450d-4f85-a248-16582d62ea04"},"vehicle_type_id":"4","last_reported":1756246189,"current_range_meters":2800,"station_id":"ce4bhsp2rcd13ifvqi50","pricing_plan_id":"cebpf4jnsgd1na2vs0mg"},{"bike_id":"36ba343a-32f4-4976-982e-658e15b068b5","system_id":"levelo_inurba_marseille","lat":43.30128,"lon":5.39855,"is_reserved":false,"is_disabled":false,"rental_uris":{"android":"levelo://app?vid=36ba343a-32f4-4976-982e-658e15b068b5","ios":"levelo://app?vid=36ba343a-32f4-4976-982e-658e15b068b5"},"vehicle_type_id":"4","last_reported":1756246189,"current_range_meters":3600,"station_id":"ce4bh0h2rcd13ifvqd40","pricing_plan_id":"cebpf4jnsgd1na2vs0mg"},{"bike_id":"c4ccc10f-8ccd-44be-a00a-f6ebdc6ec159","system_id":"levelo_inurba_marseille","lat":43.30411,"lon":5.43442,"is_reserved":false,"is_disabled":false,"rental_uris":{"android":"levelo://app?vid=c4ccc10f-8ccd-44be-a00a-f6ebdc6ec159","ios":"levelo://app?vid=c4ccc10f-8ccd-44be-a00a-f6ebdc6ec159"},"vehicle_type_id":"4","last_reported":1756246189,"current_range_meters":3600,"station_id":"","pricing_plan_id":"cebpf4jnsgd1na2vs0mg"},{"bike_id":"0a9e3777-f07f-4c43-868d-4cb38bccdca6","system_id":"levelo_inurba_marseille","lat":43.30134,"lon":5.39879,"is_reserved":false,"is_disabled":false,"rental_uris":{"android":"levelo://app?vid=0a9e3777-f07f-4c43-868d-4cb38bccdca6","ios":"levelo://app?vid=0a9e3777-f07f-4c43-868d-4cb38bccdca6"},"vehicle_type_id":"4","last_reported":1756246189,"current_range_meters":3600,"station_id":"ce4bh0h2rcd13ifvqd40","pricing_plan_id":"cebpf4jnsgd1na2vs0mg"},{"bike_id":"fb0ecd7c-2c0f-42f1-9e73-9448c9893367","system_id":"levelo_inurba_marseille","lat":43.26478,"lon":5.37064,"is_reserved":false,"is_disabled":false,"rental_uris":{"android":"levelo://app?vid=fb0ecd7c-2c0f-42f1-9e73-9448c9893367","ios":"levelo://app?vid=fb0ecd7c-2c0f-42f1-9e73-9448c9893367"},"vehicle_type_id":"4","last_reported":1756246189,"current_range_meters":3600,"station_id":"","pricing_plan_id":"cebpf4jnsgd1na2vs0mg"},{"bike_id":"086d1e21-a403-480f-8a4a-942b4fcc8b9a","system_id":"levelo_inurba_marseille","lat":43.27989,"lon":5.39842,"is_reserved":false,"is_disabled":false,"rental_uris":{"android":"levelo://app?vid=086d1e21-a403-480f-8a4a-942b4fcc8b9a","ios":"levelo://app?vid=086d1e21-a403-480f-8a4a-942b4fcc8b9a"},"vehicle_type_id":"4","last_reported":1756246189,"current_range_meters":4000,"station_id":"ce4bho92rcd13ifvqh4g","pricing_plan_id":"cebpf4jnsgd1na2vs0mg"},{"bike_id":"a43d0ca1-dfef-46fc-be59-75dc6eaf182a","system_id":"levelo_inurba_marseille","lat":43.2968,"lon":5.3731,"is_reserved":false,"is_disabled":false,"rental_uris":{"android":"levelo://app?vid=a43d0ca1-dfef-46fc-be59-75dc6eaf182a","ios":"levelo://app?vid=a43d0ca1-dfef-46fc-be59-75dc6eaf182a"},"vehicle_type_id":"4","last_reported":1756246189,"current_range_meters":4000,"station_id":"ce4bgk12rcd13ifvqbj0","pricing_plan_id":"cebpf4jnsgd1na2vs0mg"},{"bike_id":"3f4893c0-430a-46ef-98a5-6db0d627e6f6","system_id":"levelo_inurba_marseille","lat":43.2756,"lon":5.38428,"is_reserved":false,"is_disabled":false,"rental_uris":{"android":"levelo://app?vid=3f4893c0-430a-46ef-98a5-6db0d627e6f6","ios":"levelo://app?vid=3f4893c0-430a-46ef-98a5-6db0d627e6f6"},"vehicle_type_id":"4","last_reported":1756246189,"current_range_meters":4400,"station_id":"ce4bhh92rcd13ifvqfi0","pricing_plan_id":"cebpf4jnsgd1na2vs0mg"},{"bike_id":"69dea794-ff41-4ff0-9312-973f237cfcb2","system_id":"levelo_inurba_marseille","lat":43.21205,"lon":5.35086,"is_reserved":false,"is_disabled":false,"rental_uris":{"android":"levelo://app?vid=69dea794-ff41-4ff0-9312-973f237cfcb2","ios":"levelo://app?vid=69dea794-ff41-4ff0-9312-973f237cfcb2"},"vehicle_type_id":"4","last_reported":1756246189,"current_range_meters":4800,"station_id":"","pricing_plan_id":"cebpf4jnsgd1na2vs0mg"},{"bike_id":"bdf85e08-5676-48b0-8060-453cc8bae2cf","system_id":"levelo_inurba_marseille","lat":43.29194,"lon":5.35794,"is_reserved":false,"is_disabled":true,"rental_uris":{"android":"levelo://app?vid=bdf85e08-5676-48b0-8060-453cc8bae2cf","ios":"levelo://app?vid=bdf85e08-5676-48b0-8060-453cc8bae2cf"},"vehicle_type_id":"4","last_reported":1756246189,"current_range_meters":5600,"station_id":"ce4bhb12rcd13ifvqel0","pricing_plan_id":"cebpf4jnsgd1na2vs0mg"},{"bike_id":"c9a1e2f5-9ea7-4dc5-af99-4282e671d3b5","system_id":"levelo_inurba_marseille","lat":43.2619,"lon":5.37458,"is_reserved":false,"is_disabled":true,"rental_uris":{"android":"levelo://app?vid=c9a1e2f5-9ea7-4dc5-af99-4282e671d3b5","ios":"levelo://app?vid=c9a1e2f5-9ea7-4dc5-af99-4282e671d3b5"},"vehicle_type_id":"4","last_reported":1756246189,"current_range_meters":5600,"station_id":"ce4bhgp2rcd13ifvqfc0","pricing_plan_id":"cebpf4jnsgd1na2vs0mg"},{"bike_id":"ae25c717-fd11-43bd-b9c4-2bf7ebd0beeb","system_id":"levelo_inurba_marseille","lat":43.28703,"lon":5.39988,"is_reserved":false,"is_disabled":false,"rental_uris":{"android":"levelo://app?vid=ae25c717-fd11-43bd-b9c4-2bf7ebd0beeb","ios":"levelo://app?vid=ae25c717-fd11-43bd-b9c4-2bf7ebd0beeb"},"vehicle_type_id":"4","last_reported":1756246189,"current_range_meters":5600,"station_id":"ce4bho92rcd13ifvqh3g","pricing_plan_id":"cebpf4jnsgd1na2vs0mg"},{"bike_id":"43a14931-dcd0-4ae0-861f-dece37fa7f4d","system_id":"levelo_inurba_marseille","lat":43.32998,"lon":5.39648,"is_reserved":false,"is_disabled":false,"rental_uris":{"android":"levelo://app?vid=43a14931-dcd0-4ae0-861f-dece37fa7f4d","ios":"levelo://app?vid=43a14931-dcd0-4ae0-861f-dece37fa7f4d"},"vehicle_type_id":"4","last_reported":1756246189,"current_range_meters":6400,"station_id":"","pricing_plan_id":"cebpf4jnsgd1na2vs0mg"},{"bike_id":"d902b193-c032-4f07-9f41-2b1838121c24","system_id":"levelo_inurba_marseille","lat":43.28082,"lon":5.39663,"is_reserved":false,"is_disabled":true,"rental_uris":{"android":"levelo://app?vid=d902b193-c032-4f07-9f41-2b1838121c24","ios":"levelo://app?vid=d902b193-c032-4f07-9f41-2b1838121c24"},"vehicle_type_id":"4","last_reported":1756246189,"current_range_meters":6000,"station_id":"ce4bho12rcd13ifvqh2g","pricing_plan_id":"cebpf4jnsgd1na2vs0mg"},{"bike_id":"7b818e63-e4fb-4473-b335-44ef19f5bb79","system_id":"levelo_inurba_marseille","lat":43.28267,"lon":5.35079,"is_reserved":false,"is_disabled":true,"rental_uris":{"android":"levelo://app?vid=7b818e63-e4fb-4473-b335-44ef19f5bb79","ios":"levelo://app?vid=7b818e63-e4fb-4473-b335-44ef19f5bb79"},"vehicle_type_id":"4","last_reported":1756246189,"current_range_meters":6000,"station_id":"ce4bhbp2rcd13ifvqerg","pricing_plan_id":"cebpf4jnsgd1na2vs0mg"},{"bike_id":"910a2fe9-c763-44c1-8de4-85789a7f1606","system_id":"levelo_inurba_marseille","lat":43.27427,"lon":5.3941,"is_reserved":false,"is_disabled":true,"rental_uris":{"android":"levelo://app?vid=910a2fe9-c763-44c1-8de4-85789a7f1606","ios":"levelo://app?vid=910a2fe9-c763-44c1-8de4-85789a7f1606"},"vehicle_type_id":"4","last_reported":1756246189,"current_range_meters":6400,"station_id":"ce4bhdp2rcd13ifvqf20","pricing_plan_id":"cebpf4jnsgd1na2vs0mg"},{"bike_id":"f6bd5b86-eb54-487c-8a4e-3da908b177ef","system_id":"levelo_inurba_marseille","lat":43.29568,"lon":5.37527,"is_reserved":false,"is_disabled":true,"rental_uris":{"android":"levelo://app?vid=f6bd5b86-eb54-487c-8a4e-3da908b177ef","ios":"levelo://app?vid=f6bd5b86-eb54-487c-8a4e-3da908b177ef"},"vehicle_type_id":"4","last_reported":1756246189,"current_range_meters":6400,"station_id":"","pricing_plan_id":"cebpf4jnsgd1na2vs0mg"},{"bike_id":"ca299415-82eb-47c8-8c02-e385c2813bc5","system_id":"levelo_inurba_marseille","lat":43.28567,"lon":5.39507,"is_reserved":false,"is_disabled":false,"rental_uris":{"android":"levelo://app?vid=ca299415-82eb-47c8-8c02-e385c2813bc5","ios":"levelo://app?vid=ca299415-82eb-47c8-8c02-e385c2813bc5"},"vehicle_type_id":"4","last_reported":1756246189,"current_range_meters":6400,"station_id":"ce4bh292rcd13ifvqdg0","pricing_plan_id":"cebpf4jnsgd1na2vs0mg"},{"bike_id":"236f1a17-bd84-4b8e-977f-7df7d8cf402c","system_id":"levelo_inurba_marseille","lat":43.30804,"lon":5.43534,"is_reserved":false,"is_disabled":true,"rental_uris":{"android":"levelo://app?vid=236f1a17-bd84-4b8e-977f-7df7d8cf402c","ios":"levelo://app?vid=236f1a17-bd84-4b8e-977f-7df7d8cf402c"},"vehicle_type_id":"4","last_reported":1756246189,"current_range_meters":6400,"station_id":"ce4bhph2rcd13ifvqheg","pricing_plan_id":"cebpf4jnsgd1na2vs0mg"},{"bike_id":"5fb89390-5c1c-49f9-ace3-fa1969a19768","system_id":"levelo_inurba_marseille","lat":43.31692,"lon":5.40475,"is_reserved":false,"is_disabled":false,"rental_uris":{"android":"levelo://app?vid=5fb89390-5c1c-49f9-ace3-fa1969a19768","ios":"levelo://app?vid=5fb89390-5c1c-49f9-ace3-fa1969a19768"},"vehicle_type_id":"4","last_reported":1756246189,"current_range_meters":6800,"station_id":"ce4bh012rcd13ifvqd00","pricing_plan_id":"cebpf4jnsgd1na2vs0mg"},{"bike_id":"03be758f-3e6d-4c72-8876-95a4359600d6","system_id":"levelo_inurba_marseille","lat":43.33763,"lon":5.37504,"is_reserved":false,"is_disabled":false,"rental_uris":{"android":"levelo://app?vid=03be758f-3e6d-4c72-8876-95a4359600d6","ios":"levelo://app?vid=03be758f-3e6d-4c72-8876-95a4359600d6"},"vehicle_type_id":"4","last_reported":1756246189,"current_range_meters":6800,"station_id":"","pricing_plan_id":"cebpf4jnsgd1na2vs0mg"},{"bike_id":"eb23a6bb-336d-4fed-92da-8bbcee54e487","system_id":"levelo_inurba_marseille","lat":43.28674,"lon":5.37573,"is_reserved":false,"is_disabled":false,"rental_uris":{"android":"levelo://app?vid=eb23a6bb-336d-4fed-92da-8bbcee54e487","ios":"levelo://app?vid=eb23a6bb-336d-4fed-92da-8bbcee54e487"},"vehicle_type_id":"4","last_reported":1756246189,"current_range_meters":6800,"station_id":"","pricing_plan_id":"cebpf4jnsgd1na2vs0mg"},{"bike_id":"b6450c77-b416-4ab5-8a30-a0d43683c856","system_id":"levelo_inurba_marseille","lat":43.29975,"lon":5.38491,"is_reserved":false,"is_disabled":false,"rental_uris":{"android":"levelo://app?vid=b6450c77-b416-4ab5-8a30-a0d43683c856","ios":"levelo://app?vid=b6450c77-b416-4ab5-8a30-a0d43683c856"},"vehicle_type_id":"4","last_reported":1756246189,"current_range_meters":6800,"station_id":"ce4bgj92rcd13ifvqbd0","pricing_plan_id":"cebpf4jnsgd1na2vs0mg"},{"bike_id":"da8842a0-88c3-4044-b3f3-635f6bfeff51","system_id":"levelo_inurba_marseille","lat":43.31712,"lon":5.43711,"is_reserved":false,"is_disabled":false,"rental_uris":{"android":"levelo://app?vid=da8842a0-88c3-4044-b3f3-635f6bfeff51","ios":"levelo://app?vid=da8842a0-88c3-4044-b3f3-635f6bfeff51"},"vehicle_type_id":"4","last_reported":1756246189,"current_range_meters":7200,"station_id":"ce4bhp92rcd13ifvqhcg","pricing_plan_id":"cebpf4jnsgd1na2vs0mg"},{"bike_id":"0817b34d-a0c5-4835-b1a6-2eff6bf5ac9a","system_id":"levelo_inurba_marseille","lat":43.28453,"lon":5.39225,"is_reserved":false,"is_disabled":false,"rental_uris":{"android":"levelo://app?vid=0817b34d-a0c5-4835-b1a6-2eff6bf5ac9a","ios":"levelo://app?vid=0817b34d-a0c5-4835-b1a6-2eff6bf5ac9a"},"vehicle_type_id":"4","last_reported":1756246189,"current_range_meters":8000,"station_id":"ce4bhoh2rcd13ifvqh5g","pricing_plan_id":"cebpf4jnsgd1na2vs0mg"},{"bike_id":"24fe944d-23ba-4c73-a243-9f564dbb6f73","system_id":"levelo_inurba_marseille","lat":43.295337,"lon":5.38546,"is_reserved":false,"is_disabled":false,"rental_uris":{"android":"levelo://app?vid=24fe944d-23ba-4c73-a243-9f564dbb6f73","ios":"levelo://app?vid=24fe944d-23ba-4c73-a243-9f564dbb6f73"},"vehicle_type_id":"4","last_reported":1756246189,"current_range_meters":8000,"station_id":"ce4bgih2rcd13ifvqba0","pricing_plan_id":"cebpf4jnsgd1na2vs0mg"},{"bike_id":"df77d14d-9ad4-4f67-a1af-1e90fd1a6ae3","system_id":"levelo_inurba_marseille","lat":43.29959,"lon":5.41319,"is_reserved":false,"is_disabled":false,"rental_uris":{"android":"levelo://app?vid=df77d14d-9ad4-4f67-a1af-1e90fd1a6ae3","ios":"levelo://app?vid=df77d14d-9ad4-4f67-a1af-1e90fd1a6ae3"},"vehicle_type_id":"4","last_reported":1756246189,"current_range_meters":7200,"station_id":"ce4bhp12rcd13ifvqh9g","pricing_plan_id":"cebpf4jnsgd1na2vs0mg"},{"bike_id":"833e8247-7b7d-4ba0-b5f9-eef08e8889cc","system_id":"levelo_inurba_marseille","lat":43.29275,"lon":5.4013,"is_reserved":false,"is_disabled":false,"rental_uris":{"android":"levelo://app?vid=833e8247-7b7d-4ba0-b5f9-eef08e8889cc","ios":"levelo://app?vid=833e8247-7b7d-4ba0-b5f9-eef08e8889cc"},"vehicle_type_id":"4","last_reported":1756246189,"current_range_meters":8000,"station_id":"ce4bh312rcd13ifvqdk0","pricing_plan_id":"cebpf4jnsgd1na2vs0mg"},{"bike_id":"2f4e8b28-6095-4b3f-ae0a-f9f0c872541a","system_id":"levelo_inurba_marseille","lat":43.29035,"lon":5.37571,"is_reserved":false,"is_disabled":false,"rental_uris":{"android":"levelo://app?vid=2f4e8b28-6095-4b3f-ae0a-f9f0c872541a","ios":"levelo://app?vid=2f4e8b28-6095-4b3f-ae0a-f9f0c872541a"},"vehicle_type_id":"4","last_reported":1756246189,"current_range_meters":8400,"station_id":"ce4bh692rcd13ifvqe90","pricing_plan_id":"cebpf4jnsgd1na2vs0mg"},{"bike_id":"ca39ca53-9f25-4795-b4c0-351bb43f8e45","system_id":"levelo_inurba_marseille","lat":43.29561,"lon":5.42291,"is_reserved":false,"is_disabled":false,"rental_uris":{"android":"levelo://app?vid=ca39ca53-9f25-4795-b4c0-351bb43f8e45","ios":"levelo://app?vid=ca39ca53-9f25-4795-b4c0-351bb43f8e45"},"vehicle_type_id":"4","last_reported":1756246189,"current_range_meters":8400,"station_id":"ce4bhph2rcd13ifvqhdg","pricing_plan_id":"cebpf4jnsgd1na2vs0mg"},{"bike_id":"553008de-ff01-4d3c-bc0d-e28ae1036492","system_id":"levelo_inurba_marseille","lat":43.29253,"lon":5.40144,"is_reserved":false,"is_disabled":false,"rental_uris":{"android":"levelo://app?vid=553008de-ff01-4d3c-bc0d-e28ae1036492","ios":"levelo://app?vid=553008de-ff01-4d3c-bc0d-e28ae1036492"},"vehicle_type_id":"4","last_reported":1756246189,"current_range_meters":8400,"station_id":"ce4bh312rcd13ifvqdk0","pricing_plan_id":"cebpf4jnsgd1na2vs0mg"},{"bike_id":"b1d4ac09-82d1-417e-b7f9-6c57595a77ce","system_id":"levelo_inurba_marseille","lat":43.28074,"lon":5.39662,"is_reserved":false,"is_disabled":false,"rental_uris":{"android":"levelo://app?vid=b1d4ac09-82d1-417e-b7f9-6c57595a77ce","ios":"levelo://app?vid=b1d4ac09-82d1-417e-b7f9-6c57595a77ce"},"vehicle_type_id":"4","last_reported":1756246189,"current_range_meters":8400,"station_id":"ce4bho12rcd13ifvqh2g","pricing_plan_id":"cebpf4jnsgd1na2vs0mg"},{"bike_id":"30446933-d3bb-46c0-b3c6-4cf88dfd896a","system_id":"levelo_inurba_marseille","lat":43.29801,"lon":5.40421,"is_reserved":false,"is_disabled":false,"rental_uris":{"android":"levelo://app?vid=30446933-d3bb-46c0-b3c6-4cf88dfd896a","ios":"levelo://app?vid=30446933-d3bb-46c0-b3c6-4cf88dfd896a"},"vehicle_type_id":"4","last_reported":1756246189,"current_range_meters":8400,"station_id":"ce4bh112rcd13ifvqd90","pricing_plan_id":"cebpf4jnsgd1na2vs0mg"},{"bike_id":"9ebbca0f-8b0f-49e0-bbc0-5934ebb0e846","system_id":"levelo_inurba_marseille","lat":43.21197,"lon":5.35084,"is_reserved":false,"is_disabled":false,"rental_uris":{"android":"levelo://app?vid=9ebbca0f-8b0f-49e0-bbc0-5934ebb0e846","ios":"levelo://app?vid=9ebbca0f-8b0f-49e0-bbc0-5934ebb0e846"},"vehicle_type_id":"4","last_reported":1756246189,"current_range_meters":8800,"station_id":"st_cvj6sg6p6f1abm77japg","pricing_plan_id":"cebpf4jnsgd1na2vs0mg"},{"bike_id":"edc4c588-4db1-4b48-bddb-0eba1d72ba9f","system_id":"levelo_inurba_marseille","lat":43.2119,"lon":5.35079,"is_reserved":false,"is_disabled":false,"rental_uris":{"android":"levelo://app?vid=edc4c588-4db1-4b48-bddb-0eba1d72ba9f","ios":"levelo://app?vid=edc4c588-4db1-4b48-bddb-0eba1d72ba9f"},"vehicle_type_id":"4","last_reported":1756246189,"current_range_meters":8800,"station_id":"st_cvj6sg6p6f1abm77japg","pricing_plan_id":"cebpf4jnsgd1na2vs0mg"},{"bike_id":"f781d014-afa9-4acc-b6f7-3670b0862de3","system_id":"levelo_inurba_marseille","lat":43.21178,"lon":5.35082,"is_reserved":false,"is_disabled":false,"rental_uris":{"android":"levelo://app?vid=f781d014-afa9-4acc-b6f7-3670b0862de3","ios":"levelo://app?vid=f781d014-afa9-4acc-b6f7-3670b0862de3"},"vehicle_type_id":"4","last_reported":1756246189,"current_range_meters":8800,"station_id":"st_cvj6sg6p6f1abm77japg","pricing_plan_id":"cebpf4jnsgd1na2vs0mg"},{"bike_id":"f9ea2cc7-a703-48a2-8e44-e1a62d1c411a","system_id":"levelo_inurba_marseille","lat":43.29015,"lon":5.38658,"is_reserved":false,"is_disabled":false,"rental_uris":{"android":"levelo://app?vid=f9ea2cc7-a703-48a2-8e44-e1a62d1c411a","ios":"levelo://app?vid=f9ea2cc7-a703-48a2-8e44-e1a62d1c411a"},"vehicle_type_id":"4","last_reported":1756246189,"current_range_meters":9200,"station_id":"ce4bh4p2rcd13ifvqe0g","pricing_plan_id":"cebpf4jnsgd1na2vs0mg"},{"bike_id":"49b8b520-6f54-42e1-b32f-469b221e552b","system_id":"levelo_inurba_marseille","lat":43.29536,"lon":5.38546,"is_reserved":false,"is_disabled":false,"rental_uris":{"android":"levelo://app?vid=49b8b520-6f54-42e1-b32f-469b221e552b","ios":"levelo://app?vid=49b8b520-6f54-42e1-b32f-469b221e552b"},"vehicle_type_id":"4","last_reported":1756246189,"current_range_meters":9200,"station_id":"ce4bgih2rcd13ifvqba0","pricing_plan_id":"cebpf4jnsgd1na2vs0mg"},{"bike_id":"7f9ab09f-8a8c-48a6-86f4-48a54547a300","system_id":"levelo_inurba_marseille","lat":43.301586,"lon":5.388835,"is_reserved":false,"is_disabled":false,"rental_uris":{"android":"levelo://app?vid=7f9ab09f-8a8c-48a6-86f4-48a54547a300","ios":"levelo://app?vid=7f9ab09f-8a8c-48a6-86f4-48a54547a300"},"vehicle_type_id":"4","last_reported":1756246189,"current_range_meters":9600,"station_id":"ce4bgj92rcd13ifvqbd0","pricing_plan_id":"cebpf4jnsgd1na2vs0mg"},{"bike_id":"6b8cdbad-c5e7-407e-a592-48ac8f6f4f31","system_id":"levelo_inurba_marseille","lat":43.27323,"lon":5.39072,"is_reserved":false,"is_disabled":false,"rental_uris":{"android":"levelo://app?vid=6b8cdbad-c5e7-407e-a592-48ac8f6f4f31","ios":"levelo://app?vid=6b8cdbad-c5e7-407e-a592-48ac8f6f4f31"},"vehicle_type_id":"4","last_reported":1756246189,"current_range_meters":9600,"station_id":"ce4bhgp2rcd13ifvqfe0","pricing_plan_id":"cebpf4jnsgd1na2vs0mg"},{"bike_id":"91c8be03-407a-4e57-99e8-b4124cde9bca","system_id":"levelo_inurba_marseille","lat":43.324733,"lon":5.365831,"is_reserved":false,"is_disabled":false,"rental_uris":{"android":"levelo://app?vid=91c8be03-407a-4e57-99e8-b4124cde9bca","ios":"levelo://app?vid=91c8be03-407a-4e57-99e8-b4124cde9bca"},"vehicle_type_id":"4","last_reported":1756246189,"current_range_meters":9600,"station_id":"ce4bhs12rcd13ifvqhvg","pricing_plan_id":"cebpf4jnsgd1na2vs0mg"},{"bike_id":"37b7f08f-9e9f-493f-8577-2803a3ed8ada","system_id":"levelo_inurba_marseille","lat":43.3133,"lon":5.39692,"is_reserved":false,"is_disabled":false,"rental_uris":{"android":"levelo://app?vid=37b7f08f-9e9f-493f-8577-2803a3ed8ada","ios":"levelo://app?vid=37b7f08f-9e9f-493f-8577-2803a3ed8ada"},"vehicle_type_id":"4","last_reported":1756246189,"current_range_meters":10000,"station_id":"ce4bgvp2rcd13ifvqcu0","pricing_plan_id":"cebpf4jnsgd1na2vs0mg"},{"bike_id":"540ce205-844f-4d40-8cfb-d5d924d9065e","system_id":"levelo_inurba_marseille","lat":43.29209,"lon":5.39339,"is_reserved":false,"is_disabled":false,"rental_uris":{"android":"levelo://app?vid=540ce205-844f-4d40-8cfb-d5d924d9065e","ios":"levelo://app?vid=540ce205-844f-4d40-8cfb-d5d924d9065e"},"vehicle_type_id":"4","last_reported":1756246189,"current_range_meters":10000,"station_id":"ce4bh192rcd13ifvqdd0","pricing_plan_id":"cebpf4jnsgd1na2vs0mg"},{"bike_id":"325bbcaf-5415-4c25-b53b-510b61256116","system_id":"levelo_inurba_marseille","lat":43.29425,"lon":5.39751,"is_reserved":false,"is_disabled":false,"rental_uris":{"android":"levelo://app?vid=325bbcaf-5415-4c25-b53b-510b61256116","ios":"levelo://app?vid=325bbcaf-5415-4c25-b53b-510b61256116"},"vehicle_type_id":"4","last_reported":1756246189,"current_range_meters":10000,"station_id":"ce4bh3h2rcd13ifvqdo0","pricing_plan_id":"cebpf4jnsgd1na2vs0mg"},{"bike_id":"0d28b80f-aadb-4bfd-8887-e83a0701ee37","system_id":"levelo_inurba_marseille","lat":43.25869,"lon":5.39895,"is_reserved":false,"is_disabled":false,"rental_uris":{"android":"levelo://app?vid=0d28b80f-aadb-4bfd-8887-e83a0701ee37","ios":"levelo://app?vid=0d28b80f-aadb-4bfd-8887-e83a0701ee37"},"vehicle_type_id":"4","last_reported":1756246189,"current_range_meters":10000,"station_id":"ce4bhl92rcd13ifvqghg","pricing_plan_id":"cebpf4jnsgd1na2vs0mg"},{"bike_id":"95b545a0-ee0d-4c3b-93a8-5510fc42d841","system_id":"levelo_inurba_marseille","lat":43.27069,"lon":5.42278,"is_reserved":false,"is_disabled":false,"rental_uris":{"android":"levelo://app?vid=95b545a0-ee0d-4c3b-93a8-5510fc42d841","ios":"levelo://app?vid=95b545a0-ee0d-4c3b-93a8-5510fc42d841"},"vehicle_type_id":"4","last_reported":1756246189,"current_range_meters":10800,"station_id":"ce4bhk92rcd13ifvqgb0","pricing_plan_id":"cebpf4jnsgd1na2vs0mg"},{"bike_id":"eaac1ac6-6c5d-4274-970f-7bad9d177f4b","system_id":"levelo_inurba_marseille","lat":43.33759,"lon":5.37478,"is_reserved":false,"is_disabled":false,"rental_uris":{"android":"levelo://app?vid=eaac1ac6-6c5d-4274-970f-7bad9d177f4b","ios":"levelo://app?vid=eaac1ac6-6c5d-4274-970f-7bad9d177f4b"},"vehicle_type_id":"4","last_reported":1756246189,"current_range_meters":10800,"station_id":"","pricing_plan_id":"cebpf4jnsgd1na2vs0mg"},{"bike_id":"e6179b46-81c8-4876-9a4c-537a47573db1","system_id":"levelo_inurba_marseille","lat":43.31349,"lon":5.4062,"is_reserved":false,"is_disabled":false,"rental_uris":{"android":"levelo://app?vid=e6179b46-81c8-4876-9a4c-537a47573db1","ios":"levelo://app?vid=e6179b46-81c8-4876-9a4c-537a47573db1"},"vehicle_type_id":"4","last_reported":1756246189,"current_range_meters":10800,"station_id":"","pricing_plan_id":"cebpf4jnsgd1na2vs0mg"},{"bike_id":"ec6705ad-1994-4f7b-8ba1-066d763e7f38","system_id":"levelo_inurba_marseille","lat":43.25569,"lon":5.38234,"is_reserved":false,"is_disabled":true,"rental_uris":{"android":"levelo://app?vid=ec6705ad-1994-4f7b-8ba1-066d763e7f38","ios":"levelo://app?vid=ec6705ad-1994-4f7b-8ba1-066d763e7f38"},"vehicle_type_id":"4","last_reported":1756246189,"current_range_meters":10800,"station_id":"ce4bhih2rcd13ifvqfs0","pricing_plan_id":"cebpf4jnsgd1na2vs0mg"},{"bike_id":"0d502687-08ef-4491-8893-8a03d8688be8","system_id":"levelo_inurba_marseille","lat":43.29606,"lon":5.36122,"is_reserved":false,"is_disabled":false,"rental_uris":{"android":"levelo://app?vid=0d502687-08ef-4491-8893-8a03d8688be8","ios":"levelo://app?vid=0d502687-08ef-4491-8893-8a03d8688be8"},"vehicle_type_id":"4","last_reported":1756246189,"current_range_meters":10800,"station_id":"","pricing_plan_id":"cebpf4jnsgd1na2vs0mg"},{"bike_id":"7990d5bf-b332-40bf-9915-d165a04797d8","system_id":"levelo_inurba_marseille","lat":43.27912,"lon":5.39588,"is_reserved":false,"is_disabled":false,"rental_uris":{"android":"levelo://app?vid=7990d5bf-b332-40bf-9915-d165a04797d8","ios":"levelo://app?vid=7990d5bf-b332-40bf-9915-d165a04797d8"},"vehicle_type_id":"4","last_reported":1756246189,"current_range_meters":10800,"station_id":"ce4bhf92rcd13ifvqf40","pricing_plan_id":"cebpf4jnsgd1na2vs0mg"},{"bike_id":"a4578e98-0c0e-42ba-b4cc-92d22d1008a9","system_id":"levelo_inurba_marseille","lat":43.290236,"lon":5.381265,"is_reserved":false,"is_disabled":true,"rental_uris":{"android":"levelo://app?vid=a4578e98-0c0e-42ba-b4cc-92d22d1008a9","ios":"levelo://app?vid=a4578e98-0c0e-42ba-b4cc-92d22d1008a9"},"vehicle_type_id":"4","last_reported":1756246189,"current_range_meters":10800,"station_id":"ce4bh4p2rcd13ifvqe1g","pricing_plan_id":"cebpf4jnsgd1na2vs0mg"},{"bike_id":"47c72c85-64e7-43b8-ada4-0f17a3d10859","system_id":"levelo_inurba_marseille","lat":43.21749,"lon":5.34597,"is_reserved":false,"is_disabled":true,"rental_uris":{"android":"levelo://app?vid=47c72c85-64e7-43b8-ada4-0f17a3d10859","ios":"levelo://app?vid=47c72c85-64e7-43b8-ada4-0f17a3d10859"},"vehicle_type_id":"4","last_reported":1756246189,"current_range_meters":10800,"station_id":"st_cvj6r9ubvosntc0bgbag","pricing_plan_id":"cebpf4jnsgd1na2vs0mg"},{"bike_id":"4dd4428e-edbe-4c5d-9dc1-a53e9a716334","system_id":"levelo_inurba_marseille","lat":43.22514,"lon":5.34781,"is_reserved":false,"is_disabled":true,"rental_uris":{"android":"levelo://app?vid=4dd4428e-edbe-4c5d-9dc1-a53e9a716334","ios":"levelo://app?vid=4dd4428e-edbe-4c5d-9dc1-a53e9a716334"},"vehicle_type_id":"4","last_reported":1756246189,"current_range_meters":11200,"station_id":"","pricing_plan_id":"cebpf4jnsgd1na2vs0mg"},{"bike_id":"bea60ada-1364-4431-91e5-c9abedce74a6","system_id":"levelo_inurba_marseille","lat":43.284289,"lon":5.391944,"is_reserved":false,"is_disabled":false,"rental_uris":{"android":"levelo://app?vid=bea60ada-1364-4431-91e5-c9abedce74a6","ios":"levelo://app?vid=bea60ada-1364-4431-91e5-c9abedce74a6"},"vehicle_type_id":"4","last_reported":1756246189,"current_range_meters":11200,"station_id":"ce4bhoh2rcd13ifvqh5g","pricing_plan_id":"cebpf4jnsgd1na2vs0mg"},{"bike_id":"11baaf0f-527b-4770-a5c5-e50aa79da45f","system_id":"levelo_inurba_marseille","lat":43.25502,"lon":5.37653,"is_reserved":false,"is_disabled":false,"rental_uris":{"android":"levelo://app?vid=11baaf0f-527b-4770-a5c5-e50aa79da45f","ios":"levelo://app?vid=11baaf0f-527b-4770-a5c5-e50aa79da45f"},"vehicle_type_id":"4","last_reported":1756246189,"current_range_meters":11200,"station_id":"ce4bhh12rcd13ifvqff0","pricing_plan_id":"cebpf4jnsgd1na2vs0mg"},{"bike_id":"d09818c0-fe17-4e04-a009-8059bf91f2ab","system_id":"levelo_inurba_marseille","lat":43.29531,"lon":5.3854,"is_reserved":false,"is_disabled":false,"rental_uris":{"android":"levelo://app?vid=d09818c0-fe17-4e04-a009-8059bf91f2ab","ios":"levelo://app?vid=d09818c0-fe17-4e04-a009-8059bf91f2ab"},"vehicle_type_id":"4","last_reported":1756246189,"current_range_meters":11200,"station_id":"ce4bgih2rcd13ifvqba0","pricing_plan_id":"cebpf4jnsgd1na2vs0mg"},{"bike_id":"8a00d99b-940c-4dd8-b9d9-a9e3540088dd","system_id":"levelo_inurba_marseille","lat":43.29176,"lon":5.39348,"is_reserved":false,"is_disabled":false,"rental_uris":{"android":"levelo://app?vid=8a00d99b-940c-4dd8-b9d9-a9e3540088dd","ios":"levelo://app?vid=8a00d99b-940c-4dd8-b9d9-a9e3540088dd"},"vehicle_type_id":"4","last_reported":1756246189,"current_range_meters":11200,"station_id":"","pricing_plan_id":"cebpf4jnsgd1na2vs0mg"},{"bike_id":"1f709344-d1f7-4c4b-bf9d-f253549a9c0a","system_id":"levelo_inurba_marseille","lat":43.3064,"lon":5.40091,"is_reserved":false,"is_disabled":false,"rental_uris":{"android":"levelo://app?vid=1f709344-d1f7-4c4b-bf9d-f253549a9c0a","ios":"levelo://app?vid=1f709344-d1f7-4c4b-bf9d-f253549a9c0a"},"vehicle_type_id":"4","last_reported":1756246189,"current_range_meters":11200,"station_id":"ce4bh112rcd13ifvqda0","pricing_plan_id":"cebpf4jnsgd1na2vs0mg"},{"bike_id":"05bfbee2-1e9b-4dee-b8c6-55f063b2b11b","system_id":"levelo_inurba_marseille","lat":43.29549,"lon":5.38544,"is_reserved":false,"is_disabled":false,"rental_uris":{"android":"levelo://app?vid=05bfbee2-1e9b-4dee-b8c6-55f063b2b11b","ios":"levelo://app?vid=05bfbee2-1e9b-4dee-b8c6-55f063b2b11b"},"vehicle_type_id":"4","last_reported":1756246189,"current_range_meters":11200,"station_id":"ce4bgih2rcd13ifvqba0","pricing_plan_id":"cebpf4jnsgd1na2vs0mg"},{"bike_id":"2143584e-0e72-4d85-883f-884580f89ac4","system_id":"levelo_inurba_marseille","lat":43.24179,"lon":5.39735,"is_reserved":false,"is_disabled":false,"rental_uris":{"android":"levelo://app?vid=2143584e-0e72-4d85-883f-884580f89ac4","ios":"levelo://app?vid=2143584e-0e72-4d85-883f-884580f89ac4"},"vehicle_type_id":"4","last_reported":1756246189,"current_range_meters":11600,"station_id":"ce4bhn12rcd13ifvqgpg","pricing_plan_id":"cebpf4jnsgd1na2vs0mg"},{"bike_id":"cfa378dc-95aa-4571-8437-b63172d17092","system_id":"levelo_inurba_marseille","lat":43.24673,"lon":5.38162,"is_reserved":false,"is_disabled":false,"rental_uris":{"android":"levelo://app?vid=cfa378dc-95aa-4571-8437-b63172d17092","ios":"levelo://app?vid=cfa378dc-95aa-4571-8437-b63172d17092"},"vehicle_type_id":"4","last_reported":1756246189,"current_range_meters":11600,"station_id":"ce4bhih2rcd13ifvqfr0","pricing_plan_id":"cebpf4jnsgd1na2vs0mg"},{"bike_id":"51842e17-ef10-4624-a23e-c8a182427991","system_id":"levelo_inurba_marseille","lat":43.31607,"lon":5.38187,"is_reserved":false,"is_disabled":false,"rental_uris":{"android":"levelo://app?vid=51842e17-ef10-4624-a23e-c8a182427991","ios":"levelo://app?vid=51842e17-ef10-4624-a23e-c8a182427991"},"vehicle_type_id":"4","last_reported":1756246189,"current_range_meters":11600,"station_id":"","pricing_plan_id":"cebpf4jnsgd1na2vs0mg"},{"bike_id":"bfcde6a8-ccc6-4d52-a2bf-66c07481b52c","system_id":"levelo_inurba_marseille","lat":43.29279,"lon":5.40137,"is_reserved":false,"is_disabled":false,"rental_uris":{"android":"levelo://app?vid=bfcde6a8-ccc6-4d52-a2bf-66c07481b52c","ios":"levelo://app?vid=bfcde6a8-ccc6-4d52-a2bf-66c07481b52c"},"vehicle_type_id":"4","last_reported":1756246189,"current_range_meters":11600,"station_id":"ce4bh312rcd13ifvqdk0","pricing_plan_id":"cebpf4jnsgd1na2vs0mg"},{"bike_id":"223fb907-9d12-4522-8854-a018e4009bb5","system_id":"levelo_inurba_marseille","lat":43.30212,"lon":5.39471,"is_reserved":false,"is_disabled":false,"rental_uris":{"android":"levelo://app?vid=223fb907-9d12-4522-8854-a018e4009bb5","ios":"levelo://app?vid=223fb907-9d12-4522-8854-a018e4009bb5"},"vehicle_type_id":"4","last_reported":1756246189,"current_range_meters":11600,"station_id":"ce4bh0p2rcd13ifvqd70","pricing_plan_id":"cebpf4jnsgd1na2vs0mg"},{"bike_id":"6dc4ca6b-526a-4ff1-8be5-1aaeb9ebadfc","system_id":"levelo_inurba_marseille","lat":43.31361,"lon":5.38497,"is_reserved":false,"is_disabled":false,"rental_uris":{"android":"levelo://app?vid=6dc4ca6b-526a-4ff1-8be5-1aaeb9ebadfc","ios":"levelo://app?vid=6dc4ca6b-526a-4ff1-8be5-1aaeb9ebadfc"},"vehicle_type_id":"4","last_reported":1756246189,"current_range_meters":12000,"station_id":"ce4bgt92rcd13ifvqcf0","pricing_plan_id":"cebpf4jnsgd1na2vs0mg"},{"bike_id":"005b2c18-407d-4c05-91f5-76d26bf73b20","system_id":"levelo_inurba_marseille","lat":43.30781,"lon":5.38181,"is_reserved":false,"is_disabled":false,"rental_uris":{"android":"levelo://app?vid=005b2c18-407d-4c05-91f5-76d26bf73b20","ios":"levelo://app?vid=005b2c18-407d-4c05-91f5-76d26bf73b20"},"vehicle_type_id":"4","last_reported":1756246189,"current_range_meters":12000,"station_id":"ce4bgt12rcd13ifvqce0","pricing_plan_id":"cebpf4jnsgd1na2vs0mg"},{"bike_id":"bf354102-385e-43dc-a92c-7107c9a760ba","system_id":"levelo_inurba_marseille","lat":43.25089,"lon":5.39523,"is_reserved":false,"is_disabled":false,"rental_uris":{"android":"levelo://app?vid=bf354102-385e-43dc-a92c-7107c9a760ba","ios":"levelo://app?vid=bf354102-385e-43dc-a92c-7107c9a760ba"},"vehicle_type_id":"4","last_reported":1756246189,"current_range_meters":12000,"station_id":"ce4bhm12rcd13ifvqgkg","pricing_plan_id":"cebpf4jnsgd1na2vs0mg"},{"bike_id":"af13476a-76c1-45ab-958a-e7f8cdbb9e93","system_id":"levelo_inurba_marseille","lat":43.25823,"lon":5.39441,"is_reserved":false,"is_disabled":false,"rental_uris":{"android":"levelo://app?vid=af13476a-76c1-45ab-958a-e7f8cdbb9e93","ios":"levelo://app?vid=af13476a-76c1-45ab-958a-e7f8cdbb9e93"},"vehicle_type_id":"4","last_reported":1756246189,"current_range_meters":12000,"station_id":"ce4bhip2rcd13ifvqft0","pricing_plan_id":"cebpf4jnsgd1na2vs0mg"},{"bike_id":"a15a1c44-718b-407d-acaa-0383628c87d7","system_id":"levelo_inurba_marseille","lat":43.32688,"lon":5.39235,"is_reserved":false,"is_disabled":false,"rental_uris":{"android":"levelo://app?vid=a15a1c44-718b-407d-acaa-0383628c87d7","ios":"levelo://app?vid=a15a1c44-718b-407d-acaa-0383628c87d7"},"vehicle_type_id":"4","last_reported":1756246189,"current_range_meters":12000,"station_id":"","pricing_plan_id":"cebpf4jnsgd1na2vs0mg"},{"bike_id":"da4fbb2f-e275-4d42-bb2b-48b9958ae534","system_id":"levelo_inurba_marseille","lat":43.2533,"lon":5.42173,"is_reserved":false,"is_disabled":false,"rental_uris":{"android":"levelo://app?vid=da4fbb2f-e275-4d42-bb2b-48b9958ae534","ios":"levelo://app?vid=da4fbb2f-e275-4d42-bb2b-48b9958ae534"},"vehicle_type_id":"4","last_reported":1756246189,"current_range_meters":12000,"station_id":"st_d2m65c5bi1j21697t3ng","pricing_plan_id":"cebpf4jnsgd1na2vs0mg"},{"bike_id":"5f9365e2-60dc-4158-a2c3-0e40911a7a32","system_id":"levelo_inurba_marseille","lat":43.33407,"lon":5.40057,"is_reserved":false,"is_disabled":false,"rental_uris":{"android":"levelo://app?vid=5f9365e2-60dc-4158-a2c3-0e40911a7a32","ios":"levelo://app?vid=5f9365e2-60dc-4158-a2c3-0e40911a7a32"},"vehicle_type_id":"4","last_reported":1756246189,"current_range_meters":12000,"station_id":"","pricing_plan_id":"cebpf4jnsgd1na2vs0mg"},{"bike_id":"3fcc3d5d-7e54-487d-929e-f7fa51fee1a9","system_id":"levelo_inurba_marseille","lat":43.30782,"lon":5.3816,"is_reserved":false,"is_disabled":false,"rental_uris":{"android":"levelo://app?vid=3fcc3d5d-7e54-487d-929e-f7fa51fee1a9","ios":"levelo://app?vid=3fcc3d5d-7e54-487d-929e-f7fa51fee1a9"},"vehicle_type_id":"4","last_reported":1756246189,"current_range_meters":11600,"station_id":"ce4bgt12rcd13ifvqce0","pricing_plan_id":"cebpf4jnsgd1na2vs0mg"},{"bike_id":"36560532-3512-4cb9-9a14-c2d1de40c0c4","system_id":"levelo_inurba_marseille","lat":43.29538,"lon":5.38556,"is_reserved":false,"is_disabled":false,"rental_uris":{"android":"levelo://app?vid=36560532-3512-4cb9-9a14-c2d1de40c0c4","ios":"levelo://app?vid=36560532-3512-4cb9-9a14-c2d1de40c0c4"},"vehicle_type_id":"4","last_reported":1756246189,"current_range_meters":12400,"station_id":"ce4bgih2rcd13ifvqba0","pricing_plan_id":"cebpf4jnsgd1na2vs0mg"},{"bike_id":"142fad44-9e99-4639-8110-7e6b40f4890a","system_id":"levelo_inurba_marseille","lat":43.30888,"lon":5.39654,"is_reserved":false,"is_disabled":false,"rental_uris":{"android":"levelo://app?vid=142fad44-9e99-4639-8110-7e6b40f4890a","ios":"levelo://app?vid=142fad44-9e99-4639-8110-7e6b40f4890a"},"vehicle_type_id":"4","last_reported":1756246189,"current_range_meters":12400,"station_id":"ce4bh012rcd13ifvqcv0","pricing_plan_id":"cebpf4jnsgd1na2vs0mg"},{"bike_id":"89bb2efc-5c45-48e0-b659-b8ecb63211d5","system_id":"levelo_inurba_marseille","lat":43.29806,"lon":5.39355,"is_reserved":false,"is_disabled":false,"rental_uris":{"android":"levelo://app?vid=89bb2efc-5c45-48e0-b659-b8ecb63211d5","ios":"levelo://app?vid=89bb2efc-5c45-48e0-b659-b8ecb63211d5"},"vehicle_type_id":"4","last_reported":1756246189,"current_range_meters":12400,"station_id":"chh1huq6cuj3fo74tm60","pricing_plan_id":"cebpf4jnsgd1na2vs0mg"},{"bike_id":"b4d6c33d-a0bf-42a3-9ab7-0db80b72b559","system_id":"levelo_inurba_marseille","lat":43.28961,"lon":5.36625,"is_reserved":false,"is_disabled":true,"rental_uris":{"android":"levelo://app?vid=b4d6c33d-a0bf-42a3-9ab7-0db80b72b559","ios":"levelo://app?vid=b4d6c33d-a0bf-42a3-9ab7-0db80b72b559"},"vehicle_type_id":"4","last_reported":1756246189,"current_range_meters":12400,"station_id":"ce4bhap2rcd13ifvqek0","pricing_plan_id":"cebpf4jnsgd1na2vs0mg"},{"bike_id":"63f2abed-057a-4b88-a942-7fb1eb5fe235","system_id":"levelo_inurba_marseille","lat":43.27924,"lon":5.39603,"is_reserved":false,"is_disabled":false,"rental_uris":{"android":"levelo://app?vid=63f2abed-057a-4b88-a942-7fb1eb5fe235","ios":"levelo://app?vid=63f2abed-057a-4b88-a942-7fb1eb5fe235"},"vehicle_type_id":"4","last_reported":1756246189,"current_range_meters":12400,"station_id":"ce4bhf92rcd13ifvqf40","pricing_plan_id":"cebpf4jnsgd1na2vs0mg"},{"bike_id":"d0c5eb57-a46f-4f81-bdbb-c39cf032661b","system_id":"levelo_inurba_marseille","lat":43.31513,"lon":5.38032,"is_reserved":false,"is_disabled":false,"rental_uris":{"android":"levelo://app?vid=d0c5eb57-a46f-4f81-bdbb-c39cf032661b","ios":"levelo://app?vid=d0c5eb57-a46f-4f81-bdbb-c39cf032661b"},"vehicle_type_id":"4","last_reported":1756246189,"current_range_meters":12400,"station_id":"ce4bhsp2rcd13ifvqi50","pricing_plan_id":"cebpf4jnsgd1na2vs0mg"},{"bike_id":"9041f4fb-fb38-43a3-b139-d8937464112e","system_id":"levelo_inurba_marseille","lat":43.29541,"lon":5.38545,"is_reserved":false,"is_disabled":false,"rental_uris":{"android":"levelo://app?vid=9041f4fb-fb38-43a3-b139-d8937464112e","ios":"levelo://app?vid=9041f4fb-fb38-43a3-b139-d8937464112e"},"vehicle_type_id":"4","last_reported":1756246189,"current_range_meters":12400,"station_id":"ce4bgih2rcd13ifvqba0","pricing_plan_id":"cebpf4jnsgd1na2vs0mg"},{"bike_id":"5ebfc32c-3ff0-440a-97ee-1c808332e074","system_id":"levelo_inurba_marseille","lat":43.25006,"lon":5.389113,"is_reserved":false,"is_disabled":false,"rental_uris":{"android":"levelo://app?vid=5ebfc32c-3ff0-440a-97ee-1c808332e074","ios":"levelo://app?vid=5ebfc32c-3ff0-440a-97ee-1c808332e074"},"vehicle_type_id":"4","last_reported":1756246189,"current_range_meters":12400,"station_id":"","pricing_plan_id":"cebpf4jnsgd1na2vs0mg"},{"bike_id":"70725e45-1278-4337-bab4-392de6291b76","system_id":"levelo_inurba_marseille","lat":43.27822,"lon":5.40781,"is_reserved":false,"is_disabled":false,"rental_uris":{"android":"levelo://app?vid=70725e45-1278-4337-bab4-392de6291b76","ios":"levelo://app?vid=70725e45-1278-4337-bab4-392de6291b76"},"vehicle_type_id":"4","last_reported":1756246189,"current_range_meters":12400,"station_id":"","pricing_plan_id":"cebpf4jnsgd1na2vs0mg"},{"bike_id":"2d018b38-51dc-4c2d-b935-970f32cf436f","system_id":"levelo_inurba_marseille","lat":43.25333,"lon":5.42178,"is_reserved":false,"is_disabled":false,"rental_uris":{"android":"levelo://app?vid=2d018b38-51dc-4c2d-b935-970f32cf436f","ios":"levelo://app?vid=2d018b38-51dc-4c2d-b935-970f32cf436f"},"vehicle_type_id":"4","last_reported":1756246189,"current_range_meters":12400,"station_id":"st_d2m65c5bi1j21697t3ng","pricing_plan_id":"cebpf4jnsgd1na2vs0mg"},{"bike_id":"4a1c8a1d-6790-4c15-8153-daae3f34f0a3","system_id":"levelo_inurba_marseille","lat":43.30605,"lon":5.37199,"is_reserved":false,"is_disabled":false,"rental_uris":{"android":"levelo://app?vid=4a1c8a1d-6790-4c15-8153-daae3f34f0a3","ios":"levelo://app?vid=4a1c8a1d-6790-4c15-8153-daae3f34f0a3"},"vehicle_type_id":"4","last_reported":1756246189,"current_range_meters":12400,"station_id":"ce4bgqh2rcd13ifvqc4g","pricing_plan_id":"cebpf4jnsgd1na2vs0mg"},{"bike_id":"4e330b1f-161c-4651-9fd6-20401a194c71","system_id":"levelo_inurba_marseille","lat":43.2412,"lon":5.37753,"is_reserved":false,"is_disabled":false,"rental_uris":{"android":"levelo://app?vid=4e330b1f-161c-4651-9fd6-20401a194c71","ios":"levelo://app?vid=4e330b1f-161c-4651-9fd6-20401a194c71"},"vehicle_type_id":"4","last_reported":1756246189,"current_range_meters":12400,"station_id":"","pricing_plan_id":"cebpf4jnsgd1na2vs0mg"},{"bike_id":"a9c8448e-6218-4e69-a780-11bdb66755b5","system_id":"levelo_inurba_marseille","lat":43.28401,"lon":5.37527,"is_reserved":false,"is_disabled":false,"rental_uris":{"android":"levelo://app?vid=a9c8448e-6218-4e69-a780-11bdb66755b5","ios":"levelo://app?vid=a9c8448e-6218-4e69-a780-11bdb66755b5"},"vehicle_type_id":"4","last_reported":1756246189,"current_range_meters":12800,"station_id":"ce4bh412rcd13ifvqds0","pricing_plan_id":"cebpf4jnsgd1na2vs0mg"},{"bike_id":"8ad69d7f-6d52-4611-bf92-39c173b24a99","system_id":"levelo_inurba_marseille","lat":43.29274,"lon":5.36837,"is_reserved":false,"is_disabled":false,"rental_uris":{"android":"levelo://app?vid=8ad69d7f-6d52-4611-bf92-39c173b24a99","ios":"levelo://app?vid=8ad69d7f-6d52-4611-bf92-39c173b24a99"},"vehicle_type_id":"4","last_reported":1756246189,"current_range_meters":12800,"station_id":"ce4bhbp2rcd13ifvqesg","pricing_plan_id":"cebpf4jnsgd1na2vs0mg"},{"bike_id":"1027bb83-a668-47de-9094-84302cb909d4","system_id":"levelo_inurba_marseille","lat":43.21196,"lon":5.35098,"is_reserved":false,"is_disabled":false,"rental_uris":{"android":"levelo://app?vid=1027bb83-a668-47de-9094-84302cb909d4","ios":"levelo://app?vid=1027bb83-a668-47de-9094-84302cb909d4"},"vehicle_type_id":"4","last_reported":1756246189,"current_range_meters":12800,"station_id":"st_cvj6sg6p6f1abm77japg","pricing_plan_id":"cebpf4jnsgd1na2vs0mg"},{"bike_id":"92c082b0-21bd-43f1-a1c8-1d12806833ca","system_id":"levelo_inurba_marseille","lat":43.28338,"lon":5.38097,"is_reserved":false,"is_disabled":true,"rental_uris":{"android":"levelo://app?vid=92c082b0-21bd-43f1-a1c8-1d12806833ca","ios":"levelo://app?vid=92c082b0-21bd-43f1-a1c8-1d12806833ca"},"vehicle_type_id":"4","last_reported":1756246189,"current_range_meters":12800,"station_id":"ce4bh412rcd13ifvqdr0","pricing_plan_id":"cebpf4jnsgd1na2vs0mg"},{"bike_id":"7354d48f-9439-46df-94c7-a1c327ad0fff","system_id":"levelo_inurba_marseille","lat":43.28416,"lon":5.37538,"is_reserved":false,"is_disabled":false,"rental_uris":{"android":"levelo://app?vid=7354d48f-9439-46df-94c7-a1c327ad0fff","ios":"levelo://app?vid=7354d48f-9439-46df-94c7-a1c327ad0fff"},"vehicle_type_id":"4","last_reported":1756246189,"current_range_meters":12800,"station_id":"ce4bh412rcd13ifvqds0","pricing_plan_id":"cebpf4jnsgd1na2vs0mg"},{"bike_id":"6b1581e2-1543-434c-b1e5-28d7a00a39b0","system_id":"levelo_inurba_marseille","lat":43.25343,"lon":5.42178,"is_reserved":false,"is_disabled":false,"rental_uris":{"android":"levelo://app?vid=6b1581e2-1543-434c-b1e5-28d7a00a39b0","ios":"levelo://app?vid=6b1581e2-1543-434c-b1e5-28d7a00a39b0"},"vehicle_type_id":"4","last_reported":1756246189,"current_range_meters":12800,"station_id":"st_d2m65c5bi1j21697t3ng","pricing_plan_id":"cebpf4jnsgd1na2vs0mg"},{"bike_id":"8e673a24-62d5-481a-aa9c-67e2d711f8b6","system_id":"levelo_inurba_marseille","lat":43.29443,"lon":5.39757,"is_reserved":false,"is_disabled":false,"rental_uris":{"android":"levelo://app?vid=8e673a24-62d5-481a-aa9c-67e2d711f8b6","ios":"levelo://app?vid=8e673a24-62d5-481a-aa9c-67e2d711f8b6"},"vehicle_type_id":"4","last_reported":1756246189,"current_range_meters":12800,"station_id":"ce4bh3h2rcd13ifvqdo0","pricing_plan_id":"cebpf4jnsgd1na2vs0mg"},{"bike_id":"695ffa86-8ccd-4897-bd34-8f745cdff49b","system_id":"levelo_inurba_marseille","lat":43.28402,"lon":5.37521,"is_reserved":false,"is_disabled":false,"rental_uris":{"android":"levelo://app?vid=695ffa86-8ccd-4897-bd34-8f745cdff49b","ios":"levelo://app?vid=695ffa86-8ccd-4897-bd34-8f745cdff49b"},"vehicle_type_id":"4","last_reported":1756246189,"current_range_meters":12800,"station_id":"ce4bh412rcd13ifvqds0","pricing_plan_id":"cebpf4jnsgd1na2vs0mg"},{"bike_id":"f01a8f5a-0f24-412e-b0ec-90c80d131e83","system_id":"levelo_inurba_marseille","lat":43.24597,"lon":5.40903,"is_reserved":false,"is_disabled":false,"rental_uris":{"android":"levelo://app?vid=f01a8f5a-0f24-412e-b0ec-90c80d131e83","ios":"levelo://app?vid=f01a8f5a-0f24-412e-b0ec-90c80d131e83"},"vehicle_type_id":"4","last_reported":1756246189,"current_range_meters":13600,"station_id":"","pricing_plan_id":"cebpf4jnsgd1na2vs0mg"},{"bike_id":"85442b5c-3f0a-403b-8dcb-d8ad59bb2fb8","system_id":"levelo_inurba_marseille","lat":43.29446,"lon":5.39761,"is_reserved":false,"is_disabled":false,"rental_uris":{"android":"levelo://app?vid=85442b5c-3f0a-403b-8dcb-d8ad59bb2fb8","ios":"levelo://app?vid=85442b5c-3f0a-403b-8dcb-d8ad59bb2fb8"},"vehicle_type_id":"4","last_reported":1756246189,"current_range_meters":13600,"station_id":"ce4bh3h2rcd13ifvqdo0","pricing_plan_id":"cebpf4jnsgd1na2vs0mg"},{"bike_id":"098a3003-b369-4d74-b40b-8cae8a40f5ad","system_id":"levelo_inurba_marseille","lat":43.27997,"lon":5.41671,"is_reserved":false,"is_disabled":false,"rental_uris":{"android":"levelo://app?vid=098a3003-b369-4d74-b40b-8cae8a40f5ad","ios":"levelo://app?vid=098a3003-b369-4d74-b40b-8cae8a40f5ad"},"vehicle_type_id":"4","last_reported":1756246189,"current_range_meters":13600,"station_id":"ce4bho12rcd13ifvqh1g","pricing_plan_id":"cebpf4jnsgd1na2vs0mg"},{"bike_id":"1d7023ef-959e-48df-b075-0a4bd90cc9ae","system_id":"levelo_inurba_marseille","lat":43.27365,"lon":5.36253,"is_reserved":false,"is_disabled":true,"rental_uris":{"android":"levelo://app?vid=1d7023ef-959e-48df-b075-0a4bd90cc9ae","ios":"levelo://app?vid=1d7023ef-959e-48df-b075-0a4bd90cc9ae"},"vehicle_type_id":"4","last_reported":1756246189,"current_range_meters":13600,"station_id":"ce4bhbh2rcd13ifvqeo0","pricing_plan_id":"cebpf4jnsgd1na2vs0mg"},{"bike_id":"e44bc05c-e6c3-432c-9d71-fd17a85f949c","system_id":"levelo_inurba_marseille","lat":43.29178,"lon":5.39316,"is_reserved":false,"is_disabled":false,"rental_uris":{"android":"levelo://app?vid=e44bc05c-e6c3-432c-9d71-fd17a85f949c","ios":"levelo://app?vid=e44bc05c-e6c3-432c-9d71-fd17a85f949c"},"vehicle_type_id":"4","last_reported":1756246189,"current_range_meters":13600,"station_id":"ce4bh192rcd13ifvqdd0","pricing_plan_id":"cebpf4jnsgd1na2vs0mg"},{"bike_id":"c7a71cbc-b878-4643-95a5-bb58a87e5d5d","system_id":"levelo_inurba_marseille","lat":43.29788,"lon":5.39348,"is_reserved":false,"is_disabled":false,"rental_uris":{"android":"levelo://app?vid=c7a71cbc-b878-4643-95a5-bb58a87e5d5d","ios":"levelo://app?vid=c7a71cbc-b878-4643-95a5-bb58a87e5d5d"},"vehicle_type_id":"4","last_reported":1756246189,"current_range_meters":37600,"station_id":"chh1huq6cuj3fo74tm60","pricing_plan_id":"cebpf4jnsgd1na2vs0mg"},{"bike_id":"97ca0c55-12b3-4673-83b9-e130942385ef","system_id":"levelo_inurba_marseille","lat":43.29044,"lon":5.3997,"is_reserved":false,"is_disabled":false,"rental_uris":{"android":"levelo://app?vid=97ca0c55-12b3-4673-83b9-e130942385ef","ios":"levelo://app?vid=97ca0c55-12b3-4673-83b9-e130942385ef"},"vehicle_type_id":"4","last_reported":1756246189,"current_range_meters":13600,"station_id":"ce4bh392rcd13ifvqdm0","pricing_plan_id":"cebpf4jnsgd1na2vs0mg"},{"bike_id":"22ab1208-c6f7-4b7f-b55d-758b70d286ac","system_id":"levelo_inurba_marseille","lat":43.2799,"lon":5.41663,"is_reserved":false,"is_disabled":false,"rental_uris":{"android":"levelo://app?vid=22ab1208-c6f7-4b7f-b55d-758b70d286ac","ios":"levelo://app?vid=22ab1208-c6f7-4b7f-b55d-758b70d286ac"},"vehicle_type_id":"4","last_reported":1756246189,"current_range_meters":13600,"station_id":"ce4bho12rcd13ifvqh1g","pricing_plan_id":"cebpf4jnsgd1na2vs0mg"},{"bike_id":"cf839fe3-3806-454d-8134-4cb2e6aadf27","system_id":"levelo_inurba_marseille","lat":43.30643,"lon":5.40094,"is_reserved":false,"is_disabled":false,"rental_uris":{"android":"levelo://app?vid=cf839fe3-3806-454d-8134-4cb2e6aadf27","ios":"levelo://app?vid=cf839fe3-3806-454d-8134-4cb2e6aadf27"},"vehicle_type_id":"4","last_reported":1756246189,"current_range_meters":13600,"station_id":"ce4bh112rcd13ifvqda0","pricing_plan_id":"cebpf4jnsgd1na2vs0mg"},{"bike_id":"d42669b7-3bf6-4f05-99fb-50d8b63f27ba","system_id":"levelo_inurba_marseille","lat":43.31325,"lon":5.39691,"is_reserved":false,"is_disabled":false,"rental_uris":{"android":"levelo://app?vid=d42669b7-3bf6-4f05-99fb-50d8b63f27ba","ios":"levelo://app?vid=d42669b7-3bf6-4f05-99fb-50d8b63f27ba"},"vehicle_type_id":"4","last_reported":1756246189,"current_range_meters":12800,"station_id":"ce4bgvp2rcd13ifvqcu0","pricing_plan_id":"cebpf4jnsgd1na2vs0mg"},{"bike_id":"301dddba-146e-4031-bcae-5ef0f95944c9","system_id":"levelo_inurba_marseille","lat":43.30458,"lon":5.38866,"is_reserved":false,"is_disabled":false,"rental_uris":{"android":"levelo://app?vid=301dddba-146e-4031-bcae-5ef0f95944c9","ios":"levelo://app?vid=301dddba-146e-4031-bcae-5ef0f95944c9"},"vehicle_type_id":"4","last_reported":1756246189,"current_range_meters":14400,"station_id":"ce4bgk12rcd13ifvqbi0","pricing_plan_id":"cebpf4jnsgd1na2vs0mg"},{"bike_id":"f0400c37-c7f6-4929-b1ac-d92430ff6f2d","system_id":"levelo_inurba_marseille","lat":43.27597,"lon":5.39707,"is_reserved":false,"is_disabled":false,"rental_uris":{"android":"levelo://app?vid=f0400c37-c7f6-4929-b1ac-d92430ff6f2d","ios":"levelo://app?vid=f0400c37-c7f6-4929-b1ac-d92430ff6f2d"},"vehicle_type_id":"4","last_reported":1756246189,"current_range_meters":14000,"station_id":"","pricing_plan_id":"cebpf4jnsgd1na2vs0mg"},{"bike_id":"703e4351-5331-4634-bb3e-00ec29f94d4f","system_id":"levelo_inurba_marseille","lat":43.30935,"lon":5.40151,"is_reserved":false,"is_disabled":false,"rental_uris":{"android":"levelo://app?vid=703e4351-5331-4634-bb3e-00ec29f94d4f","ios":"levelo://app?vid=703e4351-5331-4634-bb3e-00ec29f94d4f"},"vehicle_type_id":"4","last_reported":1756246189,"current_range_meters":14000,"station_id":"ce4bgvp2rcd13ifvqct0","pricing_plan_id":"cebpf4jnsgd1na2vs0mg"},{"bike_id":"6368d984-35fd-4cb8-844f-9898e730e10a","system_id":"levelo_inurba_marseille","lat":43.29864,"lon":5.39735,"is_reserved":false,"is_disabled":false,"rental_uris":{"android":"levelo://app?vid=6368d984-35fd-4cb8-844f-9898e730e10a","ios":"levelo://app?vid=6368d984-35fd-4cb8-844f-9898e730e10a"},"vehicle_type_id":"4","last_reported":1756246189,"current_range_meters":14000,"station_id":"ce4bh0h2rcd13ifvqd50","pricing_plan_id":"cebpf4jnsgd1na2vs0mg"},{"bike_id":"cd5f5dc3-8366-4b0c-a73e-2e0775b42f9e","system_id":"levelo_inurba_marseille","lat":43.29268,"lon":5.36848,"is_reserved":false,"is_disabled":true,"rental_uris":{"android":"levelo://app?vid=cd5f5dc3-8366-4b0c-a73e-2e0775b42f9e","ios":"levelo://app?vid=cd5f5dc3-8366-4b0c-a73e-2e0775b42f9e"},"vehicle_type_id":"4","last_reported":1756246189,"current_range_meters":14000,"station_id":"ce4bhbp2rcd13ifvqesg","pricing_plan_id":"cebpf4jnsgd1na2vs0mg"},{"bike_id":"35293f9d-ecc5-4090-ae0e-2e4ab9a73a16","system_id":"levelo_inurba_marseille","lat":43.32352,"lon":5.36748,"is_reserved":false,"is_disabled":false,"rental_uris":{"android":"levelo://app?vid=35293f9d-ecc5-4090-ae0e-2e4ab9a73a16","ios":"levelo://app?vid=35293f9d-ecc5-4090-ae0e-2e4ab9a73a16"},"vehicle_type_id":"4","last_reported":1756246189,"current_range_meters":14000,"station_id":"ce4bhsh2rcd13ifvqi2g","pricing_plan_id":"cebpf4jnsgd1na2vs0mg"},{"bike_id":"e29338e4-5c17-4367-ab18-ea12d313c815","system_id":"levelo_inurba_marseille","lat":43.31383,"lon":5.3852,"is_reserved":false,"is_disabled":false,"rental_uris":{"android":"levelo://app?vid=e29338e4-5c17-4367-ab18-ea12d313c815","ios":"levelo://app?vid=e29338e4-5c17-4367-ab18-ea12d313c815"},"vehicle_type_id":"4","last_reported":1756246189,"current_range_meters":14000,"station_id":"ce4bgt92rcd13ifvqcf0","pricing_plan_id":"cebpf4jnsgd1na2vs0mg"},{"bike_id":"777a8c83-aed8-4881-84b6-34465956e738","system_id":"levelo_inurba_marseille","lat":43.25775,"lon":5.41062,"is_reserved":false,"is_disabled":false,"rental_uris":{"android":"levelo://app?vid=777a8c83-aed8-4881-84b6-34465956e738","ios":"levelo://app?vid=777a8c83-aed8-4881-84b6-34465956e738"},"vehicle_type_id":"4","last_reported":1756246189,"current_range_meters":14000,"station_id":"","pricing_plan_id":"cebpf4jnsgd1na2vs0mg"},{"bike_id":"af732ca8-2cea-448a-9928-59e03d12656f","system_id":"levelo_inurba_marseille","lat":43.33474,"lon":5.36003,"is_reserved":false,"is_disabled":false,"rental_uris":{"android":"levelo://app?vid=af732ca8-2cea-448a-9928-59e03d12656f","ios":"levelo://app?vid=af732ca8-2cea-448a-9928-59e03d12656f"},"vehicle_type_id":"4","last_reported":1756246189,"current_range_meters":14000,"station_id":"","pricing_plan_id":"cebpf4jnsgd1na2vs0mg"},{"bike_id":"4140f8b0-bbfa-4f90-8ac2-38c8d5edd915","system_id":"levelo_inurba_marseille","lat":43.25723,"lon":5.41111,"is_reserved":false,"is_disabled":false,"rental_uris":{"android":"levelo://app?vid=4140f8b0-bbfa-4f90-8ac2-38c8d5edd915","ios":"levelo://app?vid=4140f8b0-bbfa-4f90-8ac2-38c8d5edd915"},"vehicle_type_id":"4","last_reported":1756246189,"current_range_meters":14000,"station_id":"ce4bhkp2rcd13ifvqgd0","pricing_plan_id":"cebpf4jnsgd1na2vs0mg"},{"bike_id":"af744081-2681-4d1e-9525-a9843cca33d2","system_id":"levelo_inurba_marseille","lat":43.32531,"lon":5.36454,"is_reserved":false,"is_disabled":false,"rental_uris":{"android":"levelo://app?vid=af744081-2681-4d1e-9525-a9843cca33d2","ios":"levelo://app?vid=af744081-2681-4d1e-9525-a9843cca33d2"},"vehicle_type_id":"4","last_reported":1756246189,"current_range_meters":14000,"station_id":"","pricing_plan_id":"cebpf4jnsgd1na2vs0mg"},{"bike_id":"2f7a145f-a508-40c3-ad77-b3b9e8867b0c","system_id":"levelo_inurba_marseille","lat":43.29525,"lon":5.3855,"is_reserved":false,"is_disabled":false,"rental_uris":{"android":"levelo://app?vid=2f7a145f-a508-40c3-ad77-b3b9e8867b0c","ios":"levelo://app?vid=2f7a145f-a508-40c3-ad77-b3b9e8867b0c"},"vehicle_type_id":"4","last_reported":1756246189,"current_range_meters":14400,"station_id":"ce4bgih2rcd13ifvqba0","pricing_plan_id":"cebpf4jnsgd1na2vs0mg"},{"bike_id":"5bce688b-fc81-4596-8277-b66f54be87c1","system_id":"levelo_inurba_marseille","lat":43.33768,"lon":5.37438,"is_reserved":false,"is_disabled":false,"rental_uris":{"android":"levelo://app?vid=5bce688b-fc81-4596-8277-b66f54be87c1","ios":"levelo://app?vid=5bce688b-fc81-4596-8277-b66f54be87c1"},"vehicle_type_id":"4","last_reported":1756246189,"current_range_meters":14400,"station_id":"","pricing_plan_id":"cebpf4jnsgd1na2vs0mg"},{"bike_id":"503cade9-51c1-4e76-b53f-3ba4bc1efb57","system_id":"levelo_inurba_marseille","lat":43.26581,"lon":5.39031,"is_reserved":false,"is_disabled":false,"rental_uris":{"android":"levelo://app?vid=503cade9-51c1-4e76-b53f-3ba4bc1efb57","ios":"levelo://app?vid=503cade9-51c1-4e76-b53f-3ba4bc1efb57"},"vehicle_type_id":"4","last_reported":1756246189,"current_range_meters":14400,"station_id":"ce4bhe12rcd13ifvqf30","pricing_plan_id":"cebpf4jnsgd1na2vs0mg"},{"bike_id":"4146eec1-764f-46c4-8e9f-1ba95ae7c309","system_id":"levelo_inurba_marseille","lat":43.28927,"lon":5.36643,"is_reserved":false,"is_disabled":false,"rental_uris":{"android":"levelo://app?vid=4146eec1-764f-46c4-8e9f-1ba95ae7c309","ios":"levelo://app?vid=4146eec1-764f-46c4-8e9f-1ba95ae7c309"},"vehicle_type_id":"4","last_reported":1756246189,"current_range_meters":14400,"station_id":"ce4bhap2rcd13ifvqek0","pricing_plan_id":"cebpf4jnsgd1na2vs0mg"},{"bike_id":"9866df41-5bc8-4498-b2c8-6ed6f3878a29","system_id":"levelo_inurba_marseille","lat":43.28717,"lon":5.37376,"is_reserved":false,"is_disabled":false,"rental_uris":{"android":"levelo://app?vid=9866df41-5bc8-4498-b2c8-6ed6f3878a29","ios":"levelo://app?vid=9866df41-5bc8-4498-b2c8-6ed6f3878a29"},"vehicle_type_id":"4","last_reported":1756246189,"current_range_meters":14400,"station_id":"ce4bh3p2rcd13ifvqdq0","pricing_plan_id":"cebpf4jnsgd1na2vs0mg"},{"bike_id":"1fb6ecce-4d2c-4249-84b3-96fb4eb273aa","system_id":"levelo_inurba_marseille","lat":43.28707,"lon":5.39995,"is_reserved":false,"is_disabled":false,"rental_uris":{"android":"levelo://app?vid=1fb6ecce-4d2c-4249-84b3-96fb4eb273aa","ios":"levelo://app?vid=1fb6ecce-4d2c-4249-84b3-96fb4eb273aa"},"vehicle_type_id":"4","last_reported":1756246189,"current_range_meters":14800,"station_id":"ce4bho92rcd13ifvqh3g","pricing_plan_id":"cebpf4jnsgd1na2vs0mg"},{"bike_id":"b7853ae4-ca27-441d-a3d4-20d17a382ebe","system_id":"levelo_inurba_marseille","lat":43.27941,"lon":5.41048,"is_reserved":false,"is_disabled":false,"rental_uris":{"android":"levelo://app?vid=b7853ae4-ca27-441d-a3d4-20d17a382ebe","ios":"levelo://app?vid=b7853ae4-ca27-441d-a3d4-20d17a382ebe"},"vehicle_type_id":"4","last_reported":1756246189,"current_range_meters":14800,"station_id":"ce4bhnp2rcd13ifvqh0g","pricing_plan_id":"cebpf4jnsgd1na2vs0mg"},{"bike_id":"c73d9183-822c-4a14-a8c1-53bf72c04baf","system_id":"levelo_inurba_marseille","lat":43.29427,"lon":5.43223,"is_reserved":false,"is_disabled":false,"rental_uris":{"android":"levelo://app?vid=c73d9183-822c-4a14-a8c1-53bf72c04baf","ios":"levelo://app?vid=c73d9183-822c-4a14-a8c1-53bf72c04baf"},"vehicle_type_id":"4","last_reported":1756246189,"current_range_meters":14800,"station_id":"","pricing_plan_id":"cebpf4jnsgd1na2vs0mg"},{"bike_id":"c0fbf741-9994-4c35-b068-67bc43442a51","system_id":"levelo_inurba_marseille","lat":43.29271,"lon":5.36838,"is_reserved":false,"is_disabled":false,"rental_uris":{"android":"levelo://app?vid=c0fbf741-9994-4c35-b068-67bc43442a51","ios":"levelo://app?vid=c0fbf741-9994-4c35-b068-67bc43442a51"},"vehicle_type_id":"4","last_reported":1756246189,"current_range_meters":14800,"station_id":"ce4bhbp2rcd13ifvqesg","pricing_plan_id":"cebpf4jnsgd1na2vs0mg"},{"bike_id":"e8e75b32-f754-41b1-819b-d12e020e0388","system_id":"levelo_inurba_marseille","lat":43.29274,"lon":5.4011,"is_reserved":false,"is_disabled":false,"rental_uris":{"android":"levelo://app?vid=e8e75b32-f754-41b1-819b-d12e020e0388","ios":"levelo://app?vid=e8e75b32-f754-41b1-819b-d12e020e0388"},"vehicle_type_id":"4","last_reported":1756246189,"current_range_meters":14800,"station_id":"","pricing_plan_id":"cebpf4jnsgd1na2vs0mg"},{"bike_id":"0098013d-2514-433d-8198-94b1fe0c2983","system_id":"levelo_inurba_marseille","lat":43.2707,"lon":5.42284,"is_reserved":false,"is_disabled":false,"rental_uris":{"android":"levelo://app?vid=0098013d-2514-433d-8198-94b1fe0c2983","ios":"levelo://app?vid=0098013d-2514-433d-8198-94b1fe0c2983"},"vehicle_type_id":"4","last_reported":1756246189,"current_range_meters":14800,"station_id":"ce4bhk92rcd13ifvqgb0","pricing_plan_id":"cebpf4jnsgd1na2vs0mg"},{"bike_id":"9dc6ed98-f7ec-4838-9bba-0e79451a263b","system_id":"levelo_inurba_marseille","lat":43.30248,"lon":5.40046,"is_reserved":false,"is_disabled":false,"rental_uris":{"android":"levelo://app?vid=9dc6ed98-f7ec-4838-9bba-0e79451a263b","ios":"levelo://app?vid=9dc6ed98-f7ec-4838-9bba-0e79451a263b"},"vehicle_type_id":"4","last_reported":1756246189,"current_range_meters":15200,"station_id":"ce4bgvh2rcd13ifvqcs0","pricing_plan_id":"cebpf4jnsgd1na2vs0mg"},{"bike_id":"3ac95f56-21bb-43b7-af92-6f798e162ba4","system_id":"levelo_inurba_marseille","lat":43.28351,"lon":5.38118,"is_reserved":false,"is_disabled":false,"rental_uris":{"android":"levelo://app?vid=3ac95f56-21bb-43b7-af92-6f798e162ba4","ios":"levelo://app?vid=3ac95f56-21bb-43b7-af92-6f798e162ba4"},"vehicle_type_id":"4","last_reported":1756246189,"current_range_meters":15200,"station_id":"ce4bh412rcd13ifvqdr0","pricing_plan_id":"cebpf4jnsgd1na2vs0mg"},{"bike_id":"853a16b6-2446-401b-81c3-820e1ac2b4d5","system_id":"levelo_inurba_marseille","lat":43.30256,"lon":5.40065,"is_reserved":false,"is_disabled":false,"rental_uris":{"android":"levelo://app?vid=853a16b6-2446-401b-81c3-820e1ac2b4d5","ios":"levelo://app?vid=853a16b6-2446-401b-81c3-820e1ac2b4d5"},"vehicle_type_id":"4","last_reported":1756246189,"current_range_meters":15200,"station_id":"ce4bgvh2rcd13ifvqcs0","pricing_plan_id":"cebpf4jnsgd1na2vs0mg"},{"bike_id":"fbf0e9b4-0244-4455-89e8-bb336b1646cf","system_id":"levelo_inurba_marseille","lat":43.23143,"lon":5.40029,"is_reserved":false,"is_disabled":false,"rental_uris":{"android":"levelo://app?vid=fbf0e9b4-0244-4455-89e8-bb336b1646cf","ios":"levelo://app?vid=fbf0e9b4-0244-4455-89e8-bb336b1646cf"},"vehicle_type_id":"4","last_reported":1756246189,"current_range_meters":15200,"station_id":"ce4bhn12rcd13ifvqgqg","pricing_plan_id":"cebpf4jnsgd1na2vs0mg"},{"bike_id":"684fa901-ec61-438d-92cf-f534789a0a9e","system_id":"levelo_inurba_marseille","lat":43.24668,"lon":5.38152,"is_reserved":false,"is_disabled":false,"rental_uris":{"android":"levelo://app?vid=684fa901-ec61-438d-92cf-f534789a0a9e","ios":"levelo://app?vid=684fa901-ec61-438d-92cf-f534789a0a9e"},"vehicle_type_id":"4","last_reported":1756246189,"current_range_meters":15200,"station_id":"ce4bhih2rcd13ifvqfr0","pricing_plan_id":"cebpf4jnsgd1na2vs0mg"},{"bike_id":"a14f40cc-8e22-4e79-af47-b7910100959f","system_id":"levelo_inurba_marseille","lat":43.310738,"lon":5.383536,"is_reserved":false,"is_disabled":false,"rental_uris":{"android":"levelo://app?vid=a14f40cc-8e22-4e79-af47-b7910100959f","ios":"levelo://app?vid=a14f40cc-8e22-4e79-af47-b7910100959f"},"vehicle_type_id":"4","last_reported":1756246189,"current_range_meters":15200,"station_id":"ce4bgv92rcd13ifvqcr0","pricing_plan_id":"cebpf4jnsgd1na2vs0mg"},{"bike_id":"92b4870c-dbed-4330-9be5-cb1f91be9ff0","system_id":"levelo_inurba_marseille","lat":43.31337,"lon":5.39681,"is_reserved":false,"is_disabled":false,"rental_uris":{"android":"levelo://app?vid=92b4870c-dbed-4330-9be5-cb1f91be9ff0","ios":"levelo://app?vid=92b4870c-dbed-4330-9be5-cb1f91be9ff0"},"vehicle_type_id":"4","last_reported":1756246189,"current_range_meters":15200,"station_id":"ce4bgvp2rcd13ifvqcu0","pricing_plan_id":"cebpf4jnsgd1na2vs0mg"},{"bike_id":"fc7e7f3b-f447-4722-b3c7-1767b133e329","system_id":"levelo_inurba_marseille","lat":43.28349,"lon":5.38112,"is_reserved":false,"is_disabled":false,"rental_uris":{"android":"levelo://app?vid=fc7e7f3b-f447-4722-b3c7-1767b133e329","ios":"levelo://app?vid=fc7e7f3b-f447-4722-b3c7-1767b133e329"},"vehicle_type_id":"4","last_reported":1756246189,"current_range_meters":16000,"station_id":"ce4bh412rcd13ifvqdr0","pricing_plan_id":"cebpf4jnsgd1na2vs0mg"},{"bike_id":"444185a1-99b2-4724-a588-1f691746c053","system_id":"levelo_inurba_marseille","lat":43.27064,"lon":5.42281,"is_reserved":false,"is_disabled":false,"rental_uris":{"android":"levelo://app?vid=444185a1-99b2-4724-a588-1f691746c053","ios":"levelo://app?vid=444185a1-99b2-4724-a588-1f691746c053"},"vehicle_type_id":"4","last_reported":1756246189,"current_range_meters":16000,"station_id":"ce4bhk92rcd13ifvqgb0","pricing_plan_id":"cebpf4jnsgd1na2vs0mg"},{"bike_id":"16ffd5c2-31ae-43e4-9d4b-a32211f13845","system_id":"levelo_inurba_marseille","lat":43.31492,"lon":5.37311,"is_reserved":false,"is_disabled":false,"rental_uris":{"android":"levelo://app?vid=16ffd5c2-31ae-43e4-9d4b-a32211f13845","ios":"levelo://app?vid=16ffd5c2-31ae-43e4-9d4b-a32211f13845"},"vehicle_type_id":"4","last_reported":1756246189,"current_range_meters":16000,"station_id":"ce4bgt12rcd13ifvqcd0","pricing_plan_id":"cebpf4jnsgd1na2vs0mg"},{"bike_id":"f8e69672-be0f-4640-be31-c54101534892","system_id":"levelo_inurba_marseille","lat":43.30419,"lon":5.41278,"is_reserved":false,"is_disabled":false,"rental_uris":{"android":"levelo://app?vid=f8e69672-be0f-4640-be31-c54101534892","ios":"levelo://app?vid=f8e69672-be0f-4640-be31-c54101534892"},"vehicle_type_id":"4","last_reported":1756246189,"current_range_meters":16000,"station_id":"ce4bhop2rcd13ifvqh8g","pricing_plan_id":"cebpf4jnsgd1na2vs0mg"},{"bike_id":"82fdb41c-a336-478f-afa7-9244acd36d78","system_id":"levelo_inurba_marseille","lat":43.30773,"lon":5.37663,"is_reserved":false,"is_disabled":false,"rental_uris":{"android":"levelo://app?vid=82fdb41c-a336-478f-afa7-9244acd36d78","ios":"levelo://app?vid=82fdb41c-a336-478f-afa7-9244acd36d78"},"vehicle_type_id":"4","last_reported":1756246189,"current_range_meters":16000,"station_id":"ce4bgv92rcd13ifvqcq0","pricing_plan_id":"cebpf4jnsgd1na2vs0mg"},{"bike_id":"b79f626f-4cce-45e0-9b7e-79f3f3a6033f","system_id":"levelo_inurba_marseille","lat":43.246303,"lon":5.431512,"is_reserved":false,"is_disabled":false,"rental_uris":{"android":"levelo://app?vid=b79f626f-4cce-45e0-9b7e-79f3f3a6033f","ios":"levelo://app?vid=b79f626f-4cce-45e0-9b7e-79f3f3a6033f"},"vehicle_type_id":"4","last_reported":1756246189,"current_range_meters":16000,"station_id":"st_d2m6c4gdas8pm72e190g","pricing_plan_id":"cebpf4jnsgd1na2vs0mg"},{"bike_id":"b3343c33-41a0-46c5-bc81-b2b62fd22fa5","system_id":"levelo_inurba_marseille","lat":43.28585,"lon":5.39496,"is_reserved":false,"is_disabled":false,"rental_uris":{"android":"levelo://app?vid=b3343c33-41a0-46c5-bc81-b2b62fd22fa5","ios":"levelo://app?vid=b3343c33-41a0-46c5-bc81-b2b62fd22fa5"},"vehicle_type_id":"4","last_reported":1756246189,"current_range_meters":16000,"station_id":"ce4bh292rcd13ifvqdg0","pricing_plan_id":"cebpf4jnsgd1na2vs0mg"},{"bike_id":"2e75558e-2e67-486d-9308-e77d73aef433","system_id":"levelo_inurba_marseille","lat":43.29538,"lon":5.393864,"is_reserved":false,"is_disabled":false,"rental_uris":{"android":"levelo://app?vid=2e75558e-2e67-486d-9308-e77d73aef433","ios":"levelo://app?vid=2e75558e-2e67-486d-9308-e77d73aef433"},"vehicle_type_id":"4","last_reported":1756246189,"current_range_meters":16000,"station_id":"ce4bh312rcd13ifvqdj0","pricing_plan_id":"cebpf4jnsgd1na2vs0mg"},{"bike_id":"5dc1a80a-519b-4fa5-afdc-2e25d8ba5aea","system_id":"levelo_inurba_marseille","lat":43.29023,"lon":5.38652,"is_reserved":false,"is_disabled":false,"rental_uris":{"android":"levelo://app?vid=5dc1a80a-519b-4fa5-afdc-2e25d8ba5aea","ios":"levelo://app?vid=5dc1a80a-519b-4fa5-afdc-2e25d8ba5aea"},"vehicle_type_id":"4","last_reported":1756246189,"current_range_meters":16000,"station_id":"ce4bh4p2rcd13ifvqe0g","pricing_plan_id":"cebpf4jnsgd1na2vs0mg"},{"bike_id":"802a1177-8d70-47c2-930b-9e225a4c36eb","system_id":"levelo_inurba_marseille","lat":43.30328,"lon":5.40447,"is_reserved":false,"is_disabled":false,"rental_uris":{"android":"levelo://app?vid=802a1177-8d70-47c2-930b-9e225a4c36eb","ios":"levelo://app?vid=802a1177-8d70-47c2-930b-9e225a4c36eb"},"vehicle_type_id":"4","last_reported":1756246189,"current_range_meters":16000,"station_id":"ce4bh012rcd13ifvqd10","pricing_plan_id":"cebpf4jnsgd1na2vs0mg"},{"bike_id":"0aafb655-5184-4bbe-a774-d042ccbee830","system_id":"levelo_inurba_marseille","lat":43.29534,"lon":5.38551,"is_reserved":false,"is_disabled":false,"rental_uris":{"android":"levelo://app?vid=0aafb655-5184-4bbe-a774-d042ccbee830","ios":"levelo://app?vid=0aafb655-5184-4bbe-a774-d042ccbee830"},"vehicle_type_id":"4","last_reported":1756246189,"current_range_meters":16000,"station_id":"ce4bgih2rcd13ifvqba0","pricing_plan_id":"cebpf4jnsgd1na2vs0mg"},{"bike_id":"9d2c80df-2423-4f32-b331-72fea580046d","system_id":"levelo_inurba_marseille","lat":43.30243,"lon":5.40058,"is_reserved":false,"is_disabled":false,"rental_uris":{"android":"levelo://app?vid=9d2c80df-2423-4f32-b331-72fea580046d","ios":"levelo://app?vid=9d2c80df-2423-4f32-b331-72fea580046d"},"vehicle_type_id":"4","last_reported":1756246189,"current_range_meters":16000,"station_id":"ce4bgvh2rcd13ifvqcs0","pricing_plan_id":"cebpf4jnsgd1na2vs0mg"},{"bike_id":"e71745a0-e1dd-46b2-b178-c77ff9f67425","system_id":"levelo_inurba_marseille","lat":43.23169,"lon":5.39987,"is_reserved":false,"is_disabled":false,"rental_uris":{"android":"levelo://app?vid=e71745a0-e1dd-46b2-b178-c77ff9f67425","ios":"levelo://app?vid=e71745a0-e1dd-46b2-b178-c77ff9f67425"},"vehicle_type_id":"4","last_reported":1756246189,"current_range_meters":16000,"station_id":"ce4bhn12rcd13ifvqgqg","pricing_plan_id":"cebpf4jnsgd1na2vs0mg"},{"bike_id":"d262369f-4201-4652-91ef-8adb9d2a4ede","system_id":"levelo_inurba_marseille","lat":43.24071,"lon":5.37757,"is_reserved":false,"is_disabled":false,"rental_uris":{"android":"levelo://app?vid=d262369f-4201-4652-91ef-8adb9d2a4ede","ios":"levelo://app?vid=d262369f-4201-4652-91ef-8adb9d2a4ede"},"vehicle_type_id":"4","last_reported":1756246189,"current_range_meters":16000,"station_id":"ce4bhnp2rcd13ifvqgvg","pricing_plan_id":"cebpf4jnsgd1na2vs0mg"},{"bike_id":"fc0c7ed9-21aa-4f3e-9525-dadbf4f8f3a4","system_id":"levelo_inurba_marseille","lat":43.29251,"lon":5.40914,"is_reserved":false,"is_disabled":false,"rental_uris":{"android":"levelo://app?vid=fc0c7ed9-21aa-4f3e-9525-dadbf4f8f3a4","ios":"levelo://app?vid=fc0c7ed9-21aa-4f3e-9525-dadbf4f8f3a4"},"vehicle_type_id":"4","last_reported":1756246189,"current_range_meters":16000,"station_id":"ce4bh192rcd13ifvqdc0","pricing_plan_id":"cebpf4jnsgd1na2vs0mg"},{"bike_id":"9c2ed007-e70f-4ae1-98d7-1c5119a30cf4","system_id":"levelo_inurba_marseille","lat":43.29018,"lon":5.368267,"is_reserved":false,"is_disabled":false,"rental_uris":{"android":"levelo://app?vid=9c2ed007-e70f-4ae1-98d7-1c5119a30cf4","ios":"levelo://app?vid=9c2ed007-e70f-4ae1-98d7-1c5119a30cf4"},"vehicle_type_id":"4","last_reported":1756246189,"current_range_meters":16000,"station_id":"ce4bhap2rcd13ifvqek0","pricing_plan_id":"cebpf4jnsgd1na2vs0mg"},{"bike_id":"fe181338-fb88-4a8c-9d9a-8641023dd72c","system_id":"levelo_inurba_marseille","lat":43.29277,"lon":5.40124,"is_reserved":false,"is_disabled":false,"rental_uris":{"android":"levelo://app?vid=fe181338-fb88-4a8c-9d9a-8641023dd72c","ios":"levelo://app?vid=fe181338-fb88-4a8c-9d9a-8641023dd72c"},"vehicle_type_id":"4","last_reported":1756246189,"current_range_meters":16400,"station_id":"ce4bh312rcd13ifvqdk0","pricing_plan_id":"cebpf4jnsgd1na2vs0mg"},{"bike_id":"61d57af3-4d0f-4789-bb77-f21e0badc633","system_id":"levelo_inurba_marseille","lat":43.31115,"lon":5.37774,"is_reserved":false,"is_disabled":false,"rental_uris":{"android":"levelo://app?vid=61d57af3-4d0f-4789-bb77-f21e0badc633","ios":"levelo://app?vid=61d57af3-4d0f-4789-bb77-f21e0badc633"},"vehicle_type_id":"4","last_reported":1756246189,"current_range_meters":16400,"station_id":"ce4bgt92rcd13ifvqcg0","pricing_plan_id":"cebpf4jnsgd1na2vs0mg"},{"bike_id":"0306ba73-3d0f-4523-9d11-9a4554b2d8ff","system_id":"levelo_inurba_marseille","lat":43.21212,"lon":5.35089,"is_reserved":false,"is_disabled":false,"rental_uris":{"android":"levelo://app?vid=0306ba73-3d0f-4523-9d11-9a4554b2d8ff","ios":"levelo://app?vid=0306ba73-3d0f-4523-9d11-9a4554b2d8ff"},"vehicle_type_id":"4","last_reported":1756246189,"current_range_meters":16400,"station_id":"st_cvj6sg6p6f1abm77japg","pricing_plan_id":"cebpf4jnsgd1na2vs0mg"},{"bike_id":"a7a53c19-66aa-4d2e-85c1-ae889e6d2638","system_id":"levelo_inurba_marseille","lat":43.30802,"lon":5.43526,"is_reserved":false,"is_disabled":false,"rental_uris":{"android":"levelo://app?vid=a7a53c19-66aa-4d2e-85c1-ae889e6d2638","ios":"levelo://app?vid=a7a53c19-66aa-4d2e-85c1-ae889e6d2638"},"vehicle_type_id":"4","last_reported":1756246189,"current_range_meters":16400,"station_id":"ce4bhph2rcd13ifvqheg","pricing_plan_id":"cebpf4jnsgd1na2vs0mg"},{"bike_id":"47fa0c25-9439-4a53-8254-e0200131ba2a","system_id":"levelo_inurba_marseille","lat":43.29536,"lon":5.38547,"is_reserved":false,"is_disabled":false,"rental_uris":{"android":"levelo://app?vid=47fa0c25-9439-4a53-8254-e0200131ba2a","ios":"levelo://app?vid=47fa0c25-9439-4a53-8254-e0200131ba2a"},"vehicle_type_id":"4","last_reported":1756246189,"current_range_meters":16800,"station_id":"ce4bgih2rcd13ifvqba0","pricing_plan_id":"cebpf4jnsgd1na2vs0mg"},{"bike_id":"1dec5f96-d953-4203-b13d-0ce3f02e61a0","system_id":"levelo_inurba_marseille","lat":43.27075,"lon":5.42285,"is_reserved":false,"is_disabled":false,"rental_uris":{"android":"levelo://app?vid=1dec5f96-d953-4203-b13d-0ce3f02e61a0","ios":"levelo://app?vid=1dec5f96-d953-4203-b13d-0ce3f02e61a0"},"vehicle_type_id":"4","last_reported":1756246189,"current_range_meters":16800,"station_id":"ce4bhk92rcd13ifvqgb0","pricing_plan_id":"cebpf4jnsgd1na2vs0mg"},{"bike_id":"2e131540-b2e9-4376-9854-eb0061cc45b5","system_id":"levelo_inurba_marseille","lat":43.31074,"lon":5.38358,"is_reserved":false,"is_disabled":false,"rental_uris":{"android":"levelo://app?vid=2e131540-b2e9-4376-9854-eb0061cc45b5","ios":"levelo://app?vid=2e131540-b2e9-4376-9854-eb0061cc45b5"},"vehicle_type_id":"4","last_reported":1756246189,"current_range_meters":16800,"station_id":"ce4bgv92rcd13ifvqcr0","pricing_plan_id":"cebpf4jnsgd1na2vs0mg"},{"bike_id":"ff1bb8b5-d1e3-4c05-ab59-ddf6bb569c56","system_id":"levelo_inurba_marseille","lat":43.27542,"lon":5.38461,"is_reserved":false,"is_disabled":false,"rental_uris":{"android":"levelo://app?vid=ff1bb8b5-d1e3-4c05-ab59-ddf6bb569c56","ios":"levelo://app?vid=ff1bb8b5-d1e3-4c05-ab59-ddf6bb569c56"},"vehicle_type_id":"4","last_reported":1756246189,"current_range_meters":16800,"station_id":"ce4bhh92rcd13ifvqfi0","pricing_plan_id":"cebpf4jnsgd1na2vs0mg"},{"bike_id":"3dff11d5-3872-4ffe-8cce-b5631d6c6058","system_id":"levelo_inurba_marseille","lat":43.3267,"lon":5.39161,"is_reserved":false,"is_disabled":false,"rental_uris":{"android":"levelo://app?vid=3dff11d5-3872-4ffe-8cce-b5631d6c6058","ios":"levelo://app?vid=3dff11d5-3872-4ffe-8cce-b5631d6c6058"},"vehicle_type_id":"4","last_reported":1756246189,"current_range_meters":16800,"station_id":"","pricing_plan_id":"cebpf4jnsgd1na2vs0mg"},{"bike_id":"1f573401-8d9e-4177-96e1-2ff22ea69cd4","system_id":"levelo_inurba_marseille","lat":43.301409,"lon":5.374195,"is_reserved":false,"is_disabled":false,"rental_uris":{"android":"levelo://app?vid=1f573401-8d9e-4177-96e1-2ff22ea69cd4","ios":"levelo://app?vid=1f573401-8d9e-4177-96e1-2ff22ea69cd4"},"vehicle_type_id":"4","last_reported":1756246189,"current_range_meters":16800,"station_id":"ce4bgv92rcd13ifvqcq0","pricing_plan_id":"cebpf4jnsgd1na2vs0mg"},{"bike_id":"148b3563-fa76-4398-9867-f2cca510a852","system_id":"levelo_inurba_marseille","lat":43.2799,"lon":5.41665,"is_reserved":false,"is_disabled":false,"rental_uris":{"android":"levelo://app?vid=148b3563-fa76-4398-9867-f2cca510a852","ios":"levelo://app?vid=148b3563-fa76-4398-9867-f2cca510a852"},"vehicle_type_id":"4","last_reported":1756246189,"current_range_meters":16800,"station_id":"ce4bho12rcd13ifvqh1g","pricing_plan_id":"cebpf4jnsgd1na2vs0mg"},{"bike_id":"4e54e4fd-bbbf-4d68-a084-2926b89872a0","system_id":"levelo_inurba_marseille","lat":43.29173,"lon":5.39305,"is_reserved":false,"is_disabled":false,"rental_uris":{"android":"levelo://app?vid=4e54e4fd-bbbf-4d68-a084-2926b89872a0","ios":"levelo://app?vid=4e54e4fd-bbbf-4d68-a084-2926b89872a0"},"vehicle_type_id":"4","last_reported":1756246189,"current_range_meters":16800,"station_id":"ce4bh192rcd13ifvqdd0","pricing_plan_id":"cebpf4jnsgd1na2vs0mg"},{"bike_id":"cb567a16-f56a-4bcd-9c16-b35cef4fac8f","system_id":"levelo_inurba_marseille","lat":43.29857,"lon":5.38904,"is_reserved":false,"is_disabled":true,"rental_uris":{"android":"levelo://app?vid=cb567a16-f56a-4bcd-9c16-b35cef4fac8f","ios":"levelo://app?vid=cb567a16-f56a-4bcd-9c16-b35cef4fac8f"},"vehicle_type_id":"4","last_reported":1756246189,"current_range_meters":16800,"station_id":"ce4bh392rcd13ifvqdl0","pricing_plan_id":"cebpf4jnsgd1na2vs0mg"},{"bike_id":"e4b35d5a-908b-4b97-8341-4396d77099da","system_id":"levelo_inurba_marseille","lat":43.27369,"lon":5.36249,"is_reserved":false,"is_disabled":true,"rental_uris":{"android":"levelo://app?vid=e4b35d5a-908b-4b97-8341-4396d77099da","ios":"levelo://app?vid=e4b35d5a-908b-4b97-8341-4396d77099da"},"vehicle_type_id":"4","last_reported":1756246189,"current_range_meters":16800,"station_id":"ce4bhbh2rcd13ifvqeo0","pricing_plan_id":"cebpf4jnsgd1na2vs0mg"},{"bike_id":"b5ae0016-67e1-4c37-91cb-4d986fbc09a4","system_id":"levelo_inurba_marseille","lat":43.24625,"lon":5.43155,"is_reserved":false,"is_disabled":false,"rental_uris":{"android":"levelo://app?vid=b5ae0016-67e1-4c37-91cb-4d986fbc09a4","ios":"levelo://app?vid=b5ae0016-67e1-4c37-91cb-4d986fbc09a4"},"vehicle_type_id":"4","last_reported":1756246189,"current_range_meters":17200,"station_id":"st_d2m6c4gdas8pm72e190g","pricing_plan_id":"cebpf4jnsgd1na2vs0mg"},{"bike_id":"e5eabf25-4e1c-476e-b130-9f83cdcfc80c","system_id":"levelo_inurba_marseille","lat":43.29806,"lon":5.41706,"is_reserved":false,"is_disabled":false,"rental_uris":{"android":"levelo://app?vid=e5eabf25-4e1c-476e-b130-9f83cdcfc80c","ios":"levelo://app?vid=e5eabf25-4e1c-476e-b130-9f83cdcfc80c"},"vehicle_type_id":"4","last_reported":1756246189,"current_range_meters":17200,"station_id":"","pricing_plan_id":"cebpf4jnsgd1na2vs0mg"},{"bike_id":"b5133710-52a6-42c6-b487-40f265b37cba","system_id":"levelo_inurba_marseille","lat":43.307915,"lon":5.43522,"is_reserved":false,"is_disabled":false,"rental_uris":{"android":"levelo://app?vid=b5133710-52a6-42c6-b487-40f265b37cba","ios":"levelo://app?vid=b5133710-52a6-42c6-b487-40f265b37cba"},"vehicle_type_id":"4","last_reported":1756246189,"current_range_meters":17200,"station_id":"ce4bhph2rcd13ifvqheg","pricing_plan_id":"cebpf4jnsgd1na2vs0mg"},{"bike_id":"f3a5cd40-5bb7-43ee-b794-3db1f6a09aa3","system_id":"levelo_inurba_marseille","lat":43.31081,"lon":5.42437,"is_reserved":false,"is_disabled":false,"rental_uris":{"android":"levelo://app?vid=f3a5cd40-5bb7-43ee-b794-3db1f6a09aa3","ios":"levelo://app?vid=f3a5cd40-5bb7-43ee-b794-3db1f6a09aa3"},"vehicle_type_id":"4","last_reported":1756246189,"current_range_meters":17200,"station_id":"ce4bhp92rcd13ifvqhag","pricing_plan_id":"cebpf4jnsgd1na2vs0mg"},{"bike_id":"19d94fc8-023d-43c9-bebd-8be5caa0df12","system_id":"levelo_inurba_marseille","lat":43.28716,"lon":5.37394,"is_reserved":false,"is_disabled":false,"rental_uris":{"android":"levelo://app?vid=19d94fc8-023d-43c9-bebd-8be5caa0df12","ios":"levelo://app?vid=19d94fc8-023d-43c9-bebd-8be5caa0df12"},"vehicle_type_id":"4","last_reported":1756246189,"current_range_meters":17200,"station_id":"ce4bh3p2rcd13ifvqdq0","pricing_plan_id":"cebpf4jnsgd1na2vs0mg"},{"bike_id":"115f05a5-882e-4ebd-bc16-8739ad4b153a","system_id":"levelo_inurba_marseille","lat":43.2598,"lon":5.37571,"is_reserved":false,"is_disabled":true,"rental_uris":{"android":"levelo://app?vid=115f05a5-882e-4ebd-bc16-8739ad4b153a","ios":"levelo://app?vid=115f05a5-882e-4ebd-bc16-8739ad4b153a"},"vehicle_type_id":"4","last_reported":1756246189,"current_range_meters":17200,"station_id":"","pricing_plan_id":"cebpf4jnsgd1na2vs0mg"},{"bike_id":"4d28c8ea-480e-498e-8ec9-be6bf3a3fe48","system_id":"levelo_inurba_marseille","lat":43.28405,"lon":5.37517,"is_reserved":false,"is_disabled":false,"rental_uris":{"android":"levelo://app?vid=4d28c8ea-480e-498e-8ec9-be6bf3a3fe48","ios":"levelo://app?vid=4d28c8ea-480e-498e-8ec9-be6bf3a3fe48"},"vehicle_type_id":"4","last_reported":1756246189,"current_range_meters":17200,"station_id":"ce4bh412rcd13ifvqds0","pricing_plan_id":"cebpf4jnsgd1na2vs0mg"},{"bike_id":"db7d3d83-f39a-4469-8445-29697e69fec4","system_id":"levelo_inurba_marseille","lat":43.32119,"lon":5.38573,"is_reserved":false,"is_disabled":false,"rental_uris":{"android":"levelo://app?vid=db7d3d83-f39a-4469-8445-29697e69fec4","ios":"levelo://app?vid=db7d3d83-f39a-4469-8445-29697e69fec4"},"vehicle_type_id":"4","last_reported":1756246189,"current_range_meters":17200,"station_id":"","pricing_plan_id":"cebpf4jnsgd1na2vs0mg"},{"bike_id":"01f1e178-b0c5-4455-9df7-4d991cff7aa0","system_id":"levelo_inurba_marseille","lat":43.2919,"lon":5.3931,"is_reserved":false,"is_disabled":false,"rental_uris":{"android":"levelo://app?vid=01f1e178-b0c5-4455-9df7-4d991cff7aa0","ios":"levelo://app?vid=01f1e178-b0c5-4455-9df7-4d991cff7aa0"},"vehicle_type_id":"4","last_reported":1756246189,"current_range_meters":17600,"station_id":"ce4bh192rcd13ifvqdd0","pricing_plan_id":"cebpf4jnsgd1na2vs0mg"},{"bike_id":"9cee6ac4-b323-4dc3-9e81-cfd228e75a7f","system_id":"levelo_inurba_marseille","lat":43.31154,"lon":5.39466,"is_reserved":false,"is_disabled":false,"rental_uris":{"android":"levelo://app?vid=9cee6ac4-b323-4dc3-9e81-cfd228e75a7f","ios":"levelo://app?vid=9cee6ac4-b323-4dc3-9e81-cfd228e75a7f"},"vehicle_type_id":"4","last_reported":1756246189,"current_range_meters":17600,"station_id":"","pricing_plan_id":"cebpf4jnsgd1na2vs0mg"},{"bike_id":"3cda9968-2575-4edf-9ab8-46cd0286257f","system_id":"levelo_inurba_marseille","lat":43.30535,"lon":5.38428,"is_reserved":false,"is_disabled":false,"rental_uris":{"android":"levelo://app?vid=3cda9968-2575-4edf-9ab8-46cd0286257f","ios":"levelo://app?vid=3cda9968-2575-4edf-9ab8-46cd0286257f"},"vehicle_type_id":"4","last_reported":1756246189,"current_range_meters":17600,"station_id":"ce4bgg92rcd13ifvqb30","pricing_plan_id":"cebpf4jnsgd1na2vs0mg"},{"bike_id":"685105d1-bcda-4899-9d64-d94adf158a64","system_id":"levelo_inurba_marseille","lat":43.314676,"lon":5.373608,"is_reserved":false,"is_disabled":true,"rental_uris":{"android":"levelo://app?vid=685105d1-bcda-4899-9d64-d94adf158a64","ios":"levelo://app?vid=685105d1-bcda-4899-9d64-d94adf158a64"},"vehicle_type_id":"4","last_reported":1756246189,"current_range_meters":17600,"station_id":"","pricing_plan_id":"cebpf4jnsgd1na2vs0mg"},{"bike_id":"fa8821a0-c427-470f-8833-e9e71b4e8b41","system_id":"levelo_inurba_marseille","lat":43.28852,"lon":5.39314,"is_reserved":false,"is_disabled":false,"rental_uris":{"android":"levelo://app?vid=fa8821a0-c427-470f-8833-e9e71b4e8b41","ios":"levelo://app?vid=fa8821a0-c427-470f-8833-e9e71b4e8b41"},"vehicle_type_id":"4","last_reported":1756246189,"current_range_meters":17200,"station_id":"ce4bh2p2rcd13ifvqdi0","pricing_plan_id":"cebpf4jnsgd1na2vs0mg"},{"bike_id":"05333f1f-8cc0-4dc9-bbd8-a1f0e18ceb88","system_id":"levelo_inurba_marseille","lat":43.2628,"lon":5.39905,"is_reserved":false,"is_disabled":false,"rental_uris":{"android":"levelo://app?vid=05333f1f-8cc0-4dc9-bbd8-a1f0e18ceb88","ios":"levelo://app?vid=05333f1f-8cc0-4dc9-bbd8-a1f0e18ceb88"},"vehicle_type_id":"4","last_reported":1756246189,"current_range_meters":17600,"station_id":"","pricing_plan_id":"cebpf4jnsgd1na2vs0mg"},{"bike_id":"cd822ebe-8d01-44f2-b9e8-1f0b3a981bae","system_id":"levelo_inurba_marseille","lat":43.28857,"lon":5.3583,"is_reserved":false,"is_disabled":true,"rental_uris":{"android":"levelo://app?vid=cd822ebe-8d01-44f2-b9e8-1f0b3a981bae","ios":"levelo://app?vid=cd822ebe-8d01-44f2-b9e8-1f0b3a981bae"},"vehicle_type_id":"4","last_reported":1756246189,"current_range_meters":17600,"station_id":"ce4bhb12rcd13ifvqem0","pricing_plan_id":"cebpf4jnsgd1na2vs0mg"},{"bike_id":"14f2b864-cea9-45e8-a4b9-eb9637fd7d14","system_id":"levelo_inurba_marseille","lat":43.29055,"lon":5.37155,"is_reserved":false,"is_disabled":true,"rental_uris":{"android":"levelo://app?vid=14f2b864-cea9-45e8-a4b9-eb9637fd7d14","ios":"levelo://app?vid=14f2b864-cea9-45e8-a4b9-eb9637fd7d14"},"vehicle_type_id":"4","last_reported":1756246189,"current_range_meters":17600,"station_id":"ce4bh5p2rcd13ifvqe4g","pricing_plan_id":"cebpf4jnsgd1na2vs0mg"},{"bike_id":"704e2caf-059f-4567-9ea9-a18acb788b49","system_id":"levelo_inurba_marseille","lat":43.28444,"lon":5.39184,"is_reserved":false,"is_disabled":false,"rental_uris":{"android":"levelo://app?vid=704e2caf-059f-4567-9ea9-a18acb788b49","ios":"levelo://app?vid=704e2caf-059f-4567-9ea9-a18acb788b49"},"vehicle_type_id":"4","last_reported":1756246189,"current_range_meters":18000,"station_id":"ce4bhoh2rcd13ifvqh5g","pricing_plan_id":"cebpf4jnsgd1na2vs0mg"},{"bike_id":"5c26a54e-1e97-4ad3-a16d-614ad930b130","system_id":"levelo_inurba_marseille","lat":43.321064,"lon":5.367682,"is_reserved":false,"is_disabled":false,"rental_uris":{"android":"levelo://app?vid=5c26a54e-1e97-4ad3-a16d-614ad930b130","ios":"levelo://app?vid=5c26a54e-1e97-4ad3-a16d-614ad930b130"},"vehicle_type_id":"4","last_reported":1756246189,"current_range_meters":18000,"station_id":"ce4bhrh2rcd13ifvqhug","pricing_plan_id":"cebpf4jnsgd1na2vs0mg"},{"bike_id":"71136ea1-3aaf-4521-8084-554abe261412","system_id":"levelo_inurba_marseille","lat":43.303037,"lon":5.369059,"is_reserved":false,"is_disabled":true,"rental_uris":{"android":"levelo://app?vid=71136ea1-3aaf-4521-8084-554abe261412","ios":"levelo://app?vid=71136ea1-3aaf-4521-8084-554abe261412"},"vehicle_type_id":"4","last_reported":1756246189,"current_range_meters":18000,"station_id":"","pricing_plan_id":"cebpf4jnsgd1na2vs0mg"},{"bike_id":"76931a50-f6ce-4372-9db5-3156eb781040","system_id":"levelo_inurba_marseille","lat":43.30887,"lon":5.39658,"is_reserved":false,"is_disabled":false,"rental_uris":{"android":"levelo://app?vid=76931a50-f6ce-4372-9db5-3156eb781040","ios":"levelo://app?vid=76931a50-f6ce-4372-9db5-3156eb781040"},"vehicle_type_id":"4","last_reported":1756246189,"current_range_meters":18000,"station_id":"ce4bh012rcd13ifvqcv0","pricing_plan_id":"cebpf4jnsgd1na2vs0mg"},{"bike_id":"95f848b0-16a6-4e4a-9b12-04276a2c6679","system_id":"levelo_inurba_marseille","lat":43.29236,"lon":5.40945,"is_reserved":false,"is_disabled":true,"rental_uris":{"android":"levelo://app?vid=95f848b0-16a6-4e4a-9b12-04276a2c6679","ios":"levelo://app?vid=95f848b0-16a6-4e4a-9b12-04276a2c6679"},"vehicle_type_id":"4","last_reported":1756246189,"current_range_meters":18000,"station_id":"ce4bh192rcd13ifvqdc0","pricing_plan_id":"cebpf4jnsgd1na2vs0mg"},{"bike_id":"f770de0b-2599-4f2d-8ce3-8a9e24116e0a","system_id":"levelo_inurba_marseille","lat":43.25091,"lon":5.39523,"is_reserved":false,"is_disabled":false,"rental_uris":{"android":"levelo://app?vid=f770de0b-2599-4f2d-8ce3-8a9e24116e0a","ios":"levelo://app?vid=f770de0b-2599-4f2d-8ce3-8a9e24116e0a"},"vehicle_type_id":"4","last_reported":1756246189,"current_range_meters":18000,"station_id":"ce4bhm12rcd13ifvqgkg","pricing_plan_id":"cebpf4jnsgd1na2vs0mg"},{"bike_id":"a9d83b21-9821-4029-bb59-40c830188146","system_id":"levelo_inurba_marseille","lat":43.32381,"lon":5.36764,"is_reserved":false,"is_disabled":false,"rental_uris":{"android":"levelo://app?vid=a9d83b21-9821-4029-bb59-40c830188146","ios":"levelo://app?vid=a9d83b21-9821-4029-bb59-40c830188146"},"vehicle_type_id":"4","last_reported":1756246189,"current_range_meters":18000,"station_id":"ce4bhsh2rcd13ifvqi2g","pricing_plan_id":"cebpf4jnsgd1na2vs0mg"},{"bike_id":"f67c8e5e-7af8-4847-a4ce-1e12088b4291","system_id":"levelo_inurba_marseille","lat":43.325221,"lon":5.36858,"is_reserved":false,"is_disabled":false,"rental_uris":{"android":"levelo://app?vid=f67c8e5e-7af8-4847-a4ce-1e12088b4291","ios":"levelo://app?vid=f67c8e5e-7af8-4847-a4ce-1e12088b4291"},"vehicle_type_id":"4","last_reported":1756246189,"current_range_meters":18000,"station_id":"","pricing_plan_id":"cebpf4jnsgd1na2vs0mg"},{"bike_id":"182848e1-c128-499b-944e-cad0c910e9fb","system_id":"levelo_inurba_marseille","lat":43.21184,"lon":5.35089,"is_reserved":false,"is_disabled":false,"rental_uris":{"android":"levelo://app?vid=182848e1-c128-499b-944e-cad0c910e9fb","ios":"levelo://app?vid=182848e1-c128-499b-944e-cad0c910e9fb"},"vehicle_type_id":"4","last_reported":1756246189,"current_range_meters":18000,"station_id":"st_cvj6sg6p6f1abm77japg","pricing_plan_id":"cebpf4jnsgd1na2vs0mg"},{"bike_id":"75ffaa72-fb4e-41f0-9264-6260f70f8f9f","system_id":"levelo_inurba_marseille","lat":43.28609,"lon":5.35106,"is_reserved":false,"is_disabled":false,"rental_uris":{"android":"levelo://app?vid=75ffaa72-fb4e-41f0-9264-6260f70f8f9f","ios":"levelo://app?vid=75ffaa72-fb4e-41f0-9264-6260f70f8f9f"},"vehicle_type_id":"4","last_reported":1756246189,"current_range_meters":18000,"station_id":"ce4bhch2rcd13ifvqeug","pricing_plan_id":"cebpf4jnsgd1na2vs0mg"},{"bike_id":"eb84d2b3-c6d3-41e7-bfdd-ee13247deb20","system_id":"levelo_inurba_marseille","lat":43.31698,"lon":5.40462,"is_reserved":false,"is_disabled":false,"rental_uris":{"android":"levelo://app?vid=eb84d2b3-c6d3-41e7-bfdd-ee13247deb20","ios":"levelo://app?vid=eb84d2b3-c6d3-41e7-bfdd-ee13247deb20"},"vehicle_type_id":"4","last_reported":1756246189,"current_range_meters":18000,"station_id":"ce4bh012rcd13ifvqd00","pricing_plan_id":"cebpf4jnsgd1na2vs0mg"},{"bike_id":"9e748692-5855-43ee-aa5c-10f2fc5f505a","system_id":"levelo_inurba_marseille","lat":43.31119,"lon":5.37759,"is_reserved":false,"is_disabled":false,"rental_uris":{"android":"levelo://app?vid=9e748692-5855-43ee-aa5c-10f2fc5f505a","ios":"levelo://app?vid=9e748692-5855-43ee-aa5c-10f2fc5f505a"},"vehicle_type_id":"4","last_reported":1756246189,"current_range_meters":18000,"station_id":"ce4bgt92rcd13ifvqcg0","pricing_plan_id":"cebpf4jnsgd1na2vs0mg"},{"bike_id":"3f2116d9-8d47-4362-8585-93d27bf7fe84","system_id":"levelo_inurba_marseille","lat":43.2659,"lon":5.39045,"is_reserved":false,"is_disabled":false,"rental_uris":{"android":"levelo://app?vid=3f2116d9-8d47-4362-8585-93d27bf7fe84","ios":"levelo://app?vid=3f2116d9-8d47-4362-8585-93d27bf7fe84"},"vehicle_type_id":"4","last_reported":1756246189,"current_range_meters":18000,"station_id":"ce4bhe12rcd13ifvqf30","pricing_plan_id":"cebpf4jnsgd1na2vs0mg"},{"bike_id":"c561b3be-23f4-46ed-8d38-1fc2450f503d","system_id":"levelo_inurba_marseille","lat":43.2365,"lon":5.36234,"is_reserved":false,"is_disabled":false,"rental_uris":{"android":"levelo://app?vid=c561b3be-23f4-46ed-8d38-1fc2450f503d","ios":"levelo://app?vid=c561b3be-23f4-46ed-8d38-1fc2450f503d"},"vehicle_type_id":"4","last_reported":1756246189,"current_range_meters":18000,"station_id":"","pricing_plan_id":"cebpf4jnsgd1na2vs0mg"},{"bike_id":"0df9f31e-884c-48e7-badc-68450e179c96","system_id":"levelo_inurba_marseille","lat":43.25577,"lon":5.38231,"is_reserved":false,"is_disabled":false,"rental_uris":{"android":"levelo://app?vid=0df9f31e-884c-48e7-badc-68450e179c96","ios":"levelo://app?vid=0df9f31e-884c-48e7-badc-68450e179c96"},"vehicle_type_id":"4","last_reported":1756246189,"current_range_meters":18000,"station_id":"ce4bhih2rcd13ifvqfs0","pricing_plan_id":"cebpf4jnsgd1na2vs0mg"},{"bike_id":"ca1f8c62-27dc-4b7e-8f0e-b3651a1fe9c5","system_id":"levelo_inurba_marseille","lat":43.31116,"lon":5.37756,"is_reserved":false,"is_disabled":false,"rental_uris":{"android":"levelo://app?vid=ca1f8c62-27dc-4b7e-8f0e-b3651a1fe9c5","ios":"levelo://app?vid=ca1f8c62-27dc-4b7e-8f0e-b3651a1fe9c5"},"vehicle_type_id":"4","last_reported":1756246189,"current_range_meters":18800,"station_id":"ce4bgt92rcd13ifvqcg0","pricing_plan_id":"cebpf4jnsgd1na2vs0mg"},{"bike_id":"34fbfb6d-16c6-4c38-acd4-c060d12c1de5","system_id":"levelo_inurba_marseille","lat":43.29275,"lon":5.40124,"is_reserved":false,"is_disabled":false,"rental_uris":{"android":"levelo://app?vid=34fbfb6d-16c6-4c38-acd4-c060d12c1de5","ios":"levelo://app?vid=34fbfb6d-16c6-4c38-acd4-c060d12c1de5"},"vehicle_type_id":"4","last_reported":1756246189,"current_range_meters":18800,"station_id":"ce4bh312rcd13ifvqdk0","pricing_plan_id":"cebpf4jnsgd1na2vs0mg"},{"bike_id":"fc33c77b-a9d9-4a1b-847c-adcfbe10f61e","system_id":"levelo_inurba_marseille","lat":43.24687,"lon":5.3815,"is_reserved":false,"is_disabled":false,"rental_uris":{"android":"levelo://app?vid=fc33c77b-a9d9-4a1b-847c-adcfbe10f61e","ios":"levelo://app?vid=fc33c77b-a9d9-4a1b-847c-adcfbe10f61e"},"vehicle_type_id":"4","last_reported":1756246189,"current_range_meters":18800,"station_id":"ce4bhih2rcd13ifvqfr0","pricing_plan_id":"cebpf4jnsgd1na2vs0mg"},{"bike_id":"ffd21136-ae47-45ee-8fc5-e7f85ea84802","system_id":"levelo_inurba_marseille","lat":43.29835,"lon":5.38226,"is_reserved":false,"is_disabled":false,"rental_uris":{"android":"levelo://app?vid=ffd21136-ae47-45ee-8fc5-e7f85ea84802","ios":"levelo://app?vid=ffd21136-ae47-45ee-8fc5-e7f85ea84802"},"vehicle_type_id":"4","last_reported":1756246189,"current_range_meters":18800,"station_id":"","pricing_plan_id":"cebpf4jnsgd1na2vs0mg"},{"bike_id":"f84f46c8-243d-42cd-b308-2b289e4c09d3","system_id":"levelo_inurba_marseille","lat":43.33444,"lon":5.35696,"is_reserved":false,"is_disabled":false,"rental_uris":{"android":"levelo://app?vid=f84f46c8-243d-42cd-b308-2b289e4c09d3","ios":"levelo://app?vid=f84f46c8-243d-42cd-b308-2b289e4c09d3"},"vehicle_type_id":"4","last_reported":1756246189,"current_range_meters":18800,"station_id":"","pricing_plan_id":"cebpf4jnsgd1na2vs0mg"},{"bike_id":"90bb742c-2a0e-410e-9f09-b23666cd7d36","system_id":"levelo_inurba_marseille","lat":43.30417,"lon":5.41282,"is_reserved":false,"is_disabled":false,"rental_uris":{"android":"levelo://app?vid=90bb742c-2a0e-410e-9f09-b23666cd7d36","ios":"levelo://app?vid=90bb742c-2a0e-410e-9f09-b23666cd7d36"},"vehicle_type_id":"4","last_reported":1756246189,"current_range_meters":18800,"station_id":"ce4bhop2rcd13ifvqh8g","pricing_plan_id":"cebpf4jnsgd1na2vs0mg"},{"bike_id":"cfd66be3-eb77-4fcb-9808-b084ac439d43","system_id":"levelo_inurba_marseille","lat":43.30011,"lon":5.3766,"is_reserved":false,"is_disabled":false,"rental_uris":{"android":"levelo://app?vid=cfd66be3-eb77-4fcb-9808-b084ac439d43","ios":"levelo://app?vid=cfd66be3-eb77-4fcb-9808-b084ac439d43"},"vehicle_type_id":"4","last_reported":1756246189,"current_range_meters":18800,"station_id":"","pricing_plan_id":"cebpf4jnsgd1na2vs0mg"},{"bike_id":"bd4376ea-7d2d-4cf4-9dc1-caf98f82dced","system_id":"levelo_inurba_marseille","lat":43.33329,"lon":5.39744,"is_reserved":false,"is_disabled":false,"rental_uris":{"android":"levelo://app?vid=bd4376ea-7d2d-4cf4-9dc1-caf98f82dced","ios":"levelo://app?vid=bd4376ea-7d2d-4cf4-9dc1-caf98f82dced"},"vehicle_type_id":"4","last_reported":1756246189,"current_range_meters":19200,"station_id":"","pricing_plan_id":"cebpf4jnsgd1na2vs0mg"},{"bike_id":"dadce543-3b3c-41dc-a30c-cc427cdb7c36","system_id":"levelo_inurba_marseille","lat":43.31886,"lon":5.40742,"is_reserved":false,"is_disabled":false,"rental_uris":{"android":"levelo://app?vid=dadce543-3b3c-41dc-a30c-cc427cdb7c36","ios":"levelo://app?vid=dadce543-3b3c-41dc-a30c-cc427cdb7c36"},"vehicle_type_id":"4","last_reported":1756246189,"current_range_meters":19200,"station_id":"ce4bhq12rcd13ifvqhig","pricing_plan_id":"cebpf4jnsgd1na2vs0mg"},{"bike_id":"4481ea30-be47-4749-b3a2-15500e910466","system_id":"levelo_inurba_marseille","lat":43.28921,"lon":5.36636,"is_reserved":false,"is_disabled":false,"rental_uris":{"android":"levelo://app?vid=4481ea30-be47-4749-b3a2-15500e910466","ios":"levelo://app?vid=4481ea30-be47-4749-b3a2-15500e910466"},"vehicle_type_id":"4","last_reported":1756246189,"current_range_meters":19200,"station_id":"ce4bhap2rcd13ifvqek0","pricing_plan_id":"cebpf4jnsgd1na2vs0mg"},{"bike_id":"5ad7a699-db4b-4f51-a3c6-9b619b7bd6c8","system_id":"levelo_inurba_marseille","lat":43.31184,"lon":5.38721,"is_reserved":false,"is_disabled":false,"rental_uris":{"android":"levelo://app?vid=5ad7a699-db4b-4f51-a3c6-9b619b7bd6c8","ios":"levelo://app?vid=5ad7a699-db4b-4f51-a3c6-9b619b7bd6c8"},"vehicle_type_id":"4","last_reported":1756246189,"current_range_meters":19200,"station_id":"ce4bgv12rcd13ifvqcp0","pricing_plan_id":"cebpf4jnsgd1na2vs0mg"},{"bike_id":"5f47bb7d-5623-4b93-bdcf-88200a96fabe","system_id":"levelo_inurba_marseille","lat":43.30885,"lon":5.3966,"is_reserved":false,"is_disabled":false,"rental_uris":{"android":"levelo://app?vid=5f47bb7d-5623-4b93-bdcf-88200a96fabe","ios":"levelo://app?vid=5f47bb7d-5623-4b93-bdcf-88200a96fabe"},"vehicle_type_id":"4","last_reported":1756246189,"current_range_meters":19200,"station_id":"ce4bh012rcd13ifvqcv0","pricing_plan_id":"cebpf4jnsgd1na2vs0mg"},{"bike_id":"219189a7-6b7a-47fd-8a66-ed7ef9c30784","system_id":"levelo_inurba_marseille","lat":43.33034,"lon":5.39235,"is_reserved":false,"is_disabled":false,"rental_uris":{"android":"levelo://app?vid=219189a7-6b7a-47fd-8a66-ed7ef9c30784","ios":"levelo://app?vid=219189a7-6b7a-47fd-8a66-ed7ef9c30784"},"vehicle_type_id":"4","last_reported":1756246189,"current_range_meters":19200,"station_id":"","pricing_plan_id":"cebpf4jnsgd1na2vs0mg"},{"bike_id":"66e0a403-9848-4a61-83d6-ca6c879e0442","system_id":"levelo_inurba_marseille","lat":43.29222,"lon":5.3606,"is_reserved":false,"is_disabled":true,"rental_uris":{"android":"levelo://app?vid=66e0a403-9848-4a61-83d6-ca6c879e0442","ios":"levelo://app?vid=66e0a403-9848-4a61-83d6-ca6c879e0442"},"vehicle_type_id":"4","last_reported":1756246189,"current_range_meters":19200,"station_id":"ce4bhbh2rcd13ifvqeqg","pricing_plan_id":"cebpf4jnsgd1na2vs0mg"},{"bike_id":"d1ab4433-94d0-4b2e-aecd-cb94ea10bdaa","system_id":"levelo_inurba_marseille","lat":43.261926,"lon":5.374481,"is_reserved":false,"is_disabled":true,"rental_uris":{"android":"levelo://app?vid=d1ab4433-94d0-4b2e-aecd-cb94ea10bdaa","ios":"levelo://app?vid=d1ab4433-94d0-4b2e-aecd-cb94ea10bdaa"},"vehicle_type_id":"4","last_reported":1756246189,"current_range_meters":19200,"station_id":"","pricing_plan_id":"cebpf4jnsgd1na2vs0mg"},{"bike_id":"9362ae2f-c5b3-45c7-be7c-c80bc8e588c3","system_id":"levelo_inurba_marseille","lat":43.28152,"lon":5.42646,"is_reserved":false,"is_disabled":false,"rental_uris":{"android":"levelo://app?vid=9362ae2f-c5b3-45c7-be7c-c80bc8e588c3","ios":"levelo://app?vid=9362ae2f-c5b3-45c7-be7c-c80bc8e588c3"},"vehicle_type_id":"4","last_reported":1756246189,"current_range_meters":19200,"station_id":"ce4bhnh2rcd13ifvqgug","pricing_plan_id":"cebpf4jnsgd1na2vs0mg"},{"bike_id":"b104044f-7e0b-4344-af70-6099d15a5086","system_id":"levelo_inurba_marseille","lat":43.30425,"lon":5.41299,"is_reserved":false,"is_disabled":false,"rental_uris":{"android":"levelo://app?vid=b104044f-7e0b-4344-af70-6099d15a5086","ios":"levelo://app?vid=b104044f-7e0b-4344-af70-6099d15a5086"},"vehicle_type_id":"4","last_reported":1756246189,"current_range_meters":19200,"station_id":"ce4bhop2rcd13ifvqh8g","pricing_plan_id":"cebpf4jnsgd1na2vs0mg"},{"bike_id":"3d67bad6-b533-4f57-9452-686d772960f8","system_id":"levelo_inurba_marseille","lat":43.27909,"lon":5.39578,"is_reserved":false,"is_disabled":false,"rental_uris":{"android":"levelo://app?vid=3d67bad6-b533-4f57-9452-686d772960f8","ios":"levelo://app?vid=3d67bad6-b533-4f57-9452-686d772960f8"},"vehicle_type_id":"4","last_reported":1756246189,"current_range_meters":19200,"station_id":"ce4bhf92rcd13ifvqf40","pricing_plan_id":"cebpf4jnsgd1na2vs0mg"},{"bike_id":"2152ba4e-fea8-4f0b-9344-478fd65e1eef","system_id":"levelo_inurba_marseille","lat":43.28936,"lon":5.36405,"is_reserved":false,"is_disabled":false,"rental_uris":{"android":"levelo://app?vid=2152ba4e-fea8-4f0b-9344-478fd65e1eef","ios":"levelo://app?vid=2152ba4e-fea8-4f0b-9344-478fd65e1eef"},"vehicle_type_id":"4","last_reported":1756246189,"current_range_meters":19200,"station_id":"ce4bhc92rcd13ifvqetg","pricing_plan_id":"cebpf4jnsgd1na2vs0mg"},{"bike_id":"dca80f1f-5074-4ff3-bed0-af68e3fe2678","system_id":"levelo_inurba_marseille","lat":43.29193,"lon":5.39326,"is_reserved":false,"is_disabled":false,"rental_uris":{"android":"levelo://app?vid=dca80f1f-5074-4ff3-bed0-af68e3fe2678","ios":"levelo://app?vid=dca80f1f-5074-4ff3-bed0-af68e3fe2678"},"vehicle_type_id":"4","last_reported":1756246189,"current_range_meters":19600,"station_id":"ce4bh192rcd13ifvqdd0","pricing_plan_id":"cebpf4jnsgd1na2vs0mg"},{"bike_id":"fd8c465d-11d0-449f-a4f6-d345f306873d","system_id":"levelo_inurba_marseille","lat":43.317,"lon":5.43739,"is_reserved":false,"is_disabled":false,"rental_uris":{"android":"levelo://app?vid=fd8c465d-11d0-449f-a4f6-d345f306873d","ios":"levelo://app?vid=fd8c465d-11d0-449f-a4f6-d345f306873d"},"vehicle_type_id":"4","last_reported":1756246189,"current_range_meters":19600,"station_id":"ce4bhp92rcd13ifvqhcg","pricing_plan_id":"cebpf4jnsgd1na2vs0mg"},{"bike_id":"d1294468-fca3-4810-a9a1-2dcfff7572e4","system_id":"levelo_inurba_marseille","lat":43.28937,"lon":5.36645,"is_reserved":false,"is_disabled":false,"rental_uris":{"android":"levelo://app?vid=d1294468-fca3-4810-a9a1-2dcfff7572e4","ios":"levelo://app?vid=d1294468-fca3-4810-a9a1-2dcfff7572e4"},"vehicle_type_id":"4","last_reported":1756246189,"current_range_meters":18800,"station_id":"ce4bhap2rcd13ifvqek0","pricing_plan_id":"cebpf4jnsgd1na2vs0mg"},{"bike_id":"d810acf0-5bd2-4bf1-848d-31cd30d105e6","system_id":"levelo_inurba_marseille","lat":43.269831,"lon":5.392782,"is_reserved":false,"is_disabled":false,"rental_uris":{"android":"levelo://app?vid=d810acf0-5bd2-4bf1-848d-31cd30d105e6","ios":"levelo://app?vid=d810acf0-5bd2-4bf1-848d-31cd30d105e6"},"vehicle_type_id":"4","last_reported":1756246189,"current_range_meters":19600,"station_id":"","pricing_plan_id":"cebpf4jnsgd1na2vs0mg"},{"bike_id":"f073034b-4328-4d72-a2b9-a1ea21bf56e5","system_id":"levelo_inurba_marseille","lat":43.29194,"lon":5.39315,"is_reserved":false,"is_disabled":false,"rental_uris":{"android":"levelo://app?vid=f073034b-4328-4d72-a2b9-a1ea21bf56e5","ios":"levelo://app?vid=f073034b-4328-4d72-a2b9-a1ea21bf56e5"},"vehicle_type_id":"4","last_reported":1756246189,"current_range_meters":19600,"station_id":"ce4bh192rcd13ifvqdd0","pricing_plan_id":"cebpf4jnsgd1na2vs0mg"},{"bike_id":"53956d19-51af-4a5c-98ef-c5697c2ef061","system_id":"levelo_inurba_marseille","lat":43.29264,"lon":5.40904,"is_reserved":false,"is_disabled":false,"rental_uris":{"android":"levelo://app?vid=53956d19-51af-4a5c-98ef-c5697c2ef061","ios":"levelo://app?vid=53956d19-51af-4a5c-98ef-c5697c2ef061"},"vehicle_type_id":"4","last_reported":1756246189,"current_range_meters":19600,"station_id":"ce4bh192rcd13ifvqdc0","pricing_plan_id":"cebpf4jnsgd1na2vs0mg"},{"bike_id":"4c82beab-1cad-46f7-a8ca-eb8dcbd949ef","system_id":"levelo_inurba_marseille","lat":43.27559,"lon":5.39656,"is_reserved":false,"is_disabled":false,"rental_uris":{"android":"levelo://app?vid=4c82beab-1cad-46f7-a8ca-eb8dcbd949ef","ios":"levelo://app?vid=4c82beab-1cad-46f7-a8ca-eb8dcbd949ef"},