{"last_updated":1699549555,"ttl":30,"version":"2.2","data":{"bikes":[{"bike_id":"1ab62ba9-1349-4a1b-83f7-d60009caf547","system_id":"levelo_inurba_marseille","lat":43.31341,"lon":5.367098,"is_reserved":false,"is_disabled":false,"rental_uris":{"android":"levelo://app?vid=1ab62ba9-1349-4a1b-83f7-d60009caf547","ios":"levelo://app?vid=1ab62ba9-1349-4a1b-83f7-d60009caf547"},"vehicle_type_id":"4","last_reported":1699549555,"current_range_meters":31200,"station_id":"ce4bgr92rcd13ifvqc6g","pricing_plan_id":"free"},{"bike_id":"aa0468de-3de6-46a3-b41d-e9234d539cd7","system_id":"levelo_inurba_marseille","lat":43.312239,"lon":5.368562,"is_reserved":false,"is_disabled":false,"rental_uris":{"android":"levelo://app?vid=aa0468de-3de6-46a3-b41d-e9234d539cd7","ios":"levelo://app?vid=aa0468de-3de6-46a3-b41d-e9234d539cd7"},"vehicle_type_id":"4","last_reported":1699549555,"current_range_meters":10800,"station_id":"ce4bgl92rcd13ifvqbq0","pricing_plan_id":"free"},{"bike_id":"b7ce64e9-b436-4e1d-adbb-76e48ca15cbf","system_id":"levelo_inurba_marseille","lat":43.312239,"lon":5.368562,"is_reserved":false,"is_disabled":false,"rental_uris":{"android":"levelo://app?vid=b7ce64e9-b436-4e1d-adbb-76e48ca15cbf","ios":"levelo://app?vid=b7ce64e9-b436-4e1d-adbb-76e48ca15cbf"},"vehicle_type_id":"4","last_reported":1699549555,"current_range_meters":24400,"station_id":"ce4bgl92rcd13ifvqbq0","pricing_plan_id":"free"},{"bike_id":"e0cfad0d-9833-465d-a992-501698fa7def","system_id":"levelo_inurba_marseille","lat":43.314811,"lon":5.373103,"is_reserved":false,"is_disabled":false,"rental_uris":{"android":"levelo://app?vid=e0cfad0d-9833-465d-a992-501698fa7def","ios":"levelo://app?vid=e0cfad0d-9833-465d-a992-501698fa7def"},"vehicle_type_id":"4","last_reported":1699549555,"current_range_meters":22000,"station_id":"ce4bgt12rcd13ifvqcd0","pricing_plan_id":"free"},{"bike_id":"4b2be431-238b-43cd-add1-ee9a8327a0f5","system_id":"levelo_inurba_marseille","lat":43.314811,"lon":5.373103,"is_reserved":false,"is_disabled":false,"rental_uris":{"android":"levelo://app?vid=4b2be431-238b-43cd-add1-ee9a8327a0f5","ios":"levelo://app?vid=4b2be431-238b-43cd-add1-ee9a8327a0f5"},"vehicle_type_id":"4","last_reported":1699549555,"current_range_meters":19600,"station_id":"ce4bgt12rcd13ifvqcd0","pricing_plan_id":"free"},{"bike_id":"c18ab67b-c324-4908-a7d1-1ab4ba1db225","system_id":"levelo_inurba_marseille","lat":43.314811,"lon":5.373103,"is_reserved":false,"is_disabled":false,"rental_uris":{"android":"levelo://app?vid=c18ab67b-c324-4908-a7d1-1ab4ba1db225","ios":"levelo://app?vid=c18ab67b-c324-4908-a7d1-1ab4ba1db225"},"vehicle_type_id":"4","last_reported":1699549555,"current_range_meters":9600,"station_id":"ce4bgt12rcd13ifvqcd0","pricing_plan_id":"free"},{"bike_id":"639a6f27-3867-4258-a0d5-29342427bf2d","system_id":"levelo_inurba_marseille","lat":43.314811,"lon":5.373103,"is_reserved":false,"is_disabled":false,"rental_uris":{"android":"levelo://app?vid=639a6f27-3867-4258-a0d5-29342427bf2d","ios":"levelo://app?vid=639a6f27-3867-4258-a0d5-29342427bf2d"},"vehicle_type_id":"4","last_reported":1699549555,"current_range_meters":2800,"station_id":"ce4bgt12rcd13ifvqcd0","pricing_plan_id":"free"},{"bike_id":"026d0442-3bc9-4f55-8547-ff694a3472c1","system_id":"levelo_inurba_marseille","lat":43.314811,"lon":5.373104,"is_reserved":false,"is_disabled":false,"rental_uris":{"android":"levelo://app?vid=026d0442-3bc9-4f55-8547-ff694a3472c1","ios":"levelo://app?vid=026d0442-3bc9-4f55-8547-ff694a3472c1"},"vehicle_type_id":"4","last_reported":1699549555,"current_range_meters":12800,"station_id":"ce4bgt12rcd13ifvqcd0","pricing_plan_id":"free"},{"bike_id":"2f222026-c000-4c84-9103-e6d44a0ff880","system_id":"levelo_inurba_marseille","lat":43.30877,"lon":5.37202,"is_reserved":false,"is_disabled":false,"rental_uris":{"android":"levelo://app?vid=2f222026-c000-4c84-9103-e6d44a0ff880","ios":"levelo://app?vid=2f222026-c000-4c84-9103-e6d44a0ff880"},"vehicle_type_id":"4","last_reported":1699549555,"current_range_meters":28400,"station_id":"ce4bguh2rcd13ifvqckg","pricing_plan_id":"free"},{"bike_id":"0156d011-a90c-4bd1-b32b-b25336cb3497","system_id":"levelo_inurba_marseille","lat":43.305309,"lon":5.367224,"is_reserved":false,"is_disabled":false,"rental_uris":{"android":"levelo://app?vid=0156d011-a90c-4bd1-b32b-b25336cb3497","ios":"levelo://app?vid=0156d011-a90c-4bd1-b32b-b25336cb3497"},"vehicle_type_id":"4","last_reported":1699549555,"current_range_meters":8000,"station_id":"ce4bgrp2rcd13ifvqc9g","pricing_plan_id":"free"},{"bike_id":"76b359af-c20b-45d0-a1df-78f4c9a6553a","system_id":"levelo_inurba_marseille","lat":43.30525,"lon":5.36543,"is_reserved":false,"is_disabled":false,"rental_uris":{"android":"levelo://app?vid=76b359af-c20b-45d0-a1df-78f4c9a6553a","ios":"levelo://app?vid=76b359af-c20b-45d0-a1df-78f4c9a6553a"},"vehicle_type_id":"4","last_reported":1699549555,"current_range_meters":27200,"station_id":"ce4bgs12rcd13ifvqcag","pricing_plan_id":"free"},{"bike_id":"8cfa5de9-c961-4fb4-b2cc-64e7e4d4d0a6","system_id":"levelo_inurba_marseille","lat":43.31118,"lon":5.37778,"is_reserved":false,"is_disabled":false,"rental_uris":{"android":"levelo://app?vid=8cfa5de9-c961-4fb4-b2cc-64e7e4d4d0a6","ios":"levelo://app?vid=8cfa5de9-c961-4fb4-b2cc-64e7e4d4d0a6"},"vehicle_type_id":"4","last_reported":1699549555,"current_range_meters":0,"station_id":"ce4bgt92rcd13ifvqcg0","pricing_plan_id":"free"},{"bike_id":"41cacbf8-96df-4dba-97c7-3651b94cb0b8","system_id":"levelo_inurba_marseille","lat":43.307945,"lon":5.376487,"is_reserved":false,"is_disabled":false,"rental_uris":{"android":"levelo://app?vid=41cacbf8-96df-4dba-97c7-3651b94cb0b8","ios":"levelo://app?vid=41cacbf8-96df-4dba-97c7-3651b94cb0b8"},"vehicle_type_id":"4","last_reported":1699549555,"current_range_meters":31600,"station_id":"ce4bgv92rcd13ifvqcq0","pricing_plan_id":"free"},{"bike_id":"583b83b9-39b4-4e89-9750-c632221c4e61","system_id":"levelo_inurba_marseille","lat":43.307945,"lon":5.376487,"is_reserved":false,"is_disabled":false,"rental_uris":{"android":"levelo://app?vid=583b83b9-39b4-4e89-9750-c632221c4e61","ios":"levelo://app?vid=583b83b9-39b4-4e89-9750-c632221c4e61"},"vehicle_type_id":"4","last_reported":1699549555,"current_range_meters":24000,"station_id":"ce4bgv92rcd13ifvqcq0","pricing_plan_id":"free"},{"bike_id":"e7d6beb3-a163-41cc-9ed6-895335f4b126","system_id":"levelo_inurba_marseille","lat":43.30785,"lon":5.37647,"is_reserved":false,"is_disabled":false,"rental_uris":{"android":"levelo://app?vid=e7d6beb3-a163-41cc-9ed6-895335f4b126","ios":"levelo://app?vid=e7d6beb3-a163-41cc-9ed6-895335f4b126"},"vehicle_type_id":"4","last_reported":1699549555,"current_range_meters":5600,"station_id":"ce4bgv92rcd13ifvqcq0","pricing_plan_id":"free"},{"bike_id":"b1330c22-c43e-4898-8237-421af3fc60e6","system_id":"levelo_inurba_marseille","lat":43.307754,"lon":5.376519,"is_reserved":false,"is_disabled":false,"rental_uris":{"android":"levelo://app?vid=b1330c22-c43e-4898-8237-421af3fc60e6","ios":"levelo://app?vid=b1330c22-c43e-4898-8237-421af3fc60e6"},"vehicle_type_id":"4","last_reported":1699549555,"current_range_meters":0,"station_id":"ce4bgv92rcd13ifvqcq0","pricing_plan_id":"free"},{"bike_id":"57053367-5328-4d78-8951-737f56b37ed9","system_id":"levelo_inurba_marseille","lat":43.319924,"lon":5.373389,"is_reserved":false,"is_disabled":false,"rental_uris":{"android":"levelo://app?vid=57053367-5328-4d78-8951-737f56b37ed9","ios":"levelo://app?vid=57053367-5328-4d78-8951-737f56b37ed9"},"vehicle_type_id":"4","last_reported":1699549555,"current_range_meters":25600,"station_id":"","pricing_plan_id":"free"},{"bike_id":"6926dc0a-7919-4590-96ba-3c790823f407","system_id":"levelo_inurba_marseille","lat":43.317075,"lon":5.377367,"is_reserved":false,"is_disabled":false,"rental_uris":{"android":"levelo://app?vid=6926dc0a-7919-4590-96ba-3c790823f407","ios":"levelo://app?vid=6926dc0a-7919-4590-96ba-3c790823f407"},"vehicle_type_id":"4","last_reported":1699549555,"current_range_meters":30400,"station_id":"ce4bgth2rcd13ifvqch0","pricing_plan_id":"free"},{"bike_id":"b77457b4-c3d7-4925-bf60-5168c5288be8","system_id":"levelo_inurba_marseille","lat":43.30315,"lon":5.36894,"is_reserved":false,"is_disabled":false,"rental_uris":{"android":"levelo://app?vid=b77457b4-c3d7-4925-bf60-5168c5288be8","ios":"levelo://app?vid=b77457b4-c3d7-4925-bf60-5168c5288be8"},"vehicle_type_id":"4","last_reported":1699549555,"current_range_meters":18000,"station_id":"ce4bgqh2rcd13ifvqc5g","pricing_plan_id":"free"},{"bike_id":"5dbb9b1e-db5c-4c21-82dc-4a0b951adfa9","system_id":"levelo_inurba_marseille","lat":43.303125,"lon":5.36897,"is_reserved":false,"is_disabled":false,"rental_uris":{"android":"levelo://app?vid=5dbb9b1e-db5c-4c21-82dc-4a0b951adfa9","ios":"levelo://app?vid=5dbb9b1e-db5c-4c21-82dc-4a0b951adfa9"},"vehicle_type_id":"4","last_reported":1699549555,"current_range_meters":20400,"station_id":"ce4bgqh2rcd13ifvqc5g","pricing_plan_id":"free"},{"bike_id":"5abb28a9-3de8-486b-838d-43fed5e8898c","system_id":"levelo_inurba_marseille","lat":43.31522,"lon":5.38044,"is_reserved":false,"is_disabled":false,"rental_uris":{"android":"levelo://app?vid=5abb28a9-3de8-486b-838d-43fed5e8898c","ios":"levelo://app?vid=5abb28a9-3de8-486b-838d-43fed5e8898c"},"vehicle_type_id":"4","last_reported":1699549555,"current_range_meters":26000,"station_id":"ce4bhsp2rcd13ifvqi50","pricing_plan_id":"free"},{"bike_id":"52e43f3d-cb2f-437b-8c87-91792bb0e7db","system_id":"levelo_inurba_marseille","lat":43.32239,"lon":5.37563,"is_reserved":false,"is_disabled":false,"rental_uris":{"android":"levelo://app?vid=52e43f3d-cb2f-437b-8c87-91792bb0e7db","ios":"levelo://app?vid=52e43f3d-cb2f-437b-8c87-91792bb0e7db"},"vehicle_type_id":"4","last_reported":1699549555,"current_range_meters":13200,"station_id":"","pricing_plan_id":"free"},{"bike_id":"29ef7d5c-cf94-4bc3-b73f-ad375ce1d015","system_id":"levelo_inurba_marseille","lat":43.303586,"lon":5.377754,"is_reserved":false,"is_disabled":false,"rental_uris":{"android":"levelo://app?vid=29ef7d5c-cf94-4bc3-b73f-ad375ce1d015","ios":"levelo://app?vid=29ef7d5c-cf94-4bc3-b73f-ad375ce1d015"},"vehicle_type_id":"4","last_reported":1699549555,"current_range_meters":4800,"station_id":"","pricing_plan_id":"free"},{"bike_id":"fd20f763-8e53-4fb0-b173-4e0b341f0044","system_id":"levelo_inurba_marseille","lat":43.30143,"lon":5.37413,"is_reserved":false,"is_disabled":false,"rental_uris":{"android":"levelo://app?vid=fd20f763-8e53-4fb0-b173-4e0b341f0044","ios":"levelo://app?vid=fd20f763-8e53-4fb0-b173-4e0b341f0044"},"vehicle_type_id":"4","last_reported":1699549555,"current_range_meters":23200,"station_id":"ce4bgs92rcd13ifvqcc0","pricing_plan_id":"free"},{"bike_id":"9c6597f2-0977-41c3-a07b-0c83971a008f","system_id":"levelo_inurba_marseille","lat":43.31541,"lon":5.38404,"is_reserved":false,"is_disabled":false,"rental_uris":{"android":"levelo://app?vid=9c6597f2-0977-41c3-a07b-0c83971a008f","ios":"levelo://app?vid=9c6597f2-0977-41c3-a07b-0c83971a008f"},"vehicle_type_id":"4","last_reported":1699549555,"current_range_meters":0,"station_id":"","pricing_plan_id":"free"},{"bike_id":"69166d53-ec8e-4a0a-864c-7a29f7650dd8","system_id":"levelo_inurba_marseille","lat":43.32125,"lon":5.38007,"is_reserved":false,"is_disabled":false,"rental_uris":{"android":"levelo://app?vid=69166d53-ec8e-4a0a-864c-7a29f7650dd8","ios":"levelo://app?vid=69166d53-ec8e-4a0a-864c-7a29f7650dd8"},"vehicle_type_id":"4","last_reported":1699549555,"current_range_meters":28400,"station_id":"","pricing_plan_id":"free"},{"bike_id":"13d78257-2559-4a10-97b8-aaa7032179bc","system_id":"levelo_inurba_marseille","lat":43.319975,"lon":5.381519,"is_reserved":false,"is_disabled":false,"rental_uris":{"android":"levelo://app?vid=13d78257-2559-4a10-97b8-aaa7032179bc","ios":"levelo://app?vid=13d78257-2559-4a10-97b8-aaa7032179bc"},"vehicle_type_id":"4","last_reported":1699549555,"current_range_meters":11200,"station_id":"","pricing_plan_id":"free"},{"bike_id":"1482bc32-7a23-4109-885f-2d119a1e3cec","system_id":"levelo_inurba_marseille","lat":43.31992,"lon":5.38159,"is_reserved":false,"is_disabled":false,"rental_uris":{"android":"levelo://app?vid=1482bc32-7a23-4109-885f-2d119a1e3cec","ios":"levelo://app?vid=1482bc32-7a23-4109-885f-2d119a1e3cec"},"vehicle_type_id":"4","last_reported":1699549555,"current_range_meters":17200,"station_id":"ce4bhr12rcd13ifvqhpg","pricing_plan_id":"free"},{"bike_id":"d98ef63b-3279-44c8-ac44-bc93896579ca","system_id":"levelo_inurba_marseille","lat":43.31994,"lon":5.38176,"is_reserved":false,"is_disabled":false,"rental_uris":{"android":"levelo://app?vid=d98ef63b-3279-44c8-ac44-bc93896579ca","ios":"levelo://app?vid=d98ef63b-3279-44c8-ac44-bc93896579ca"},"vehicle_type_id":"4","last_reported":1699549555,"current_range_meters":25200,"station_id":"ce4bhr12rcd13ifvqhpg","pricing_plan_id":"free"},{"bike_id":"05c79206-4c0a-47c8-a310-5815a3ccb493","system_id":"levelo_inurba_marseille","lat":43.313571,"lon":5.384829,"is_reserved":false,"is_disabled":false,"rental_uris":{"android":"levelo://app?vid=05c79206-4c0a-47c8-a310-5815a3ccb493","ios":"levelo://app?vid=05c79206-4c0a-47c8-a310-5815a3ccb493"},"vehicle_type_id":"4","last_reported":1699549555,"current_range_meters":800,"station_id":"ce4bgt92rcd13ifvqcf0","pricing_plan_id":"free"},{"bike_id":"4670077b-701d-4cd3-862e-6b8311400c25","system_id":"levelo_inurba_marseille","lat":43.313571,"lon":5.384829,"is_reserved":false,"is_disabled":false,"rental_uris":{"android":"levelo://app?vid=4670077b-701d-4cd3-862e-6b8311400c25","ios":"levelo://app?vid=4670077b-701d-4cd3-862e-6b8311400c25"},"vehicle_type_id":"4","last_reported":1699549555,"current_range_meters":22000,"station_id":"ce4bgt92rcd13ifvqcf0","pricing_plan_id":"free"},{"bike_id":"6a9cde27-52eb-4fdf-96b5-b066c1ab973c","system_id":"levelo_inurba_marseille","lat":43.299724,"lon":5.371829,"is_reserved":false,"is_disabled":false,"rental_uris":{"android":"levelo://app?vid=6a9cde27-52eb-4fdf-96b5-b066c1ab973c","ios":"levelo://app?vid=6a9cde27-52eb-4fdf-96b5-b066c1ab973c"},"vehicle_type_id":"4","last_reported":1699549555,"current_range_meters":25600,"station_id":"ce4bgr92rcd13ifvqc7g","pricing_plan_id":"free"},{"bike_id":"2aa07dbd-abc3-43b6-a1fa-b3b25d3cf066","system_id":"levelo_inurba_marseille","lat":43.32148,"lon":5.38202,"is_reserved":false,"is_disabled":false,"rental_uris":{"android":"levelo://app?vid=2aa07dbd-abc3-43b6-a1fa-b3b25d3cf066","ios":"levelo://app?vid=2aa07dbd-abc3-43b6-a1fa-b3b25d3cf066"},"vehicle_type_id":"4","last_reported":1699549555,"current_range_meters":1200,"station_id":"","pricing_plan_id":"free"},{"bike_id":"311c22af-2d1c-4857-8c54-905bc1caceb0","system_id":"levelo_inurba_marseille","lat":43.298538,"lon":5.362896,"is_reserved":false,"is_disabled":false,"rental_uris":{"android":"levelo://app?vid=311c22af-2d1c-4857-8c54-905bc1caceb0","ios":"levelo://app?vid=311c22af-2d1c-4857-8c54-905bc1caceb0"},"vehicle_type_id":"4","last_reported":1699549555,"current_range_meters":30800,"station_id":"ce4bgpp2rcd13ifvqc3g","pricing_plan_id":"free"},{"bike_id":"8950f55a-e75d-4fac-9a7c-f529bc0580a5","system_id":"levelo_inurba_marseille","lat":43.320464,"lon":5.384144,"is_reserved":false,"is_disabled":false,"rental_uris":{"android":"levelo://app?vid=8950f55a-e75d-4fac-9a7c-f529bc0580a5","ios":"levelo://app?vid=8950f55a-e75d-4fac-9a7c-f529bc0580a5"},"vehicle_type_id":"4","last_reported":1699549555,"current_range_meters":20400,"station_id":"","pricing_plan_id":"free"},{"bike_id":"ac5fee73-95d9-4f44-88df-ca86ebb6e4f0","system_id":"levelo_inurba_marseille","lat":43.311722,"lon":5.387247,"is_reserved":false,"is_disabled":false,"rental_uris":{"android":"levelo://app?vid=ac5fee73-95d9-4f44-88df-ca86ebb6e4f0","ios":"levelo://app?vid=ac5fee73-95d9-4f44-88df-ca86ebb6e4f0"},"vehicle_type_id":"4","last_reported":1699549555,"current_range_meters":5600,"station_id":"ce4bgv12rcd13ifvqcp0","pricing_plan_id":"free"},{"bike_id":"ef79ba0b-637c-4dbd-8939-ee2e76184e28","system_id":"levelo_inurba_marseille","lat":43.311722,"lon":5.387247,"is_reserved":false,"is_disabled":false,"rental_uris":{"android":"levelo://app?vid=ef79ba0b-637c-4dbd-8939-ee2e76184e28","ios":"levelo://app?vid=ef79ba0b-637c-4dbd-8939-ee2e76184e28"},"vehicle_type_id":"4","last_reported":1699549555,"current_range_meters":21200,"station_id":"ce4bgv12rcd13ifvqcp0","pricing_plan_id":"free"},{"bike_id":"cfbdc70f-7d17-45d6-b9ec-f06e72f0fcdf","system_id":"levelo_inurba_marseille","lat":43.311722,"lon":5.387247,"is_reserved":false,"is_disabled":false,"rental_uris":{"android":"levelo://app?vid=cfbdc70f-7d17-45d6-b9ec-f06e72f0fcdf","ios":"levelo://app?vid=cfbdc70f-7d17-45d6-b9ec-f06e72f0fcdf"},"vehicle_type_id":"4","last_reported":1699549555,"current_range_meters":0,"station_id":"ce4bgv12rcd13ifvqcp0","pricing_plan_id":"free"},{"bike_id":"f96815a7-5355-46cf-8467-b34b1f0b0f13","system_id":"levelo_inurba_marseille","lat":43.297774,"lon":5.370875,"is_reserved":false,"is_disabled":false,"rental_uris":{"android":"levelo://app?vid=f96815a7-5355-46cf-8467-b34b1f0b0f13","ios":"levelo://app?vid=f96815a7-5355-46cf-8467-b34b1f0b0f13"},"vehicle_type_id":"4","last_reported":1699549555,"current_range_meters":17600,"station_id":"ce4bgop2rcd13ifvqc1g","pricing_plan_id":"free"},{"bike_id":"e4a895a8-c6d1-4804-993c-b111541ae28a","system_id":"levelo_inurba_marseille","lat":43.322872,"lon":5.382756,"is_reserved":false,"is_disabled":false,"rental_uris":{"android":"levelo://app?vid=e4a895a8-c6d1-4804-993c-b111541ae28a","ios":"levelo://app?vid=e4a895a8-c6d1-4804-993c-b111541ae28a"},"vehicle_type_id":"4","last_reported":1699549555,"current_range_meters":14000,"station_id":"ce4bhr12rcd13ifvqhqg","pricing_plan_id":"free"},{"bike_id":"adec3add-adaa-4c07-9d6b-d29fb6c4f19c","system_id":"levelo_inurba_marseille","lat":43.322872,"lon":5.382756,"is_reserved":false,"is_disabled":false,"rental_uris":{"android":"levelo://app?vid=adec3add-adaa-4c07-9d6b-d29fb6c4f19c","ios":"levelo://app?vid=adec3add-adaa-4c07-9d6b-d29fb6c4f19c"},"vehicle_type_id":"4","last_reported":1699549555,"current_range_meters":3200,"station_id":"ce4bhr12rcd13ifvqhqg","pricing_plan_id":"free"},{"bike_id":"6abc6ed3-7ee5-474c-b332-4aeb367ba6b7","system_id":"levelo_inurba_marseille","lat":43.322872,"lon":5.382756,"is_reserved":false,"is_disabled":false,"rental_uris":{"android":"levelo://app?vid=6abc6ed3-7ee5-474c-b332-4aeb367ba6b7","ios":"levelo://app?vid=6abc6ed3-7ee5-474c-b332-4aeb367ba6b7"},"vehicle_type_id":"4","last_reported":1699549555,"current_range_meters":27200,"station_id":"ce4bhr12rcd13ifvqhqg","pricing_plan_id":"free"},{"bike_id":"43026eca-8226-4908-ba9c-6c3d5ee8ae35","system_id":"levelo_inurba_marseille","lat":43.297774,"lon":5.370875,"is_reserved":false,"is_disabled":false,"rental_uris":{"android":"levelo://app?vid=43026eca-8226-4908-ba9c-6c3d5ee8ae35","ios":"levelo://app?vid=43026eca-8226-4908-ba9c-6c3d5ee8ae35"},"vehicle_type_id":"4","last_reported":1699549555,"current_range_meters":5200,"station_id":"ce4bgop2rcd13ifvqc1g","pricing_plan_id":"free"},{"bike_id":"3107b7f8-ab0e-4ce9-87df-bf5ce8e59681","system_id":"levelo_inurba_marseille","lat":43.32291,"lon":5.38277,"is_reserved":false,"is_disabled":false,"rental_uris":{"android":"levelo://app?vid=3107b7f8-ab0e-4ce9-87df-bf5ce8e59681","ios":"levelo://app?vid=3107b7f8-ab0e-4ce9-87df-bf5ce8e59681"},"vehicle_type_id":"4","last_reported":1699549555,"current_range_meters":19200,"station_id":"ce4bhr12rcd13ifvqhqg","pricing_plan_id":"free"},{"bike_id":"ec7a24ee-09fd-448d-aa7c-2af8158f0943","system_id":"levelo_inurba_marseille","lat":43.297163,"lon":5.365866,"is_reserved":false,"is_disabled":false,"rental_uris":{"android":"levelo://app?vid=ec7a24ee-09fd-448d-aa7c-2af8158f0943","ios":"levelo://app?vid=ec7a24ee-09fd-448d-aa7c-2af8158f0943"},"vehicle_type_id":"4","last_reported":1699549555,"current_range_meters":14000,"station_id":"ce4bgn12rcd13ifvqbt0","pricing_plan_id":"free"},{"bike_id":"547558d2-d8a3-47c3-8381-a4377ae77cfa","system_id":"levelo_inurba_marseille","lat":43.296,"lon":5.36802,"is_reserved":false,"is_disabled":false,"rental_uris":{"android":"levelo://app?vid=547558d2-d8a3-47c3-8381-a4377ae77cfa","ios":"levelo://app?vid=547558d2-d8a3-47c3-8381-a4377ae77cfa"},"vehicle_type_id":"4","last_reported":1699549555,"current_range_meters":28000,"station_id":"","pricing_plan_id":"free"},{"bike_id":"42345d17-c4b4-47e1-91d7-2e69f9824407","system_id":"levelo_inurba_marseille","lat":43.32215,"lon":5.38613,"is_reserved":false,"is_disabled":false,"rental_uris":{"android":"levelo://app?vid=42345d17-c4b4-47e1-91d7-2e69f9824407","ios":"levelo://app?vid=42345d17-c4b4-47e1-91d7-2e69f9824407"},"vehicle_type_id":"4","last_reported":1699549555,"current_range_meters":27600,"station_id":"","pricing_plan_id":"free"},{"bike_id":"990a7e59-2014-46d9-adf1-37fdeafc2ecb","system_id":"levelo_inurba_marseille","lat":43.299028,"lon":5.381509,"is_reserved":false,"is_disabled":false,"rental_uris":{"android":"levelo://app?vid=990a7e59-2014-46d9-adf1-37fdeafc2ecb","ios":"levelo://app?vid=990a7e59-2014-46d9-adf1-37fdeafc2ecb"},"vehicle_type_id":"4","last_reported":1699549555,"current_range_meters":20800,"station_id":"ce4bgj12rcd13ifvqbc0","pricing_plan_id":"free"},{"bike_id":"b38f3c2a-5f3e-4327-b250-ad50b84bc0b1","system_id":"levelo_inurba_marseille","lat":43.317557,"lon":5.390173,"is_reserved":false,"is_disabled":false,"rental_uris":{"android":"levelo://app?vid=b38f3c2a-5f3e-4327-b250-ad50b84bc0b1","ios":"levelo://app?vid=b38f3c2a-5f3e-4327-b250-ad50b84bc0b1"},"vehicle_type_id":"4","last_reported":1699549555,"current_range_meters":10800,"station_id":"ce4bhqp2rcd13ifvqhng","pricing_plan_id":"free"},{"bike_id":"f48bfaa0-80ad-46a6-a9cf-94f8b9580b33","system_id":"levelo_inurba_marseille","lat":43.317557,"lon":5.390173,"is_reserved":false,"is_disabled":false,"rental_uris":{"android":"levelo://app?vid=f48bfaa0-80ad-46a6-a9cf-94f8b9580b33","ios":"levelo://app?vid=f48bfaa0-80ad-46a6-a9cf-94f8b9580b33"},"vehicle_type_id":"4","last_reported":1699549555,"current_range_meters":18800,"station_id":"ce4bhqp2rcd13ifvqhng","pricing_plan_id":"free"},{"bike_id":"25c468b6-a6b1-4a97-87bb-5231c91a97d7","system_id":"levelo_inurba_marseille","lat":43.295748,"lon":5.37522,"is_reserved":false,"is_disabled":false,"rental_uris":{"android":"levelo://app?vid=25c468b6-a6b1-4a97-87bb-5231c91a97d7","ios":"levelo://app?vid=25c468b6-a6b1-4a97-87bb-5231c91a97d7"},"vehicle_type_id":"4","last_reported":1699549555,"current_range_meters":16800,"station_id":"ce4bgh92rcd13ifvqb50","pricing_plan_id":"free"},{"bike_id":"7c5b2ce2-e80d-4552-ad49-1bc8cd5d92c3","system_id":"levelo_inurba_marseille","lat":43.318685,"lon":5.39044,"is_reserved":false,"is_disabled":false,"rental_uris":{"android":"levelo://app?vid=7c5b2ce2-e80d-4552-ad49-1bc8cd5d92c3","ios":"levelo://app?vid=7c5b2ce2-e80d-4552-ad49-1bc8cd5d92c3"},"vehicle_type_id":"4","last_reported":1699549555,"current_range_meters":12800,"station_id":"","pricing_plan_id":"free"},{"bike_id":"0f869e4c-1117-41a2-a4c9-db0bde9fc2ad","system_id":"levelo_inurba_marseille","lat":43.295748,"lon":5.37522,"is_reserved":false,"is_disabled":false,"rental_uris":{"android":"levelo://app?vid=0f869e4c-1117-41a2-a4c9-db0bde9fc2ad","ios":"levelo://app?vid=0f869e4c-1117-41a2-a4c9-db0bde9fc2ad"},"vehicle_type_id":"4","last_reported":1699549555,"current_range_meters":6000,"station_id":"ce4bgh92rcd13ifvqb50","pricing_plan_id":"free"},{"bike_id":"b3fc7def-3d82-4bf4-b108-04005cca32fa","system_id":"levelo_inurba_marseille","lat":43.29561,"lon":5.375284,"is_reserved":false,"is_disabled":false,"rental_uris":{"android":"levelo://app?vid=b3fc7def-3d82-4bf4-b108-04005cca32fa","ios":"levelo://app?vid=b3fc7def-3d82-4bf4-b108-04005cca32fa"},"vehicle_type_id":"4","last_reported":1699549555,"current_range_meters":4000,"station_id":"","pricing_plan_id":"free"},{"bike_id":"3fdb7e13-0212-440c-9165-7d60160e5033","system_id":"levelo_inurba_marseille","lat":43.299707,"lon":5.384859,"is_reserved":false,"is_disabled":false,"rental_uris":{"android":"levelo://app?vid=3fdb7e13-0212-440c-9165-7d60160e5033","ios":"levelo://app?vid=3fdb7e13-0212-440c-9165-7d60160e5033"},"vehicle_type_id":"4","last_reported":1699549555,"current_range_meters":16800,"station_id":"ce4bgj92rcd13ifvqbd0","pricing_plan_id":"free"},{"bike_id":"f9eefe2e-33db-4e5c-a990-065991942b8d","system_id":"levelo_inurba_marseille","lat":43.295279,"lon":5.375048,"is_reserved":false,"is_disabled":false,"rental_uris":{"android":"levelo://app?vid=f9eefe2e-33db-4e5c-a990-065991942b8d","ios":"levelo://app?vid=f9eefe2e-33db-4e5c-a990-065991942b8d"},"vehicle_type_id":"4","last_reported":1699549555,"current_range_meters":13200,"station_id":"ce4bgkp2rcd13ifvqbmg","pricing_plan_id":"free"},{"bike_id":"a26a672c-8f86-40f5-9e8e-9856cf399a24","system_id":"levelo_inurba_marseille","lat":43.299707,"lon":5.384859,"is_reserved":false,"is_disabled":false,"rental_uris":{"android":"levelo://app?vid=a26a672c-8f86-40f5-9e8e-9856cf399a24","ios":"levelo://app?vid=a26a672c-8f86-40f5-9e8e-9856cf399a24"},"vehicle_type_id":"4","last_reported":1699549555,"current_range_meters":31600,"station_id":"ce4bgj92rcd13ifvqbd0","pricing_plan_id":"free"},{"bike_id":"a50b1a2d-aafa-4103-9085-0e22a1d295c6","system_id":"levelo_inurba_marseille","lat":43.299707,"lon":5.384859,"is_reserved":false,"is_disabled":false,"rental_uris":{"android":"levelo://app?vid=a50b1a2d-aafa-4103-9085-0e22a1d295c6","ios":"levelo://app?vid=a50b1a2d-aafa-4103-9085-0e22a1d295c6"},"vehicle_type_id":"4","last_reported":1699549555,"current_range_meters":16800,"station_id":"ce4bgj92rcd13ifvqbd0","pricing_plan_id":"free"},{"bike_id":"87ef5288-48a8-4191-8af7-57facd5e1a0f","system_id":"levelo_inurba_marseille","lat":43.299717,"lon":5.384845,"is_reserved":false,"is_disabled":false,"rental_uris":{"android":"levelo://app?vid=87ef5288-48a8-4191-8af7-57facd5e1a0f","ios":"levelo://app?vid=87ef5288-48a8-4191-8af7-57facd5e1a0f"},"vehicle_type_id":"4","last_reported":1699549555,"current_range_meters":25600,"station_id":"ce4bgj92rcd13ifvqbd0","pricing_plan_id":"free"},{"bike_id":"bc9350a2-8e6d-4f88-914b-527ff39479af","system_id":"levelo_inurba_marseille","lat":43.299717,"lon":5.384845,"is_reserved":false,"is_disabled":false,"rental_uris":{"android":"levelo://app?vid=bc9350a2-8e6d-4f88-914b-527ff39479af","ios":"levelo://app?vid=bc9350a2-8e6d-4f88-914b-527ff39479af"},"vehicle_type_id":"4","last_reported":1699549555,"current_range_meters":2000,"station_id":"ce4bgj92rcd13ifvqbd0","pricing_plan_id":"free"},{"bike_id":"dba2c1a2-e6a9-451b-9545-95869c02b46f","system_id":"levelo_inurba_marseille","lat":43.329065,"lon":5.379814,"is_reserved":false,"is_disabled":false,"rental_uris":{"android":"levelo://app?vid=dba2c1a2-e6a9-451b-9545-95869c02b46f","ios":"levelo://app?vid=dba2c1a2-e6a9-451b-9545-95869c02b46f"},"vehicle_type_id":"4","last_reported":1699549555,"current_range_meters":0,"station_id":"","pricing_plan_id":"free"},{"bike_id":"856d053c-1ca4-4956-9229-52c25c6e9563","system_id":"levelo_inurba_marseille","lat":43.32367,"lon":5.388836,"is_reserved":false,"is_disabled":false,"rental_uris":{"android":"levelo://app?vid=856d053c-1ca4-4956-9229-52c25c6e9563","ios":"levelo://app?vid=856d053c-1ca4-4956-9229-52c25c6e9563"},"vehicle_type_id":"4","last_reported":1699549555,"current_range_meters":17600,"station_id":"ce4bhqp2rcd13ifvqhog","pricing_plan_id":"free"},{"bike_id":"e70f1494-e996-4e7e-b907-4bc000052e55","system_id":"levelo_inurba_marseille","lat":43.32367,"lon":5.388836,"is_reserved":false,"is_disabled":false,"rental_uris":{"android":"levelo://app?vid=e70f1494-e996-4e7e-b907-4bc000052e55","ios":"levelo://app?vid=e70f1494-e996-4e7e-b907-4bc000052e55"},"vehicle_type_id":"4","last_reported":1699549555,"current_range_meters":3200,"station_id":"ce4bhqp2rcd13ifvqhog","pricing_plan_id":"free"},{"bike_id":"f5008c8b-61ec-4ba4-8d57-7ff1a54f00f2","system_id":"levelo_inurba_marseille","lat":43.299305,"lon":5.38615,"is_reserved":false,"is_disabled":false,"rental_uris":{"android":"levelo://app?vid=f5008c8b-61ec-4ba4-8d57-7ff1a54f00f2","ios":"levelo://app?vid=f5008c8b-61ec-4ba4-8d57-7ff1a54f00f2"},"vehicle_type_id":"4","last_reported":1699549555,"current_range_meters":9200,"station_id":"","pricing_plan_id":"free"},{"bike_id":"5be27f1c-b5c9-464d-ac33-6afa4ea1d64b","system_id":"levelo_inurba_marseille","lat":43.31418,"lon":5.39378,"is_reserved":false,"is_disabled":false,"rental_uris":{"android":"levelo://app?vid=5be27f1c-b5c9-464d-ac33-6afa4ea1d64b","ios":"levelo://app?vid=5be27f1c-b5c9-464d-ac33-6afa4ea1d64b"},"vehicle_type_id":"4","last_reported":1699549555,"current_range_meters":18000,"station_id":"","pricing_plan_id":"free"},{"bike_id":"dad8c392-1f62-4951-a311-c46fbe933711","system_id":"levelo_inurba_marseille","lat":43.29281,"lon":5.36851,"is_reserved":false,"is_disabled":false,"rental_uris":{"android":"levelo://app?vid=dad8c392-1f62-4951-a311-c46fbe933711","ios":"levelo://app?vid=dad8c392-1f62-4951-a311-c46fbe933711"},"vehicle_type_id":"4","last_reported":1699549555,"current_range_meters":21200,"station_id":"ce4bhbp2rcd13ifvqesg","pricing_plan_id":"free"},{"bike_id":"fa87c1f9-de08-4893-b63b-d010d509b5a0","system_id":"levelo_inurba_marseille","lat":43.293259,"lon":5.371586,"is_reserved":false,"is_disabled":false,"rental_uris":{"android":"levelo://app?vid=fa87c1f9-de08-4893-b63b-d010d509b5a0","ios":"levelo://app?vid=fa87c1f9-de08-4893-b63b-d010d509b5a0"},"vehicle_type_id":"4","last_reported":1699549555,"current_range_meters":0,"station_id":"ce4bgh92rcd13ifvqb40","pricing_plan_id":"free"},{"bike_id":"58185f33-c8ca-481c-a52e-933332413d5e","system_id":"levelo_inurba_marseille","lat":43.292765,"lon":5.3685,"is_reserved":false,"is_disabled":false,"rental_uris":{"android":"levelo://app?vid=58185f33-c8ca-481c-a52e-933332413d5e","ios":"levelo://app?vid=58185f33-c8ca-481c-a52e-933332413d5e"},"vehicle_type_id":"4","last_reported":1699549555,"current_range_meters":16800,"station_id":"","pricing_plan_id":"free"},{"bike_id":"08eed77b-e51b-4008-9c75-cfc4090eb719","system_id":"levelo_inurba_marseille","lat":43.293009,"lon":5.374584,"is_reserved":false,"is_disabled":false,"rental_uris":{"android":"levelo://app?vid=08eed77b-e51b-4008-9c75-cfc4090eb719","ios":"levelo://app?vid=08eed77b-e51b-4008-9c75-cfc4090eb719"},"vehicle_type_id":"4","last_reported":1699549555,"current_range_meters":22400,"station_id":"ce4bgi12rcd13ifvqb70","pricing_plan_id":"free"},{"bike_id":"810e6469-af24-4b4d-8a17-f6ec2fbb37d1","system_id":"levelo_inurba_marseille","lat":43.3331,"lon":5.35949,"is_reserved":false,"is_disabled":false,"rental_uris":{"android":"levelo://app?vid=810e6469-af24-4b4d-8a17-f6ec2fbb37d1","ios":"levelo://app?vid=810e6469-af24-4b4d-8a17-f6ec2fbb37d1"},"vehicle_type_id":"4","last_reported":1699549555,"current_range_meters":0,"station_id":"","pricing_plan_id":"free"},{"bike_id":"69fe29dd-f9c1-412b-99c0-ef535f244e38","system_id":"levelo_inurba_marseille","lat":43.300852,"lon":5.390859,"is_reserved":false,"is_disabled":false,"rental_uris":{"android":"levelo://app?vid=69fe29dd-f9c1-412b-99c0-ef535f244e38","ios":"levelo://app?vid=69fe29dd-f9c1-412b-99c0-ef535f244e38"},"vehicle_type_id":"4","last_reported":1699549555,"current_range_meters":12400,"station_id":"ce4bh192rcd13ifvqdb0","pricing_plan_id":"free"},{"bike_id":"f7a1fb1c-a6e4-444a-a052-2517c01711af","system_id":"levelo_inurba_marseille","lat":43.30085,"lon":5.390856,"is_reserved":false,"is_disabled":false,"rental_uris":{"android":"levelo://app?vid=f7a1fb1c-a6e4-444a-a052-2517c01711af","ios":"levelo://app?vid=f7a1fb1c-a6e4-444a-a052-2517c01711af"},"vehicle_type_id":"4","last_reported":1699549555,"current_range_meters":15200,"station_id":"ce4bh192rcd13ifvqdb0","pricing_plan_id":"free"},{"bike_id":"53d33eb6-2855-4ce9-85f0-ebbaf728cec4","system_id":"levelo_inurba_marseille","lat":43.33217,"lon":5.3788,"is_reserved":false,"is_disabled":false,"rental_uris":{"android":"levelo://app?vid=53d33eb6-2855-4ce9-85f0-ebbaf728cec4","ios":"levelo://app?vid=53d33eb6-2855-4ce9-85f0-ebbaf728cec4"},"vehicle_type_id":"4","last_reported":1699549555,"current_range_meters":0,"station_id":"","pricing_plan_id":"free"},{"bike_id":"29d9fe99-a041-45e1-89c3-c74aa2120d32","system_id":"levelo_inurba_marseille","lat":43.291675,"lon":5.371583,"is_reserved":false,"is_disabled":false,"rental_uris":{"android":"levelo://app?vid=29d9fe99-a041-45e1-89c3-c74aa2120d32","ios":"levelo://app?vid=29d9fe99-a041-45e1-89c3-c74aa2120d32"},"vehicle_type_id":"4","last_reported":1699549555,"current_range_meters":17200,"station_id":"ce4bha92rcd13ifvqeh0","pricing_plan_id":"free"},{"bike_id":"fd2fb0eb-0679-49e0-ab2f-c1504277def8","system_id":"levelo_inurba_marseille","lat":43.291671,"lon":5.371575,"is_reserved":false,"is_disabled":false,"rental_uris":{"android":"levelo://app?vid=fd2fb0eb-0679-49e0-ab2f-c1504277def8","ios":"levelo://app?vid=fd2fb0eb-0679-49e0-ab2f-c1504277def8"},"vehicle_type_id":"4","last_reported":1699549555,"current_range_meters":23200,"station_id":"ce4bha92rcd13ifvqeh0","pricing_plan_id":"free"},{"bike_id":"d953882e-6c37-4424-94a6-74553fb6f9f9","system_id":"levelo_inurba_marseille","lat":43.31326,"lon":5.39702,"is_reserved":false,"is_disabled":false,"rental_uris":{"android":"levelo://app?vid=d953882e-6c37-4424-94a6-74553fb6f9f9","ios":"levelo://app?vid=d953882e-6c37-4424-94a6-74553fb6f9f9"},"vehicle_type_id":"4","last_reported":1699549555,"current_range_meters":16400,"station_id":"ce4bgvp2rcd13ifvqcu0","pricing_plan_id":"free"},{"bike_id":"13c82cf5-7768-4285-bce6-60c545395176","system_id":"levelo_inurba_marseille","lat":43.31323,"lon":5.39703,"is_reserved":false,"is_disabled":false,"rental_uris":{"android":"levelo://app?vid=13c82cf5-7768-4285-bce6-60c545395176","ios":"levelo://app?vid=13c82cf5-7768-4285-bce6-60c545395176"},"vehicle_type_id":"4","last_reported":1699549555,"current_range_meters":19200,"station_id":"ce4bgvp2rcd13ifvqcu0","pricing_plan_id":"free"},{"bike_id":"dae12094-abcb-4b76-91bb-3d44d5e924b7","system_id":"levelo_inurba_marseille","lat":43.3133,"lon":5.39704,"is_reserved":false,"is_disabled":false,"rental_uris":{"android":"levelo://app?vid=dae12094-abcb-4b76-91bb-3d44d5e924b7","ios":"levelo://app?vid=dae12094-abcb-4b76-91bb-3d44d5e924b7"},"vehicle_type_id":"4","last_reported":1699549555,"current_range_meters":7600,"station_id":"ce4bgvp2rcd13ifvqcu0","pricing_plan_id":"free"},{"bike_id":"600d8311-3e59-4589-8144-7ba37d671815","system_id":"levelo_inurba_marseille","lat":43.31317,"lon":5.39707,"is_reserved":false,"is_disabled":false,"rental_uris":{"android":"levelo://app?vid=600d8311-3e59-4589-8144-7ba37d671815","ios":"levelo://app?vid=600d8311-3e59-4589-8144-7ba37d671815"},"vehicle_type_id":"4","last_reported":1699549555,"current_range_meters":12800,"station_id":"ce4bgvp2rcd13ifvqcu0","pricing_plan_id":"free"},{"bike_id":"424ed256-2095-4a79-9cca-f5bb274e9c54","system_id":"levelo_inurba_marseille","lat":43.29529,"lon":5.385581,"is_reserved":false,"is_disabled":false,"rental_uris":{"android":"levelo://app?vid=424ed256-2095-4a79-9cca-f5bb274e9c54","ios":"levelo://app?vid=424ed256-2095-4a79-9cca-f5bb274e9c54"},"vehicle_type_id":"4","last_reported":1699549555,"current_range_meters":13200,"station_id":"ce4bgih2rcd13ifvqba0","pricing_plan_id":"free"},{"bike_id":"bb859f23-1adc-43ea-813e-0bb2b7b31d6e","system_id":"levelo_inurba_marseille","lat":43.29529,"lon":5.385581,"is_reserved":false,"is_disabled":false,"rental_uris":{"android":"levelo://app?vid=bb859f23-1adc-43ea-813e-0bb2b7b31d6e","ios":"levelo://app?vid=bb859f23-1adc-43ea-813e-0bb2b7b31d6e"},"vehicle_type_id":"4","last_reported":1699549555,"current_range_meters":30000,"station_id":"ce4bgih2rcd13ifvqba0","pricing_plan_id":"free"},{"bike_id":"36f7d58a-821c-4ea0-a30f-b7647cb76bdc","system_id":"levelo_inurba_marseille","lat":43.290779,"lon":5.371482,"is_reserved":false,"is_disabled":false,"rental_uris":{"android":"levelo://app?vid=36f7d58a-821c-4ea0-a30f-b7647cb76bdc","ios":"levelo://app?vid=36f7d58a-821c-4ea0-a30f-b7647cb76bdc"},"vehicle_type_id":"4","last_reported":1699549555,"current_range_meters":20400,"station_id":"ce4bh5p2rcd13ifvqe4g","pricing_plan_id":"free"},{"bike_id":"c5083500-a4a0-4708-a3be-fb9d02bf0e84","system_id":"levelo_inurba_marseille","lat":43.290779,"lon":5.371482,"is_reserved":false,"is_disabled":false,"rental_uris":{"android":"levelo://app?vid=c5083500-a4a0-4708-a3be-fb9d02bf0e84","ios":"levelo://app?vid=c5083500-a4a0-4708-a3be-fb9d02bf0e84"},"vehicle_type_id":"4","last_reported":1699549555,"current_range_meters":22800,"station_id":"ce4bh5p2rcd13ifvqe4g","pricing_plan_id":"free"},{"bike_id":"92505384-c487-47b4-8cd0-9ea0baf3e1b5","system_id":"levelo_inurba_marseille","lat":43.294153,"lon":5.386305,"is_reserved":false,"is_disabled":false,"rental_uris":{"android":"levelo://app?vid=92505384-c487-47b4-8cd0-9ea0baf3e1b5","ios":"levelo://app?vid=92505384-c487-47b4-8cd0-9ea0baf3e1b5"},"vehicle_type_id":"4","last_reported":1699549555,"current_range_meters":26000,"station_id":"ce4bh2h2rcd13ifvqdh0","pricing_plan_id":"free"},{"bike_id":"9c4f06ba-4a20-4884-a7a8-ce5b1b3432fb","system_id":"levelo_inurba_marseille","lat":43.294162,"lon":5.386292,"is_reserved":false,"is_disabled":false,"rental_uris":{"android":"levelo://app?vid=9c4f06ba-4a20-4884-a7a8-ce5b1b3432fb","ios":"levelo://app?vid=9c4f06ba-4a20-4884-a7a8-ce5b1b3432fb"},"vehicle_type_id":"4","last_reported":1699549555,"current_range_meters":12000,"station_id":"ce4bh2h2rcd13ifvqdh0","pricing_plan_id":"free"},{"bike_id":"27911ea9-1f1e-49a0-906d-71ba1a18f66e","system_id":"levelo_inurba_marseille","lat":43.289184,"lon":5.366408,"is_reserved":false,"is_disabled":false,"rental_uris":{"android":"levelo://app?vid=27911ea9-1f1e-49a0-906d-71ba1a18f66e","ios":"levelo://app?vid=27911ea9-1f1e-49a0-906d-71ba1a18f66e"},"vehicle_type_id":"4","last_reported":1699549555,"current_range_meters":13600,"station_id":"ce4bhap2rcd13ifvqek0","pricing_plan_id":"free"},{"bike_id":"585c24c7-6726-4e2a-8c3c-d0a090ea2a59","system_id":"levelo_inurba_marseille","lat":43.289184,"lon":5.366408,"is_reserved":false,"is_disabled":false,"rental_uris":{"android":"levelo://app?vid=585c24c7-6726-4e2a-8c3c-d0a090ea2a59","ios":"levelo://app?vid=585c24c7-6726-4e2a-8c3c-d0a090ea2a59"},"vehicle_type_id":"4","last_reported":1699549555,"current_range_meters":9600,"station_id":"ce4bhap2rcd13ifvqek0","pricing_plan_id":"free"},{"bike_id":"dde27f3b-4bd1-4551-801f-6518b3a76793","system_id":"levelo_inurba_marseille","lat":43.289184,"lon":5.366408,"is_reserved":false,"is_disabled":false,"rental_uris":{"android":"levelo://app?vid=dde27f3b-4bd1-4551-801f-6518b3a76793","ios":"levelo://app?vid=dde27f3b-4bd1-4551-801f-6518b3a76793"},"vehicle_type_id":"4","last_reported":1699549555,"current_range_meters":7600,"station_id":"ce4bhap2rcd13ifvqek0","pricing_plan_id":"free"},{"bike_id":"2912a525-7922-4ec7-bc27-b91a1f1c4cd2","system_id":"levelo_inurba_marseille","lat":43.289184,"lon":5.366408,"is_reserved":false,"is_disabled":false,"rental_uris":{"android":"levelo://app?vid=2912a525-7922-4ec7-bc27-b91a1f1c4cd2","ios":"levelo://app?vid=2912a525-7922-4ec7-bc27-b91a1f1c4cd2"},"vehicle_type_id":"4","last_reported":1699549555,"current_range_meters":19600,"station_id":"ce4bhap2rcd13ifvqek0","pricing_plan_id":"free"},{"bike_id":"f9bf6b84-9e89-4e59-892f-416c620231e4","system_id":"levelo_inurba_marseille","lat":43.289334,"lon":5.366041,"is_reserved":false,"is_disabled":false,"rental_uris":{"android":"levelo://app?vid=f9bf6b84-9e89-4e59-892f-416c620231e4","ios":"levelo://app?vid=f9bf6b84-9e89-4e59-892f-416c620231e4"},"vehicle_type_id":"4","last_reported":1699549555,"current_range_meters":10400,"station_id":"ce4bhap2rcd13ifvqek0","pricing_plan_id":"free"},{"bike_id":"69053c14-c9e8-4f06-9262-54664e4bb211","system_id":"levelo_inurba_marseille","lat":43.329844,"lon":5.389657,"is_reserved":false,"is_disabled":false,"rental_uris":{"android":"levelo://app?vid=69053c14-c9e8-4f06-9262-54664e4bb211","ios":"levelo://app?vid=69053c14-c9e8-4f06-9262-54664e4bb211"},"vehicle_type_id":"4","last_reported":1699549555,"current_range_meters":23200,"station_id":"ce4bhr92rcd13ifvqhrg","pricing_plan_id":"free"},{"bike_id":"2655656f-6a1d-4c4f-a78d-be767d092a03","system_id":"levelo_inurba_marseille","lat":43.330442,"lon":5.389148,"is_reserved":false,"is_disabled":false,"rental_uris":{"android":"levelo://app?vid=2655656f-6a1d-4c4f-a78d-be767d092a03","ios":"levelo://app?vid=2655656f-6a1d-4c4f-a78d-be767d092a03"},"vehicle_type_id":"4","last_reported":1699549555,"current_range_meters":3600,"station_id":"ce4bhr92rcd13ifvqhrg","pricing_plan_id":"free"},{"bike_id":"6b6c12bf-5bc6-4532-baf4-623f7b17f732","system_id":"levelo_inurba_marseille","lat":43.330442,"lon":5.389148,"is_reserved":false,"is_disabled":false,"rental_uris":{"android":"levelo://app?vid=6b6c12bf-5bc6-4532-baf4-623f7b17f732","ios":"levelo://app?vid=6b6c12bf-5bc6-4532-baf4-623f7b17f732"},"vehicle_type_id":"4","last_reported":1699549555,"current_range_meters":5600,"station_id":"ce4bhr92rcd13ifvqhrg","pricing_plan_id":"free"},{"bike_id":"02967d8d-4669-4373-9893-5984b1441343","system_id":"levelo_inurba_marseille","lat":43.33041,"lon":5.38924,"is_reserved":false,"is_disabled":false,"rental_uris":{"android":"levelo://app?vid=02967d8d-4669-4373-9893-5984b1441343","ios":"levelo://app?vid=02967d8d-4669-4373-9893-5984b1441343"},"vehicle_type_id":"4","last_reported":1699549555,"current_range_meters":0,"station_id":"ce4bhr92rcd13ifvqhrg","pricing_plan_id":"free"},{"bike_id":"a194a4f2-36e0-454d-bc37-557b6e7640d7","system_id":"levelo_inurba_marseille","lat":43.290995,"lon":5.381361,"is_reserved":false,"is_disabled":false,"rental_uris":{"android":"levelo://app?vid=a194a4f2-36e0-454d-bc37-557b6e7640d7","ios":"levelo://app?vid=a194a4f2-36e0-454d-bc37-557b6e7640d7"},"vehicle_type_id":"4","last_reported":1699549555,"current_range_meters":26800,"station_id":"ce4bh512rcd13ifvqe2g","pricing_plan_id":"free"},{"bike_id":"99778656-6716-489f-b276-ff82e4fda017","system_id":"levelo_inurba_marseille","lat":43.289743,"lon":5.378304,"is_reserved":false,"is_disabled":false,"rental_uris":{"android":"levelo://app?vid=99778656-6716-489f-b276-ff82e4fda017","ios":"levelo://app?vid=99778656-6716-489f-b276-ff82e4fda017"},"vehicle_type_id":"4","last_reported":1699549555,"current_range_meters":16400,"station_id":"ce4bh9p2rcd13ifvqed0","pricing_plan_id":"free"},{"bike_id":"710cc0fe-872e-45b8-9999-389ffd9f5ad4","system_id":"levelo_inurba_marseille","lat":43.295169,"lon":5.390426,"is_reserved":false,"is_disabled":false,"rental_uris":{"android":"levelo://app?vid=710cc0fe-872e-45b8-9999-389ffd9f5ad4","ios":"levelo://app?vid=710cc0fe-872e-45b8-9999-389ffd9f5ad4"},"vehicle_type_id":"4","last_reported":1699549555,"current_range_meters":18000,"station_id":"ce4bh3p2rcd13ifvqdp0","pricing_plan_id":"free"},{"bike_id":"41b8d751-6b6a-4b6f-a66d-c7c2b0199396","system_id":"levelo_inurba_marseille","lat":43.289708,"lon":5.378368,"is_reserved":false,"is_disabled":false,"rental_uris":{"android":"levelo://app?vid=41b8d751-6b6a-4b6f-a66d-c7c2b0199396","ios":"levelo://app?vid=41b8d751-6b6a-4b6f-a66d-c7c2b0199396"},"vehicle_type_id":"4","last_reported":1699549555,"current_range_meters":28000,"station_id":"ce4bh9p2rcd13ifvqed0","pricing_plan_id":"free"},{"bike_id":"41809a53-12ca-4933-a0a5-5838f5e1987b","system_id":"levelo_inurba_marseille","lat":43.295169,"lon":5.390426,"is_reserved":false,"is_disabled":false,"rental_uris":{"android":"levelo://app?vid=41809a53-12ca-4933-a0a5-5838f5e1987b","ios":"levelo://app?vid=41809a53-12ca-4933-a0a5-5838f5e1987b"},"vehicle_type_id":"4","last_reported":1699549555,"current_range_meters":30000,"station_id":"ce4bh3p2rcd13ifvqdp0","pricing_plan_id":"free"},{"bike_id":"f1f6f0a9-086f-4983-921a-5f50d75124bb","system_id":"levelo_inurba_marseille","lat":43.295097,"lon":5.39049,"is_reserved":false,"is_disabled":false,"rental_uris":{"android":"levelo://app?vid=f1f6f0a9-086f-4983-921a-5f50d75124bb","ios":"levelo://app?vid=f1f6f0a9-086f-4983-921a-5f50d75124bb"},"vehicle_type_id":"4","last_reported":1699549555,"current_range_meters":31200,"station_id":"ce4bh3p2rcd13ifvqdp0","pricing_plan_id":"free"},{"bike_id":"1a095b32-5881-41cd-9941-05cf74b9fe1e","system_id":"levelo_inurba_marseille","lat":43.29779,"lon":5.39386,"is_reserved":false,"is_disabled":false,"rental_uris":{"android":"levelo://app?vid=1a095b32-5881-41cd-9941-05cf74b9fe1e","ios":"levelo://app?vid=1a095b32-5881-41cd-9941-05cf74b9fe1e"},"vehicle_type_id":"4","last_reported":1699549555,"current_range_meters":19600,"station_id":"chh1huq6cuj3fo74tm60","pricing_plan_id":"free"},{"bike_id":"3b0b138f-fb8a-464f-be4c-51a2d19a493f","system_id":"levelo_inurba_marseille","lat":43.32655,"lon":5.395165,"is_reserved":false,"is_disabled":false,"rental_uris":{"android":"levelo://app?vid=3b0b138f-fb8a-464f-be4c-51a2d19a493f","ios":"levelo://app?vid=3b0b138f-fb8a-464f-be4c-51a2d19a493f"},"vehicle_type_id":"4","last_reported":1699549555,"current_range_meters":31200,"station_id":"","pricing_plan_id":"free"},{"bike_id":"a378a789-4720-416d-be69-f501cc705172","system_id":"levelo_inurba_marseille","lat":43.312751,"lon":5.401698,"is_reserved":false,"is_disabled":false,"rental_uris":{"android":"levelo://app?vid=a378a789-4720-416d-be69-f501cc705172","ios":"levelo://app?vid=a378a789-4720-416d-be69-f501cc705172"},"vehicle_type_id":"4","last_reported":1699549555,"current_range_meters":31200,"station_id":"ce4bh092rcd13ifvqd30","pricing_plan_id":"free"},{"bike_id":"6f6b55d2-fcf4-44f2-a696-57adff4ad98b","system_id":"levelo_inurba_marseille","lat":43.312609,"lon":5.401662,"is_reserved":false,"is_disabled":false,"rental_uris":{"android":"levelo://app?vid=6f6b55d2-fcf4-44f2-a696-57adff4ad98b","ios":"levelo://app?vid=6f6b55d2-fcf4-44f2-a696-57adff4ad98b"},"vehicle_type_id":"4","last_reported":1699549555,"current_range_meters":21600,"station_id":"ce4bh092rcd13ifvqd30","pricing_plan_id":"free"},{"bike_id":"d22a86cf-a3f0-4421-9809-248c662f649a","system_id":"levelo_inurba_marseille","lat":43.312726,"lon":5.401759,"is_reserved":false,"is_disabled":false,"rental_uris":{"android":"levelo://app?vid=d22a86cf-a3f0-4421-9809-248c662f649a","ios":"levelo://app?vid=d22a86cf-a3f0-4421-9809-248c662f649a"},"vehicle_type_id":"4","last_reported":1699549555,"current_range_meters":14400,"station_id":"ce4bh092rcd13ifvqd30","pricing_plan_id":"free"},{"bike_id":"a4e1c71d-f607-48b5-97d5-bf0e999aecd6","system_id":"levelo_inurba_marseille","lat":43.31269,"lon":5.40176,"is_reserved":false,"is_disabled":false,"rental_uris":{"android":"levelo://app?vid=a4e1c71d-f607-48b5-97d5-bf0e999aecd6","ios":"levelo://app?vid=a4e1c71d-f607-48b5-97d5-bf0e999aecd6"},"vehicle_type_id":"4","last_reported":1699549555,"current_range_meters":22800,"station_id":"ce4bh092rcd13ifvqd30","pricing_plan_id":"free"},{"bike_id":"7808d93c-aae1-4d18-a9eb-cbaf6fdcf5a9","system_id":"levelo_inurba_marseille","lat":43.312609,"lon":5.401662,"is_reserved":false,"is_disabled":false,"rental_uris":{"android":"levelo://app?vid=7808d93c-aae1-4d18-a9eb-cbaf6fdcf5a9","ios":"levelo://app?vid=7808d93c-aae1-4d18-a9eb-cbaf6fdcf5a9"},"vehicle_type_id":"4","last_reported":1699549555,"current_range_meters":1200,"station_id":"ce4bh092rcd13ifvqd30","pricing_plan_id":"free"},{"bike_id":"34b8e982-61ce-4d96-9fd9-c827ffe3a48b","system_id":"levelo_inurba_marseille","lat":43.3375,"lon":5.37453,"is_reserved":false,"is_disabled":false,"rental_uris":{"android":"levelo://app?vid=34b8e982-61ce-4d96-9fd9-c827ffe3a48b","ios":"levelo://app?vid=34b8e982-61ce-4d96-9fd9-c827ffe3a48b"},"vehicle_type_id":"4","last_reported":1699549555,"current_range_meters":31200,"station_id":"","pricing_plan_id":"free"},{"bike_id":"c338663b-717c-4912-b42c-05d607d37cea","system_id":"levelo_inurba_marseille","lat":43.337547,"lon":5.374337,"is_reserved":false,"is_disabled":false,"rental_uris":{"android":"levelo://app?vid=c338663b-717c-4912-b42c-05d607d37cea","ios":"levelo://app?vid=c338663b-717c-4912-b42c-05d607d37cea"},"vehicle_type_id":"4","last_reported":1699549555,"current_range_meters":20800,"station_id":"","pricing_plan_id":"free"},{"bike_id":"9eccead8-7cf0-47b4-ac1f-99479b80897e","system_id":"levelo_inurba_marseille","lat":43.33757,"lon":5.37447,"is_reserved":false,"is_disabled":false,"rental_uris":{"android":"levelo://app?vid=9eccead8-7cf0-47b4-ac1f-99479b80897e","ios":"levelo://app?vid=9eccead8-7cf0-47b4-ac1f-99479b80897e"},"vehicle_type_id":"4","last_reported":1699549555,"current_range_meters":27600,"station_id":"","pricing_plan_id":"free"},{"bike_id":"7da70c53-6b47-4b79-9527-73c23487fc60","system_id":"levelo_inurba_marseille","lat":43.30645,"lon":5.40096,"is_reserved":false,"is_disabled":false,"rental_uris":{"android":"levelo://app?vid=7da70c53-6b47-4b79-9527-73c23487fc60","ios":"levelo://app?vid=7da70c53-6b47-4b79-9527-73c23487fc60"},"vehicle_type_id":"4","last_reported":1699549555,"current_range_meters":5600,"station_id":"ce4bh112rcd13ifvqda0","pricing_plan_id":"free"},{"bike_id":"61c9606b-5e0c-419f-a3b5-4fe4d535e889","system_id":"levelo_inurba_marseille","lat":43.33037,"lon":5.392367,"is_reserved":false,"is_disabled":false,"rental_uris":{"android":"levelo://app?vid=61c9606b-5e0c-419f-a3b5-4fe4d535e889","ios":"levelo://app?vid=61c9606b-5e0c-419f-a3b5-4fe4d535e889"},"vehicle_type_id":"4","last_reported":1699549555,"current_range_meters":17200,"station_id":"","pricing_plan_id":"free"},{"bike_id":"a969583b-1075-4f36-a789-69520ebcc77b","system_id":"levelo_inurba_marseille","lat":43.301401,"lon":5.398652,"is_reserved":false,"is_disabled":false,"rental_uris":{"android":"levelo://app?vid=a969583b-1075-4f36-a789-69520ebcc77b","ios":"levelo://app?vid=a969583b-1075-4f36-a789-69520ebcc77b"},"vehicle_type_id":"4","last_reported":1699549555,"current_range_meters":22000,"station_id":"ce4bh0h2rcd13ifvqd40","pricing_plan_id":"free"},{"bike_id":"62465cbf-ddc3-4809-a4f9-cd125cb958ff","system_id":"levelo_inurba_marseille","lat":43.298681,"lon":5.397225,"is_reserved":false,"is_disabled":false,"rental_uris":{"android":"levelo://app?vid=62465cbf-ddc3-4809-a4f9-cd125cb958ff","ios":"levelo://app?vid=62465cbf-ddc3-4809-a4f9-cd125cb958ff"},"vehicle_type_id":"4","last_reported":1699549555,"current_range_meters":16800,"station_id":"ce4bh0h2rcd13ifvqd50","pricing_plan_id":"free"},{"bike_id":"d2b22dcc-4afc-40ad-8661-d1661ebf0168","system_id":"levelo_inurba_marseille","lat":43.286591,"lon":5.363346,"is_reserved":false,"is_disabled":false,"rental_uris":{"android":"levelo://app?vid=d2b22dcc-4afc-40ad-8661-d1661ebf0168","ios":"levelo://app?vid=d2b22dcc-4afc-40ad-8661-d1661ebf0168"},"vehicle_type_id":"4","last_reported":1699549555,"current_range_meters":19600,"station_id":"ce4bhah2rcd13ifvqej0","pricing_plan_id":"free"},{"bike_id":"fb47b4ef-d8e5-4fe7-847a-e0fe613675f4","system_id":"levelo_inurba_marseille","lat":43.286667,"lon":5.363532,"is_reserved":false,"is_disabled":false,"rental_uris":{"android":"levelo://app?vid=fb47b4ef-d8e5-4fe7-847a-e0fe613675f4","ios":"levelo://app?vid=fb47b4ef-d8e5-4fe7-847a-e0fe613675f4"},"vehicle_type_id":"4","last_reported":1699549555,"current_range_meters":17200,"station_id":"ce4bhah2rcd13ifvqej0","pricing_plan_id":"free"},{"bike_id":"088efd0d-d581-4981-996a-2cea4bc1570f","system_id":"levelo_inurba_marseille","lat":43.286961,"lon":5.373785,"is_reserved":false,"is_disabled":false,"rental_uris":{"android":"levelo://app?vid=088efd0d-d581-4981-996a-2cea4bc1570f","ios":"levelo://app?vid=088efd0d-d581-4981-996a-2cea4bc1570f"},"vehicle_type_id":"4","last_reported":1699549555,"current_range_meters":21200,"station_id":"ce4bh3p2rcd13ifvqdq0","pricing_plan_id":"free"},{"bike_id":"b3452958-336e-4129-a82b-c1a1aa692da3","system_id":"levelo_inurba_marseille","lat":43.286961,"lon":5.373785,"is_reserved":false,"is_disabled":false,"rental_uris":{"android":"levelo://app?vid=b3452958-336e-4129-a82b-c1a1aa692da3","ios":"levelo://app?vid=b3452958-336e-4129-a82b-c1a1aa692da3"},"vehicle_type_id":"4","last_reported":1699549555,"current_range_meters":30800,"station_id":"ce4bh3p2rcd13ifvqdq0","pricing_plan_id":"free"},{"bike_id":"1b6168d2-0054-4f6a-96f8-56bd20634321","system_id":"levelo_inurba_marseille","lat":43.286591,"lon":5.363346,"is_reserved":false,"is_disabled":false,"rental_uris":{"android":"levelo://app?vid=1b6168d2-0054-4f6a-96f8-56bd20634321","ios":"levelo://app?vid=1b6168d2-0054-4f6a-96f8-56bd20634321"},"vehicle_type_id":"4","last_reported":1699549555,"current_range_meters":8400,"station_id":"ce4bhah2rcd13ifvqej0","pricing_plan_id":"free"},{"bike_id":"7232e16f-45f1-422a-840a-e00809a32f8f","system_id":"levelo_inurba_marseille","lat":43.298681,"lon":5.397225,"is_reserved":false,"is_disabled":false,"rental_uris":{"android":"levelo://app?vid=7232e16f-45f1-422a-840a-e00809a32f8f","ios":"levelo://app?vid=7232e16f-45f1-422a-840a-e00809a32f8f"},"vehicle_type_id":"4","last_reported":1699549555,"current_range_meters":10000,"station_id":"ce4bh0h2rcd13ifvqd50","pricing_plan_id":"free"},{"bike_id":"2916a52e-88af-458c-8f5c-9788dd268a7a","system_id":"levelo_inurba_marseille","lat":43.29868,"lon":5.3974,"is_reserved":false,"is_disabled":false,"rental_uris":{"android":"levelo://app?vid=2916a52e-88af-458c-8f5c-9788dd268a7a","ios":"levelo://app?vid=2916a52e-88af-458c-8f5c-9788dd268a7a"},"vehicle_type_id":"4","last_reported":1699549555,"current_range_meters":9200,"station_id":"ce4bh0h2rcd13ifvqd50","pricing_plan_id":"free"},{"bike_id":"46c0cacf-064a-4144-991a-df08de9abc58","system_id":"levelo_inurba_marseille","lat":43.286961,"lon":5.373785,"is_reserved":false,"is_disabled":false,"rental_uris":{"android":"levelo://app?vid=46c0cacf-064a-4144-991a-df08de9abc58","ios":"levelo://app?vid=46c0cacf-064a-4144-991a-df08de9abc58"},"vehicle_type_id":"4","last_reported":1699549555,"current_range_meters":7600,"station_id":"ce4bh3p2rcd13ifvqdq0","pricing_plan_id":"free"},{"bike_id":"0fbfa876-36ff-4c4d-8a1c-2ad4b33c1d4c","system_id":"levelo_inurba_marseille","lat":43.295196,"lon":5.39397,"is_reserved":false,"is_disabled":false,"rental_uris":{"android":"levelo://app?vid=0fbfa876-36ff-4c4d-8a1c-2ad4b33c1d4c","ios":"levelo://app?vid=0fbfa876-36ff-4c4d-8a1c-2ad4b33c1d4c"},"vehicle_type_id":"4","last_reported":1699549555,"current_range_meters":20000,"station_id":"ce4bh292rcd13ifvqdf0","pricing_plan_id":"free"},{"bike_id":"a3d84732-0b5b-42e4-a96d-992be8cc5ca8","system_id":"levelo_inurba_marseille","lat":43.29875,"lon":5.3975,"is_reserved":false,"is_disabled":false,"rental_uris":{"android":"levelo://app?vid=a3d84732-0b5b-42e4-a96d-992be8cc5ca8","ios":"levelo://app?vid=a3d84732-0b5b-42e4-a96d-992be8cc5ca8"},"vehicle_type_id":"4","last_reported":1699549555,"current_range_meters":0,"station_id":"ce4bh0h2rcd13ifvqd50","pricing_plan_id":"free"},{"bike_id":"c2bd5412-ec0a-41ac-be5a-9ff28709d0e8","system_id":"levelo_inurba_marseille","lat":43.295196,"lon":5.39397,"is_reserved":false,"is_disabled":false,"rental_uris":{"android":"levelo://app?vid=c2bd5412-ec0a-41ac-be5a-9ff28709d0e8","ios":"levelo://app?vid=c2bd5412-ec0a-41ac-be5a-9ff28709d0e8"},"vehicle_type_id":"4","last_reported":1699549555,"current_range_meters":24000,"station_id":"ce4bh292rcd13ifvqdf0","pricing_plan_id":"free"},{"bike_id":"6c5c6854-2a37-42f6-bb29-ed6c154b98ce","system_id":"levelo_inurba_marseille","lat":43.290447,"lon":5.386377,"is_reserved":false,"is_disabled":false,"rental_uris":{"android":"levelo://app?vid=6c5c6854-2a37-42f6-bb29-ed6c154b98ce","ios":"levelo://app?vid=6c5c6854-2a37-42f6-bb29-ed6c154b98ce"},"vehicle_type_id":"4","last_reported":1699549555,"current_range_meters":16800,"station_id":"ce4bh4p2rcd13ifvqe0g","pricing_plan_id":"free"},{"bike_id":"6efde94d-0414-4607-ba12-c9805ca6860a","system_id":"levelo_inurba_marseille","lat":43.29032,"lon":5.38643,"is_reserved":false,"is_disabled":false,"rental_uris":{"android":"levelo://app?vid=6efde94d-0414-4607-ba12-c9805ca6860a","ios":"levelo://app?vid=6efde94d-0414-4607-ba12-c9805ca6860a"},"vehicle_type_id":"4","last_reported":1699549555,"current_range_meters":10400,"station_id":"ce4bh4p2rcd13ifvqe0g","pricing_plan_id":"free"},{"bike_id":"c6617bd5-3c7c-465e-b6d0-b327491d7a94","system_id":"levelo_inurba_marseille","lat":43.295194,"lon":5.39397,"is_reserved":false,"is_disabled":false,"rental_uris":{"android":"levelo://app?vid=c6617bd5-3c7c-465e-b6d0-b327491d7a94","ios":"levelo://app?vid=c6617bd5-3c7c-465e-b6d0-b327491d7a94"},"vehicle_type_id":"4","last_reported":1699549555,"current_range_meters":24800,"station_id":"ce4bh292rcd13ifvqdf0","pricing_plan_id":"free"},{"bike_id":"f18c3be6-db25-4053-942c-53f77d015bc4","system_id":"levelo_inurba_marseille","lat":43.290216,"lon":5.386364,"is_reserved":false,"is_disabled":false,"rental_uris":{"android":"levelo://app?vid=f18c3be6-db25-4053-942c-53f77d015bc4","ios":"levelo://app?vid=f18c3be6-db25-4053-942c-53f77d015bc4"},"vehicle_type_id":"4","last_reported":1699549555,"current_range_meters":0,"station_id":"","pricing_plan_id":"free"},{"bike_id":"c8520ab0-3269-420b-95c0-b3c04d5d3f6f","system_id":"levelo_inurba_marseille","lat":43.28923,"lon":5.38405,"is_reserved":false,"is_disabled":false,"rental_uris":{"android":"levelo://app?vid=c8520ab0-3269-420b-95c0-b3c04d5d3f6f","ios":"levelo://app?vid=c8520ab0-3269-420b-95c0-b3c04d5d3f6f"},"vehicle_type_id":"4","last_reported":1699549555,"current_range_meters":30000,"station_id":"ce4bh612rcd13ifvqe6g","pricing_plan_id":"free"},{"bike_id":"099c0dad-9a88-496e-b68c-79d73bdd1e08","system_id":"levelo_inurba_marseille","lat":43.28923,"lon":5.38407,"is_reserved":false,"is_disabled":false,"rental_uris":{"android":"levelo://app?vid=099c0dad-9a88-496e-b68c-79d73bdd1e08","ios":"levelo://app?vid=099c0dad-9a88-496e-b68c-79d73bdd1e08"},"vehicle_type_id":"4","last_reported":1699549555,"current_range_meters":29200,"station_id":"ce4bh612rcd13ifvqe6g","pricing_plan_id":"free"},{"bike_id":"f7992e87-3342-455e-a136-54be8573a344","system_id":"levelo_inurba_marseille","lat":43.286591,"lon":5.363346,"is_reserved":false,"is_disabled":false,"rental_uris":{"android":"levelo://app?vid=f7992e87-3342-455e-a136-54be8573a344","ios":"levelo://app?vid=f7992e87-3342-455e-a136-54be8573a344"},"vehicle_type_id":"4","last_reported":1699549555,"current_range_meters":3600,"station_id":"ce4bhah2rcd13ifvqej0","pricing_plan_id":"free"},{"bike_id":"d115b3f7-89a4-48a9-935c-fa0ace8dca81","system_id":"levelo_inurba_marseille","lat":43.28723,"lon":5.37909,"is_reserved":false,"is_disabled":false,"rental_uris":{"android":"levelo://app?vid=d115b3f7-89a4-48a9-935c-fa0ace8dca81","ios":"levelo://app?vid=d115b3f7-89a4-48a9-935c-fa0ace8dca81"},"vehicle_type_id":"4","last_reported":1699549555,"current_range_meters":7200,"station_id":"ce4bh9p2rcd13ifvqec0","pricing_plan_id":"free"},{"bike_id":"73e61e85-cac7-4d73-aadd-75fd1d159081","system_id":"levelo_inurba_marseille","lat":43.316517,"lon":5.404375,"is_reserved":false,"is_disabled":false,"rental_uris":{"android":"levelo://app?vid=73e61e85-cac7-4d73-aadd-75fd1d159081","ios":"levelo://app?vid=73e61e85-cac7-4d73-aadd-75fd1d159081"},"vehicle_type_id":"4","last_reported":1699549555,"current_range_meters":19600,"station_id":"ce4bh012rcd13ifvqd00","pricing_plan_id":"free"},{"bike_id":"e57449c2-d088-47cf-8bf2-271593713c89","system_id":"levelo_inurba_marseille","lat":43.328576,"lon":5.398841,"is_reserved":false,"is_disabled":false,"rental_uris":{"android":"levelo://app?vid=e57449c2-d088-47cf-8bf2-271593713c89","ios":"levelo://app?vid=e57449c2-d088-47cf-8bf2-271593713c89"},"vehicle_type_id":"4","last_reported":1699549555,"current_range_meters":15200,"station_id":"","pricing_plan_id":"free"},{"bike_id":"a750dadd-d2f3-4c7e-b855-0c3d2acd0935","system_id":"levelo_inurba_marseille","lat":43.291968,"lon":5.393222,"is_reserved":false,"is_disabled":false,"rental_uris":{"android":"levelo://app?vid=a750dadd-d2f3-4c7e-b855-0c3d2acd0935","ios":"levelo://app?vid=a750dadd-d2f3-4c7e-b855-0c3d2acd0935"},"vehicle_type_id":"4","last_reported":1699549555,"current_range_meters":0,"station_id":"ce4bh192rcd13ifvqdd0","pricing_plan_id":"free"},{"bike_id":"f082430a-f2a0-46af-a8b8-e164bcb5dd18","system_id":"levelo_inurba_marseille","lat":43.284534,"lon":5.358662,"is_reserved":false,"is_disabled":false,"rental_uris":{"android":"levelo://app?vid=f082430a-f2a0-46af-a8b8-e164bcb5dd18","ios":"levelo://app?vid=f082430a-f2a0-46af-a8b8-e164bcb5dd18"},"vehicle_type_id":"4","last_reported":1699549555,"current_range_meters":17200,"station_id":"ce4bhah2rcd13ifvqei0","pricing_plan_id":"free"},{"bike_id":"08fb3be1-f273-4703-8da7-a1f394ea0df5","system_id":"levelo_inurba_marseille","lat":43.284534,"lon":5.358662,"is_reserved":false,"is_disabled":false,"rental_uris":{"android":"levelo://app?vid=08fb3be1-f273-4703-8da7-a1f394ea0df5","ios":"levelo://app?vid=08fb3be1-f273-4703-8da7-a1f394ea0df5"},"vehicle_type_id":"4","last_reported":1699549555,"current_range_meters":19600,"station_id":"ce4bhah2rcd13ifvqei0","pricing_plan_id":"free"},{"bike_id":"0bb5146d-0691-4551-86ac-33565147b87e","system_id":"levelo_inurba_marseille","lat":43.284534,"lon":5.358662,"is_reserved":false,"is_disabled":false,"rental_uris":{"android":"levelo://app?vid=0bb5146d-0691-4551-86ac-33565147b87e","ios":"levelo://app?vid=0bb5146d-0691-4551-86ac-33565147b87e"},"vehicle_type_id":"4","last_reported":1699549555,"current_range_meters":0,"station_id":"ce4bhah2rcd13ifvqei0","pricing_plan_id":"free"},{"bike_id":"f1a5d00b-bd6f-4dc5-981a-d34af25438b9","system_id":"levelo_inurba_marseille","lat":43.284534,"lon":5.358662,"is_reserved":false,"is_disabled":false,"rental_uris":{"android":"levelo://app?vid=f1a5d00b-bd6f-4dc5-981a-d34af25438b9","ios":"levelo://app?vid=f1a5d00b-bd6f-4dc5-981a-d34af25438b9"},"vehicle_type_id":"4","last_reported":1699549555,"current_range_meters":24000,"station_id":"ce4bhah2rcd13ifvqei0","pricing_plan_id":"free"},{"bike_id":"541ce9a2-5d06-4b63-8afd-8383b361cf22","system_id":"levelo_inurba_marseille","lat":43.284557,"lon":5.35889,"is_reserved":false,"is_disabled":false,"rental_uris":{"android":"levelo://app?vid=541ce9a2-5d06-4b63-8afd-8383b361cf22","ios":"levelo://app?vid=541ce9a2-5d06-4b63-8afd-8383b361cf22"},"vehicle_type_id":"4","last_reported":1699549555,"current_range_meters":8400,"station_id":"ce4bhah2rcd13ifvqei0","pricing_plan_id":"free"},{"bike_id":"4458e2fc-b8b8-430b-b764-d4441a5a2c3d","system_id":"levelo_inurba_marseille","lat":43.284534,"lon":5.358662,"is_reserved":false,"is_disabled":false,"rental_uris":{"android":"levelo://app?vid=4458e2fc-b8b8-430b-b764-d4441a5a2c3d","ios":"levelo://app?vid=4458e2fc-b8b8-430b-b764-d4441a5a2c3d"},"vehicle_type_id":"4","last_reported":1699549555,"current_range_meters":10800,"station_id":"ce4bhah2rcd13ifvqei0","pricing_plan_id":"free"},{"bike_id":"36613931-04c4-45ee-88fc-bc5dada129a7","system_id":"levelo_inurba_marseille","lat":43.284534,"lon":5.358662,"is_reserved":false,"is_disabled":false,"rental_uris":{"android":"levelo://app?vid=36613931-04c4-45ee-88fc-bc5dada129a7","ios":"levelo://app?vid=36613931-04c4-45ee-88fc-bc5dada129a7"},"vehicle_type_id":"4","last_reported":1699549555,"current_range_meters":19600,"station_id":"ce4bhah2rcd13ifvqei0","pricing_plan_id":"free"},{"bike_id":"9565cfc8-b37d-4444-b5a2-f8d4f08c8cb0","system_id":"levelo_inurba_marseille","lat":43.284534,"lon":5.358662,"is_reserved":false,"is_disabled":false,"rental_uris":{"android":"levelo://app?vid=9565cfc8-b37d-4444-b5a2-f8d4f08c8cb0","ios":"levelo://app?vid=9565cfc8-b37d-4444-b5a2-f8d4f08c8cb0"},"vehicle_type_id":"4","last_reported":1699549555,"current_range_meters":14400,"station_id":"ce4bhah2rcd13ifvqei0","pricing_plan_id":"free"},{"bike_id":"7de39f5c-129d-4927-9aee-04fd2a07e29f","system_id":"levelo_inurba_marseille","lat":43.29442,"lon":5.39756,"is_reserved":false,"is_disabled":false,"rental_uris":{"android":"levelo://app?vid=7de39f5c-129d-4927-9aee-04fd2a07e29f","ios":"levelo://app?vid=7de39f5c-129d-4927-9aee-04fd2a07e29f"},"vehicle_type_id":"4","last_reported":1699549555,"current_range_meters":10800,"station_id":"","pricing_plan_id":"free"},{"bike_id":"1ca452a7-c44f-4699-a1d9-4abe7d053869","system_id":"levelo_inurba_marseille","lat":43.284534,"lon":5.358662,"is_reserved":false,"is_disabled":false,"rental_uris":{"android":"levelo://app?vid=1ca452a7-c44f-4699-a1d9-4abe7d053869","ios":"levelo://app?vid=1ca452a7-c44f-4699-a1d9-4abe7d053869"},"vehicle_type_id":"4","last_reported":1699549555,"current_range_meters":28800,"station_id":"ce4bhah2rcd13ifvqei0","pricing_plan_id":"free"},{"bike_id":"2a101a7e-a9cd-4677-88ef-919f423c93af","system_id":"levelo_inurba_marseille","lat":43.286152,"lon":5.351047,"is_reserved":false,"is_disabled":false,"rental_uris":{"android":"levelo://app?vid=2a101a7e-a9cd-4677-88ef-919f423c93af","ios":"levelo://app?vid=2a101a7e-a9cd-4677-88ef-919f423c93af"},"vehicle_type_id":"4","last_reported":1699549555,"current_range_meters":18800,"station_id":"ce4bhch2rcd13ifvqeug","pricing_plan_id":"free"},{"bike_id":"281bc373-3ed3-46f3-b7d4-eed7c9874229","system_id":"levelo_inurba_marseille","lat":43.285848,"lon":5.350787,"is_reserved":false,"is_disabled":false,"rental_uris":{"android":"levelo://app?vid=281bc373-3ed3-46f3-b7d4-eed7c9874229","ios":"levelo://app?vid=281bc373-3ed3-46f3-b7d4-eed7c9874229"},"vehicle_type_id":"4","last_reported":1699549555,"current_range_meters":13200,"station_id":"ce4bhch2rcd13ifvqeug","pricing_plan_id":"free"},{"bike_id":"898a71c4-75b8-4509-aa28-b51fe84fc2d1","system_id":"levelo_inurba_marseille","lat":43.285848,"lon":5.350787,"is_reserved":false,"is_disabled":false,"rental_uris":{"android":"levelo://app?vid=898a71c4-75b8-4509-aa28-b51fe84fc2d1","ios":"levelo://app?vid=898a71c4-75b8-4509-aa28-b51fe84fc2d1"},"vehicle_type_id":"4","last_reported":1699549555,"current_range_meters":24400,"station_id":"ce4bhch2rcd13ifvqeug","pricing_plan_id":"free"},{"bike_id":"7b60d589-364b-41bf-bf7b-027fdbe06504","system_id":"levelo_inurba_marseille","lat":43.285848,"lon":5.350787,"is_reserved":false,"is_disabled":false,"rental_uris":{"android":"levelo://app?vid=7b60d589-364b-41bf-bf7b-027fdbe06504","ios":"levelo://app?vid=7b60d589-364b-41bf-bf7b-027fdbe06504"},"vehicle_type_id":"4","last_reported":1699549555,"current_range_meters":6000,"station_id":"ce4bhch2rcd13ifvqeug","pricing_plan_id":"free"},{"bike_id":"570b3379-3dd5-416d-9f28-092c5e19d27b","system_id":"levelo_inurba_marseille","lat":43.28415,"lon":5.37504,"is_reserved":false,"is_disabled":false,"rental_uris":{"android":"levelo://app?vid=570b3379-3dd5-416d-9f28-092c5e19d27b","ios":"levelo://app?vid=570b3379-3dd5-416d-9f28-092c5e19d27b"},"vehicle_type_id":"4","last_reported":1699549555,"current_range_meters":18000,"station_id":"ce4bh412rcd13ifvqds0","pricing_plan_id":"free"},{"bike_id":"ac59dec6-8af5-4279-a7cb-2260d7712b7b","system_id":"levelo_inurba_marseille","lat":43.283998,"lon":5.375062,"is_reserved":false,"is_disabled":false,"rental_uris":{"android":"levelo://app?vid=ac59dec6-8af5-4279-a7cb-2260d7712b7b","ios":"levelo://app?vid=ac59dec6-8af5-4279-a7cb-2260d7712b7b"},"vehicle_type_id":"4","last_reported":1699549555,"current_range_meters":14000,"station_id":"ce4bh412rcd13ifvqds0","pricing_plan_id":"free"},{"bike_id":"312c69da-9a01-4f47-a7a9-0d656e5444e1","system_id":"levelo_inurba_marseille","lat":43.283998,"lon":5.375062,"is_reserved":false,"is_disabled":false,"rental_uris":{"android":"levelo://app?vid=312c69da-9a01-4f47-a7a9-0d656e5444e1","ios":"levelo://app?vid=312c69da-9a01-4f47-a7a9-0d656e5444e1"},"vehicle_type_id":"4","last_reported":1699549555,"current_range_meters":12400,"station_id":"ce4bh412rcd13ifvqds0","pricing_plan_id":"free"},{"bike_id":"9e099f71-a565-4886-9157-8bcfa47eb8a0","system_id":"levelo_inurba_marseille","lat":43.28408,"lon":5.37523,"is_reserved":false,"is_disabled":false,"rental_uris":{"android":"levelo://app?vid=9e099f71-a565-4886-9157-8bcfa47eb8a0","ios":"levelo://app?vid=9e099f71-a565-4886-9157-8bcfa47eb8a0"},"vehicle_type_id":"4","last_reported":1699549555,"current_range_meters":14400,"station_id":"ce4bh412rcd13ifvqds0","pricing_plan_id":"free"},{"bike_id":"956a93e8-9bf8-4530-a0aa-5ed00e0f1e93","system_id":"levelo_inurba_marseille","lat":43.295713,"lon":5.399639,"is_reserved":false,"is_disabled":false,"rental_uris":{"android":"levelo://app?vid=956a93e8-9bf8-4530-a0aa-5ed00e0f1e93","ios":"levelo://app?vid=956a93e8-9bf8-4530-a0aa-5ed00e0f1e93"},"vehicle_type_id":"4","last_reported":1699549555,"current_range_meters":2400,"station_id":"ce4bh312rcd13ifvqdj0","pricing_plan_id":"free"},{"bike_id":"7dfaaeab-f579-41ed-88b1-908c924819c3","system_id":"levelo_inurba_marseille","lat":43.286595,"lon":5.386795,"is_reserved":false,"is_disabled":false,"rental_uris":{"android":"levelo://app?vid=7dfaaeab-f579-41ed-88b1-908c924819c3","ios":"levelo://app?vid=7dfaaeab-f579-41ed-88b1-908c924819c3"},"vehicle_type_id":"4","last_reported":1699549555,"current_range_meters":27200,"station_id":"ce4bh492rcd13ifvqdug","pricing_plan_id":"free"},{"bike_id":"030625bd-f8ba-4389-9944-df2973894a22","system_id":"levelo_inurba_marseille","lat":43.325746,"lon":5.404204,"is_reserved":false,"is_disabled":false,"rental_uris":{"android":"levelo://app?vid=030625bd-f8ba-4389-9944-df2973894a22","ios":"levelo://app?vid=030625bd-f8ba-4389-9944-df2973894a22"},"vehicle_type_id":"4","last_reported":1699549555,"current_range_meters":8400,"station_id":"","pricing_plan_id":"free"},{"bike_id":"c62a31fe-26d8-480d-83d1-44db580000e3","system_id":"levelo_inurba_marseille","lat":43.323464,"lon":5.406297,"is_reserved":false,"is_disabled":false,"rental_uris":{"android":"levelo://app?vid=c62a31fe-26d8-480d-83d1-44db580000e3","ios":"levelo://app?vid=c62a31fe-26d8-480d-83d1-44db580000e3"},"vehicle_type_id":"4","last_reported":1699549555,"current_range_meters":20800,"station_id":"ce4bhq92rcd13ifvqhjg","pricing_plan_id":"free"},{"bike_id":"fa1098f2-7561-4c49-8f74-7904f6d9ee4f","system_id":"levelo_inurba_marseille","lat":43.323464,"lon":5.406297,"is_reserved":false,"is_disabled":false,"rental_uris":{"android":"levelo://app?vid=fa1098f2-7561-4c49-8f74-7904f6d9ee4f","ios":"levelo://app?vid=fa1098f2-7561-4c49-8f74-7904f6d9ee4f"},"vehicle_type_id":"4","last_reported":1699549555,"current_range_meters":10400,"station_id":"ce4bhq92rcd13ifvqhjg","pricing_plan_id":"free"},{"bike_id":"1533b106-95ba-420a-8aac-f74c16a4f8e4","system_id":"levelo_inurba_marseille","lat":43.284787,"lon":5.384116,"is_reserved":false,"is_disabled":false,"rental_uris":{"android":"levelo://app?vid=1533b106-95ba-420a-8aac-f74c16a4f8e4","ios":"levelo://app?vid=1533b106-95ba-420a-8aac-f74c16a4f8e4"},"vehicle_type_id":"4","last_reported":1699549555,"current_range_meters":22400,"station_id":"ce4bh512rcd13ifvqe3g","pricing_plan_id":"free"},{"bike_id":"2e5ced8b-9a97-4a83-a278-ca863846f179","system_id":"levelo_inurba_marseille","lat":43.297946,"lon":5.404063,"is_reserved":false,"is_disabled":false,"rental_uris":{"android":"levelo://app?vid=2e5ced8b-9a97-4a83-a278-ca863846f179","ios":"levelo://app?vid=2e5ced8b-9a97-4a83-a278-ca863846f179"},"vehicle_type_id":"4","last_reported":1699549555,"current_range_meters":0,"station_id":"ce4bh112rcd13ifvqd90","pricing_plan_id":"free"},{"bike_id":"cc807449-d6e7-46eb-895e-f0d03fbdc04d","system_id":"levelo_inurba_marseille","lat":43.297946,"lon":5.404063,"is_reserved":false,"is_disabled":false,"rental_uris":{"android":"levelo://app?vid=cc807449-d6e7-46eb-895e-f0d03fbdc04d","ios":"levelo://app?vid=cc807449-d6e7-46eb-895e-f0d03fbdc04d"},"vehicle_type_id":"4","last_reported":1699549555,"current_range_meters":22800,"station_id":"ce4bh112rcd13ifvqd90","pricing_plan_id":"free"},{"bike_id":"5a27fe80-d2f1-485c-8133-0db8b9ecff89","system_id":"levelo_inurba_marseille","lat":43.283494,"lon":5.380945,"is_reserved":false,"is_disabled":false,"rental_uris":{"android":"levelo://app?vid=5a27fe80-d2f1-485c-8133-0db8b9ecff89","ios":"levelo://app?vid=5a27fe80-d2f1-485c-8133-0db8b9ecff89"},"vehicle_type_id":"4","last_reported":1699549555,"current_range_meters":0,"station_id":"ce4bh412rcd13ifvqdr0","pricing_plan_id":"free"},{"bike_id":"571c5bf7-6988-4ccb-bf64-65067cbae141","system_id":"levelo_inurba_marseille","lat":43.283494,"lon":5.380945,"is_reserved":false,"is_disabled":false,"rental_uris":{"android":"levelo://app?vid=571c5bf7-6988-4ccb-bf64-65067cbae141","ios":"levelo://app?vid=571c5bf7-6988-4ccb-bf64-65067cbae141"},"vehicle_type_id":"4","last_reported":1699549555,"current_range_meters":23600,"station_id":"ce4bh412rcd13ifvqdr0","pricing_plan_id":"free"},{"bike_id":"dc8bf23f-79ff-4556-8cd9-8d41b5ad5f69","system_id":"levelo_inurba_marseille","lat":43.283494,"lon":5.380945,"is_reserved":false,"is_disabled":false,"rental_uris":{"android":"levelo://app?vid=dc8bf23f-79ff-4556-8cd9-8d41b5ad5f69","ios":"levelo://app?vid=dc8bf23f-79ff-4556-8cd9-8d41b5ad5f69"},"vehicle_type_id":"4","last_reported":1699549555,"current_range_meters":1600,"station_id":"ce4bh412rcd13ifvqdr0","pricing_plan_id":"free"},{"bike_id":"798ba51d-5447-4169-a6cb-c6b4356153a6","system_id":"levelo_inurba_marseille","lat":43.284217,"lon":5.349697,"is_reserved":false,"is_disabled":false,"rental_uris":{"android":"levelo://app?vid=798ba51d-5447-4169-a6cb-c6b4356153a6","ios":"levelo://app?vid=798ba51d-5447-4169-a6cb-c6b4356153a6"},"vehicle_type_id":"4","last_reported":1699549555,"current_range_meters":20400,"station_id":"ce4bhbh2rcd13ifvqepg","pricing_plan_id":"free"},{"bike_id":"ca217d6d-d585-4908-b1ed-9e8b0b8a765f","system_id":"levelo_inurba_marseille","lat":43.283498,"lon":5.380948,"is_reserved":false,"is_disabled":false,"rental_uris":{"android":"levelo://app?vid=ca217d6d-d585-4908-b1ed-9e8b0b8a765f","ios":"levelo://app?vid=ca217d6d-d585-4908-b1ed-9e8b0b8a765f"},"vehicle_type_id":"4","last_reported":1699549555,"current_range_meters":19200,"station_id":"ce4bh412rcd13ifvqdr0","pricing_plan_id":"free"},{"bike_id":"2be8d0a6-a65f-41b2-be90-bb620cd4ac2e","system_id":"levelo_inurba_marseille","lat":43.289363,"lon":5.396322,"is_reserved":false,"is_disabled":false,"rental_uris":{"android":"levelo://app?vid=2be8d0a6-a65f-41b2-be90-bb620cd4ac2e","ios":"levelo://app?vid=2be8d0a6-a65f-41b2-be90-bb620cd4ac2e"},"vehicle_type_id":"4","last_reported":1699549555,"current_range_meters":20400,"station_id":"ce4bh3h2rcd13ifvqdn0","pricing_plan_id":"free"},{"bike_id":"694cc18d-6823-481a-9d09-67d990c2d197","system_id":"levelo_inurba_marseille","lat":43.324289,"lon":5.407562,"is_reserved":false,"is_disabled":false,"rental_uris":{"android":"levelo://app?vid=694cc18d-6823-481a-9d09-67d990c2d197","ios":"levelo://app?vid=694cc18d-6823-481a-9d09-67d990c2d197"},"vehicle_type_id":"4","last_reported":1699549555,"current_range_meters":5600,"station_id":"","pricing_plan_id":"free"},{"bike_id":"ffd2cfe9-5498-4cb0-a76b-09117cbf0a00","system_id":"levelo_inurba_marseille","lat":43.282754,"lon":5.350519,"is_reserved":false,"is_disabled":false,"rental_uris":{"android":"levelo://app?vid=ffd2cfe9-5498-4cb0-a76b-09117cbf0a00","ios":"levelo://app?vid=ffd2cfe9-5498-4cb0-a76b-09117cbf0a00"},"vehicle_type_id":"4","last_reported":1699549555,"current_range_meters":13200,"station_id":"ce4bhbp2rcd13ifvqerg","pricing_plan_id":"free"},{"bike_id":"ccc65b9c-2813-4ebd-be6b-7e7d7f75c38d","system_id":"levelo_inurba_marseille","lat":43.282744,"lon":5.350533,"is_reserved":false,"is_disabled":false,"rental_uris":{"android":"levelo://app?vid=ccc65b9c-2813-4ebd-be6b-7e7d7f75c38d","ios":"levelo://app?vid=ccc65b9c-2813-4ebd-be6b-7e7d7f75c38d"},"vehicle_type_id":"4","last_reported":1699549555,"current_range_meters":22000,"station_id":"ce4bhbp2rcd13ifvqerg","pricing_plan_id":"free"},{"bike_id":"6ce14d11-5c0b-40be-8dc1-99e20a1711f6","system_id":"levelo_inurba_marseille","lat":43.280399,"lon":5.369365,"is_reserved":false,"is_disabled":false,"rental_uris":{"android":"levelo://app?vid=6ce14d11-5c0b-40be-8dc1-99e20a1711f6","ios":"levelo://app?vid=6ce14d11-5c0b-40be-8dc1-99e20a1711f6"},"vehicle_type_id":"4","last_reported":1699549555,"current_range_meters":31200,"station_id":"ce4bha12rcd13ifvqef0","pricing_plan_id":"free"},{"bike_id":"70861597-a8d6-4f71-b475-979ce140dc57","system_id":"levelo_inurba_marseille","lat":43.282754,"lon":5.350519,"is_reserved":false,"is_disabled":false,"rental_uris":{"android":"levelo://app?vid=70861597-a8d6-4f71-b475-979ce140dc57","ios":"levelo://app?vid=70861597-a8d6-4f71-b475-979ce140dc57"},"vehicle_type_id":"4","last_reported":1699549555,"current_range_meters":28000,"station_id":"ce4bhbp2rcd13ifvqerg","pricing_plan_id":"free"},{"bike_id":"127fab5f-d08b-4b84-b2a6-33091f62848b","system_id":"levelo_inurba_marseille","lat":43.28036,"lon":5.36944,"is_reserved":false,"is_disabled":false,"rental_uris":{"android":"levelo://app?vid=127fab5f-d08b-4b84-b2a6-33091f62848b","ios":"levelo://app?vid=127fab5f-d08b-4b84-b2a6-33091f62848b"},"vehicle_type_id":"4","last_reported":1699549555,"current_range_meters":13600,"station_id":"ce4bha12rcd13ifvqef0","pricing_plan_id":"free"},{"bike_id":"3451b529-a324-4d95-baae-6035265d8706","system_id":"levelo_inurba_marseille","lat":43.28039,"lon":5.369297,"is_reserved":false,"is_disabled":false,"rental_uris":{"android":"levelo://app?vid=3451b529-a324-4d95-baae-6035265d8706","ios":"levelo://app?vid=3451b529-a324-4d95-baae-6035265d8706"},"vehicle_type_id":"4","last_reported":1699549555,"current_range_meters":25200,"station_id":"ce4bha12rcd13ifvqef0","pricing_plan_id":"free"},{"bike_id":"437aed4b-ec88-4bfa-b7da-f0eda1ce9e84","system_id":"levelo_inurba_marseille","lat":43.280382,"lon":5.369291,"is_reserved":false,"is_disabled":false,"rental_uris":{"android":"levelo://app?vid=437aed4b-ec88-4bfa-b7da-f0eda1ce9e84","ios":"levelo://app?vid=437aed4b-ec88-4bfa-b7da-f0eda1ce9e84"},"vehicle_type_id":"4","last_reported":1699549555,"current_range_meters":28400,"station_id":"ce4bha12rcd13ifvqef0","pricing_plan_id":"free"},{"bike_id":"f31ad0f2-fa40-46b9-8b38-60f3f778bb42","system_id":"levelo_inurba_marseille","lat":43.314811,"lon":5.373103,"is_reserved":false,"is_disabled":false,"rental_uris":{"android":"levelo://app?vid=f31ad0f2-fa40-46b9-8b38-60f3f778bb42","ios":"levelo://app?vid=f31ad0f2-fa40-46b9-8b38-60f3f778bb42"},"vehicle_type_id":"4","last_reported":1699549555,"current_range_meters":15200,"station_id":"ce4bgt12rcd13ifvqcd0","pricing_plan_id":"free"},{"bike_id":"6af4a454-cdff-467b-9e38-d587abbaa270","system_id":"levelo_inurba_marseille","lat":43.290412,"lon":5.399633,"is_reserved":false,"is_disabled":false,"rental_uris":{"android":"levelo://app?vid=6af4a454-cdff-467b-9e38-d587abbaa270","ios":"levelo://app?vid=6af4a454-cdff-467b-9e38-d587abbaa270"},"vehicle_type_id":"4","last_reported":1699549555,"current_range_meters":24800,"station_id":"ce4bh392rcd13ifvqdm0","pricing_plan_id":"free"},{"bike_id":"74ec10c9-d507-4d0f-bb4c-af1aad44bf59","system_id":"levelo_inurba_marseille","lat":43.29041,"lon":5.399634,"is_reserved":false,"is_disabled":false,"rental_uris":{"android":"levelo://app?vid=74ec10c9-d507-4d0f-bb4c-af1aad44bf59","ios":"levelo://app?vid=74ec10c9-d507-4d0f-bb4c-af1aad44bf59"},"vehicle_type_id":"4","last_reported":1699549555,"current_range_meters":27200,"station_id":"ce4bh392rcd13ifvqdm0","pricing_plan_id":"free"},{"bike_id":"60feaf04-4b6b-4b9f-aa5e-c1613818077f","system_id":"levelo_inurba_marseille","lat":43.29041,"lon":5.399634,"is_reserved":false,"is_disabled":false,"rental_uris":{"android":"levelo://app?vid=60feaf04-4b6b-4b9f-aa5e-c1613818077f","ios":"levelo://app?vid=60feaf04-4b6b-4b9f-aa5e-c1613818077f"},"vehicle_type_id":"4","last_reported":1699549555,"current_range_meters":14800,"station_id":"ce4bh392rcd13ifvqdm0","pricing_plan_id":"free"},{"bike_id":"0eca1d00-5069-4a15-98af-d74e4fb5633f","system_id":"levelo_inurba_marseille","lat":43.303544,"lon":5.410165,"is_reserved":false,"is_disabled":false,"rental_uris":{"android":"levelo://app?vid=0eca1d00-5069-4a15-98af-d74e4fb5633f","ios":"levelo://app?vid=0eca1d00-5069-4a15-98af-d74e4fb5633f"},"vehicle_type_id":"4","last_reported":1699549555,"current_range_meters":22000,"station_id":"","pricing_plan_id":"free"},{"bike_id":"e39f9870-9492-4073-9433-cd8b0b1bd23b","system_id":"levelo_inurba_marseille","lat":43.281044,"lon":5.378308,"is_reserved":false,"is_disabled":false,"rental_uris":{"android":"levelo://app?vid=e39f9870-9492-4073-9433-cd8b0b1bd23b","ios":"levelo://app?vid=e39f9870-9492-4073-9433-cd8b0b1bd23b"},"vehicle_type_id":"4","last_reported":1699549555,"current_range_meters":3600,"station_id":"ce4bha12rcd13ifvqee0","pricing_plan_id":"free"},{"bike_id":"66d42de7-6c9b-4003-869f-44c3c54797f3","system_id":"levelo_inurba_marseille","lat":43.281044,"lon":5.378308,"is_reserved":false,"is_disabled":false,"rental_uris":{"android":"levelo://app?vid=66d42de7-6c9b-4003-869f-44c3c54797f3","ios":"levelo://app?vid=66d42de7-6c9b-4003-869f-44c3c54797f3"},"vehicle_type_id":"4","last_reported":1699549555,"current_range_meters":4800,"station_id":"ce4bha12rcd13ifvqee0","pricing_plan_id":"free"},{"bike_id":"9bbda85f-7dd1-458b-82ae-880c28fefc82","system_id":"levelo_inurba_marseille","lat":43.29631,"lon":5.40601,"is_reserved":false,"is_disabled":false,"rental_uris":{"android":"levelo://app?vid=9bbda85f-7dd1-458b-82ae-880c28fefc82","ios":"levelo://app?vid=9bbda85f-7dd1-458b-82ae-880c28fefc82"},"vehicle_type_id":"4","last_reported":1699549555,"current_range_meters":26800,"station_id":"ce4bh0h2rcd13ifvqd60","pricing_plan_id":"free"},{"bike_id":"43c06246-ecba-490a-906b-1b7afaa3a1bd","system_id":"levelo_inurba_marseille","lat":43.281044,"lon":5.378308,"is_reserved":false,"is_disabled":false,"rental_uris":{"android":"levelo://app?vid=43c06246-ecba-490a-906b-1b7afaa3a1bd","ios":"levelo://app?vid=43c06246-ecba-490a-906b-1b7afaa3a1bd"},"vehicle_type_id":"4","last_reported":1699549555,"current_range_meters":0,"station_id":"ce4bha12rcd13ifvqee0","pricing_plan_id":"free"},{"bike_id":"2751ce96-2cac-4c82-b94d-69720de2d96a","system_id":"levelo_inurba_marseille","lat":43.29627,"lon":5.40604,"is_reserved":false,"is_disabled":false,"rental_uris":{"android":"levelo://app?vid=2751ce96-2cac-4c82-b94d-69720de2d96a","ios":"levelo://app?vid=2751ce96-2cac-4c82-b94d-69720de2d96a"},"vehicle_type_id":"4","last_reported":1699549555,"current_range_meters":28000,"station_id":"ce4bh0h2rcd13ifvqd60","pricing_plan_id":"free"},{"bike_id":"c5269fde-c094-4163-a2ac-a6350e774e3c","system_id":"levelo_inurba_marseille","lat":43.323447,"lon":5.41003,"is_reserved":false,"is_disabled":false,"rental_uris":{"android":"levelo://app?vid=c5269fde-c094-4163-a2ac-a6350e774e3c","ios":"levelo://app?vid=c5269fde-c094-4163-a2ac-a6350e774e3c"},"vehicle_type_id":"4","last_reported":1699549555,"current_range_meters":12400,"station_id":"","pricing_plan_id":"free"},{"bike_id":"1cc8c40c-9df4-46aa-905c-c5728a6449a8","system_id":"levelo_inurba_marseille","lat":43.284462,"lon":5.392121,"is_reserved":false,"is_disabled":false,"rental_uris":{"android":"levelo://app?vid=1cc8c40c-9df4-46aa-905c-c5728a6449a8","ios":"levelo://app?vid=1cc8c40c-9df4-46aa-905c-c5728a6449a8"},"vehicle_type_id":"4","last_reported":1699549555,"current_range_meters":14800,"station_id":"ce4bhoh2rcd13ifvqh5g","pricing_plan_id":"free"},{"bike_id":"9dcafc98-6c49-4897-9449-bad5f9c8af0a","system_id":"levelo_inurba_marseille","lat":43.284462,"lon":5.392121,"is_reserved":false,"is_disabled":false,"rental_uris":{"android":"levelo://app?vid=9dcafc98-6c49-4897-9449-bad5f9c8af0a","ios":"levelo://app?vid=9dcafc98-6c49-4897-9449-bad5f9c8af0a"},"vehicle_type_id":"4","last_reported":1699549555,"current_range_meters":20000,"station_id":"ce4bhoh2rcd13ifvqh5g","pricing_plan_id":"free"},{"bike_id":"d35fd685-a972-46c8-9325-fa8e082ffe24","system_id":"levelo_inurba_marseille","lat":43.304188,"lon":5.412904,"is_reserved":false,"is_disabled":false,"rental_uris":{"android":"levelo://app?vid=d35fd685-a972-46c8-9325-fa8e082ffe24","ios":"levelo://app?vid=d35fd685-a972-46c8-9325-fa8e082ffe24"},"vehicle_type_id":"4","last_reported":1699549555,"current_range_meters":22400,"station_id":"ce4bhop2rcd13ifvqh8g","pricing_plan_id":"free"},{"bike_id":"e8918fc3-4771-4c5d-86f3-8b6f6e21e0f7","system_id":"levelo_inurba_marseille","lat":43.304188,"lon":5.412904,"is_reserved":false,"is_disabled":false,"rental_uris":{"android":"levelo://app?vid=e8918fc3-4771-4c5d-86f3-8b6f6e21e0f7","ios":"levelo://app?vid=e8918fc3-4771-4c5d-86f3-8b6f6e21e0f7"},"vehicle_type_id":"4","last_reported":1699549555,"current_range_meters":26800,"station_id":"ce4bhop2rcd13ifvqh8g","pricing_plan_id":"free"},{"bike_id":"faf09b53-e562-4ae9-ae94-323bf3cb9ce0","system_id":"levelo_inurba_marseille","lat":43.304188,"lon":5.412904,"is_reserved":false,"is_disabled":false,"rental_uris":{"android":"levelo://app?vid=faf09b53-e562-4ae9-ae94-323bf3cb9ce0","ios":"levelo://app?vid=faf09b53-e562-4ae9-ae94-323bf3cb9ce0"},"vehicle_type_id":"4","last_reported":1699549555,"current_range_meters":25600,"station_id":"ce4bhop2rcd13ifvqh8g","pricing_plan_id":"free"},{"bike_id":"22d3ef47-f0b0-42f5-a62d-28da5192f337","system_id":"levelo_inurba_marseille","lat":43.304188,"lon":5.412904,"is_reserved":false,"is_disabled":false,"rental_uris":{"android":"levelo://app?vid=22d3ef47-f0b0-42f5-a62d-28da5192f337","ios":"levelo://app?vid=22d3ef47-f0b0-42f5-a62d-28da5192f337"},"vehicle_type_id":"4","last_reported":1699549555,"current_range_meters":18000,"station_id":"ce4bhop2rcd13ifvqh8g","pricing_plan_id":"free"},{"bike_id":"51cc9160-e7b0-41ef-9406-7ede4c295e59","system_id":"levelo_inurba_marseille","lat":43.279087,"lon":5.380114,"is_reserved":false,"is_disabled":false,"rental_uris":{"android":"levelo://app?vid=51cc9160-e7b0-41ef-9406-7ede4c295e59","ios":"levelo://app?vid=51cc9160-e7b0-41ef-9406-7ede4c295e59"},"vehicle_type_id":"4","last_reported":1699549555,"current_range_meters":25200,"station_id":"ce4bhf92rcd13ifvqf50","pricing_plan_id":"free"},{"bike_id":"3ce01a3d-926d-4b41-9f44-f7e100b72f38","system_id":"levelo_inurba_marseille","lat":43.28708,"lon":5.39998,"is_reserved":false,"is_disabled":false,"rental_uris":{"android":"levelo://app?vid=3ce01a3d-926d-4b41-9f44-f7e100b72f38","ios":"levelo://app?vid=3ce01a3d-926d-4b41-9f44-f7e100b72f38"},"vehicle_type_id":"4","last_reported":1699549555,"current_range_meters":26400,"station_id":"ce4bho92rcd13ifvqh3g","pricing_plan_id":"free"},{"bike_id":"feca28d2-7019-4e39-96be-d7938cc29597","system_id":"levelo_inurba_marseille","lat":43.32435,"lon":5.4137,"is_reserved":false,"is_disabled":false,"rental_uris":{"android":"levelo://app?vid=feca28d2-7019-4e39-96be-d7938cc29597","ios":"levelo://app?vid=feca28d2-7019-4e39-96be-d7938cc29597"},"vehicle_type_id":"4","last_reported":1699549555,"current_range_meters":28400,"station_id":"","pricing_plan_id":"free"},{"bike_id":"600d5c00-fd9d-4270-ab63-157ed1be21e4","system_id":"levelo_inurba_marseille","lat":43.299577,"lon":5.413277,"is_reserved":false,"is_disabled":false,"rental_uris":{"android":"levelo://app?vid=600d5c00-fd9d-4270-ab63-157ed1be21e4","ios":"levelo://app?vid=600d5c00-fd9d-4270-ab63-157ed1be21e4"},"vehicle_type_id":"4","last_reported":1699549555,"current_range_meters":24400,"station_id":"ce4bhp12rcd13ifvqh9g","pricing_plan_id":"free"},{"bike_id":"82828ebd-f425-4d75-be1d-bc2a7db10107","system_id":"levelo_inurba_marseille","lat":43.320045,"lon":5.415046,"is_reserved":false,"is_disabled":false,"rental_uris":{"android":"levelo://app?vid=82828ebd-f425-4d75-be1d-bc2a7db10107","ios":"levelo://app?vid=82828ebd-f425-4d75-be1d-bc2a7db10107"},"vehicle_type_id":"4","last_reported":1699549555,"current_range_meters":11200,"station_id":"ce4bhq92rcd13ifvqhkg","pricing_plan_id":"free"},{"bike_id":"e6c5adff-0bc9-4a02-bb19-2c786d9e3182","system_id":"levelo_inurba_marseille","lat":43.299577,"lon":5.413277,"is_reserved":false,"is_disabled":false,"rental_uris":{"android":"levelo://app?vid=e6c5adff-0bc9-4a02-bb19-2c786d9e3182","ios":"levelo://app?vid=e6c5adff-0bc9-4a02-bb19-2c786d9e3182"},"vehicle_type_id":"4","last_reported":1699549555,"current_range_meters":31200,"station_id":"ce4bhp12rcd13ifvqh9g","pricing_plan_id":"free"},{"bike_id":"43630ce3-dc5a-49b8-b827-eb4704df1f7d","system_id":"levelo_inurba_marseille","lat":43.276162,"lon":5.36107,"is_reserved":false,"is_disabled":false,"rental_uris":{"android":"levelo://app?vid=43630ce3-dc5a-49b8-b827-eb4704df1f7d","ios":"levelo://app?vid=43630ce3-dc5a-49b8-b827-eb4704df1f7d"},"vehicle_type_id":"4","last_reported":1699549555,"current_range_meters":25200,"station_id":"","pricing_plan_id":"free"},{"bike_id":"aef3a3dd-fe1a-4996-a1b4-76e0ccfc5d58","system_id":"levelo_inurba_marseille","lat":43.2761,"lon":5.3612,"is_reserved":false,"is_disabled":false,"rental_uris":{"android":"levelo://app?vid=aef3a3dd-fe1a-4996-a1b4-76e0ccfc5d58","ios":"levelo://app?vid=aef3a3dd-fe1a-4996-a1b4-76e0ccfc5d58"},"vehicle_type_id":"4","last_reported":1699549555,"current_range_meters":18400,"station_id":"ce4bgj92rcd13ifvqbe0","pricing_plan_id":"free"},{"bike_id":"8ef4c078-c706-46bb-b69b-6760b0126930","system_id":"levelo_inurba_marseille","lat":43.27609,"lon":5.36115,"is_reserved":false,"is_disabled":false,"rental_uris":{"android":"levelo://app?vid=8ef4c078-c706-46bb-b69b-6760b0126930","ios":"levelo://app?vid=8ef4c078-c706-46bb-b69b-6760b0126930"},"vehicle_type_id":"4","last_reported":1699549555,"current_range_meters":20800,"station_id":"ce4bgj92rcd13ifvqbe0","pricing_plan_id":"free"},{"bike_id":"3a3795cd-9be2-4541-9870-f9c7144da57e","system_id":"levelo_inurba_marseille","lat":43.280784,"lon":5.396622,"is_reserved":false,"is_disabled":false,"rental_uris":{"android":"levelo://app?vid=3a3795cd-9be2-4541-9870-f9c7144da57e","ios":"levelo://app?vid=3a3795cd-9be2-4541-9870-f9c7144da57e"},"vehicle_type_id":"4","last_reported":1699549555,"current_range_meters":7200,"station_id":"ce4bho12rcd13ifvqh2g","pricing_plan_id":"free"},{"bike_id":"a93fd980-a328-46ca-ac96-563a9ef781ab","system_id":"levelo_inurba_marseille","lat":43.303837,"lon":5.418724,"is_reserved":false,"is_disabled":false,"rental_uris":{"android":"levelo://app?vid=a93fd980-a328-46ca-ac96-563a9ef781ab","ios":"levelo://app?vid=a93fd980-a328-46ca-ac96-563a9ef781ab"},"vehicle_type_id":"4","last_reported":1699549555,"current_range_meters":12000,"station_id":"ce4bhop2rcd13ifvqh7g","pricing_plan_id":"free"},{"bike_id":"17314d7e-d7ea-47ab-b751-db424be1dc45","system_id":"levelo_inurba_marseille","lat":43.278353,"lon":5.39201,"is_reserved":false,"is_disabled":false,"rental_uris":{"android":"levelo://app?vid=17314d7e-d7ea-47ab-b751-db424be1dc45","ios":"levelo://app?vid=17314d7e-d7ea-47ab-b751-db424be1dc45"},"vehicle_type_id":"4","last_reported":1699549555,"current_range_meters":17600,"station_id":"ce4bhjp2rcd13ifvqga0","pricing_plan_id":"free"},{"bike_id":"d47a29ad-e5a3-4acb-86ba-c04e76f1e8f0","system_id":"levelo_inurba_marseille","lat":43.278399,"lon":5.392139,"is_reserved":false,"is_disabled":false,"rental_uris":{"android":"levelo://app?vid=d47a29ad-e5a3-4acb-86ba-c04e76f1e8f0","ios":"levelo://app?vid=d47a29ad-e5a3-4acb-86ba-c04e76f1e8f0"},"vehicle_type_id":"4","last_reported":1699549555,"current_range_meters":18400,"station_id":"ce4bhjp2rcd13ifvqga0","pricing_plan_id":"free"},{"bike_id":"0f224741-7d64-4aa7-b486-da97b5a87a11","system_id":"levelo_inurba_marseille","lat":43.273613,"lon":5.362705,"is_reserved":false,"is_disabled":false,"rental_uris":{"android":"levelo://app?vid=0f224741-7d64-4aa7-b486-da97b5a87a11","ios":"levelo://app?vid=0f224741-7d64-4aa7-b486-da97b5a87a11"},"vehicle_type_id":"4","last_reported":1699549555,"current_range_meters":31200,"station_id":"ce4bhbh2rcd13ifvqeo0","pricing_plan_id":"free"},{"bike_id":"2253f419-3f3b-483f-878d-61f38ea5f5ad","system_id":"levelo_inurba_marseille","lat":43.273613,"lon":5.362705,"is_reserved":false,"is_disabled":false,"rental_uris":{"android":"levelo://app?vid=2253f419-3f3b-483f-878d-61f38ea5f5ad","ios":"levelo://app?vid=2253f419-3f3b-483f-878d-61f38ea5f5ad"},"vehicle_type_id":"4","last_reported":1699549555,"current_range_meters":16000,"station_id":"ce4bhbh2rcd13ifvqeo0","pricing_plan_id":"free"},{"bike_id":"2ea5f13d-a3b6-4a6e-9db3-4ccdcbfd4a38","system_id":"levelo_inurba_marseille","lat":43.279952,"lon":5.400085,"is_reserved":false,"is_disabled":false,"rental_uris":{"android":"levelo://app?vid=2ea5f13d-a3b6-4a6e-9db3-4ccdcbfd4a38","ios":"levelo://app?vid=2ea5f13d-a3b6-4a6e-9db3-4ccdcbfd4a38"},"vehicle_type_id":"4","last_reported":1699549555,"current_range_meters":30000,"station_id":"ce4bho92rcd13ifvqh4g","pricing_plan_id":"free"},{"bike_id":"f27d42d5-669f-447c-b0ca-e63693bf68ee","system_id":"levelo_inurba_marseille","lat":43.280017,"lon":5.400217,"is_reserved":false,"is_disabled":false,"rental_uris":{"android":"levelo://app?vid=f27d42d5-669f-447c-b0ca-e63693bf68ee","ios":"levelo://app?vid=f27d42d5-669f-447c-b0ca-e63693bf68ee"},"vehicle_type_id":"4","last_reported":1699549555,"current_range_meters":27600,"station_id":"ce4bho92rcd13ifvqh4g","pricing_plan_id":"free"},{"bike_id":"737e9956-dcef-49ca-afea-e7c7db233cc1","system_id":"levelo_inurba_marseille","lat":43.279931,"lon":5.400239,"is_reserved":false,"is_disabled":false,"rental_uris":{"android":"levelo://app?vid=737e9956-dcef-49ca-afea-e7c7db233cc1","ios":"levelo://app?vid=737e9956-dcef-49ca-afea-e7c7db233cc1"},"vehicle_type_id":"4","last_reported":1699549555,"current_range_meters":30400,"station_id":"ce4bho92rcd13ifvqh4g","pricing_plan_id":"free"},{"bike_id":"1beda278-379c-45cc-b8a0-db1885f454b7","system_id":"levelo_inurba_marseille","lat":43.310785,"lon":5.424305,"is_reserved":false,"is_disabled":false,"rental_uris":{"android":"levelo://app?vid=1beda278-379c-45cc-b8a0-db1885f454b7","ios":"levelo://app?vid=1beda278-379c-45cc-b8a0-db1885f454b7"},"vehicle_type_id":"4","last_reported":1699549555,"current_range_meters":20400,"station_id":"ce4bhp92rcd13ifvqhag","pricing_plan_id":"free"},{"bike_id":"6d987926-e69c-4332-8aa2-a64ea2912f4a","system_id":"levelo_inurba_marseille","lat":43.310785,"lon":5.424305,"is_reserved":false,"is_disabled":false,"rental_uris":{"android":"levelo://app?vid=6d987926-e69c-4332-8aa2-a64ea2912f4a","ios":"levelo://app?vid=6d987926-e69c-4332-8aa2-a64ea2912f4a"},"vehicle_type_id":"4","last_reported":1699549555,"current_range_meters":7600,"station_id":"ce4bhp92rcd13ifvqhag","pricing_plan_id":"free"},{"bike_id":"d54c4713-261f-4a07-83c5-0baa4338de97","system_id":"levelo_inurba_marseille","lat":43.28037,"lon":5.40409,"is_reserved":false,"is_disabled":false,"rental_uris":{"android":"levelo://app?vid=d54c4713-261f-4a07-83c5-0baa4338de97","ios":"levelo://app?vid=d54c4713-261f-4a07-83c5-0baa4338de97"},"vehicle_type_id":"4","last_reported":1699549555,"current_range_meters":21200,"station_id":"","pricing_plan_id":"free"},{"bike_id":"97122913-eb47-483d-a5b8-58aacdb0eca1","system_id":"levelo_inurba_marseille","lat":43.273125,"lon":5.390731,"is_reserved":false,"is_disabled":false,"rental_uris":{"android":"levelo://app?vid=97122913-eb47-483d-a5b8-58aacdb0eca1","ios":"levelo://app?vid=97122913-eb47-483d-a5b8-58aacdb0eca1"},"vehicle_type_id":"4","last_reported":1699549555,"current_range_meters":30400,"station_id":"ce4bhgp2rcd13ifvqfe0","pricing_plan_id":"free"},{"bike_id":"32d9610f-47db-48a4-a308-4224ead53555","system_id":"levelo_inurba_marseille","lat":43.274103,"lon":5.394016,"is_reserved":false,"is_disabled":false,"rental_uris":{"android":"levelo://app?vid=32d9610f-47db-48a4-a308-4224ead53555","ios":"levelo://app?vid=32d9610f-47db-48a4-a308-4224ead53555"},"vehicle_type_id":"4","last_reported":1699549555,"current_range_meters":24800,"station_id":"ce4bhdp2rcd13ifvqf20","pricing_plan_id":"free"},{"bike_id":"40ea59ae-85e9-47b6-99df-78a6d5914555","system_id":"levelo_inurba_marseille","lat":43.27419,"lon":5.39424,"is_reserved":false,"is_disabled":false,"rental_uris":{"android":"levelo://app?vid=40ea59ae-85e9-47b6-99df-78a6d5914555","ios":"levelo://app?vid=40ea59ae-85e9-47b6-99df-78a6d5914555"},"vehicle_type_id":"4","last_reported":1699549555,"current_range_meters":14800,"station_id":"ce4bhdp2rcd13ifvqf20","pricing_plan_id":"free"},{"bike_id":"b2685c1c-949f-4a62-9d93-dd9cc293ff44","system_id":"levelo_inurba_marseille","lat":43.295511,"lon":5.422926,"is_reserved":false,"is_disabled":false,"rental_uris":{"android":"levelo://app?vid=b2685c1c-949f-4a62-9d93-dd9cc293ff44","ios":"levelo://app?vid=b2685c1c-949f-4a62-9d93-dd9cc293ff44"},"vehicle_type_id":"4","last_reported":1699549555,"current_range_meters":11200,"station_id":"ce4bhph2rcd13ifvqhdg","pricing_plan_id":"free"},{"bike_id":"7fb3b5c7-4254-46d4-9c93-39af95c5e795","system_id":"levelo_inurba_marseille","lat":43.295523,"lon":5.422926,"is_reserved":false,"is_disabled":false,"rental_uris":{"android":"levelo://app?vid=7fb3b5c7-4254-46d4-9c93-39af95c5e795","ios":"levelo://app?vid=7fb3b5c7-4254-46d4-9c93-39af95c5e795"},"vehicle_type_id":"4","last_reported":1699549555,"current_range_meters":14400,"station_id":"ce4bhph2rcd13ifvqhdg","pricing_plan_id":"free"},{"bike_id":"a130d876-89b1-4ab5-8c75-d7c3563b71d7","system_id":"levelo_inurba_marseille","lat":43.295511,"lon":5.422926,"is_reserved":false,"is_disabled":false,"rental_uris":{"android":"levelo://app?vid=a130d876-89b1-4ab5-8c75-d7c3563b71d7","ios":"levelo://app?vid=a130d876-89b1-4ab5-8c75-d7c3563b71d7"},"vehicle_type_id":"4","last_reported":1699549555,"current_range_meters":0,"station_id":"ce4bhph2rcd13ifvqhdg","pricing_plan_id":"free"},{"bike_id":"cadb05a9-f20e-4866-9a1f-a440a5921772","system_id":"levelo_inurba_marseille","lat":43.272116,"lon":5.391763,"is_reserved":false,"is_disabled":false,"rental_uris":{"android":"levelo://app?vid=cadb05a9-f20e-4866-9a1f-a440a5921772","ios":"levelo://app?vid=cadb05a9-f20e-4866-9a1f-a440a5921772"},"vehicle_type_id":"4","last_reported":1699549555,"current_range_meters":17200,"station_id":"ce4bhhp2rcd13ifvqfm0","pricing_plan_id":"free"},{"bike_id":"01073d82-ce8d-4877-a84d-8ff35b265248","system_id":"levelo_inurba_marseille","lat":43.272116,"lon":5.391763,"is_reserved":false,"is_disabled":false,"rental_uris":{"android":"levelo://app?vid=01073d82-ce8d-4877-a84d-8ff35b265248","ios":"levelo://app?vid=01073d82-ce8d-4877-a84d-8ff35b265248"},"vehicle_type_id":"4","last_reported":1699549555,"current_range_meters":5200,"station_id":"ce4bhhp2rcd13ifvqfm0","pricing_plan_id":"free"},{"bike_id":"6972340b-4a26-405b-b344-0716d721b462","system_id":"levelo_inurba_marseille","lat":43.272116,"lon":5.391763,"is_reserved":false,"is_disabled":false,"rental_uris":{"android":"levelo://app?vid=6972340b-4a26-405b-b344-0716d721b462","ios":"levelo://app?vid=6972340b-4a26-405b-b344-0716d721b462"},"vehicle_type_id":"4","last_reported":1699549555,"current_range_meters":16800,"station_id":"ce4bhhp2rcd13ifvqfm0","pricing_plan_id":"free"},{"bike_id":"faaddc4d-2b12-4817-aa26-07bfe0b03f72","system_id":"levelo_inurba_marseille","lat":43.272116,"lon":5.391747,"is_reserved":false,"is_disabled":false,"rental_uris":{"android":"levelo://app?vid=faaddc4d-2b12-4817-aa26-07bfe0b03f72","ios":"levelo://app?vid=faaddc4d-2b12-4817-aa26-07bfe0b03f72"},"vehicle_type_id":"4","last_reported":1699549555,"current_range_meters":24000,"station_id":"ce4bhhp2rcd13ifvqfm0","pricing_plan_id":"free"},{"bike_id":"e8521037-6664-4bac-b2db-d76b9ea5e159","system_id":"levelo_inurba_marseille","lat":43.272116,"lon":5.391747,"is_reserved":false,"is_disabled":false,"rental_uris":{"android":"levelo://app?vid=e8521037-6664-4bac-b2db-d76b9ea5e159","ios":"levelo://app?vid=e8521037-6664-4bac-b2db-d76b9ea5e159"},"vehicle_type_id":"4","last_reported":1699549555,"current_range_meters":26000,"station_id":"ce4bhhp2rcd13ifvqfm0","pricing_plan_id":"free"},{"bike_id":"71e768a2-9b49-49d8-bb9b-827044bbb7f7","system_id":"levelo_inurba_marseille","lat":43.27203,"lon":5.39295,"is_reserved":false,"is_disabled":false,"rental_uris":{"android":"levelo://app?vid=71e768a2-9b49-49d8-bb9b-827044bbb7f7","ios":"levelo://app?vid=71e768a2-9b49-49d8-bb9b-827044bbb7f7"},"vehicle_type_id":"4","last_reported":1699549555,"current_range_meters":26000,"station_id":"","pricing_plan_id":"free"},{"bike_id":"69d6b217-84af-40a0-bc68-06c8ab0a81f8","system_id":"levelo_inurba_marseille","lat":43.278128,"lon":5.407195,"is_reserved":false,"is_disabled":false,"rental_uris":{"android":"levelo://app?vid=69d6b217-84af-40a0-bc68-06c8ab0a81f8","ios":"levelo://app?vid=69d6b217-84af-40a0-bc68-06c8ab0a81f8"},"vehicle_type_id":"4","last_reported":1699549555,"current_range_meters":12000,"station_id":"ce4bhnh2rcd13ifvqgtg","pricing_plan_id":"free"},