{"last_updated":1719328087,"ttl":30,"version":"2.2","data":{"bikes":[{"bike_id":"bc24c147-5d04-4ce2-91f1-f696af59ca6a","system_id":"levelo_inurba_marseille","lat":43.31341,"lon":5.367098,"is_reserved":false,"is_disabled":false,"rental_uris":{"android":"levelo://app?vid=bc24c147-5d04-4ce2-91f1-f696af59ca6a","ios":"levelo://app?vid=bc24c147-5d04-4ce2-91f1-f696af59ca6a"},"vehicle_type_id":"4","last_reported":1719328087,"current_range_meters":25600,"station_id":"ce4bgr92rcd13ifvqc6g","pricing_plan_id":"cebpf4jnsgd1na2vs0mg"},{"bike_id":"37bf9b27-71ba-4f85-beaf-c7629aed24e8","system_id":"levelo_inurba_marseille","lat":43.31359,"lon":5.367053,"is_reserved":false,"is_disabled":false,"rental_uris":{"android":"levelo://app?vid=37bf9b27-71ba-4f85-beaf-c7629aed24e8","ios":"levelo://app?vid=37bf9b27-71ba-4f85-beaf-c7629aed24e8"},"vehicle_type_id":"4","last_reported":1719328087,"current_range_meters":7200,"station_id":"ce4bgr92rcd13ifvqc6g","pricing_plan_id":"cebpf4jnsgd1na2vs0mg"},{"bike_id":"744f7929-0b7f-4eab-a22f-9d13e5319a14","system_id":"levelo_inurba_marseille","lat":43.312239,"lon":5.368562,"is_reserved":false,"is_disabled":false,"rental_uris":{"android":"levelo://app?vid=744f7929-0b7f-4eab-a22f-9d13e5319a14","ios":"levelo://app?vid=744f7929-0b7f-4eab-a22f-9d13e5319a14"},"vehicle_type_id":"4","last_reported":1719328087,"current_range_meters":30000,"station_id":"ce4bgl92rcd13ifvqbq0","pricing_plan_id":"cebpf4jnsgd1na2vs0mg"},{"bike_id":"c09d83ab-c8d0-4798-9437-08fdb6dae40e","system_id":"levelo_inurba_marseille","lat":43.312146,"lon":5.368572,"is_reserved":false,"is_disabled":false,"rental_uris":{"android":"levelo://app?vid=c09d83ab-c8d0-4798-9437-08fdb6dae40e","ios":"levelo://app?vid=c09d83ab-c8d0-4798-9437-08fdb6dae40e"},"vehicle_type_id":"4","last_reported":1719328087,"current_range_meters":7600,"station_id":"ce4bgl92rcd13ifvqbq0","pricing_plan_id":"cebpf4jnsgd1na2vs0mg"},{"bike_id":"23903e11-60cb-41fc-a7c3-079c5cc32b0f","system_id":"levelo_inurba_marseille","lat":43.312239,"lon":5.368562,"is_reserved":false,"is_disabled":false,"rental_uris":{"android":"levelo://app?vid=23903e11-60cb-41fc-a7c3-079c5cc32b0f","ios":"levelo://app?vid=23903e11-60cb-41fc-a7c3-079c5cc32b0f"},"vehicle_type_id":"4","last_reported":1719328087,"current_range_meters":28800,"station_id":"ce4bgl92rcd13ifvqbq0","pricing_plan_id":"cebpf4jnsgd1na2vs0mg"},{"bike_id":"220290a5-48c6-4fd1-9200-af2272815bdb","system_id":"levelo_inurba_marseille","lat":43.312294,"lon":5.368673,"is_reserved":false,"is_disabled":false,"rental_uris":{"android":"levelo://app?vid=220290a5-48c6-4fd1-9200-af2272815bdb","ios":"levelo://app?vid=220290a5-48c6-4fd1-9200-af2272815bdb"},"vehicle_type_id":"4","last_reported":1719328087,"current_range_meters":4000,"station_id":"ce4bgl92rcd13ifvqbq0","pricing_plan_id":"cebpf4jnsgd1na2vs0mg"},{"bike_id":"cfde2fbd-dcc2-49c7-a550-96328e10af92","system_id":"levelo_inurba_marseille","lat":43.312239,"lon":5.368562,"is_reserved":false,"is_disabled":false,"rental_uris":{"android":"levelo://app?vid=cfde2fbd-dcc2-49c7-a550-96328e10af92","ios":"levelo://app?vid=cfde2fbd-dcc2-49c7-a550-96328e10af92"},"vehicle_type_id":"4","last_reported":1719328087,"current_range_meters":7200,"station_id":"ce4bgl92rcd13ifvqbq0","pricing_plan_id":"cebpf4jnsgd1na2vs0mg"},{"bike_id":"5d7b6a49-dfe7-475d-87dc-a68daaaba765","system_id":"levelo_inurba_marseille","lat":43.312239,"lon":5.368562,"is_reserved":false,"is_disabled":false,"rental_uris":{"android":"levelo://app?vid=5d7b6a49-dfe7-475d-87dc-a68daaaba765","ios":"levelo://app?vid=5d7b6a49-dfe7-475d-87dc-a68daaaba765"},"vehicle_type_id":"4","last_reported":1719328087,"current_range_meters":0,"station_id":"ce4bgl92rcd13ifvqbq0","pricing_plan_id":"cebpf4jnsgd1na2vs0mg"},{"bike_id":"1d4eb12f-edcb-451e-9ae0-cd1fa156958f","system_id":"levelo_inurba_marseille","lat":43.312239,"lon":5.368562,"is_reserved":false,"is_disabled":false,"rental_uris":{"android":"levelo://app?vid=1d4eb12f-edcb-451e-9ae0-cd1fa156958f","ios":"levelo://app?vid=1d4eb12f-edcb-451e-9ae0-cd1fa156958f"},"vehicle_type_id":"4","last_reported":1719328087,"current_range_meters":30400,"station_id":"ce4bgl92rcd13ifvqbq0","pricing_plan_id":"cebpf4jnsgd1na2vs0mg"},{"bike_id":"b6578e2e-c412-4678-93b7-474146983470","system_id":"levelo_inurba_marseille","lat":43.312239,"lon":5.368562,"is_reserved":false,"is_disabled":false,"rental_uris":{"android":"levelo://app?vid=b6578e2e-c412-4678-93b7-474146983470","ios":"levelo://app?vid=b6578e2e-c412-4678-93b7-474146983470"},"vehicle_type_id":"4","last_reported":1719328087,"current_range_meters":26800,"station_id":"ce4bgl92rcd13ifvqbq0","pricing_plan_id":"cebpf4jnsgd1na2vs0mg"},{"bike_id":"823a894c-26fe-4034-ab57-b73d763cf86f","system_id":"levelo_inurba_marseille","lat":43.31321,"lon":5.37125,"is_reserved":false,"is_disabled":false,"rental_uris":{"android":"levelo://app?vid=823a894c-26fe-4034-ab57-b73d763cf86f","ios":"levelo://app?vid=823a894c-26fe-4034-ab57-b73d763cf86f"},"vehicle_type_id":"4","last_reported":1719328087,"current_range_meters":16000,"station_id":"","pricing_plan_id":"cebpf4jnsgd1na2vs0mg"},{"bike_id":"bcc3e4e7-49ad-4827-ad72-a8aac5cd29e6","system_id":"levelo_inurba_marseille","lat":43.31509,"lon":5.37089,"is_reserved":false,"is_disabled":false,"rental_uris":{"android":"levelo://app?vid=bcc3e4e7-49ad-4827-ad72-a8aac5cd29e6","ios":"levelo://app?vid=bcc3e4e7-49ad-4827-ad72-a8aac5cd29e6"},"vehicle_type_id":"4","last_reported":1719328087,"current_range_meters":19200,"station_id":"","pricing_plan_id":"cebpf4jnsgd1na2vs0mg"},{"bike_id":"a9e411a6-16d3-4ed8-8859-37f4b1806b18","system_id":"levelo_inurba_marseille","lat":43.309076,"lon":5.368465,"is_reserved":false,"is_disabled":false,"rental_uris":{"android":"levelo://app?vid=a9e411a6-16d3-4ed8-8859-37f4b1806b18","ios":"levelo://app?vid=a9e411a6-16d3-4ed8-8859-37f4b1806b18"},"vehicle_type_id":"4","last_reported":1719328087,"current_range_meters":26400,"station_id":"ce4bgn92rcd13ifvqbvg","pricing_plan_id":"cebpf4jnsgd1na2vs0mg"},{"bike_id":"ce2032ab-7d89-41f8-a6fb-0b928d7b258a","system_id":"levelo_inurba_marseille","lat":43.314811,"lon":5.373103,"is_reserved":false,"is_disabled":false,"rental_uris":{"android":"levelo://app?vid=ce2032ab-7d89-41f8-a6fb-0b928d7b258a","ios":"levelo://app?vid=ce2032ab-7d89-41f8-a6fb-0b928d7b258a"},"vehicle_type_id":"4","last_reported":1719328087,"current_range_meters":16400,"station_id":"ce4bgt12rcd13ifvqcd0","pricing_plan_id":"cebpf4jnsgd1na2vs0mg"},{"bike_id":"f878fcd0-c8a8-4fa4-9ea9-83bb161b10f0","system_id":"levelo_inurba_marseille","lat":43.314811,"lon":5.373103,"is_reserved":false,"is_disabled":false,"rental_uris":{"android":"levelo://app?vid=f878fcd0-c8a8-4fa4-9ea9-83bb161b10f0","ios":"levelo://app?vid=f878fcd0-c8a8-4fa4-9ea9-83bb161b10f0"},"vehicle_type_id":"4","last_reported":1719328087,"current_range_meters":2000,"station_id":"ce4bgt12rcd13ifvqcd0","pricing_plan_id":"cebpf4jnsgd1na2vs0mg"},{"bike_id":"e2da2c6a-0ea4-4329-886c-3c562d884140","system_id":"levelo_inurba_marseille","lat":43.314811,"lon":5.373103,"is_reserved":false,"is_disabled":false,"rental_uris":{"android":"levelo://app?vid=e2da2c6a-0ea4-4329-886c-3c562d884140","ios":"levelo://app?vid=e2da2c6a-0ea4-4329-886c-3c562d884140"},"vehicle_type_id":"4","last_reported":1719328087,"current_range_meters":9200,"station_id":"ce4bgt12rcd13ifvqcd0","pricing_plan_id":"cebpf4jnsgd1na2vs0mg"},{"bike_id":"ad69754a-bd28-483b-9f36-83644e5efda6","system_id":"levelo_inurba_marseille","lat":43.314811,"lon":5.373104,"is_reserved":false,"is_disabled":false,"rental_uris":{"android":"levelo://app?vid=ad69754a-bd28-483b-9f36-83644e5efda6","ios":"levelo://app?vid=ad69754a-bd28-483b-9f36-83644e5efda6"},"vehicle_type_id":"4","last_reported":1719328087,"current_range_meters":9600,"station_id":"ce4bgt12rcd13ifvqcd0","pricing_plan_id":"cebpf4jnsgd1na2vs0mg"},{"bike_id":"f9a07ac7-f5c3-474a-aa05-1a9792521652","system_id":"levelo_inurba_marseille","lat":43.314811,"lon":5.373103,"is_reserved":false,"is_disabled":false,"rental_uris":{"android":"levelo://app?vid=f9a07ac7-f5c3-474a-aa05-1a9792521652","ios":"levelo://app?vid=f9a07ac7-f5c3-474a-aa05-1a9792521652"},"vehicle_type_id":"4","last_reported":1719328087,"current_range_meters":17200,"station_id":"ce4bgt12rcd13ifvqcd0","pricing_plan_id":"cebpf4jnsgd1na2vs0mg"},{"bike_id":"c230c013-985e-489d-9685-35dc6de610ce","system_id":"levelo_inurba_marseille","lat":43.31488,"lon":5.37315,"is_reserved":false,"is_disabled":false,"rental_uris":{"android":"levelo://app?vid=c230c013-985e-489d-9685-35dc6de610ce","ios":"levelo://app?vid=c230c013-985e-489d-9685-35dc6de610ce"},"vehicle_type_id":"4","last_reported":1719328087,"current_range_meters":14000,"station_id":"ce4bgt12rcd13ifvqcd0","pricing_plan_id":"cebpf4jnsgd1na2vs0mg"},{"bike_id":"532d043a-2416-4ecd-abed-e40d5fc433d4","system_id":"levelo_inurba_marseille","lat":43.31494,"lon":5.37312,"is_reserved":false,"is_disabled":false,"rental_uris":{"android":"levelo://app?vid=532d043a-2416-4ecd-abed-e40d5fc433d4","ios":"levelo://app?vid=532d043a-2416-4ecd-abed-e40d5fc433d4"},"vehicle_type_id":"4","last_reported":1719328087,"current_range_meters":6000,"station_id":"ce4bgt12rcd13ifvqcd0","pricing_plan_id":"cebpf4jnsgd1na2vs0mg"},{"bike_id":"25ed127b-0656-4983-a963-11eb15d709b7","system_id":"levelo_inurba_marseille","lat":43.306145,"lon":5.365663,"is_reserved":false,"is_disabled":false,"rental_uris":{"android":"levelo://app?vid=25ed127b-0656-4983-a963-11eb15d709b7","ios":"levelo://app?vid=25ed127b-0656-4983-a963-11eb15d709b7"},"vehicle_type_id":"4","last_reported":1719328087,"current_range_meters":31200,"station_id":"ce4bgs12rcd13ifvqcag","pricing_plan_id":"cebpf4jnsgd1na2vs0mg"},{"bike_id":"8e6d7c0b-a3c1-4bc0-99ac-e29ba9c29e75","system_id":"levelo_inurba_marseille","lat":43.31099,"lon":5.37599,"is_reserved":false,"is_disabled":false,"rental_uris":{"android":"levelo://app?vid=8e6d7c0b-a3c1-4bc0-99ac-e29ba9c29e75","ios":"levelo://app?vid=8e6d7c0b-a3c1-4bc0-99ac-e29ba9c29e75"},"vehicle_type_id":"4","last_reported":1719328087,"current_range_meters":28800,"station_id":"","pricing_plan_id":"cebpf4jnsgd1na2vs0mg"},{"bike_id":"378847c1-dfb4-4620-8c08-b64647b4e506","system_id":"levelo_inurba_marseille","lat":43.305368,"lon":5.367343,"is_reserved":false,"is_disabled":false,"rental_uris":{"android":"levelo://app?vid=378847c1-dfb4-4620-8c08-b64647b4e506","ios":"levelo://app?vid=378847c1-dfb4-4620-8c08-b64647b4e506"},"vehicle_type_id":"4","last_reported":1719328087,"current_range_meters":25600,"station_id":"ce4bgrp2rcd13ifvqc9g","pricing_plan_id":"cebpf4jnsgd1na2vs0mg"},{"bike_id":"9b8e23e0-7bc3-4dcb-b31c-90ac8e9ccb4f","system_id":"levelo_inurba_marseille","lat":43.305368,"lon":5.367343,"is_reserved":false,"is_disabled":false,"rental_uris":{"android":"levelo://app?vid=9b8e23e0-7bc3-4dcb-b31c-90ac8e9ccb4f","ios":"levelo://app?vid=9b8e23e0-7bc3-4dcb-b31c-90ac8e9ccb4f"},"vehicle_type_id":"4","last_reported":1719328087,"current_range_meters":27600,"station_id":"ce4bgrp2rcd13ifvqc9g","pricing_plan_id":"cebpf4jnsgd1na2vs0mg"},{"bike_id":"906cc837-c471-4c74-a573-1107b16d6c55","system_id":"levelo_inurba_marseille","lat":43.305714,"lon":5.365633,"is_reserved":false,"is_disabled":false,"rental_uris":{"android":"levelo://app?vid=906cc837-c471-4c74-a573-1107b16d6c55","ios":"levelo://app?vid=906cc837-c471-4c74-a573-1107b16d6c55"},"vehicle_type_id":"4","last_reported":1719328087,"current_range_meters":18400,"station_id":"ce4bgs12rcd13ifvqcag","pricing_plan_id":"cebpf4jnsgd1na2vs0mg"},{"bike_id":"d97664c0-03cc-4e57-9491-423f5281cef0","system_id":"levelo_inurba_marseille","lat":43.305368,"lon":5.367343,"is_reserved":false,"is_disabled":false,"rental_uris":{"android":"levelo://app?vid=d97664c0-03cc-4e57-9491-423f5281cef0","ios":"levelo://app?vid=d97664c0-03cc-4e57-9491-423f5281cef0"},"vehicle_type_id":"4","last_reported":1719328087,"current_range_meters":22800,"station_id":"ce4bgrp2rcd13ifvqc9g","pricing_plan_id":"cebpf4jnsgd1na2vs0mg"},{"bike_id":"24986651-cc10-4b31-8e79-d3d1df33acc3","system_id":"levelo_inurba_marseille","lat":43.30543,"lon":5.36566,"is_reserved":false,"is_disabled":false,"rental_uris":{"android":"levelo://app?vid=24986651-cc10-4b31-8e79-d3d1df33acc3","ios":"levelo://app?vid=24986651-cc10-4b31-8e79-d3d1df33acc3"},"vehicle_type_id":"4","last_reported":1719328087,"current_range_meters":26400,"station_id":"ce4bgs12rcd13ifvqcag","pricing_plan_id":"cebpf4jnsgd1na2vs0mg"},{"bike_id":"fa2abb01-d4e7-495b-8be1-65cd6fba16d4","system_id":"levelo_inurba_marseille","lat":43.305714,"lon":5.365633,"is_reserved":false,"is_disabled":false,"rental_uris":{"android":"levelo://app?vid=fa2abb01-d4e7-495b-8be1-65cd6fba16d4","ios":"levelo://app?vid=fa2abb01-d4e7-495b-8be1-65cd6fba16d4"},"vehicle_type_id":"4","last_reported":1719328087,"current_range_meters":31200,"station_id":"ce4bgs12rcd13ifvqcag","pricing_plan_id":"cebpf4jnsgd1na2vs0mg"},{"bike_id":"2f39af89-96da-4638-b74d-64f0af0ad028","system_id":"levelo_inurba_marseille","lat":43.317075,"lon":5.377367,"is_reserved":false,"is_disabled":false,"rental_uris":{"android":"levelo://app?vid=2f39af89-96da-4638-b74d-64f0af0ad028","ios":"levelo://app?vid=2f39af89-96da-4638-b74d-64f0af0ad028"},"vehicle_type_id":"4","last_reported":1719328087,"current_range_meters":27600,"station_id":"ce4bgth2rcd13ifvqch0","pricing_plan_id":"cebpf4jnsgd1na2vs0mg"},{"bike_id":"70857590-8e10-4597-86f2-5f9956ccdb75","system_id":"levelo_inurba_marseille","lat":43.305368,"lon":5.367343,"is_reserved":false,"is_disabled":false,"rental_uris":{"android":"levelo://app?vid=70857590-8e10-4597-86f2-5f9956ccdb75","ios":"levelo://app?vid=70857590-8e10-4597-86f2-5f9956ccdb75"},"vehicle_type_id":"4","last_reported":1719328087,"current_range_meters":14000,"station_id":"ce4bgrp2rcd13ifvqc9g","pricing_plan_id":"cebpf4jnsgd1na2vs0mg"},{"bike_id":"a98b7b32-4c56-479c-98cb-b4be2a9cee56","system_id":"levelo_inurba_marseille","lat":43.305256,"lon":5.365508,"is_reserved":false,"is_disabled":false,"rental_uris":{"android":"levelo://app?vid=a98b7b32-4c56-479c-98cb-b4be2a9cee56","ios":"levelo://app?vid=a98b7b32-4c56-479c-98cb-b4be2a9cee56"},"vehicle_type_id":"4","last_reported":1719328087,"current_range_meters":12400,"station_id":"ce4bgs12rcd13ifvqcag","pricing_plan_id":"cebpf4jnsgd1na2vs0mg"},{"bike_id":"ae1f7773-7fc9-4268-8639-0bf5ab4ce50d","system_id":"levelo_inurba_marseille","lat":43.305989,"lon":5.37225,"is_reserved":false,"is_disabled":false,"rental_uris":{"android":"levelo://app?vid=ae1f7773-7fc9-4268-8639-0bf5ab4ce50d","ios":"levelo://app?vid=ae1f7773-7fc9-4268-8639-0bf5ab4ce50d"},"vehicle_type_id":"4","last_reported":1719328087,"current_range_meters":21600,"station_id":"ce4bgqh2rcd13ifvqc4g","pricing_plan_id":"cebpf4jnsgd1na2vs0mg"},{"bike_id":"36c140fe-d18f-4ff5-be8f-386de33eddf0","system_id":"levelo_inurba_marseille","lat":43.311178,"lon":5.377647,"is_reserved":false,"is_disabled":false,"rental_uris":{"android":"levelo://app?vid=36c140fe-d18f-4ff5-be8f-386de33eddf0","ios":"levelo://app?vid=36c140fe-d18f-4ff5-be8f-386de33eddf0"},"vehicle_type_id":"4","last_reported":1719328087,"current_range_meters":29200,"station_id":"ce4bgt92rcd13ifvqcg0","pricing_plan_id":"cebpf4jnsgd1na2vs0mg"},{"bike_id":"2bbb5117-c361-439e-9070-abed429f1edc","system_id":"levelo_inurba_marseille","lat":43.305287,"lon":5.37334,"is_reserved":false,"is_disabled":false,"rental_uris":{"android":"levelo://app?vid=2bbb5117-c361-439e-9070-abed429f1edc","ios":"levelo://app?vid=2bbb5117-c361-439e-9070-abed429f1edc"},"vehicle_type_id":"4","last_reported":1719328087,"current_range_meters":0,"station_id":"","pricing_plan_id":"cebpf4jnsgd1na2vs0mg"},{"bike_id":"79d26043-e5da-46b3-a727-3006c1de26f4","system_id":"levelo_inurba_marseille","lat":43.317075,"lon":5.377367,"is_reserved":false,"is_disabled":false,"rental_uris":{"android":"levelo://app?vid=79d26043-e5da-46b3-a727-3006c1de26f4","ios":"levelo://app?vid=79d26043-e5da-46b3-a727-3006c1de26f4"},"vehicle_type_id":"4","last_reported":1719328087,"current_range_meters":5600,"station_id":"ce4bgth2rcd13ifvqch0","pricing_plan_id":"cebpf4jnsgd1na2vs0mg"},{"bike_id":"d75d88ef-8c11-43b4-8b94-d659bbb2757e","system_id":"levelo_inurba_marseille","lat":43.265569,"lon":5.390047,"is_reserved":false,"is_disabled":false,"rental_uris":{"android":"levelo://app?vid=d75d88ef-8c11-43b4-8b94-d659bbb2757e","ios":"levelo://app?vid=d75d88ef-8c11-43b4-8b94-d659bbb2757e"},"vehicle_type_id":"4","last_reported":1719328087,"current_range_meters":8000,"station_id":"ce4bhe12rcd13ifvqf30","pricing_plan_id":"cebpf4jnsgd1na2vs0mg"},{"bike_id":"80d47dc4-786c-4c63-a2d0-7d8694205f9a","system_id":"levelo_inurba_marseille","lat":43.30304,"lon":5.368987,"is_reserved":false,"is_disabled":false,"rental_uris":{"android":"levelo://app?vid=80d47dc4-786c-4c63-a2d0-7d8694205f9a","ios":"levelo://app?vid=80d47dc4-786c-4c63-a2d0-7d8694205f9a"},"vehicle_type_id":"4","last_reported":1719328087,"current_range_meters":400,"station_id":"ce4bgqh2rcd13ifvqc5g","pricing_plan_id":"cebpf4jnsgd1na2vs0mg"},{"bike_id":"beaf5f50-335f-4f7d-a6f9-a60f0aa64335","system_id":"levelo_inurba_marseille","lat":43.30304,"lon":5.368987,"is_reserved":false,"is_disabled":false,"rental_uris":{"android":"levelo://app?vid=beaf5f50-335f-4f7d-a6f9-a60f0aa64335","ios":"levelo://app?vid=beaf5f50-335f-4f7d-a6f9-a60f0aa64335"},"vehicle_type_id":"4","last_reported":1719328087,"current_range_meters":12400,"station_id":"ce4bgqh2rcd13ifvqc5g","pricing_plan_id":"cebpf4jnsgd1na2vs0mg"},{"bike_id":"d5a8e0cf-a335-4283-95e9-5ae9cf0ab0a2","system_id":"levelo_inurba_marseille","lat":43.314965,"lon":5.38078,"is_reserved":false,"is_disabled":false,"rental_uris":{"android":"levelo://app?vid=d5a8e0cf-a335-4283-95e9-5ae9cf0ab0a2","ios":"levelo://app?vid=d5a8e0cf-a335-4283-95e9-5ae9cf0ab0a2"},"vehicle_type_id":"4","last_reported":1719328087,"current_range_meters":6000,"station_id":"ce4bhsp2rcd13ifvqi50","pricing_plan_id":"cebpf4jnsgd1na2vs0mg"},{"bike_id":"9eb51a76-d980-485a-b0ea-74bd9197c06d","system_id":"levelo_inurba_marseille","lat":43.304606,"lon":5.379026,"is_reserved":false,"is_disabled":false,"rental_uris":{"android":"levelo://app?vid=9eb51a76-d980-485a-b0ea-74bd9197c06d","ios":"levelo://app?vid=9eb51a76-d980-485a-b0ea-74bd9197c06d"},"vehicle_type_id":"4","last_reported":1719328087,"current_range_meters":22800,"station_id":"ce4bgup2rcd13ifvqcn0","pricing_plan_id":"cebpf4jnsgd1na2vs0mg"},{"bike_id":"351f34ab-a328-4f7e-96c4-5322995e449f","system_id":"levelo_inurba_marseille","lat":43.324771,"lon":5.36557,"is_reserved":false,"is_disabled":false,"rental_uris":{"android":"levelo://app?vid=351f34ab-a328-4f7e-96c4-5322995e449f","ios":"levelo://app?vid=351f34ab-a328-4f7e-96c4-5322995e449f"},"vehicle_type_id":"4","last_reported":1719328087,"current_range_meters":8400,"station_id":"ce4bhs12rcd13ifvqhvg","pricing_plan_id":"cebpf4jnsgd1na2vs0mg"},{"bike_id":"deb71d77-e4fd-492f-ac51-36287ba1d41b","system_id":"levelo_inurba_marseille","lat":43.324771,"lon":5.36557,"is_reserved":false,"is_disabled":false,"rental_uris":{"android":"levelo://app?vid=deb71d77-e4fd-492f-ac51-36287ba1d41b","ios":"levelo://app?vid=deb71d77-e4fd-492f-ac51-36287ba1d41b"},"vehicle_type_id":"4","last_reported":1719328087,"current_range_meters":8400,"station_id":"ce4bhs12rcd13ifvqhvg","pricing_plan_id":"cebpf4jnsgd1na2vs0mg"},{"bike_id":"3404449b-7932-407a-9238-bdafa8a85e59","system_id":"levelo_inurba_marseille","lat":43.324771,"lon":5.36557,"is_reserved":false,"is_disabled":false,"rental_uris":{"android":"levelo://app?vid=3404449b-7932-407a-9238-bdafa8a85e59","ios":"levelo://app?vid=3404449b-7932-407a-9238-bdafa8a85e59"},"vehicle_type_id":"4","last_reported":1719328087,"current_range_meters":2400,"station_id":"ce4bhs12rcd13ifvqhvg","pricing_plan_id":"cebpf4jnsgd1na2vs0mg"},{"bike_id":"ede5d39e-3e92-4593-ad74-b73507ababd9","system_id":"levelo_inurba_marseille","lat":43.324771,"lon":5.36557,"is_reserved":false,"is_disabled":false,"rental_uris":{"android":"levelo://app?vid=ede5d39e-3e92-4593-ad74-b73507ababd9","ios":"levelo://app?vid=ede5d39e-3e92-4593-ad74-b73507ababd9"},"vehicle_type_id":"4","last_reported":1719328087,"current_range_meters":26800,"station_id":"ce4bhs12rcd13ifvqhvg","pricing_plan_id":"cebpf4jnsgd1na2vs0mg"},{"bike_id":"f843d286-0d56-41f0-9096-3c9e8d80f92d","system_id":"levelo_inurba_marseille","lat":43.324771,"lon":5.36557,"is_reserved":false,"is_disabled":false,"rental_uris":{"android":"levelo://app?vid=f843d286-0d56-41f0-9096-3c9e8d80f92d","ios":"levelo://app?vid=f843d286-0d56-41f0-9096-3c9e8d80f92d"},"vehicle_type_id":"4","last_reported":1719328087,"current_range_meters":27600,"station_id":"ce4bhs12rcd13ifvqhvg","pricing_plan_id":"cebpf4jnsgd1na2vs0mg"},{"bike_id":"4cda6a89-e04c-4cd4-8f62-9cde320fd2d6","system_id":"levelo_inurba_marseille","lat":43.302784,"lon":5.377158,"is_reserved":false,"is_disabled":false,"rental_uris":{"android":"levelo://app?vid=4cda6a89-e04c-4cd4-8f62-9cde320fd2d6","ios":"levelo://app?vid=4cda6a89-e04c-4cd4-8f62-9cde320fd2d6"},"vehicle_type_id":"4","last_reported":1719328087,"current_range_meters":9200,"station_id":"ce4bguh2rcd13ifvqcj0","pricing_plan_id":"cebpf4jnsgd1na2vs0mg"},{"bike_id":"f1e3c460-33ce-403a-bb03-8a7f5ddb53e3","system_id":"levelo_inurba_marseille","lat":43.30027,"lon":5.3666,"is_reserved":false,"is_disabled":false,"rental_uris":{"android":"levelo://app?vid=f1e3c460-33ce-403a-bb03-8a7f5ddb53e3","ios":"levelo://app?vid=f1e3c460-33ce-403a-bb03-8a7f5ddb53e3"},"vehicle_type_id":"4","last_reported":1719328087,"current_range_meters":22400,"station_id":"","pricing_plan_id":"cebpf4jnsgd1na2vs0mg"},{"bike_id":"b33fe4ba-cf54-4ee6-b058-bb86a25bb2c5","system_id":"levelo_inurba_marseille","lat":43.319935,"lon":5.381699,"is_reserved":false,"is_disabled":false,"rental_uris":{"android":"levelo://app?vid=b33fe4ba-cf54-4ee6-b058-bb86a25bb2c5","ios":"levelo://app?vid=b33fe4ba-cf54-4ee6-b058-bb86a25bb2c5"},"vehicle_type_id":"4","last_reported":1719328087,"current_range_meters":0,"station_id":"ce4bhr12rcd13ifvqhpg","pricing_plan_id":"cebpf4jnsgd1na2vs0mg"},{"bike_id":"28f26903-820a-424d-9a20-27bc2aa5414f","system_id":"levelo_inurba_marseille","lat":43.319935,"lon":5.381699,"is_reserved":false,"is_disabled":false,"rental_uris":{"android":"levelo://app?vid=28f26903-820a-424d-9a20-27bc2aa5414f","ios":"levelo://app?vid=28f26903-820a-424d-9a20-27bc2aa5414f"},"vehicle_type_id":"4","last_reported":1719328087,"current_range_meters":14000,"station_id":"ce4bhr12rcd13ifvqhpg","pricing_plan_id":"cebpf4jnsgd1na2vs0mg"},{"bike_id":"1a15fb18-6568-4056-827a-1231fdad6aa9","system_id":"levelo_inurba_marseille","lat":43.319935,"lon":5.381699,"is_reserved":false,"is_disabled":false,"rental_uris":{"android":"levelo://app?vid=1a15fb18-6568-4056-827a-1231fdad6aa9","ios":"levelo://app?vid=1a15fb18-6568-4056-827a-1231fdad6aa9"},"vehicle_type_id":"4","last_reported":1719328087,"current_range_meters":24000,"station_id":"ce4bhr12rcd13ifvqhpg","pricing_plan_id":"cebpf4jnsgd1na2vs0mg"},{"bike_id":"67947f64-1638-4966-a409-3a8ee19e723d","system_id":"levelo_inurba_marseille","lat":43.313571,"lon":5.384829,"is_reserved":false,"is_disabled":false,"rental_uris":{"android":"levelo://app?vid=67947f64-1638-4966-a409-3a8ee19e723d","ios":"levelo://app?vid=67947f64-1638-4966-a409-3a8ee19e723d"},"vehicle_type_id":"4","last_reported":1719328087,"current_range_meters":1600,"station_id":"ce4bgt92rcd13ifvqcf0","pricing_plan_id":"cebpf4jnsgd1na2vs0mg"},{"bike_id":"6ac95b46-0397-4738-8733-0a040b8a1699","system_id":"levelo_inurba_marseille","lat":43.313571,"lon":5.384829,"is_reserved":false,"is_disabled":false,"rental_uris":{"android":"levelo://app?vid=6ac95b46-0397-4738-8733-0a040b8a1699","ios":"levelo://app?vid=6ac95b46-0397-4738-8733-0a040b8a1699"},"vehicle_type_id":"4","last_reported":1719328087,"current_range_meters":1200,"station_id":"ce4bgt92rcd13ifvqcf0","pricing_plan_id":"cebpf4jnsgd1na2vs0mg"},{"bike_id":"fb47db32-e61d-4ff1-bc09-ddef5de10c7b","system_id":"levelo_inurba_marseille","lat":43.299724,"lon":5.371829,"is_reserved":false,"is_disabled":false,"rental_uris":{"android":"levelo://app?vid=fb47db32-e61d-4ff1-bc09-ddef5de10c7b","ios":"levelo://app?vid=fb47db32-e61d-4ff1-bc09-ddef5de10c7b"},"vehicle_type_id":"4","last_reported":1719328087,"current_range_meters":0,"station_id":"ce4bgr92rcd13ifvqc7g","pricing_plan_id":"cebpf4jnsgd1na2vs0mg"},{"bike_id":"527ca258-2873-4969-bb34-250fc182944f","system_id":"levelo_inurba_marseille","lat":43.299724,"lon":5.371829,"is_reserved":false,"is_disabled":false,"rental_uris":{"android":"levelo://app?vid=527ca258-2873-4969-bb34-250fc182944f","ios":"levelo://app?vid=527ca258-2873-4969-bb34-250fc182944f"},"vehicle_type_id":"4","last_reported":1719328087,"current_range_meters":22400,"station_id":"ce4bgr92rcd13ifvqc7g","pricing_plan_id":"cebpf4jnsgd1na2vs0mg"},{"bike_id":"c8fc24ef-2e0a-43cb-a8c2-2d52e42e67d3","system_id":"levelo_inurba_marseille","lat":43.299243,"lon":5.374807,"is_reserved":false,"is_disabled":false,"rental_uris":{"android":"levelo://app?vid=c8fc24ef-2e0a-43cb-a8c2-2d52e42e67d3","ios":"levelo://app?vid=c8fc24ef-2e0a-43cb-a8c2-2d52e42e67d3"},"vehicle_type_id":"4","last_reported":1719328087,"current_range_meters":31600,"station_id":"ce4bgjh2rcd13ifvqbg0","pricing_plan_id":"cebpf4jnsgd1na2vs0mg"},{"bike_id":"5a7b9176-1d29-4e98-84d9-4fac34caf70e","system_id":"levelo_inurba_marseille","lat":43.299243,"lon":5.374807,"is_reserved":false,"is_disabled":false,"rental_uris":{"android":"levelo://app?vid=5a7b9176-1d29-4e98-84d9-4fac34caf70e","ios":"levelo://app?vid=5a7b9176-1d29-4e98-84d9-4fac34caf70e"},"vehicle_type_id":"4","last_reported":1719328087,"current_range_meters":23200,"station_id":"ce4bgjh2rcd13ifvqbg0","pricing_plan_id":"cebpf4jnsgd1na2vs0mg"},{"bike_id":"5412a7b1-89db-412f-bea3-47cbff3a1f91","system_id":"levelo_inurba_marseille","lat":43.311722,"lon":5.387247,"is_reserved":false,"is_disabled":false,"rental_uris":{"android":"levelo://app?vid=5412a7b1-89db-412f-bea3-47cbff3a1f91","ios":"levelo://app?vid=5412a7b1-89db-412f-bea3-47cbff3a1f91"},"vehicle_type_id":"4","last_reported":1719328087,"current_range_meters":26800,"station_id":"ce4bgv12rcd13ifvqcp0","pricing_plan_id":"cebpf4jnsgd1na2vs0mg"},{"bike_id":"1e4683cb-6aad-42f4-a601-cedbad6c1e1f","system_id":"levelo_inurba_marseille","lat":43.299243,"lon":5.37481,"is_reserved":false,"is_disabled":false,"rental_uris":{"android":"levelo://app?vid=1e4683cb-6aad-42f4-a601-cedbad6c1e1f","ios":"levelo://app?vid=1e4683cb-6aad-42f4-a601-cedbad6c1e1f"},"vehicle_type_id":"4","last_reported":1719328087,"current_range_meters":30400,"station_id":"ce4bgjh2rcd13ifvqbg0","pricing_plan_id":"cebpf4jnsgd1na2vs0mg"},{"bike_id":"8801dff2-450f-4747-a494-f8c8dc47d31d","system_id":"levelo_inurba_marseille","lat":43.311722,"lon":5.387247,"is_reserved":false,"is_disabled":false,"rental_uris":{"android":"levelo://app?vid=8801dff2-450f-4747-a494-f8c8dc47d31d","ios":"levelo://app?vid=8801dff2-450f-4747-a494-f8c8dc47d31d"},"vehicle_type_id":"4","last_reported":1719328087,"current_range_meters":16400,"station_id":"ce4bgv12rcd13ifvqcp0","pricing_plan_id":"cebpf4jnsgd1na2vs0mg"},{"bike_id":"88949ca1-1064-44a0-9147-af36bc92e66f","system_id":"levelo_inurba_marseille","lat":43.297794,"lon":5.370888,"is_reserved":false,"is_disabled":false,"rental_uris":{"android":"levelo://app?vid=88949ca1-1064-44a0-9147-af36bc92e66f","ios":"levelo://app?vid=88949ca1-1064-44a0-9147-af36bc92e66f"},"vehicle_type_id":"4","last_reported":1719328087,"current_range_meters":4800,"station_id":"ce4bgop2rcd13ifvqc1g","pricing_plan_id":"cebpf4jnsgd1na2vs0mg"},{"bike_id":"0adce046-9bc5-4359-bc0a-810678e1f3e5","system_id":"levelo_inurba_marseille","lat":43.30085,"lon":5.390856,"is_reserved":false,"is_disabled":false,"rental_uris":{"android":"levelo://app?vid=0adce046-9bc5-4359-bc0a-810678e1f3e5","ios":"levelo://app?vid=0adce046-9bc5-4359-bc0a-810678e1f3e5"},"vehicle_type_id":"4","last_reported":1719328087,"current_range_meters":11200,"station_id":"ce4bh192rcd13ifvqdb0","pricing_plan_id":"cebpf4jnsgd1na2vs0mg"},{"bike_id":"f426164a-f026-41a7-a523-db8932d652a2","system_id":"levelo_inurba_marseille","lat":43.322872,"lon":5.382756,"is_reserved":false,"is_disabled":false,"rental_uris":{"android":"levelo://app?vid=f426164a-f026-41a7-a523-db8932d652a2","ios":"levelo://app?vid=f426164a-f026-41a7-a523-db8932d652a2"},"vehicle_type_id":"4","last_reported":1719328087,"current_range_meters":24400,"station_id":"ce4bhr12rcd13ifvqhqg","pricing_plan_id":"cebpf4jnsgd1na2vs0mg"},{"bike_id":"72a86e01-87ca-4757-a6a2-0a92c4d7feae","system_id":"levelo_inurba_marseille","lat":43.297163,"lon":5.365866,"is_reserved":false,"is_disabled":false,"rental_uris":{"android":"levelo://app?vid=72a86e01-87ca-4757-a6a2-0a92c4d7feae","ios":"levelo://app?vid=72a86e01-87ca-4757-a6a2-0a92c4d7feae"},"vehicle_type_id":"4","last_reported":1719328087,"current_range_meters":8000,"station_id":"ce4bgn12rcd13ifvqbt0","pricing_plan_id":"cebpf4jnsgd1na2vs0mg"},{"bike_id":"8a3dee68-befb-495c-8c53-779d24084da1","system_id":"levelo_inurba_marseille","lat":43.297037,"lon":5.365505,"is_reserved":false,"is_disabled":false,"rental_uris":{"android":"levelo://app?vid=8a3dee68-befb-495c-8c53-779d24084da1","ios":"levelo://app?vid=8a3dee68-befb-495c-8c53-779d24084da1"},"vehicle_type_id":"4","last_reported":1719328087,"current_range_meters":27200,"station_id":"","pricing_plan_id":"cebpf4jnsgd1na2vs0mg"},{"bike_id":"25e93058-98f0-4121-9045-ae65cc2d1525","system_id":"levelo_inurba_marseille","lat":43.2968,"lon":5.37291,"is_reserved":false,"is_disabled":false,"rental_uris":{"android":"levelo://app?vid=25e93058-98f0-4121-9045-ae65cc2d1525","ios":"levelo://app?vid=25e93058-98f0-4121-9045-ae65cc2d1525"},"vehicle_type_id":"4","last_reported":1719328087,"current_range_meters":14800,"station_id":"ce4bgk12rcd13ifvqbj0","pricing_plan_id":"cebpf4jnsgd1na2vs0mg"},{"bike_id":"d725248b-cb93-489e-a01b-8b48a5536dcf","system_id":"levelo_inurba_marseille","lat":43.29573,"lon":5.367355,"is_reserved":false,"is_disabled":false,"rental_uris":{"android":"levelo://app?vid=d725248b-cb93-489e-a01b-8b48a5536dcf","ios":"levelo://app?vid=d725248b-cb93-489e-a01b-8b48a5536dcf"},"vehicle_type_id":"4","last_reported":1719328087,"current_range_meters":20400,"station_id":"ce4bgph2rcd13ifvqc2g","pricing_plan_id":"cebpf4jnsgd1na2vs0mg"},{"bike_id":"9d9aec28-2514-43a8-9247-b9a494674113","system_id":"levelo_inurba_marseille","lat":43.299028,"lon":5.381509,"is_reserved":false,"is_disabled":false,"rental_uris":{"android":"levelo://app?vid=9d9aec28-2514-43a8-9247-b9a494674113","ios":"levelo://app?vid=9d9aec28-2514-43a8-9247-b9a494674113"},"vehicle_type_id":"4","last_reported":1719328087,"current_range_meters":16800,"station_id":"ce4bgj12rcd13ifvqbc0","pricing_plan_id":"cebpf4jnsgd1na2vs0mg"},{"bike_id":"4438fb42-e39b-40c1-8490-ff4cfbb9e178","system_id":"levelo_inurba_marseille","lat":43.299028,"lon":5.381509,"is_reserved":false,"is_disabled":false,"rental_uris":{"android":"levelo://app?vid=4438fb42-e39b-40c1-8490-ff4cfbb9e178","ios":"levelo://app?vid=4438fb42-e39b-40c1-8490-ff4cfbb9e178"},"vehicle_type_id":"4","last_reported":1719328087,"current_range_meters":21200,"station_id":"ce4bgj12rcd13ifvqbc0","pricing_plan_id":"cebpf4jnsgd1na2vs0mg"},{"bike_id":"d95cd88f-b99a-4ac7-baa3-2509909136f4","system_id":"levelo_inurba_marseille","lat":43.299028,"lon":5.381509,"is_reserved":false,"is_disabled":false,"rental_uris":{"android":"levelo://app?vid=d95cd88f-b99a-4ac7-baa3-2509909136f4","ios":"levelo://app?vid=d95cd88f-b99a-4ac7-baa3-2509909136f4"},"vehicle_type_id":"4","last_reported":1719328087,"current_range_meters":25600,"station_id":"ce4bgj12rcd13ifvqbc0","pricing_plan_id":"cebpf4jnsgd1na2vs0mg"},{"bike_id":"cc2d2039-cf24-47fb-9e20-0874139d486d","system_id":"levelo_inurba_marseille","lat":43.299028,"lon":5.381509,"is_reserved":false,"is_disabled":false,"rental_uris":{"android":"levelo://app?vid=cc2d2039-cf24-47fb-9e20-0874139d486d","ios":"levelo://app?vid=cc2d2039-cf24-47fb-9e20-0874139d486d"},"vehicle_type_id":"4","last_reported":1719328087,"current_range_meters":14000,"station_id":"ce4bgj12rcd13ifvqbc0","pricing_plan_id":"cebpf4jnsgd1na2vs0mg"},{"bike_id":"7ec8f0aa-75f0-40b3-b07f-13a6e1d79261","system_id":"levelo_inurba_marseille","lat":43.296921,"lon":5.376579,"is_reserved":false,"is_disabled":false,"rental_uris":{"android":"levelo://app?vid=7ec8f0aa-75f0-40b3-b07f-13a6e1d79261","ios":"levelo://app?vid=7ec8f0aa-75f0-40b3-b07f-13a6e1d79261"},"vehicle_type_id":"4","last_reported":1719328087,"current_range_meters":31200,"station_id":"ce4bgkh2rcd13ifvqbl0","pricing_plan_id":"cebpf4jnsgd1na2vs0mg"},{"bike_id":"f52a9150-510f-41d1-990d-009721a8e51e","system_id":"levelo_inurba_marseille","lat":43.296921,"lon":5.376579,"is_reserved":false,"is_disabled":false,"rental_uris":{"android":"levelo://app?vid=f52a9150-510f-41d1-990d-009721a8e51e","ios":"levelo://app?vid=f52a9150-510f-41d1-990d-009721a8e51e"},"vehicle_type_id":"4","last_reported":1719328087,"current_range_meters":26800,"station_id":"ce4bgkh2rcd13ifvqbl0","pricing_plan_id":"cebpf4jnsgd1na2vs0mg"},{"bike_id":"0589f8a3-ea87-4c3b-8030-3a28cd6f4243","system_id":"levelo_inurba_marseille","lat":43.299028,"lon":5.381509,"is_reserved":false,"is_disabled":false,"rental_uris":{"android":"levelo://app?vid=0589f8a3-ea87-4c3b-8030-3a28cd6f4243","ios":"levelo://app?vid=0589f8a3-ea87-4c3b-8030-3a28cd6f4243"},"vehicle_type_id":"4","last_reported":1719328087,"current_range_meters":30800,"station_id":"ce4bgj12rcd13ifvqbc0","pricing_plan_id":"cebpf4jnsgd1na2vs0mg"},{"bike_id":"493c6fda-c9c2-46b2-aebb-57464b887f82","system_id":"levelo_inurba_marseille","lat":43.29711,"lon":5.37676,"is_reserved":false,"is_disabled":false,"rental_uris":{"android":"levelo://app?vid=493c6fda-c9c2-46b2-aebb-57464b887f82","ios":"levelo://app?vid=493c6fda-c9c2-46b2-aebb-57464b887f82"},"vehicle_type_id":"4","last_reported":1719328087,"current_range_meters":19600,"station_id":"ce4bgkh2rcd13ifvqbl0","pricing_plan_id":"cebpf4jnsgd1na2vs0mg"},{"bike_id":"fcedcb4f-aed7-4b41-b67c-27dcc8fbcd50","system_id":"levelo_inurba_marseille","lat":43.299028,"lon":5.381509,"is_reserved":false,"is_disabled":false,"rental_uris":{"android":"levelo://app?vid=fcedcb4f-aed7-4b41-b67c-27dcc8fbcd50","ios":"levelo://app?vid=fcedcb4f-aed7-4b41-b67c-27dcc8fbcd50"},"vehicle_type_id":"4","last_reported":1719328087,"current_range_meters":14800,"station_id":"ce4bgj12rcd13ifvqbc0","pricing_plan_id":"cebpf4jnsgd1na2vs0mg"},{"bike_id":"a226dcba-f780-4b94-bfb3-0cb1db37790f","system_id":"levelo_inurba_marseille","lat":43.309589,"lon":5.390258,"is_reserved":false,"is_disabled":false,"rental_uris":{"android":"levelo://app?vid=a226dcba-f780-4b94-bfb3-0cb1db37790f","ios":"levelo://app?vid=a226dcba-f780-4b94-bfb3-0cb1db37790f"},"vehicle_type_id":"4","last_reported":1719328087,"current_range_meters":0,"station_id":"ce4bgup2rcd13ifvqco0","pricing_plan_id":"cebpf4jnsgd1na2vs0mg"},{"bike_id":"2cf6a547-bc1e-4897-9f68-0fb44d54c80a","system_id":"levelo_inurba_marseille","lat":43.296935,"lon":5.376544,"is_reserved":false,"is_disabled":false,"rental_uris":{"android":"levelo://app?vid=2cf6a547-bc1e-4897-9f68-0fb44d54c80a","ios":"levelo://app?vid=2cf6a547-bc1e-4897-9f68-0fb44d54c80a"},"vehicle_type_id":"4","last_reported":1719328087,"current_range_meters":6400,"station_id":"ce4bgkh2rcd13ifvqbl0","pricing_plan_id":"cebpf4jnsgd1na2vs0mg"},{"bike_id":"49f41542-ece1-400d-9925-29c29bd2de10","system_id":"levelo_inurba_marseille","lat":43.298037,"lon":5.381066,"is_reserved":false,"is_disabled":false,"rental_uris":{"android":"levelo://app?vid=49f41542-ece1-400d-9925-29c29bd2de10","ios":"levelo://app?vid=49f41542-ece1-400d-9925-29c29bd2de10"},"vehicle_type_id":"4","last_reported":1719328087,"current_range_meters":6000,"station_id":"ce4bgip2rcd13ifvqbb0","pricing_plan_id":"cebpf4jnsgd1na2vs0mg"},{"bike_id":"d827166c-c963-4f9d-891a-03b920968f55","system_id":"levelo_inurba_marseille","lat":43.295748,"lon":5.37522,"is_reserved":false,"is_disabled":false,"rental_uris":{"android":"levelo://app?vid=d827166c-c963-4f9d-891a-03b920968f55","ios":"levelo://app?vid=d827166c-c963-4f9d-891a-03b920968f55"},"vehicle_type_id":"4","last_reported":1719328087,"current_range_meters":16400,"station_id":"ce4bgh92rcd13ifvqb50","pricing_plan_id":"cebpf4jnsgd1na2vs0mg"},{"bike_id":"b7f6ef22-1287-44ef-bd1f-449449b82a1f","system_id":"levelo_inurba_marseille","lat":43.298037,"lon":5.381066,"is_reserved":false,"is_disabled":false,"rental_uris":{"android":"levelo://app?vid=b7f6ef22-1287-44ef-bd1f-449449b82a1f","ios":"levelo://app?vid=b7f6ef22-1287-44ef-bd1f-449449b82a1f"},"vehicle_type_id":"4","last_reported":1719328087,"current_range_meters":4400,"station_id":"ce4bgip2rcd13ifvqbb0","pricing_plan_id":"cebpf4jnsgd1na2vs0mg"},{"bike_id":"ae28976d-e443-4753-8866-2a4e84b528de","system_id":"levelo_inurba_marseille","lat":43.295748,"lon":5.37522,"is_reserved":false,"is_disabled":false,"rental_uris":{"android":"levelo://app?vid=ae28976d-e443-4753-8866-2a4e84b528de","ios":"levelo://app?vid=ae28976d-e443-4753-8866-2a4e84b528de"},"vehicle_type_id":"4","last_reported":1719328087,"current_range_meters":20800,"station_id":"ce4bgh92rcd13ifvqb50","pricing_plan_id":"cebpf4jnsgd1na2vs0mg"},{"bike_id":"b1a9c30d-4dfb-43f1-933f-de5b6f1ccba0","system_id":"levelo_inurba_marseille","lat":43.295748,"lon":5.37522,"is_reserved":false,"is_disabled":false,"rental_uris":{"android":"levelo://app?vid=b1a9c30d-4dfb-43f1-933f-de5b6f1ccba0","ios":"levelo://app?vid=b1a9c30d-4dfb-43f1-933f-de5b6f1ccba0"},"vehicle_type_id":"4","last_reported":1719328087,"current_range_meters":800,"station_id":"ce4bgh92rcd13ifvqb50","pricing_plan_id":"cebpf4jnsgd1na2vs0mg"},{"bike_id":"35189ba8-23a1-4bce-8672-0de5a5d9a1d2","system_id":"levelo_inurba_marseille","lat":43.296263,"lon":5.377094,"is_reserved":false,"is_disabled":false,"rental_uris":{"android":"levelo://app?vid=35189ba8-23a1-4bce-8672-0de5a5d9a1d2","ios":"levelo://app?vid=35189ba8-23a1-4bce-8672-0de5a5d9a1d2"},"vehicle_type_id":"4","last_reported":1719328087,"current_range_meters":21600,"station_id":"ce4bgi92rcd13ifvqb90","pricing_plan_id":"cebpf4jnsgd1na2vs0mg"},{"bike_id":"1cbc6654-76e6-4917-9e1a-941351213046","system_id":"levelo_inurba_marseille","lat":43.296263,"lon":5.377094,"is_reserved":false,"is_disabled":false,"rental_uris":{"android":"levelo://app?vid=1cbc6654-76e6-4917-9e1a-941351213046","ios":"levelo://app?vid=1cbc6654-76e6-4917-9e1a-941351213046"},"vehicle_type_id":"4","last_reported":1719328087,"current_range_meters":15600,"station_id":"ce4bgi92rcd13ifvqb90","pricing_plan_id":"cebpf4jnsgd1na2vs0mg"},{"bike_id":"a608c5d3-1d70-4d9b-a068-0c2746135baf","system_id":"levelo_inurba_marseille","lat":43.298037,"lon":5.381066,"is_reserved":false,"is_disabled":false,"rental_uris":{"android":"levelo://app?vid=a608c5d3-1d70-4d9b-a068-0c2746135baf","ios":"levelo://app?vid=a608c5d3-1d70-4d9b-a068-0c2746135baf"},"vehicle_type_id":"4","last_reported":1719328087,"current_range_meters":30800,"station_id":"ce4bgip2rcd13ifvqbb0","pricing_plan_id":"cebpf4jnsgd1na2vs0mg"},{"bike_id":"5529b504-521b-4f3a-98ca-35c076ce0a59","system_id":"levelo_inurba_marseille","lat":43.29616,"lon":5.37707,"is_reserved":false,"is_disabled":false,"rental_uris":{"android":"levelo://app?vid=5529b504-521b-4f3a-98ca-35c076ce0a59","ios":"levelo://app?vid=5529b504-521b-4f3a-98ca-35c076ce0a59"},"vehicle_type_id":"4","last_reported":1719328087,"current_range_meters":0,"station_id":"ce4bgi92rcd13ifvqb90","pricing_plan_id":"cebpf4jnsgd1na2vs0mg"},{"bike_id":"67be87df-d05b-44e2-9800-17b4d28b1669","system_id":"levelo_inurba_marseille","lat":43.296263,"lon":5.377094,"is_reserved":false,"is_disabled":false,"rental_uris":{"android":"levelo://app?vid=67be87df-d05b-44e2-9800-17b4d28b1669","ios":"levelo://app?vid=67be87df-d05b-44e2-9800-17b4d28b1669"},"vehicle_type_id":"4","last_reported":1719328087,"current_range_meters":4800,"station_id":"ce4bgi92rcd13ifvqb90","pricing_plan_id":"cebpf4jnsgd1na2vs0mg"},{"bike_id":"58357cf0-079d-4339-8371-8e1dc7ef68fb","system_id":"levelo_inurba_marseille","lat":43.296263,"lon":5.377094,"is_reserved":false,"is_disabled":false,"rental_uris":{"android":"levelo://app?vid=58357cf0-079d-4339-8371-8e1dc7ef68fb","ios":"levelo://app?vid=58357cf0-079d-4339-8371-8e1dc7ef68fb"},"vehicle_type_id":"4","last_reported":1719328087,"current_range_meters":13600,"station_id":"ce4bgi92rcd13ifvqb90","pricing_plan_id":"cebpf4jnsgd1na2vs0mg"},{"bike_id":"ed1c279a-7796-4748-ab57-f1a63ed36a19","system_id":"levelo_inurba_marseille","lat":43.299717,"lon":5.384845,"is_reserved":false,"is_disabled":false,"rental_uris":{"android":"levelo://app?vid=ed1c279a-7796-4748-ab57-f1a63ed36a19","ios":"levelo://app?vid=ed1c279a-7796-4748-ab57-f1a63ed36a19"},"vehicle_type_id":"4","last_reported":1719328087,"current_range_meters":17200,"station_id":"ce4bgj92rcd13ifvqbd0","pricing_plan_id":"cebpf4jnsgd1na2vs0mg"},{"bike_id":"1220fa97-2578-4648-9f46-9add921146a3","system_id":"levelo_inurba_marseille","lat":43.29972,"lon":5.38493,"is_reserved":false,"is_disabled":false,"rental_uris":{"android":"levelo://app?vid=1220fa97-2578-4648-9f46-9add921146a3","ios":"levelo://app?vid=1220fa97-2578-4648-9f46-9add921146a3"},"vehicle_type_id":"4","last_reported":1719328087,"current_range_meters":0,"station_id":"ce4bgj92rcd13ifvqbd0","pricing_plan_id":"cebpf4jnsgd1na2vs0mg"},{"bike_id":"0ce61cd0-63ff-4b99-ac6a-e0322fb1b484","system_id":"levelo_inurba_marseille","lat":43.295279,"lon":5.375048,"is_reserved":false,"is_disabled":false,"rental_uris":{"android":"levelo://app?vid=0ce61cd0-63ff-4b99-ac6a-e0322fb1b484","ios":"levelo://app?vid=0ce61cd0-63ff-4b99-ac6a-e0322fb1b484"},"vehicle_type_id":"4","last_reported":1719328087,"current_range_meters":15200,"station_id":"ce4bgkp2rcd13ifvqbmg","pricing_plan_id":"cebpf4jnsgd1na2vs0mg"},{"bike_id":"5fcdd1bf-2dd9-49f5-85cc-75b9f11f1a5d","system_id":"levelo_inurba_marseille","lat":43.299717,"lon":5.384845,"is_reserved":false,"is_disabled":false,"rental_uris":{"android":"levelo://app?vid=5fcdd1bf-2dd9-49f5-85cc-75b9f11f1a5d","ios":"levelo://app?vid=5fcdd1bf-2dd9-49f5-85cc-75b9f11f1a5d"},"vehicle_type_id":"4","last_reported":1719328087,"current_range_meters":19200,"station_id":"ce4bgj92rcd13ifvqbd0","pricing_plan_id":"cebpf4jnsgd1na2vs0mg"},{"bike_id":"c936ce10-bb06-4933-8737-e2f0964a4d4e","system_id":"levelo_inurba_marseille","lat":43.299717,"lon":5.384845,"is_reserved":false,"is_disabled":false,"rental_uris":{"android":"levelo://app?vid=c936ce10-bb06-4933-8737-e2f0964a4d4e","ios":"levelo://app?vid=c936ce10-bb06-4933-8737-e2f0964a4d4e"},"vehicle_type_id":"4","last_reported":1719328087,"current_range_meters":8000,"station_id":"ce4bgj92rcd13ifvqbd0","pricing_plan_id":"cebpf4jnsgd1na2vs0mg"},{"bike_id":"3adf3677-e702-402b-859c-f49a72181467","system_id":"levelo_inurba_marseille","lat":43.29517,"lon":5.37505,"is_reserved":false,"is_disabled":false,"rental_uris":{"android":"levelo://app?vid=3adf3677-e702-402b-859c-f49a72181467","ios":"levelo://app?vid=3adf3677-e702-402b-859c-f49a72181467"},"vehicle_type_id":"4","last_reported":1719328087,"current_range_meters":7200,"station_id":"","pricing_plan_id":"cebpf4jnsgd1na2vs0mg"},{"bike_id":"aaaf95cb-1ce9-4832-84c7-e994ff97fbcd","system_id":"levelo_inurba_marseille","lat":43.29964,"lon":5.38498,"is_reserved":false,"is_disabled":false,"rental_uris":{"android":"levelo://app?vid=aaaf95cb-1ce9-4832-84c7-e994ff97fbcd","ios":"levelo://app?vid=aaaf95cb-1ce9-4832-84c7-e994ff97fbcd"},"vehicle_type_id":"4","last_reported":1719328087,"current_range_meters":2400,"station_id":"ce4bgj92rcd13ifvqbd0","pricing_plan_id":"cebpf4jnsgd1na2vs0mg"},{"bike_id":"e48736d1-be9d-4ead-8af7-31d9aa65e85e","system_id":"levelo_inurba_marseille","lat":43.299717,"lon":5.384845,"is_reserved":false,"is_disabled":false,"rental_uris":{"android":"levelo://app?vid=e48736d1-be9d-4ead-8af7-31d9aa65e85e","ios":"levelo://app?vid=e48736d1-be9d-4ead-8af7-31d9aa65e85e"},"vehicle_type_id":"4","last_reported":1719328087,"current_range_meters":24400,"station_id":"ce4bgj92rcd13ifvqbd0","pricing_plan_id":"cebpf4jnsgd1na2vs0mg"},{"bike_id":"007372cc-5bff-49ab-9836-a2e7205241d0","system_id":"levelo_inurba_marseille","lat":43.314643,"lon":5.392455,"is_reserved":false,"is_disabled":false,"rental_uris":{"android":"levelo://app?vid=007372cc-5bff-49ab-9836-a2e7205241d0","ios":"levelo://app?vid=007372cc-5bff-49ab-9836-a2e7205241d0"},"vehicle_type_id":"4","last_reported":1719328087,"current_range_meters":28800,"station_id":"","pricing_plan_id":"cebpf4jnsgd1na2vs0mg"},{"bike_id":"1175b80f-2bbe-422e-b7e6-f1c75969adf9","system_id":"levelo_inurba_marseille","lat":43.32365,"lon":5.38883,"is_reserved":false,"is_disabled":false,"rental_uris":{"android":"levelo://app?vid=1175b80f-2bbe-422e-b7e6-f1c75969adf9","ios":"levelo://app?vid=1175b80f-2bbe-422e-b7e6-f1c75969adf9"},"vehicle_type_id":"4","last_reported":1719328087,"current_range_meters":7600,"station_id":"ce4bhqp2rcd13ifvqhog","pricing_plan_id":"cebpf4jnsgd1na2vs0mg"},{"bike_id":"a761ef96-db75-4d14-8886-a7c56367991d","system_id":"levelo_inurba_marseille","lat":43.32365,"lon":5.38884,"is_reserved":false,"is_disabled":false,"rental_uris":{"android":"levelo://app?vid=a761ef96-db75-4d14-8886-a7c56367991d","ios":"levelo://app?vid=a761ef96-db75-4d14-8886-a7c56367991d"},"vehicle_type_id":"4","last_reported":1719328087,"current_range_meters":6000,"station_id":"ce4bhqp2rcd13ifvqhog","pricing_plan_id":"cebpf4jnsgd1na2vs0mg"},{"bike_id":"ac196284-48b1-49bf-aa29-00b2a77da4d4","system_id":"levelo_inurba_marseille","lat":43.30206,"lon":5.38948,"is_reserved":false,"is_disabled":false,"rental_uris":{"android":"levelo://app?vid=ac196284-48b1-49bf-aa29-00b2a77da4d4","ios":"levelo://app?vid=ac196284-48b1-49bf-aa29-00b2a77da4d4"},"vehicle_type_id":"4","last_reported":1719328087,"current_range_meters":14000,"station_id":"","pricing_plan_id":"cebpf4jnsgd1na2vs0mg"},{"bike_id":"0c24c8bd-4686-414e-9f35-25ebeec4bfec","system_id":"levelo_inurba_marseille","lat":43.29602,"lon":5.381084,"is_reserved":false,"is_disabled":false,"rental_uris":{"android":"levelo://app?vid=0c24c8bd-4686-414e-9f35-25ebeec4bfec","ios":"levelo://app?vid=0c24c8bd-4686-414e-9f35-25ebeec4bfec"},"vehicle_type_id":"4","last_reported":1719328087,"current_range_meters":0,"station_id":"ce4bgl12rcd13ifvqbo0","pricing_plan_id":"cebpf4jnsgd1na2vs0mg"},{"bike_id":"c7297645-8a02-4aab-8a53-14cea7f852d7","system_id":"levelo_inurba_marseille","lat":43.293259,"lon":5.371586,"is_reserved":false,"is_disabled":false,"rental_uris":{"android":"levelo://app?vid=c7297645-8a02-4aab-8a53-14cea7f852d7","ios":"levelo://app?vid=c7297645-8a02-4aab-8a53-14cea7f852d7"},"vehicle_type_id":"4","last_reported":1719328087,"current_range_meters":5600,"station_id":"ce4bgh92rcd13ifvqb40","pricing_plan_id":"cebpf4jnsgd1na2vs0mg"},{"bike_id":"f4298c2c-b93b-4d1d-9ae9-eb7357efb1eb","system_id":"levelo_inurba_marseille","lat":43.293259,"lon":5.371586,"is_reserved":false,"is_disabled":false,"rental_uris":{"android":"levelo://app?vid=f4298c2c-b93b-4d1d-9ae9-eb7357efb1eb","ios":"levelo://app?vid=f4298c2c-b93b-4d1d-9ae9-eb7357efb1eb"},"vehicle_type_id":"4","last_reported":1719328087,"current_range_meters":26400,"station_id":"ce4bgh92rcd13ifvqb40","pricing_plan_id":"cebpf4jnsgd1na2vs0mg"},{"bike_id":"4984f195-c89e-44c1-a9c8-da239af806a3","system_id":"levelo_inurba_marseille","lat":43.293009,"lon":5.374584,"is_reserved":false,"is_disabled":false,"rental_uris":{"android":"levelo://app?vid=4984f195-c89e-44c1-a9c8-da239af806a3","ios":"levelo://app?vid=4984f195-c89e-44c1-a9c8-da239af806a3"},"vehicle_type_id":"4","last_reported":1719328087,"current_range_meters":23200,"station_id":"ce4bgi12rcd13ifvqb70","pricing_plan_id":"cebpf4jnsgd1na2vs0mg"},{"bike_id":"6b2ecc2d-86ae-48b1-a2e5-351c378d1cf6","system_id":"levelo_inurba_marseille","lat":43.293009,"lon":5.374584,"is_reserved":false,"is_disabled":false,"rental_uris":{"android":"levelo://app?vid=6b2ecc2d-86ae-48b1-a2e5-351c378d1cf6","ios":"levelo://app?vid=6b2ecc2d-86ae-48b1-a2e5-351c378d1cf6"},"vehicle_type_id":"4","last_reported":1719328087,"current_range_meters":18000,"station_id":"ce4bgi12rcd13ifvqb70","pricing_plan_id":"cebpf4jnsgd1na2vs0mg"},{"bike_id":"a3d8fce4-05ce-415f-a51c-0e6004004cda","system_id":"levelo_inurba_marseille","lat":43.293009,"lon":5.374584,"is_reserved":false,"is_disabled":false,"rental_uris":{"android":"levelo://app?vid=a3d8fce4-05ce-415f-a51c-0e6004004cda","ios":"levelo://app?vid=a3d8fce4-05ce-415f-a51c-0e6004004cda"},"vehicle_type_id":"4","last_reported":1719328087,"current_range_meters":2800,"station_id":"ce4bgi12rcd13ifvqb70","pricing_plan_id":"cebpf4jnsgd1na2vs0mg"},{"bike_id":"949c199c-9db7-4a44-ae59-f46e93af14c0","system_id":"levelo_inurba_marseille","lat":43.293009,"lon":5.374584,"is_reserved":false,"is_disabled":false,"rental_uris":{"android":"levelo://app?vid=949c199c-9db7-4a44-ae59-f46e93af14c0","ios":"levelo://app?vid=949c199c-9db7-4a44-ae59-f46e93af14c0"},"vehicle_type_id":"4","last_reported":1719328087,"current_range_meters":28800,"station_id":"ce4bgi12rcd13ifvqb70","pricing_plan_id":"cebpf4jnsgd1na2vs0mg"},{"bike_id":"965c87f1-8459-4833-981f-5b5605b5e712","system_id":"levelo_inurba_marseille","lat":43.293009,"lon":5.374584,"is_reserved":false,"is_disabled":false,"rental_uris":{"android":"levelo://app?vid=965c87f1-8459-4833-981f-5b5605b5e712","ios":"levelo://app?vid=965c87f1-8459-4833-981f-5b5605b5e712"},"vehicle_type_id":"4","last_reported":1719328087,"current_range_meters":10000,"station_id":"ce4bgi12rcd13ifvqb70","pricing_plan_id":"cebpf4jnsgd1na2vs0mg"},{"bike_id":"3ce4bd02-c3d1-4cbd-ae54-d99ad80e6863","system_id":"levelo_inurba_marseille","lat":43.30304,"lon":5.392095,"is_reserved":false,"is_disabled":false,"rental_uris":{"android":"levelo://app?vid=3ce4bd02-c3d1-4cbd-ae54-d99ad80e6863","ios":"levelo://app?vid=3ce4bd02-c3d1-4cbd-ae54-d99ad80e6863"},"vehicle_type_id":"4","last_reported":1719328087,"current_range_meters":23200,"station_id":"ce4bgkh2rcd13ifvqbk0","pricing_plan_id":"cebpf4jnsgd1na2vs0mg"},{"bike_id":"38ee518c-d3f1-4947-a586-4730100858a1","system_id":"levelo_inurba_marseille","lat":43.293259,"lon":5.371586,"is_reserved":false,"is_disabled":false,"rental_uris":{"android":"levelo://app?vid=38ee518c-d3f1-4947-a586-4730100858a1","ios":"levelo://app?vid=38ee518c-d3f1-4947-a586-4730100858a1"},"vehicle_type_id":"4","last_reported":1719328087,"current_range_meters":0,"station_id":"ce4bgh92rcd13ifvqb40","pricing_plan_id":"cebpf4jnsgd1na2vs0mg"},{"bike_id":"13c17bfe-88e9-4ac6-8d51-a22cb99daf9d","system_id":"levelo_inurba_marseille","lat":43.2936,"lon":5.37835,"is_reserved":false,"is_disabled":false,"rental_uris":{"android":"levelo://app?vid=13c17bfe-88e9-4ac6-8d51-a22cb99daf9d","ios":"levelo://app?vid=13c17bfe-88e9-4ac6-8d51-a22cb99daf9d"},"vehicle_type_id":"4","last_reported":1719328087,"current_range_meters":20400,"station_id":"ce4bgjh2rcd13ifvqbf0","pricing_plan_id":"cebpf4jnsgd1na2vs0mg"},{"bike_id":"56ef7f85-44b7-46dc-8aff-85bdd4a2a574","system_id":"levelo_inurba_marseille","lat":43.29231,"lon":5.3607,"is_reserved":false,"is_disabled":false,"rental_uris":{"android":"levelo://app?vid=56ef7f85-44b7-46dc-8aff-85bdd4a2a574","ios":"levelo://app?vid=56ef7f85-44b7-46dc-8aff-85bdd4a2a574"},"vehicle_type_id":"4","last_reported":1719328087,"current_range_meters":0,"station_id":"ce4bhbh2rcd13ifvqeqg","pricing_plan_id":"cebpf4jnsgd1na2vs0mg"},{"bike_id":"47316ea9-4a02-4e23-8dae-bd38903f53f7","system_id":"levelo_inurba_marseille","lat":43.30085,"lon":5.390856,"is_reserved":false,"is_disabled":false,"rental_uris":{"android":"levelo://app?vid=47316ea9-4a02-4e23-8dae-bd38903f53f7","ios":"levelo://app?vid=47316ea9-4a02-4e23-8dae-bd38903f53f7"},"vehicle_type_id":"4","last_reported":1719328087,"current_range_meters":14800,"station_id":"ce4bh192rcd13ifvqdb0","pricing_plan_id":"cebpf4jnsgd1na2vs0mg"},{"bike_id":"94dec528-f55b-4a29-9fd1-30b00920258e","system_id":"levelo_inurba_marseille","lat":43.29226,"lon":5.3607,"is_reserved":false,"is_disabled":false,"rental_uris":{"android":"levelo://app?vid=94dec528-f55b-4a29-9fd1-30b00920258e","ios":"levelo://app?vid=94dec528-f55b-4a29-9fd1-30b00920258e"},"vehicle_type_id":"4","last_reported":1719328087,"current_range_meters":25600,"station_id":"ce4bhbh2rcd13ifvqeqg","pricing_plan_id":"cebpf4jnsgd1na2vs0mg"},{"bike_id":"a0c7ca81-82a3-4962-91fc-196dc667dc3f","system_id":"levelo_inurba_marseille","lat":43.29225,"lon":5.360583,"is_reserved":false,"is_disabled":false,"rental_uris":{"android":"levelo://app?vid=a0c7ca81-82a3-4962-91fc-196dc667dc3f","ios":"levelo://app?vid=a0c7ca81-82a3-4962-91fc-196dc667dc3f"},"vehicle_type_id":"4","last_reported":1719328087,"current_range_meters":18800,"station_id":"ce4bhbh2rcd13ifvqeqg","pricing_plan_id":"cebpf4jnsgd1na2vs0mg"},{"bike_id":"f5478ffb-4256-421e-852c-489972032fe6","system_id":"levelo_inurba_marseille","lat":43.29224,"lon":5.36061,"is_reserved":false,"is_disabled":false,"rental_uris":{"android":"levelo://app?vid=f5478ffb-4256-421e-852c-489972032fe6","ios":"levelo://app?vid=f5478ffb-4256-421e-852c-489972032fe6"},"vehicle_type_id":"4","last_reported":1719328087,"current_range_meters":10000,"station_id":"ce4bhbh2rcd13ifvqeqg","pricing_plan_id":"cebpf4jnsgd1na2vs0mg"},{"bike_id":"27cf0bd6-8141-4057-b281-fcfa4d4d6a5c","system_id":"levelo_inurba_marseille","lat":43.292311,"lon":5.360731,"is_reserved":false,"is_disabled":false,"rental_uris":{"android":"levelo://app?vid=27cf0bd6-8141-4057-b281-fcfa4d4d6a5c","ios":"levelo://app?vid=27cf0bd6-8141-4057-b281-fcfa4d4d6a5c"},"vehicle_type_id":"4","last_reported":1719328087,"current_range_meters":22400,"station_id":"ce4bhbh2rcd13ifvqeqg","pricing_plan_id":"cebpf4jnsgd1na2vs0mg"},{"bike_id":"b3101ada-7cec-4e73-ab07-5b7d40b24912","system_id":"levelo_inurba_marseille","lat":43.292311,"lon":5.360731,"is_reserved":false,"is_disabled":false,"rental_uris":{"android":"levelo://app?vid=b3101ada-7cec-4e73-ab07-5b7d40b24912","ios":"levelo://app?vid=b3101ada-7cec-4e73-ab07-5b7d40b24912"},"vehicle_type_id":"4","last_reported":1719328087,"current_range_meters":27200,"station_id":"ce4bhbh2rcd13ifvqeqg","pricing_plan_id":"cebpf4jnsgd1na2vs0mg"},{"bike_id":"e308f162-5903-483c-ba3f-52db53c1087a","system_id":"levelo_inurba_marseille","lat":43.30085,"lon":5.390856,"is_reserved":false,"is_disabled":false,"rental_uris":{"android":"levelo://app?vid=e308f162-5903-483c-ba3f-52db53c1087a","ios":"levelo://app?vid=e308f162-5903-483c-ba3f-52db53c1087a"},"vehicle_type_id":"4","last_reported":1719328087,"current_range_meters":9200,"station_id":"ce4bh192rcd13ifvqdb0","pricing_plan_id":"cebpf4jnsgd1na2vs0mg"},{"bike_id":"efe5445f-d404-4aa0-878f-66afaeaa88c8","system_id":"levelo_inurba_marseille","lat":43.291671,"lon":5.371575,"is_reserved":false,"is_disabled":false,"rental_uris":{"android":"levelo://app?vid=efe5445f-d404-4aa0-878f-66afaeaa88c8","ios":"levelo://app?vid=efe5445f-d404-4aa0-878f-66afaeaa88c8"},"vehicle_type_id":"4","last_reported":1719328087,"current_range_meters":6400,"station_id":"ce4bha92rcd13ifvqeh0","pricing_plan_id":"cebpf4jnsgd1na2vs0mg"},{"bike_id":"38ae8768-50ba-4803-880c-44f151539603","system_id":"levelo_inurba_marseille","lat":43.298764,"lon":5.388973,"is_reserved":false,"is_disabled":false,"rental_uris":{"android":"levelo://app?vid=38ae8768-50ba-4803-880c-44f151539603","ios":"levelo://app?vid=38ae8768-50ba-4803-880c-44f151539603"},"vehicle_type_id":"4","last_reported":1719328087,"current_range_meters":31200,"station_id":"ce4bh392rcd13ifvqdl0","pricing_plan_id":"cebpf4jnsgd1na2vs0mg"},{"bike_id":"3e1118cc-6271-481f-90e2-a8a1905c4903","system_id":"levelo_inurba_marseille","lat":43.291675,"lon":5.371583,"is_reserved":false,"is_disabled":false,"rental_uris":{"android":"levelo://app?vid=3e1118cc-6271-481f-90e2-a8a1905c4903","ios":"levelo://app?vid=3e1118cc-6271-481f-90e2-a8a1905c4903"},"vehicle_type_id":"4","last_reported":1719328087,"current_range_meters":21200,"station_id":"ce4bha92rcd13ifvqeh0","pricing_plan_id":"cebpf4jnsgd1na2vs0mg"},{"bike_id":"b0e6c769-dba0-4b04-825b-038482250591","system_id":"levelo_inurba_marseille","lat":43.291671,"lon":5.371575,"is_reserved":false,"is_disabled":false,"rental_uris":{"android":"levelo://app?vid=b0e6c769-dba0-4b04-825b-038482250591","ios":"levelo://app?vid=b0e6c769-dba0-4b04-825b-038482250591"},"vehicle_type_id":"4","last_reported":1719328087,"current_range_meters":12800,"station_id":"ce4bha92rcd13ifvqeh0","pricing_plan_id":"cebpf4jnsgd1na2vs0mg"},{"bike_id":"0112fe8e-1e63-485e-bd81-2147f90217a1","system_id":"levelo_inurba_marseille","lat":43.313291,"lon":5.396838,"is_reserved":false,"is_disabled":false,"rental_uris":{"android":"levelo://app?vid=0112fe8e-1e63-485e-bd81-2147f90217a1","ios":"levelo://app?vid=0112fe8e-1e63-485e-bd81-2147f90217a1"},"vehicle_type_id":"4","last_reported":1719328087,"current_range_meters":12800,"station_id":"ce4bgvp2rcd13ifvqcu0","pricing_plan_id":"cebpf4jnsgd1na2vs0mg"},{"bike_id":"29b87d13-629b-4f32-a290-77b5dece4747","system_id":"levelo_inurba_marseille","lat":43.313291,"lon":5.396838,"is_reserved":false,"is_disabled":false,"rental_uris":{"android":"levelo://app?vid=29b87d13-629b-4f32-a290-77b5dece4747","ios":"levelo://app?vid=29b87d13-629b-4f32-a290-77b5dece4747"},"vehicle_type_id":"4","last_reported":1719328087,"current_range_meters":24800,"station_id":"ce4bgvp2rcd13ifvqcu0","pricing_plan_id":"cebpf4jnsgd1na2vs0mg"},{"bike_id":"21a4bb51-13b7-4c06-ada6-5ee2abe0ca81","system_id":"levelo_inurba_marseille","lat":43.313291,"lon":5.396838,"is_reserved":false,"is_disabled":false,"rental_uris":{"android":"levelo://app?vid=21a4bb51-13b7-4c06-ada6-5ee2abe0ca81","ios":"levelo://app?vid=21a4bb51-13b7-4c06-ada6-5ee2abe0ca81"},"vehicle_type_id":"4","last_reported":1719328087,"current_range_meters":26800,"station_id":"ce4bgvp2rcd13ifvqcu0","pricing_plan_id":"cebpf4jnsgd1na2vs0mg"},{"bike_id":"61353264-7e06-4f24-8530-35de5a6cf129","system_id":"levelo_inurba_marseille","lat":43.309038,"lon":5.396546,"is_reserved":false,"is_disabled":false,"rental_uris":{"android":"levelo://app?vid=61353264-7e06-4f24-8530-35de5a6cf129","ios":"levelo://app?vid=61353264-7e06-4f24-8530-35de5a6cf129"},"vehicle_type_id":"4","last_reported":1719328087,"current_range_meters":24400,"station_id":"ce4bh012rcd13ifvqcv0","pricing_plan_id":"cebpf4jnsgd1na2vs0mg"},{"bike_id":"b8608dd1-5bef-48a9-b99c-daea7328ca15","system_id":"levelo_inurba_marseille","lat":43.29529,"lon":5.385581,"is_reserved":false,"is_disabled":false,"rental_uris":{"android":"levelo://app?vid=b8608dd1-5bef-48a9-b99c-daea7328ca15","ios":"levelo://app?vid=b8608dd1-5bef-48a9-b99c-daea7328ca15"},"vehicle_type_id":"4","last_reported":1719328087,"current_range_meters":22000,"station_id":"ce4bgih2rcd13ifvqba0","pricing_plan_id":"cebpf4jnsgd1na2vs0mg"},{"bike_id":"58184297-3b2c-4213-891d-e06c4bb681dc","system_id":"levelo_inurba_marseille","lat":43.309038,"lon":5.396546,"is_reserved":false,"is_disabled":false,"rental_uris":{"android":"levelo://app?vid=58184297-3b2c-4213-891d-e06c4bb681dc","ios":"levelo://app?vid=58184297-3b2c-4213-891d-e06c4bb681dc"},"vehicle_type_id":"4","last_reported":1719328087,"current_range_meters":800,"station_id":"ce4bh012rcd13ifvqcv0","pricing_plan_id":"cebpf4jnsgd1na2vs0mg"},{"bike_id":"c0f2d5b3-00f8-4b9d-996d-101284100f30","system_id":"levelo_inurba_marseille","lat":43.29529,"lon":5.385581,"is_reserved":false,"is_disabled":false,"rental_uris":{"android":"levelo://app?vid=c0f2d5b3-00f8-4b9d-996d-101284100f30","ios":"levelo://app?vid=c0f2d5b3-00f8-4b9d-996d-101284100f30"},"vehicle_type_id":"4","last_reported":1719328087,"current_range_meters":18800,"station_id":"ce4bgih2rcd13ifvqba0","pricing_plan_id":"cebpf4jnsgd1na2vs0mg"},{"bike_id":"15b33863-490c-4dea-84fb-4dd09cdc0584","system_id":"levelo_inurba_marseille","lat":43.29529,"lon":5.385581,"is_reserved":false,"is_disabled":false,"rental_uris":{"android":"levelo://app?vid=15b33863-490c-4dea-84fb-4dd09cdc0584","ios":"levelo://app?vid=15b33863-490c-4dea-84fb-4dd09cdc0584"},"vehicle_type_id":"4","last_reported":1719328087,"current_range_meters":27600,"station_id":"ce4bgih2rcd13ifvqba0","pricing_plan_id":"cebpf4jnsgd1na2vs0mg"},{"bike_id":"42aa2555-ea5a-423e-9084-8be46685544f","system_id":"levelo_inurba_marseille","lat":43.29529,"lon":5.385581,"is_reserved":false,"is_disabled":false,"rental_uris":{"android":"levelo://app?vid=42aa2555-ea5a-423e-9084-8be46685544f","ios":"levelo://app?vid=42aa2555-ea5a-423e-9084-8be46685544f"},"vehicle_type_id":"4","last_reported":1719328087,"current_range_meters":4000,"station_id":"ce4bgih2rcd13ifvqba0","pricing_plan_id":"cebpf4jnsgd1na2vs0mg"},{"bike_id":"8cfec9cb-83f3-4eb0-936e-485adb4773b5","system_id":"levelo_inurba_marseille","lat":43.2953,"lon":5.38546,"is_reserved":false,"is_disabled":false,"rental_uris":{"android":"levelo://app?vid=8cfec9cb-83f3-4eb0-936e-485adb4773b5","ios":"levelo://app?vid=8cfec9cb-83f3-4eb0-936e-485adb4773b5"},"vehicle_type_id":"4","last_reported":1719328087,"current_range_meters":20800,"station_id":"ce4bgih2rcd13ifvqba0","pricing_plan_id":"cebpf4jnsgd1na2vs0mg"},{"bike_id":"b1471650-7626-4977-ae01-5261dc292b0d","system_id":"levelo_inurba_marseille","lat":43.29529,"lon":5.385581,"is_reserved":false,"is_disabled":false,"rental_uris":{"android":"levelo://app?vid=b1471650-7626-4977-ae01-5261dc292b0d","ios":"levelo://app?vid=b1471650-7626-4977-ae01-5261dc292b0d"},"vehicle_type_id":"4","last_reported":1719328087,"current_range_meters":17600,"station_id":"ce4bgih2rcd13ifvqba0","pricing_plan_id":"cebpf4jnsgd1na2vs0mg"},{"bike_id":"48b7acdc-dc51-4593-bcf1-d4fb41a1a031","system_id":"levelo_inurba_marseille","lat":43.29529,"lon":5.385581,"is_reserved":false,"is_disabled":false,"rental_uris":{"android":"levelo://app?vid=48b7acdc-dc51-4593-bcf1-d4fb41a1a031","ios":"levelo://app?vid=48b7acdc-dc51-4593-bcf1-d4fb41a1a031"},"vehicle_type_id":"4","last_reported":1719328087,"current_range_meters":14800,"station_id":"ce4bgih2rcd13ifvqba0","pricing_plan_id":"cebpf4jnsgd1na2vs0mg"},{"bike_id":"5fc92a27-3743-4a56-9e86-01c30cd2db18","system_id":"levelo_inurba_marseille","lat":43.29529,"lon":5.385581,"is_reserved":false,"is_disabled":false,"rental_uris":{"android":"levelo://app?vid=5fc92a27-3743-4a56-9e86-01c30cd2db18","ios":"levelo://app?vid=5fc92a27-3743-4a56-9e86-01c30cd2db18"},"vehicle_type_id":"4","last_reported":1719328087,"current_range_meters":8400,"station_id":"ce4bgih2rcd13ifvqba0","pricing_plan_id":"cebpf4jnsgd1na2vs0mg"},{"bike_id":"9285a4ec-1987-40c1-86c3-c9d733d9d421","system_id":"levelo_inurba_marseille","lat":43.29529,"lon":5.385581,"is_reserved":false,"is_disabled":false,"rental_uris":{"android":"levelo://app?vid=9285a4ec-1987-40c1-86c3-c9d733d9d421","ios":"levelo://app?vid=9285a4ec-1987-40c1-86c3-c9d733d9d421"},"vehicle_type_id":"4","last_reported":1719328087,"current_range_meters":18000,"station_id":"ce4bgih2rcd13ifvqba0","pricing_plan_id":"cebpf4jnsgd1na2vs0mg"},{"bike_id":"79e7022a-0473-48f4-b7ae-c2886dbabc18","system_id":"levelo_inurba_marseille","lat":43.29529,"lon":5.38552,"is_reserved":false,"is_disabled":false,"rental_uris":{"android":"levelo://app?vid=79e7022a-0473-48f4-b7ae-c2886dbabc18","ios":"levelo://app?vid=79e7022a-0473-48f4-b7ae-c2886dbabc18"},"vehicle_type_id":"4","last_reported":1719328087,"current_range_meters":8400,"station_id":"ce4bgih2rcd13ifvqba0","pricing_plan_id":"cebpf4jnsgd1na2vs0mg"},{"bike_id":"61b70bcd-31db-4f0f-abc5-7a57e64a6c50","system_id":"levelo_inurba_marseille","lat":43.29529,"lon":5.385581,"is_reserved":false,"is_disabled":false,"rental_uris":{"android":"levelo://app?vid=61b70bcd-31db-4f0f-abc5-7a57e64a6c50","ios":"levelo://app?vid=61b70bcd-31db-4f0f-abc5-7a57e64a6c50"},"vehicle_type_id":"4","last_reported":1719328087,"current_range_meters":0,"station_id":"ce4bgih2rcd13ifvqba0","pricing_plan_id":"cebpf4jnsgd1na2vs0mg"},{"bike_id":"4bff155d-a238-46b1-99e4-73bfbdc59120","system_id":"levelo_inurba_marseille","lat":43.29525,"lon":5.38553,"is_reserved":false,"is_disabled":false,"rental_uris":{"android":"levelo://app?vid=4bff155d-a238-46b1-99e4-73bfbdc59120","ios":"levelo://app?vid=4bff155d-a238-46b1-99e4-73bfbdc59120"},"vehicle_type_id":"4","last_reported":1719328087,"current_range_meters":20800,"station_id":"ce4bgih2rcd13ifvqba0","pricing_plan_id":"cebpf4jnsgd1na2vs0mg"},{"bike_id":"fc7097e9-b47b-4cc2-82ce-1a9fb7a21276","system_id":"levelo_inurba_marseille","lat":43.302008,"lon":5.394694,"is_reserved":false,"is_disabled":false,"rental_uris":{"android":"levelo://app?vid=fc7097e9-b47b-4cc2-82ce-1a9fb7a21276","ios":"levelo://app?vid=fc7097e9-b47b-4cc2-82ce-1a9fb7a21276"},"vehicle_type_id":"4","last_reported":1719328087,"current_range_meters":13600,"station_id":"ce4bh0p2rcd13ifvqd70","pricing_plan_id":"cebpf4jnsgd1na2vs0mg"},{"bike_id":"4d1ab2b8-7f0c-4647-80ba-2cf1dbc76e20","system_id":"levelo_inurba_marseille","lat":43.302008,"lon":5.394694,"is_reserved":false,"is_disabled":false,"rental_uris":{"android":"levelo://app?vid=4d1ab2b8-7f0c-4647-80ba-2cf1dbc76e20","ios":"levelo://app?vid=4d1ab2b8-7f0c-4647-80ba-2cf1dbc76e20"},"vehicle_type_id":"4","last_reported":1719328087,"current_range_meters":25200,"station_id":"ce4bh0p2rcd13ifvqd70","pricing_plan_id":"cebpf4jnsgd1na2vs0mg"},{"bike_id":"da32357b-af96-4ad7-90a4-c8f6869170d4","system_id":"levelo_inurba_marseille","lat":43.302008,"lon":5.394694,"is_reserved":false,"is_disabled":false,"rental_uris":{"android":"levelo://app?vid=da32357b-af96-4ad7-90a4-c8f6869170d4","ios":"levelo://app?vid=da32357b-af96-4ad7-90a4-c8f6869170d4"},"vehicle_type_id":"4","last_reported":1719328087,"current_range_meters":28400,"station_id":"ce4bh0p2rcd13ifvqd70","pricing_plan_id":"cebpf4jnsgd1na2vs0mg"},{"bike_id":"a003e6f9-5c9a-4826-9531-0d1721fa1151","system_id":"levelo_inurba_marseille","lat":43.294162,"lon":5.386292,"is_reserved":false,"is_disabled":false,"rental_uris":{"android":"levelo://app?vid=a003e6f9-5c9a-4826-9531-0d1721fa1151","ios":"levelo://app?vid=a003e6f9-5c9a-4826-9531-0d1721fa1151"},"vehicle_type_id":"4","last_reported":1719328087,"current_range_meters":3200,"station_id":"ce4bh2h2rcd13ifvqdh0","pricing_plan_id":"cebpf4jnsgd1na2vs0mg"},{"bike_id":"a844076e-188a-42aa-b6b1-3c6358805bed","system_id":"levelo_inurba_marseille","lat":43.289184,"lon":5.366408,"is_reserved":false,"is_disabled":false,"rental_uris":{"android":"levelo://app?vid=a844076e-188a-42aa-b6b1-3c6358805bed","ios":"levelo://app?vid=a844076e-188a-42aa-b6b1-3c6358805bed"},"vehicle_type_id":"4","last_reported":1719328087,"current_range_meters":0,"station_id":"ce4bhap2rcd13ifvqek0","pricing_plan_id":"cebpf4jnsgd1na2vs0mg"},{"bike_id":"147f7f33-ed7b-4a2d-8cfa-4965dd2aa189","system_id":"levelo_inurba_marseille","lat":43.294162,"lon":5.386292,"is_reserved":false,"is_disabled":false,"rental_uris":{"android":"levelo://app?vid=147f7f33-ed7b-4a2d-8cfa-4965dd2aa189","ios":"levelo://app?vid=147f7f33-ed7b-4a2d-8cfa-4965dd2aa189"},"vehicle_type_id":"4","last_reported":1719328087,"current_range_meters":8000,"station_id":"ce4bh2h2rcd13ifvqdh0","pricing_plan_id":"cebpf4jnsgd1na2vs0mg"},{"bike_id":"2e4719a2-7b94-4fd3-a760-c38cfc60f0f0","system_id":"levelo_inurba_marseille","lat":43.292644,"lon":5.384257,"is_reserved":false,"is_disabled":false,"rental_uris":{"android":"levelo://app?vid=2e4719a2-7b94-4fd3-a760-c38cfc60f0f0","ios":"levelo://app?vid=2e4719a2-7b94-4fd3-a760-c38cfc60f0f0"},"vehicle_type_id":"4","last_reported":1719328087,"current_range_meters":15200,"station_id":"ce4bh692rcd13ifvqea0","pricing_plan_id":"cebpf4jnsgd1na2vs0mg"},{"bike_id":"d984104f-5c24-4e38-9f62-f69925d3eead","system_id":"levelo_inurba_marseille","lat":43.304296,"lon":5.397513,"is_reserved":false,"is_disabled":false,"rental_uris":{"android":"levelo://app?vid=d984104f-5c24-4e38-9f62-f69925d3eead","ios":"levelo://app?vid=d984104f-5c24-4e38-9f62-f69925d3eead"},"vehicle_type_id":"4","last_reported":1719328087,"current_range_meters":8000,"station_id":"ce4bh092rcd13ifvqd20","pricing_plan_id":"cebpf4jnsgd1na2vs0mg"},{"bike_id":"b6aeac1d-ebe4-40d1-b6d1-cdbe261c20fe","system_id":"levelo_inurba_marseille","lat":43.292642,"lon":5.384254,"is_reserved":false,"is_disabled":false,"rental_uris":{"android":"levelo://app?vid=b6aeac1d-ebe4-40d1-b6d1-cdbe261c20fe","ios":"levelo://app?vid=b6aeac1d-ebe4-40d1-b6d1-cdbe261c20fe"},"vehicle_type_id":"4","last_reported":1719328087,"current_range_meters":0,"station_id":"ce4bh692rcd13ifvqea0","pricing_plan_id":"cebpf4jnsgd1na2vs0mg"},{"bike_id":"bbf51db9-da85-4fc7-9e27-356dc471d587","system_id":"levelo_inurba_marseille","lat":43.290104,"lon":5.356111,"is_reserved":false,"is_disabled":false,"rental_uris":{"android":"levelo://app?vid=bbf51db9-da85-4fc7-9e27-356dc471d587","ios":"levelo://app?vid=bbf51db9-da85-4fc7-9e27-356dc471d587"},"vehicle_type_id":"4","last_reported":1719328087,"current_range_meters":12400,"station_id":"ce4bhb92rcd13ifvqen0","pricing_plan_id":"cebpf4jnsgd1na2vs0mg"},{"bike_id":"e61caf0b-1dd6-49c4-b8bc-d64f618f7a18","system_id":"levelo_inurba_marseille","lat":43.29007,"lon":5.3562,"is_reserved":false,"is_disabled":false,"rental_uris":{"android":"levelo://app?vid=e61caf0b-1dd6-49c4-b8bc-d64f618f7a18","ios":"levelo://app?vid=e61caf0b-1dd6-49c4-b8bc-d64f618f7a18"},"vehicle_type_id":"4","last_reported":1719328087,"current_range_meters":29200,"station_id":"ce4bhb92rcd13ifvqen0","pricing_plan_id":"cebpf4jnsgd1na2vs0mg"},{"bike_id":"48af5bec-85b9-487a-8ce8-ef90594ca8fb","system_id":"levelo_inurba_marseille","lat":43.290103,"lon":5.356114,"is_reserved":false,"is_disabled":false,"rental_uris":{"android":"levelo://app?vid=48af5bec-85b9-487a-8ce8-ef90594ca8fb","ios":"levelo://app?vid=48af5bec-85b9-487a-8ce8-ef90594ca8fb"},"vehicle_type_id":"4","last_reported":1719328087,"current_range_meters":8000,"station_id":"ce4bhb92rcd13ifvqen0","pricing_plan_id":"cebpf4jnsgd1na2vs0mg"},{"bike_id":"e2ef00ff-60fc-4785-95e7-b3f71d953967","system_id":"levelo_inurba_marseille","lat":43.290103,"lon":5.356114,"is_reserved":false,"is_disabled":false,"rental_uris":{"android":"levelo://app?vid=e2ef00ff-60fc-4785-95e7-b3f71d953967","ios":"levelo://app?vid=e2ef00ff-60fc-4785-95e7-b3f71d953967"},"vehicle_type_id":"4","last_reported":1719328087,"current_range_meters":26800,"station_id":"ce4bhb92rcd13ifvqen0","pricing_plan_id":"cebpf4jnsgd1na2vs0mg"},{"bike_id":"a3dc2df7-024f-40f9-97cb-a814ec98e5f6","system_id":"levelo_inurba_marseille","lat":43.290103,"lon":5.356114,"is_reserved":false,"is_disabled":false,"rental_uris":{"android":"levelo://app?vid=a3dc2df7-024f-40f9-97cb-a814ec98e5f6","ios":"levelo://app?vid=a3dc2df7-024f-40f9-97cb-a814ec98e5f6"},"vehicle_type_id":"4","last_reported":1719328087,"current_range_meters":0,"station_id":"ce4bhb92rcd13ifvqen0","pricing_plan_id":"cebpf4jnsgd1na2vs0mg"},{"bike_id":"66bb46db-6f01-4c3c-8b55-8dd478e7a96a","system_id":"levelo_inurba_marseille","lat":43.290995,"lon":5.381361,"is_reserved":false,"is_disabled":false,"rental_uris":{"android":"levelo://app?vid=66bb46db-6f01-4c3c-8b55-8dd478e7a96a","ios":"levelo://app?vid=66bb46db-6f01-4c3c-8b55-8dd478e7a96a"},"vehicle_type_id":"4","last_reported":1719328087,"current_range_meters":21600,"station_id":"ce4bh512rcd13ifvqe2g","pricing_plan_id":"cebpf4jnsgd1na2vs0mg"},{"bike_id":"e7a41c6e-d9f9-48a1-ba92-762bc827ddc3","system_id":"levelo_inurba_marseille","lat":43.29779,"lon":5.39341,"is_reserved":false,"is_disabled":false,"rental_uris":{"android":"levelo://app?vid=e7a41c6e-d9f9-48a1-ba92-762bc827ddc3","ios":"levelo://app?vid=e7a41c6e-d9f9-48a1-ba92-762bc827ddc3"},"vehicle_type_id":"4","last_reported":1719328087,"current_range_meters":10400,"station_id":"chh1huq6cuj3fo74tm60","pricing_plan_id":"cebpf4jnsgd1na2vs0mg"},{"bike_id":"f92d5c25-a986-4c5e-9be1-bdfbccccc986","system_id":"levelo_inurba_marseille","lat":43.297815,"lon":5.393548,"is_reserved":false,"is_disabled":false,"rental_uris":{"android":"levelo://app?vid=f92d5c25-a986-4c5e-9be1-bdfbccccc986","ios":"levelo://app?vid=f92d5c25-a986-4c5e-9be1-bdfbccccc986"},"vehicle_type_id":"4","last_reported":1719328087,"current_range_meters":12800,"station_id":"chh1huq6cuj3fo74tm60","pricing_plan_id":"cebpf4jnsgd1na2vs0mg"},{"bike_id":"4ca4f214-da87-48dd-b5d2-52acf34d0340","system_id":"levelo_inurba_marseille","lat":43.289743,"lon":5.378304,"is_reserved":false,"is_disabled":false,"rental_uris":{"android":"levelo://app?vid=4ca4f214-da87-48dd-b5d2-52acf34d0340","ios":"levelo://app?vid=4ca4f214-da87-48dd-b5d2-52acf34d0340"},"vehicle_type_id":"4","last_reported":1719328087,"current_range_meters":14400,"station_id":"ce4bh9p2rcd13ifvqed0","pricing_plan_id":"cebpf4jnsgd1na2vs0mg"},{"bike_id":"a46b7ab8-7930-4c2f-a40a-1cdd8fcbb3df","system_id":"levelo_inurba_marseille","lat":43.295169,"lon":5.390426,"is_reserved":false,"is_disabled":false,"rental_uris":{"android":"levelo://app?vid=a46b7ab8-7930-4c2f-a40a-1cdd8fcbb3df","ios":"levelo://app?vid=a46b7ab8-7930-4c2f-a40a-1cdd8fcbb3df"},"vehicle_type_id":"4","last_reported":1719328087,"current_range_meters":400,"station_id":"ce4bh3p2rcd13ifvqdp0","pricing_plan_id":"cebpf4jnsgd1na2vs0mg"},{"bike_id":"e694c1e3-378a-4fa1-8184-a1674e7c2224","system_id":"levelo_inurba_marseille","lat":43.330442,"lon":5.389148,"is_reserved":false,"is_disabled":false,"rental_uris":{"android":"levelo://app?vid=e694c1e3-378a-4fa1-8184-a1674e7c2224","ios":"levelo://app?vid=e694c1e3-378a-4fa1-8184-a1674e7c2224"},"vehicle_type_id":"4","last_reported":1719328087,"current_range_meters":0,"station_id":"ce4bhr92rcd13ifvqhrg","pricing_plan_id":"cebpf4jnsgd1na2vs0mg"},{"bike_id":"d504595b-24e9-4937-881d-c02c394ddf5d","system_id":"levelo_inurba_marseille","lat":43.295169,"lon":5.390426,"is_reserved":false,"is_disabled":false,"rental_uris":{"android":"levelo://app?vid=d504595b-24e9-4937-881d-c02c394ddf5d","ios":"levelo://app?vid=d504595b-24e9-4937-881d-c02c394ddf5d"},"vehicle_type_id":"4","last_reported":1719328087,"current_range_meters":12400,"station_id":"ce4bh3p2rcd13ifvqdp0","pricing_plan_id":"cebpf4jnsgd1na2vs0mg"},{"bike_id":"bac53055-0101-419c-a4de-799a1b424e95","system_id":"levelo_inurba_marseille","lat":43.295169,"lon":5.390426,"is_reserved":false,"is_disabled":false,"rental_uris":{"android":"levelo://app?vid=bac53055-0101-419c-a4de-799a1b424e95","ios":"levelo://app?vid=bac53055-0101-419c-a4de-799a1b424e95"},"vehicle_type_id":"4","last_reported":1719328087,"current_range_meters":7600,"station_id":"ce4bh3p2rcd13ifvqdp0","pricing_plan_id":"cebpf4jnsgd1na2vs0mg"},{"bike_id":"01099864-d1b1-46ef-8834-9d38dac19df1","system_id":"levelo_inurba_marseille","lat":43.295169,"lon":5.390426,"is_reserved":false,"is_disabled":false,"rental_uris":{"android":"levelo://app?vid=01099864-d1b1-46ef-8834-9d38dac19df1","ios":"levelo://app?vid=01099864-d1b1-46ef-8834-9d38dac19df1"},"vehicle_type_id":"4","last_reported":1719328087,"current_range_meters":13200,"station_id":"ce4bh3p2rcd13ifvqdp0","pricing_plan_id":"cebpf4jnsgd1na2vs0mg"},{"bike_id":"af1c8ce2-0598-4662-84ba-7a32e42e0948","system_id":"levelo_inurba_marseille","lat":43.295169,"lon":5.390426,"is_reserved":false,"is_disabled":false,"rental_uris":{"android":"levelo://app?vid=af1c8ce2-0598-4662-84ba-7a32e42e0948","ios":"levelo://app?vid=af1c8ce2-0598-4662-84ba-7a32e42e0948"},"vehicle_type_id":"4","last_reported":1719328087,"current_range_meters":7200,"station_id":"ce4bh3p2rcd13ifvqdp0","pricing_plan_id":"cebpf4jnsgd1na2vs0mg"},{"bike_id":"d3c303ce-e4a4-416a-9271-452afb4e7380","system_id":"levelo_inurba_marseille","lat":43.2901,"lon":5.381269,"is_reserved":false,"is_disabled":false,"rental_uris":{"android":"levelo://app?vid=d3c303ce-e4a4-416a-9271-452afb4e7380","ios":"levelo://app?vid=d3c303ce-e4a4-416a-9271-452afb4e7380"},"vehicle_type_id":"4","last_reported":1719328087,"current_range_meters":29600,"station_id":"ce4bh4p2rcd13ifvqe1g","pricing_plan_id":"cebpf4jnsgd1na2vs0mg"},{"bike_id":"317d975c-9ab2-4dee-8e18-af5eff7e7763","system_id":"levelo_inurba_marseille","lat":43.2901,"lon":5.381269,"is_reserved":false,"is_disabled":false,"rental_uris":{"android":"levelo://app?vid=317d975c-9ab2-4dee-8e18-af5eff7e7763","ios":"levelo://app?vid=317d975c-9ab2-4dee-8e18-af5eff7e7763"},"vehicle_type_id":"4","last_reported":1719328087,"current_range_meters":2000,"station_id":"ce4bh4p2rcd13ifvqe1g","pricing_plan_id":"cebpf4jnsgd1na2vs0mg"},{"bike_id":"4114340f-e756-43c3-b23c-39b1bbaff833","system_id":"levelo_inurba_marseille","lat":43.290094,"lon":5.381264,"is_reserved":false,"is_disabled":false,"rental_uris":{"android":"levelo://app?vid=4114340f-e756-43c3-b23c-39b1bbaff833","ios":"levelo://app?vid=4114340f-e756-43c3-b23c-39b1bbaff833"},"vehicle_type_id":"4","last_reported":1719328087,"current_range_meters":21600,"station_id":"ce4bh4p2rcd13ifvqe1g","pricing_plan_id":"cebpf4jnsgd1na2vs0mg"},{"bike_id":"bb65fb70-df82-47d8-b27f-438620895501","system_id":"levelo_inurba_marseille","lat":43.337362,"lon":5.3746,"is_reserved":false,"is_disabled":false,"rental_uris":{"android":"levelo://app?vid=bb65fb70-df82-47d8-b27f-438620895501","ios":"levelo://app?vid=bb65fb70-df82-47d8-b27f-438620895501"},"vehicle_type_id":"0","last_reported":1719328087,"current_range_meters":17600,"station_id":"","pricing_plan_id":"cebpf4jnsgd1na2vs0mg"},{"bike_id":"9b81675f-44cd-4cbe-9733-2d36a516d8f7","system_id":"levelo_inurba_marseille","lat":43.33736,"lon":5.37466,"is_reserved":false,"is_disabled":false,"rental_uris":{"android":"levelo://app?vid=9b81675f-44cd-4cbe-9733-2d36a516d8f7","ios":"levelo://app?vid=9b81675f-44cd-4cbe-9733-2d36a516d8f7"},"vehicle_type_id":"0","last_reported":1719328087,"current_range_meters":24000,"station_id":"","pricing_plan_id":"cebpf4jnsgd1na2vs0mg"},{"bike_id":"8043cc8a-f702-4e45-9523-d56dfd7ee432","system_id":"levelo_inurba_marseille","lat":43.337367,"lon":5.374671,"is_reserved":false,"is_disabled":false,"rental_uris":{"android":"levelo://app?vid=8043cc8a-f702-4e45-9523-d56dfd7ee432","ios":"levelo://app?vid=8043cc8a-f702-4e45-9523-d56dfd7ee432"},"vehicle_type_id":"0","last_reported":1719328087,"current_range_meters":22400,"station_id":"","pricing_plan_id":"cebpf4jnsgd1na2vs0mg"},{"bike_id":"c25a3696-e1cc-43ba-8656-23d4a118ee2e","system_id":"levelo_inurba_marseille","lat":43.337365,"lon":5.374713,"is_reserved":false,"is_disabled":false,"rental_uris":{"android":"levelo://app?vid=c25a3696-e1cc-43ba-8656-23d4a118ee2e","ios":"levelo://app?vid=c25a3696-e1cc-43ba-8656-23d4a118ee2e"},"vehicle_type_id":"4","last_reported":1719328087,"current_range_meters":23200,"station_id":"","pricing_plan_id":"cebpf4jnsgd1na2vs0mg"},{"bike_id":"c3ddbe4a-157d-4893-acf1-f1f626a65d21","system_id":"levelo_inurba_marseille","lat":43.337386,"lon":5.374597,"is_reserved":false,"is_disabled":false,"rental_uris":{"android":"levelo://app?vid=c3ddbe4a-157d-4893-acf1-f1f626a65d21","ios":"levelo://app?vid=c3ddbe4a-157d-4893-acf1-f1f626a65d21"},"vehicle_type_id":"0","last_reported":1719328087,"current_range_meters":19200,"station_id":"","pricing_plan_id":"cebpf4jnsgd1na2vs0mg"},{"bike_id":"70df0eff-7892-4d64-8b33-f9b25d3cdb77","system_id":"levelo_inurba_marseille","lat":43.337374,"lon":5.374684,"is_reserved":false,"is_disabled":false,"rental_uris":{"android":"levelo://app?vid=70df0eff-7892-4d64-8b33-f9b25d3cdb77","ios":"levelo://app?vid=70df0eff-7892-4d64-8b33-f9b25d3cdb77"},"vehicle_type_id":"4","last_reported":1719328087,"current_range_meters":23600,"station_id":"","pricing_plan_id":"cebpf4jnsgd1na2vs0mg"},{"bike_id":"11da98ef-d0c3-43c2-a7e4-890f2c23ccbc","system_id":"levelo_inurba_marseille","lat":43.337391,"lon":5.374615,"is_reserved":false,"is_disabled":false,"rental_uris":{"android":"levelo://app?vid=11da98ef-d0c3-43c2-a7e4-890f2c23ccbc","ios":"levelo://app?vid=11da98ef-d0c3-43c2-a7e4-890f2c23ccbc"},"vehicle_type_id":"4","last_reported":1719328087,"current_range_meters":16800,"station_id":"","pricing_plan_id":"cebpf4jnsgd1na2vs0mg"},{"bike_id":"aa527c2c-31a5-479b-bfbe-daae0d9bb514","system_id":"levelo_inurba_marseille","lat":43.337386,"lon":5.37466,"is_reserved":false,"is_disabled":false,"rental_uris":{"android":"levelo://app?vid=aa527c2c-31a5-479b-bfbe-daae0d9bb514","ios":"levelo://app?vid=aa527c2c-31a5-479b-bfbe-daae0d9bb514"},"vehicle_type_id":"0","last_reported":1719328087,"current_range_meters":13200,"station_id":"","pricing_plan_id":"cebpf4jnsgd1na2vs0mg"},{"bike_id":"bd9a6c26-2db3-4e30-92c7-c85ae97147aa","system_id":"levelo_inurba_marseille","lat":43.3374,"lon":5.37465,"is_reserved":false,"is_disabled":false,"rental_uris":{"android":"levelo://app?vid=bd9a6c26-2db3-4e30-92c7-c85ae97147aa","ios":"levelo://app?vid=bd9a6c26-2db3-4e30-92c7-c85ae97147aa"},"vehicle_type_id":"0","last_reported":1719328087,"current_range_meters":25600,"station_id":"","pricing_plan_id":"cebpf4jnsgd1na2vs0mg"},{"bike_id":"bf709b1a-1e81-4c69-a36a-dfef45d67fee","system_id":"levelo_inurba_marseille","lat":43.3374,"lon":5.374686,"is_reserved":false,"is_disabled":false,"rental_uris":{"android":"levelo://app?vid=bf709b1a-1e81-4c69-a36a-dfef45d67fee","ios":"levelo://app?vid=bf709b1a-1e81-4c69-a36a-dfef45d67fee"},"vehicle_type_id":"4","last_reported":1719328087,"current_range_meters":23200,"station_id":"","pricing_plan_id":"cebpf4jnsgd1na2vs0mg"},{"bike_id":"985eda3a-8205-4c72-8b0d-a44593dd15b5","system_id":"levelo_inurba_marseille","lat":43.3374,"lon":5.37469,"is_reserved":false,"is_disabled":false,"rental_uris":{"android":"levelo://app?vid=985eda3a-8205-4c72-8b0d-a44593dd15b5","ios":"levelo://app?vid=985eda3a-8205-4c72-8b0d-a44593dd15b5"},"vehicle_type_id":"0","last_reported":1719328087,"current_range_meters":16400,"station_id":"","pricing_plan_id":"cebpf4jnsgd1na2vs0mg"},{"bike_id":"cbff8e2e-87ad-4d9e-a09d-9b1fba1c0aeb","system_id":"levelo_inurba_marseille","lat":43.337401,"lon":5.374686,"is_reserved":false,"is_disabled":false,"rental_uris":{"android":"levelo://app?vid=cbff8e2e-87ad-4d9e-a09d-9b1fba1c0aeb","ios":"levelo://app?vid=cbff8e2e-87ad-4d9e-a09d-9b1fba1c0aeb"},"vehicle_type_id":"0","last_reported":1719328087,"current_range_meters":22800,"station_id":"","pricing_plan_id":"cebpf4jnsgd1na2vs0mg"},{"bike_id":"b5cc1177-cbef-4387-98e7-c921d431c937","system_id":"levelo_inurba_marseille","lat":43.33743,"lon":5.37462,"is_reserved":false,"is_disabled":false,"rental_uris":{"android":"levelo://app?vid=b5cc1177-cbef-4387-98e7-c921d431c937","ios":"levelo://app?vid=b5cc1177-cbef-4387-98e7-c921d431c937"},"vehicle_type_id":"4","last_reported":1719328087,"current_range_meters":28800,"station_id":"","pricing_plan_id":"cebpf4jnsgd1na2vs0mg"},{"bike_id":"7f0915e3-0f0e-444a-a3d8-e06053d05a61","system_id":"levelo_inurba_marseille","lat":43.309371,"lon":5.401449,"is_reserved":false,"is_disabled":false,"rental_uris":{"android":"levelo://app?vid=7f0915e3-0f0e-444a-a3d8-e06053d05a61","ios":"levelo://app?vid=7f0915e3-0f0e-444a-a3d8-e06053d05a61"},"vehicle_type_id":"4","last_reported":1719328087,"current_range_meters":14800,"station_id":"ce4bgvp2rcd13ifvqct0","pricing_plan_id":"cebpf4jnsgd1na2vs0mg"},{"bike_id":"019ec7c1-58ab-4742-a711-68b6434a1582","system_id":"levelo_inurba_marseille","lat":43.337463,"lon":5.374537,"is_reserved":false,"is_disabled":false,"rental_uris":{"android":"levelo://app?vid=019ec7c1-58ab-4742-a711-68b6434a1582","ios":"levelo://app?vid=019ec7c1-58ab-4742-a711-68b6434a1582"},"vehicle_type_id":"4","last_reported":1719328087,"current_range_meters":31200,"station_id":"","pricing_plan_id":"cebpf4jnsgd1na2vs0mg"},{"bike_id":"2a0fb516-a307-4861-b129-104556c40f00","system_id":"levelo_inurba_marseille","lat":43.337449,"lon":5.374659,"is_reserved":false,"is_disabled":false,"rental_uris":{"android":"levelo://app?vid=2a0fb516-a307-4861-b129-104556c40f00","ios":"levelo://app?vid=2a0fb516-a307-4861-b129-104556c40f00"},"vehicle_type_id":"0","last_reported":1719328087,"current_range_meters":14800,"station_id":"","pricing_plan_id":"cebpf4jnsgd1na2vs0mg"},{"bike_id":"5bedf8b5-0cf4-4cb7-97c9-e26757e8a278","system_id":"levelo_inurba_marseille","lat":43.309371,"lon":5.401449,"is_reserved":false,"is_disabled":false,"rental_uris":{"android":"levelo://app?vid=5bedf8b5-0cf4-4cb7-97c9-e26757e8a278","ios":"levelo://app?vid=5bedf8b5-0cf4-4cb7-97c9-e26757e8a278"},"vehicle_type_id":"4","last_reported":1719328087,"current_range_meters":14400,"station_id":"ce4bgvp2rcd13ifvqct0","pricing_plan_id":"cebpf4jnsgd1na2vs0mg"},{"bike_id":"f699742f-4e78-4533-808d-9acbd5886502","system_id":"levelo_inurba_marseille","lat":43.312609,"lon":5.401662,"is_reserved":false,"is_disabled":false,"rental_uris":{"android":"levelo://app?vid=f699742f-4e78-4533-808d-9acbd5886502","ios":"levelo://app?vid=f699742f-4e78-4533-808d-9acbd5886502"},"vehicle_type_id":"4","last_reported":1719328087,"current_range_meters":6000,"station_id":"ce4bh092rcd13ifvqd30","pricing_plan_id":"cebpf4jnsgd1na2vs0mg"},{"bike_id":"4900c57a-dd3d-4986-9ca7-00d281ad7e52","system_id":"levelo_inurba_marseille","lat":43.33754,"lon":5.37438,"is_reserved":false,"is_disabled":false,"rental_uris":{"android":"levelo://app?vid=4900c57a-dd3d-4986-9ca7-00d281ad7e52","ios":"levelo://app?vid=4900c57a-dd3d-4986-9ca7-00d281ad7e52"},"vehicle_type_id":"4","last_reported":1719328087,"current_range_meters":28000,"station_id":"","pricing_plan_id":"cebpf4jnsgd1na2vs0mg"},{"bike_id":"9835cffd-7508-4695-876c-b16b50493f08","system_id":"levelo_inurba_marseille","lat":43.309371,"lon":5.401449,"is_reserved":false,"is_disabled":false,"rental_uris":{"android":"levelo://app?vid=9835cffd-7508-4695-876c-b16b50493f08","ios":"levelo://app?vid=9835cffd-7508-4695-876c-b16b50493f08"},"vehicle_type_id":"4","last_reported":1719328087,"current_range_meters":21200,"station_id":"ce4bgvp2rcd13ifvqct0","pricing_plan_id":"cebpf4jnsgd1na2vs0mg"},{"bike_id":"f867320b-b3ee-4d44-8ef3-37d72db21942","system_id":"levelo_inurba_marseille","lat":43.33754,"lon":5.37456,"is_reserved":false,"is_disabled":false,"rental_uris":{"android":"levelo://app?vid=f867320b-b3ee-4d44-8ef3-37d72db21942","ios":"levelo://app?vid=f867320b-b3ee-4d44-8ef3-37d72db21942"},"vehicle_type_id":"4","last_reported":1719328087,"current_range_meters":26000,"station_id":"","pricing_plan_id":"cebpf4jnsgd1na2vs0mg"},{"bike_id":"65f212bd-3201-49b5-a7bf-9b78f89a86cd","system_id":"levelo_inurba_marseille","lat":43.306412,"lon":5.401035,"is_reserved":false,"is_disabled":false,"rental_uris":{"android":"levelo://app?vid=65f212bd-3201-49b5-a7bf-9b78f89a86cd","ios":"levelo://app?vid=65f212bd-3201-49b5-a7bf-9b78f89a86cd"},"vehicle_type_id":"4","last_reported":1719328087,"current_range_meters":800,"station_id":"ce4bh112rcd13ifvqda0","pricing_plan_id":"cebpf4jnsgd1na2vs0mg"},{"bike_id":"d5347456-f2ee-4cbc-8e09-0a71158875a1","system_id":"levelo_inurba_marseille","lat":43.33767,"lon":5.37474,"is_reserved":false,"is_disabled":false,"rental_uris":{"android":"levelo://app?vid=d5347456-f2ee-4cbc-8e09-0a71158875a1","ios":"levelo://app?vid=d5347456-f2ee-4cbc-8e09-0a71158875a1"},"vehicle_type_id":"4","last_reported":1719328087,"current_range_meters":30800,"station_id":"","pricing_plan_id":"cebpf4jnsgd1na2vs0mg"},{"bike_id":"7cccced8-0693-4a25-89d6-1443a5e1c984","system_id":"levelo_inurba_marseille","lat":43.33768,"lon":5.37469,"is_reserved":false,"is_disabled":false,"rental_uris":{"android":"levelo://app?vid=7cccced8-0693-4a25-89d6-1443a5e1c984","ios":"levelo://app?vid=7cccced8-0693-4a25-89d6-1443a5e1c984"},"vehicle_type_id":"4","last_reported":1719328087,"current_range_meters":28800,"station_id":"","pricing_plan_id":"cebpf4jnsgd1na2vs0mg"},{"bike_id":"39b125b2-f01c-4f66-ad12-e6f166ee13b4","system_id":"levelo_inurba_marseille","lat":43.30642,"lon":5.401031,"is_reserved":false,"is_disabled":false,"rental_uris":{"android":"levelo://app?vid=39b125b2-f01c-4f66-ad12-e6f166ee13b4","ios":"levelo://app?vid=39b125b2-f01c-4f66-ad12-e6f166ee13b4"},"vehicle_type_id":"4","last_reported":1719328087,"current_range_meters":11200,"station_id":"ce4bh112rcd13ifvqda0","pricing_plan_id":"cebpf4jnsgd1na2vs0mg"},{"bike_id":"19c239d3-5a4b-4aff-8085-66266dba085d","system_id":"levelo_inurba_marseille","lat":43.33769,"lon":5.374793,"is_reserved":false,"is_disabled":false,"rental_uris":{"android":"levelo://app?vid=19c239d3-5a4b-4aff-8085-66266dba085d","ios":"levelo://app?vid=19c239d3-5a4b-4aff-8085-66266dba085d"},"vehicle_type_id":"4","last_reported":1719328087,"current_range_meters":31200,"station_id":"","pricing_plan_id":"cebpf4jnsgd1na2vs0mg"},{"bike_id":"3796bc99-13f5-4dbe-9fb4-71886a3e925b","system_id":"levelo_inurba_marseille","lat":43.301117,"lon":5.398795,"is_reserved":false,"is_disabled":false,"rental_uris":{"android":"levelo://app?vid=3796bc99-13f5-4dbe-9fb4-71886a3e925b","ios":"levelo://app?vid=3796bc99-13f5-4dbe-9fb4-71886a3e925b"},"vehicle_type_id":"4","last_reported":1719328087,"current_range_meters":24400,"station_id":"ce4bh0h2rcd13ifvqd40","pricing_plan_id":"cebpf4jnsgd1na2vs0mg"},{"bike_id":"cdfd4048-398b-4e9a-8d51-cd990d7707d5","system_id":"levelo_inurba_marseille","lat":43.301117,"lon":5.398795,"is_reserved":false,"is_disabled":false,"rental_uris":{"android":"levelo://app?vid=cdfd4048-398b-4e9a-8d51-cd990d7707d5","ios":"levelo://app?vid=cdfd4048-398b-4e9a-8d51-cd990d7707d5"},"vehicle_type_id":"4","last_reported":1719328087,"current_range_meters":400,"station_id":"ce4bh0h2rcd13ifvqd40","pricing_plan_id":"cebpf4jnsgd1na2vs0mg"},{"bike_id":"c51c2f72-bc89-4c30-9af9-ce7e962d6724","system_id":"levelo_inurba_marseille","lat":43.28727,"lon":5.36078,"is_reserved":false,"is_disabled":false,"rental_uris":{"android":"levelo://app?vid=c51c2f72-bc89-4c30-9af9-ce7e962d6724","ios":"levelo://app?vid=c51c2f72-bc89-4c30-9af9-ce7e962d6724"},"vehicle_type_id":"4","last_reported":1719328087,"current_range_meters":28400,"station_id":"cki0cbj6b192h4jlfktg","pricing_plan_id":"cebpf4jnsgd1na2vs0mg"},{"bike_id":"4089c64c-ea42-46dc-8ea1-11e8c972701b","system_id":"levelo_inurba_marseille","lat":43.286591,"lon":5.363346,"is_reserved":false,"is_disabled":false,"rental_uris":{"android":"levelo://app?vid=4089c64c-ea42-46dc-8ea1-11e8c972701b","ios":"levelo://app?vid=4089c64c-ea42-46dc-8ea1-11e8c972701b"},"vehicle_type_id":"4","last_reported":1719328087,"current_range_meters":28000,"station_id":"ce4bhah2rcd13ifvqej0","pricing_plan_id":"cebpf4jnsgd1na2vs0mg"},{"bike_id":"4ee4ae3f-40bf-49e1-ba20-03a78a09dc69","system_id":"levelo_inurba_marseille","lat":43.295196,"lon":5.39397,"is_reserved":false,"is_disabled":false,"rental_uris":{"android":"levelo://app?vid=4ee4ae3f-40bf-49e1-ba20-03a78a09dc69","ios":"levelo://app?vid=4ee4ae3f-40bf-49e1-ba20-03a78a09dc69"},"vehicle_type_id":"4","last_reported":1719328087,"current_range_meters":16800,"station_id":"ce4bh292rcd13ifvqdf0","pricing_plan_id":"cebpf4jnsgd1na2vs0mg"},{"bike_id":"e8c910a4-4507-457c-b831-f190f4a33740","system_id":"levelo_inurba_marseille","lat":43.298681,"lon":5.397225,"is_reserved":false,"is_disabled":false,"rental_uris":{"android":"levelo://app?vid=e8c910a4-4507-457c-b831-f190f4a33740","ios":"levelo://app?vid=e8c910a4-4507-457c-b831-f190f4a33740"},"vehicle_type_id":"4","last_reported":1719328087,"current_range_meters":0,"station_id":"ce4bh0h2rcd13ifvqd50","pricing_plan_id":"cebpf4jnsgd1na2vs0mg"},{"bike_id":"1c390597-40d4-44c6-8626-f24a1a52d3f1","system_id":"levelo_inurba_marseille","lat":43.286593,"lon":5.363346,"is_reserved":false,"is_disabled":false,"rental_uris":{"android":"levelo://app?vid=1c390597-40d4-44c6-8626-f24a1a52d3f1","ios":"levelo://app?vid=1c390597-40d4-44c6-8626-f24a1a52d3f1"},"vehicle_type_id":"4","last_reported":1719328087,"current_range_meters":16400,"station_id":"ce4bhah2rcd13ifvqej0","pricing_plan_id":"cebpf4jnsgd1na2vs0mg"},{"bike_id":"b7b5fc6a-2ba2-489b-a832-07b2dddc688b","system_id":"levelo_inurba_marseille","lat":43.28697,"lon":5.37395,"is_reserved":false,"is_disabled":false,"rental_uris":{"android":"levelo://app?vid=b7b5fc6a-2ba2-489b-a832-07b2dddc688b","ios":"levelo://app?vid=b7b5fc6a-2ba2-489b-a832-07b2dddc688b"},"vehicle_type_id":"4","last_reported":1719328087,"current_range_meters":0,"station_id":"ce4bh3p2rcd13ifvqdq0","pricing_plan_id":"cebpf4jnsgd1na2vs0mg"},{"bike_id":"f8eb1334-7141-4d21-9550-3c74b4a57db6","system_id":"levelo_inurba_marseille","lat":43.295194,"lon":5.39397,"is_reserved":false,"is_disabled":false,"rental_uris":{"android":"levelo://app?vid=f8eb1334-7141-4d21-9550-3c74b4a57db6","ios":"levelo://app?vid=f8eb1334-7141-4d21-9550-3c74b4a57db6"},"vehicle_type_id":"4","last_reported":1719328087,"current_range_meters":0,"station_id":"ce4bh292rcd13ifvqdf0","pricing_plan_id":"cebpf4jnsgd1na2vs0mg"},{"bike_id":"37cbf561-7c5b-40de-9346-5a6247e2e9f1","system_id":"levelo_inurba_marseille","lat":43.302759,"lon":5.400793,"is_reserved":false,"is_disabled":false,"rental_uris":{"android":"levelo://app?vid=37cbf561-7c5b-40de-9346-5a6247e2e9f1","ios":"levelo://app?vid=37cbf561-7c5b-40de-9346-5a6247e2e9f1"},"vehicle_type_id":"4","last_reported":1719328087,"current_range_meters":28400,"station_id":"ce4bgvh2rcd13ifvqcs0","pricing_plan_id":"cebpf4jnsgd1na2vs0mg"},{"bike_id":"e728c9ee-604d-46b1-ba0e-4e7dc4a9e6d9","system_id":"levelo_inurba_marseille","lat":43.290345,"lon":5.38646,"is_reserved":false,"is_disabled":false,"rental_uris":{"android":"levelo://app?vid=e728c9ee-604d-46b1-ba0e-4e7dc4a9e6d9","ios":"levelo://app?vid=e728c9ee-604d-46b1-ba0e-4e7dc4a9e6d9"},"vehicle_type_id":"4","last_reported":1719328087,"current_range_meters":21200,"station_id":"ce4bh4p2rcd13ifvqe0g","pricing_plan_id":"cebpf4jnsgd1na2vs0mg"},{"bike_id":"4cde432b-d8a0-4df5-ba9e-2b65dfdf5668","system_id":"levelo_inurba_marseille","lat":43.302759,"lon":5.400793,"is_reserved":false,"is_disabled":false,"rental_uris":{"android":"levelo://app?vid=4cde432b-d8a0-4df5-ba9e-2b65dfdf5668","ios":"levelo://app?vid=4cde432b-d8a0-4df5-ba9e-2b65dfdf5668"},"vehicle_type_id":"4","last_reported":1719328087,"current_range_meters":19600,"station_id":"ce4bgvh2rcd13ifvqcs0","pricing_plan_id":"cebpf4jnsgd1na2vs0mg"},{"bike_id":"735d6cf7-8f46-4230-be08-05866321304a","system_id":"levelo_inurba_marseille","lat":43.290345,"lon":5.38646,"is_reserved":false,"is_disabled":false,"rental_uris":{"android":"levelo://app?vid=735d6cf7-8f46-4230-be08-05866321304a","ios":"levelo://app?vid=735d6cf7-8f46-4230-be08-05866321304a"},"vehicle_type_id":"4","last_reported":1719328087,"current_range_meters":27200,"station_id":"ce4bh4p2rcd13ifvqe0g","pricing_plan_id":"cebpf4jnsgd1na2vs0mg"},{"bike_id":"24f365a3-2774-4394-9ab7-cc0b82900470","system_id":"levelo_inurba_marseille","lat":43.286039,"lon":5.370681,"is_reserved":false,"is_disabled":false,"rental_uris":{"android":"levelo://app?vid=24f365a3-2774-4394-9ab7-cc0b82900470","ios":"levelo://app?vid=24f365a3-2774-4394-9ab7-cc0b82900470"},"vehicle_type_id":"4","last_reported":1719328087,"current_range_meters":8400,"station_id":"ce4bht12rcd13ifvqi60","pricing_plan_id":"cebpf4jnsgd1na2vs0mg"},{"bike_id":"88c718ca-7d3c-42f1-8583-d1641f36c3d6","system_id":"levelo_inurba_marseille","lat":43.286039,"lon":5.370681,"is_reserved":false,"is_disabled":false,"rental_uris":{"android":"levelo://app?vid=88c718ca-7d3c-42f1-8583-d1641f36c3d6","ios":"levelo://app?vid=88c718ca-7d3c-42f1-8583-d1641f36c3d6"},"vehicle_type_id":"4","last_reported":1719328087,"current_range_meters":23600,"station_id":"ce4bht12rcd13ifvqi60","pricing_plan_id":"cebpf4jnsgd1na2vs0mg"},{"bike_id":"0f43c72f-591c-40e9-b85b-ff1a9e1fa5a6","system_id":"levelo_inurba_marseille","lat":43.286039,"lon":5.370679,"is_reserved":false,"is_disabled":false,"rental_uris":{"android":"levelo://app?vid=0f43c72f-591c-40e9-b85b-ff1a9e1fa5a6","ios":"levelo://app?vid=0f43c72f-591c-40e9-b85b-ff1a9e1fa5a6"},"vehicle_type_id":"4","last_reported":1719328087,"current_range_meters":16000,"station_id":"ce4bht12rcd13ifvqi60","pricing_plan_id":"cebpf4jnsgd1na2vs0mg"},{"bike_id":"b4663a68-a910-4316-8beb-757d40cc64c9","system_id":"levelo_inurba_marseille","lat":43.286039,"lon":5.370681,"is_reserved":false,"is_disabled":false,"rental_uris":{"android":"levelo://app?vid=b4663a68-a910-4316-8beb-757d40cc64c9","ios":"levelo://app?vid=b4663a68-a910-4316-8beb-757d40cc64c9"},"vehicle_type_id":"4","last_reported":1719328087,"current_range_meters":14000,"station_id":"ce4bht12rcd13ifvqi60","pricing_plan_id":"cebpf4jnsgd1na2vs0mg"},{"bike_id":"381b3393-3e5c-4214-9161-8c4fbdc52c89","system_id":"levelo_inurba_marseille","lat":43.316828,"lon":5.404723,"is_reserved":false,"is_disabled":false,"rental_uris":{"android":"levelo://app?vid=381b3393-3e5c-4214-9161-8c4fbdc52c89","ios":"levelo://app?vid=381b3393-3e5c-4214-9161-8c4fbdc52c89"},"vehicle_type_id":"4","last_reported":1719328087,"current_range_meters":24000,"station_id":"ce4bh012rcd13ifvqd00","pricing_plan_id":"cebpf4jnsgd1na2vs0mg"},{"bike_id":"f0d17678-1847-4b97-95a6-66726b3faa1e","system_id":"levelo_inurba_marseille","lat":43.316828,"lon":5.404723,"is_reserved":false,"is_disabled":false,"rental_uris":{"android":"levelo://app?vid=f0d17678-1847-4b97-95a6-66726b3faa1e","ios":"levelo://app?vid=f0d17678-1847-4b97-95a6-66726b3faa1e"},"vehicle_type_id":"4","last_reported":1719328087,"current_range_meters":18400,"station_id":"ce4bh012rcd13ifvqd00","pricing_plan_id":"cebpf4jnsgd1na2vs0mg"},{"bike_id":"603c8a61-7be7-4952-b7b0-06871f838156","system_id":"levelo_inurba_marseille","lat":43.31687,"lon":5.40475,"is_reserved":false,"is_disabled":false,"rental_uris":{"android":"levelo://app?vid=603c8a61-7be7-4952-b7b0-06871f838156","ios":"levelo://app?vid=603c8a61-7be7-4952-b7b0-06871f838156"},"vehicle_type_id":"4","last_reported":1719328087,"current_range_meters":10000,"station_id":"ce4bh012rcd13ifvqd00","pricing_plan_id":"cebpf4jnsgd1na2vs0mg"},{"bike_id":"7b5390b8-d1c0-48e6-9575-3902ce5b1345","system_id":"levelo_inurba_marseille","lat":43.316828,"lon":5.404723,"is_reserved":false,"is_disabled":false,"rental_uris":{"android":"levelo://app?vid=7b5390b8-d1c0-48e6-9575-3902ce5b1345","ios":"levelo://app?vid=7b5390b8-d1c0-48e6-9575-3902ce5b1345"},"vehicle_type_id":"4","last_reported":1719328087,"current_range_meters":18000,"station_id":"ce4bh012rcd13ifvqd00","pricing_plan_id":"cebpf4jnsgd1na2vs0mg"},{"bike_id":"813df244-6b43-4385-9a63-9c0e1c4301ab","system_id":"levelo_inurba_marseille","lat":43.316821,"lon":5.404737,"is_reserved":false,"is_disabled":false,"rental_uris":{"android":"levelo://app?vid=813df244-6b43-4385-9a63-9c0e1c4301ab","ios":"levelo://app?vid=813df244-6b43-4385-9a63-9c0e1c4301ab"},"vehicle_type_id":"4","last_reported":1719328087,"current_range_meters":19600,"station_id":"ce4bh012rcd13ifvqd00","pricing_plan_id":"cebpf4jnsgd1na2vs0mg"},{"bike_id":"5bb44214-4cbe-4f9c-8ece-616088b2fd85","system_id":"levelo_inurba_marseille","lat":43.316821,"lon":5.404737,"is_reserved":false,"is_disabled":false,"rental_uris":{"android":"levelo://app?vid=5bb44214-4cbe-4f9c-8ece-616088b2fd85","ios":"levelo://app?vid=5bb44214-4cbe-4f9c-8ece-616088b2fd85"},"vehicle_type_id":"4","last_reported":1719328087,"current_range_meters":13600,"station_id":"ce4bh012rcd13ifvqd00","pricing_plan_id":"cebpf4jnsgd1na2vs0mg"},{"bike_id":"3f68a1dd-4c6c-4e55-a4fd-7f7570560e4d","system_id":"levelo_inurba_marseille","lat":43.291994,"lon":5.392907,"is_reserved":false,"is_disabled":false,"rental_uris":{"android":"levelo://app?vid=3f68a1dd-4c6c-4e55-a4fd-7f7570560e4d","ios":"levelo://app?vid=3f68a1dd-4c6c-4e55-a4fd-7f7570560e4d"},"vehicle_type_id":"4","last_reported":1719328087,"current_range_meters":29200,"station_id":"ce4bh192rcd13ifvqdd0","pricing_plan_id":"cebpf4jnsgd1na2vs0mg"},{"bike_id":"a537edd6-0743-439c-b36d-718edea320c8","system_id":"levelo_inurba_marseille","lat":43.291994,"lon":5.392907,"is_reserved":false,"is_disabled":false,"rental_uris":{"android":"levelo://app?vid=a537edd6-0743-439c-b36d-718edea320c8","ios":"levelo://app?vid=a537edd6-0743-439c-b36d-718edea320c8"},"vehicle_type_id":"4","last_reported":1719328087,"current_range_meters":2400,"station_id":"ce4bh192rcd13ifvqdd0","pricing_plan_id":"cebpf4jnsgd1na2vs0mg"},{"bike_id":"7efd5c88-5291-4893-8f5e-642bca7b27f1","system_id":"levelo_inurba_marseille","lat":43.291994,"lon":5.392907,"is_reserved":false,"is_disabled":false,"rental_uris":{"android":"levelo://app?vid=7efd5c88-5291-4893-8f5e-642bca7b27f1","ios":"levelo://app?vid=7efd5c88-5291-4893-8f5e-642bca7b27f1"},"vehicle_type_id":"4","last_reported":1719328087,"current_range_meters":16800,"station_id":"ce4bh192rcd13ifvqdd0","pricing_plan_id":"cebpf4jnsgd1na2vs0mg"},