{"last_updated":1730899006,"ttl":60,"version":"2.2","data":{"bikes":[{"bike_id":"fedc9081-229c-486d-ab3c-96a02eb22c46","system_id":"levelo_inurba_marseille","lat":43.30142,"lon":5.37411,"is_reserved":false,"is_disabled":false,"rental_uris":{"android":"levelo://app?vid=fedc9081-229c-486d-ab3c-96a02eb22c46","ios":"levelo://app?vid=fedc9081-229c-486d-ab3c-96a02eb22c46"},"vehicle_type_id":"4","last_reported":1730899006,"current_range_meters":22400,"station_id":"ce4bgs92rcd13ifvqcc0","pricing_plan_id":"cebpf4jnsgd1na2vs0mg"},{"bike_id":"7ae96026-45f8-4be1-a705-40a234940d94","system_id":"levelo_inurba_marseille","lat":43.28001,"lon":5.40003,"is_reserved":false,"is_disabled":false,"rental_uris":{"android":"levelo://app?vid=7ae96026-45f8-4be1-a705-40a234940d94","ios":"levelo://app?vid=7ae96026-45f8-4be1-a705-40a234940d94"},"vehicle_type_id":"4","last_reported":1730899006,"current_range_meters":38800,"station_id":"ce4bho92rcd13ifvqh4g","pricing_plan_id":"cebpf4jnsgd1na2vs0mg"},{"bike_id":"19df1608-2db4-4a64-8a9a-d0d9548fc94a","system_id":"levelo_inurba_marseille","lat":43.32103,"lon":5.36769,"is_reserved":false,"is_disabled":false,"rental_uris":{"android":"levelo://app?vid=19df1608-2db4-4a64-8a9a-d0d9548fc94a","ios":"levelo://app?vid=19df1608-2db4-4a64-8a9a-d0d9548fc94a"},"vehicle_type_id":"4","last_reported":1730899006,"current_range_meters":5600,"station_id":"ce4bhrh2rcd13ifvqhug","pricing_plan_id":"cebpf4jnsgd1na2vs0mg"},{"bike_id":"1bd060f7-43b5-475a-98cf-06aa747e2916","system_id":"levelo_inurba_marseille","lat":43.27439,"lon":5.39409,"is_reserved":false,"is_disabled":false,"rental_uris":{"android":"levelo://app?vid=1bd060f7-43b5-475a-98cf-06aa747e2916","ios":"levelo://app?vid=1bd060f7-43b5-475a-98cf-06aa747e2916"},"vehicle_type_id":"4","last_reported":1730899006,"current_range_meters":24800,"station_id":"ce4bhdp2rcd13ifvqf20","pricing_plan_id":"cebpf4jnsgd1na2vs0mg"},{"bike_id":"bc869811-1aad-4ece-b858-9965c373b037","system_id":"levelo_inurba_marseille","lat":43.23125,"lon":5.43714,"is_reserved":false,"is_disabled":false,"rental_uris":{"android":"levelo://app?vid=bc869811-1aad-4ece-b858-9965c373b037","ios":"levelo://app?vid=bc869811-1aad-4ece-b858-9965c373b037"},"vehicle_type_id":"4","last_reported":1730899006,"current_range_meters":36400,"station_id":"ce4bhmp2rcd13ifvqgog","pricing_plan_id":"cebpf4jnsgd1na2vs0mg"},{"bike_id":"ba12822a-1423-429c-ba5e-4a214c4a0dd5","system_id":"levelo_inurba_marseille","lat":43.25856,"lon":5.399,"is_reserved":false,"is_disabled":false,"rental_uris":{"android":"levelo://app?vid=ba12822a-1423-429c-ba5e-4a214c4a0dd5","ios":"levelo://app?vid=ba12822a-1423-429c-ba5e-4a214c4a0dd5"},"vehicle_type_id":"4","last_reported":1730899006,"current_range_meters":36400,"station_id":"ce4bhl92rcd13ifvqghg","pricing_plan_id":"cebpf4jnsgd1na2vs0mg"},{"bike_id":"eee6a210-68ad-4c56-881c-8e3a55c4368c","system_id":"levelo_inurba_marseille","lat":43.30595,"lon":5.39353,"is_reserved":false,"is_disabled":false,"rental_uris":{"android":"levelo://app?vid=eee6a210-68ad-4c56-881c-8e3a55c4368c","ios":"levelo://app?vid=eee6a210-68ad-4c56-881c-8e3a55c4368c"},"vehicle_type_id":"4","last_reported":1730899006,"current_range_meters":32000,"station_id":"ce4bh0p2rcd13ifvqd80","pricing_plan_id":"cebpf4jnsgd1na2vs0mg"},{"bike_id":"129c6957-063f-439b-8ae2-0294d13850ae","system_id":"levelo_inurba_marseille","lat":43.285309,"lon":5.350466,"is_reserved":false,"is_disabled":false,"rental_uris":{"android":"levelo://app?vid=129c6957-063f-439b-8ae2-0294d13850ae","ios":"levelo://app?vid=129c6957-063f-439b-8ae2-0294d13850ae"},"vehicle_type_id":"4","last_reported":1730899006,"current_range_meters":26000,"station_id":"ce4bgn12rcd13ifvqbt0","pricing_plan_id":"cebpf4jnsgd1na2vs0mg"},{"bike_id":"132a7490-b2ca-43dc-ac45-97330026ed9a","system_id":"levelo_inurba_marseille","lat":43.28727,"lon":5.36086,"is_reserved":false,"is_disabled":false,"rental_uris":{"android":"levelo://app?vid=132a7490-b2ca-43dc-ac45-97330026ed9a","ios":"levelo://app?vid=132a7490-b2ca-43dc-ac45-97330026ed9a"},"vehicle_type_id":"4","last_reported":1730899006,"current_range_meters":39200,"station_id":"cki0cbj6b192h4jlfktg","pricing_plan_id":"cebpf4jnsgd1na2vs0mg"},{"bike_id":"aaf896be-23fc-4cde-b212-d643c208e7c1","system_id":"levelo_inurba_marseille","lat":43.30422,"lon":5.41289,"is_reserved":false,"is_disabled":false,"rental_uris":{"android":"levelo://app?vid=aaf896be-23fc-4cde-b212-d643c208e7c1","ios":"levelo://app?vid=aaf896be-23fc-4cde-b212-d643c208e7c1"},"vehicle_type_id":"4","last_reported":1730899006,"current_range_meters":37600,"station_id":"ce4bhop2rcd13ifvqh8g","pricing_plan_id":"cebpf4jnsgd1na2vs0mg"},{"bike_id":"538af67c-9caf-4f91-a409-0a8795829c40","system_id":"levelo_inurba_marseille","lat":43.24808,"lon":5.37462,"is_reserved":false,"is_disabled":false,"rental_uris":{"android":"levelo://app?vid=538af67c-9caf-4f91-a409-0a8795829c40","ios":"levelo://app?vid=538af67c-9caf-4f91-a409-0a8795829c40"},"vehicle_type_id":"4","last_reported":1730899006,"current_range_meters":32400,"station_id":"ce4bhgh2rcd13ifvqfb0","pricing_plan_id":"cebpf4jnsgd1na2vs0mg"},{"bike_id":"72efadbb-bf11-43ff-96cf-c421a3f198ee","system_id":"levelo_inurba_marseille","lat":43.27618,"lon":5.36108,"is_reserved":false,"is_disabled":false,"rental_uris":{"android":"levelo://app?vid=72efadbb-bf11-43ff-96cf-c421a3f198ee","ios":"levelo://app?vid=72efadbb-bf11-43ff-96cf-c421a3f198ee"},"vehicle_type_id":"4","last_reported":1730899006,"current_range_meters":16000,"station_id":"ce4bgj92rcd13ifvqbe0","pricing_plan_id":"cebpf4jnsgd1na2vs0mg"},{"bike_id":"3e44a259-abe4-4226-9633-ae30cd00b80d","system_id":"levelo_inurba_marseille","lat":43.30803,"lon":5.38155,"is_reserved":false,"is_disabled":false,"rental_uris":{"android":"levelo://app?vid=3e44a259-abe4-4226-9633-ae30cd00b80d","ios":"levelo://app?vid=3e44a259-abe4-4226-9633-ae30cd00b80d"},"vehicle_type_id":"4","last_reported":1730899006,"current_range_meters":36800,"station_id":"ce4bgt12rcd13ifvqce0","pricing_plan_id":"cebpf4jnsgd1na2vs0mg"},{"bike_id":"898302b0-5824-4b78-8ff3-b364b8983bee","system_id":"levelo_inurba_marseille","lat":43.28935,"lon":5.36633,"is_reserved":false,"is_disabled":false,"rental_uris":{"android":"levelo://app?vid=898302b0-5824-4b78-8ff3-b364b8983bee","ios":"levelo://app?vid=898302b0-5824-4b78-8ff3-b364b8983bee"},"vehicle_type_id":"4","last_reported":1730899006,"current_range_meters":38400,"station_id":"ce4bhap2rcd13ifvqek0","pricing_plan_id":"cebpf4jnsgd1na2vs0mg"},{"bike_id":"8af378d1-5bc4-457f-9470-74e88c52bda7","system_id":"levelo_inurba_marseille","lat":43.31995,"lon":5.38168,"is_reserved":false,"is_disabled":false,"rental_uris":{"android":"levelo://app?vid=8af378d1-5bc4-457f-9470-74e88c52bda7","ios":"levelo://app?vid=8af378d1-5bc4-457f-9470-74e88c52bda7"},"vehicle_type_id":"4","last_reported":1730899006,"current_range_meters":13600,"station_id":"ce4bhr12rcd13ifvqhpg","pricing_plan_id":"cebpf4jnsgd1na2vs0mg"},{"bike_id":"f6ed0561-68ae-498d-8379-7c031d7444cb","system_id":"levelo_inurba_marseille","lat":43.30759,"lon":5.39246,"is_reserved":false,"is_disabled":false,"rental_uris":{"android":"levelo://app?vid=f6ed0561-68ae-498d-8379-7c031d7444cb","ios":"levelo://app?vid=f6ed0561-68ae-498d-8379-7c031d7444cb"},"vehicle_type_id":"4","last_reported":1730899006,"current_range_meters":27200,"station_id":"ce4bgup2rcd13ifvqco0","pricing_plan_id":"cebpf4jnsgd1na2vs0mg"},{"bike_id":"b140672b-ae2d-4f5c-8060-0341618fb455","system_id":"levelo_inurba_marseille","lat":43.31327,"lon":5.39701,"is_reserved":false,"is_disabled":false,"rental_uris":{"android":"levelo://app?vid=b140672b-ae2d-4f5c-8060-0341618fb455","ios":"levelo://app?vid=b140672b-ae2d-4f5c-8060-0341618fb455"},"vehicle_type_id":"4","last_reported":1730899006,"current_range_meters":38800,"station_id":"ce4bgvp2rcd13ifvqcu0","pricing_plan_id":"cebpf4jnsgd1na2vs0mg"},{"bike_id":"b8d9b873-53c4-4592-85ca-ed6f5a7e6300","system_id":"levelo_inurba_marseille","lat":43.29637,"lon":5.40597,"is_reserved":false,"is_disabled":false,"rental_uris":{"android":"levelo://app?vid=b8d9b873-53c4-4592-85ca-ed6f5a7e6300","ios":"levelo://app?vid=b8d9b873-53c4-4592-85ca-ed6f5a7e6300"},"vehicle_type_id":"4","last_reported":1730899006,"current_range_meters":20400,"station_id":"ce4bh0h2rcd13ifvqd60","pricing_plan_id":"cebpf4jnsgd1na2vs0mg"},{"bike_id":"c3164add-6c50-4254-9aa2-3f9a96194cf7","system_id":"levelo_inurba_marseille","lat":43.30534,"lon":5.36534,"is_reserved":false,"is_disabled":false,"rental_uris":{"android":"levelo://app?vid=c3164add-6c50-4254-9aa2-3f9a96194cf7","ios":"levelo://app?vid=c3164add-6c50-4254-9aa2-3f9a96194cf7"},"vehicle_type_id":"4","last_reported":1730899006,"current_range_meters":9200,"station_id":"ce4bgs12rcd13ifvqcag","pricing_plan_id":"cebpf4jnsgd1na2vs0mg"},{"bike_id":"a213fa16-3a18-406f-b424-76f795b2c79a","system_id":"levelo_inurba_marseille","lat":43.30526,"lon":5.36698,"is_reserved":false,"is_disabled":false,"rental_uris":{"android":"levelo://app?vid=a213fa16-3a18-406f-b424-76f795b2c79a","ios":"levelo://app?vid=a213fa16-3a18-406f-b424-76f795b2c79a"},"vehicle_type_id":"4","last_reported":1730899006,"current_range_meters":34000,"station_id":"ce4bgrp2rcd13ifvqc9g","pricing_plan_id":"cebpf4jnsgd1na2vs0mg"},{"bike_id":"35cf71f5-f37e-4bbb-b151-04fa72375f7a","system_id":"levelo_inurba_marseille","lat":43.23149,"lon":5.43714,"is_reserved":false,"is_disabled":false,"rental_uris":{"android":"levelo://app?vid=35cf71f5-f37e-4bbb-b151-04fa72375f7a","ios":"levelo://app?vid=35cf71f5-f37e-4bbb-b151-04fa72375f7a"},"vehicle_type_id":"4","last_reported":1730899006,"current_range_meters":37600,"station_id":"ce4bhmp2rcd13ifvqgog","pricing_plan_id":"cebpf4jnsgd1na2vs0mg"},{"bike_id":"5c958c05-0b36-4b44-b755-410a66f37e37","system_id":"levelo_inurba_marseille","lat":43.30308,"lon":5.36896,"is_reserved":false,"is_disabled":false,"rental_uris":{"android":"levelo://app?vid=5c958c05-0b36-4b44-b755-410a66f37e37","ios":"levelo://app?vid=5c958c05-0b36-4b44-b755-410a66f37e37"},"vehicle_type_id":"4","last_reported":1730899006,"current_range_meters":38800,"station_id":"ce4bgqh2rcd13ifvqc5g","pricing_plan_id":"cebpf4jnsgd1na2vs0mg"},{"bike_id":"19a7f1e0-ebcd-46d1-8b7b-8fc932ebca02","system_id":"levelo_inurba_marseille","lat":43.29297,"lon":5.37477,"is_reserved":false,"is_disabled":false,"rental_uris":{"android":"levelo://app?vid=19a7f1e0-ebcd-46d1-8b7b-8fc932ebca02","ios":"levelo://app?vid=19a7f1e0-ebcd-46d1-8b7b-8fc932ebca02"},"vehicle_type_id":"4","last_reported":1730899006,"current_range_meters":8400,"station_id":"ce4bgi12rcd13ifvqb70","pricing_plan_id":"cebpf4jnsgd1na2vs0mg"},{"bike_id":"9c6ba9f5-3136-4d82-a605-496e15ba6ff1","system_id":"levelo_inurba_marseille","lat":43.263306,"lon":5.376691,"is_reserved":false,"is_disabled":false,"rental_uris":{"android":"levelo://app?vid=9c6ba9f5-3136-4d82-a605-496e15ba6ff1","ios":"levelo://app?vid=9c6ba9f5-3136-4d82-a605-496e15ba6ff1"},"vehicle_type_id":"4","last_reported":1730899006,"current_range_meters":25600,"station_id":"","pricing_plan_id":"cebpf4jnsgd1na2vs0mg"},{"bike_id":"7218581a-8154-4d65-9c43-4b988b9f366a","system_id":"levelo_inurba_marseille","lat":43.29974,"lon":5.3849,"is_reserved":false,"is_disabled":false,"rental_uris":{"android":"levelo://app?vid=7218581a-8154-4d65-9c43-4b988b9f366a","ios":"levelo://app?vid=7218581a-8154-4d65-9c43-4b988b9f366a"},"vehicle_type_id":"4","last_reported":1730899006,"current_range_meters":38000,"station_id":"ce4bgj92rcd13ifvqbd0","pricing_plan_id":"cebpf4jnsgd1na2vs0mg"},{"bike_id":"b5f01ca1-08a3-4b12-8a1e-5c3219f2f4c8","system_id":"levelo_inurba_marseille","lat":43.2781,"lon":5.40712,"is_reserved":false,"is_disabled":false,"rental_uris":{"android":"levelo://app?vid=b5f01ca1-08a3-4b12-8a1e-5c3219f2f4c8","ios":"levelo://app?vid=b5f01ca1-08a3-4b12-8a1e-5c3219f2f4c8"},"vehicle_type_id":"4","last_reported":1730899006,"current_range_meters":36000,"station_id":"ce4bhnh2rcd13ifvqgtg","pricing_plan_id":"cebpf4jnsgd1na2vs0mg"},{"bike_id":"c93282be-8611-4d56-9e5c-818c269fa8ad","system_id":"levelo_inurba_marseille","lat":43.27815,"lon":5.40713,"is_reserved":false,"is_disabled":false,"rental_uris":{"android":"levelo://app?vid=c93282be-8611-4d56-9e5c-818c269fa8ad","ios":"levelo://app?vid=c93282be-8611-4d56-9e5c-818c269fa8ad"},"vehicle_type_id":"4","last_reported":1730899006,"current_range_meters":22400,"station_id":"ce4bhnh2rcd13ifvqgtg","pricing_plan_id":"cebpf4jnsgd1na2vs0mg"},{"bike_id":"91d30034-2ee3-4515-81a7-1edc7e72a597","system_id":"levelo_inurba_marseille","lat":43.30603,"lon":5.37218,"is_reserved":false,"is_disabled":false,"rental_uris":{"android":"levelo://app?vid=91d30034-2ee3-4515-81a7-1edc7e72a597","ios":"levelo://app?vid=91d30034-2ee3-4515-81a7-1edc7e72a597"},"vehicle_type_id":"4","last_reported":1730899006,"current_range_meters":18800,"station_id":"ce4bgqh2rcd13ifvqc4g","pricing_plan_id":"cebpf4jnsgd1na2vs0mg"},{"bike_id":"e10a265c-6cec-4cf1-a0ae-4528eeeaf535","system_id":"levelo_inurba_marseille","lat":43.29713,"lon":5.36618,"is_reserved":false,"is_disabled":false,"rental_uris":{"android":"levelo://app?vid=e10a265c-6cec-4cf1-a0ae-4528eeeaf535","ios":"levelo://app?vid=e10a265c-6cec-4cf1-a0ae-4528eeeaf535"},"vehicle_type_id":"4","last_reported":1730899006,"current_range_meters":38800,"station_id":"ce4bgn12rcd13ifvqbt0","pricing_plan_id":"cebpf4jnsgd1na2vs0mg"},{"bike_id":"dd78239e-e0e0-4c1e-8f70-0172a6eb777c","system_id":"levelo_inurba_marseille","lat":43.30261,"lon":5.4007,"is_reserved":false,"is_disabled":false,"rental_uris":{"android":"levelo://app?vid=dd78239e-e0e0-4c1e-8f70-0172a6eb777c","ios":"levelo://app?vid=dd78239e-e0e0-4c1e-8f70-0172a6eb777c"},"vehicle_type_id":"4","last_reported":1730899006,"current_range_meters":32800,"station_id":"ce4bgvh2rcd13ifvqcs0","pricing_plan_id":"cebpf4jnsgd1na2vs0mg"},{"bike_id":"f1fcff68-86ac-45e1-8ad8-197282112b1b","system_id":"levelo_inurba_marseille","lat":43.29709,"lon":5.36614,"is_reserved":false,"is_disabled":false,"rental_uris":{"android":"levelo://app?vid=f1fcff68-86ac-45e1-8ad8-197282112b1b","ios":"levelo://app?vid=f1fcff68-86ac-45e1-8ad8-197282112b1b"},"vehicle_type_id":"4","last_reported":1730899006,"current_range_meters":38800,"station_id":"ce4bgn12rcd13ifvqbt0","pricing_plan_id":"cebpf4jnsgd1na2vs0mg"},{"bike_id":"3a0a4037-a725-4382-8be1-ac542fea013c","system_id":"levelo_inurba_marseille","lat":43.304279,"lon":5.388913,"is_reserved":false,"is_disabled":false,"rental_uris":{"android":"levelo://app?vid=3a0a4037-a725-4382-8be1-ac542fea013c","ios":"levelo://app?vid=3a0a4037-a725-4382-8be1-ac542fea013c"},"vehicle_type_id":"4","last_reported":1730899006,"current_range_meters":14000,"station_id":"ce4bgk12rcd13ifvqbi0","pricing_plan_id":"cebpf4jnsgd1na2vs0mg"},{"bike_id":"e09626d7-6ad5-4f83-99e0-4ecc70ad6a62","system_id":"levelo_inurba_marseille","lat":43.28429,"lon":5.34993,"is_reserved":false,"is_disabled":false,"rental_uris":{"android":"levelo://app?vid=e09626d7-6ad5-4f83-99e0-4ecc70ad6a62","ios":"levelo://app?vid=e09626d7-6ad5-4f83-99e0-4ecc70ad6a62"},"vehicle_type_id":"4","last_reported":1730899006,"current_range_meters":37600,"station_id":"ce4bhbh2rcd13ifvqepg","pricing_plan_id":"cebpf4jnsgd1na2vs0mg"},{"bike_id":"32b5a664-5c16-435c-a9c7-6235b45cbf39","system_id":"levelo_inurba_marseille","lat":43.33752,"lon":5.37459,"is_reserved":false,"is_disabled":false,"rental_uris":{"android":"levelo://app?vid=32b5a664-5c16-435c-a9c7-6235b45cbf39","ios":"levelo://app?vid=32b5a664-5c16-435c-a9c7-6235b45cbf39"},"vehicle_type_id":"4","last_reported":1730899006,"current_range_meters":36000,"station_id":"","pricing_plan_id":"cebpf4jnsgd1na2vs0mg"},{"bike_id":"96b6c566-d2a6-4c57-acf7-e1e62783be68","system_id":"levelo_inurba_marseille","lat":43.3031,"lon":5.36889,"is_reserved":false,"is_disabled":false,"rental_uris":{"android":"levelo://app?vid=96b6c566-d2a6-4c57-acf7-e1e62783be68","ios":"levelo://app?vid=96b6c566-d2a6-4c57-acf7-e1e62783be68"},"vehicle_type_id":"4","last_reported":1730899006,"current_range_meters":38800,"station_id":"ce4bgqh2rcd13ifvqc5g","pricing_plan_id":"cebpf4jnsgd1na2vs0mg"},{"bike_id":"692f31da-ed64-4e18-b7cc-350f01a2fb79","system_id":"levelo_inurba_marseille","lat":43.29899,"lon":5.43662,"is_reserved":false,"is_disabled":false,"rental_uris":{"android":"levelo://app?vid=692f31da-ed64-4e18-b7cc-350f01a2fb79","ios":"levelo://app?vid=692f31da-ed64-4e18-b7cc-350f01a2fb79"},"vehicle_type_id":"4","last_reported":1730899006,"current_range_meters":18800,"station_id":"ce4bhpp2rcd13ifvqhfg","pricing_plan_id":"cebpf4jnsgd1na2vs0mg"},{"bike_id":"13b0201d-0f7a-4b08-bf30-78996b96ea7a","system_id":"levelo_inurba_marseille","lat":43.30535,"lon":5.36704,"is_reserved":false,"is_disabled":false,"rental_uris":{"android":"levelo://app?vid=13b0201d-0f7a-4b08-bf30-78996b96ea7a","ios":"levelo://app?vid=13b0201d-0f7a-4b08-bf30-78996b96ea7a"},"vehicle_type_id":"4","last_reported":1730899006,"current_range_meters":35600,"station_id":"ce4bgrp2rcd13ifvqc9g","pricing_plan_id":"cebpf4jnsgd1na2vs0mg"},{"bike_id":"cef088fc-14e6-41c6-992b-1fc7bb5e4aa9","system_id":"levelo_inurba_marseille","lat":43.30278,"lon":5.37708,"is_reserved":false,"is_disabled":false,"rental_uris":{"android":"levelo://app?vid=cef088fc-14e6-41c6-992b-1fc7bb5e4aa9","ios":"levelo://app?vid=cef088fc-14e6-41c6-992b-1fc7bb5e4aa9"},"vehicle_type_id":"4","last_reported":1730899006,"current_range_meters":30000,"station_id":"ce4bguh2rcd13ifvqcj0","pricing_plan_id":"cebpf4jnsgd1na2vs0mg"},{"bike_id":"ec7f15c5-1145-4250-ad27-8df191b42f18","system_id":"levelo_inurba_marseille","lat":43.30145,"lon":5.37423,"is_reserved":false,"is_disabled":false,"rental_uris":{"android":"levelo://app?vid=ec7f15c5-1145-4250-ad27-8df191b42f18","ios":"levelo://app?vid=ec7f15c5-1145-4250-ad27-8df191b42f18"},"vehicle_type_id":"4","last_reported":1730899006,"current_range_meters":16800,"station_id":"ce4bgs92rcd13ifvqcc0","pricing_plan_id":"cebpf4jnsgd1na2vs0mg"},{"bike_id":"10823b23-dfc9-4c5f-9375-5a9edfa775b2","system_id":"levelo_inurba_marseille","lat":43.29168,"lon":5.37178,"is_reserved":false,"is_disabled":false,"rental_uris":{"android":"levelo://app?vid=10823b23-dfc9-4c5f-9375-5a9edfa775b2","ios":"levelo://app?vid=10823b23-dfc9-4c5f-9375-5a9edfa775b2"},"vehicle_type_id":"4","last_reported":1730899006,"current_range_meters":8400,"station_id":"ce4bha92rcd13ifvqeh0","pricing_plan_id":"cebpf4jnsgd1na2vs0mg"},{"bike_id":"587e2033-43ab-44e0-a4f4-b4fc67d83408","system_id":"levelo_inurba_marseille","lat":43.305457,"lon":5.366988,"is_reserved":false,"is_disabled":false,"rental_uris":{"android":"levelo://app?vid=587e2033-43ab-44e0-a4f4-b4fc67d83408","ios":"levelo://app?vid=587e2033-43ab-44e0-a4f4-b4fc67d83408"},"vehicle_type_id":"4","last_reported":1730899006,"current_range_meters":39200,"station_id":"ce4bgrp2rcd13ifvqc9g","pricing_plan_id":"cebpf4jnsgd1na2vs0mg"},{"bike_id":"f3b79c7f-b099-4ea8-9811-3f20380f83b1","system_id":"levelo_inurba_marseille","lat":43.30171,"lon":5.39857,"is_reserved":false,"is_disabled":false,"rental_uris":{"android":"levelo://app?vid=f3b79c7f-b099-4ea8-9811-3f20380f83b1","ios":"levelo://app?vid=f3b79c7f-b099-4ea8-9811-3f20380f83b1"},"vehicle_type_id":"4","last_reported":1730899006,"current_range_meters":36800,"station_id":"ce4bgkh2rcd13ifvqbl0","pricing_plan_id":"cebpf4jnsgd1na2vs0mg"},{"bike_id":"17b029cf-8d7e-403c-bd93-42fc027f4996","system_id":"levelo_inurba_marseille","lat":43.30948,"lon":5.3903,"is_reserved":false,"is_disabled":false,"rental_uris":{"android":"levelo://app?vid=17b029cf-8d7e-403c-bd93-42fc027f4996","ios":"levelo://app?vid=17b029cf-8d7e-403c-bd93-42fc027f4996"},"vehicle_type_id":"4","last_reported":1730899006,"current_range_meters":28000,"station_id":"ce4bgup2rcd13ifvqco0","pricing_plan_id":"cebpf4jnsgd1na2vs0mg"},{"bike_id":"ad92d505-e54c-4fbd-9b19-09a8a7fd07da","system_id":"levelo_inurba_marseille","lat":43.31356,"lon":5.36722,"is_reserved":false,"is_disabled":false,"rental_uris":{"android":"levelo://app?vid=ad92d505-e54c-4fbd-9b19-09a8a7fd07da","ios":"levelo://app?vid=ad92d505-e54c-4fbd-9b19-09a8a7fd07da"},"vehicle_type_id":"4","last_reported":1730899006,"current_range_meters":39200,"station_id":"ce4bgr92rcd13ifvqc6g","pricing_plan_id":"cebpf4jnsgd1na2vs0mg"},{"bike_id":"c70de8d1-dccb-468b-960e-a6797530b6f4","system_id":"levelo_inurba_marseille","lat":43.29875,"lon":5.38911,"is_reserved":false,"is_disabled":false,"rental_uris":{"android":"levelo://app?vid=c70de8d1-dccb-468b-960e-a6797530b6f4","ios":"levelo://app?vid=c70de8d1-dccb-468b-960e-a6797530b6f4"},"vehicle_type_id":"4","last_reported":1730899006,"current_range_meters":38000,"station_id":"ce4bh392rcd13ifvqdl0","pricing_plan_id":"cebpf4jnsgd1na2vs0mg"},{"bike_id":"95c9ca03-5a37-479f-af3f-a85137c7b24c","system_id":"levelo_inurba_marseille","lat":43.29375,"lon":5.37878,"is_reserved":false,"is_disabled":false,"rental_uris":{"android":"levelo://app?vid=95c9ca03-5a37-479f-af3f-a85137c7b24c","ios":"levelo://app?vid=95c9ca03-5a37-479f-af3f-a85137c7b24c"},"vehicle_type_id":"4","last_reported":1730899006,"current_range_meters":25600,"station_id":"ce4bgjh2rcd13ifvqbf0","pricing_plan_id":"cebpf4jnsgd1na2vs0mg"},{"bike_id":"a344e5bd-83c0-4810-9be1-d1e0a6ee4fec","system_id":"levelo_inurba_marseille","lat":43.29962,"lon":5.38488,"is_reserved":false,"is_disabled":false,"rental_uris":{"android":"levelo://app?vid=a344e5bd-83c0-4810-9be1-d1e0a6ee4fec","ios":"levelo://app?vid=a344e5bd-83c0-4810-9be1-d1e0a6ee4fec"},"vehicle_type_id":"4","last_reported":1730899006,"current_range_meters":38800,"station_id":"ce4bgj92rcd13ifvqbd0","pricing_plan_id":"cebpf4jnsgd1na2vs0mg"},{"bike_id":"66cadc2f-87dc-4b78-bb91-c6d6eee1cfce","system_id":"levelo_inurba_marseille","lat":43.30135,"lon":5.3988,"is_reserved":false,"is_disabled":false,"rental_uris":{"android":"levelo://app?vid=66cadc2f-87dc-4b78-bb91-c6d6eee1cfce","ios":"levelo://app?vid=66cadc2f-87dc-4b78-bb91-c6d6eee1cfce"},"vehicle_type_id":"4","last_reported":1730899006,"current_range_meters":19600,"station_id":"ce4bh0h2rcd13ifvqd40","pricing_plan_id":"cebpf4jnsgd1na2vs0mg"},{"bike_id":"e5f32691-52b3-49a0-bf2d-4ae76cb03ca6","system_id":"levelo_inurba_marseille","lat":43.30175,"lon":5.36618,"is_reserved":false,"is_disabled":false,"rental_uris":{"android":"levelo://app?vid=e5f32691-52b3-49a0-bf2d-4ae76cb03ca6","ios":"levelo://app?vid=e5f32691-52b3-49a0-bf2d-4ae76cb03ca6"},"vehicle_type_id":"4","last_reported":1730899006,"current_range_meters":23200,"station_id":"ce4bgrh2rcd13ifvqc8g","pricing_plan_id":"cebpf4jnsgd1na2vs0mg"},{"bike_id":"6c0ec494-6a8d-470b-8cc1-989fb91438d3","system_id":"levelo_inurba_marseille","lat":43.23178,"lon":5.39998,"is_reserved":false,"is_disabled":false,"rental_uris":{"android":"levelo://app?vid=6c0ec494-6a8d-470b-8cc1-989fb91438d3","ios":"levelo://app?vid=6c0ec494-6a8d-470b-8cc1-989fb91438d3"},"vehicle_type_id":"4","last_reported":1730899006,"current_range_meters":30400,"station_id":"ce4bhn12rcd13ifvqgqg","pricing_plan_id":"cebpf4jnsgd1na2vs0mg"},{"bike_id":"bdbbaea9-237d-4daf-be87-8e4a54fea7c2","system_id":"levelo_inurba_marseille","lat":43.28619,"lon":5.35107,"is_reserved":false,"is_disabled":false,"rental_uris":{"android":"levelo://app?vid=bdbbaea9-237d-4daf-be87-8e4a54fea7c2","ios":"levelo://app?vid=bdbbaea9-237d-4daf-be87-8e4a54fea7c2"},"vehicle_type_id":"4","last_reported":1730899006,"current_range_meters":28800,"station_id":"ce4bhch2rcd13ifvqeug","pricing_plan_id":"cebpf4jnsgd1na2vs0mg"},{"bike_id":"504a2677-e7f9-490d-8752-2a9c4e557185","system_id":"levelo_inurba_marseille","lat":43.27181,"lon":5.40999,"is_reserved":false,"is_disabled":false,"rental_uris":{"android":"levelo://app?vid=504a2677-e7f9-490d-8752-2a9c4e557185","ios":"levelo://app?vid=504a2677-e7f9-490d-8752-2a9c4e557185"},"vehicle_type_id":"4","last_reported":1730899006,"current_range_meters":30000,"station_id":"ce4bhl12rcd13ifvqgf0","pricing_plan_id":"cebpf4jnsgd1na2vs0mg"},{"bike_id":"32ead500-60bc-4e58-9c3f-2e7db620ef30","system_id":"levelo_inurba_marseille","lat":43.29055,"lon":5.39937,"is_reserved":false,"is_disabled":false,"rental_uris":{"android":"levelo://app?vid=32ead500-60bc-4e58-9c3f-2e7db620ef30","ios":"levelo://app?vid=32ead500-60bc-4e58-9c3f-2e7db620ef30"},"vehicle_type_id":"4","last_reported":1730899006,"current_range_meters":24400,"station_id":"ce4bh392rcd13ifvqdm0","pricing_plan_id":"cebpf4jnsgd1na2vs0mg"},{"bike_id":"6960f8f4-7f41-4f9d-aecd-0776e60fb5a9","system_id":"levelo_inurba_marseille","lat":43.23152,"lon":5.43724,"is_reserved":false,"is_disabled":false,"rental_uris":{"android":"levelo://app?vid=6960f8f4-7f41-4f9d-aecd-0776e60fb5a9","ios":"levelo://app?vid=6960f8f4-7f41-4f9d-aecd-0776e60fb5a9"},"vehicle_type_id":"4","last_reported":1730899006,"current_range_meters":12000,"station_id":"ce4bhmp2rcd13ifvqgog","pricing_plan_id":"cebpf4jnsgd1na2vs0mg"},{"bike_id":"d17dc638-905b-4348-ae3b-a03999ca9b02","system_id":"levelo_inurba_marseille","lat":43.31757,"lon":5.39015,"is_reserved":false,"is_disabled":false,"rental_uris":{"android":"levelo://app?vid=d17dc638-905b-4348-ae3b-a03999ca9b02","ios":"levelo://app?vid=d17dc638-905b-4348-ae3b-a03999ca9b02"},"vehicle_type_id":"4","last_reported":1730899006,"current_range_meters":6800,"station_id":"ce4bhqp2rcd13ifvqhng","pricing_plan_id":"cebpf4jnsgd1na2vs0mg"},{"bike_id":"d4a936c2-08b3-4b37-ae78-8b127d2980c7","system_id":"levelo_inurba_marseille","lat":43.25715,"lon":5.41121,"is_reserved":false,"is_disabled":false,"rental_uris":{"android":"levelo://app?vid=d4a936c2-08b3-4b37-ae78-8b127d2980c7","ios":"levelo://app?vid=d4a936c2-08b3-4b37-ae78-8b127d2980c7"},"vehicle_type_id":"4","last_reported":1730899006,"current_range_meters":18000,"station_id":"ce4bhkp2rcd13ifvqgd0","pricing_plan_id":"cebpf4jnsgd1na2vs0mg"},{"bike_id":"9b8567ef-4042-4b8a-b170-44ad3c689258","system_id":"levelo_inurba_marseille","lat":43.25009,"lon":5.38918,"is_reserved":false,"is_disabled":false,"rental_uris":{"android":"levelo://app?vid=9b8567ef-4042-4b8a-b170-44ad3c689258","ios":"levelo://app?vid=9b8567ef-4042-4b8a-b170-44ad3c689258"},"vehicle_type_id":"4","last_reported":1730899006,"current_range_meters":2800,"station_id":"ce4bhgp2rcd13ifvqfd0","pricing_plan_id":"cebpf4jnsgd1na2vs0mg"},{"bike_id":"42163e3e-5009-401f-a1ce-f09eb7e2a510","system_id":"levelo_inurba_marseille","lat":43.31324,"lon":5.39689,"is_reserved":false,"is_disabled":false,"rental_uris":{"android":"levelo://app?vid=42163e3e-5009-401f-a1ce-f09eb7e2a510","ios":"levelo://app?vid=42163e3e-5009-401f-a1ce-f09eb7e2a510"},"vehicle_type_id":"4","last_reported":1730899006,"current_range_meters":39200,"station_id":"ce4bgvp2rcd13ifvqcu0","pricing_plan_id":"cebpf4jnsgd1na2vs0mg"},{"bike_id":"79453e8d-aeca-48fc-a044-8c6f1dec4f9b","system_id":"levelo_inurba_marseille","lat":43.24382,"lon":5.37061,"is_reserved":false,"is_disabled":false,"rental_uris":{"android":"levelo://app?vid=79453e8d-aeca-48fc-a044-8c6f1dec4f9b","ios":"levelo://app?vid=79453e8d-aeca-48fc-a044-8c6f1dec4f9b"},"vehicle_type_id":"4","last_reported":1730899006,"current_range_meters":33600,"station_id":"ce4bhhh2rcd13ifvqfk0","pricing_plan_id":"cebpf4jnsgd1na2vs0mg"},{"bike_id":"a9b55777-f1e2-44bb-bd36-ea38a2f4482b","system_id":"levelo_inurba_marseille","lat":43.29977,"lon":5.3849,"is_reserved":false,"is_disabled":false,"rental_uris":{"android":"levelo://app?vid=a9b55777-f1e2-44bb-bd36-ea38a2f4482b","ios":"levelo://app?vid=a9b55777-f1e2-44bb-bd36-ea38a2f4482b"},"vehicle_type_id":"4","last_reported":1730899006,"current_range_meters":34800,"station_id":"ce4bgj92rcd13ifvqbd0","pricing_plan_id":"cebpf4jnsgd1na2vs0mg"},{"bike_id":"a0db1695-32d8-4d9c-9829-ab1da773a69e","system_id":"levelo_inurba_marseille","lat":43.30138,"lon":5.3987,"is_reserved":false,"is_disabled":false,"rental_uris":{"android":"levelo://app?vid=a0db1695-32d8-4d9c-9829-ab1da773a69e","ios":"levelo://app?vid=a0db1695-32d8-4d9c-9829-ab1da773a69e"},"vehicle_type_id":"4","last_reported":1730899006,"current_range_meters":36800,"station_id":"ce4bh0h2rcd13ifvqd40","pricing_plan_id":"cebpf4jnsgd1na2vs0mg"},{"bike_id":"9d5bb832-736f-447e-90e2-4b4afdee42a6","system_id":"levelo_inurba_marseille","lat":43.29277,"lon":5.36853,"is_reserved":false,"is_disabled":false,"rental_uris":{"android":"levelo://app?vid=9d5bb832-736f-447e-90e2-4b4afdee42a6","ios":"levelo://app?vid=9d5bb832-736f-447e-90e2-4b4afdee42a6"},"vehicle_type_id":"4","last_reported":1730899006,"current_range_meters":6800,"station_id":"ce4bhbp2rcd13ifvqesg","pricing_plan_id":"cebpf4jnsgd1na2vs0mg"},{"bike_id":"d877ce7d-d4ae-49e3-99e4-8e9fef3cb744","system_id":"levelo_inurba_marseille","lat":43.29271,"lon":5.36854,"is_reserved":false,"is_disabled":false,"rental_uris":{"android":"levelo://app?vid=d877ce7d-d4ae-49e3-99e4-8e9fef3cb744","ios":"levelo://app?vid=d877ce7d-d4ae-49e3-99e4-8e9fef3cb744"},"vehicle_type_id":"4","last_reported":1730899006,"current_range_meters":8000,"station_id":"ce4bhbp2rcd13ifvqesg","pricing_plan_id":"cebpf4jnsgd1na2vs0mg"},{"bike_id":"305ce754-dda4-452f-a713-e0d2d593c5da","system_id":"levelo_inurba_marseille","lat":43.26938,"lon":5.40253,"is_reserved":false,"is_disabled":false,"rental_uris":{"android":"levelo://app?vid=305ce754-dda4-452f-a713-e0d2d593c5da","ios":"levelo://app?vid=305ce754-dda4-452f-a713-e0d2d593c5da"},"vehicle_type_id":"4","last_reported":1730899006,"current_range_meters":2800,"station_id":"cjm6bp8fraef2m0cb0m0","pricing_plan_id":"cebpf4jnsgd1na2vs0mg"},{"bike_id":"add3a5af-dd58-45a6-92f2-b94b2a9fa846","system_id":"levelo_inurba_marseille","lat":43.29001,"lon":5.35613,"is_reserved":false,"is_disabled":false,"rental_uris":{"android":"levelo://app?vid=add3a5af-dd58-45a6-92f2-b94b2a9fa846","ios":"levelo://app?vid=add3a5af-dd58-45a6-92f2-b94b2a9fa846"},"vehicle_type_id":"4","last_reported":1730899006,"current_range_meters":34800,"station_id":"ce4bhb92rcd13ifvqen0","pricing_plan_id":"cebpf4jnsgd1na2vs0mg"},{"bike_id":"541f49e5-7b91-4126-905f-d61d53442799","system_id":"levelo_inurba_marseille","lat":43.29568,"lon":5.37523,"is_reserved":false,"is_disabled":false,"rental_uris":{"android":"levelo://app?vid=541f49e5-7b91-4126-905f-d61d53442799","ios":"levelo://app?vid=541f49e5-7b91-4126-905f-d61d53442799"},"vehicle_type_id":"4","last_reported":1730899006,"current_range_meters":11200,"station_id":"ce4bgh92rcd13ifvqb50","pricing_plan_id":"cebpf4jnsgd1na2vs0mg"},{"bike_id":"2be58595-1ee4-4e97-90d2-c6d933b5e1c7","system_id":"levelo_inurba_marseille","lat":43.29897,"lon":5.43668,"is_reserved":false,"is_disabled":false,"rental_uris":{"android":"levelo://app?vid=2be58595-1ee4-4e97-90d2-c6d933b5e1c7","ios":"levelo://app?vid=2be58595-1ee4-4e97-90d2-c6d933b5e1c7"},"vehicle_type_id":"4","last_reported":1730899006,"current_range_meters":20000,"station_id":"ce4bhpp2rcd13ifvqhfg","pricing_plan_id":"cebpf4jnsgd1na2vs0mg"},{"bike_id":"0ab2d0fb-4558-435e-8a7a-e5e54e69a749","system_id":"levelo_inurba_marseille","lat":43.30412,"lon":5.41289,"is_reserved":false,"is_disabled":false,"rental_uris":{"android":"levelo://app?vid=0ab2d0fb-4558-435e-8a7a-e5e54e69a749","ios":"levelo://app?vid=0ab2d0fb-4558-435e-8a7a-e5e54e69a749"},"vehicle_type_id":"4","last_reported":1730899006,"current_range_meters":29600,"station_id":"ce4bhop2rcd13ifvqh8g","pricing_plan_id":"cebpf4jnsgd1na2vs0mg"},{"bike_id":"e174addd-fb59-49c4-90af-232dfbf318bc","system_id":"levelo_inurba_marseille","lat":43.29554,"lon":5.42292,"is_reserved":false,"is_disabled":false,"rental_uris":{"android":"levelo://app?vid=e174addd-fb59-49c4-90af-232dfbf318bc","ios":"levelo://app?vid=e174addd-fb59-49c4-90af-232dfbf318bc"},"vehicle_type_id":"4","last_reported":1730899006,"current_range_meters":37600,"station_id":"ce4bhph2rcd13ifvqhdg","pricing_plan_id":"cebpf4jnsgd1na2vs0mg"},{"bike_id":"cdbefca1-2453-493e-901e-7bbd9e077f14","system_id":"levelo_inurba_marseille","lat":43.25713,"lon":5.41118,"is_reserved":false,"is_disabled":false,"rental_uris":{"android":"levelo://app?vid=cdbefca1-2453-493e-901e-7bbd9e077f14","ios":"levelo://app?vid=cdbefca1-2453-493e-901e-7bbd9e077f14"},"vehicle_type_id":"4","last_reported":1730899006,"current_range_meters":25600,"station_id":"ce4bhkp2rcd13ifvqgd0","pricing_plan_id":"cebpf4jnsgd1na2vs0mg"},{"bike_id":"daeb91b5-5d75-48a4-9add-f0db396fb83f","system_id":"levelo_inurba_marseille","lat":43.29676,"lon":5.37281,"is_reserved":false,"is_disabled":false,"rental_uris":{"android":"levelo://app?vid=daeb91b5-5d75-48a4-9add-f0db396fb83f","ios":"levelo://app?vid=daeb91b5-5d75-48a4-9add-f0db396fb83f"},"vehicle_type_id":"4","last_reported":1730899006,"current_range_meters":34800,"station_id":"ce4bgk12rcd13ifvqbj0","pricing_plan_id":"cebpf4jnsgd1na2vs0mg"},{"bike_id":"72420aea-7840-4c7b-851d-ff8e787dc4b5","system_id":"levelo_inurba_marseille","lat":43.26055,"lon":5.39401,"is_reserved":false,"is_disabled":false,"rental_uris":{"android":"levelo://app?vid=72420aea-7840-4c7b-851d-ff8e787dc4b5","ios":"levelo://app?vid=72420aea-7840-4c7b-851d-ff8e787dc4b5"},"vehicle_type_id":"4","last_reported":1730899006,"current_range_meters":18000,"station_id":"ce4bhh92rcd13ifvqfj0","pricing_plan_id":"cebpf4jnsgd1na2vs0mg"},{"bike_id":"369a7a32-3806-4314-ad87-eb7f92bcd64c","system_id":"levelo_inurba_marseille","lat":43.27815,"lon":5.40715,"is_reserved":false,"is_disabled":false,"rental_uris":{"android":"levelo://app?vid=369a7a32-3806-4314-ad87-eb7f92bcd64c","ios":"levelo://app?vid=369a7a32-3806-4314-ad87-eb7f92bcd64c"},"vehicle_type_id":"4","last_reported":1730899006,"current_range_meters":18000,"station_id":"ce4bhnh2rcd13ifvqgtg","pricing_plan_id":"cebpf4jnsgd1na2vs0mg"},{"bike_id":"3fd25078-ba98-4839-b250-81c2efe0123f","system_id":"levelo_inurba_marseille","lat":43.30127,"lon":5.38779,"is_reserved":false,"is_disabled":false,"rental_uris":{"android":"levelo://app?vid=3fd25078-ba98-4839-b250-81c2efe0123f","ios":"levelo://app?vid=3fd25078-ba98-4839-b250-81c2efe0123f"},"vehicle_type_id":"4","last_reported":1730899006,"current_range_meters":6000,"station_id":"ce4bghh2rcd13ifvqb60","pricing_plan_id":"cebpf4jnsgd1na2vs0mg"},{"bike_id":"f348c9f4-9a66-4443-89e4-59eadd84ea52","system_id":"levelo_inurba_marseille","lat":43.31538,"lon":5.37249,"is_reserved":false,"is_disabled":false,"rental_uris":{"android":"levelo://app?vid=f348c9f4-9a66-4443-89e4-59eadd84ea52","ios":"levelo://app?vid=f348c9f4-9a66-4443-89e4-59eadd84ea52"},"vehicle_type_id":"4","last_reported":1730899006,"current_range_meters":8000,"station_id":"","pricing_plan_id":"cebpf4jnsgd1na2vs0mg"},{"bike_id":"c32afcee-8124-458f-9d6f-d8631f64c71a","system_id":"levelo_inurba_marseille","lat":43.31075,"lon":5.38357,"is_reserved":false,"is_disabled":false,"rental_uris":{"android":"levelo://app?vid=c32afcee-8124-458f-9d6f-d8631f64c71a","ios":"levelo://app?vid=c32afcee-8124-458f-9d6f-d8631f64c71a"},"vehicle_type_id":"4","last_reported":1730899006,"current_range_meters":22000,"station_id":"ce4bgv92rcd13ifvqcr0","pricing_plan_id":"cebpf4jnsgd1na2vs0mg"},{"bike_id":"da96c2be-ffe8-410e-b05f-bd4285b4e703","system_id":"levelo_inurba_marseille","lat":43.23144,"lon":5.43718,"is_reserved":false,"is_disabled":false,"rental_uris":{"android":"levelo://app?vid=da96c2be-ffe8-410e-b05f-bd4285b4e703","ios":"levelo://app?vid=da96c2be-ffe8-410e-b05f-bd4285b4e703"},"vehicle_type_id":"4","last_reported":1730899006,"current_range_meters":20000,"station_id":"ce4bhmp2rcd13ifvqgog","pricing_plan_id":"cebpf4jnsgd1na2vs0mg"},{"bike_id":"3070da47-f4d3-42c7-b464-b73f21cce490","system_id":"levelo_inurba_marseille","lat":43.2893,"lon":5.36639,"is_reserved":false,"is_disabled":false,"rental_uris":{"android":"levelo://app?vid=3070da47-f4d3-42c7-b464-b73f21cce490","ios":"levelo://app?vid=3070da47-f4d3-42c7-b464-b73f21cce490"},"vehicle_type_id":"4","last_reported":1730899006,"current_range_meters":22800,"station_id":"ce4bhap2rcd13ifvqek0","pricing_plan_id":"cebpf4jnsgd1na2vs0mg"},{"bike_id":"dfc5a11b-cfc2-4ce9-8698-799cdda3d684","system_id":"levelo_inurba_marseille","lat":43.28073,"lon":5.39653,"is_reserved":false,"is_disabled":false,"rental_uris":{"android":"levelo://app?vid=dfc5a11b-cfc2-4ce9-8698-799cdda3d684","ios":"levelo://app?vid=dfc5a11b-cfc2-4ce9-8698-799cdda3d684"},"vehicle_type_id":"4","last_reported":1730899006,"current_range_meters":38800,"station_id":"ce4bho12rcd13ifvqh2g","pricing_plan_id":"cebpf4jnsgd1na2vs0mg"},{"bike_id":"41d1f86c-47c8-47d8-9882-96d09b861f50","system_id":"levelo_inurba_marseille","lat":43.31868,"lon":5.37707,"is_reserved":false,"is_disabled":false,"rental_uris":{"android":"levelo://app?vid=41d1f86c-47c8-47d8-9882-96d09b861f50","ios":"levelo://app?vid=41d1f86c-47c8-47d8-9882-96d09b861f50"},"vehicle_type_id":"4","last_reported":1730899006,"current_range_meters":37600,"station_id":"","pricing_plan_id":"cebpf4jnsgd1na2vs0mg"},{"bike_id":"d1980623-f2e9-488f-ad4c-96f1b4b18325","system_id":"levelo_inurba_marseille","lat":43.26214,"lon":5.37442,"is_reserved":false,"is_disabled":false,"rental_uris":{"android":"levelo://app?vid=d1980623-f2e9-488f-ad4c-96f1b4b18325","ios":"levelo://app?vid=d1980623-f2e9-488f-ad4c-96f1b4b18325"},"vehicle_type_id":"4","last_reported":1730899006,"current_range_meters":35200,"station_id":"ce4bhgp2rcd13ifvqfc0","pricing_plan_id":"cebpf4jnsgd1na2vs0mg"},{"bike_id":"3e4ebbfd-57e7-4a76-af26-cf750e071e89","system_id":"levelo_inurba_marseille","lat":43.3133,"lon":5.39698,"is_reserved":false,"is_disabled":false,"rental_uris":{"android":"levelo://app?vid=3e4ebbfd-57e7-4a76-af26-cf750e071e89","ios":"levelo://app?vid=3e4ebbfd-57e7-4a76-af26-cf750e071e89"},"vehicle_type_id":"4","last_reported":1730899006,"current_range_meters":38800,"station_id":"ce4bgvp2rcd13ifvqcu0","pricing_plan_id":"cebpf4jnsgd1na2vs0mg"},{"bike_id":"4c5cf20b-b392-4566-944f-1600750b1527","system_id":"levelo_inurba_marseille","lat":43.25003,"lon":5.38938,"is_reserved":false,"is_disabled":false,"rental_uris":{"android":"levelo://app?vid=4c5cf20b-b392-4566-944f-1600750b1527","ios":"levelo://app?vid=4c5cf20b-b392-4566-944f-1600750b1527"},"vehicle_type_id":"4","last_reported":1730899006,"current_range_meters":36400,"station_id":"ce4bhgp2rcd13ifvqfd0","pricing_plan_id":"cebpf4jnsgd1na2vs0mg"},{"bike_id":"7fd2d072-1280-4445-b1d2-ca98c3a4542c","system_id":"levelo_inurba_marseille","lat":43.2465,"lon":5.38893,"is_reserved":false,"is_disabled":false,"rental_uris":{"android":"levelo://app?vid=7fd2d072-1280-4445-b1d2-ca98c3a4542c","ios":"levelo://app?vid=7fd2d072-1280-4445-b1d2-ca98c3a4542c"},"vehicle_type_id":"4","last_reported":1730899006,"current_range_meters":38800,"station_id":"ce4bhg12rcd13ifvqf60","pricing_plan_id":"cebpf4jnsgd1na2vs0mg"},{"bike_id":"7282d1b8-8009-41c5-a7b3-bb16b1ddaa3d","system_id":"levelo_inurba_marseille","lat":43.26551,"lon":5.37284,"is_reserved":false,"is_disabled":false,"rental_uris":{"android":"levelo://app?vid=7282d1b8-8009-41c5-a7b3-bb16b1ddaa3d","ios":"levelo://app?vid=7282d1b8-8009-41c5-a7b3-bb16b1ddaa3d"},"vehicle_type_id":"4","last_reported":1730899006,"current_range_meters":24000,"station_id":"ce4bhg12rcd13ifvqf70","pricing_plan_id":"cebpf4jnsgd1na2vs0mg"},{"bike_id":"8f43fe37-2b63-4a02-98dd-daf0496db2f7","system_id":"levelo_inurba_marseille","lat":43.30155,"lon":5.38084,"is_reserved":false,"is_disabled":false,"rental_uris":{"android":"levelo://app?vid=8f43fe37-2b63-4a02-98dd-daf0496db2f7","ios":"levelo://app?vid=8f43fe37-2b63-4a02-98dd-daf0496db2f7"},"vehicle_type_id":"4","last_reported":1730899006,"current_range_meters":38400,"station_id":"ce4bgjp2rcd13ifvqbh0","pricing_plan_id":"cebpf4jnsgd1na2vs0mg"},{"bike_id":"3b8fb496-7cfc-4bab-bdb0-1f6f6ea988cb","system_id":"levelo_inurba_marseille","lat":43.28361,"lon":5.38627,"is_reserved":false,"is_disabled":false,"rental_uris":{"android":"levelo://app?vid=3b8fb496-7cfc-4bab-bdb0-1f6f6ea988cb","ios":"levelo://app?vid=3b8fb496-7cfc-4bab-bdb0-1f6f6ea988cb"},"vehicle_type_id":"4","last_reported":1730899006,"current_range_meters":36400,"station_id":"ce4bh492rcd13ifvqdvg","pricing_plan_id":"cebpf4jnsgd1na2vs0mg"},{"bike_id":"b4678c20-7935-41da-9eb4-bbd1cd730c71","system_id":"levelo_inurba_marseille","lat":43.25871,"lon":5.39902,"is_reserved":false,"is_disabled":false,"rental_uris":{"android":"levelo://app?vid=b4678c20-7935-41da-9eb4-bbd1cd730c71","ios":"levelo://app?vid=b4678c20-7935-41da-9eb4-bbd1cd730c71"},"vehicle_type_id":"4","last_reported":1730899006,"current_range_meters":38800,"station_id":"ce4bhl92rcd13ifvqghg","pricing_plan_id":"cebpf4jnsgd1na2vs0mg"},{"bike_id":"f090f7de-cf8c-4c26-b6b1-807907555e45","system_id":"levelo_inurba_marseille","lat":43.30955,"lon":5.3904,"is_reserved":false,"is_disabled":false,"rental_uris":{"android":"levelo://app?vid=f090f7de-cf8c-4c26-b6b1-807907555e45","ios":"levelo://app?vid=f090f7de-cf8c-4c26-b6b1-807907555e45"},"vehicle_type_id":"4","last_reported":1730899006,"current_range_meters":5600,"station_id":"ce4bgup2rcd13ifvqco0","pricing_plan_id":"cebpf4jnsgd1na2vs0mg"},{"bike_id":"cde33d01-4fdf-4588-9993-50576e545d63","system_id":"levelo_inurba_marseille","lat":43.29901,"lon":5.43665,"is_reserved":false,"is_disabled":false,"rental_uris":{"android":"levelo://app?vid=cde33d01-4fdf-4588-9993-50576e545d63","ios":"levelo://app?vid=cde33d01-4fdf-4588-9993-50576e545d63"},"vehicle_type_id":"4","last_reported":1730899006,"current_range_meters":38000,"station_id":"ce4bhpp2rcd13ifvqhfg","pricing_plan_id":"cebpf4jnsgd1na2vs0mg"},{"bike_id":"5eaec812-1491-4d05-9411-c79384e7b42a","system_id":"levelo_inurba_marseille","lat":43.31331,"lon":5.396956,"is_reserved":false,"is_disabled":false,"rental_uris":{"android":"levelo://app?vid=5eaec812-1491-4d05-9411-c79384e7b42a","ios":"levelo://app?vid=5eaec812-1491-4d05-9411-c79384e7b42a"},"vehicle_type_id":"4","last_reported":1730899006,"current_range_meters":16800,"station_id":"ce4bgvp2rcd13ifvqcu0","pricing_plan_id":"cebpf4jnsgd1na2vs0mg"},{"bike_id":"fe6686ea-9402-40a3-af80-088059598b7b","system_id":"levelo_inurba_marseille","lat":43.2997,"lon":5.38495,"is_reserved":false,"is_disabled":false,"rental_uris":{"android":"levelo://app?vid=fe6686ea-9402-40a3-af80-088059598b7b","ios":"levelo://app?vid=fe6686ea-9402-40a3-af80-088059598b7b"},"vehicle_type_id":"4","last_reported":1730899006,"current_range_meters":36400,"station_id":"ce4bgj92rcd13ifvqbd0","pricing_plan_id":"cebpf4jnsgd1na2vs0mg"},{"bike_id":"39c3ac78-4566-4892-96a1-d3c5038f88f9","system_id":"levelo_inurba_marseille","lat":43.29491,"lon":5.395455,"is_reserved":false,"is_disabled":false,"rental_uris":{"android":"levelo://app?vid=39c3ac78-4566-4892-96a1-d3c5038f88f9","ios":"levelo://app?vid=39c3ac78-4566-4892-96a1-d3c5038f88f9"},"vehicle_type_id":"4","last_reported":1730899006,"current_range_meters":24800,"station_id":"ce4bh192rcd13ifvqdb0","pricing_plan_id":"cebpf4jnsgd1na2vs0mg"},{"bike_id":"9d9dc117-b422-4432-b305-2ee17862cef6","system_id":"levelo_inurba_marseille","lat":43.31223,"lon":5.36901,"is_reserved":false,"is_disabled":false,"rental_uris":{"android":"levelo://app?vid=9d9dc117-b422-4432-b305-2ee17862cef6","ios":"levelo://app?vid=9d9dc117-b422-4432-b305-2ee17862cef6"},"vehicle_type_id":"4","last_reported":1730899006,"current_range_meters":28800,"station_id":"ce4bgl92rcd13ifvqbq0","pricing_plan_id":"cebpf4jnsgd1na2vs0mg"},{"bike_id":"7c11a563-75b5-427a-8e7e-4e83724c2cde","system_id":"levelo_inurba_marseille","lat":43.2586,"lon":5.39903,"is_reserved":false,"is_disabled":false,"rental_uris":{"android":"levelo://app?vid=7c11a563-75b5-427a-8e7e-4e83724c2cde","ios":"levelo://app?vid=7c11a563-75b5-427a-8e7e-4e83724c2cde"},"vehicle_type_id":"4","last_reported":1730899006,"current_range_meters":29600,"station_id":"ce4bhl92rcd13ifvqghg","pricing_plan_id":"cebpf4jnsgd1na2vs0mg"},{"bike_id":"f5596869-7913-4686-95ca-aa0c6c69ba13","system_id":"levelo_inurba_marseille","lat":43.3091,"lon":5.36856,"is_reserved":false,"is_disabled":false,"rental_uris":{"android":"levelo://app?vid=f5596869-7913-4686-95ca-aa0c6c69ba13","ios":"levelo://app?vid=f5596869-7913-4686-95ca-aa0c6c69ba13"},"vehicle_type_id":"4","last_reported":1730899006,"current_range_meters":38400,"station_id":"ce4bgn92rcd13ifvqbvg","pricing_plan_id":"cebpf4jnsgd1na2vs0mg"},{"bike_id":"6eb85ccd-da9a-4ffe-af26-c8aa9f5f40f1","system_id":"levelo_inurba_marseille","lat":43.27617,"lon":5.36113,"is_reserved":false,"is_disabled":false,"rental_uris":{"android":"levelo://app?vid=6eb85ccd-da9a-4ffe-af26-c8aa9f5f40f1","ios":"levelo://app?vid=6eb85ccd-da9a-4ffe-af26-c8aa9f5f40f1"},"vehicle_type_id":"4","last_reported":1730899006,"current_range_meters":33600,"station_id":"ce4bgj92rcd13ifvqbe0","pricing_plan_id":"cebpf4jnsgd1na2vs0mg"},{"bike_id":"1c1b85fe-b319-4c1d-aafd-6f3529098df8","system_id":"levelo_inurba_marseille","lat":43.29197,"lon":5.39324,"is_reserved":false,"is_disabled":false,"rental_uris":{"android":"levelo://app?vid=1c1b85fe-b319-4c1d-aafd-6f3529098df8","ios":"levelo://app?vid=1c1b85fe-b319-4c1d-aafd-6f3529098df8"},"vehicle_type_id":"4","last_reported":1730899006,"current_range_meters":36400,"station_id":"ce4bh192rcd13ifvqdd0","pricing_plan_id":"cebpf4jnsgd1na2vs0mg"},{"bike_id":"5174ae6b-73b7-4eb9-b82e-9c61c1f78ce8","system_id":"levelo_inurba_marseille","lat":43.3122,"lon":5.40636,"is_reserved":false,"is_disabled":false,"rental_uris":{"android":"levelo://app?vid=5174ae6b-73b7-4eb9-b82e-9c61c1f78ce8","ios":"levelo://app?vid=5174ae6b-73b7-4eb9-b82e-9c61c1f78ce8"},"vehicle_type_id":"4","last_reported":1730899006,"current_range_meters":22800,"station_id":"","pricing_plan_id":"cebpf4jnsgd1na2vs0mg"},{"bike_id":"b27eb3b9-1dc5-4471-a44b-0e1903cfbbdc","system_id":"levelo_inurba_marseille","lat":43.26201,"lon":5.37929,"is_reserved":false,"is_disabled":false,"rental_uris":{"android":"levelo://app?vid=b27eb3b9-1dc5-4471-a44b-0e1903cfbbdc","ios":"levelo://app?vid=b27eb3b9-1dc5-4471-a44b-0e1903cfbbdc"},"vehicle_type_id":"4","last_reported":1730899006,"current_range_meters":18800,"station_id":"ce4bhjp2rcd13ifvqg90","pricing_plan_id":"cebpf4jnsgd1na2vs0mg"},{"bike_id":"d224e6cb-f97d-40dd-999a-ca14e03d9551","system_id":"levelo_inurba_marseille","lat":43.305511,"lon":5.36538,"is_reserved":false,"is_disabled":false,"rental_uris":{"android":"levelo://app?vid=d224e6cb-f97d-40dd-999a-ca14e03d9551","ios":"levelo://app?vid=d224e6cb-f97d-40dd-999a-ca14e03d9551"},"vehicle_type_id":"4","last_reported":1730899006,"current_range_meters":36400,"station_id":"ce4bgs12rcd13ifvqcag","pricing_plan_id":"cebpf4jnsgd1na2vs0mg"},{"bike_id":"206293ad-7e31-422a-b835-21e609ea696e","system_id":"levelo_inurba_marseille","lat":43.25864,"lon":5.399,"is_reserved":false,"is_disabled":false,"rental_uris":{"android":"levelo://app?vid=206293ad-7e31-422a-b835-21e609ea696e","ios":"levelo://app?vid=206293ad-7e31-422a-b835-21e609ea696e"},"vehicle_type_id":"4","last_reported":1730899006,"current_range_meters":27600,"station_id":"ce4bhl92rcd13ifvqghg","pricing_plan_id":"cebpf4jnsgd1na2vs0mg"},{"bike_id":"6fcb4180-2357-44c0-bc2b-7c583caea156","system_id":"levelo_inurba_marseille","lat":43.2593,"lon":5.40917,"is_reserved":false,"is_disabled":false,"rental_uris":{"android":"levelo://app?vid=6fcb4180-2357-44c0-bc2b-7c583caea156","ios":"levelo://app?vid=6fcb4180-2357-44c0-bc2b-7c583caea156"},"vehicle_type_id":"4","last_reported":1730899006,"current_range_meters":32400,"station_id":"ce4bhm92rcd13ifvqglg","pricing_plan_id":"cebpf4jnsgd1na2vs0mg"},{"bike_id":"bff19b85-fa9d-4d2e-a404-1b3282f15d63","system_id":"levelo_inurba_marseille","lat":43.27996,"lon":5.40016,"is_reserved":false,"is_disabled":false,"rental_uris":{"android":"levelo://app?vid=bff19b85-fa9d-4d2e-a404-1b3282f15d63","ios":"levelo://app?vid=bff19b85-fa9d-4d2e-a404-1b3282f15d63"},"vehicle_type_id":"4","last_reported":1730899006,"current_range_meters":38400,"station_id":"ce4bho92rcd13ifvqh4g","pricing_plan_id":"cebpf4jnsgd1na2vs0mg"},{"bike_id":"31a9ee20-6554-4af8-a0eb-815725c30b2e","system_id":"levelo_inurba_marseille","lat":43.29033,"lon":5.39959,"is_reserved":false,"is_disabled":false,"rental_uris":{"android":"levelo://app?vid=31a9ee20-6554-4af8-a0eb-815725c30b2e","ios":"levelo://app?vid=31a9ee20-6554-4af8-a0eb-815725c30b2e"},"vehicle_type_id":"4","last_reported":1730899006,"current_range_meters":29600,"station_id":"ce4bh392rcd13ifvqdm0","pricing_plan_id":"cebpf4jnsgd1na2vs0mg"},{"bike_id":"c4adc539-427f-422f-bb38-68580f6c935f","system_id":"levelo_inurba_marseille","lat":43.2894,"lon":5.36637,"is_reserved":false,"is_disabled":false,"rental_uris":{"android":"levelo://app?vid=c4adc539-427f-422f-bb38-68580f6c935f","ios":"levelo://app?vid=c4adc539-427f-422f-bb38-68580f6c935f"},"vehicle_type_id":"4","last_reported":1730899006,"current_range_meters":25200,"station_id":"ce4bhap2rcd13ifvqek0","pricing_plan_id":"cebpf4jnsgd1na2vs0mg"},{"bike_id":"22c8e94c-cd91-4389-b457-c402495f49ad","system_id":"levelo_inurba_marseille","lat":43.29276,"lon":5.4013,"is_reserved":false,"is_disabled":false,"rental_uris":{"android":"levelo://app?vid=22c8e94c-cd91-4389-b457-c402495f49ad","ios":"levelo://app?vid=22c8e94c-cd91-4389-b457-c402495f49ad"},"vehicle_type_id":"4","last_reported":1730899006,"current_range_meters":21600,"station_id":"ce4bh312rcd13ifvqdk0","pricing_plan_id":"cebpf4jnsgd1na2vs0mg"},{"bike_id":"ebcf6733-e41e-4f70-b758-d56fe1de23df","system_id":"levelo_inurba_marseille","lat":43.30529,"lon":5.36523,"is_reserved":false,"is_disabled":false,"rental_uris":{"android":"levelo://app?vid=ebcf6733-e41e-4f70-b758-d56fe1de23df","ios":"levelo://app?vid=ebcf6733-e41e-4f70-b758-d56fe1de23df"},"vehicle_type_id":"4","last_reported":1730899006,"current_range_meters":38800,"station_id":"ce4bgs12rcd13ifvqcag","pricing_plan_id":"cebpf4jnsgd1na2vs0mg"},{"bike_id":"7c021f05-3217-414e-a1da-ba31014fdfa8","system_id":"levelo_inurba_marseille","lat":43.3149,"lon":5.37314,"is_reserved":false,"is_disabled":false,"rental_uris":{"android":"levelo://app?vid=7c021f05-3217-414e-a1da-ba31014fdfa8","ios":"levelo://app?vid=7c021f05-3217-414e-a1da-ba31014fdfa8"},"vehicle_type_id":"4","last_reported":1730899006,"current_range_meters":34800,"station_id":"ce4bgt12rcd13ifvqcd0","pricing_plan_id":"cebpf4jnsgd1na2vs0mg"},{"bike_id":"515bf0ae-6142-4692-89de-ded36d86fe01","system_id":"levelo_inurba_marseille","lat":43.24551,"lon":5.39516,"is_reserved":false,"is_disabled":false,"rental_uris":{"android":"levelo://app?vid=515bf0ae-6142-4692-89de-ded36d86fe01","ios":"levelo://app?vid=515bf0ae-6142-4692-89de-ded36d86fe01"},"vehicle_type_id":"4","last_reported":1730899006,"current_range_meters":34800,"station_id":"ce4bhlp2rcd13ifvqgjg","pricing_plan_id":"cebpf4jnsgd1na2vs0mg"},{"bike_id":"dc397fa6-87ca-400e-beb0-b20e68c09032","system_id":"levelo_inurba_marseille","lat":43.31484,"lon":5.37306,"is_reserved":false,"is_disabled":false,"rental_uris":{"android":"levelo://app?vid=dc397fa6-87ca-400e-beb0-b20e68c09032","ios":"levelo://app?vid=dc397fa6-87ca-400e-beb0-b20e68c09032"},"vehicle_type_id":"4","last_reported":1730899006,"current_range_meters":20800,"station_id":"ce4bgt12rcd13ifvqcd0","pricing_plan_id":"cebpf4jnsgd1na2vs0mg"},{"bike_id":"097dd610-02a5-4fc8-8a3d-1082f852a16d","system_id":"levelo_inurba_marseille","lat":43.30937,"lon":5.40146,"is_reserved":false,"is_disabled":false,"rental_uris":{"android":"levelo://app?vid=097dd610-02a5-4fc8-8a3d-1082f852a16d","ios":"levelo://app?vid=097dd610-02a5-4fc8-8a3d-1082f852a16d"},"vehicle_type_id":"4","last_reported":1730899006,"current_range_meters":37600,"station_id":"ce4bgvp2rcd13ifvqct0","pricing_plan_id":"cebpf4jnsgd1na2vs0mg"},{"bike_id":"5ff13389-cd97-4c5f-85f4-c1cc4ea3dcce","system_id":"levelo_inurba_marseille","lat":43.30415,"lon":5.39756,"is_reserved":false,"is_disabled":false,"rental_uris":{"android":"levelo://app?vid=5ff13389-cd97-4c5f-85f4-c1cc4ea3dcce","ios":"levelo://app?vid=5ff13389-cd97-4c5f-85f4-c1cc4ea3dcce"},"vehicle_type_id":"4","last_reported":1730899006,"current_range_meters":38000,"station_id":"ce4bh092rcd13ifvqd20","pricing_plan_id":"cebpf4jnsgd1na2vs0mg"},{"bike_id":"437037e9-de2d-4c1f-b6d8-074d1c9b96f5","system_id":"levelo_inurba_marseille","lat":43.30808,"lon":5.38153,"is_reserved":false,"is_disabled":false,"rental_uris":{"android":"levelo://app?vid=437037e9-de2d-4c1f-b6d8-074d1c9b96f5","ios":"levelo://app?vid=437037e9-de2d-4c1f-b6d8-074d1c9b96f5"},"vehicle_type_id":"4","last_reported":1730899006,"current_range_meters":36800,"station_id":"ce4bgt12rcd13ifvqce0","pricing_plan_id":"cebpf4jnsgd1na2vs0mg"},{"bike_id":"1a30c7d9-df52-482d-9904-f0e48660d6b6","system_id":"levelo_inurba_marseille","lat":43.30129,"lon":5.39813,"is_reserved":false,"is_disabled":false,"rental_uris":{"android":"levelo://app?vid=1a30c7d9-df52-482d-9904-f0e48660d6b6","ios":"levelo://app?vid=1a30c7d9-df52-482d-9904-f0e48660d6b6"},"vehicle_type_id":"4","last_reported":1730899006,"current_range_meters":34000,"station_id":"ce4bh0h2rcd13ifvqd40","pricing_plan_id":"cebpf4jnsgd1na2vs0mg"},{"bike_id":"f32885a4-16d6-40a5-a975-114c008bbe17","system_id":"levelo_inurba_marseille","lat":43.26488,"lon":5.39556,"is_reserved":false,"is_disabled":false,"rental_uris":{"android":"levelo://app?vid=f32885a4-16d6-40a5-a975-114c008bbe17","ios":"levelo://app?vid=f32885a4-16d6-40a5-a975-114c008bbe17"},"vehicle_type_id":"4","last_reported":1730899006,"current_range_meters":34000,"station_id":"ce4bhi12rcd13ifvqfq0","pricing_plan_id":"cebpf4jnsgd1na2vs0mg"},{"bike_id":"ae7c54f6-13e8-40df-b574-d525f8ee83d0","system_id":"levelo_inurba_marseille","lat":43.30253,"lon":5.40061,"is_reserved":false,"is_disabled":false,"rental_uris":{"android":"levelo://app?vid=ae7c54f6-13e8-40df-b574-d525f8ee83d0","ios":"levelo://app?vid=ae7c54f6-13e8-40df-b574-d525f8ee83d0"},"vehicle_type_id":"4","last_reported":1730899006,"current_range_meters":33200,"station_id":"ce4bgvh2rcd13ifvqcs0","pricing_plan_id":"cebpf4jnsgd1na2vs0mg"},{"bike_id":"67c65a4c-d5fc-45c3-aaae-b079185a8771","system_id":"levelo_inurba_marseille","lat":43.2872,"lon":5.36085,"is_reserved":false,"is_disabled":false,"rental_uris":{"android":"levelo://app?vid=67c65a4c-d5fc-45c3-aaae-b079185a8771","ios":"levelo://app?vid=67c65a4c-d5fc-45c3-aaae-b079185a8771"},"vehicle_type_id":"4","last_reported":1730899006,"current_range_meters":10000,"station_id":"cki0cbj6b192h4jlfktg","pricing_plan_id":"cebpf4jnsgd1na2vs0mg"},{"bike_id":"cbf930a5-ce00-4e3c-8670-51991384557d","system_id":"levelo_inurba_marseille","lat":43.3047,"lon":5.37918,"is_reserved":false,"is_disabled":false,"rental_uris":{"android":"levelo://app?vid=cbf930a5-ce00-4e3c-8670-51991384557d","ios":"levelo://app?vid=cbf930a5-ce00-4e3c-8670-51991384557d"},"vehicle_type_id":"4","last_reported":1730899006,"current_range_meters":38800,"station_id":"ce4bgup2rcd13ifvqcn0","pricing_plan_id":"cebpf4jnsgd1na2vs0mg"},{"bike_id":"13ff68e3-3823-4284-abe3-9846ced0c042","system_id":"levelo_inurba_marseille","lat":43.284043,"lon":5.378924,"is_reserved":false,"is_disabled":false,"rental_uris":{"android":"levelo://app?vid=13ff68e3-3823-4284-abe3-9846ced0c042","ios":"levelo://app?vid=13ff68e3-3823-4284-abe3-9846ced0c042"},"vehicle_type_id":"4","last_reported":1730899006,"current_range_meters":10800,"station_id":"ce4bh612rcd13ifvqe6g","pricing_plan_id":"cebpf4jnsgd1na2vs0mg"},{"bike_id":"ed5a8843-b37a-42a5-95a8-9f36208dd0ea","system_id":"levelo_inurba_marseille","lat":43.30319,"lon":5.40441,"is_reserved":false,"is_disabled":false,"rental_uris":{"android":"levelo://app?vid=ed5a8843-b37a-42a5-95a8-9f36208dd0ea","ios":"levelo://app?vid=ed5a8843-b37a-42a5-95a8-9f36208dd0ea"},"vehicle_type_id":"4","last_reported":1730899006,"current_range_meters":33600,"station_id":"ce4bh012rcd13ifvqd10","pricing_plan_id":"cebpf4jnsgd1na2vs0mg"},{"bike_id":"b2f95830-0a22-4461-baea-c1e04cb4b147","system_id":"levelo_inurba_marseille","lat":43.29557,"lon":5.422881,"is_reserved":false,"is_disabled":false,"rental_uris":{"android":"levelo://app?vid=b2f95830-0a22-4461-baea-c1e04cb4b147","ios":"levelo://app?vid=b2f95830-0a22-4461-baea-c1e04cb4b147"},"vehicle_type_id":"4","last_reported":1730899006,"current_range_meters":38800,"station_id":"ce4bhph2rcd13ifvqhdg","pricing_plan_id":"cebpf4jnsgd1na2vs0mg"},{"bike_id":"5f90ade6-8af5-4d4e-a04a-7955570f51c1","system_id":"levelo_inurba_marseille","lat":43.30533,"lon":5.36541,"is_reserved":false,"is_disabled":false,"rental_uris":{"android":"levelo://app?vid=5f90ade6-8af5-4d4e-a04a-7955570f51c1","ios":"levelo://app?vid=5f90ade6-8af5-4d4e-a04a-7955570f51c1"},"vehicle_type_id":"4","last_reported":1730899006,"current_range_meters":24400,"station_id":"ce4bgs12rcd13ifvqcag","pricing_plan_id":"cebpf4jnsgd1na2vs0mg"},{"bike_id":"fa7b0e37-7e18-4a6e-9d36-9bc2f765b5d0","system_id":"levelo_inurba_marseille","lat":43.33768,"lon":5.37438,"is_reserved":false,"is_disabled":false,"rental_uris":{"android":"levelo://app?vid=fa7b0e37-7e18-4a6e-9d36-9bc2f765b5d0","ios":"levelo://app?vid=fa7b0e37-7e18-4a6e-9d36-9bc2f765b5d0"},"vehicle_type_id":"4","last_reported":1730899006,"current_range_meters":36800,"station_id":"","pricing_plan_id":"cebpf4jnsgd1na2vs0mg"},{"bike_id":"214f6f7b-eb59-4f2e-bfc3-fc8ff7d33840","system_id":"levelo_inurba_marseille","lat":43.29797,"lon":5.38098,"is_reserved":false,"is_disabled":false,"rental_uris":{"android":"levelo://app?vid=214f6f7b-eb59-4f2e-bfc3-fc8ff7d33840","ios":"levelo://app?vid=214f6f7b-eb59-4f2e-bfc3-fc8ff7d33840"},"vehicle_type_id":"4","last_reported":1730899006,"current_range_meters":22800,"station_id":"ce4bhpp2rcd13ifvqhfg","pricing_plan_id":"cebpf4jnsgd1na2vs0mg"},{"bike_id":"b7dd8bea-767b-4a90-a1d4-bc825086e891","system_id":"levelo_inurba_marseille","lat":43.30138,"lon":5.39886,"is_reserved":false,"is_disabled":false,"rental_uris":{"android":"levelo://app?vid=b7dd8bea-767b-4a90-a1d4-bc825086e891","ios":"levelo://app?vid=b7dd8bea-767b-4a90-a1d4-bc825086e891"},"vehicle_type_id":"4","last_reported":1730899006,"current_range_meters":28400,"station_id":"ce4bh0h2rcd13ifvqd40","pricing_plan_id":"cebpf4jnsgd1na2vs0mg"},{"bike_id":"2c4af81a-61a4-4b7d-9737-a21161e3b7d5","system_id":"levelo_inurba_marseille","lat":43.30548,"lon":5.3653,"is_reserved":false,"is_disabled":false,"rental_uris":{"android":"levelo://app?vid=2c4af81a-61a4-4b7d-9737-a21161e3b7d5","ios":"levelo://app?vid=2c4af81a-61a4-4b7d-9737-a21161e3b7d5"},"vehicle_type_id":"4","last_reported":1730899006,"current_range_meters":33200,"station_id":"ce4bgs12rcd13ifvqcag","pricing_plan_id":"cebpf4jnsgd1na2vs0mg"},{"bike_id":"b8d968c2-430e-4297-9b22-19cd8c0f916d","system_id":"levelo_inurba_marseille","lat":43.23155,"lon":5.437,"is_reserved":false,"is_disabled":false,"rental_uris":{"android":"levelo://app?vid=b8d968c2-430e-4297-9b22-19cd8c0f916d","ios":"levelo://app?vid=b8d968c2-430e-4297-9b22-19cd8c0f916d"},"vehicle_type_id":"4","last_reported":1730899006,"current_range_meters":37600,"station_id":"ce4bhmp2rcd13ifvqgog","pricing_plan_id":"cebpf4jnsgd1na2vs0mg"},{"bike_id":"4eb50040-f52f-46c0-a67d-2e65f9d92d61","system_id":"levelo_inurba_marseille","lat":43.29278,"lon":5.40124,"is_reserved":false,"is_disabled":false,"rental_uris":{"android":"levelo://app?vid=4eb50040-f52f-46c0-a67d-2e65f9d92d61","ios":"levelo://app?vid=4eb50040-f52f-46c0-a67d-2e65f9d92d61"},"vehicle_type_id":"4","last_reported":1730899006,"current_range_meters":36800,"station_id":"ce4bh312rcd13ifvqdk0","pricing_plan_id":"cebpf4jnsgd1na2vs0mg"},{"bike_id":"4e5d727a-7c34-44b8-af94-45a54b88c1cc","system_id":"levelo_inurba_marseille","lat":43.33721,"lon":5.39182,"is_reserved":false,"is_disabled":false,"rental_uris":{"android":"levelo://app?vid=4e5d727a-7c34-44b8-af94-45a54b88c1cc","ios":"levelo://app?vid=4e5d727a-7c34-44b8-af94-45a54b88c1cc"},"vehicle_type_id":"4","last_reported":1730899006,"current_range_meters":38800,"station_id":"ce4bhr92rcd13ifvqhsg","pricing_plan_id":"cebpf4jnsgd1na2vs0mg"},{"bike_id":"62952ba9-03ce-4130-a071-9edb77242228","system_id":"levelo_inurba_marseille","lat":43.299744,"lon":5.37159,"is_reserved":false,"is_disabled":false,"rental_uris":{"android":"levelo://app?vid=62952ba9-03ce-4130-a071-9edb77242228","ios":"levelo://app?vid=62952ba9-03ce-4130-a071-9edb77242228"},"vehicle_type_id":"4","last_reported":1730899006,"current_range_meters":31200,"station_id":"ce4bgrp2rcd13ifvqc9g","pricing_plan_id":"cebpf4jnsgd1na2vs0mg"},{"bike_id":"597b74d7-5fba-452b-a0b9-168e38ee85ca","system_id":"levelo_inurba_marseille","lat":43.30134,"lon":5.38112,"is_reserved":false,"is_disabled":false,"rental_uris":{"android":"levelo://app?vid=597b74d7-5fba-452b-a0b9-168e38ee85ca","ios":"levelo://app?vid=597b74d7-5fba-452b-a0b9-168e38ee85ca"},"vehicle_type_id":"4","last_reported":1730899006,"current_range_meters":19600,"station_id":"ce4bgjp2rcd13ifvqbh0","pricing_plan_id":"cebpf4jnsgd1na2vs0mg"},{"bike_id":"154555d2-d999-43e9-8051-ed368bf09b55","system_id":"levelo_inurba_marseille","lat":43.30137,"lon":5.37413,"is_reserved":false,"is_disabled":false,"rental_uris":{"android":"levelo://app?vid=154555d2-d999-43e9-8051-ed368bf09b55","ios":"levelo://app?vid=154555d2-d999-43e9-8051-ed368bf09b55"},"vehicle_type_id":"4","last_reported":1730899006,"current_range_meters":33600,"station_id":"ce4bgs92rcd13ifvqcc0","pricing_plan_id":"cebpf4jnsgd1na2vs0mg"},{"bike_id":"4b8203a3-4d9e-4e44-90a1-ab0e2f4351ac","system_id":"levelo_inurba_marseille","lat":43.29968,"lon":5.38493,"is_reserved":false,"is_disabled":false,"rental_uris":{"android":"levelo://app?vid=4b8203a3-4d9e-4e44-90a1-ab0e2f4351ac","ios":"levelo://app?vid=4b8203a3-4d9e-4e44-90a1-ab0e2f4351ac"},"vehicle_type_id":"4","last_reported":1730899006,"current_range_meters":38400,"station_id":"ce4bgj92rcd13ifvqbd0","pricing_plan_id":"cebpf4jnsgd1na2vs0mg"},{"bike_id":"f1782029-15e4-4990-8ef8-55f2d9f1602d","system_id":"levelo_inurba_marseille","lat":43.231485,"lon":5.4372,"is_reserved":false,"is_disabled":false,"rental_uris":{"android":"levelo://app?vid=f1782029-15e4-4990-8ef8-55f2d9f1602d","ios":"levelo://app?vid=f1782029-15e4-4990-8ef8-55f2d9f1602d"},"vehicle_type_id":"4","last_reported":1730899006,"current_range_meters":26800,"station_id":"ce4bhmp2rcd13ifvqgog","pricing_plan_id":"cebpf4jnsgd1na2vs0mg"},{"bike_id":"198e4f0a-aad9-484c-8a93-c134530f4de4","system_id":"levelo_inurba_marseille","lat":43.31328,"lon":5.39693,"is_reserved":false,"is_disabled":false,"rental_uris":{"android":"levelo://app?vid=198e4f0a-aad9-484c-8a93-c134530f4de4","ios":"levelo://app?vid=198e4f0a-aad9-484c-8a93-c134530f4de4"},"vehicle_type_id":"4","last_reported":1730899006,"current_range_meters":8800,"station_id":"ce4bgvp2rcd13ifvqcu0","pricing_plan_id":"cebpf4jnsgd1na2vs0mg"},{"bike_id":"a5040757-7554-43ed-bc92-6cb364ea1d80","system_id":"levelo_inurba_marseille","lat":43.30123,"lon":5.39857,"is_reserved":false,"is_disabled":false,"rental_uris":{"android":"levelo://app?vid=a5040757-7554-43ed-bc92-6cb364ea1d80","ios":"levelo://app?vid=a5040757-7554-43ed-bc92-6cb364ea1d80"},"vehicle_type_id":"4","last_reported":1730899006,"current_range_meters":20800,"station_id":"ce4bh0h2rcd13ifvqd40","pricing_plan_id":"cebpf4jnsgd1na2vs0mg"},{"bike_id":"77f0f942-cc19-4114-9693-f96851c5cf8b","system_id":"levelo_inurba_marseille","lat":43.31063,"lon":5.38344,"is_reserved":false,"is_disabled":false,"rental_uris":{"android":"levelo://app?vid=77f0f942-cc19-4114-9693-f96851c5cf8b","ios":"levelo://app?vid=77f0f942-cc19-4114-9693-f96851c5cf8b"},"vehicle_type_id":"4","last_reported":1730899006,"current_range_meters":9200,"station_id":"ce4bgv92rcd13ifvqcr0","pricing_plan_id":"cebpf4jnsgd1na2vs0mg"},{"bike_id":"3196178a-6c11-4ea4-b602-7dc511b2a5ea","system_id":"levelo_inurba_marseille","lat":43.29262,"lon":5.38443,"is_reserved":false,"is_disabled":false,"rental_uris":{"android":"levelo://app?vid=3196178a-6c11-4ea4-b602-7dc511b2a5ea","ios":"levelo://app?vid=3196178a-6c11-4ea4-b602-7dc511b2a5ea"},"vehicle_type_id":"4","last_reported":1730899006,"current_range_meters":27200,"station_id":"ce4bh692rcd13ifvqea0","pricing_plan_id":"cebpf4jnsgd1na2vs0mg"},{"bike_id":"9c45b75b-789e-4d31-a695-fae1a97bd9dc","system_id":"levelo_inurba_marseille","lat":43.293318,"lon":5.370656,"is_reserved":false,"is_disabled":false,"rental_uris":{"android":"levelo://app?vid=9c45b75b-789e-4d31-a695-fae1a97bd9dc","ios":"levelo://app?vid=9c45b75b-789e-4d31-a695-fae1a97bd9dc"},"vehicle_type_id":"4","last_reported":1730899006,"current_range_meters":37600,"station_id":"","pricing_plan_id":"cebpf4jnsgd1na2vs0mg"},{"bike_id":"f7cb5961-bcab-4aaf-b7f7-9dfef6493fe6","system_id":"levelo_inurba_marseille","lat":43.30124,"lon":5.39854,"is_reserved":false,"is_disabled":false,"rental_uris":{"android":"levelo://app?vid=f7cb5961-bcab-4aaf-b7f7-9dfef6493fe6","ios":"levelo://app?vid=f7cb5961-bcab-4aaf-b7f7-9dfef6493fe6"},"vehicle_type_id":"4","last_reported":1730899006,"current_range_meters":16000,"station_id":"ce4bh0h2rcd13ifvqd40","pricing_plan_id":"cebpf4jnsgd1na2vs0mg"},{"bike_id":"6a1ff42f-e89f-495d-8c70-9d353ff7b464","system_id":"levelo_inurba_marseille","lat":43.303532,"lon":5.418741,"is_reserved":false,"is_disabled":false,"rental_uris":{"android":"levelo://app?vid=6a1ff42f-e89f-495d-8c70-9d353ff7b464","ios":"levelo://app?vid=6a1ff42f-e89f-495d-8c70-9d353ff7b464"},"vehicle_type_id":"4","last_reported":1730899006,"current_range_meters":38800,"station_id":"ce4bhop2rcd13ifvqh7g","pricing_plan_id":"cebpf4jnsgd1na2vs0mg"},{"bike_id":"1bc09de0-51b6-4ee1-a11d-6dfb659a62bd","system_id":"levelo_inurba_marseille","lat":43.30885,"lon":5.39672,"is_reserved":false,"is_disabled":false,"rental_uris":{"android":"levelo://app?vid=1bc09de0-51b6-4ee1-a11d-6dfb659a62bd","ios":"levelo://app?vid=1bc09de0-51b6-4ee1-a11d-6dfb659a62bd"},"vehicle_type_id":"4","last_reported":1730899006,"current_range_meters":38800,"station_id":"ce4bh012rcd13ifvqcv0","pricing_plan_id":"cebpf4jnsgd1na2vs0mg"},{"bike_id":"6fe4bc2e-51f4-4940-a67c-15377a8954c3","system_id":"levelo_inurba_marseille","lat":43.29904,"lon":5.4367,"is_reserved":false,"is_disabled":false,"rental_uris":{"android":"levelo://app?vid=6fe4bc2e-51f4-4940-a67c-15377a8954c3","ios":"levelo://app?vid=6fe4bc2e-51f4-4940-a67c-15377a8954c3"},"vehicle_type_id":"4","last_reported":1730899006,"current_range_meters":37600,"station_id":"ce4bhpp2rcd13ifvqhfg","pricing_plan_id":"cebpf4jnsgd1na2vs0mg"},{"bike_id":"0072c09f-84dc-4387-89a5-d8c408b867ad","system_id":"levelo_inurba_marseille","lat":43.30141,"lon":5.39875,"is_reserved":false,"is_disabled":false,"rental_uris":{"android":"levelo://app?vid=0072c09f-84dc-4387-89a5-d8c408b867ad","ios":"levelo://app?vid=0072c09f-84dc-4387-89a5-d8c408b867ad"},"vehicle_type_id":"4","last_reported":1730899006,"current_range_meters":39200,"station_id":"ce4bh0h2rcd13ifvqd40","pricing_plan_id":"cebpf4jnsgd1na2vs0mg"},{"bike_id":"2fedf9ab-9ce7-4146-b41f-c60d8d8dfa52","system_id":"levelo_inurba_marseille","lat":43.27692,"lon":5.41963,"is_reserved":false,"is_disabled":false,"rental_uris":{"android":"levelo://app?vid=2fedf9ab-9ce7-4146-b41f-c60d8d8dfa52","ios":"levelo://app?vid=2fedf9ab-9ce7-4146-b41f-c60d8d8dfa52"},"vehicle_type_id":"4","last_reported":1730899006,"current_range_meters":38800,"station_id":"","pricing_plan_id":"cebpf4jnsgd1na2vs0mg"},{"bike_id":"b1bad0ba-10ef-4925-b797-dc512cea0ed1","system_id":"levelo_inurba_marseille","lat":43.24385,"lon":5.3706,"is_reserved":false,"is_disabled":false,"rental_uris":{"android":"levelo://app?vid=b1bad0ba-10ef-4925-b797-dc512cea0ed1","ios":"levelo://app?vid=b1bad0ba-10ef-4925-b797-dc512cea0ed1"},"vehicle_type_id":"4","last_reported":1730899006,"current_range_meters":4000,"station_id":"ce4bhhh2rcd13ifvqfk0","pricing_plan_id":"cebpf4jnsgd1na2vs0mg"},{"bike_id":"88b98dba-2073-4983-9539-ecdaff941dda","system_id":"levelo_inurba_marseille","lat":43.3053,"lon":5.36534,"is_reserved":false,"is_disabled":false,"rental_uris":{"android":"levelo://app?vid=88b98dba-2073-4983-9539-ecdaff941dda","ios":"levelo://app?vid=88b98dba-2073-4983-9539-ecdaff941dda"},"vehicle_type_id":"4","last_reported":1730899006,"current_range_meters":29600,"station_id":"ce4bgs12rcd13ifvqcag","pricing_plan_id":"cebpf4jnsgd1na2vs0mg"},{"bike_id":"eec4a6f2-ab3e-48aa-9e8e-1193f6ac04cb","system_id":"levelo_inurba_marseille","lat":43.27988,"lon":5.41663,"is_reserved":false,"is_disabled":false,"rental_uris":{"android":"levelo://app?vid=eec4a6f2-ab3e-48aa-9e8e-1193f6ac04cb","ios":"levelo://app?vid=eec4a6f2-ab3e-48aa-9e8e-1193f6ac04cb"},"vehicle_type_id":"4","last_reported":1730899006,"current_range_meters":24800,"station_id":"ce4bho12rcd13ifvqh1g","pricing_plan_id":"cebpf4jnsgd1na2vs0mg"},{"bike_id":"35b06bc8-da46-4ba5-8c07-e31dde1f57ed","system_id":"levelo_inurba_marseille","lat":43.30326,"lon":5.40462,"is_reserved":false,"is_disabled":false,"rental_uris":{"android":"levelo://app?vid=35b06bc8-da46-4ba5-8c07-e31dde1f57ed","ios":"levelo://app?vid=35b06bc8-da46-4ba5-8c07-e31dde1f57ed"},"vehicle_type_id":"4","last_reported":1730899006,"current_range_meters":32400,"station_id":"ce4bh012rcd13ifvqd10","pricing_plan_id":"cebpf4jnsgd1na2vs0mg"},{"bike_id":"c7367667-89df-47fe-81c7-f08f2b8feb92","system_id":"levelo_inurba_marseille","lat":43.30415,"lon":5.41283,"is_reserved":false,"is_disabled":false,"rental_uris":{"android":"levelo://app?vid=c7367667-89df-47fe-81c7-f08f2b8feb92","ios":"levelo://app?vid=c7367667-89df-47fe-81c7-f08f2b8feb92"},"vehicle_type_id":"4","last_reported":1730899006,"current_range_meters":38400,"station_id":"ce4bhop2rcd13ifvqh8g","pricing_plan_id":"cebpf4jnsgd1na2vs0mg"},{"bike_id":"28732b85-e2ea-4a0e-9bad-44f81ad20925","system_id":"levelo_inurba_marseille","lat":43.27051,"lon":5.40264,"is_reserved":false,"is_disabled":false,"rental_uris":{"android":"levelo://app?vid=28732b85-e2ea-4a0e-9bad-44f81ad20925","ios":"levelo://app?vid=28732b85-e2ea-4a0e-9bad-44f81ad20925"},"vehicle_type_id":"4","last_reported":1730899006,"current_range_meters":20800,"station_id":"ce4bhk92rcd13ifvqgc0","pricing_plan_id":"cebpf4jnsgd1na2vs0mg"},{"bike_id":"d016b93e-5594-41e4-bde2-25ccecc90321","system_id":"levelo_inurba_marseille","lat":43.27808,"lon":5.40714,"is_reserved":false,"is_disabled":false,"rental_uris":{"android":"levelo://app?vid=d016b93e-5594-41e4-bde2-25ccecc90321","ios":"levelo://app?vid=d016b93e-5594-41e4-bde2-25ccecc90321"},"vehicle_type_id":"4","last_reported":1730899006,"current_range_meters":36400,"station_id":"ce4bhnh2rcd13ifvqgtg","pricing_plan_id":"cebpf4jnsgd1na2vs0mg"},{"bike_id":"ef65c891-f7da-4796-bc0f-1118289dbc8f","system_id":"levelo_inurba_marseille","lat":43.3014,"lon":5.39886,"is_reserved":false,"is_disabled":false,"rental_uris":{"android":"levelo://app?vid=ef65c891-f7da-4796-bc0f-1118289dbc8f","ios":"levelo://app?vid=ef65c891-f7da-4796-bc0f-1118289dbc8f"},"vehicle_type_id":"4","last_reported":1730899006,"current_range_meters":20000,"station_id":"ce4bh0h2rcd13ifvqd40","pricing_plan_id":"cebpf4jnsgd1na2vs0mg"},{"bike_id":"2849af15-4c39-4386-9243-1ddf0865328b","system_id":"levelo_inurba_marseille","lat":43.26927,"lon":5.38918,"is_reserved":false,"is_disabled":false,"rental_uris":{"android":"levelo://app?vid=2849af15-4c39-4386-9243-1ddf0865328b","ios":"levelo://app?vid=2849af15-4c39-4386-9243-1ddf0865328b"},"vehicle_type_id":"4","last_reported":1730899006,"current_range_meters":24800,"station_id":"ce4bhhh2rcd13ifvqfl0","pricing_plan_id":"cebpf4jnsgd1na2vs0mg"},{"bike_id":"67038e09-0e18-4d64-949c-6e28ea6a481c","system_id":"levelo_inurba_marseille","lat":43.25865,"lon":5.399,"is_reserved":false,"is_disabled":false,"rental_uris":{"android":"levelo://app?vid=67038e09-0e18-4d64-949c-6e28ea6a481c","ios":"levelo://app?vid=67038e09-0e18-4d64-949c-6e28ea6a481c"},"vehicle_type_id":"4","last_reported":1730899006,"current_range_meters":9600,"station_id":"ce4bhl92rcd13ifvqghg","pricing_plan_id":"cebpf4jnsgd1na2vs0mg"},{"bike_id":"1d804207-eebd-4b4e-93d2-942457d6715c","system_id":"levelo_inurba_marseille","lat":43.28028,"lon":5.3696,"is_reserved":false,"is_disabled":false,"rental_uris":{"android":"levelo://app?vid=1d804207-eebd-4b4e-93d2-942457d6715c","ios":"levelo://app?vid=1d804207-eebd-4b4e-93d2-942457d6715c"},"vehicle_type_id":"4","last_reported":1730899006,"current_range_meters":17200,"station_id":"ce4bha12rcd13ifvqef0","pricing_plan_id":"cebpf4jnsgd1na2vs0mg"},{"bike_id":"719bcfe8-ba97-47af-a566-a5f0939a0896","system_id":"levelo_inurba_marseille","lat":43.28029,"lon":5.3695,"is_reserved":false,"is_disabled":false,"rental_uris":{"android":"levelo://app?vid=719bcfe8-ba97-47af-a566-a5f0939a0896","ios":"levelo://app?vid=719bcfe8-ba97-47af-a566-a5f0939a0896"},"vehicle_type_id":"4","last_reported":1730899006,"current_range_meters":8000,"station_id":"ce4bha12rcd13ifvqef0","pricing_plan_id":"cebpf4jnsgd1na2vs0mg"},{"bike_id":"bf3be72e-1d29-46ef-93f8-d785c909660a","system_id":"levelo_inurba_marseille","lat":43.29566,"lon":5.39984,"is_reserved":false,"is_disabled":false,"rental_uris":{"android":"levelo://app?vid=bf3be72e-1d29-46ef-93f8-d785c909660a","ios":"levelo://app?vid=bf3be72e-1d29-46ef-93f8-d785c909660a"},"vehicle_type_id":"4","last_reported":1730899006,"current_range_meters":30000,"station_id":"ce4bh312rcd13ifvqdj0","pricing_plan_id":"cebpf4jnsgd1na2vs0mg"},{"bike_id":"80d277bd-a47a-458f-9a5d-ec5507b037bb","system_id":"levelo_inurba_marseille","lat":43.267853,"lon":5.394156,"is_reserved":false,"is_disabled":false,"rental_uris":{"android":"levelo://app?vid=80d277bd-a47a-458f-9a5d-ec5507b037bb","ios":"levelo://app?vid=80d277bd-a47a-458f-9a5d-ec5507b037bb"},"vehicle_type_id":"4","last_reported":1730899006,"current_range_meters":26000,"station_id":"ce4bhh12rcd13ifvqfg0","pricing_plan_id":"cebpf4jnsgd1na2vs0mg"},{"bike_id":"e58aacf2-a8a5-4ce2-835e-5eb9a75e9200","system_id":"levelo_inurba_marseille","lat":43.30899,"lon":5.36859,"is_reserved":false,"is_disabled":false,"rental_uris":{"android":"levelo://app?vid=e58aacf2-a8a5-4ce2-835e-5eb9a75e9200","ios":"levelo://app?vid=e58aacf2-a8a5-4ce2-835e-5eb9a75e9200"},"vehicle_type_id":"4","last_reported":1730899006,"current_range_meters":39200,"station_id":"ce4bgn92rcd13ifvqbvg","pricing_plan_id":"cebpf4jnsgd1na2vs0mg"},{"bike_id":"4ba708c0-8ced-418c-bdca-7748a87a5ef6","system_id":"levelo_inurba_marseille","lat":43.29046,"lon":5.39954,"is_reserved":false,"is_disabled":false,"rental_uris":{"android":"levelo://app?vid=4ba708c0-8ced-418c-bdca-7748a87a5ef6","ios":"levelo://app?vid=4ba708c0-8ced-418c-bdca-7748a87a5ef6"},"vehicle_type_id":"4","last_reported":1730899006,"current_range_meters":34800,"station_id":"ce4bh392rcd13ifvqdm0","pricing_plan_id":"cebpf4jnsgd1na2vs0mg"},{"bike_id":"2f076aaa-29b0-4fb9-a4cc-3fad6e37f57d","system_id":"levelo_inurba_marseille","lat":43.30528,"lon":5.36531,"is_reserved":false,"is_disabled":false,"rental_uris":{"android":"levelo://app?vid=2f076aaa-29b0-4fb9-a4cc-3fad6e37f57d","ios":"levelo://app?vid=2f076aaa-29b0-4fb9-a4cc-3fad6e37f57d"},"vehicle_type_id":"4","last_reported":1730899006,"current_range_meters":38400,"station_id":"ce4bgs12rcd13ifvqcag","pricing_plan_id":"cebpf4jnsgd1na2vs0mg"},{"bike_id":"9fae83eb-b88f-49db-8a0a-1bf41cfd562c","system_id":"levelo_inurba_marseille","lat":43.28928,"lon":5.3962,"is_reserved":false,"is_disabled":false,"rental_uris":{"android":"levelo://app?vid=9fae83eb-b88f-49db-8a0a-1bf41cfd562c","ios":"levelo://app?vid=9fae83eb-b88f-49db-8a0a-1bf41cfd562c"},"vehicle_type_id":"4","last_reported":1730899006,"current_range_meters":38800,"station_id":"ce4bh3h2rcd13ifvqdn0","pricing_plan_id":"cebpf4jnsgd1na2vs0mg"},{"bike_id":"ed058e4f-9ac0-418d-bdc9-6394a770ce1f","system_id":"levelo_inurba_marseille","lat":43.29256,"lon":5.40903,"is_reserved":false,"is_disabled":false,"rental_uris":{"android":"levelo://app?vid=ed058e4f-9ac0-418d-bdc9-6394a770ce1f","ios":"levelo://app?vid=ed058e4f-9ac0-418d-bdc9-6394a770ce1f"},"vehicle_type_id":"4","last_reported":1730899006,"current_range_meters":38800,"station_id":"ce4bh192rcd13ifvqdc0","pricing_plan_id":"cebpf4jnsgd1na2vs0mg"},{"bike_id":"37c4356f-53a4-4fc1-9027-d635783b81a2","system_id":"levelo_inurba_marseille","lat":43.29898,"lon":5.38127,"is_reserved":false,"is_disabled":false,"rental_uris":{"android":"levelo://app?vid=37c4356f-53a4-4fc1-9027-d635783b81a2","ios":"levelo://app?vid=37c4356f-53a4-4fc1-9027-d635783b81a2"},"vehicle_type_id":"4","last_reported":1730899006,"current_range_meters":36000,"station_id":"ce4bgj12rcd13ifvqbc0","pricing_plan_id":"cebpf4jnsgd1na2vs0mg"},{"bike_id":"bed45303-abab-499e-a266-c3aa97d37e54","system_id":"levelo_inurba_marseille","lat":43.28084,"lon":5.39657,"is_reserved":false,"is_disabled":false,"rental_uris":{"android":"levelo://app?vid=bed45303-abab-499e-a266-c3aa97d37e54","ios":"levelo://app?vid=bed45303-abab-499e-a266-c3aa97d37e54"},"vehicle_type_id":"4","last_reported":1730899006,"current_range_meters":38800,"station_id":"ce4bho12rcd13ifvqh2g","pricing_plan_id":"cebpf4jnsgd1na2vs0mg"},{"bike_id":"ac3085be-2aba-453a-b37c-d1057ee9d66b","system_id":"levelo_inurba_marseille","lat":43.31264,"lon":5.40166,"is_reserved":false,"is_disabled":false,"rental_uris":{"android":"levelo://app?vid=ac3085be-2aba-453a-b37c-d1057ee9d66b","ios":"levelo://app?vid=ac3085be-2aba-453a-b37c-d1057ee9d66b"},"vehicle_type_id":"4","last_reported":1730899006,"current_range_meters":25200,"station_id":"ce4bh092rcd13ifvqd30","pricing_plan_id":"cebpf4jnsgd1na2vs0mg"},{"bike_id":"818f01a2-70c1-4282-8f3e-a5df75b74421","system_id":"levelo_inurba_marseille","lat":43.23149,"lon":5.43706,"is_reserved":false,"is_disabled":false,"rental_uris":{"android":"levelo://app?vid=818f01a2-70c1-4282-8f3e-a5df75b74421","ios":"levelo://app?vid=818f01a2-70c1-4282-8f3e-a5df75b74421"},"vehicle_type_id":"4","last_reported":1730899006,"current_range_meters":39200,"station_id":"ce4bhmp2rcd13ifvqgog","pricing_plan_id":"cebpf4jnsgd1na2vs0mg"},{"bike_id":"c61c261f-6e7c-47f2-9517-7b46566fdc27","system_id":"levelo_inurba_marseille","lat":43.24394,"lon":5.37051,"is_reserved":false,"is_disabled":false,"rental_uris":{"android":"levelo://app?vid=c61c261f-6e7c-47f2-9517-7b46566fdc27","ios":"levelo://app?vid=c61c261f-6e7c-47f2-9517-7b46566fdc27"},"vehicle_type_id":"4","last_reported":1730899006,"current_range_meters":28000,"station_id":"ce4bhhh2rcd13ifvqfk0","pricing_plan_id":"cebpf4jnsgd1na2vs0mg"},{"bike_id":"f5280d86-8dcc-47f9-816f-73fe2e16cb81","system_id":"levelo_inurba_marseille","lat":43.316965,"lon":5.377625,"is_reserved":false,"is_disabled":false,"rental_uris":{"android":"levelo://app?vid=f5280d86-8dcc-47f9-816f-73fe2e16cb81","ios":"levelo://app?vid=f5280d86-8dcc-47f9-816f-73fe2e16cb81"},"vehicle_type_id":"4","last_reported":1730899006,"current_range_meters":27600,"station_id":"ce4bgth2rcd13ifvqch0","pricing_plan_id":"cebpf4jnsgd1na2vs0mg"},{"bike_id":"540acc82-c68f-41fd-8fe4-cc0380c23737","system_id":"levelo_inurba_marseille","lat":43.29161,"lon":5.37183,"is_reserved":false,"is_disabled":false,"rental_uris":{"android":"levelo://app?vid=540acc82-c68f-41fd-8fe4-cc0380c23737","ios":"levelo://app?vid=540acc82-c68f-41fd-8fe4-cc0380c23737"},"vehicle_type_id":"4","last_reported":1730899006,"current_range_meters":26800,"station_id":"ce4bgrp2rcd13ifvqc9g","pricing_plan_id":"cebpf4jnsgd1na2vs0mg"},{"bike_id":"89b72991-99c2-4b3e-a7af-f3a408a8007f","system_id":"levelo_inurba_marseille","lat":43.2315,"lon":5.43705,"is_reserved":false,"is_disabled":false,"rental_uris":{"android":"levelo://app?vid=89b72991-99c2-4b3e-a7af-f3a408a8007f","ios":"levelo://app?vid=89b72991-99c2-4b3e-a7af-f3a408a8007f"},"vehicle_type_id":"4","last_reported":1730899006,"current_range_meters":24800,"station_id":"ce4bhmp2rcd13ifvqgog","pricing_plan_id":"cebpf4jnsgd1na2vs0mg"},{"bike_id":"aff4cc40-c923-4034-be9c-e88ce8ea159c","system_id":"levelo_inurba_marseille","lat":43.30914,"lon":5.36852,"is_reserved":false,"is_disabled":false,"rental_uris":{"android":"levelo://app?vid=aff4cc40-c923-4034-be9c-e88ce8ea159c","ios":"levelo://app?vid=aff4cc40-c923-4034-be9c-e88ce8ea159c"},"vehicle_type_id":"4","last_reported":1730899006,"current_range_meters":38800,"station_id":"ce4bgn92rcd13ifvqbvg","pricing_plan_id":"cebpf4jnsgd1na2vs0mg"},{"bike_id":"21e8cf42-0b7d-4e13-a0d3-9df96439137c","system_id":"levelo_inurba_marseille","lat":43.3414,"lon":5.40907,"is_reserved":false,"is_disabled":false,"rental_uris":{"android":"levelo://app?vid=21e8cf42-0b7d-4e13-a0d3-9df96439137c","ios":"levelo://app?vid=21e8cf42-0b7d-4e13-a0d3-9df96439137c"},"vehicle_type_id":"4","last_reported":1730899006,"current_range_meters":35600,"station_id":"ce4bhqh2rcd13ifvqhlg","pricing_plan_id":"cebpf4jnsgd1na2vs0mg"},{"bike_id":"2b2cb5ff-ef71-409d-a80f-c39a4fc7080d","system_id":"levelo_inurba_marseille","lat":43.30465,"lon":5.37911,"is_reserved":false,"is_disabled":false,"rental_uris":{"android":"levelo://app?vid=2b2cb5ff-ef71-409d-a80f-c39a4fc7080d","ios":"levelo://app?vid=2b2cb5ff-ef71-409d-a80f-c39a4fc7080d"},"vehicle_type_id":"4","last_reported":1730899006,"current_range_meters":28800,"station_id":"ce4bgup2rcd13ifvqcn0","pricing_plan_id":"cebpf4jnsgd1na2vs0mg"},{"bike_id":"4ac96b00-0055-4fe6-ac4f-248572183378","system_id":"levelo_inurba_marseille","lat":43.29525,"lon":5.38539,"is_reserved":false,"is_disabled":false,"rental_uris":{"android":"levelo://app?vid=4ac96b00-0055-4fe6-ac4f-248572183378","ios":"levelo://app?vid=4ac96b00-0055-4fe6-ac4f-248572183378"},"vehicle_type_id":"4","last_reported":1730899006,"current_range_meters":9200,"station_id":"ce4bgih2rcd13ifvqba0","pricing_plan_id":"cebpf4jnsgd1na2vs0mg"},{"bike_id":"f3cc9c0d-d9b2-4361-b37f-a34ceb67a789","system_id":"levelo_inurba_marseille","lat":43.29042,"lon":5.39968,"is_reserved":false,"is_disabled":false,"rental_uris":{"android":"levelo://app?vid=f3cc9c0d-d9b2-4361-b37f-a34ceb67a789","ios":"levelo://app?vid=f3cc9c0d-d9b2-4361-b37f-a34ceb67a789"},"vehicle_type_id":"4","last_reported":1730899006,"current_range_meters":25600,"station_id":"ce4bh392rcd13ifvqdm0","pricing_plan_id":"cebpf4jnsgd1na2vs0mg"},{"bike_id":"cb88ee8d-5c92-46c2-8b0d-47e01176a68d","system_id":"levelo_inurba_marseille","lat":43.25719,"lon":5.41114,"is_reserved":false,"is_disabled":false,"rental_uris":{"android":"levelo://app?vid=cb88ee8d-5c92-46c2-8b0d-47e01176a68d","ios":"levelo://app?vid=cb88ee8d-5c92-46c2-8b0d-47e01176a68d"},"vehicle_type_id":"4","last_reported":1730899006,"current_range_meters":38800,"station_id":"ce4bhkp2rcd13ifvqgd0","pricing_plan_id":"cebpf4jnsgd1na2vs0mg"},{"bike_id":"891d6d3e-a298-4fda-a5ad-9fa1bebf9898","system_id":"levelo_inurba_marseille","lat":43.24544,"lon":5.3952,"is_reserved":false,"is_disabled":false,"rental_uris":{"android":"levelo://app?vid=891d6d3e-a298-4fda-a5ad-9fa1bebf9898","ios":"levelo://app?vid=891d6d3e-a298-4fda-a5ad-9fa1bebf9898"},"vehicle_type_id":"4","last_reported":1730899006,"current_range_meters":25600,"station_id":"ce4bhlp2rcd13ifvqgjg","pricing_plan_id":"cebpf4jnsgd1na2vs0mg"},{"bike_id":"ce1990ac-3390-413c-9a93-5d1336a43aa1","system_id":"levelo_inurba_marseille","lat":43.27378,"lon":5.36251,"is_reserved":false,"is_disabled":false,"rental_uris":{"android":"levelo://app?vid=ce1990ac-3390-413c-9a93-5d1336a43aa1","ios":"levelo://app?vid=ce1990ac-3390-413c-9a93-5d1336a43aa1"},"vehicle_type_id":"4","last_reported":1730899006,"current_range_meters":36400,"station_id":"ce4bhbh2rcd13ifvqeo0","pricing_plan_id":"cebpf4jnsgd1na2vs0mg"},{"bike_id":"74695514-743b-4a43-8a3c-3ee8c9a28175","system_id":"levelo_inurba_marseille","lat":43.23196,"lon":5.35553,"is_reserved":false,"is_disabled":false,"rental_uris":{"android":"levelo://app?vid=74695514-743b-4a43-8a3c-3ee8c9a28175","ios":"levelo://app?vid=74695514-743b-4a43-8a3c-3ee8c9a28175"},"vehicle_type_id":"4","last_reported":1730899006,"current_range_meters":39200,"station_id":"ce4bhu92rcd13ifvqi70","pricing_plan_id":"cebpf4jnsgd1na2vs0mg"},{"bike_id":"09adde87-d643-49cc-850a-6a7440b81075","system_id":"levelo_inurba_marseille","lat":43.28445,"lon":5.39288,"is_reserved":false,"is_disabled":false,"rental_uris":{"android":"levelo://app?vid=09adde87-d643-49cc-850a-6a7440b81075","ios":"levelo://app?vid=09adde87-d643-49cc-850a-6a7440b81075"},"vehicle_type_id":"4","last_reported":1730899006,"current_range_meters":32400,"station_id":"ce4bhoh2rcd13ifvqh5g","pricing_plan_id":"cebpf4jnsgd1na2vs0mg"},{"bike_id":"9f320a4a-84eb-4cde-883b-d4cebf0160fb","system_id":"levelo_inurba_marseille","lat":43.25001,"lon":5.38924,"is_reserved":false,"is_disabled":false,"rental_uris":{"android":"levelo://app?vid=9f320a4a-84eb-4cde-883b-d4cebf0160fb","ios":"levelo://app?vid=9f320a4a-84eb-4cde-883b-d4cebf0160fb"},"vehicle_type_id":"4","last_reported":1730899006,"current_range_meters":36400,"station_id":"ce4bhgp2rcd13ifvqfd0","pricing_plan_id":"cebpf4jnsgd1na2vs0mg"},{"bike_id":"ade0142d-9648-4807-a19c-1c6c51450406","system_id":"levelo_inurba_marseille","lat":43.27701,"lon":5.41964,"is_reserved":false,"is_disabled":false,"rental_uris":{"android":"levelo://app?vid=ade0142d-9648-4807-a19c-1c6c51450406","ios":"levelo://app?vid=ade0142d-9648-4807-a19c-1c6c51450406"},"vehicle_type_id":"4","last_reported":1730899006,"current_range_meters":38800,"station_id":"","pricing_plan_id":"cebpf4jnsgd1na2vs0mg"},{"bike_id":"a571c36f-b14e-48c6-bf85-2d1573976db9","system_id":"levelo_inurba_marseille","lat":43.2582,"lon":5.39435,"is_reserved":false,"is_disabled":false,"rental_uris":{"android":"levelo://app?vid=a571c36f-b14e-48c6-bf85-2d1573976db9","ios":"levelo://app?vid=a571c36f-b14e-48c6-bf85-2d1573976db9"},"vehicle_type_id":"4","last_reported":1730899006,"current_range_meters":28000,"station_id":"ce4bhip2rcd13ifvqft0","pricing_plan_id":"cebpf4jnsgd1na2vs0mg"},{"bike_id":"f9a8c473-50f6-461e-98fa-f58e5ab7fcbc","system_id":"levelo_inurba_marseille","lat":43.31143,"lon":5.37071,"is_reserved":false,"is_disabled":false,"rental_uris":{"android":"levelo://app?vid=f9a8c473-50f6-461e-98fa-f58e5ab7fcbc","ios":"levelo://app?vid=f9a8c473-50f6-461e-98fa-f58e5ab7fcbc"},"vehicle_type_id":"4","last_reported":1730899006,"current_range_meters":37600,"station_id":"","pricing_plan_id":"cebpf4jnsgd1na2vs0mg"},{"bike_id":"f74730d6-e906-4041-ac7c-fa9a5c97183a","system_id":"levelo_inurba_marseille","lat":43.26795,"lon":5.3941,"is_reserved":false,"is_disabled":false,"rental_uris":{"android":"levelo://app?vid=f74730d6-e906-4041-ac7c-fa9a5c97183a","ios":"levelo://app?vid=f74730d6-e906-4041-ac7c-fa9a5c97183a"},"vehicle_type_id":"4","last_reported":1730899006,"current_range_meters":19200,"station_id":"ce4bhh12rcd13ifvqfg0","pricing_plan_id":"cebpf4jnsgd1na2vs0mg"},{"bike_id":"c06ce476-8847-475f-9a79-9a08d653175a","system_id":"levelo_inurba_marseille","lat":43.29873,"lon":5.39738,"is_reserved":false,"is_disabled":false,"rental_uris":{"android":"levelo://app?vid=c06ce476-8847-475f-9a79-9a08d653175a","ios":"levelo://app?vid=c06ce476-8847-475f-9a79-9a08d653175a"},"vehicle_type_id":"4","last_reported":1730899006,"current_range_meters":26800,"station_id":"ce4bh0h2rcd13ifvqd50","pricing_plan_id":"cebpf4jnsgd1na2vs0mg"},{"bike_id":"9c07c115-8458-42eb-a90e-dec43e520f3f","system_id":"levelo_inurba_marseille","lat":43.26028,"lon":5.37559,"is_reserved":false,"is_disabled":false,"rental_uris":{"android":"levelo://app?vid=9c07c115-8458-42eb-a90e-dec43e520f3f","ios":"levelo://app?vid=9c07c115-8458-42eb-a90e-dec43e520f3f"},"vehicle_type_id":"4","last_reported":1730899006,"current_range_meters":37600,"station_id":"ce4bhgh2rcd13ifvqfa0","pricing_plan_id":"cebpf4jnsgd1na2vs0mg"},{"bike_id":"063ac76c-7dc9-49c1-80b2-af40a50c2880","system_id":"levelo_inurba_marseille","lat":43.30547,"lon":5.36527,"is_reserved":false,"is_disabled":false,"rental_uris":{"android":"levelo://app?vid=063ac76c-7dc9-49c1-80b2-af40a50c2880","ios":"levelo://app?vid=063ac76c-7dc9-49c1-80b2-af40a50c2880"},"vehicle_type_id":"4","last_reported":1730899006,"current_range_meters":22400,"station_id":"ce4bgs12rcd13ifvqcag","pricing_plan_id":"cebpf4jnsgd1na2vs0mg"},{"bike_id":"35b56d7a-974a-40a9-a579-fd4bf862cb73","system_id":"levelo_inurba_marseille","lat":43.24072,"lon":5.37761,"is_reserved":false,"is_disabled":false,"rental_uris":{"android":"levelo://app?vid=35b56d7a-974a-40a9-a579-fd4bf862cb73","ios":"levelo://app?vid=35b56d7a-974a-40a9-a579-fd4bf862cb73"},"vehicle_type_id":"4","last_reported":1730899006,"current_range_meters":36000,"station_id":"ce4bhnp2rcd13ifvqgvg","pricing_plan_id":"cebpf4jnsgd1na2vs0mg"},{"bike_id":"5b2293cf-0d15-4091-ae9a-f19f036d6c1b","system_id":"levelo_inurba_marseille","lat":43.29041,"lon":5.39961,"is_reserved":false,"is_disabled":false,"rental_uris":{"android":"levelo://app?vid=5b2293cf-0d15-4091-ae9a-f19f036d6c1b","ios":"levelo://app?vid=5b2293cf-0d15-4091-ae9a-f19f036d6c1b"},"vehicle_type_id":"4","last_reported":1730899006,"current_range_meters":36000,"station_id":"ce4bh392rcd13ifvqdm0","pricing_plan_id":"cebpf4jnsgd1na2vs0mg"},{"bike_id":"a6472af6-7a48-4ce2-9ffd-b7c1f65c55a7","system_id":"levelo_inurba_marseille","lat":43.26551,"lon":5.37285,"is_reserved":false,"is_disabled":false,"rental_uris":{"android":"levelo://app?vid=a6472af6-7a48-4ce2-9ffd-b7c1f65c55a7","ios":"levelo://app?vid=a6472af6-7a48-4ce2-9ffd-b7c1f65c55a7"},"vehicle_type_id":"4","last_reported":1730899006,"current_range_meters":27600,"station_id":"ce4bhg12rcd13ifvqf70","pricing_plan_id":"cebpf4jnsgd1na2vs0mg"},{"bike_id":"5762ed2d-019a-4513-8343-3f40a713eb9c","system_id":"levelo_inurba_marseille","lat":43.31686,"lon":5.40468,"is_reserved":false,"is_disabled":false,"rental_uris":{"android":"levelo://app?vid=5762ed2d-019a-4513-8343-3f40a713eb9c","ios":"levelo://app?vid=5762ed2d-019a-4513-8343-3f40a713eb9c"},"vehicle_type_id":"4","last_reported":1730899006,"current_range_meters":38800,"station_id":"ce4bh012rcd13ifvqd00","pricing_plan_id":"cebpf4jnsgd1na2vs0mg"},{"bike_id":"696aa659-3d72-4e02-8983-4481895f7afc","system_id":"levelo_inurba_marseille","lat":43.31259,"lon":5.4018,"is_reserved":false,"is_disabled":false,"rental_uris":{"android":"levelo://app?vid=696aa659-3d72-4e02-8983-4481895f7afc","ios":"levelo://app?vid=696aa659-3d72-4e02-8983-4481895f7afc"},"vehicle_type_id":"4","last_reported":1730899006,"current_range_meters":22400,"station_id":"ce4bh092rcd13ifvqd30","pricing_plan_id":"cebpf4jnsgd1na2vs0mg"},{"bike_id":"66c86b3c-9169-469d-a2db-a1c38c38f50d","system_id":"levelo_inurba_marseille","lat":43.29974,"lon":5.37184,"is_reserved":false,"is_disabled":false,"rental_uris":{"android":"levelo://app?vid=66c86b3c-9169-469d-a2db-a1c38c38f50d","ios":"levelo://app?vid=66c86b3c-9169-469d-a2db-a1c38c38f50d"},"vehicle_type_id":"4","last_reported":1730899006,"current_range_meters":39200,"station_id":"ce4bgr92rcd13ifvqc7g","pricing_plan_id":"cebpf4jnsgd1na2vs0mg"},{"bike_id":"ce2b7b0a-da9e-4ad7-9541-832f2fe5f5ed","system_id":"levelo_inurba_marseille","lat":43.32485,"lon":5.36576,"is_reserved":false,"is_disabled":false,"rental_uris":{"android":"levelo://app?vid=ce2b7b0a-da9e-4ad7-9541-832f2fe5f5ed","ios":"levelo://app?vid=ce2b7b0a-da9e-4ad7-9541-832f2fe5f5ed"},"vehicle_type_id":"4","last_reported":1730899006,"current_range_meters":25600,"station_id":"ce4bhs12rcd13ifvqhvg","pricing_plan_id":"cebpf4jnsgd1na2vs0mg"},{"bike_id":"08950727-a117-48f4-a537-030cd553ca80","system_id":"levelo_inurba_marseille","lat":43.25002,"lon":5.38928,"is_reserved":false,"is_disabled":false,"rental_uris":{"android":"levelo://app?vid=08950727-a117-48f4-a537-030cd553ca80","ios":"levelo://app?vid=08950727-a117-48f4-a537-030cd553ca80"},"vehicle_type_id":"4","last_reported":1730899006,"current_range_meters":16800,"station_id":"ce4bhgp2rcd13ifvqfd0","pricing_plan_id":"cebpf4jnsgd1na2vs0mg"},{"bike_id":"2cc98d62-8db6-4424-88b3-c6172c713eb9","system_id":"levelo_inurba_marseille","lat":43.29045,"lon":5.39945,"is_reserved":false,"is_disabled":false,"rental_uris":{"android":"levelo://app?vid=2cc98d62-8db6-4424-88b3-c6172c713eb9","ios":"levelo://app?vid=2cc98d62-8db6-4424-88b3-c6172c713eb9"},"vehicle_type_id":"4","last_reported":1730899006,"current_range_meters":38800,"station_id":"ce4bh392rcd13ifvqdm0","pricing_plan_id":"cebpf4jnsgd1na2vs0mg"},{"bike_id":"c9b128e3-c9a9-4f92-9729-1344ef51148c","system_id":"levelo_inurba_marseille","lat":43.28078,"lon":5.39664,"is_reserved":false,"is_disabled":false,"rental_uris":{"android":"levelo://app?vid=c9b128e3-c9a9-4f92-9729-1344ef51148c","ios":"levelo://app?vid=c9b128e3-c9a9-4f92-9729-1344ef51148c"},"vehicle_type_id":"4","last_reported":1730899006,"current_range_meters":1200,"station_id":"ce4bho12rcd13ifvqh2g","pricing_plan_id":"cebpf4jnsgd1na2vs0mg"},{"bike_id":"9ee09c64-9331-471e-a209-1b8e02fc9cbe","system_id":"levelo_inurba_marseille","lat":43.29523,"lon":5.37512,"is_reserved":false,"is_disabled":false,"rental_uris":{"android":"levelo://app?vid=9ee09c64-9331-471e-a209-1b8e02fc9cbe","ios":"levelo://app?vid=9ee09c64-9331-471e-a209-1b8e02fc9cbe"},"vehicle_type_id":"4","last_reported":1730899006,"current_range_meters":18000,"station_id":"ce4bgkp2rcd13ifvqbmg","pricing_plan_id":"cebpf4jnsgd1na2vs0mg"},{"bike_id":"f2db6799-5c41-4fb5-bc3e-24e767bf9afd","system_id":"levelo_inurba_marseille","lat":43.26551,"lon":5.37287,"is_reserved":false,"is_disabled":false,"rental_uris":{"android":"levelo://app?vid=f2db6799-5c41-4fb5-bc3e-24e767bf9afd","ios":"levelo://app?vid=f2db6799-5c41-4fb5-bc3e-24e767bf9afd"},"vehicle_type_id":"4","last_reported":1730899006,"current_range_meters":8400,"station_id":"ce4bhg12rcd13ifvqf70","pricing_plan_id":"cebpf4jnsgd1na2vs0mg"},{"bike_id":"058e845b-3f35-400d-90ac-100f90420198","system_id":"levelo_inurba_marseille","lat":43.3015,"lon":5.38088,"is_reserved":false,"is_disabled":false,"rental_uris":{"android":"levelo://app?vid=058e845b-3f35-400d-90ac-100f90420198","ios":"levelo://app?vid=058e845b-3f35-400d-90ac-100f90420198"},"vehicle_type_id":"4","last_reported":1730899006,"current_range_meters":18000,"station_id":"ce4bgjp2rcd13ifvqbh0","pricing_plan_id":"cebpf4jnsgd1na2vs0mg"},{"bike_id":"40ff6146-766a-4986-bada-c3c0f2bb47ce","system_id":"levelo_inurba_marseille","lat":43.2583,"lon":5.39447,"is_reserved":false,"is_disabled":false,"rental_uris":{"android":"levelo://app?vid=40ff6146-766a-4986-bada-c3c0f2bb47ce","ios":"levelo://app?vid=40ff6146-766a-4986-bada-c3c0f2bb47ce"},"vehicle_type_id":"4","last_reported":1730899006,"current_range_meters":27200,"station_id":"ce4bhip2rcd13ifvqft0","pricing_plan_id":"cebpf4jnsgd1na2vs0mg"},{"bike_id":"a6ce1fc7-38d4-4399-b7ae-d35dfd2e5879","system_id":"levelo_inurba_marseille","lat":43.27562,"lon":5.38428,"is_reserved":false,"is_disabled":false,"rental_uris":{"android":"levelo://app?vid=a6ce1fc7-38d4-4399-b7ae-d35dfd2e5879","ios":"levelo://app?vid=a6ce1fc7-38d4-4399-b7ae-d35dfd2e5879"},"vehicle_type_id":"4","last_reported":1730899006,"current_range_meters":27200,"station_id":"ce4bhh92rcd13ifvqfi0","pricing_plan_id":"cebpf4jnsgd1na2vs0mg"},{"bike_id":"a0ad9079-fe37-4893-b447-7ef4518a09ca","system_id":"levelo_inurba_marseille","lat":43.29852,"lon":5.36282,"is_reserved":false,"is_disabled":false,"rental_uris":{"android":"levelo://app?vid=a0ad9079-fe37-4893-b447-7ef4518a09ca","ios":"levelo://app?vid=a0ad9079-fe37-4893-b447-7ef4518a09ca"},"vehicle_type_id":"4","last_reported":1730899006,"current_range_meters":38000,"station_id":"ce4bgpp2rcd13ifvqc3g","pricing_plan_id":"cebpf4jnsgd1na2vs0mg"},{"bike_id":"1f0c5b52-0098-4313-86a8-5984af0206da","system_id":"levelo_inurba_marseille","lat":43.30146,"lon":5.37408,"is_reserved":false,"is_disabled":false,"rental_uris":{"android":"levelo://app?vid=1f0c5b52-0098-4313-86a8-5984af0206da","ios":"levelo://app?vid=1f0c5b52-0098-4313-86a8-5984af0206da"},"vehicle_type_id":"4","last_reported":1730899006,"current_range_meters":38800,"station_id":"ce4bgs92rcd13ifvqcc0","pricing_plan_id":"cebpf4jnsgd1na2vs0mg"},{"bike_id":"d1f640c5-abfc-436f-a7ae-bf4e33c7a1ba","system_id":"levelo_inurba_marseille","lat":43.32537,"lon":5.41437,"is_reserved":false,"is_disabled":false,"rental_uris":{"android":"levelo://app?vid=d1f640c5-abfc-436f-a7ae-bf4e33c7a1ba","ios":"levelo://app?vid=d1f640c5-abfc-436f-a7ae-bf4e33c7a1ba"},"vehicle_type_id":"4","last_reported":1730899006,"current_range_meters":13600,"station_id":"ce4bhq12rcd13ifvqhhg","pricing_plan_id":"cebpf4jnsgd1na2vs0mg"},{"bike_id":"18bb5121-eb34-4855-b76a-9031e87eb030","system_id":"levelo_inurba_marseille","lat":43.24808,"lon":5.37459,"is_reserved":false,"is_disabled":false,"rental_uris":{"android":"levelo://app?vid=18bb5121-eb34-4855-b76a-9031e87eb030","ios":"levelo://app?vid=18bb5121-eb34-4855-b76a-9031e87eb030"},"vehicle_type_id":"4","last_reported":1730899006,"current_range_meters":6800,"station_id":"ce4bhgh2rcd13ifvqfb0","pricing_plan_id":"cebpf4jnsgd1na2vs0mg"},{"bike_id":"d589f3fd-d3cf-4028-a9ba-263524f749f0","system_id":"levelo_inurba_marseille","lat":43.31168,"lon":5.38713,"is_reserved":false,"is_disabled":false,"rental_uris":{"android":"levelo://app?vid=d589f3fd-d3cf-4028-a9ba-263524f749f0","ios":"levelo://app?vid=d589f3fd-d3cf-4028-a9ba-263524f749f0"},"vehicle_type_id":"4","last_reported":1730899006,"current_range_meters":4800,"station_id":"ce4bgv12rcd13ifvqcp0","pricing_plan_id":"cebpf4jnsgd1na2vs0mg"},{"bike_id":"e2d34608-6456-47a2-8884-d461e179d5b1","system_id":"levelo_inurba_marseille","lat":43.30879,"lon":5.39675,"is_reserved":false,"is_disabled":false,"rental_uris":{"android":"levelo://app?vid=e2d34608-6456-47a2-8884-d461e179d5b1","ios":"levelo://app?vid=e2d34608-6456-47a2-8884-d461e179d5b1"},"vehicle_type_id":"4","last_reported":1730899006,"current_range_meters":37600,"station_id":"ce4bh012rcd13ifvqcv0","pricing_plan_id":"cebpf4jnsgd1na2vs0mg"},{"bike_id":"0cc3ad35-0e1a-47b7-a634-6907c506ce0d","system_id":"levelo_inurba_marseille","lat":43.29515,"lon":5.37501,"is_reserved":false,"is_disabled":false,"rental_uris":{"android":"levelo://app?vid=0cc3ad35-0e1a-47b7-a634-6907c506ce0d","ios":"levelo://app?vid=0cc3ad35-0e1a-47b7-a634-6907c506ce0d"},"vehicle_type_id":"4","last_reported":1730899006,"current_range_meters":38800,"station_id":"ce4bgkp2rcd13ifvqbmg","pricing_plan_id":"cebpf4jnsgd1na2vs0mg"},{"bike_id":"01652c2a-a4d2-4f68-8afa-1744629e2c54","system_id":"levelo_inurba_marseille","lat":43.25003,"lon":5.38931,"is_reserved":false,"is_disabled":false,"rental_uris":{"android":"levelo://app?vid=01652c2a-a4d2-4f68-8afa-1744629e2c54","ios":"levelo://app?vid=01652c2a-a4d2-4f68-8afa-1744629e2c54"},"vehicle_type_id":"4","last_reported":1730899006,"current_range_meters":36800,"station_id":"ce4bhgp2rcd13ifvqfd0","pricing_plan_id":"cebpf4jnsgd1na2vs0mg"},{"bike_id":"53223ec0-7f8b-4b4b-b840-977e0a938748","system_id":"levelo_inurba_marseille","lat":43.30292,"lon":5.37709,"is_reserved":false,"is_disabled":false,"rental_uris":{"android":"levelo://app?vid=53223ec0-7f8b-4b4b-b840-977e0a938748","ios":"levelo://app?vid=53223ec0-7f8b-4b4b-b840-977e0a938748"},"vehicle_type_id":"4","last_reported":1730899006,"current_range_meters":36000,"station_id":"ce4bguh2rcd13ifvqcj0","pricing_plan_id":"cebpf4jnsgd1na2vs0mg"},{"bike_id":"f55cc1d3-66e2-4092-8a56-209373b1b8a1","system_id":"levelo_inurba_marseille","lat":43.27622,"lon":5.36113,"is_reserved":false,"is_disabled":false,"rental_uris":{"android":"levelo://app?vid=f55cc1d3-66e2-4092-8a56-209373b1b8a1","ios":"levelo://app?vid=f55cc1d3-66e2-4092-8a56-209373b1b8a1"},"vehicle_type_id":"4","last_reported":1730899006,"current_range_meters":23200,"station_id":"ce4bgj92rcd13ifvqbe0","pricing_plan_id":"cebpf4jnsgd1na2vs0mg"},{"bike_id":"93ad7110-4a39-4455-89cc-cf7a59526584","system_id":"levelo_inurba_marseille","lat":43.29971,"lon":5.37191,"is_reserved":false,"is_disabled":false,"rental_uris":{"android":"levelo://app?vid=93ad7110-4a39-4455-89cc-cf7a59526584","ios":"levelo://app?vid=93ad7110-4a39-4455-89cc-cf7a59526584"},"vehicle_type_id":"4","last_reported":1730899006,"current_range_meters":38800,"station_id":"ce4bgr92rcd13ifvqc7g","pricing_plan_id":"cebpf4jnsgd1na2vs0mg"},{"bike_id":"462c3fbe-1cc4-4f52-8b2d-73fcd04fa24c","system_id":"levelo_inurba_marseille","lat":43.24999,"lon":5.38923,"is_reserved":false,"is_disabled":false,"rental_uris":{"android":"levelo://app?vid=462c3fbe-1cc4-4f52-8b2d-73fcd04fa24c","ios":"levelo://app?vid=462c3fbe-1cc4-4f52-8b2d-73fcd04fa24c"},"vehicle_type_id":"4","last_reported":1730899006,"current_range_meters":32000,"station_id":"ce4bhgp2rcd13ifvqfd0","pricing_plan_id":"cebpf4jnsgd1na2vs0mg"},{"bike_id":"25f9786f-2f3e-482a-b500-e8fc079ff30a","system_id":"levelo_inurba_marseille","lat":43.31267,"lon":5.40169,"is_reserved":false,"is_disabled":false,"rental_uris":{"android":"levelo://app?vid=25f9786f-2f3e-482a-b500-e8fc079ff30a","ios":"levelo://app?vid=25f9786f-2f3e-482a-b500-e8fc079ff30a"},"vehicle_type_id":"4","last_reported":1730899006,"current_range_meters":19600,"station_id":"ce4bh092rcd13ifvqd30","pricing_plan_id":"cebpf4jnsgd1na2vs0mg"},