{"last_updated":1685282707,"ttl":30,"version":"2.2","data":{"bikes":[{"bike_id":"402926dd-ee72-4ff9-915f-913e37670fad","system_id":"levelo_inurba_marseille","lat":43.305706,"lon":5.365654,"is_reserved":false,"is_disabled":false,"rental_uris":{"android":"levelo://app?vid=402926dd-ee72-4ff9-915f-913e37670fad","ios":"levelo://app?vid=402926dd-ee72-4ff9-915f-913e37670fad"},"vehicle_type_id":"4","last_reported":1685282707,"current_range_meters":20400,"station_id":"ce4bgs12rcd13ifvqcag","pricing_plan_id":"free"},{"bike_id":"9e5fc55d-cf14-432d-8822-3ddf96df6004","system_id":"levelo_inurba_marseille","lat":43.305706,"lon":5.365654,"is_reserved":false,"is_disabled":false,"rental_uris":{"android":"levelo://app?vid=9e5fc55d-cf14-432d-8822-3ddf96df6004","ios":"levelo://app?vid=9e5fc55d-cf14-432d-8822-3ddf96df6004"},"vehicle_type_id":"4","last_reported":1685282707,"current_range_meters":800,"station_id":"ce4bgs12rcd13ifvqcag","pricing_plan_id":"free"},{"bike_id":"191906a3-03bb-4a6e-97c0-0a3ec9322c64","system_id":"levelo_inurba_marseille","lat":43.305989,"lon":5.37225,"is_reserved":false,"is_disabled":false,"rental_uris":{"android":"levelo://app?vid=191906a3-03bb-4a6e-97c0-0a3ec9322c64","ios":"levelo://app?vid=191906a3-03bb-4a6e-97c0-0a3ec9322c64"},"vehicle_type_id":"4","last_reported":1685282707,"current_range_meters":20000,"station_id":"ce4bgqh2rcd13ifvqc4g","pricing_plan_id":"free"},{"bike_id":"22fc7dab-d642-4838-ad33-0a16cddedb12","system_id":"levelo_inurba_marseille","lat":43.305989,"lon":5.37225,"is_reserved":false,"is_disabled":false,"rental_uris":{"android":"levelo://app?vid=22fc7dab-d642-4838-ad33-0a16cddedb12","ios":"levelo://app?vid=22fc7dab-d642-4838-ad33-0a16cddedb12"},"vehicle_type_id":"4","last_reported":1685282707,"current_range_meters":14800,"station_id":"ce4bgqh2rcd13ifvqc4g","pricing_plan_id":"free"},{"bike_id":"b9adac0e-cf57-4db7-85c3-4f1dd76786ec","system_id":"levelo_inurba_marseille","lat":43.311125,"lon":5.377624,"is_reserved":false,"is_disabled":false,"rental_uris":{"android":"levelo://app?vid=b9adac0e-cf57-4db7-85c3-4f1dd76786ec","ios":"levelo://app?vid=b9adac0e-cf57-4db7-85c3-4f1dd76786ec"},"vehicle_type_id":"4","last_reported":1685282707,"current_range_meters":19600,"station_id":"ce4bgt92rcd13ifvqcg0","pricing_plan_id":"free"},{"bike_id":"e6f2ffa5-12c6-4819-947e-317651eff411","system_id":"levelo_inurba_marseille","lat":43.31127,"lon":5.37772,"is_reserved":false,"is_disabled":false,"rental_uris":{"android":"levelo://app?vid=e6f2ffa5-12c6-4819-947e-317651eff411","ios":"levelo://app?vid=e6f2ffa5-12c6-4819-947e-317651eff411"},"vehicle_type_id":"4","last_reported":1685282707,"current_range_meters":8800,"station_id":"ce4bgt92rcd13ifvqcg0","pricing_plan_id":"free"},{"bike_id":"6026e7f8-c6bd-4ff6-b6bf-a08fd633e288","system_id":"levelo_inurba_marseille","lat":43.311125,"lon":5.377624,"is_reserved":false,"is_disabled":false,"rental_uris":{"android":"levelo://app?vid=6026e7f8-c6bd-4ff6-b6bf-a08fd633e288","ios":"levelo://app?vid=6026e7f8-c6bd-4ff6-b6bf-a08fd633e288"},"vehicle_type_id":"4","last_reported":1685282707,"current_range_meters":4000,"station_id":"ce4bgt92rcd13ifvqcg0","pricing_plan_id":"free"},{"bike_id":"997d1c34-75d3-4866-8b58-6d310d0ef290","system_id":"levelo_inurba_marseille","lat":43.31021,"lon":5.37932,"is_reserved":false,"is_disabled":false,"rental_uris":{"android":"levelo://app?vid=997d1c34-75d3-4866-8b58-6d310d0ef290","ios":"levelo://app?vid=997d1c34-75d3-4866-8b58-6d310d0ef290"},"vehicle_type_id":"4","last_reported":1685282707,"current_range_meters":9200,"station_id":"","pricing_plan_id":"free"},{"bike_id":"ed18b3b0-9328-4077-9185-b08e74539413","system_id":"levelo_inurba_marseille","lat":43.315289,"lon":5.380349,"is_reserved":false,"is_disabled":false,"rental_uris":{"android":"levelo://app?vid=ed18b3b0-9328-4077-9185-b08e74539413","ios":"levelo://app?vid=ed18b3b0-9328-4077-9185-b08e74539413"},"vehicle_type_id":"4","last_reported":1685282707,"current_range_meters":2000,"station_id":"ce4bhsp2rcd13ifvqi50","pricing_plan_id":"free"},{"bike_id":"84e73bc0-561a-4574-8a25-6f90195f1a1a","system_id":"levelo_inurba_marseille","lat":43.30471,"lon":5.37899,"is_reserved":false,"is_disabled":false,"rental_uris":{"android":"levelo://app?vid=84e73bc0-561a-4574-8a25-6f90195f1a1a","ios":"levelo://app?vid=84e73bc0-561a-4574-8a25-6f90195f1a1a"},"vehicle_type_id":"4","last_reported":1685282707,"current_range_meters":24000,"station_id":"ce4bgup2rcd13ifvqcn0","pricing_plan_id":"free"},{"bike_id":"1defea82-1b3e-403d-87f0-9926d6f6daf8","system_id":"levelo_inurba_marseille","lat":43.304606,"lon":5.379026,"is_reserved":false,"is_disabled":false,"rental_uris":{"android":"levelo://app?vid=1defea82-1b3e-403d-87f0-9926d6f6daf8","ios":"levelo://app?vid=1defea82-1b3e-403d-87f0-9926d6f6daf8"},"vehicle_type_id":"4","last_reported":1685282707,"current_range_meters":31200,"station_id":"ce4bgup2rcd13ifvqcn0","pricing_plan_id":"free"},{"bike_id":"89e357f5-cdbe-497a-89dc-dddfd3cc4e92","system_id":"levelo_inurba_marseille","lat":43.304606,"lon":5.379026,"is_reserved":false,"is_disabled":false,"rental_uris":{"android":"levelo://app?vid=89e357f5-cdbe-497a-89dc-dddfd3cc4e92","ios":"levelo://app?vid=89e357f5-cdbe-497a-89dc-dddfd3cc4e92"},"vehicle_type_id":"4","last_reported":1685282707,"current_range_meters":30800,"station_id":"ce4bgup2rcd13ifvqcn0","pricing_plan_id":"free"},{"bike_id":"f7bfc592-ee4c-46e9-95b0-be7f7eb391e5","system_id":"levelo_inurba_marseille","lat":43.304606,"lon":5.379026,"is_reserved":false,"is_disabled":false,"rental_uris":{"android":"levelo://app?vid=f7bfc592-ee4c-46e9-95b0-be7f7eb391e5","ios":"levelo://app?vid=f7bfc592-ee4c-46e9-95b0-be7f7eb391e5"},"vehicle_type_id":"4","last_reported":1685282707,"current_range_meters":31200,"station_id":"ce4bgup2rcd13ifvqcn0","pricing_plan_id":"free"},{"bike_id":"7d9d2800-4e00-425b-8b9d-ba97ecefc9c4","system_id":"levelo_inurba_marseille","lat":43.3046,"lon":5.37898,"is_reserved":false,"is_disabled":false,"rental_uris":{"android":"levelo://app?vid=7d9d2800-4e00-425b-8b9d-ba97ecefc9c4","ios":"levelo://app?vid=7d9d2800-4e00-425b-8b9d-ba97ecefc9c4"},"vehicle_type_id":"4","last_reported":1685282707,"current_range_meters":28400,"station_id":"ce4bgup2rcd13ifvqcn0","pricing_plan_id":"free"},{"bike_id":"ede0f405-020b-4774-91e4-0b22b6cc12c0","system_id":"levelo_inurba_marseille","lat":43.304606,"lon":5.379026,"is_reserved":false,"is_disabled":false,"rental_uris":{"android":"levelo://app?vid=ede0f405-020b-4774-91e4-0b22b6cc12c0","ios":"levelo://app?vid=ede0f405-020b-4774-91e4-0b22b6cc12c0"},"vehicle_type_id":"4","last_reported":1685282707,"current_range_meters":7200,"station_id":"ce4bgup2rcd13ifvqcn0","pricing_plan_id":"free"},{"bike_id":"d5e08288-bf6c-453a-bf22-40ab489cd58c","system_id":"levelo_inurba_marseille","lat":43.30456,"lon":5.37901,"is_reserved":false,"is_disabled":false,"rental_uris":{"android":"levelo://app?vid=d5e08288-bf6c-453a-bf22-40ab489cd58c","ios":"levelo://app?vid=d5e08288-bf6c-453a-bf22-40ab489cd58c"},"vehicle_type_id":"4","last_reported":1685282707,"current_range_meters":30000,"station_id":"ce4bgup2rcd13ifvqcn0","pricing_plan_id":"free"},{"bike_id":"a7fe8621-69e2-437a-9125-f57fb351c6bc","system_id":"levelo_inurba_marseille","lat":43.304664,"lon":5.379171,"is_reserved":false,"is_disabled":false,"rental_uris":{"android":"levelo://app?vid=a7fe8621-69e2-437a-9125-f57fb351c6bc","ios":"levelo://app?vid=a7fe8621-69e2-437a-9125-f57fb351c6bc"},"vehicle_type_id":"4","last_reported":1685282707,"current_range_meters":0,"station_id":"ce4bgup2rcd13ifvqcn0","pricing_plan_id":"free"},{"bike_id":"119b5979-a2f3-4969-88d0-ae84601ea97b","system_id":"levelo_inurba_marseille","lat":43.30457,"lon":5.37909,"is_reserved":false,"is_disabled":false,"rental_uris":{"android":"levelo://app?vid=119b5979-a2f3-4969-88d0-ae84601ea97b","ios":"levelo://app?vid=119b5979-a2f3-4969-88d0-ae84601ea97b"},"vehicle_type_id":"4","last_reported":1685282707,"current_range_meters":31200,"station_id":"ce4bgup2rcd13ifvqcn0","pricing_plan_id":"free"},{"bike_id":"9bbdf958-1737-493b-8bdb-642277200e12","system_id":"levelo_inurba_marseille","lat":43.31105,"lon":5.38344,"is_reserved":false,"is_disabled":false,"rental_uris":{"android":"levelo://app?vid=9bbdf958-1737-493b-8bdb-642277200e12","ios":"levelo://app?vid=9bbdf958-1737-493b-8bdb-642277200e12"},"vehicle_type_id":"4","last_reported":1685282707,"current_range_meters":22400,"station_id":"","pricing_plan_id":"free"},{"bike_id":"9adce7a5-54c1-469c-81cc-5b6a223f40bc","system_id":"levelo_inurba_marseille","lat":43.31997,"lon":5.38165,"is_reserved":false,"is_disabled":false,"rental_uris":{"android":"levelo://app?vid=9adce7a5-54c1-469c-81cc-5b6a223f40bc","ios":"levelo://app?vid=9adce7a5-54c1-469c-81cc-5b6a223f40bc"},"vehicle_type_id":"4","last_reported":1685282707,"current_range_meters":25200,"station_id":"ce4bhr12rcd13ifvqhpg","pricing_plan_id":"free"},{"bike_id":"3aa82818-f48f-436d-9da4-afe08a28867d","system_id":"levelo_inurba_marseille","lat":43.313571,"lon":5.384829,"is_reserved":false,"is_disabled":false,"rental_uris":{"android":"levelo://app?vid=3aa82818-f48f-436d-9da4-afe08a28867d","ios":"levelo://app?vid=3aa82818-f48f-436d-9da4-afe08a28867d"},"vehicle_type_id":"4","last_reported":1685282707,"current_range_meters":12800,"station_id":"ce4bgt92rcd13ifvqcf0","pricing_plan_id":"free"},{"bike_id":"4bc2ba2f-787c-43c8-91d8-1ffcdea6f515","system_id":"levelo_inurba_marseille","lat":43.313571,"lon":5.384829,"is_reserved":false,"is_disabled":false,"rental_uris":{"android":"levelo://app?vid=4bc2ba2f-787c-43c8-91d8-1ffcdea6f515","ios":"levelo://app?vid=4bc2ba2f-787c-43c8-91d8-1ffcdea6f515"},"vehicle_type_id":"4","last_reported":1685282707,"current_range_meters":26400,"station_id":"ce4bgt92rcd13ifvqcf0","pricing_plan_id":"free"},{"bike_id":"e29361d3-5354-4635-802c-fff3e53540aa","system_id":"levelo_inurba_marseille","lat":43.305364,"lon":5.384119,"is_reserved":false,"is_disabled":false,"rental_uris":{"android":"levelo://app?vid=e29361d3-5354-4635-802c-fff3e53540aa","ios":"levelo://app?vid=e29361d3-5354-4635-802c-fff3e53540aa"},"vehicle_type_id":"4","last_reported":1685282707,"current_range_meters":0,"station_id":"ce4bgg92rcd13ifvqb30","pricing_plan_id":"free"},{"bike_id":"bb1e0ad9-df4b-41de-bdd5-bce01dd60691","system_id":"levelo_inurba_marseille","lat":43.328371,"lon":5.366909,"is_reserved":false,"is_disabled":false,"rental_uris":{"android":"levelo://app?vid=bb1e0ad9-df4b-41de-bdd5-bce01dd60691","ios":"levelo://app?vid=bb1e0ad9-df4b-41de-bdd5-bce01dd60691"},"vehicle_type_id":"4","last_reported":1685282707,"current_range_meters":29600,"station_id":"ce4bhs92rcd13ifvqi0g","pricing_plan_id":"free"},{"bike_id":"43d041a6-cdcf-4897-8665-6ed61b2c409c","system_id":"levelo_inurba_marseille","lat":43.32825,"lon":5.36678,"is_reserved":false,"is_disabled":false,"rental_uris":{"android":"levelo://app?vid=43d041a6-cdcf-4897-8665-6ed61b2c409c","ios":"levelo://app?vid=43d041a6-cdcf-4897-8665-6ed61b2c409c"},"vehicle_type_id":"4","last_reported":1685282707,"current_range_meters":29600,"station_id":"ce4bhs92rcd13ifvqi0g","pricing_plan_id":"free"},{"bike_id":"285c145e-777a-4b00-b299-e3b44b9cb422","system_id":"levelo_inurba_marseille","lat":43.32826,"lon":5.36687,"is_reserved":false,"is_disabled":false,"rental_uris":{"android":"levelo://app?vid=285c145e-777a-4b00-b299-e3b44b9cb422","ios":"levelo://app?vid=285c145e-777a-4b00-b299-e3b44b9cb422"},"vehicle_type_id":"4","last_reported":1685282707,"current_range_meters":7600,"station_id":"ce4bhs92rcd13ifvqi0g","pricing_plan_id":"free"},{"bike_id":"6aadd20f-ee22-42f7-9c69-f3066c5dfcf1","system_id":"levelo_inurba_marseille","lat":43.328371,"lon":5.366912,"is_reserved":false,"is_disabled":false,"rental_uris":{"android":"levelo://app?vid=6aadd20f-ee22-42f7-9c69-f3066c5dfcf1","ios":"levelo://app?vid=6aadd20f-ee22-42f7-9c69-f3066c5dfcf1"},"vehicle_type_id":"4","last_reported":1685282707,"current_range_meters":11200,"station_id":"ce4bhs92rcd13ifvqi0g","pricing_plan_id":"free"},{"bike_id":"383aa7a2-3538-4d7d-9ca2-1fbba8b52814","system_id":"levelo_inurba_marseille","lat":43.29733,"lon":5.35966,"is_reserved":false,"is_disabled":false,"rental_uris":{"android":"levelo://app?vid=383aa7a2-3538-4d7d-9ca2-1fbba8b52814","ios":"levelo://app?vid=383aa7a2-3538-4d7d-9ca2-1fbba8b52814"},"vehicle_type_id":"4","last_reported":1685282707,"current_range_meters":26800,"station_id":"","pricing_plan_id":"free"},{"bike_id":"794f0de2-ca9c-47ee-a77a-3f1b232a3e18","system_id":"levelo_inurba_marseille","lat":43.32483,"lon":5.38263,"is_reserved":false,"is_disabled":false,"rental_uris":{"android":"levelo://app?vid=794f0de2-ca9c-47ee-a77a-3f1b232a3e18","ios":"levelo://app?vid=794f0de2-ca9c-47ee-a77a-3f1b232a3e18"},"vehicle_type_id":"4","last_reported":1685282707,"current_range_meters":14800,"station_id":"","pricing_plan_id":"free"},{"bike_id":"4505ee32-7616-4a94-8a6a-4be413516bd8","system_id":"levelo_inurba_marseille","lat":43.29573,"lon":5.367355,"is_reserved":false,"is_disabled":false,"rental_uris":{"android":"levelo://app?vid=4505ee32-7616-4a94-8a6a-4be413516bd8","ios":"levelo://app?vid=4505ee32-7616-4a94-8a6a-4be413516bd8"},"vehicle_type_id":"4","last_reported":1685282707,"current_range_meters":800,"station_id":"ce4bgph2rcd13ifvqc2g","pricing_plan_id":"free"},{"bike_id":"6ca85e10-642c-4f5b-b953-c390810f9dc5","system_id":"levelo_inurba_marseille","lat":43.29588,"lon":5.36379,"is_reserved":false,"is_disabled":false,"rental_uris":{"android":"levelo://app?vid=6ca85e10-642c-4f5b-b953-c390810f9dc5","ios":"levelo://app?vid=6ca85e10-642c-4f5b-b953-c390810f9dc5"},"vehicle_type_id":"4","last_reported":1685282707,"current_range_meters":25600,"station_id":"","pricing_plan_id":"free"},{"bike_id":"1810f63f-037a-4b9d-b52e-959c4e6b05ad","system_id":"levelo_inurba_marseille","lat":43.29588,"lon":5.36376,"is_reserved":false,"is_disabled":false,"rental_uris":{"android":"levelo://app?vid=1810f63f-037a-4b9d-b52e-959c4e6b05ad","ios":"levelo://app?vid=1810f63f-037a-4b9d-b52e-959c4e6b05ad"},"vehicle_type_id":"4","last_reported":1685282707,"current_range_meters":18400,"station_id":"","pricing_plan_id":"free"},{"bike_id":"7db62880-35f0-43ad-8ed7-14044c6b2062","system_id":"levelo_inurba_marseille","lat":43.29577,"lon":5.36366,"is_reserved":false,"is_disabled":false,"rental_uris":{"android":"levelo://app?vid=7db62880-35f0-43ad-8ed7-14044c6b2062","ios":"levelo://app?vid=7db62880-35f0-43ad-8ed7-14044c6b2062"},"vehicle_type_id":"4","last_reported":1685282707,"current_range_meters":20800,"station_id":"","pricing_plan_id":"free"},{"bike_id":"112aac29-1068-472f-aa7a-f4f534b712f2","system_id":"levelo_inurba_marseille","lat":43.309589,"lon":5.390258,"is_reserved":false,"is_disabled":false,"rental_uris":{"android":"levelo://app?vid=112aac29-1068-472f-aa7a-f4f534b712f2","ios":"levelo://app?vid=112aac29-1068-472f-aa7a-f4f534b712f2"},"vehicle_type_id":"4","last_reported":1685282707,"current_range_meters":10800,"station_id":"ce4bgup2rcd13ifvqco0","pricing_plan_id":"free"},{"bike_id":"5dde072f-f20a-4047-9013-03f8720d93a3","system_id":"levelo_inurba_marseille","lat":43.317557,"lon":5.390173,"is_reserved":false,"is_disabled":false,"rental_uris":{"android":"levelo://app?vid=5dde072f-f20a-4047-9013-03f8720d93a3","ios":"levelo://app?vid=5dde072f-f20a-4047-9013-03f8720d93a3"},"vehicle_type_id":"4","last_reported":1685282707,"current_range_meters":28800,"station_id":"ce4bhqp2rcd13ifvqhng","pricing_plan_id":"free"},{"bike_id":"662fdfae-16db-4c94-b9c2-e20172fb124b","system_id":"levelo_inurba_marseille","lat":43.29973,"lon":5.38488,"is_reserved":false,"is_disabled":false,"rental_uris":{"android":"levelo://app?vid=662fdfae-16db-4c94-b9c2-e20172fb124b","ios":"levelo://app?vid=662fdfae-16db-4c94-b9c2-e20172fb124b"},"vehicle_type_id":"4","last_reported":1685282707,"current_range_meters":0,"station_id":"ce4bgj92rcd13ifvqbd0","pricing_plan_id":"free"},{"bike_id":"79719c48-9c05-4c5d-a6df-d8e89b93055d","system_id":"levelo_inurba_marseille","lat":43.29456,"lon":5.3745,"is_reserved":false,"is_disabled":false,"rental_uris":{"android":"levelo://app?vid=79719c48-9c05-4c5d-a6df-d8e89b93055d","ios":"levelo://app?vid=79719c48-9c05-4c5d-a6df-d8e89b93055d"},"vehicle_type_id":"4","last_reported":1685282707,"current_range_meters":8400,"station_id":"","pricing_plan_id":"free"},{"bike_id":"ad35ba80-9a7a-45f4-af1d-b0dc9ca04689","system_id":"levelo_inurba_marseille","lat":43.309589,"lon":5.390258,"is_reserved":false,"is_disabled":false,"rental_uris":{"android":"levelo://app?vid=ad35ba80-9a7a-45f4-af1d-b0dc9ca04689","ios":"levelo://app?vid=ad35ba80-9a7a-45f4-af1d-b0dc9ca04689"},"vehicle_type_id":"4","last_reported":1685282707,"current_range_meters":0,"station_id":"ce4bgup2rcd13ifvqco0","pricing_plan_id":"free"},{"bike_id":"c4bf1c36-f148-4893-9084-56c22712f743","system_id":"levelo_inurba_marseille","lat":43.30306,"lon":5.39214,"is_reserved":false,"is_disabled":false,"rental_uris":{"android":"levelo://app?vid=c4bf1c36-f148-4893-9084-56c22712f743","ios":"levelo://app?vid=c4bf1c36-f148-4893-9084-56c22712f743"},"vehicle_type_id":"4","last_reported":1685282707,"current_range_meters":1600,"station_id":"ce4bgkh2rcd13ifvqbk0","pricing_plan_id":"free"},{"bike_id":"993c448a-75ad-470d-8d1c-7cd2f74b7683","system_id":"levelo_inurba_marseille","lat":43.2936,"lon":5.37835,"is_reserved":false,"is_disabled":false,"rental_uris":{"android":"levelo://app?vid=993c448a-75ad-470d-8d1c-7cd2f74b7683","ios":"levelo://app?vid=993c448a-75ad-470d-8d1c-7cd2f74b7683"},"vehicle_type_id":"4","last_reported":1685282707,"current_range_meters":14000,"station_id":"ce4bgjh2rcd13ifvqbf0","pricing_plan_id":"free"},{"bike_id":"f7db255e-c11f-43d1-aa47-b5a171589828","system_id":"levelo_inurba_marseille","lat":43.29194,"lon":5.35806,"is_reserved":false,"is_disabled":false,"rental_uris":{"android":"levelo://app?vid=f7db255e-c11f-43d1-aa47-b5a171589828","ios":"levelo://app?vid=f7db255e-c11f-43d1-aa47-b5a171589828"},"vehicle_type_id":"4","last_reported":1685282707,"current_range_meters":0,"station_id":"ce4bh692rcd13ifvqea0","pricing_plan_id":"free"},{"bike_id":"9b952668-18b6-4a0c-a095-579b7021b9a0","system_id":"levelo_inurba_marseille","lat":43.313291,"lon":5.396838,"is_reserved":false,"is_disabled":false,"rental_uris":{"android":"levelo://app?vid=9b952668-18b6-4a0c-a095-579b7021b9a0","ios":"levelo://app?vid=9b952668-18b6-4a0c-a095-579b7021b9a0"},"vehicle_type_id":"4","last_reported":1685282707,"current_range_meters":24000,"station_id":"ce4bgvp2rcd13ifvqcu0","pricing_plan_id":"free"},{"bike_id":"fad317bf-374e-44e3-a5da-c3cbe5378537","system_id":"levelo_inurba_marseille","lat":43.29539,"lon":5.3858,"is_reserved":false,"is_disabled":false,"rental_uris":{"android":"levelo://app?vid=fad317bf-374e-44e3-a5da-c3cbe5378537","ios":"levelo://app?vid=fad317bf-374e-44e3-a5da-c3cbe5378537"},"vehicle_type_id":"4","last_reported":1685282707,"current_range_meters":16000,"station_id":"","pricing_plan_id":"free"},{"bike_id":"fe2ac4a9-8765-4d3d-b329-845e87757940","system_id":"levelo_inurba_marseille","lat":43.290631,"lon":5.359244,"is_reserved":false,"is_disabled":false,"rental_uris":{"android":"levelo://app?vid=fe2ac4a9-8765-4d3d-b329-845e87757940","ios":"levelo://app?vid=fe2ac4a9-8765-4d3d-b329-845e87757940"},"vehicle_type_id":"4","last_reported":1685282707,"current_range_meters":2000,"station_id":"ce4bha92rcd13ifvqeg0","pricing_plan_id":"free"},{"bike_id":"9095d295-04bf-4a2f-bc0a-32dcb1e036a6","system_id":"levelo_inurba_marseille","lat":43.290327,"lon":5.375711,"is_reserved":false,"is_disabled":false,"rental_uris":{"android":"levelo://app?vid=9095d295-04bf-4a2f-bc0a-32dcb1e036a6","ios":"levelo://app?vid=9095d295-04bf-4a2f-bc0a-32dcb1e036a6"},"vehicle_type_id":"4","last_reported":1685282707,"current_range_meters":400,"station_id":"ce4bh692rcd13ifvqe90","pricing_plan_id":"free"},{"bike_id":"9d10140c-3a48-4bb3-b44a-8a8e3a8b5efc","system_id":"levelo_inurba_marseille","lat":43.30906,"lon":5.39925,"is_reserved":false,"is_disabled":false,"rental_uris":{"android":"levelo://app?vid=9d10140c-3a48-4bb3-b44a-8a8e3a8b5efc","ios":"levelo://app?vid=9d10140c-3a48-4bb3-b44a-8a8e3a8b5efc"},"vehicle_type_id":"4","last_reported":1685282707,"current_range_meters":4000,"station_id":"","pricing_plan_id":"free"},{"bike_id":"d9dbfb34-d542-4d8e-abae-870f5b20d5cb","system_id":"levelo_inurba_marseille","lat":43.29011,"lon":5.35615,"is_reserved":false,"is_disabled":false,"rental_uris":{"android":"levelo://app?vid=d9dbfb34-d542-4d8e-abae-870f5b20d5cb","ios":"levelo://app?vid=d9dbfb34-d542-4d8e-abae-870f5b20d5cb"},"vehicle_type_id":"4","last_reported":1685282707,"current_range_meters":800,"station_id":"ce4bhb92rcd13ifvqen0","pricing_plan_id":"free"},{"bike_id":"c1759d02-01b7-4bf0-a03f-c6cee8eacaa7","system_id":"levelo_inurba_marseille","lat":43.290104,"lon":5.356111,"is_reserved":false,"is_disabled":false,"rental_uris":{"android":"levelo://app?vid=c1759d02-01b7-4bf0-a03f-c6cee8eacaa7","ios":"levelo://app?vid=c1759d02-01b7-4bf0-a03f-c6cee8eacaa7"},"vehicle_type_id":"4","last_reported":1685282707,"current_range_meters":0,"station_id":"ce4bhb92rcd13ifvqen0","pricing_plan_id":"free"},{"bike_id":"1dd64e1f-1589-43af-b279-7901133b8d87","system_id":"levelo_inurba_marseille","lat":43.2901,"lon":5.35612,"is_reserved":false,"is_disabled":false,"rental_uris":{"android":"levelo://app?vid=1dd64e1f-1589-43af-b279-7901133b8d87","ios":"levelo://app?vid=1dd64e1f-1589-43af-b279-7901133b8d87"},"vehicle_type_id":"4","last_reported":1685282707,"current_range_meters":26400,"station_id":"ce4bhb92rcd13ifvqen0","pricing_plan_id":"free"},{"bike_id":"9b42bcc3-d1c5-44d8-8534-b4d580960626","system_id":"levelo_inurba_marseille","lat":43.290995,"lon":5.381361,"is_reserved":false,"is_disabled":false,"rental_uris":{"android":"levelo://app?vid=9b42bcc3-d1c5-44d8-8534-b4d580960626","ios":"levelo://app?vid=9b42bcc3-d1c5-44d8-8534-b4d580960626"},"vehicle_type_id":"4","last_reported":1685282707,"current_range_meters":0,"station_id":"ce4bh512rcd13ifvqe2g","pricing_plan_id":"free"},{"bike_id":"288f0e72-0269-4a36-8db9-2521f41b0290","system_id":"levelo_inurba_marseille","lat":43.295169,"lon":5.390426,"is_reserved":false,"is_disabled":false,"rental_uris":{"android":"levelo://app?vid=288f0e72-0269-4a36-8db9-2521f41b0290","ios":"levelo://app?vid=288f0e72-0269-4a36-8db9-2521f41b0290"},"vehicle_type_id":"4","last_reported":1685282707,"current_range_meters":8400,"station_id":"ce4bh3p2rcd13ifvqdp0","pricing_plan_id":"free"},{"bike_id":"141c14ea-594b-43ee-894e-8c44af1dcd73","system_id":"levelo_inurba_marseille","lat":43.33736,"lon":5.37447,"is_reserved":false,"is_disabled":false,"rental_uris":{"android":"levelo://app?vid=141c14ea-594b-43ee-894e-8c44af1dcd73","ios":"levelo://app?vid=141c14ea-594b-43ee-894e-8c44af1dcd73"},"vehicle_type_id":"4","last_reported":1685282707,"current_range_meters":31200,"station_id":"","pricing_plan_id":"free"},{"bike_id":"4d395139-b839-4ab0-8519-abb908308d08","system_id":"levelo_inurba_marseille","lat":43.33743,"lon":5.37448,"is_reserved":false,"is_disabled":false,"rental_uris":{"android":"levelo://app?vid=4d395139-b839-4ab0-8519-abb908308d08","ios":"levelo://app?vid=4d395139-b839-4ab0-8519-abb908308d08"},"vehicle_type_id":"4","last_reported":1685282707,"current_range_meters":29600,"station_id":"","pricing_plan_id":"free"},{"bike_id":"493860ce-e063-4684-ab33-c360eaf64153","system_id":"levelo_inurba_marseille","lat":43.33744,"lon":5.37451,"is_reserved":false,"is_disabled":false,"rental_uris":{"android":"levelo://app?vid=493860ce-e063-4684-ab33-c360eaf64153","ios":"levelo://app?vid=493860ce-e063-4684-ab33-c360eaf64153"},"vehicle_type_id":"4","last_reported":1685282707,"current_range_meters":18000,"station_id":"","pricing_plan_id":"free"},{"bike_id":"c67b547c-3fcb-4384-8614-e15f558fec55","system_id":"levelo_inurba_marseille","lat":43.33744,"lon":5.37451,"is_reserved":false,"is_disabled":false,"rental_uris":{"android":"levelo://app?vid=c67b547c-3fcb-4384-8614-e15f558fec55","ios":"levelo://app?vid=c67b547c-3fcb-4384-8614-e15f558fec55"},"vehicle_type_id":"4","last_reported":1685282707,"current_range_meters":27200,"station_id":"","pricing_plan_id":"free"},{"bike_id":"5aaf445f-f097-4041-99e9-0b2edc8a39b1","system_id":"levelo_inurba_marseille","lat":43.33755,"lon":5.37434,"is_reserved":false,"is_disabled":false,"rental_uris":{"android":"levelo://app?vid=5aaf445f-f097-4041-99e9-0b2edc8a39b1","ios":"levelo://app?vid=5aaf445f-f097-4041-99e9-0b2edc8a39b1"},"vehicle_type_id":"4","last_reported":1685282707,"current_range_meters":28800,"station_id":"","pricing_plan_id":"free"},{"bike_id":"915a1d5d-0a9c-4982-bd00-ae384a29cdde","system_id":"levelo_inurba_marseille","lat":43.33757,"lon":5.37444,"is_reserved":false,"is_disabled":false,"rental_uris":{"android":"levelo://app?vid=915a1d5d-0a9c-4982-bd00-ae384a29cdde","ios":"levelo://app?vid=915a1d5d-0a9c-4982-bd00-ae384a29cdde"},"vehicle_type_id":"4","last_reported":1685282707,"current_range_meters":30400,"station_id":"","pricing_plan_id":"free"},{"bike_id":"556c6db1-2600-4c2b-9521-aae8453517c1","system_id":"levelo_inurba_marseille","lat":43.3376,"lon":5.3744,"is_reserved":false,"is_disabled":false,"rental_uris":{"android":"levelo://app?vid=556c6db1-2600-4c2b-9521-aae8453517c1","ios":"levelo://app?vid=556c6db1-2600-4c2b-9521-aae8453517c1"},"vehicle_type_id":"4","last_reported":1685282707,"current_range_meters":14000,"station_id":"","pricing_plan_id":"free"},{"bike_id":"4becb800-8c61-4c6b-921f-721f24ca6afa","system_id":"levelo_inurba_marseille","lat":43.305994,"lon":5.393687,"is_reserved":false,"is_disabled":false,"rental_uris":{"android":"levelo://app?vid=4becb800-8c61-4c6b-921f-721f24ca6afa","ios":"levelo://app?vid=4becb800-8c61-4c6b-921f-721f24ca6afa"},"vehicle_type_id":"4","last_reported":1685282707,"current_range_meters":15200,"station_id":"ce4bh0p2rcd13ifvqd80","pricing_plan_id":"free"},{"bike_id":"0a0d08dc-2010-4c1c-b6ac-faac4edef7cb","system_id":"levelo_inurba_marseille","lat":43.28607,"lon":5.37072,"is_reserved":false,"is_disabled":false,"rental_uris":{"android":"levelo://app?vid=0a0d08dc-2010-4c1c-b6ac-faac4edef7cb","ios":"levelo://app?vid=0a0d08dc-2010-4c1c-b6ac-faac4edef7cb"},"vehicle_type_id":"4","last_reported":1685282707,"current_range_meters":0,"station_id":"ce4bht12rcd13ifvqi60","pricing_plan_id":"free"},{"bike_id":"caa37214-e65e-4b21-87d1-283a386dabe4","system_id":"levelo_inurba_marseille","lat":43.316517,"lon":5.404375,"is_reserved":false,"is_disabled":false,"rental_uris":{"android":"levelo://app?vid=caa37214-e65e-4b21-87d1-283a386dabe4","ios":"levelo://app?vid=caa37214-e65e-4b21-87d1-283a386dabe4"},"vehicle_type_id":"4","last_reported":1685282707,"current_range_meters":26400,"station_id":"ce4bh012rcd13ifvqd00","pricing_plan_id":"free"},{"bike_id":"2e93c53c-b865-48f9-bd2b-9145e3ff1e70","system_id":"levelo_inurba_marseille","lat":43.291994,"lon":5.392907,"is_reserved":false,"is_disabled":false,"rental_uris":{"android":"levelo://app?vid=2e93c53c-b865-48f9-bd2b-9145e3ff1e70","ios":"levelo://app?vid=2e93c53c-b865-48f9-bd2b-9145e3ff1e70"},"vehicle_type_id":"4","last_reported":1685282707,"current_range_meters":5600,"station_id":"ce4bh192rcd13ifvqdd0","pricing_plan_id":"free"},{"bike_id":"1a97119a-13d6-48dc-b5d2-699092bed7a6","system_id":"levelo_inurba_marseille","lat":43.286158,"lon":5.351137,"is_reserved":false,"is_disabled":false,"rental_uris":{"android":"levelo://app?vid=1a97119a-13d6-48dc-b5d2-699092bed7a6","ios":"levelo://app?vid=1a97119a-13d6-48dc-b5d2-699092bed7a6"},"vehicle_type_id":"4","last_reported":1685282707,"current_range_meters":2000,"station_id":"","pricing_plan_id":"free"},{"bike_id":"738d9153-dc99-422a-bc89-503c319622ff","system_id":"levelo_inurba_marseille","lat":43.286595,"lon":5.386795,"is_reserved":false,"is_disabled":false,"rental_uris":{"android":"levelo://app?vid=738d9153-dc99-422a-bc89-503c319622ff","ios":"levelo://app?vid=738d9153-dc99-422a-bc89-503c319622ff"},"vehicle_type_id":"4","last_reported":1685282707,"current_range_meters":6000,"station_id":"ce4bh492rcd13ifvqdug","pricing_plan_id":"free"},{"bike_id":"5936656b-276a-456b-b7bb-273f8a37025e","system_id":"levelo_inurba_marseille","lat":43.32341,"lon":5.40616,"is_reserved":false,"is_disabled":false,"rental_uris":{"android":"levelo://app?vid=5936656b-276a-456b-b7bb-273f8a37025e","ios":"levelo://app?vid=5936656b-276a-456b-b7bb-273f8a37025e"},"vehicle_type_id":"4","last_reported":1685282707,"current_range_meters":4400,"station_id":"ce4bhq92rcd13ifvqhjg","pricing_plan_id":"free"},{"bike_id":"12b97231-b334-4083-9232-cac67a3556bb","system_id":"levelo_inurba_marseille","lat":43.323464,"lon":5.406297,"is_reserved":false,"is_disabled":false,"rental_uris":{"android":"levelo://app?vid=12b97231-b334-4083-9232-cac67a3556bb","ios":"levelo://app?vid=12b97231-b334-4083-9232-cac67a3556bb"},"vehicle_type_id":"4","last_reported":1685282707,"current_range_meters":28400,"station_id":"ce4bhq92rcd13ifvqhjg","pricing_plan_id":"free"},{"bike_id":"b8ebd8b0-c1f7-47d8-ac66-c7ad3c987603","system_id":"levelo_inurba_marseille","lat":43.288501,"lon":5.393087,"is_reserved":false,"is_disabled":false,"rental_uris":{"android":"levelo://app?vid=b8ebd8b0-c1f7-47d8-ac66-c7ad3c987603","ios":"levelo://app?vid=b8ebd8b0-c1f7-47d8-ac66-c7ad3c987603"},"vehicle_type_id":"4","last_reported":1685282707,"current_range_meters":0,"station_id":"ce4bh2p2rcd13ifvqdi0","pricing_plan_id":"free"},{"bike_id":"93914af8-004a-42cc-8758-937d670abd60","system_id":"levelo_inurba_marseille","lat":43.284219,"lon":5.3497,"is_reserved":false,"is_disabled":false,"rental_uris":{"android":"levelo://app?vid=93914af8-004a-42cc-8758-937d670abd60","ios":"levelo://app?vid=93914af8-004a-42cc-8758-937d670abd60"},"vehicle_type_id":"4","last_reported":1685282707,"current_range_meters":0,"station_id":"ce4bhbh2rcd13ifvqepg","pricing_plan_id":"free"},{"bike_id":"48061568-ed40-481d-b3eb-8839bf416554","system_id":"levelo_inurba_marseille","lat":43.284219,"lon":5.3497,"is_reserved":false,"is_disabled":false,"rental_uris":{"android":"levelo://app?vid=48061568-ed40-481d-b3eb-8839bf416554","ios":"levelo://app?vid=48061568-ed40-481d-b3eb-8839bf416554"},"vehicle_type_id":"4","last_reported":1685282707,"current_range_meters":5600,"station_id":"ce4bhbh2rcd13ifvqepg","pricing_plan_id":"free"},{"bike_id":"80105487-f365-405d-b0da-f5169645ba45","system_id":"levelo_inurba_marseille","lat":43.282754,"lon":5.350519,"is_reserved":false,"is_disabled":false,"rental_uris":{"android":"levelo://app?vid=80105487-f365-405d-b0da-f5169645ba45","ios":"levelo://app?vid=80105487-f365-405d-b0da-f5169645ba45"},"vehicle_type_id":"4","last_reported":1685282707,"current_range_meters":0,"station_id":"ce4bhbp2rcd13ifvqerg","pricing_plan_id":"free"},{"bike_id":"00084d41-ea9a-438c-a62f-3809f787b14f","system_id":"levelo_inurba_marseille","lat":43.282754,"lon":5.350519,"is_reserved":false,"is_disabled":false,"rental_uris":{"android":"levelo://app?vid=00084d41-ea9a-438c-a62f-3809f787b14f","ios":"levelo://app?vid=00084d41-ea9a-438c-a62f-3809f787b14f"},"vehicle_type_id":"4","last_reported":1685282707,"current_range_meters":26800,"station_id":"ce4bhbp2rcd13ifvqerg","pricing_plan_id":"free"},{"bike_id":"0b4e964b-5552-49f1-9a6d-f4af49f01bc6","system_id":"levelo_inurba_marseille","lat":43.28039,"lon":5.369297,"is_reserved":false,"is_disabled":false,"rental_uris":{"android":"levelo://app?vid=0b4e964b-5552-49f1-9a6d-f4af49f01bc6","ios":"levelo://app?vid=0b4e964b-5552-49f1-9a6d-f4af49f01bc6"},"vehicle_type_id":"4","last_reported":1685282707,"current_range_meters":27600,"station_id":"ce4bha12rcd13ifvqef0","pricing_plan_id":"free"},{"bike_id":"2efbc69b-b672-47a1-8101-b7f290605679","system_id":"levelo_inurba_marseille","lat":43.282754,"lon":5.350519,"is_reserved":false,"is_disabled":false,"rental_uris":{"android":"levelo://app?vid=2efbc69b-b672-47a1-8101-b7f290605679","ios":"levelo://app?vid=2efbc69b-b672-47a1-8101-b7f290605679"},"vehicle_type_id":"4","last_reported":1685282707,"current_range_meters":12000,"station_id":"ce4bhbp2rcd13ifvqerg","pricing_plan_id":"free"},{"bike_id":"139f18f6-b689-4604-adff-4e2609c99a59","system_id":"levelo_inurba_marseille","lat":43.282744,"lon":5.350533,"is_reserved":false,"is_disabled":false,"rental_uris":{"android":"levelo://app?vid=139f18f6-b689-4604-adff-4e2609c99a59","ios":"levelo://app?vid=139f18f6-b689-4604-adff-4e2609c99a59"},"vehicle_type_id":"4","last_reported":1685282707,"current_range_meters":0,"station_id":"ce4bhbp2rcd13ifvqerg","pricing_plan_id":"free"},{"bike_id":"0d93a6f3-a4d6-4a65-9c2f-626987842205","system_id":"levelo_inurba_marseille","lat":43.329059,"lon":5.405417,"is_reserved":false,"is_disabled":false,"rental_uris":{"android":"levelo://app?vid=0d93a6f3-a4d6-4a65-9c2f-626987842205","ios":"levelo://app?vid=0d93a6f3-a4d6-4a65-9c2f-626987842205"},"vehicle_type_id":"4","last_reported":1685282707,"current_range_meters":29200,"station_id":"","pricing_plan_id":"free"},{"bike_id":"cd898de2-9429-4cda-bf1e-6da0454b7a67","system_id":"levelo_inurba_marseille","lat":43.28037,"lon":5.3693,"is_reserved":false,"is_disabled":false,"rental_uris":{"android":"levelo://app?vid=cd898de2-9429-4cda-bf1e-6da0454b7a67","ios":"levelo://app?vid=cd898de2-9429-4cda-bf1e-6da0454b7a67"},"vehicle_type_id":"4","last_reported":1685282707,"current_range_meters":24000,"station_id":"ce4bha12rcd13ifvqef0","pricing_plan_id":"free"},{"bike_id":"4c553bb6-171a-4f11-bd8d-6584ab7542ea","system_id":"levelo_inurba_marseille","lat":43.281044,"lon":5.378308,"is_reserved":false,"is_disabled":false,"rental_uris":{"android":"levelo://app?vid=4c553bb6-171a-4f11-bd8d-6584ab7542ea","ios":"levelo://app?vid=4c553bb6-171a-4f11-bd8d-6584ab7542ea"},"vehicle_type_id":"4","last_reported":1685282707,"current_range_meters":2000,"station_id":"ce4bha12rcd13ifvqee0","pricing_plan_id":"free"},{"bike_id":"25a0fa89-3a99-4df2-993c-9a584a17a589","system_id":"levelo_inurba_marseille","lat":43.28455,"lon":5.392,"is_reserved":false,"is_disabled":false,"rental_uris":{"android":"levelo://app?vid=25a0fa89-3a99-4df2-993c-9a584a17a589","ios":"levelo://app?vid=25a0fa89-3a99-4df2-993c-9a584a17a589"},"vehicle_type_id":"4","last_reported":1685282707,"current_range_meters":12000,"station_id":"ce4bhoh2rcd13ifvqh5g","pricing_plan_id":"free"},{"bike_id":"19603ae2-1616-4c2c-b5c6-96a8869b8e99","system_id":"levelo_inurba_marseille","lat":43.28043,"lon":5.35092,"is_reserved":false,"is_disabled":false,"rental_uris":{"android":"levelo://app?vid=19603ae2-1616-4c2c-b5c6-96a8869b8e99","ios":"levelo://app?vid=19603ae2-1616-4c2c-b5c6-96a8869b8e99"},"vehicle_type_id":"4","last_reported":1685282707,"current_range_meters":17600,"station_id":"","pricing_plan_id":"free"},{"bike_id":"18d50b18-3ba8-4e64-8d37-33c09c70e81b","system_id":"levelo_inurba_marseille","lat":43.32032,"lon":5.41568,"is_reserved":false,"is_disabled":false,"rental_uris":{"android":"levelo://app?vid=18d50b18-3ba8-4e64-8d37-33c09c70e81b","ios":"levelo://app?vid=18d50b18-3ba8-4e64-8d37-33c09c70e81b"},"vehicle_type_id":"4","last_reported":1685282707,"current_range_meters":13200,"station_id":"","pricing_plan_id":"free"},{"bike_id":"af5fbedf-17a8-4596-a513-f43c80d71bbb","system_id":"levelo_inurba_marseille","lat":43.320045,"lon":5.415048,"is_reserved":false,"is_disabled":false,"rental_uris":{"android":"levelo://app?vid=af5fbedf-17a8-4596-a513-f43c80d71bbb","ios":"levelo://app?vid=af5fbedf-17a8-4596-a513-f43c80d71bbb"},"vehicle_type_id":"4","last_reported":1685282707,"current_range_meters":24400,"station_id":"ce4bhq92rcd13ifvqhkg","pricing_plan_id":"free"},{"bike_id":"58b00bf2-a752-4133-9b5b-5fe9282dd0e4","system_id":"levelo_inurba_marseille","lat":43.32543,"lon":5.41429,"is_reserved":false,"is_disabled":false,"rental_uris":{"android":"levelo://app?vid=58b00bf2-a752-4133-9b5b-5fe9282dd0e4","ios":"levelo://app?vid=58b00bf2-a752-4133-9b5b-5fe9282dd0e4"},"vehicle_type_id":"4","last_reported":1685282707,"current_range_meters":23200,"station_id":"ce4bhq12rcd13ifvqhhg","pricing_plan_id":"free"},{"bike_id":"c854dc95-d20c-4a76-8744-f2a2a9e8caa9","system_id":"levelo_inurba_marseille","lat":43.27618,"lon":5.361009,"is_reserved":false,"is_disabled":false,"rental_uris":{"android":"levelo://app?vid=c854dc95-d20c-4a76-8744-f2a2a9e8caa9","ios":"levelo://app?vid=c854dc95-d20c-4a76-8744-f2a2a9e8caa9"},"vehicle_type_id":"4","last_reported":1685282707,"current_range_meters":21200,"station_id":"ce4bgj92rcd13ifvqbe0","pricing_plan_id":"free"},{"bike_id":"17defb7b-73d2-4c73-8da2-14b07aaf0e7a","system_id":"levelo_inurba_marseille","lat":43.27618,"lon":5.361009,"is_reserved":false,"is_disabled":false,"rental_uris":{"android":"levelo://app?vid=17defb7b-73d2-4c73-8da2-14b07aaf0e7a","ios":"levelo://app?vid=17defb7b-73d2-4c73-8da2-14b07aaf0e7a"},"vehicle_type_id":"4","last_reported":1685282707,"current_range_meters":22000,"station_id":"ce4bgj92rcd13ifvqbe0","pricing_plan_id":"free"},{"bike_id":"0c7d11ad-40d2-411f-accf-354e253d2c59","system_id":"levelo_inurba_marseille","lat":43.325233,"lon":5.414318,"is_reserved":false,"is_disabled":false,"rental_uris":{"android":"levelo://app?vid=0c7d11ad-40d2-411f-accf-354e253d2c59","ios":"levelo://app?vid=0c7d11ad-40d2-411f-accf-354e253d2c59"},"vehicle_type_id":"4","last_reported":1685282707,"current_range_meters":31200,"station_id":"ce4bhq12rcd13ifvqhhg","pricing_plan_id":"free"},{"bike_id":"8f008cb2-571b-41ba-840b-e46ca88a0bd4","system_id":"levelo_inurba_marseille","lat":43.27618,"lon":5.361009,"is_reserved":false,"is_disabled":false,"rental_uris":{"android":"levelo://app?vid=8f008cb2-571b-41ba-840b-e46ca88a0bd4","ios":"levelo://app?vid=8f008cb2-571b-41ba-840b-e46ca88a0bd4"},"vehicle_type_id":"4","last_reported":1685282707,"current_range_meters":3600,"station_id":"ce4bgj92rcd13ifvqbe0","pricing_plan_id":"free"},{"bike_id":"86519cc7-fb63-498d-9b9c-0b58be653fb3","system_id":"levelo_inurba_marseille","lat":43.276179,"lon":5.361009,"is_reserved":false,"is_disabled":false,"rental_uris":{"android":"levelo://app?vid=86519cc7-fb63-498d-9b9c-0b58be653fb3","ios":"levelo://app?vid=86519cc7-fb63-498d-9b9c-0b58be653fb3"},"vehicle_type_id":"4","last_reported":1685282707,"current_range_meters":12400,"station_id":"ce4bgj92rcd13ifvqbe0","pricing_plan_id":"free"},{"bike_id":"ff0852a5-f0d0-487a-a2ea-3e107ed7d81c","system_id":"levelo_inurba_marseille","lat":43.27619,"lon":5.36096,"is_reserved":false,"is_disabled":false,"rental_uris":{"android":"levelo://app?vid=ff0852a5-f0d0-487a-a2ea-3e107ed7d81c","ios":"levelo://app?vid=ff0852a5-f0d0-487a-a2ea-3e107ed7d81c"},"vehicle_type_id":"4","last_reported":1685282707,"current_range_meters":14000,"station_id":"ce4bgj92rcd13ifvqbe0","pricing_plan_id":"free"},{"bike_id":"fc13c5c6-2887-4670-86af-1bfd728a6c54","system_id":"levelo_inurba_marseille","lat":43.325233,"lon":5.414318,"is_reserved":false,"is_disabled":false,"rental_uris":{"android":"levelo://app?vid=fc13c5c6-2887-4670-86af-1bfd728a6c54","ios":"levelo://app?vid=fc13c5c6-2887-4670-86af-1bfd728a6c54"},"vehicle_type_id":"4","last_reported":1685282707,"current_range_meters":30400,"station_id":"ce4bhq12rcd13ifvqhhg","pricing_plan_id":"free"},{"bike_id":"135c3448-dd17-4a17-9fbf-3b5eeed87572","system_id":"levelo_inurba_marseille","lat":43.27616,"lon":5.36106,"is_reserved":false,"is_disabled":false,"rental_uris":{"android":"levelo://app?vid=135c3448-dd17-4a17-9fbf-3b5eeed87572","ios":"levelo://app?vid=135c3448-dd17-4a17-9fbf-3b5eeed87572"},"vehicle_type_id":"4","last_reported":1685282707,"current_range_meters":6800,"station_id":"ce4bgj92rcd13ifvqbe0","pricing_plan_id":"free"},{"bike_id":"38602ac1-4402-4544-b19a-1d1c8d66f3cb","system_id":"levelo_inurba_marseille","lat":43.280382,"lon":5.369291,"is_reserved":false,"is_disabled":false,"rental_uris":{"android":"levelo://app?vid=38602ac1-4402-4544-b19a-1d1c8d66f3cb","ios":"levelo://app?vid=38602ac1-4402-4544-b19a-1d1c8d66f3cb"},"vehicle_type_id":"4","last_reported":1685282707,"current_range_meters":17600,"station_id":"ce4bha12rcd13ifvqef0","pricing_plan_id":"free"},{"bike_id":"1119f40a-0893-49d5-a275-5da45e5a48d5","system_id":"levelo_inurba_marseille","lat":43.30357,"lon":5.41877,"is_reserved":false,"is_disabled":false,"rental_uris":{"android":"levelo://app?vid=1119f40a-0893-49d5-a275-5da45e5a48d5","ios":"levelo://app?vid=1119f40a-0893-49d5-a275-5da45e5a48d5"},"vehicle_type_id":"4","last_reported":1685282707,"current_range_meters":15200,"station_id":"","pricing_plan_id":"free"},{"bike_id":"2d07d6fd-a3bd-4bcf-9b03-54b1487c9558","system_id":"levelo_inurba_marseille","lat":43.303837,"lon":5.418724,"is_reserved":false,"is_disabled":false,"rental_uris":{"android":"levelo://app?vid=2d07d6fd-a3bd-4bcf-9b03-54b1487c9558","ios":"levelo://app?vid=2d07d6fd-a3bd-4bcf-9b03-54b1487c9558"},"vehicle_type_id":"4","last_reported":1685282707,"current_range_meters":16000,"station_id":"ce4bhop2rcd13ifvqh7g","pricing_plan_id":"free"},{"bike_id":"09666214-8d74-4d02-b590-fedff9c9c459","system_id":"levelo_inurba_marseille","lat":43.303837,"lon":5.418724,"is_reserved":false,"is_disabled":false,"rental_uris":{"android":"levelo://app?vid=09666214-8d74-4d02-b590-fedff9c9c459","ios":"levelo://app?vid=09666214-8d74-4d02-b590-fedff9c9c459"},"vehicle_type_id":"4","last_reported":1685282707,"current_range_meters":0,"station_id":"ce4bhop2rcd13ifvqh7g","pricing_plan_id":"free"},{"bike_id":"72b5ce1a-ff36-4752-b9f7-4cbd55df99e3","system_id":"levelo_inurba_marseille","lat":43.336029,"lon":5.410322,"is_reserved":false,"is_disabled":false,"rental_uris":{"android":"levelo://app?vid=72b5ce1a-ff36-4752-b9f7-4cbd55df99e3","ios":"levelo://app?vid=72b5ce1a-ff36-4752-b9f7-4cbd55df99e3"},"vehicle_type_id":"4","last_reported":1685282707,"current_range_meters":17200,"station_id":"ce4bhqh2rcd13ifvqhmg","pricing_plan_id":"free"},{"bike_id":"91b49189-18df-431a-bbbf-f0b2350181de","system_id":"levelo_inurba_marseille","lat":43.28432,"lon":5.40795,"is_reserved":false,"is_disabled":false,"rental_uris":{"android":"levelo://app?vid=91b49189-18df-431a-bbbf-f0b2350181de","ios":"levelo://app?vid=91b49189-18df-431a-bbbf-f0b2350181de"},"vehicle_type_id":"4","last_reported":1685282707,"current_range_meters":6800,"station_id":"","pricing_plan_id":"free"},{"bike_id":"de88f9bd-fcfb-40fa-8f4f-0c4afdfd2242","system_id":"levelo_inurba_marseille","lat":43.27777,"lon":5.3993,"is_reserved":false,"is_disabled":false,"rental_uris":{"android":"levelo://app?vid=de88f9bd-fcfb-40fa-8f4f-0c4afdfd2242","ios":"levelo://app?vid=de88f9bd-fcfb-40fa-8f4f-0c4afdfd2242"},"vehicle_type_id":"4","last_reported":1685282707,"current_range_meters":1200,"station_id":"","pricing_plan_id":"free"},{"bike_id":"901acf09-683f-40fe-87a3-d76f7acac581","system_id":"levelo_inurba_marseille","lat":43.267966,"lon":5.393976,"is_reserved":false,"is_disabled":false,"rental_uris":{"android":"levelo://app?vid=901acf09-683f-40fe-87a3-d76f7acac581","ios":"levelo://app?vid=901acf09-683f-40fe-87a3-d76f7acac581"},"vehicle_type_id":"4","last_reported":1685282707,"current_range_meters":15600,"station_id":"ce4bhh12rcd13ifvqfg0","pricing_plan_id":"free"},{"bike_id":"61975327-2901-4c46-99c0-45dcaddab9b1","system_id":"levelo_inurba_marseille","lat":43.27309,"lon":5.39087,"is_reserved":false,"is_disabled":false,"rental_uris":{"android":"levelo://app?vid=61975327-2901-4c46-99c0-45dcaddab9b1","ios":"levelo://app?vid=61975327-2901-4c46-99c0-45dcaddab9b1"},"vehicle_type_id":"4","last_reported":1685282707,"current_range_meters":0,"station_id":"ce4bhgp2rcd13ifvqfe0","pricing_plan_id":"free"},{"bike_id":"e6108df7-f7be-4317-8431-063f76a955a5","system_id":"levelo_inurba_marseille","lat":43.295523,"lon":5.422926,"is_reserved":false,"is_disabled":false,"rental_uris":{"android":"levelo://app?vid=e6108df7-f7be-4317-8431-063f76a955a5","ios":"levelo://app?vid=e6108df7-f7be-4317-8431-063f76a955a5"},"vehicle_type_id":"4","last_reported":1685282707,"current_range_meters":3600,"station_id":"ce4bhph2rcd13ifvqhdg","pricing_plan_id":"free"},{"bike_id":"fe608350-37a2-4b8d-aca4-8c27203f027f","system_id":"levelo_inurba_marseille","lat":43.29511,"lon":5.42284,"is_reserved":false,"is_disabled":false,"rental_uris":{"android":"levelo://app?vid=fe608350-37a2-4b8d-aca4-8c27203f027f","ios":"levelo://app?vid=fe608350-37a2-4b8d-aca4-8c27203f027f"},"vehicle_type_id":"4","last_reported":1685282707,"current_range_meters":9200,"station_id":"","pricing_plan_id":"free"},{"bike_id":"33d1e1c2-2744-4574-bca4-da0526757fd0","system_id":"levelo_inurba_marseille","lat":43.272116,"lon":5.391763,"is_reserved":false,"is_disabled":false,"rental_uris":{"android":"levelo://app?vid=33d1e1c2-2744-4574-bca4-da0526757fd0","ios":"levelo://app?vid=33d1e1c2-2744-4574-bca4-da0526757fd0"},"vehicle_type_id":"4","last_reported":1685282707,"current_range_meters":1200,"station_id":"ce4bhhp2rcd13ifvqfm0","pricing_plan_id":"free"},{"bike_id":"39877aaa-7cc8-4554-bd13-730e21a51e75","system_id":"levelo_inurba_marseille","lat":43.2721,"lon":5.39183,"is_reserved":false,"is_disabled":false,"rental_uris":{"android":"levelo://app?vid=39877aaa-7cc8-4554-bd13-730e21a51e75","ios":"levelo://app?vid=39877aaa-7cc8-4554-bd13-730e21a51e75"},"vehicle_type_id":"4","last_reported":1685282707,"current_range_meters":8800,"station_id":"ce4bhhp2rcd13ifvqfm0","pricing_plan_id":"free"},{"bike_id":"97f92444-dc7f-4ac8-885e-43ac50454dc0","system_id":"levelo_inurba_marseille","lat":43.31686,"lon":5.43303,"is_reserved":false,"is_disabled":false,"rental_uris":{"android":"levelo://app?vid=97f92444-dc7f-4ac8-885e-43ac50454dc0","ios":"levelo://app?vid=97f92444-dc7f-4ac8-885e-43ac50454dc0"},"vehicle_type_id":"4","last_reported":1685282707,"current_range_meters":0,"station_id":"","pricing_plan_id":"free"},{"bike_id":"8a5b42c9-20c3-4e3f-add9-63dcdd495f7c","system_id":"levelo_inurba_marseille","lat":43.27996,"lon":5.416624,"is_reserved":false,"is_disabled":false,"rental_uris":{"android":"levelo://app?vid=8a5b42c9-20c3-4e3f-add9-63dcdd495f7c","ios":"levelo://app?vid=8a5b42c9-20c3-4e3f-add9-63dcdd495f7c"},"vehicle_type_id":"4","last_reported":1685282707,"current_range_meters":8400,"station_id":"ce4bho12rcd13ifvqh1g","pricing_plan_id":"free"},{"bike_id":"b8e07922-f074-4378-9c0d-0a256de36fe0","system_id":"levelo_inurba_marseille","lat":43.30809,"lon":5.4352,"is_reserved":false,"is_disabled":false,"rental_uris":{"android":"levelo://app?vid=b8e07922-f074-4378-9c0d-0a256de36fe0","ios":"levelo://app?vid=b8e07922-f074-4378-9c0d-0a256de36fe0"},"vehicle_type_id":"4","last_reported":1685282707,"current_range_meters":14000,"station_id":"","pricing_plan_id":"free"},{"bike_id":"668d24d3-39bc-4631-adb6-3e493408b24e","system_id":"levelo_inurba_marseille","lat":43.30805,"lon":5.43522,"is_reserved":false,"is_disabled":false,"rental_uris":{"android":"levelo://app?vid=668d24d3-39bc-4631-adb6-3e493408b24e","ios":"levelo://app?vid=668d24d3-39bc-4631-adb6-3e493408b24e"},"vehicle_type_id":"4","last_reported":1685282707,"current_range_meters":2400,"station_id":"","pricing_plan_id":"free"},{"bike_id":"760bfc38-e96f-40b9-8091-70e7d4460480","system_id":"levelo_inurba_marseille","lat":43.26196,"lon":5.37934,"is_reserved":false,"is_disabled":false,"rental_uris":{"android":"levelo://app?vid=760bfc38-e96f-40b9-8091-70e7d4460480","ios":"levelo://app?vid=760bfc38-e96f-40b9-8091-70e7d4460480"},"vehicle_type_id":"4","last_reported":1685282707,"current_range_meters":0,"station_id":"ce4bhjp2rcd13ifvqg90","pricing_plan_id":"free"},{"bike_id":"a01b8269-cd6f-432a-9c44-37513ea96cd0","system_id":"levelo_inurba_marseille","lat":43.298768,"lon":5.43643,"is_reserved":false,"is_disabled":false,"rental_uris":{"android":"levelo://app?vid=a01b8269-cd6f-432a-9c44-37513ea96cd0","ios":"levelo://app?vid=a01b8269-cd6f-432a-9c44-37513ea96cd0"},"vehicle_type_id":"4","last_reported":1685282707,"current_range_meters":29200,"station_id":"ce4bhpp2rcd13ifvqhfg","pricing_plan_id":"free"},{"bike_id":"6b404443-757b-4b8d-9a78-a03ca59013fb","system_id":"levelo_inurba_marseille","lat":43.2592,"lon":5.37283,"is_reserved":false,"is_disabled":false,"rental_uris":{"android":"levelo://app?vid=6b404443-757b-4b8d-9a78-a03ca59013fb","ios":"levelo://app?vid=6b404443-757b-4b8d-9a78-a03ca59013fb"},"vehicle_type_id":"4","last_reported":1685282707,"current_range_meters":10000,"station_id":"","pricing_plan_id":"free"},{"bike_id":"0f4686de-a184-42e1-b95f-bfee1d709431","system_id":"levelo_inurba_marseille","lat":43.2607,"lon":5.393983,"is_reserved":false,"is_disabled":false,"rental_uris":{"android":"levelo://app?vid=0f4686de-a184-42e1-b95f-bfee1d709431","ios":"levelo://app?vid=0f4686de-a184-42e1-b95f-bfee1d709431"},"vehicle_type_id":"4","last_reported":1685282707,"current_range_meters":6800,"station_id":"ce4bhh92rcd13ifvqfj0","pricing_plan_id":"free"},{"bike_id":"e4bd78c0-3f4f-4aad-aa65-8898c6cf7275","system_id":"levelo_inurba_marseille","lat":43.2609,"lon":5.39762,"is_reserved":false,"is_disabled":false,"rental_uris":{"android":"levelo://app?vid=e4bd78c0-3f4f-4aad-aa65-8898c6cf7275","ios":"levelo://app?vid=e4bd78c0-3f4f-4aad-aa65-8898c6cf7275"},"vehicle_type_id":"4","last_reported":1685282707,"current_range_meters":0,"station_id":"ce4bhi12rcd13ifvqfq0","pricing_plan_id":"free"},{"bike_id":"21a94e83-2bcf-4902-8a6a-85407ac0d3c9","system_id":"levelo_inurba_marseille","lat":43.254952,"lon":5.376471,"is_reserved":false,"is_disabled":false,"rental_uris":{"android":"levelo://app?vid=21a94e83-2bcf-4902-8a6a-85407ac0d3c9","ios":"levelo://app?vid=21a94e83-2bcf-4902-8a6a-85407ac0d3c9"},"vehicle_type_id":"4","last_reported":1685282707,"current_range_meters":400,"station_id":"","pricing_plan_id":"free"},{"bike_id":"20289836-80f3-4273-95f6-9810a9cc2c50","system_id":"levelo_inurba_marseille","lat":43.254947,"lon":5.376454,"is_reserved":false,"is_disabled":false,"rental_uris":{"android":"levelo://app?vid=20289836-80f3-4273-95f6-9810a9cc2c50","ios":"levelo://app?vid=20289836-80f3-4273-95f6-9810a9cc2c50"},"vehicle_type_id":"4","last_reported":1685282707,"current_range_meters":400,"station_id":"ce4bhh12rcd13ifvqff0","pricing_plan_id":"free"},{"bike_id":"7ed32844-8944-4bea-9caa-6d916b34166c","system_id":"levelo_inurba_marseille","lat":43.27071,"lon":5.42281,"is_reserved":false,"is_disabled":false,"rental_uris":{"android":"levelo://app?vid=7ed32844-8944-4bea-9caa-6d916b34166c","ios":"levelo://app?vid=7ed32844-8944-4bea-9caa-6d916b34166c"},"vehicle_type_id":"4","last_reported":1685282707,"current_range_meters":21600,"station_id":"ce4bhk92rcd13ifvqgb0","pricing_plan_id":"free"},{"bike_id":"f961de03-0b20-476b-8f2f-b5b38714f884","system_id":"levelo_inurba_marseille","lat":43.24811,"lon":5.37458,"is_reserved":false,"is_disabled":false,"rental_uris":{"android":"levelo://app?vid=f961de03-0b20-476b-8f2f-b5b38714f884","ios":"levelo://app?vid=f961de03-0b20-476b-8f2f-b5b38714f884"},"vehicle_type_id":"4","last_reported":1685282707,"current_range_meters":22000,"station_id":"ce4bhgh2rcd13ifvqfb0","pricing_plan_id":"free"},{"bike_id":"188b2181-d574-4902-acb7-a05274189db6","system_id":"levelo_inurba_marseille","lat":43.24811,"lon":5.37461,"is_reserved":false,"is_disabled":false,"rental_uris":{"android":"levelo://app?vid=188b2181-d574-4902-acb7-a05274189db6","ios":"levelo://app?vid=188b2181-d574-4902-acb7-a05274189db6"},"vehicle_type_id":"4","last_reported":1685282707,"current_range_meters":21600,"station_id":"ce4bhgh2rcd13ifvqfb0","pricing_plan_id":"free"},{"bike_id":"22c003ed-d1d9-4707-b820-1a75ba35a45f","system_id":"levelo_inurba_marseille","lat":43.24811,"lon":5.37461,"is_reserved":false,"is_disabled":false,"rental_uris":{"android":"levelo://app?vid=22c003ed-d1d9-4707-b820-1a75ba35a45f","ios":"levelo://app?vid=22c003ed-d1d9-4707-b820-1a75ba35a45f"},"vehicle_type_id":"4","last_reported":1685282707,"current_range_meters":31200,"station_id":"ce4bhgh2rcd13ifvqfb0","pricing_plan_id":"free"},{"bike_id":"23c497b8-be97-48d4-9728-c46e23d8309e","system_id":"levelo_inurba_marseille","lat":43.24809,"lon":5.37456,"is_reserved":false,"is_disabled":false,"rental_uris":{"android":"levelo://app?vid=23c497b8-be97-48d4-9728-c46e23d8309e","ios":"levelo://app?vid=23c497b8-be97-48d4-9728-c46e23d8309e"},"vehicle_type_id":"4","last_reported":1685282707,"current_range_meters":18800,"station_id":"ce4bhgh2rcd13ifvqfb0","pricing_plan_id":"free"},{"bike_id":"e8eb230d-8564-4f62-a65a-9fc6bee2aa96","system_id":"levelo_inurba_marseille","lat":43.24811,"lon":5.37495,"is_reserved":false,"is_disabled":false,"rental_uris":{"android":"levelo://app?vid=e8eb230d-8564-4f62-a65a-9fc6bee2aa96","ios":"levelo://app?vid=e8eb230d-8564-4f62-a65a-9fc6bee2aa96"},"vehicle_type_id":"4","last_reported":1685282707,"current_range_meters":14800,"station_id":"","pricing_plan_id":"free"},{"bike_id":"820576eb-6020-46e9-bfbc-a4fee674817d","system_id":"levelo_inurba_marseille","lat":43.2479,"lon":5.374457,"is_reserved":false,"is_disabled":false,"rental_uris":{"android":"levelo://app?vid=820576eb-6020-46e9-bfbc-a4fee674817d","ios":"levelo://app?vid=820576eb-6020-46e9-bfbc-a4fee674817d"},"vehicle_type_id":"4","last_reported":1685282707,"current_range_meters":28400,"station_id":"ce4bhgh2rcd13ifvqfb0","pricing_plan_id":"free"},{"bike_id":"90e24bed-e06a-443a-bd34-1be848da9d00","system_id":"levelo_inurba_marseille","lat":43.24807,"lon":5.37453,"is_reserved":false,"is_disabled":false,"rental_uris":{"android":"levelo://app?vid=90e24bed-e06a-443a-bd34-1be848da9d00","ios":"levelo://app?vid=90e24bed-e06a-443a-bd34-1be848da9d00"},"vehicle_type_id":"4","last_reported":1685282707,"current_range_meters":30000,"station_id":"ce4bhgh2rcd13ifvqfb0","pricing_plan_id":"free"},{"bike_id":"01e84b44-f389-4080-85a1-d16e80f967de","system_id":"levelo_inurba_marseille","lat":43.24807,"lon":5.37457,"is_reserved":false,"is_disabled":false,"rental_uris":{"android":"levelo://app?vid=01e84b44-f389-4080-85a1-d16e80f967de","ios":"levelo://app?vid=01e84b44-f389-4080-85a1-d16e80f967de"},"vehicle_type_id":"4","last_reported":1685282707,"current_range_meters":26400,"station_id":"ce4bhgh2rcd13ifvqfb0","pricing_plan_id":"free"},{"bike_id":"0a84c288-575c-4cb4-aadc-ce3c1d58049d","system_id":"levelo_inurba_marseille","lat":43.2479,"lon":5.374457,"is_reserved":false,"is_disabled":false,"rental_uris":{"android":"levelo://app?vid=0a84c288-575c-4cb4-aadc-ce3c1d58049d","ios":"levelo://app?vid=0a84c288-575c-4cb4-aadc-ce3c1d58049d"},"vehicle_type_id":"4","last_reported":1685282707,"current_range_meters":16400,"station_id":"ce4bhgh2rcd13ifvqfb0","pricing_plan_id":"free"},{"bike_id":"4a735f1f-9065-4eb4-8ea1-5541d794d928","system_id":"levelo_inurba_marseille","lat":43.24806,"lon":5.37454,"is_reserved":false,"is_disabled":false,"rental_uris":{"android":"levelo://app?vid=4a735f1f-9065-4eb4-8ea1-5541d794d928","ios":"levelo://app?vid=4a735f1f-9065-4eb4-8ea1-5541d794d928"},"vehicle_type_id":"4","last_reported":1685282707,"current_range_meters":27200,"station_id":"ce4bhgh2rcd13ifvqfb0","pricing_plan_id":"free"},{"bike_id":"d1b25e30-5683-440e-81ea-adcb533220cc","system_id":"levelo_inurba_marseille","lat":43.2479,"lon":5.374457,"is_reserved":false,"is_disabled":false,"rental_uris":{"android":"levelo://app?vid=d1b25e30-5683-440e-81ea-adcb533220cc","ios":"levelo://app?vid=d1b25e30-5683-440e-81ea-adcb533220cc"},"vehicle_type_id":"4","last_reported":1685282707,"current_range_meters":1600,"station_id":"ce4bhgh2rcd13ifvqfb0","pricing_plan_id":"free"},{"bike_id":"af044fe7-6b17-407c-8231-044d8b61581a","system_id":"levelo_inurba_marseille","lat":43.2479,"lon":5.374457,"is_reserved":false,"is_disabled":false,"rental_uris":{"android":"levelo://app?vid=af044fe7-6b17-407c-8231-044d8b61581a","ios":"levelo://app?vid=af044fe7-6b17-407c-8231-044d8b61581a"},"vehicle_type_id":"4","last_reported":1685282707,"current_range_meters":400,"station_id":"ce4bhgh2rcd13ifvqfb0","pricing_plan_id":"free"},{"bike_id":"32aff3c4-5f80-461e-9a42-4df1e512a976","system_id":"levelo_inurba_marseille","lat":43.2479,"lon":5.374457,"is_reserved":false,"is_disabled":false,"rental_uris":{"android":"levelo://app?vid=32aff3c4-5f80-461e-9a42-4df1e512a976","ios":"levelo://app?vid=32aff3c4-5f80-461e-9a42-4df1e512a976"},"vehicle_type_id":"4","last_reported":1685282707,"current_range_meters":31200,"station_id":"ce4bhgh2rcd13ifvqfb0","pricing_plan_id":"free"},{"bike_id":"43580339-5954-4cd2-bf1a-3282c034f471","system_id":"levelo_inurba_marseille","lat":43.2479,"lon":5.374457,"is_reserved":false,"is_disabled":false,"rental_uris":{"android":"levelo://app?vid=43580339-5954-4cd2-bf1a-3282c034f471","ios":"levelo://app?vid=43580339-5954-4cd2-bf1a-3282c034f471"},"vehicle_type_id":"4","last_reported":1685282707,"current_range_meters":11600,"station_id":"ce4bhgh2rcd13ifvqfb0","pricing_plan_id":"free"},{"bike_id":"931330c6-fb97-4fa2-b104-4dd38a3ee7e4","system_id":"levelo_inurba_marseille","lat":43.2479,"lon":5.374457,"is_reserved":false,"is_disabled":false,"rental_uris":{"android":"levelo://app?vid=931330c6-fb97-4fa2-b104-4dd38a3ee7e4","ios":"levelo://app?vid=931330c6-fb97-4fa2-b104-4dd38a3ee7e4"},"vehicle_type_id":"4","last_reported":1685282707,"current_range_meters":18000,"station_id":"ce4bhgh2rcd13ifvqfb0","pricing_plan_id":"free"},{"bike_id":"897c0840-b49d-4585-92c0-679d7499a0f5","system_id":"levelo_inurba_marseille","lat":43.24804,"lon":5.37456,"is_reserved":false,"is_disabled":false,"rental_uris":{"android":"levelo://app?vid=897c0840-b49d-4585-92c0-679d7499a0f5","ios":"levelo://app?vid=897c0840-b49d-4585-92c0-679d7499a0f5"},"vehicle_type_id":"4","last_reported":1685282707,"current_range_meters":14400,"station_id":"ce4bhgh2rcd13ifvqfb0","pricing_plan_id":"free"},{"bike_id":"6b4c50b1-3e8d-478c-b78e-1f30ca21fbc9","system_id":"levelo_inurba_marseille","lat":43.2479,"lon":5.374457,"is_reserved":false,"is_disabled":false,"rental_uris":{"android":"levelo://app?vid=6b4c50b1-3e8d-478c-b78e-1f30ca21fbc9","ios":"levelo://app?vid=6b4c50b1-3e8d-478c-b78e-1f30ca21fbc9"},"vehicle_type_id":"4","last_reported":1685282707,"current_range_meters":22800,"station_id":"ce4bhgh2rcd13ifvqfb0","pricing_plan_id":"free"},{"bike_id":"10f7a917-bf0c-469a-8f11-48a5a0f19f24","system_id":"levelo_inurba_marseille","lat":43.2479,"lon":5.374457,"is_reserved":false,"is_disabled":false,"rental_uris":{"android":"levelo://app?vid=10f7a917-bf0c-469a-8f11-48a5a0f19f24","ios":"levelo://app?vid=10f7a917-bf0c-469a-8f11-48a5a0f19f24"},"vehicle_type_id":"4","last_reported":1685282707,"current_range_meters":30800,"station_id":"ce4bhgh2rcd13ifvqfb0","pricing_plan_id":"free"},{"bike_id":"8706f9b0-c3ba-4697-a273-21fa94c291ad","system_id":"levelo_inurba_marseille","lat":43.2479,"lon":5.374457,"is_reserved":false,"is_disabled":false,"rental_uris":{"android":"levelo://app?vid=8706f9b0-c3ba-4697-a273-21fa94c291ad","ios":"levelo://app?vid=8706f9b0-c3ba-4697-a273-21fa94c291ad"},"vehicle_type_id":"4","last_reported":1685282707,"current_range_meters":5200,"station_id":"ce4bhgh2rcd13ifvqfb0","pricing_plan_id":"free"},{"bike_id":"82f8c18b-0a77-4319-837e-a758404498cf","system_id":"levelo_inurba_marseille","lat":43.2479,"lon":5.374457,"is_reserved":false,"is_disabled":false,"rental_uris":{"android":"levelo://app?vid=82f8c18b-0a77-4319-837e-a758404498cf","ios":"levelo://app?vid=82f8c18b-0a77-4319-837e-a758404498cf"},"vehicle_type_id":"4","last_reported":1685282707,"current_range_meters":31200,"station_id":"ce4bhgh2rcd13ifvqfb0","pricing_plan_id":"free"},{"bike_id":"a7017f6a-4017-454e-8add-b1ec9e8e567f","system_id":"levelo_inurba_marseille","lat":43.2479,"lon":5.374457,"is_reserved":false,"is_disabled":false,"rental_uris":{"android":"levelo://app?vid=a7017f6a-4017-454e-8add-b1ec9e8e567f","ios":"levelo://app?vid=a7017f6a-4017-454e-8add-b1ec9e8e567f"},"vehicle_type_id":"4","last_reported":1685282707,"current_range_meters":31200,"station_id":"ce4bhgh2rcd13ifvqfb0","pricing_plan_id":"free"},{"bike_id":"3e65b518-5840-4efb-8945-868dad43abf1","system_id":"levelo_inurba_marseille","lat":43.2479,"lon":5.374457,"is_reserved":false,"is_disabled":false,"rental_uris":{"android":"levelo://app?vid=3e65b518-5840-4efb-8945-868dad43abf1","ios":"levelo://app?vid=3e65b518-5840-4efb-8945-868dad43abf1"},"vehicle_type_id":"4","last_reported":1685282707,"current_range_meters":31200,"station_id":"ce4bhgh2rcd13ifvqfb0","pricing_plan_id":"free"},{"bike_id":"350cdef5-06fc-4acb-9758-ae8044d1c711","system_id":"levelo_inurba_marseille","lat":43.2479,"lon":5.374457,"is_reserved":false,"is_disabled":false,"rental_uris":{"android":"levelo://app?vid=350cdef5-06fc-4acb-9758-ae8044d1c711","ios":"levelo://app?vid=350cdef5-06fc-4acb-9758-ae8044d1c711"},"vehicle_type_id":"4","last_reported":1685282707,"current_range_meters":30000,"station_id":"ce4bhgh2rcd13ifvqfb0","pricing_plan_id":"free"},{"bike_id":"137a0399-f62d-43d3-9089-51b917c1a3ac","system_id":"levelo_inurba_marseille","lat":43.24673,"lon":5.38156,"is_reserved":false,"is_disabled":false,"rental_uris":{"android":"levelo://app?vid=137a0399-f62d-43d3-9089-51b917c1a3ac","ios":"levelo://app?vid=137a0399-f62d-43d3-9089-51b917c1a3ac"},"vehicle_type_id":"4","last_reported":1685282707,"current_range_meters":31200,"station_id":"","pricing_plan_id":"free"},{"bike_id":"0fa771cd-429f-4115-9d6e-9dfc3ad85898","system_id":"levelo_inurba_marseille","lat":43.24693,"lon":5.382096,"is_reserved":false,"is_disabled":false,"rental_uris":{"android":"levelo://app?vid=0fa771cd-429f-4115-9d6e-9dfc3ad85898","ios":"levelo://app?vid=0fa771cd-429f-4115-9d6e-9dfc3ad85898"},"vehicle_type_id":"4","last_reported":1685282707,"current_range_meters":13200,"station_id":"ce4bhih2rcd13ifvqfr0","pricing_plan_id":"free"},{"bike_id":"08e3c551-05ba-4d38-bf64-97d941eadf8e","system_id":"levelo_inurba_marseille","lat":43.24693,"lon":5.382096,"is_reserved":false,"is_disabled":false,"rental_uris":{"android":"levelo://app?vid=08e3c551-05ba-4d38-bf64-97d941eadf8e","ios":"levelo://app?vid=08e3c551-05ba-4d38-bf64-97d941eadf8e"},"vehicle_type_id":"4","last_reported":1685282707,"current_range_meters":2000,"station_id":"ce4bhih2rcd13ifvqfr0","pricing_plan_id":"free"},{"bike_id":"f5c39c72-b7d0-473b-89ca-b93fad3a66d7","system_id":"levelo_inurba_marseille","lat":43.246461,"lon":5.389014,"is_reserved":false,"is_disabled":false,"rental_uris":{"android":"levelo://app?vid=f5c39c72-b7d0-473b-89ca-b93fad3a66d7","ios":"levelo://app?vid=f5c39c72-b7d0-473b-89ca-b93fad3a66d7"},"vehicle_type_id":"4","last_reported":1685282707,"current_range_meters":10800,"station_id":"ce4bhg12rcd13ifvqf60","pricing_plan_id":"free"},{"bike_id":"67219311-7578-4c8d-a90e-47164a32d772","system_id":"levelo_inurba_marseille","lat":43.24652,"lon":5.38894,"is_reserved":false,"is_disabled":false,"rental_uris":{"android":"levelo://app?vid=67219311-7578-4c8d-a90e-47164a32d772","ios":"levelo://app?vid=67219311-7578-4c8d-a90e-47164a32d772"},"vehicle_type_id":"4","last_reported":1685282707,"current_range_meters":0,"station_id":"ce4bhg12rcd13ifvqf60","pricing_plan_id":"free"},{"bike_id":"429ac112-2e05-4a88-962a-262b864ad090","system_id":"levelo_inurba_marseille","lat":43.24649,"lon":5.38886,"is_reserved":false,"is_disabled":false,"rental_uris":{"android":"levelo://app?vid=429ac112-2e05-4a88-962a-262b864ad090","ios":"levelo://app?vid=429ac112-2e05-4a88-962a-262b864ad090"},"vehicle_type_id":"4","last_reported":1685282707,"current_range_meters":6000,"station_id":"ce4bhg12rcd13ifvqf60","pricing_plan_id":"free"},{"bike_id":"ae2aa198-cce8-4a0c-b177-58022c7f44bc","system_id":"levelo_inurba_marseille","lat":43.24394,"lon":5.37063,"is_reserved":false,"is_disabled":false,"rental_uris":{"android":"levelo://app?vid=ae2aa198-cce8-4a0c-b177-58022c7f44bc","ios":"levelo://app?vid=ae2aa198-cce8-4a0c-b177-58022c7f44bc"},"vehicle_type_id":"4","last_reported":1685282707,"current_range_meters":14800,"station_id":"ce4bhhh2rcd13ifvqfk0","pricing_plan_id":"free"},{"bike_id":"1e35549a-4776-4bf8-966a-c8ba5917478a","system_id":"levelo_inurba_marseille","lat":43.24392,"lon":5.37062,"is_reserved":false,"is_disabled":false,"rental_uris":{"android":"levelo://app?vid=1e35549a-4776-4bf8-966a-c8ba5917478a","ios":"levelo://app?vid=1e35549a-4776-4bf8-966a-c8ba5917478a"},"vehicle_type_id":"4","last_reported":1685282707,"current_range_meters":12000,"station_id":"ce4bhhh2rcd13ifvqfk0","pricing_plan_id":"free"},{"bike_id":"6183aaab-0da8-432f-b71c-0a23b61917a2","system_id":"levelo_inurba_marseille","lat":43.24391,"lon":5.3706,"is_reserved":false,"is_disabled":false,"rental_uris":{"android":"levelo://app?vid=6183aaab-0da8-432f-b71c-0a23b61917a2","ios":"levelo://app?vid=6183aaab-0da8-432f-b71c-0a23b61917a2"},"vehicle_type_id":"4","last_reported":1685282707,"current_range_meters":18800,"station_id":"ce4bhhh2rcd13ifvqfk0","pricing_plan_id":"free"},{"bike_id":"1d7ce8e0-2984-41f3-8505-c84290ea3bab","system_id":"levelo_inurba_marseille","lat":43.2439,"lon":5.37066,"is_reserved":false,"is_disabled":false,"rental_uris":{"android":"levelo://app?vid=1d7ce8e0-2984-41f3-8505-c84290ea3bab","ios":"levelo://app?vid=1d7ce8e0-2984-41f3-8505-c84290ea3bab"},"vehicle_type_id":"4","last_reported":1685282707,"current_range_meters":20400,"station_id":"ce4bhhh2rcd13ifvqfk0","pricing_plan_id":"free"},{"bike_id":"d35efa30-6ee5-44dc-9884-7447b7f147ec","system_id":"levelo_inurba_marseille","lat":43.24389,"lon":5.37064,"is_reserved":false,"is_disabled":false,"rental_uris":{"android":"levelo://app?vid=d35efa30-6ee5-44dc-9884-7447b7f147ec","ios":"levelo://app?vid=d35efa30-6ee5-44dc-9884-7447b7f147ec"},"vehicle_type_id":"4","last_reported":1685282707,"current_range_meters":24400,"station_id":"ce4bhhh2rcd13ifvqfk0","pricing_plan_id":"free"},{"bike_id":"272886a0-72b4-4010-90cb-17fa0ffe8f75","system_id":"levelo_inurba_marseille","lat":43.24389,"lon":5.37067,"is_reserved":false,"is_disabled":false,"rental_uris":{"android":"levelo://app?vid=272886a0-72b4-4010-90cb-17fa0ffe8f75","ios":"levelo://app?vid=272886a0-72b4-4010-90cb-17fa0ffe8f75"},"vehicle_type_id":"4","last_reported":1685282707,"current_range_meters":5200,"station_id":"ce4bhhh2rcd13ifvqfk0","pricing_plan_id":"free"},{"bike_id":"14b0df55-3f69-46e3-9469-be0bd84c557e","system_id":"levelo_inurba_marseille","lat":43.243884,"lon":5.370736,"is_reserved":false,"is_disabled":false,"rental_uris":{"android":"levelo://app?vid=14b0df55-3f69-46e3-9469-be0bd84c557e","ios":"levelo://app?vid=14b0df55-3f69-46e3-9469-be0bd84c557e"},"vehicle_type_id":"4","last_reported":1685282707,"current_range_meters":18400,"station_id":"ce4bhhh2rcd13ifvqfk0","pricing_plan_id":"free"},{"bike_id":"cb1cbc0d-3c6d-4d01-88b5-91d3c22cd818","system_id":"levelo_inurba_marseille","lat":43.243884,"lon":5.370736,"is_reserved":false,"is_disabled":false,"rental_uris":{"android":"levelo://app?vid=cb1cbc0d-3c6d-4d01-88b5-91d3c22cd818","ios":"levelo://app?vid=cb1cbc0d-3c6d-4d01-88b5-91d3c22cd818"},"vehicle_type_id":"4","last_reported":1685282707,"current_range_meters":22000,"station_id":"ce4bhhh2rcd13ifvqfk0","pricing_plan_id":"free"},{"bike_id":"9c0a3a97-aa17-4892-82b3-8a3f262815b9","system_id":"levelo_inurba_marseille","lat":43.243884,"lon":5.370736,"is_reserved":false,"is_disabled":false,"rental_uris":{"android":"levelo://app?vid=9c0a3a97-aa17-4892-82b3-8a3f262815b9","ios":"levelo://app?vid=9c0a3a97-aa17-4892-82b3-8a3f262815b9"},"vehicle_type_id":"4","last_reported":1685282707,"current_range_meters":30800,"station_id":"ce4bhhh2rcd13ifvqfk0","pricing_plan_id":"free"},{"bike_id":"1e702c82-5053-4eec-8c4c-c7c8fd0a0ef4","system_id":"levelo_inurba_marseille","lat":43.243884,"lon":5.370737,"is_reserved":false,"is_disabled":false,"rental_uris":{"android":"levelo://app?vid=1e702c82-5053-4eec-8c4c-c7c8fd0a0ef4","ios":"levelo://app?vid=1e702c82-5053-4eec-8c4c-c7c8fd0a0ef4"},"vehicle_type_id":"4","last_reported":1685282707,"current_range_meters":22400,"station_id":"ce4bhhh2rcd13ifvqfk0","pricing_plan_id":"free"},{"bike_id":"1582b076-77b1-43fa-b500-b27738b3a4ce","system_id":"levelo_inurba_marseille","lat":43.243884,"lon":5.370736,"is_reserved":false,"is_disabled":false,"rental_uris":{"android":"levelo://app?vid=1582b076-77b1-43fa-b500-b27738b3a4ce","ios":"levelo://app?vid=1582b076-77b1-43fa-b500-b27738b3a4ce"},"vehicle_type_id":"4","last_reported":1685282707,"current_range_meters":16400,"station_id":"ce4bhhh2rcd13ifvqfk0","pricing_plan_id":"free"},{"bike_id":"8459d48b-4a7a-4cf6-91cc-a07bf91b6b9e","system_id":"levelo_inurba_marseille","lat":43.24387,"lon":5.3706,"is_reserved":false,"is_disabled":false,"rental_uris":{"android":"levelo://app?vid=8459d48b-4a7a-4cf6-91cc-a07bf91b6b9e","ios":"levelo://app?vid=8459d48b-4a7a-4cf6-91cc-a07bf91b6b9e"},"vehicle_type_id":"4","last_reported":1685282707,"current_range_meters":29200,"station_id":"ce4bhhh2rcd13ifvqfk0","pricing_plan_id":"free"},{"bike_id":"2ca79f44-d546-43f6-92fd-cce0e9e2c18a","system_id":"levelo_inurba_marseille","lat":43.243884,"lon":5.370736,"is_reserved":false,"is_disabled":false,"rental_uris":{"android":"levelo://app?vid=2ca79f44-d546-43f6-92fd-cce0e9e2c18a","ios":"levelo://app?vid=2ca79f44-d546-43f6-92fd-cce0e9e2c18a"},"vehicle_type_id":"4","last_reported":1685282707,"current_range_meters":19600,"station_id":"ce4bhhh2rcd13ifvqfk0","pricing_plan_id":"free"},{"bike_id":"a894fa12-3816-450e-9d72-4e45ae4e98dc","system_id":"levelo_inurba_marseille","lat":43.24383,"lon":5.37058,"is_reserved":false,"is_disabled":false,"rental_uris":{"android":"levelo://app?vid=a894fa12-3816-450e-9d72-4e45ae4e98dc","ios":"levelo://app?vid=a894fa12-3816-450e-9d72-4e45ae4e98dc"},"vehicle_type_id":"4","last_reported":1685282707,"current_range_meters":6000,"station_id":"ce4bhhh2rcd13ifvqfk0","pricing_plan_id":"free"},{"bike_id":"cbbd08c5-0253-46f1-872a-15def88c8d47","system_id":"levelo_inurba_marseille","lat":43.24083,"lon":5.37752,"is_reserved":false,"is_disabled":false,"rental_uris":{"android":"levelo://app?vid=cbbd08c5-0253-46f1-872a-15def88c8d47","ios":"levelo://app?vid=cbbd08c5-0253-46f1-872a-15def88c8d47"},"vehicle_type_id":"4","last_reported":1685282707,"current_range_meters":21200,"station_id":"","pricing_plan_id":"free"},{"bike_id":"e0f8d820-f6b0-4427-91e6-b251bd50dfb6","system_id":"levelo_inurba_marseille","lat":43.24081,"lon":5.37755,"is_reserved":false,"is_disabled":false,"rental_uris":{"android":"levelo://app?vid=e0f8d820-f6b0-4427-91e6-b251bd50dfb6","ios":"levelo://app?vid=e0f8d820-f6b0-4427-91e6-b251bd50dfb6"},"vehicle_type_id":"4","last_reported":1685282707,"current_range_meters":14800,"station_id":"","pricing_plan_id":"free"},{"bike_id":"66fd190c-947f-4f8d-964d-e1a10dee0e88","system_id":"levelo_inurba_marseille","lat":43.2408,"lon":5.37752,"is_reserved":false,"is_disabled":false,"rental_uris":{"android":"levelo://app?vid=66fd190c-947f-4f8d-964d-e1a10dee0e88","ios":"levelo://app?vid=66fd190c-947f-4f8d-964d-e1a10dee0e88"},"vehicle_type_id":"4","last_reported":1685282707,"current_range_meters":0,"station_id":"","pricing_plan_id":"free"},{"bike_id":"9e2be43e-190b-4cc5-8721-cc57121f2777","system_id":"levelo_inurba_marseille","lat":43.24078,"lon":5.37755,"is_reserved":false,"is_disabled":false,"rental_uris":{"android":"levelo://app?vid=9e2be43e-190b-4cc5-8721-cc57121f2777","ios":"levelo://app?vid=9e2be43e-190b-4cc5-8721-cc57121f2777"},"vehicle_type_id":"4","last_reported":1685282707,"current_range_meters":29200,"station_id":"","pricing_plan_id":"free"},{"bike_id":"e0cac369-51b5-425a-8b21-340f204eca36","system_id":"levelo_inurba_marseille","lat":43.24077,"lon":5.37746,"is_reserved":false,"is_disabled":false,"rental_uris":{"android":"levelo://app?vid=e0cac369-51b5-425a-8b21-340f204eca36","ios":"levelo://app?vid=e0cac369-51b5-425a-8b21-340f204eca36"},"vehicle_type_id":"4","last_reported":1685282707,"current_range_meters":24400,"station_id":"","pricing_plan_id":"free"},{"bike_id":"375bea00-7535-40cf-9db3-726053b2716a","system_id":"levelo_inurba_marseille","lat":43.24077,"lon":5.37748,"is_reserved":false,"is_disabled":false,"rental_uris":{"android":"levelo://app?vid=375bea00-7535-40cf-9db3-726053b2716a","ios":"levelo://app?vid=375bea00-7535-40cf-9db3-726053b2716a"},"vehicle_type_id":"4","last_reported":1685282707,"current_range_meters":28400,"station_id":"","pricing_plan_id":"free"},{"bike_id":"24fb4b69-2e63-47ee-bf98-1a9a16683dcc","system_id":"levelo_inurba_marseille","lat":43.24076,"lon":5.37753,"is_reserved":false,"is_disabled":false,"rental_uris":{"android":"levelo://app?vid=24fb4b69-2e63-47ee-bf98-1a9a16683dcc","ios":"levelo://app?vid=24fb4b69-2e63-47ee-bf98-1a9a16683dcc"},"vehicle_type_id":"4","last_reported":1685282707,"current_range_meters":28400,"station_id":"","pricing_plan_id":"free"},{"bike_id":"3c0fb543-7d5f-4ba2-a741-510a465558d5","system_id":"levelo_inurba_marseille","lat":43.24076,"lon":5.37754,"is_reserved":false,"is_disabled":false,"rental_uris":{"android":"levelo://app?vid=3c0fb543-7d5f-4ba2-a741-510a465558d5","ios":"levelo://app?vid=3c0fb543-7d5f-4ba2-a741-510a465558d5"},"vehicle_type_id":"4","last_reported":1685282707,"current_range_meters":30000,"station_id":"","pricing_plan_id":"free"},{"bike_id":"3f0a9dc9-0509-4c14-9cde-4da06b6fe1a3","system_id":"levelo_inurba_marseille","lat":43.24075,"lon":5.37754,"is_reserved":false,"is_disabled":false,"rental_uris":{"android":"levelo://app?vid=3f0a9dc9-0509-4c14-9cde-4da06b6fe1a3","ios":"levelo://app?vid=3f0a9dc9-0509-4c14-9cde-4da06b6fe1a3"},"vehicle_type_id":"4","last_reported":1685282707,"current_range_meters":12000,"station_id":"","pricing_plan_id":"free"},{"bike_id":"a7496784-6a6e-438b-982b-361a84d337d6","system_id":"levelo_inurba_marseille","lat":43.24075,"lon":5.37756,"is_reserved":false,"is_disabled":false,"rental_uris":{"android":"levelo://app?vid=a7496784-6a6e-438b-982b-361a84d337d6","ios":"levelo://app?vid=a7496784-6a6e-438b-982b-361a84d337d6"},"vehicle_type_id":"4","last_reported":1685282707,"current_range_meters":29200,"station_id":"","pricing_plan_id":"free"},{"bike_id":"ceca2ac0-fad6-49a0-803a-c9d0b85268fd","system_id":"levelo_inurba_marseille","lat":43.24074,"lon":5.37745,"is_reserved":false,"is_disabled":false,"rental_uris":{"android":"levelo://app?vid=ceca2ac0-fad6-49a0-803a-c9d0b85268fd","ios":"levelo://app?vid=ceca2ac0-fad6-49a0-803a-c9d0b85268fd"},"vehicle_type_id":"4","last_reported":1685282707,"current_range_meters":30000,"station_id":"","pricing_plan_id":"free"},{"bike_id":"936357a5-48fc-44ea-a059-3fbf2761c020","system_id":"levelo_inurba_marseille","lat":43.24073,"lon":5.37754,"is_reserved":false,"is_disabled":false,"rental_uris":{"android":"levelo://app?vid=936357a5-48fc-44ea-a059-3fbf2761c020","ios":"levelo://app?vid=936357a5-48fc-44ea-a059-3fbf2761c020"},"vehicle_type_id":"4","last_reported":1685282707,"current_range_meters":29600,"station_id":"","pricing_plan_id":"free"},{"bike_id":"390dd92b-1f46-4e43-bd1b-3682ea0b00ca","system_id":"levelo_inurba_marseille","lat":43.24067,"lon":5.3774,"is_reserved":false,"is_disabled":false,"rental_uris":{"android":"levelo://app?vid=390dd92b-1f46-4e43-bd1b-3682ea0b00ca","ios":"levelo://app?vid=390dd92b-1f46-4e43-bd1b-3682ea0b00ca"},"vehicle_type_id":"4","last_reported":1685282707,"current_range_meters":11200,"station_id":"","pricing_plan_id":"free"},{"bike_id":"7c26d266-fd07-410d-ac3e-d8f231a1e40e","system_id":"levelo_inurba_marseille","lat":43.239588,"lon":5.366238,"is_reserved":false,"is_disabled":false,"rental_uris":{"android":"levelo://app?vid=7c26d266-fd07-410d-ac3e-d8f231a1e40e","ios":"levelo://app?vid=7c26d266-fd07-410d-ac3e-d8f231a1e40e"},"vehicle_type_id":"4","last_reported":1685282707,"current_range_meters":24000,"station_id":"ce4bhi12rcd13ifvqfp0","pricing_plan_id":"free"},{"bike_id":"12fc2334-159c-4114-bec1-bcde14f24c31","system_id":"levelo_inurba_marseille","lat":43.23971,"lon":5.36599,"is_reserved":false,"is_disabled":false,"rental_uris":{"android":"levelo://app?vid=12fc2334-159c-4114-bec1-bcde14f24c31","ios":"levelo://app?vid=12fc2334-159c-4114-bec1-bcde14f24c31"},"vehicle_type_id":"4","last_reported":1685282707,"current_range_meters":7600,"station_id":"ce4bhi12rcd13ifvqfp0","pricing_plan_id":"free"},{"bike_id":"73d753a1-67fc-4094-b3fd-705acc0cadb7","system_id":"levelo_inurba_marseille","lat":43.239697,"lon":5.366214,"is_reserved":false,"is_disabled":false,"rental_uris":{"android":"levelo://app?vid=73d753a1-67fc-4094-b3fd-705acc0cadb7","ios":"levelo://app?vid=73d753a1-67fc-4094-b3fd-705acc0cadb7"},"vehicle_type_id":"4","last_reported":1685282707,"current_range_meters":11200,"station_id":"ce4bhi12rcd13ifvqfp0","pricing_plan_id":"free"},{"bike_id":"60325b4d-0e47-4c13-b138-cf72fc406758","system_id":"levelo_inurba_marseille","lat":43.239588,"lon":5.366238,"is_reserved":false,"is_disabled":false,"rental_uris":{"android":"levelo://app?vid=60325b4d-0e47-4c13-b138-cf72fc406758","ios":"levelo://app?vid=60325b4d-0e47-4c13-b138-cf72fc406758"},"vehicle_type_id":"4","last_reported":1685282707,"current_range_meters":30000,"station_id":"ce4bhi12rcd13ifvqfp0","pricing_plan_id":"free"},{"bike_id":"a413a331-918b-43b4-bf52-c7a2bf915466","system_id":"levelo_inurba_marseille","lat":43.239588,"lon":5.366238,"is_reserved":false,"is_disabled":false,"rental_uris":{"android":"levelo://app?vid=a413a331-918b-43b4-bf52-c7a2bf915466","ios":"levelo://app?vid=a413a331-918b-43b4-bf52-c7a2bf915466"},"vehicle_type_id":"4","last_reported":1685282707,"current_range_meters":17600,"station_id":"ce4bhi12rcd13ifvqfp0","pricing_plan_id":"free"},{"bike_id":"09b3297e-0710-4e0a-a928-7c9a1209509a","system_id":"levelo_inurba_marseille","lat":43.23969,"lon":5.36618,"is_reserved":false,"is_disabled":false,"rental_uris":{"android":"levelo://app?vid=09b3297e-0710-4e0a-a928-7c9a1209509a","ios":"levelo://app?vid=09b3297e-0710-4e0a-a928-7c9a1209509a"},"vehicle_type_id":"4","last_reported":1685282707,"current_range_meters":28400,"station_id":"ce4bhi12rcd13ifvqfp0","pricing_plan_id":"free"},{"bike_id":"a5c79354-2599-4d1d-8988-e4e04a8b43b8","system_id":"levelo_inurba_marseille","lat":43.23967,"lon":5.36626,"is_reserved":false,"is_disabled":false,"rental_uris":{"android":"levelo://app?vid=a5c79354-2599-4d1d-8988-e4e04a8b43b8","ios":"levelo://app?vid=a5c79354-2599-4d1d-8988-e4e04a8b43b8"},"vehicle_type_id":"4","last_reported":1685282707,"current_range_meters":16000,"station_id":"ce4bhi12rcd13ifvqfp0","pricing_plan_id":"free"},{"bike_id":"ced5e426-b789-4c78-ad58-2b8ef2d194d3","system_id":"levelo_inurba_marseille","lat":43.23967,"lon":5.36623,"is_reserved":false,"is_disabled":false,"rental_uris":{"android":"levelo://app?vid=ced5e426-b789-4c78-ad58-2b8ef2d194d3","ios":"levelo://app?vid=ced5e426-b789-4c78-ad58-2b8ef2d194d3"},"vehicle_type_id":"4","last_reported":1685282707,"current_range_meters":12000,"station_id":"ce4bhi12rcd13ifvqfp0","pricing_plan_id":"free"},{"bike_id":"b91827eb-6869-407c-8bb8-da9ec85a7525","system_id":"levelo_inurba_marseille","lat":43.23967,"lon":5.36619,"is_reserved":false,"is_disabled":false,"rental_uris":{"android":"levelo://app?vid=b91827eb-6869-407c-8bb8-da9ec85a7525","ios":"levelo://app?vid=b91827eb-6869-407c-8bb8-da9ec85a7525"},"vehicle_type_id":"4","last_reported":1685282707,"current_range_meters":15200,"station_id":"ce4bhi12rcd13ifvqfp0","pricing_plan_id":"free"},{"bike_id":"9109d91b-ea58-4014-b34e-322b22eed572","system_id":"levelo_inurba_marseille","lat":43.23967,"lon":5.36614,"is_reserved":false,"is_disabled":false,"rental_uris":{"android":"levelo://app?vid=9109d91b-ea58-4014-b34e-322b22eed572","ios":"levelo://app?vid=9109d91b-ea58-4014-b34e-322b22eed572"},"vehicle_type_id":"4","last_reported":1685282707,"current_range_meters":15600,"station_id":"ce4bhi12rcd13ifvqfp0","pricing_plan_id":"free"},{"bike_id":"e3978cb7-702d-4f7e-9905-b26b3d3a906c","system_id":"levelo_inurba_marseille","lat":43.23967,"lon":5.36613,"is_reserved":false,"is_disabled":false,"rental_uris":{"android":"levelo://app?vid=e3978cb7-702d-4f7e-9905-b26b3d3a906c","ios":"levelo://app?vid=e3978cb7-702d-4f7e-9905-b26b3d3a906c"},"vehicle_type_id":"4","last_reported":1685282707,"current_range_meters":28400,"station_id":"ce4bhi12rcd13ifvqfp0","pricing_plan_id":"free"},{"bike_id":"a1f64494-3f89-4272-ab02-80813b4c1ec7","system_id":"levelo_inurba_marseille","lat":43.23967,"lon":5.3661,"is_reserved":false,"is_disabled":false,"rental_uris":{"android":"levelo://app?vid=a1f64494-3f89-4272-ab02-80813b4c1ec7","ios":"levelo://app?vid=a1f64494-3f89-4272-ab02-80813b4c1ec7"},"vehicle_type_id":"4","last_reported":1685282707,"current_range_meters":27200,"station_id":"ce4bhi12rcd13ifvqfp0","pricing_plan_id":"free"},{"bike_id":"db0a8fe0-b6e7-4cd0-8a28-2f2ca7e31284","system_id":"levelo_inurba_marseille","lat":43.23966,"lon":5.36617,"is_reserved":false,"is_disabled":false,"rental_uris":{"android":"levelo://app?vid=db0a8fe0-b6e7-4cd0-8a28-2f2ca7e31284","ios":"levelo://app?vid=db0a8fe0-b6e7-4cd0-8a28-2f2ca7e31284"},"vehicle_type_id":"4","last_reported":1685282707,"current_range_meters":18400,"station_id":"ce4bhi12rcd13ifvqfp0","pricing_plan_id":"free"},{"bike_id":"d9755e99-0820-4959-a2cc-43ed5fadef72","system_id":"levelo_inurba_marseille","lat":43.239588,"lon":5.366238,"is_reserved":false,"is_disabled":false,"rental_uris":{"android":"levelo://app?vid=d9755e99-0820-4959-a2cc-43ed5fadef72","ios":"levelo://app?vid=d9755e99-0820-4959-a2cc-43ed5fadef72"},"vehicle_type_id":"4","last_reported":1685282707,"current_range_meters":9200,"station_id":"ce4bhi12rcd13ifvqfp0","pricing_plan_id":"free"},{"bike_id":"af49adb9-626f-42ae-82f4-01a1fc659c7a","system_id":"levelo_inurba_marseille","lat":43.23965,"lon":5.36633,"is_reserved":false,"is_disabled":false,"rental_uris":{"android":"levelo://app?vid=af49adb9-626f-42ae-82f4-01a1fc659c7a","ios":"levelo://app?vid=af49adb9-626f-42ae-82f4-01a1fc659c7a"},"vehicle_type_id":"4","last_reported":1685282707,"current_range_meters":31600,"station_id":"ce4bhi12rcd13ifvqfp0","pricing_plan_id":"free"},{"bike_id":"5cac62b5-12bb-4600-8104-e80f07b12a25","system_id":"levelo_inurba_marseille","lat":43.23965,"lon":5.36628,"is_reserved":false,"is_disabled":false,"rental_uris":{"android":"levelo://app?vid=5cac62b5-12bb-4600-8104-e80f07b12a25","ios":"levelo://app?vid=5cac62b5-12bb-4600-8104-e80f07b12a25"},"vehicle_type_id":"4","last_reported":1685282707,"current_range_meters":31200,"station_id":"ce4bhi12rcd13ifvqfp0","pricing_plan_id":"free"},{"bike_id":"cea03f45-9c15-42d4-b9a1-d74f1997a336","system_id":"levelo_inurba_marseille","lat":43.239588,"lon":5.366238,"is_reserved":false,"is_disabled":false,"rental_uris":{"android":"levelo://app?vid=cea03f45-9c15-42d4-b9a1-d74f1997a336","ios":"levelo://app?vid=cea03f45-9c15-42d4-b9a1-d74f1997a336"},"vehicle_type_id":"4","last_reported":1685282707,"current_range_meters":24400,"station_id":"ce4bhi12rcd13ifvqfp0","pricing_plan_id":"free"},{"bike_id":"7cf334c1-3dc9-4a3c-90d2-a738b953e821","system_id":"levelo_inurba_marseille","lat":43.23964,"lon":5.36628,"is_reserved":false,"is_disabled":false,"rental_uris":{"android":"levelo://app?vid=7cf334c1-3dc9-4a3c-90d2-a738b953e821","ios":"levelo://app?vid=7cf334c1-3dc9-4a3c-90d2-a738b953e821"},"vehicle_type_id":"4","last_reported":1685282707,"current_range_meters":3200,"station_id":"ce4bhi12rcd13ifvqfp0","pricing_plan_id":"free"},{"bike_id":"5832f7a2-2bbf-4739-8992-ae58e8286565","system_id":"levelo_inurba_marseille","lat":43.23964,"lon":5.36626,"is_reserved":false,"is_disabled":false,"rental_uris":{"android":"levelo://app?vid=5832f7a2-2bbf-4739-8992-ae58e8286565","ios":"levelo://app?vid=5832f7a2-2bbf-4739-8992-ae58e8286565"},"vehicle_type_id":"4","last_reported":1685282707,"current_range_meters":21600,"station_id":"ce4bhi12rcd13ifvqfp0","pricing_plan_id":"free"},{"bike_id":"6b13b2ef-49b8-4284-94de-ad0d9c10e133","system_id":"levelo_inurba_marseille","lat":43.239588,"lon":5.366238,"is_reserved":false,"is_disabled":false,"rental_uris":{"android":"levelo://app?vid=6b13b2ef-49b8-4284-94de-ad0d9c10e133","ios":"levelo://app?vid=6b13b2ef-49b8-4284-94de-ad0d9c10e133"},"vehicle_type_id":"4","last_reported":1685282707,"current_range_meters":24800,"station_id":"ce4bhi12rcd13ifvqfp0","pricing_plan_id":"free"},{"bike_id":"32c973fa-1a4e-4680-9612-d6a6186d4344","system_id":"levelo_inurba_marseille","lat":43.239588,"lon":5.366238,"is_reserved":false,"is_disabled":false,"rental_uris":{"android":"levelo://app?vid=32c973fa-1a4e-4680-9612-d6a6186d4344","ios":"levelo://app?vid=32c973fa-1a4e-4680-9612-d6a6186d4344"},"vehicle_type_id":"4","last_reported":1685282707,"current_range_meters":20400,"station_id":"ce4bhi12rcd13ifvqfp0","pricing_plan_id":"free"},{"bike_id":"d5d81426-e795-4b74-ba12-91443fa248f0","system_id":"levelo_inurba_marseille","lat":43.23963,"lon":5.36626,"is_reserved":false,"is_disabled":false,"rental_uris":{"android":"levelo://app?vid=d5d81426-e795-4b74-ba12-91443fa248f0","ios":"levelo://app?vid=d5d81426-e795-4b74-ba12-91443fa248f0"},"vehicle_type_id":"4","last_reported":1685282707,"current_range_meters":16800,"station_id":"ce4bhi12rcd13ifvqfp0","pricing_plan_id":"free"},{"bike_id":"68494e53-9d55-43dc-9fb8-a920287db932","system_id":"levelo_inurba_marseille","lat":43.23963,"lon":5.36618,"is_reserved":false,"is_disabled":false,"rental_uris":{"android":"levelo://app?vid=68494e53-9d55-43dc-9fb8-a920287db932","ios":"levelo://app?vid=68494e53-9d55-43dc-9fb8-a920287db932"},"vehicle_type_id":"4","last_reported":1685282707,"current_range_meters":11200,"station_id":"ce4bhi12rcd13ifvqfp0","pricing_plan_id":"free"},{"bike_id":"860932cc-be7f-42a9-9b4b-2b60c3a27612","system_id":"levelo_inurba_marseille","lat":43.23962,"lon":5.36628,"is_reserved":false,"is_disabled":false,"rental_uris":{"android":"levelo://app?vid=860932cc-be7f-42a9-9b4b-2b60c3a27612","ios":"levelo://app?vid=860932cc-be7f-42a9-9b4b-2b60c3a27612"},"vehicle_type_id":"4","last_reported":1685282707,"current_range_meters":10400,"station_id":"ce4bhi12rcd13ifvqfp0","pricing_plan_id":"free"},{"bike_id":"4b341884-ea38-45ea-b374-0cd85c5e60aa","system_id":"levelo_inurba_marseille","lat":43.23962,"lon":5.36627,"is_reserved":false,"is_disabled":false,"rental_uris":{"android":"levelo://app?vid=4b341884-ea38-45ea-b374-0cd85c5e60aa","ios":"levelo://app?vid=4b341884-ea38-45ea-b374-0cd85c5e60aa"},"vehicle_type_id":"4","last_reported":1685282707,"current_range_meters":27600,"station_id":"ce4bhi12rcd13ifvqfp0","pricing_plan_id":"free"},{"bike_id":"b8d1d1fd-0854-4702-8d3b-a3ac11b3dbba","system_id":"levelo_inurba_marseille","lat":43.23962,"lon":5.36626,"is_reserved":false,"is_disabled":false,"rental_uris":{"android":"levelo://app?vid=b8d1d1fd-0854-4702-8d3b-a3ac11b3dbba","ios":"levelo://app?vid=b8d1d1fd-0854-4702-8d3b-a3ac11b3dbba"},"vehicle_type_id":"4","last_reported":1685282707,"current_range_meters":400,"station_id":"ce4bhi12rcd13ifvqfp0","pricing_plan_id":"free"},{"bike_id":"12733177-5a87-470b-b4de-5e7bd8df20e2","system_id":"levelo_inurba_marseille","lat":43.239588,"lon":5.366238,"is_reserved":false,"is_disabled":false,"rental_uris":{"android":"levelo://app?vid=12733177-5a87-470b-b4de-5e7bd8df20e2","ios":"levelo://app?vid=12733177-5a87-470b-b4de-5e7bd8df20e2"},"vehicle_type_id":"4","last_reported":1685282707,"current_range_meters":5600,"station_id":"ce4bhi12rcd13ifvqfp0","pricing_plan_id":"free"},{"bike_id":"43393bd0-4149-4791-87ee-398a6d44dbc4","system_id":"levelo_inurba_marseille","lat":43.23961,"lon":5.36625,"is_reserved":false,"is_disabled":false,"rental_uris":{"android":"levelo://app?vid=43393bd0-4149-4791-87ee-398a6d44dbc4","ios":"levelo://app?vid=43393bd0-4149-4791-87ee-398a6d44dbc4"},"vehicle_type_id":"4","last_reported":1685282707,"current_range_meters":18800,"station_id":"ce4bhi12rcd13ifvqfp0","pricing_plan_id":"free"},{"bike_id":"846ae1ad-df0a-4967-84ac-da93fb022971","system_id":"levelo_inurba_marseille","lat":43.2396,"lon":5.36632,"is_reserved":false,"is_disabled":false,"rental_uris":{"android":"levelo://app?vid=846ae1ad-df0a-4967-84ac-da93fb022971","ios":"levelo://app?vid=846ae1ad-df0a-4967-84ac-da93fb022971"},"vehicle_type_id":"4","last_reported":1685282707,"current_range_meters":29600,"station_id":"ce4bhi12rcd13ifvqfp0","pricing_plan_id":"free"},{"bike_id":"b3e4384d-a229-4990-a8aa-8f5ad1c6cdbb","system_id":"levelo_inurba_marseille","lat":43.2396,"lon":5.36626,"is_reserved":false,"is_disabled":false,"rental_uris":{"android":"levelo://app?vid=b3e4384d-a229-4990-a8aa-8f5ad1c6cdbb","ios":"levelo://app?vid=b3e4384d-a229-4990-a8aa-8f5ad1c6cdbb"},"vehicle_type_id":"4","last_reported":1685282707,"current_range_meters":10000,"station_id":"ce4bhi12rcd13ifvqfp0","pricing_plan_id":"free"},{"bike_id":"1d8f17b9-3ecf-45e8-aa85-4d41f16f87e9","system_id":"levelo_inurba_marseille","lat":43.239588,"lon":5.366238,"is_reserved":false,"is_disabled":false,"rental_uris":{"android":"levelo://app?vid=1d8f17b9-3ecf-45e8-aa85-4d41f16f87e9","ios":"levelo://app?vid=1d8f17b9-3ecf-45e8-aa85-4d41f16f87e9"},"vehicle_type_id":"4","last_reported":1685282707,"current_range_meters":18800,"station_id":"ce4bhi12rcd13ifvqfp0","pricing_plan_id":"free"},{"bike_id":"44f6fd65-a504-4e1b-9913-ed133ddf6348","system_id":"levelo_inurba_marseille","lat":43.239588,"lon":5.366238,"is_reserved":false,"is_disabled":false,"rental_uris":{"android":"levelo://app?vid=44f6fd65-a504-4e1b-9913-ed133ddf6348","ios":"levelo://app?vid=44f6fd65-a504-4e1b-9913-ed133ddf6348"},"vehicle_type_id":"4","last_reported":1685282707,"current_range_meters":19600,"station_id":"ce4bhi12rcd13ifvqfp0","pricing_plan_id":"free"},{"bike_id":"a57b8abb-5b93-49e2-afa2-168c81dbc629","system_id":"levelo_inurba_marseille","lat":43.241782,"lon":5.397264,"is_reserved":false,"is_disabled":false,"rental_uris":{"android":"levelo://app?vid=a57b8abb-5b93-49e2-afa2-168c81dbc629","ios":"levelo://app?vid=a57b8abb-5b93-49e2-afa2-168c81dbc629"},"vehicle_type_id":"4","last_reported":1685282707,"current_range_meters":14800,"station_id":"ce4bhn12rcd13ifvqgpg","pricing_plan_id":"free"},{"bike_id":"5bed3870-337e-4b2d-9c4b-77d2e0ef04d3","system_id":"levelo_inurba_marseille","lat":43.23848,"lon":5.36485,"is_reserved":false,"is_disabled":false,"rental_uris":{"android":"levelo://app?vid=5bed3870-337e-4b2d-9c4b-77d2e0ef04d3","ios":"levelo://app?vid=5bed3870-337e-4b2d-9c4b-77d2e0ef04d3"},"vehicle_type_id":"4","last_reported":1685282707,"current_range_meters":13600,"station_id":"","pricing_plan_id":"free"},{"bike_id":"2efba59c-2c4d-4071-8a72-2e54c6726ac2","system_id":"levelo_inurba_marseille","lat":43.241782,"lon":5.397261,"is_reserved":false,"is_disabled":false,"rental_uris":{"android":"levelo://app?vid=2efba59c-2c4d-4071-8a72-2e54c6726ac2","ios":"levelo://app?vid=2efba59c-2c4d-4071-8a72-2e54c6726ac2"},"vehicle_type_id":"4","last_reported":1685282707,"current_range_meters":31600,"station_id":"ce4bhn12rcd13ifvqgpg","pricing_plan_id":"free"},{"bike_id":"4a6b1f4f-dfa2-4855-af18-fc2e2d5c179b","system_id":"levelo_inurba_marseille","lat":43.241782,"lon":5.397261,"is_reserved":false,"is_disabled":false,"rental_uris":{"android":"levelo://app?vid=4a6b1f4f-dfa2-4855-af18-fc2e2d5c179b","ios":"levelo://app?vid=4a6b1f4f-dfa2-4855-af18-fc2e2d5c179b"},"vehicle_type_id":"4","last_reported":1685282707,"current_range_meters":17600,"station_id":"ce4bhn12rcd13ifvqgpg","pricing_plan_id":"free"},{"bike_id":"2eda36ed-d78f-48d9-ba38-c4691e5ab376","system_id":"levelo_inurba_marseille","lat":43.241782,"lon":5.397264,"is_reserved":false,"is_disabled":false,"rental_uris":{"android":"levelo://app?vid=2eda36ed-d78f-48d9-ba38-c4691e5ab376","ios":"levelo://app?vid=2eda36ed-d78f-48d9-ba38-c4691e5ab376"},"vehicle_type_id":"4","last_reported":1685282707,"current_range_meters":27600,"station_id":"ce4bhn12rcd13ifvqgpg","pricing_plan_id":"free"},{"bike_id":"081a581b-2a60-44a9-a09d-152adad4823a","system_id":"levelo_inurba_marseille","lat":43.241782,"lon":5.397261,"is_reserved":false,"is_disabled":false,"rental_uris":{"android":"levelo://app?vid=081a581b-2a60-44a9-a09d-152adad4823a","ios":"levelo://app?vid=081a581b-2a60-44a9-a09d-152adad4823a"},"vehicle_type_id":"4","last_reported":1685282707,"current_range_meters":31600,"station_id":"ce4bhn12rcd13ifvqgpg","pricing_plan_id":"free"},{"bike_id":"999aa2a4-2de7-4240-839d-a274605bf884","system_id":"levelo_inurba_marseille","lat":43.241782,"lon":5.397264,"is_reserved":false,"is_disabled":false,"rental_uris":{"android":"levelo://app?vid=999aa2a4-2de7-4240-839d-a274605bf884","ios":"levelo://app?vid=999aa2a4-2de7-4240-839d-a274605bf884"},"vehicle_type_id":"4","last_reported":1685282707,"current_range_meters":13200,"station_id":"ce4bhn12rcd13ifvqgpg","pricing_plan_id":"free"},{"bike_id":"99d346d3-a1f6-4e1a-b65f-d649fa239985","system_id":"levelo_inurba_marseille","lat":43.23239,"lon":5.35603,"is_reserved":false,"is_disabled":false,"rental_uris":{"android":"levelo://app?vid=99d346d3-a1f6-4e1a-b65f-d649fa239985","ios":"levelo://app?vid=99d346d3-a1f6-4e1a-b65f-d649fa239985"},"vehicle_type_id":"4","last_reported":1685282707,"current_range_meters":16400,"station_id":"","pricing_plan_id":"free"},{"bike_id":"590ab6fa-9279-419f-887c-e25062db9e2f","system_id":"levelo_inurba_marseille","lat":43.23201,"lon":5.35551,"is_reserved":false,"is_disabled":false,"rental_uris":{"android":"levelo://app?vid=590ab6fa-9279-419f-887c-e25062db9e2f","ios":"levelo://app?vid=590ab6fa-9279-419f-887c-e25062db9e2f"},"vehicle_type_id":"4","last_reported":1685282707,"current_range_meters":9200,"station_id":"ce4bhu92rcd13ifvqi70","pricing_plan_id":"free"},{"bike_id":"64e7d782-463a-4c7f-b0e4-cc64d2cb1764","system_id":"levelo_inurba_marseille","lat":43.23201,"lon":5.35543,"is_reserved":false,"is_disabled":false,"rental_uris":{"android":"levelo://app?vid=64e7d782-463a-4c7f-b0e4-cc64d2cb1764","ios":"levelo://app?vid=64e7d782-463a-4c7f-b0e4-cc64d2cb1764"},"vehicle_type_id":"4","last_reported":1685282707,"current_range_meters":29600,"station_id":"ce4bhu92rcd13ifvqi70","pricing_plan_id":"free"},{"bike_id":"f8992630-34a1-4b05-8135-baf436e1a6f7","system_id":"levelo_inurba_marseille","lat":43.23201,"lon":5.35538,"is_reserved":false,"is_disabled":false,"rental_uris":{"android":"levelo://app?vid=f8992630-34a1-4b05-8135-baf436e1a6f7","ios":"levelo://app?vid=f8992630-34a1-4b05-8135-baf436e1a6f7"},"vehicle_type_id":"4","last_reported":1685282707,"current_range_meters":16000,"station_id":"ce4bhu92rcd13ifvqi70","pricing_plan_id":"free"},{"bike_id":"22422e04-5bb4-4b7e-9a82-d7dd628a4062","system_id":"levelo_inurba_marseille","lat":43.232,"lon":5.35546,"is_reserved":false,"is_disabled":false,"rental_uris":{"android":"levelo://app?vid=22422e04-5bb4-4b7e-9a82-d7dd628a4062","ios":"levelo://app?vid=22422e04-5bb4-4b7e-9a82-d7dd628a4062"},"vehicle_type_id":"4","last_reported":1685282707,"current_range_meters":11200,"station_id":"ce4bhu92rcd13ifvqi70","pricing_plan_id":"free"},{"bike_id":"bdfaa302-99c5-4451-a496-2305f2610c0e","system_id":"levelo_inurba_marseille","lat":43.23199,"lon":5.35552,"is_reserved":false,"is_disabled":false,"rental_uris":{"android":"levelo://app?vid=bdfaa302-99c5-4451-a496-2305f2610c0e","ios":"levelo://app?vid=bdfaa302-99c5-4451-a496-2305f2610c0e"},"vehicle_type_id":"4","last_reported":1685282707,"current_range_meters":30400,"station_id":"ce4bhu92rcd13ifvqi70","pricing_plan_id":"free"},{"bike_id":"3a7224a1-5dd8-434c-a50c-d5e334386e61","system_id":"levelo_inurba_marseille","lat":43.23199,"lon":5.35549,"is_reserved":false,"is_disabled":false,"rental_uris":{"android":"levelo://app?vid=3a7224a1-5dd8-434c-a50c-d5e334386e61","ios":"levelo://app?vid=3a7224a1-5dd8-434c-a50c-d5e334386e61"},"vehicle_type_id":"4","last_reported":1685282707,"current_range_meters":7200,"station_id":"ce4bhu92rcd13ifvqi70","pricing_plan_id":"free"},{"bike_id":"13b37131-4bad-4380-bb75-607495b01d25","system_id":"levelo_inurba_marseille","lat":43.23198,"lon":5.35552,"is_reserved":false,"is_disabled":false,"rental_uris":{"android":"levelo://app?vid=13b37131-4bad-4380-bb75-607495b01d25","ios":"levelo://app?vid=13b37131-4bad-4380-bb75-607495b01d25"},"vehicle_type_id":"4","last_reported":1685282707,"current_range_meters":28800,"station_id":"ce4bhu92rcd13ifvqi70","pricing_plan_id":"free"},{"bike_id":"070b7049-75bb-402c-9131-f782c16ce726","system_id":"levelo_inurba_marseille","lat":43.23197,"lon":5.35555,"is_reserved":false,"is_disabled":false,"rental_uris":{"android":"levelo://app?vid=070b7049-75bb-402c-9131-f782c16ce726","ios":"levelo://app?vid=070b7049-75bb-402c-9131-f782c16ce726"},"vehicle_type_id":"4","last_reported":1685282707,"current_range_meters":15600,"station_id":"ce4bhu92rcd13ifvqi70","pricing_plan_id":"free"},{"bike_id":"cb6db524-07d8-4d8a-b009-d7195d1f2e7b","system_id":"levelo_inurba_marseille","lat":43.23197,"lon":5.35554,"is_reserved":false,"is_disabled":false,"rental_uris":{"android":"levelo://app?vid=cb6db524-07d8-4d8a-b009-d7195d1f2e7b","ios":"levelo://app?vid=cb6db524-07d8-4d8a-b009-d7195d1f2e7b"},"vehicle_type_id":"4","last_reported":1685282707,"current_range_meters":8800,"station_id":"ce4bhu92rcd13ifvqi70","pricing_plan_id":"free"},{"bike_id":"86f6aa98-31ed-47e9-8124-438330d674f0","system_id":"levelo_inurba_marseille","lat":43.23197,"lon":5.35552,"is_reserved":false,"is_disabled":false,"rental_uris":{"android":"levelo://app?vid=86f6aa98-31ed-47e9-8124-438330d674f0","ios":"levelo://app?vid=86f6aa98-31ed-47e9-8124-438330d674f0"},"vehicle_type_id":"4","last_reported":1685282707,"current_range_meters":14800,"station_id":"ce4bhu92rcd13ifvqi70","pricing_plan_id":"free"},{"bike_id":"cb73c821-3799-42da-b67c-c00ac8a9dd80","system_id":"levelo_inurba_marseille","lat":43.23197,"lon":5.35547,"is_reserved":false,"is_disabled":false,"rental_uris":{"android":"levelo://app?vid=cb73c821-3799-42da-b67c-c00ac8a9dd80","ios":"levelo://app?vid=cb73c821-3799-42da-b67c-c00ac8a9dd80"},"vehicle_type_id":"4","last_reported":1685282707,"current_range_meters":24400,"station_id":"ce4bhu92rcd13ifvqi70","pricing_plan_id":"free"},{"bike_id":"9f1ff2ea-3d4c-495e-89ac-a4b1fc323eb1","system_id":"levelo_inurba_marseille","lat":43.23197,"lon":5.35547,"is_reserved":false,"is_disabled":false,"rental_uris":{"android":"levelo://app?vid=9f1ff2ea-3d4c-495e-89ac-a4b1fc323eb1","ios":"levelo://app?vid=9f1ff2ea-3d4c-495e-89ac-a4b1fc323eb1"},"vehicle_type_id":"4","last_reported":1685282707,"current_range_meters":8400,"station_id":"ce4bhu92rcd13ifvqi70","pricing_plan_id":"free"},{"bike_id":"9211d47f-57e7-4458-90d9-2aff86682df2","system_id":"levelo_inurba_marseille","lat":43.231923,"lon":5.355545,"is_reserved":false,"is_disabled":false,"rental_uris":{"android":"levelo://app?vid=9211d47f-57e7-4458-90d9-2aff86682df2","ios":"levelo://app?vid=9211d47f-57e7-4458-90d9-2aff86682df2"},"vehicle_type_id":"4","last_reported":1685282707,"current_range_meters":18800,"station_id":"ce4bhu92rcd13ifvqi70","pricing_plan_id":"free"},{"bike_id":"feec487e-45fb-4ab2-b9f6-d8885af39c2c","system_id":"levelo_inurba_marseille","lat":43.23196,"lon":5.35559,"is_reserved":false,"is_disabled":false,"rental_uris":{"android":"levelo://app?vid=feec487e-45fb-4ab2-b9f6-d8885af39c2c","ios":"levelo://app?vid=feec487e-45fb-4ab2-b9f6-d8885af39c2c"},"vehicle_type_id":"4","last_reported":1685282707,"current_range_meters":16400,"station_id":"ce4bhu92rcd13ifvqi70","pricing_plan_id":"free"},{"bike_id":"0fe160b8-a60a-4b6e-8528-566a90a6128c","system_id":"levelo_inurba_marseille","lat":43.23196,"lon":5.35553,"is_reserved":false,"is_disabled":false,"rental_uris":{"android":"levelo://app?vid=0fe160b8-a60a-4b6e-8528-566a90a6128c","ios":"levelo://app?vid=0fe160b8-a60a-4b6e-8528-566a90a6128c"},"vehicle_type_id":"4","last_reported":1685282707,"current_range_meters":4800,"station_id":"ce4bhu92rcd13ifvqi70","pricing_plan_id":"free"},{"bike_id":"d8367535-cbd1-430d-9048-fc3699eea42a","system_id":"levelo_inurba_marseille","lat":43.23196,"lon":5.35549,"is_reserved":false,"is_disabled":false,"rental_uris":{"android":"levelo://app?vid=d8367535-cbd1-430d-9048-fc3699eea42a","ios":"levelo://app?vid=d8367535-cbd1-430d-9048-fc3699eea42a"},"vehicle_type_id":"4","last_reported":1685282707,"current_range_meters":23600,"station_id":"ce4bhu92rcd13ifvqi70","pricing_plan_id":"free"},{"bike_id":"60a312ef-fce2-49a9-8e0c-bf417c8121cf","system_id":"levelo_inurba_marseille","lat":43.23196,"lon":5.35547,"is_reserved":false,"is_disabled":false,"rental_uris":{"android":"levelo://app?vid=60a312ef-fce2-49a9-8e0c-bf417c8121cf","ios":"levelo://app?vid=60a312ef-fce2-49a9-8e0c-bf417c8121cf"},"vehicle_type_id":"4","last_reported":1685282707,"current_range_meters":3600,"station_id":"ce4bhu92rcd13ifvqi70","pricing_plan_id":"free"},{"bike_id":"916c0bbd-3859-4ec7-a07b-d0e0e5d22e0b","system_id":"levelo_inurba_marseille","lat":43.23195,"lon":5.35554,"is_reserved":false,"is_disabled":false,"rental_uris":{"android":"levelo://app?vid=916c0bbd-3859-4ec7-a07b-d0e0e5d22e0b","ios":"levelo://app?vid=916c0bbd-3859-4ec7-a07b-d0e0e5d22e0b"},