{"last_updated":1718910416,"ttl":30,"version":"2.2","data":{"bikes":[{"bike_id":"73961978-48d2-46ca-950f-c7866385b2e6","system_id":"levelo_inurba_marseille","lat":43.312239,"lon":5.368562,"is_reserved":false,"is_disabled":false,"rental_uris":{"android":"levelo://app?vid=73961978-48d2-46ca-950f-c7866385b2e6","ios":"levelo://app?vid=73961978-48d2-46ca-950f-c7866385b2e6"},"vehicle_type_id":"4","last_reported":1718910416,"current_range_meters":0,"station_id":"ce4bgl92rcd13ifvqbq0","pricing_plan_id":"cebpf4jnsgd1na2vs0mg"},{"bike_id":"e3c80cc1-9d99-4f52-a36b-90474bcd88d1","system_id":"levelo_inurba_marseille","lat":43.31243,"lon":5.36867,"is_reserved":false,"is_disabled":false,"rental_uris":{"android":"levelo://app?vid=e3c80cc1-9d99-4f52-a36b-90474bcd88d1","ios":"levelo://app?vid=e3c80cc1-9d99-4f52-a36b-90474bcd88d1"},"vehicle_type_id":"4","last_reported":1718910416,"current_range_meters":21600,"station_id":"","pricing_plan_id":"cebpf4jnsgd1na2vs0mg"},{"bike_id":"762bf2ca-beb2-47ce-bb0e-6c54c40f9c77","system_id":"levelo_inurba_marseille","lat":43.31225,"lon":5.36871,"is_reserved":false,"is_disabled":false,"rental_uris":{"android":"levelo://app?vid=762bf2ca-beb2-47ce-bb0e-6c54c40f9c77","ios":"levelo://app?vid=762bf2ca-beb2-47ce-bb0e-6c54c40f9c77"},"vehicle_type_id":"4","last_reported":1718910416,"current_range_meters":10800,"station_id":"","pricing_plan_id":"cebpf4jnsgd1na2vs0mg"},{"bike_id":"ef74a9b1-93ed-478e-9aeb-4df13fcd5a1c","system_id":"levelo_inurba_marseille","lat":43.314811,"lon":5.373103,"is_reserved":false,"is_disabled":false,"rental_uris":{"android":"levelo://app?vid=ef74a9b1-93ed-478e-9aeb-4df13fcd5a1c","ios":"levelo://app?vid=ef74a9b1-93ed-478e-9aeb-4df13fcd5a1c"},"vehicle_type_id":"4","last_reported":1718910416,"current_range_meters":0,"station_id":"ce4bgt12rcd13ifvqcd0","pricing_plan_id":"cebpf4jnsgd1na2vs0mg"},{"bike_id":"e0462246-5c58-45fd-af88-92bba4afefb2","system_id":"levelo_inurba_marseille","lat":43.314811,"lon":5.373104,"is_reserved":false,"is_disabled":false,"rental_uris":{"android":"levelo://app?vid=e0462246-5c58-45fd-af88-92bba4afefb2","ios":"levelo://app?vid=e0462246-5c58-45fd-af88-92bba4afefb2"},"vehicle_type_id":"4","last_reported":1718910416,"current_range_meters":28000,"station_id":"ce4bgt12rcd13ifvqcd0","pricing_plan_id":"cebpf4jnsgd1na2vs0mg"},{"bike_id":"35ef7e6d-d130-43d6-a1cc-85efcd261556","system_id":"levelo_inurba_marseille","lat":43.309034,"lon":5.371783,"is_reserved":false,"is_disabled":false,"rental_uris":{"android":"levelo://app?vid=35ef7e6d-d130-43d6-a1cc-85efcd261556","ios":"levelo://app?vid=35ef7e6d-d130-43d6-a1cc-85efcd261556"},"vehicle_type_id":"4","last_reported":1718910416,"current_range_meters":11200,"station_id":"ce4bguh2rcd13ifvqckg","pricing_plan_id":"cebpf4jnsgd1na2vs0mg"},{"bike_id":"9f343050-7df0-4de3-9996-a3657976266e","system_id":"levelo_inurba_marseille","lat":43.316906,"lon":5.372806,"is_reserved":false,"is_disabled":false,"rental_uris":{"android":"levelo://app?vid=9f343050-7df0-4de3-9996-a3657976266e","ios":"levelo://app?vid=9f343050-7df0-4de3-9996-a3657976266e"},"vehicle_type_id":"4","last_reported":1718910416,"current_range_meters":24800,"station_id":"","pricing_plan_id":"cebpf4jnsgd1na2vs0mg"},{"bike_id":"38c05c62-3b15-4c91-8a06-87785ea1bebb","system_id":"levelo_inurba_marseille","lat":43.30537,"lon":5.367345,"is_reserved":false,"is_disabled":false,"rental_uris":{"android":"levelo://app?vid=38c05c62-3b15-4c91-8a06-87785ea1bebb","ios":"levelo://app?vid=38c05c62-3b15-4c91-8a06-87785ea1bebb"},"vehicle_type_id":"4","last_reported":1718910416,"current_range_meters":27200,"station_id":"ce4bgrp2rcd13ifvqc9g","pricing_plan_id":"cebpf4jnsgd1na2vs0mg"},{"bike_id":"d95ed3f7-4f66-43a5-b342-64a5c6ad9c56","system_id":"levelo_inurba_marseille","lat":43.3053,"lon":5.36698,"is_reserved":false,"is_disabled":false,"rental_uris":{"android":"levelo://app?vid=d95ed3f7-4f66-43a5-b342-64a5c6ad9c56","ios":"levelo://app?vid=d95ed3f7-4f66-43a5-b342-64a5c6ad9c56"},"vehicle_type_id":"4","last_reported":1718910416,"current_range_meters":0,"station_id":"ce4bgrp2rcd13ifvqc9g","pricing_plan_id":"cebpf4jnsgd1na2vs0mg"},{"bike_id":"87e98e81-7088-40bf-b69a-2f8d5b20443a","system_id":"levelo_inurba_marseille","lat":43.311125,"lon":5.377624,"is_reserved":false,"is_disabled":false,"rental_uris":{"android":"levelo://app?vid=87e98e81-7088-40bf-b69a-2f8d5b20443a","ios":"levelo://app?vid=87e98e81-7088-40bf-b69a-2f8d5b20443a"},"vehicle_type_id":"4","last_reported":1718910416,"current_range_meters":12000,"station_id":"ce4bgt92rcd13ifvqcg0","pricing_plan_id":"cebpf4jnsgd1na2vs0mg"},{"bike_id":"c3eac817-aa23-4011-bed6-0fcc3d65fad0","system_id":"levelo_inurba_marseille","lat":43.311125,"lon":5.377624,"is_reserved":false,"is_disabled":false,"rental_uris":{"android":"levelo://app?vid=c3eac817-aa23-4011-bed6-0fcc3d65fad0","ios":"levelo://app?vid=c3eac817-aa23-4011-bed6-0fcc3d65fad0"},"vehicle_type_id":"4","last_reported":1718910416,"current_range_meters":0,"station_id":"ce4bgt92rcd13ifvqcg0","pricing_plan_id":"cebpf4jnsgd1na2vs0mg"},{"bike_id":"98654416-a4f9-4ab5-bb3c-04f500814227","system_id":"levelo_inurba_marseille","lat":43.31128,"lon":5.3777,"is_reserved":false,"is_disabled":false,"rental_uris":{"android":"levelo://app?vid=98654416-a4f9-4ab5-bb3c-04f500814227","ios":"levelo://app?vid=98654416-a4f9-4ab5-bb3c-04f500814227"},"vehicle_type_id":"4","last_reported":1718910416,"current_range_meters":0,"station_id":"ce4bgt92rcd13ifvqcg0","pricing_plan_id":"cebpf4jnsgd1na2vs0mg"},{"bike_id":"6992b472-1d93-414e-8af4-19361e7b815e","system_id":"levelo_inurba_marseille","lat":43.3078,"lon":5.37643,"is_reserved":false,"is_disabled":false,"rental_uris":{"android":"levelo://app?vid=6992b472-1d93-414e-8af4-19361e7b815e","ios":"levelo://app?vid=6992b472-1d93-414e-8af4-19361e7b815e"},"vehicle_type_id":"4","last_reported":1718910416,"current_range_meters":0,"station_id":"ce4bgv92rcd13ifvqcq0","pricing_plan_id":"cebpf4jnsgd1na2vs0mg"},{"bike_id":"b77d9cc2-c28b-4784-bccf-25323e4859b9","system_id":"levelo_inurba_marseille","lat":43.307945,"lon":5.376487,"is_reserved":false,"is_disabled":false,"rental_uris":{"android":"levelo://app?vid=b77d9cc2-c28b-4784-bccf-25323e4859b9","ios":"levelo://app?vid=b77d9cc2-c28b-4784-bccf-25323e4859b9"},"vehicle_type_id":"4","last_reported":1718910416,"current_range_meters":8400,"station_id":"ce4bgv92rcd13ifvqcq0","pricing_plan_id":"cebpf4jnsgd1na2vs0mg"},{"bike_id":"477fc869-50a3-4ef2-aa9a-d290b5c2a6e3","system_id":"levelo_inurba_marseille","lat":43.307945,"lon":5.376487,"is_reserved":false,"is_disabled":false,"rental_uris":{"android":"levelo://app?vid=477fc869-50a3-4ef2-aa9a-d290b5c2a6e3","ios":"levelo://app?vid=477fc869-50a3-4ef2-aa9a-d290b5c2a6e3"},"vehicle_type_id":"4","last_reported":1718910416,"current_range_meters":17200,"station_id":"ce4bgv92rcd13ifvqcq0","pricing_plan_id":"cebpf4jnsgd1na2vs0mg"},{"bike_id":"1f4c6f3e-b517-4dd2-8e36-d545b38f53a1","system_id":"levelo_inurba_marseille","lat":43.3078,"lon":5.37655,"is_reserved":false,"is_disabled":false,"rental_uris":{"android":"levelo://app?vid=1f4c6f3e-b517-4dd2-8e36-d545b38f53a1","ios":"levelo://app?vid=1f4c6f3e-b517-4dd2-8e36-d545b38f53a1"},"vehicle_type_id":"4","last_reported":1718910416,"current_range_meters":19600,"station_id":"","pricing_plan_id":"cebpf4jnsgd1na2vs0mg"},{"bike_id":"946f227d-b481-4cae-969a-a997f610d847","system_id":"levelo_inurba_marseille","lat":43.307945,"lon":5.376487,"is_reserved":false,"is_disabled":false,"rental_uris":{"android":"levelo://app?vid=946f227d-b481-4cae-969a-a997f610d847","ios":"levelo://app?vid=946f227d-b481-4cae-969a-a997f610d847"},"vehicle_type_id":"4","last_reported":1718910416,"current_range_meters":13600,"station_id":"ce4bgv92rcd13ifvqcq0","pricing_plan_id":"cebpf4jnsgd1na2vs0mg"},{"bike_id":"0c865e34-9fb7-46c4-a7ee-397ee7b1fdaa","system_id":"levelo_inurba_marseille","lat":43.317075,"lon":5.377367,"is_reserved":false,"is_disabled":false,"rental_uris":{"android":"levelo://app?vid=0c865e34-9fb7-46c4-a7ee-397ee7b1fdaa","ios":"levelo://app?vid=0c865e34-9fb7-46c4-a7ee-397ee7b1fdaa"},"vehicle_type_id":"4","last_reported":1718910416,"current_range_meters":21600,"station_id":"ce4bgth2rcd13ifvqch0","pricing_plan_id":"cebpf4jnsgd1na2vs0mg"},{"bike_id":"7d6f3434-5758-4df6-877f-cf72fba6038d","system_id":"levelo_inurba_marseille","lat":43.317075,"lon":5.377367,"is_reserved":false,"is_disabled":false,"rental_uris":{"android":"levelo://app?vid=7d6f3434-5758-4df6-877f-cf72fba6038d","ios":"levelo://app?vid=7d6f3434-5758-4df6-877f-cf72fba6038d"},"vehicle_type_id":"4","last_reported":1718910416,"current_range_meters":23600,"station_id":"ce4bgth2rcd13ifvqch0","pricing_plan_id":"cebpf4jnsgd1na2vs0mg"},{"bike_id":"1bbcced6-e95e-4e3e-877b-0a4d48ace35d","system_id":"levelo_inurba_marseille","lat":43.315289,"lon":5.380349,"is_reserved":false,"is_disabled":false,"rental_uris":{"android":"levelo://app?vid=1bbcced6-e95e-4e3e-877b-0a4d48ace35d","ios":"levelo://app?vid=1bbcced6-e95e-4e3e-877b-0a4d48ace35d"},"vehicle_type_id":"4","last_reported":1718910416,"current_range_meters":19600,"station_id":"ce4bhsp2rcd13ifvqi50","pricing_plan_id":"cebpf4jnsgd1na2vs0mg"},{"bike_id":"cb9fb667-5010-476a-a6fd-eb58c8851c86","system_id":"levelo_inurba_marseille","lat":43.315289,"lon":5.380349,"is_reserved":false,"is_disabled":false,"rental_uris":{"android":"levelo://app?vid=cb9fb667-5010-476a-a6fd-eb58c8851c86","ios":"levelo://app?vid=cb9fb667-5010-476a-a6fd-eb58c8851c86"},"vehicle_type_id":"4","last_reported":1718910416,"current_range_meters":29200,"station_id":"ce4bhsp2rcd13ifvqi50","pricing_plan_id":"cebpf4jnsgd1na2vs0mg"},{"bike_id":"22b3dbde-496a-4157-bd1a-ddf8a6b5c649","system_id":"levelo_inurba_marseille","lat":43.315289,"lon":5.380349,"is_reserved":false,"is_disabled":false,"rental_uris":{"android":"levelo://app?vid=22b3dbde-496a-4157-bd1a-ddf8a6b5c649","ios":"levelo://app?vid=22b3dbde-496a-4157-bd1a-ddf8a6b5c649"},"vehicle_type_id":"4","last_reported":1718910416,"current_range_meters":2800,"station_id":"ce4bhsp2rcd13ifvqi50","pricing_plan_id":"cebpf4jnsgd1na2vs0mg"},{"bike_id":"39f6f592-52ae-4603-818e-7ee9899b3c69","system_id":"levelo_inurba_marseille","lat":43.315289,"lon":5.380349,"is_reserved":false,"is_disabled":false,"rental_uris":{"android":"levelo://app?vid=39f6f592-52ae-4603-818e-7ee9899b3c69","ios":"levelo://app?vid=39f6f592-52ae-4603-818e-7ee9899b3c69"},"vehicle_type_id":"4","last_reported":1718910416,"current_range_meters":8000,"station_id":"ce4bhsp2rcd13ifvqi50","pricing_plan_id":"cebpf4jnsgd1na2vs0mg"},{"bike_id":"f6d495fb-8eb7-447d-b84a-26fa7511a017","system_id":"levelo_inurba_marseille","lat":43.30925,"lon":5.38022,"is_reserved":false,"is_disabled":false,"rental_uris":{"android":"levelo://app?vid=f6d495fb-8eb7-447d-b84a-26fa7511a017","ios":"levelo://app?vid=f6d495fb-8eb7-447d-b84a-26fa7511a017"},"vehicle_type_id":"4","last_reported":1718910416,"current_range_meters":29600,"station_id":"","pricing_plan_id":"cebpf4jnsgd1na2vs0mg"},{"bike_id":"4fa677a6-7301-47be-a329-ade13d4f9f75","system_id":"levelo_inurba_marseille","lat":43.301939,"lon":5.366286,"is_reserved":false,"is_disabled":false,"rental_uris":{"android":"levelo://app?vid=4fa677a6-7301-47be-a329-ade13d4f9f75","ios":"levelo://app?vid=4fa677a6-7301-47be-a329-ade13d4f9f75"},"vehicle_type_id":"4","last_reported":1718910416,"current_range_meters":0,"station_id":"ce4bgrh2rcd13ifvqc8g","pricing_plan_id":"cebpf4jnsgd1na2vs0mg"},{"bike_id":"10358ccf-91d1-43f6-9b37-140a7ef44c43","system_id":"levelo_inurba_marseille","lat":43.30184,"lon":5.36615,"is_reserved":false,"is_disabled":false,"rental_uris":{"android":"levelo://app?vid=10358ccf-91d1-43f6-9b37-140a7ef44c43","ios":"levelo://app?vid=10358ccf-91d1-43f6-9b37-140a7ef44c43"},"vehicle_type_id":"4","last_reported":1718910416,"current_range_meters":29600,"station_id":"ce4bgrh2rcd13ifvqc8g","pricing_plan_id":"cebpf4jnsgd1na2vs0mg"},{"bike_id":"1c2d867e-a8e9-459d-a62e-5478e1aefba3","system_id":"levelo_inurba_marseille","lat":43.30175,"lon":5.366112,"is_reserved":false,"is_disabled":false,"rental_uris":{"android":"levelo://app?vid=1c2d867e-a8e9-459d-a62e-5478e1aefba3","ios":"levelo://app?vid=1c2d867e-a8e9-459d-a62e-5478e1aefba3"},"vehicle_type_id":"4","last_reported":1718910416,"current_range_meters":6800,"station_id":"ce4bgrh2rcd13ifvqc8g","pricing_plan_id":"cebpf4jnsgd1na2vs0mg"},{"bike_id":"2e7664b2-dc18-42da-aa64-faec30448c5c","system_id":"levelo_inurba_marseille","lat":43.308012,"lon":5.381511,"is_reserved":false,"is_disabled":false,"rental_uris":{"android":"levelo://app?vid=2e7664b2-dc18-42da-aa64-faec30448c5c","ios":"levelo://app?vid=2e7664b2-dc18-42da-aa64-faec30448c5c"},"vehicle_type_id":"4","last_reported":1718910416,"current_range_meters":1600,"station_id":"ce4bgt12rcd13ifvqce0","pricing_plan_id":"cebpf4jnsgd1na2vs0mg"},{"bike_id":"16c8d8ec-eaae-45af-8f2f-ec56c12ef587","system_id":"levelo_inurba_marseille","lat":43.292749,"lon":5.368402,"is_reserved":false,"is_disabled":false,"rental_uris":{"android":"levelo://app?vid=16c8d8ec-eaae-45af-8f2f-ec56c12ef587","ios":"levelo://app?vid=16c8d8ec-eaae-45af-8f2f-ec56c12ef587"},"vehicle_type_id":"4","last_reported":1718910416,"current_range_meters":19600,"station_id":"ce4bhbp2rcd13ifvqesg","pricing_plan_id":"cebpf4jnsgd1na2vs0mg"},{"bike_id":"cfaa6e1d-3fa1-4764-a63a-5202cd61cdcc","system_id":"levelo_inurba_marseille","lat":43.324856,"lon":5.365701,"is_reserved":false,"is_disabled":false,"rental_uris":{"android":"levelo://app?vid=cfaa6e1d-3fa1-4764-a63a-5202cd61cdcc","ios":"levelo://app?vid=cfaa6e1d-3fa1-4764-a63a-5202cd61cdcc"},"vehicle_type_id":"4","last_reported":1718910416,"current_range_meters":0,"station_id":"ce4bhs12rcd13ifvqhvg","pricing_plan_id":"cebpf4jnsgd1na2vs0mg"},{"bike_id":"2e4eedb6-9f53-4953-9163-a76b1ba2d868","system_id":"levelo_inurba_marseille","lat":43.324771,"lon":5.36557,"is_reserved":false,"is_disabled":false,"rental_uris":{"android":"levelo://app?vid=2e4eedb6-9f53-4953-9163-a76b1ba2d868","ios":"levelo://app?vid=2e4eedb6-9f53-4953-9163-a76b1ba2d868"},"vehicle_type_id":"4","last_reported":1718910416,"current_range_meters":18400,"station_id":"ce4bhs12rcd13ifvqhvg","pricing_plan_id":"cebpf4jnsgd1na2vs0mg"},{"bike_id":"d9677f1a-cff1-4985-8850-83c3bd24e37f","system_id":"levelo_inurba_marseille","lat":43.310804,"lon":5.38359,"is_reserved":false,"is_disabled":false,"rental_uris":{"android":"levelo://app?vid=d9677f1a-cff1-4985-8850-83c3bd24e37f","ios":"levelo://app?vid=d9677f1a-cff1-4985-8850-83c3bd24e37f"},"vehicle_type_id":"4","last_reported":1718910416,"current_range_meters":24800,"station_id":"ce4bgv92rcd13ifvqcr0","pricing_plan_id":"cebpf4jnsgd1na2vs0mg"},{"bike_id":"7730739c-4301-4d27-8c2d-b990c9390f07","system_id":"levelo_inurba_marseille","lat":43.310804,"lon":5.38359,"is_reserved":false,"is_disabled":false,"rental_uris":{"android":"levelo://app?vid=7730739c-4301-4d27-8c2d-b990c9390f07","ios":"levelo://app?vid=7730739c-4301-4d27-8c2d-b990c9390f07"},"vehicle_type_id":"4","last_reported":1718910416,"current_range_meters":4000,"station_id":"ce4bgv92rcd13ifvqcr0","pricing_plan_id":"cebpf4jnsgd1na2vs0mg"},{"bike_id":"102e75bb-7417-4ace-be56-9a4e47b89854","system_id":"levelo_inurba_marseille","lat":43.310804,"lon":5.38359,"is_reserved":false,"is_disabled":false,"rental_uris":{"android":"levelo://app?vid=102e75bb-7417-4ace-be56-9a4e47b89854","ios":"levelo://app?vid=102e75bb-7417-4ace-be56-9a4e47b89854"},"vehicle_type_id":"4","last_reported":1718910416,"current_range_meters":0,"station_id":"ce4bgv92rcd13ifvqcr0","pricing_plan_id":"cebpf4jnsgd1na2vs0mg"},{"bike_id":"4ede33de-6ab2-4768-afef-1094ff40f64b","system_id":"levelo_inurba_marseille","lat":43.30284,"lon":5.377,"is_reserved":false,"is_disabled":false,"rental_uris":{"android":"levelo://app?vid=4ede33de-6ab2-4768-afef-1094ff40f64b","ios":"levelo://app?vid=4ede33de-6ab2-4768-afef-1094ff40f64b"},"vehicle_type_id":"4","last_reported":1718910416,"current_range_meters":0,"station_id":"ce4bguh2rcd13ifvqcj0","pricing_plan_id":"cebpf4jnsgd1na2vs0mg"},{"bike_id":"aaf6b731-0c4f-4225-a161-1f0641b0c756","system_id":"levelo_inurba_marseille","lat":43.31073,"lon":5.383635,"is_reserved":false,"is_disabled":false,"rental_uris":{"android":"levelo://app?vid=aaf6b731-0c4f-4225-a161-1f0641b0c756","ios":"levelo://app?vid=aaf6b731-0c4f-4225-a161-1f0641b0c756"},"vehicle_type_id":"4","last_reported":1718910416,"current_range_meters":5200,"station_id":"","pricing_plan_id":"cebpf4jnsgd1na2vs0mg"},{"bike_id":"55715491-3d8b-4aff-8c08-de1c2d38891b","system_id":"levelo_inurba_marseille","lat":43.30279,"lon":5.37697,"is_reserved":false,"is_disabled":false,"rental_uris":{"android":"levelo://app?vid=55715491-3d8b-4aff-8c08-de1c2d38891b","ios":"levelo://app?vid=55715491-3d8b-4aff-8c08-de1c2d38891b"},"vehicle_type_id":"4","last_reported":1718910416,"current_range_meters":0,"station_id":"ce4bguh2rcd13ifvqcj0","pricing_plan_id":"cebpf4jnsgd1na2vs0mg"},{"bike_id":"c3ef7b5a-8b69-41cc-9427-815a3ff0fb49","system_id":"levelo_inurba_marseille","lat":43.30143,"lon":5.37413,"is_reserved":false,"is_disabled":false,"rental_uris":{"android":"levelo://app?vid=c3ef7b5a-8b69-41cc-9427-815a3ff0fb49","ios":"levelo://app?vid=c3ef7b5a-8b69-41cc-9427-815a3ff0fb49"},"vehicle_type_id":"4","last_reported":1718910416,"current_range_meters":24000,"station_id":"ce4bgs92rcd13ifvqcc0","pricing_plan_id":"cebpf4jnsgd1na2vs0mg"},{"bike_id":"bfb800f0-d8b5-4b8c-9246-77885a73d3ef","system_id":"levelo_inurba_marseille","lat":43.30143,"lon":5.37413,"is_reserved":false,"is_disabled":false,"rental_uris":{"android":"levelo://app?vid=bfb800f0-d8b5-4b8c-9246-77885a73d3ef","ios":"levelo://app?vid=bfb800f0-d8b5-4b8c-9246-77885a73d3ef"},"vehicle_type_id":"4","last_reported":1718910416,"current_range_meters":16400,"station_id":"ce4bgs92rcd13ifvqcc0","pricing_plan_id":"cebpf4jnsgd1na2vs0mg"},{"bike_id":"cbe657e6-4600-4560-856c-ff1d20e0eeee","system_id":"levelo_inurba_marseille","lat":43.301429,"lon":5.37413,"is_reserved":false,"is_disabled":false,"rental_uris":{"android":"levelo://app?vid=cbe657e6-4600-4560-856c-ff1d20e0eeee","ios":"levelo://app?vid=cbe657e6-4600-4560-856c-ff1d20e0eeee"},"vehicle_type_id":"4","last_reported":1718910416,"current_range_meters":19200,"station_id":"ce4bgs92rcd13ifvqcc0","pricing_plan_id":"cebpf4jnsgd1na2vs0mg"},{"bike_id":"23f2fe74-6275-49a0-a096-606627725016","system_id":"levelo_inurba_marseille","lat":43.30143,"lon":5.37413,"is_reserved":false,"is_disabled":false,"rental_uris":{"android":"levelo://app?vid=23f2fe74-6275-49a0-a096-606627725016","ios":"levelo://app?vid=23f2fe74-6275-49a0-a096-606627725016"},"vehicle_type_id":"4","last_reported":1718910416,"current_range_meters":3200,"station_id":"ce4bgs92rcd13ifvqcc0","pricing_plan_id":"cebpf4jnsgd1na2vs0mg"},{"bike_id":"d18c46dd-b3c1-4e24-a712-147090dd7e75","system_id":"levelo_inurba_marseille","lat":43.31991,"lon":5.3814,"is_reserved":false,"is_disabled":false,"rental_uris":{"android":"levelo://app?vid=d18c46dd-b3c1-4e24-a712-147090dd7e75","ios":"levelo://app?vid=d18c46dd-b3c1-4e24-a712-147090dd7e75"},"vehicle_type_id":"4","last_reported":1718910416,"current_range_meters":0,"station_id":"ce4bhr12rcd13ifvqhpg","pricing_plan_id":"cebpf4jnsgd1na2vs0mg"},{"bike_id":"a791e37b-112d-432f-a0bd-612039f13ddc","system_id":"levelo_inurba_marseille","lat":43.319935,"lon":5.381699,"is_reserved":false,"is_disabled":false,"rental_uris":{"android":"levelo://app?vid=a791e37b-112d-432f-a0bd-612039f13ddc","ios":"levelo://app?vid=a791e37b-112d-432f-a0bd-612039f13ddc"},"vehicle_type_id":"4","last_reported":1718910416,"current_range_meters":4000,"station_id":"ce4bhr12rcd13ifvqhpg","pricing_plan_id":"cebpf4jnsgd1na2vs0mg"},{"bike_id":"6b8f4d0c-7f86-4891-8104-b4170ff62280","system_id":"levelo_inurba_marseille","lat":43.313571,"lon":5.384829,"is_reserved":false,"is_disabled":false,"rental_uris":{"android":"levelo://app?vid=6b8f4d0c-7f86-4891-8104-b4170ff62280","ios":"levelo://app?vid=6b8f4d0c-7f86-4891-8104-b4170ff62280"},"vehicle_type_id":"4","last_reported":1718910416,"current_range_meters":18800,"station_id":"ce4bgt92rcd13ifvqcf0","pricing_plan_id":"cebpf4jnsgd1na2vs0mg"},{"bike_id":"236ae1b2-cdea-49f4-9882-22f1dfe76ac8","system_id":"levelo_inurba_marseille","lat":43.31351,"lon":5.38494,"is_reserved":false,"is_disabled":false,"rental_uris":{"android":"levelo://app?vid=236ae1b2-cdea-49f4-9882-22f1dfe76ac8","ios":"levelo://app?vid=236ae1b2-cdea-49f4-9882-22f1dfe76ac8"},"vehicle_type_id":"4","last_reported":1718910416,"current_range_meters":0,"station_id":"ce4bgt92rcd13ifvqcf0","pricing_plan_id":"cebpf4jnsgd1na2vs0mg"},{"bike_id":"742d727b-a4eb-4a00-bfad-a3fa191ce258","system_id":"levelo_inurba_marseille","lat":43.313663,"lon":5.38493,"is_reserved":false,"is_disabled":false,"rental_uris":{"android":"levelo://app?vid=742d727b-a4eb-4a00-bfad-a3fa191ce258","ios":"levelo://app?vid=742d727b-a4eb-4a00-bfad-a3fa191ce258"},"vehicle_type_id":"4","last_reported":1718910416,"current_range_meters":0,"station_id":"ce4bgt92rcd13ifvqcf0","pricing_plan_id":"cebpf4jnsgd1na2vs0mg"},{"bike_id":"61b7f469-9c9e-4189-8fa9-3ac23d54fe58","system_id":"levelo_inurba_marseille","lat":43.313571,"lon":5.384829,"is_reserved":false,"is_disabled":false,"rental_uris":{"android":"levelo://app?vid=61b7f469-9c9e-4189-8fa9-3ac23d54fe58","ios":"levelo://app?vid=61b7f469-9c9e-4189-8fa9-3ac23d54fe58"},"vehicle_type_id":"4","last_reported":1718910416,"current_range_meters":21600,"station_id":"ce4bgt92rcd13ifvqcf0","pricing_plan_id":"cebpf4jnsgd1na2vs0mg"},{"bike_id":"7e5faffe-1fb4-44af-ada8-ae624685490c","system_id":"levelo_inurba_marseille","lat":43.299724,"lon":5.371829,"is_reserved":false,"is_disabled":false,"rental_uris":{"android":"levelo://app?vid=7e5faffe-1fb4-44af-ada8-ae624685490c","ios":"levelo://app?vid=7e5faffe-1fb4-44af-ada8-ae624685490c"},"vehicle_type_id":"4","last_reported":1718910416,"current_range_meters":0,"station_id":"ce4bgr92rcd13ifvqc7g","pricing_plan_id":"cebpf4jnsgd1na2vs0mg"},{"bike_id":"bf227e03-3f08-4073-9e9c-4d2825f767fe","system_id":"levelo_inurba_marseille","lat":43.299222,"lon":5.365554,"is_reserved":false,"is_disabled":false,"rental_uris":{"android":"levelo://app?vid=bf227e03-3f08-4073-9e9c-4d2825f767fe","ios":"levelo://app?vid=bf227e03-3f08-4073-9e9c-4d2825f767fe"},"vehicle_type_id":"4","last_reported":1718910416,"current_range_meters":0,"station_id":"ce4bgm92rcd13ifvqbr0","pricing_plan_id":"cebpf4jnsgd1na2vs0mg"},{"bike_id":"a75eab40-7418-4ee9-b963-0a60d91cb18f","system_id":"levelo_inurba_marseille","lat":43.299222,"lon":5.365554,"is_reserved":false,"is_disabled":false,"rental_uris":{"android":"levelo://app?vid=a75eab40-7418-4ee9-b963-0a60d91cb18f","ios":"levelo://app?vid=a75eab40-7418-4ee9-b963-0a60d91cb18f"},"vehicle_type_id":"4","last_reported":1718910416,"current_range_meters":3200,"station_id":"ce4bgm92rcd13ifvqbr0","pricing_plan_id":"cebpf4jnsgd1na2vs0mg"},{"bike_id":"fc80ebb8-8f6f-4c22-8307-5d0a0268cdb6","system_id":"levelo_inurba_marseille","lat":43.305364,"lon":5.384119,"is_reserved":false,"is_disabled":false,"rental_uris":{"android":"levelo://app?vid=fc80ebb8-8f6f-4c22-8307-5d0a0268cdb6","ios":"levelo://app?vid=fc80ebb8-8f6f-4c22-8307-5d0a0268cdb6"},"vehicle_type_id":"4","last_reported":1718910416,"current_range_meters":28800,"station_id":"ce4bgg92rcd13ifvqb30","pricing_plan_id":"cebpf4jnsgd1na2vs0mg"},{"bike_id":"22f73c25-8b4a-42bc-9a90-7e43fade9509","system_id":"levelo_inurba_marseille","lat":43.311722,"lon":5.387247,"is_reserved":false,"is_disabled":false,"rental_uris":{"android":"levelo://app?vid=22f73c25-8b4a-42bc-9a90-7e43fade9509","ios":"levelo://app?vid=22f73c25-8b4a-42bc-9a90-7e43fade9509"},"vehicle_type_id":"4","last_reported":1718910416,"current_range_meters":0,"station_id":"ce4bgv12rcd13ifvqcp0","pricing_plan_id":"cebpf4jnsgd1na2vs0mg"},{"bike_id":"1d46d269-2784-4c8c-96c7-b83288f2a79b","system_id":"levelo_inurba_marseille","lat":43.311722,"lon":5.387247,"is_reserved":false,"is_disabled":false,"rental_uris":{"android":"levelo://app?vid=1d46d269-2784-4c8c-96c7-b83288f2a79b","ios":"levelo://app?vid=1d46d269-2784-4c8c-96c7-b83288f2a79b"},"vehicle_type_id":"4","last_reported":1718910416,"current_range_meters":12400,"station_id":"ce4bgv12rcd13ifvqcp0","pricing_plan_id":"cebpf4jnsgd1na2vs0mg"},{"bike_id":"cdcf4b6b-7830-43ea-a8b3-f58be1648475","system_id":"levelo_inurba_marseille","lat":43.311722,"lon":5.387247,"is_reserved":false,"is_disabled":false,"rental_uris":{"android":"levelo://app?vid=cdcf4b6b-7830-43ea-a8b3-f58be1648475","ios":"levelo://app?vid=cdcf4b6b-7830-43ea-a8b3-f58be1648475"},"vehicle_type_id":"4","last_reported":1718910416,"current_range_meters":5200,"station_id":"ce4bgv12rcd13ifvqcp0","pricing_plan_id":"cebpf4jnsgd1na2vs0mg"},{"bike_id":"b7457832-8aa2-4d34-81a2-0093d04fe151","system_id":"levelo_inurba_marseille","lat":43.311722,"lon":5.387247,"is_reserved":false,"is_disabled":false,"rental_uris":{"android":"levelo://app?vid=b7457832-8aa2-4d34-81a2-0093d04fe151","ios":"levelo://app?vid=b7457832-8aa2-4d34-81a2-0093d04fe151"},"vehicle_type_id":"4","last_reported":1718910416,"current_range_meters":9600,"station_id":"ce4bgv12rcd13ifvqcp0","pricing_plan_id":"cebpf4jnsgd1na2vs0mg"},{"bike_id":"fba9f178-bc31-48d6-901d-e4feadd9b3f9","system_id":"levelo_inurba_marseille","lat":43.311722,"lon":5.387247,"is_reserved":false,"is_disabled":false,"rental_uris":{"android":"levelo://app?vid=fba9f178-bc31-48d6-901d-e4feadd9b3f9","ios":"levelo://app?vid=fba9f178-bc31-48d6-901d-e4feadd9b3f9"},"vehicle_type_id":"4","last_reported":1718910416,"current_range_meters":6000,"station_id":"ce4bgv12rcd13ifvqcp0","pricing_plan_id":"cebpf4jnsgd1na2vs0mg"},{"bike_id":"c0ff29be-1b5a-43c1-9ee8-37b142781efb","system_id":"levelo_inurba_marseille","lat":43.311722,"lon":5.387247,"is_reserved":false,"is_disabled":false,"rental_uris":{"android":"levelo://app?vid=c0ff29be-1b5a-43c1-9ee8-37b142781efb","ios":"levelo://app?vid=c0ff29be-1b5a-43c1-9ee8-37b142781efb"},"vehicle_type_id":"4","last_reported":1718910416,"current_range_meters":23200,"station_id":"ce4bgv12rcd13ifvqcp0","pricing_plan_id":"cebpf4jnsgd1na2vs0mg"},{"bike_id":"490cbc0e-3a93-4683-9c4c-9b7240674d81","system_id":"levelo_inurba_marseille","lat":43.311722,"lon":5.387247,"is_reserved":false,"is_disabled":false,"rental_uris":{"android":"levelo://app?vid=490cbc0e-3a93-4683-9c4c-9b7240674d81","ios":"levelo://app?vid=490cbc0e-3a93-4683-9c4c-9b7240674d81"},"vehicle_type_id":"4","last_reported":1718910416,"current_range_meters":18400,"station_id":"ce4bgv12rcd13ifvqcp0","pricing_plan_id":"cebpf4jnsgd1na2vs0mg"},{"bike_id":"79e17655-e69b-4e1f-b6a0-24b41e7c0703","system_id":"levelo_inurba_marseille","lat":43.31185,"lon":5.3872,"is_reserved":false,"is_disabled":false,"rental_uris":{"android":"levelo://app?vid=79e17655-e69b-4e1f-b6a0-24b41e7c0703","ios":"levelo://app?vid=79e17655-e69b-4e1f-b6a0-24b41e7c0703"},"vehicle_type_id":"4","last_reported":1718910416,"current_range_meters":6800,"station_id":"ce4bgv12rcd13ifvqcp0","pricing_plan_id":"cebpf4jnsgd1na2vs0mg"},{"bike_id":"17020a8e-0d1f-4af8-ade4-9dacd39fc21e","system_id":"levelo_inurba_marseille","lat":43.311722,"lon":5.387247,"is_reserved":false,"is_disabled":false,"rental_uris":{"android":"levelo://app?vid=17020a8e-0d1f-4af8-ade4-9dacd39fc21e","ios":"levelo://app?vid=17020a8e-0d1f-4af8-ade4-9dacd39fc21e"},"vehicle_type_id":"4","last_reported":1718910416,"current_range_meters":2800,"station_id":"ce4bgv12rcd13ifvqcp0","pricing_plan_id":"cebpf4jnsgd1na2vs0mg"},{"bike_id":"495fa6ae-221a-4944-b530-52ad6939814f","system_id":"levelo_inurba_marseille","lat":43.311722,"lon":5.387247,"is_reserved":false,"is_disabled":false,"rental_uris":{"android":"levelo://app?vid=495fa6ae-221a-4944-b530-52ad6939814f","ios":"levelo://app?vid=495fa6ae-221a-4944-b530-52ad6939814f"},"vehicle_type_id":"4","last_reported":1718910416,"current_range_meters":25200,"station_id":"ce4bgv12rcd13ifvqcp0","pricing_plan_id":"cebpf4jnsgd1na2vs0mg"},{"bike_id":"202fb2e5-89ca-4538-8bb7-cdb63339fd18","system_id":"levelo_inurba_marseille","lat":43.298338,"lon":5.37288,"is_reserved":false,"is_disabled":false,"rental_uris":{"android":"levelo://app?vid=202fb2e5-89ca-4538-8bb7-cdb63339fd18","ios":"levelo://app?vid=202fb2e5-89ca-4538-8bb7-cdb63339fd18"},"vehicle_type_id":"4","last_reported":1718910416,"current_range_meters":31200,"station_id":"","pricing_plan_id":"cebpf4jnsgd1na2vs0mg"},{"bike_id":"2e452a41-55ea-4d4e-87f0-1b8ebe96891f","system_id":"levelo_inurba_marseille","lat":43.322872,"lon":5.382756,"is_reserved":false,"is_disabled":false,"rental_uris":{"android":"levelo://app?vid=2e452a41-55ea-4d4e-87f0-1b8ebe96891f","ios":"levelo://app?vid=2e452a41-55ea-4d4e-87f0-1b8ebe96891f"},"vehicle_type_id":"4","last_reported":1718910416,"current_range_meters":29200,"station_id":"ce4bhr12rcd13ifvqhqg","pricing_plan_id":"cebpf4jnsgd1na2vs0mg"},{"bike_id":"e8443875-b0e0-4ee0-bc34-f8f98f537b13","system_id":"levelo_inurba_marseille","lat":43.297794,"lon":5.370888,"is_reserved":false,"is_disabled":false,"rental_uris":{"android":"levelo://app?vid=e8443875-b0e0-4ee0-bc34-f8f98f537b13","ios":"levelo://app?vid=e8443875-b0e0-4ee0-bc34-f8f98f537b13"},"vehicle_type_id":"4","last_reported":1718910416,"current_range_meters":400,"station_id":"ce4bgop2rcd13ifvqc1g","pricing_plan_id":"cebpf4jnsgd1na2vs0mg"},{"bike_id":"8bc5a871-93d0-44d8-a3d8-e546b2b93406","system_id":"levelo_inurba_marseille","lat":43.322872,"lon":5.382756,"is_reserved":false,"is_disabled":false,"rental_uris":{"android":"levelo://app?vid=8bc5a871-93d0-44d8-a3d8-e546b2b93406","ios":"levelo://app?vid=8bc5a871-93d0-44d8-a3d8-e546b2b93406"},"vehicle_type_id":"4","last_reported":1718910416,"current_range_meters":14400,"station_id":"ce4bhr12rcd13ifvqhqg","pricing_plan_id":"cebpf4jnsgd1na2vs0mg"},{"bike_id":"dfb65e7a-64c0-481c-9659-49c346f8ddb5","system_id":"levelo_inurba_marseille","lat":43.296131,"lon":5.370773,"is_reserved":false,"is_disabled":false,"rental_uris":{"android":"levelo://app?vid=dfb65e7a-64c0-481c-9659-49c346f8ddb5","ios":"levelo://app?vid=dfb65e7a-64c0-481c-9659-49c346f8ddb5"},"vehicle_type_id":"4","last_reported":1718910416,"current_range_meters":0,"station_id":"ce4bgnh2rcd13ifvqc0g","pricing_plan_id":"cebpf4jnsgd1na2vs0mg"},{"bike_id":"c673ed21-ab5f-430e-8c98-4d742f20f3d9","system_id":"levelo_inurba_marseille","lat":43.296129,"lon":5.370777,"is_reserved":false,"is_disabled":false,"rental_uris":{"android":"levelo://app?vid=c673ed21-ab5f-430e-8c98-4d742f20f3d9","ios":"levelo://app?vid=c673ed21-ab5f-430e-8c98-4d742f20f3d9"},"vehicle_type_id":"4","last_reported":1718910416,"current_range_meters":14400,"station_id":"ce4bgnh2rcd13ifvqc0g","pricing_plan_id":"cebpf4jnsgd1na2vs0mg"},{"bike_id":"54c377bd-a2a8-478e-8038-d48f17efad26","system_id":"levelo_inurba_marseille","lat":43.296129,"lon":5.370777,"is_reserved":false,"is_disabled":false,"rental_uris":{"android":"levelo://app?vid=54c377bd-a2a8-478e-8038-d48f17efad26","ios":"levelo://app?vid=54c377bd-a2a8-478e-8038-d48f17efad26"},"vehicle_type_id":"4","last_reported":1718910416,"current_range_meters":12400,"station_id":"ce4bgnh2rcd13ifvqc0g","pricing_plan_id":"cebpf4jnsgd1na2vs0mg"},{"bike_id":"306bb900-a04e-4f1d-b8c2-c0351d8ffc1c","system_id":"levelo_inurba_marseille","lat":43.296131,"lon":5.370773,"is_reserved":false,"is_disabled":false,"rental_uris":{"android":"levelo://app?vid=306bb900-a04e-4f1d-b8c2-c0351d8ffc1c","ios":"levelo://app?vid=306bb900-a04e-4f1d-b8c2-c0351d8ffc1c"},"vehicle_type_id":"4","last_reported":1718910416,"current_range_meters":1600,"station_id":"ce4bgnh2rcd13ifvqc0g","pricing_plan_id":"cebpf4jnsgd1na2vs0mg"},{"bike_id":"490bd54b-9cc5-44ab-a252-00c1c92349b9","system_id":"levelo_inurba_marseille","lat":43.296935,"lon":5.376544,"is_reserved":false,"is_disabled":false,"rental_uris":{"android":"levelo://app?vid=490bd54b-9cc5-44ab-a252-00c1c92349b9","ios":"levelo://app?vid=490bd54b-9cc5-44ab-a252-00c1c92349b9"},"vehicle_type_id":"4","last_reported":1718910416,"current_range_meters":0,"station_id":"ce4bgkh2rcd13ifvqbl0","pricing_plan_id":"cebpf4jnsgd1na2vs0mg"},{"bike_id":"a83fe1d3-7bcc-4f47-8ab9-4f53bc352a67","system_id":"levelo_inurba_marseille","lat":43.296921,"lon":5.376579,"is_reserved":false,"is_disabled":false,"rental_uris":{"android":"levelo://app?vid=a83fe1d3-7bcc-4f47-8ab9-4f53bc352a67","ios":"levelo://app?vid=a83fe1d3-7bcc-4f47-8ab9-4f53bc352a67"},"vehicle_type_id":"4","last_reported":1718910416,"current_range_meters":9200,"station_id":"ce4bgkh2rcd13ifvqbl0","pricing_plan_id":"cebpf4jnsgd1na2vs0mg"},{"bike_id":"8d008024-8e20-4df4-b9ce-3e819c6a3a6a","system_id":"levelo_inurba_marseille","lat":43.299028,"lon":5.381509,"is_reserved":false,"is_disabled":false,"rental_uris":{"android":"levelo://app?vid=8d008024-8e20-4df4-b9ce-3e819c6a3a6a","ios":"levelo://app?vid=8d008024-8e20-4df4-b9ce-3e819c6a3a6a"},"vehicle_type_id":"4","last_reported":1718910416,"current_range_meters":24800,"station_id":"ce4bgj12rcd13ifvqbc0","pricing_plan_id":"cebpf4jnsgd1na2vs0mg"},{"bike_id":"e155a23d-dbc6-4193-bfe9-736ab77ec3ce","system_id":"levelo_inurba_marseille","lat":43.299028,"lon":5.381509,"is_reserved":false,"is_disabled":false,"rental_uris":{"android":"levelo://app?vid=e155a23d-dbc6-4193-bfe9-736ab77ec3ce","ios":"levelo://app?vid=e155a23d-dbc6-4193-bfe9-736ab77ec3ce"},"vehicle_type_id":"4","last_reported":1718910416,"current_range_meters":4800,"station_id":"ce4bgj12rcd13ifvqbc0","pricing_plan_id":"cebpf4jnsgd1na2vs0mg"},{"bike_id":"ce28e87b-5fe4-433b-9b50-f396d4bd8be1","system_id":"levelo_inurba_marseille","lat":43.309589,"lon":5.390258,"is_reserved":false,"is_disabled":false,"rental_uris":{"android":"levelo://app?vid=ce28e87b-5fe4-433b-9b50-f396d4bd8be1","ios":"levelo://app?vid=ce28e87b-5fe4-433b-9b50-f396d4bd8be1"},"vehicle_type_id":"4","last_reported":1718910416,"current_range_meters":0,"station_id":"ce4bgup2rcd13ifvqco0","pricing_plan_id":"cebpf4jnsgd1na2vs0mg"},{"bike_id":"092a014d-e8bf-425f-b101-8a09af66f2ed","system_id":"levelo_inurba_marseille","lat":43.299028,"lon":5.381509,"is_reserved":false,"is_disabled":false,"rental_uris":{"android":"levelo://app?vid=092a014d-e8bf-425f-b101-8a09af66f2ed","ios":"levelo://app?vid=092a014d-e8bf-425f-b101-8a09af66f2ed"},"vehicle_type_id":"4","last_reported":1718910416,"current_range_meters":28400,"station_id":"ce4bgj12rcd13ifvqbc0","pricing_plan_id":"cebpf4jnsgd1na2vs0mg"},{"bike_id":"86ec661f-c646-4246-b53a-81b9bf931843","system_id":"levelo_inurba_marseille","lat":43.309589,"lon":5.390258,"is_reserved":false,"is_disabled":false,"rental_uris":{"android":"levelo://app?vid=86ec661f-c646-4246-b53a-81b9bf931843","ios":"levelo://app?vid=86ec661f-c646-4246-b53a-81b9bf931843"},"vehicle_type_id":"4","last_reported":1718910416,"current_range_meters":23200,"station_id":"ce4bgup2rcd13ifvqco0","pricing_plan_id":"cebpf4jnsgd1na2vs0mg"},{"bike_id":"18d99fb7-431a-4132-a218-8b724521259e","system_id":"levelo_inurba_marseille","lat":43.309589,"lon":5.390258,"is_reserved":false,"is_disabled":false,"rental_uris":{"android":"levelo://app?vid=18d99fb7-431a-4132-a218-8b724521259e","ios":"levelo://app?vid=18d99fb7-431a-4132-a218-8b724521259e"},"vehicle_type_id":"4","last_reported":1718910416,"current_range_meters":29200,"station_id":"ce4bgup2rcd13ifvqco0","pricing_plan_id":"cebpf4jnsgd1na2vs0mg"},{"bike_id":"d6b916eb-6ec7-4d49-9cb5-cfc10153380f","system_id":"levelo_inurba_marseille","lat":43.309589,"lon":5.390258,"is_reserved":false,"is_disabled":false,"rental_uris":{"android":"levelo://app?vid=d6b916eb-6ec7-4d49-9cb5-cfc10153380f","ios":"levelo://app?vid=d6b916eb-6ec7-4d49-9cb5-cfc10153380f"},"vehicle_type_id":"4","last_reported":1718910416,"current_range_meters":11200,"station_id":"ce4bgup2rcd13ifvqco0","pricing_plan_id":"cebpf4jnsgd1na2vs0mg"},{"bike_id":"03730aaf-c6d3-4306-b3de-36e71476dbe4","system_id":"levelo_inurba_marseille","lat":43.309589,"lon":5.390258,"is_reserved":false,"is_disabled":false,"rental_uris":{"android":"levelo://app?vid=03730aaf-c6d3-4306-b3de-36e71476dbe4","ios":"levelo://app?vid=03730aaf-c6d3-4306-b3de-36e71476dbe4"},"vehicle_type_id":"4","last_reported":1718910416,"current_range_meters":0,"station_id":"ce4bgup2rcd13ifvqco0","pricing_plan_id":"cebpf4jnsgd1na2vs0mg"},{"bike_id":"1efbefc7-1120-44b6-96c2-87cdca0c80c9","system_id":"levelo_inurba_marseille","lat":43.30946,"lon":5.39032,"is_reserved":false,"is_disabled":false,"rental_uris":{"android":"levelo://app?vid=1efbefc7-1120-44b6-96c2-87cdca0c80c9","ios":"levelo://app?vid=1efbefc7-1120-44b6-96c2-87cdca0c80c9"},"vehicle_type_id":"4","last_reported":1718910416,"current_range_meters":0,"station_id":"ce4bgup2rcd13ifvqco0","pricing_plan_id":"cebpf4jnsgd1na2vs0mg"},{"bike_id":"5bf5e177-5518-4891-b766-d273afeeef10","system_id":"levelo_inurba_marseille","lat":43.30948,"lon":5.39033,"is_reserved":false,"is_disabled":false,"rental_uris":{"android":"levelo://app?vid=5bf5e177-5518-4891-b766-d273afeeef10","ios":"levelo://app?vid=5bf5e177-5518-4891-b766-d273afeeef10"},"vehicle_type_id":"4","last_reported":1718910416,"current_range_meters":4400,"station_id":"ce4bgup2rcd13ifvqco0","pricing_plan_id":"cebpf4jnsgd1na2vs0mg"},{"bike_id":"37ad0559-88c2-4d87-a3ed-0a011e1065a9","system_id":"levelo_inurba_marseille","lat":43.29892,"lon":5.38133,"is_reserved":false,"is_disabled":false,"rental_uris":{"android":"levelo://app?vid=37ad0559-88c2-4d87-a3ed-0a011e1065a9","ios":"levelo://app?vid=37ad0559-88c2-4d87-a3ed-0a011e1065a9"},"vehicle_type_id":"4","last_reported":1718910416,"current_range_meters":15200,"station_id":"ce4bgj12rcd13ifvqbc0","pricing_plan_id":"cebpf4jnsgd1na2vs0mg"},{"bike_id":"9904e9c7-66d2-4680-9249-3561a73d8bce","system_id":"levelo_inurba_marseille","lat":43.309589,"lon":5.390258,"is_reserved":false,"is_disabled":false,"rental_uris":{"android":"levelo://app?vid=9904e9c7-66d2-4680-9249-3561a73d8bce","ios":"levelo://app?vid=9904e9c7-66d2-4680-9249-3561a73d8bce"},"vehicle_type_id":"4","last_reported":1718910416,"current_range_meters":3600,"station_id":"ce4bgup2rcd13ifvqco0","pricing_plan_id":"cebpf4jnsgd1na2vs0mg"},{"bike_id":"960a1ccd-180e-48b8-a79d-fc87243f02c2","system_id":"levelo_inurba_marseille","lat":43.30945,"lon":5.39038,"is_reserved":false,"is_disabled":false,"rental_uris":{"android":"levelo://app?vid=960a1ccd-180e-48b8-a79d-fc87243f02c2","ios":"levelo://app?vid=960a1ccd-180e-48b8-a79d-fc87243f02c2"},"vehicle_type_id":"4","last_reported":1718910416,"current_range_meters":800,"station_id":"ce4bgup2rcd13ifvqco0","pricing_plan_id":"cebpf4jnsgd1na2vs0mg"},{"bike_id":"718a72cf-0605-44bb-9c70-f19f625d8559","system_id":"levelo_inurba_marseille","lat":43.30951,"lon":5.39041,"is_reserved":false,"is_disabled":false,"rental_uris":{"android":"levelo://app?vid=718a72cf-0605-44bb-9c70-f19f625d8559","ios":"levelo://app?vid=718a72cf-0605-44bb-9c70-f19f625d8559"},"vehicle_type_id":"4","last_reported":1718910416,"current_range_meters":28000,"station_id":"ce4bgup2rcd13ifvqco0","pricing_plan_id":"cebpf4jnsgd1na2vs0mg"},{"bike_id":"1c078ec5-81e0-4f56-87ea-de76b7b38858","system_id":"levelo_inurba_marseille","lat":43.31754,"lon":5.39013,"is_reserved":false,"is_disabled":false,"rental_uris":{"android":"levelo://app?vid=1c078ec5-81e0-4f56-87ea-de76b7b38858","ios":"levelo://app?vid=1c078ec5-81e0-4f56-87ea-de76b7b38858"},"vehicle_type_id":"4","last_reported":1718910416,"current_range_meters":29200,"station_id":"ce4bhqp2rcd13ifvqhng","pricing_plan_id":"cebpf4jnsgd1na2vs0mg"},{"bike_id":"94a26fef-f45b-48bd-b619-f219d8f733b6","system_id":"levelo_inurba_marseille","lat":43.317557,"lon":5.390173,"is_reserved":false,"is_disabled":false,"rental_uris":{"android":"levelo://app?vid=94a26fef-f45b-48bd-b619-f219d8f733b6","ios":"levelo://app?vid=94a26fef-f45b-48bd-b619-f219d8f733b6"},"vehicle_type_id":"4","last_reported":1718910416,"current_range_meters":0,"station_id":"ce4bhqp2rcd13ifvqhng","pricing_plan_id":"cebpf4jnsgd1na2vs0mg"},{"bike_id":"1e0b21c6-a60d-4994-b4a5-0a4bf829ad9d","system_id":"levelo_inurba_marseille","lat":43.317557,"lon":5.390173,"is_reserved":false,"is_disabled":false,"rental_uris":{"android":"levelo://app?vid=1e0b21c6-a60d-4994-b4a5-0a4bf829ad9d","ios":"levelo://app?vid=1e0b21c6-a60d-4994-b4a5-0a4bf829ad9d"},"vehicle_type_id":"4","last_reported":1718910416,"current_range_meters":7200,"station_id":"ce4bhqp2rcd13ifvqhng","pricing_plan_id":"cebpf4jnsgd1na2vs0mg"},{"bike_id":"ebbfc6d4-bfe5-47da-bb97-efe302f9bfa1","system_id":"levelo_inurba_marseille","lat":43.317603,"lon":5.390197,"is_reserved":false,"is_disabled":false,"rental_uris":{"android":"levelo://app?vid=ebbfc6d4-bfe5-47da-bb97-efe302f9bfa1","ios":"levelo://app?vid=ebbfc6d4-bfe5-47da-bb97-efe302f9bfa1"},"vehicle_type_id":"4","last_reported":1718910416,"current_range_meters":5200,"station_id":"ce4bhqp2rcd13ifvqhng","pricing_plan_id":"cebpf4jnsgd1na2vs0mg"},{"bike_id":"54c8143d-cde9-40ad-9b00-2b22da1de14a","system_id":"levelo_inurba_marseille","lat":43.296263,"lon":5.377094,"is_reserved":false,"is_disabled":false,"rental_uris":{"android":"levelo://app?vid=54c8143d-cde9-40ad-9b00-2b22da1de14a","ios":"levelo://app?vid=54c8143d-cde9-40ad-9b00-2b22da1de14a"},"vehicle_type_id":"4","last_reported":1718910416,"current_range_meters":30400,"station_id":"ce4bgi92rcd13ifvqb90","pricing_plan_id":"cebpf4jnsgd1na2vs0mg"},{"bike_id":"bcb69e0e-db4b-4b7c-a4ff-5d7a4bd56a22","system_id":"levelo_inurba_marseille","lat":43.295279,"lon":5.375048,"is_reserved":false,"is_disabled":false,"rental_uris":{"android":"levelo://app?vid=bcb69e0e-db4b-4b7c-a4ff-5d7a4bd56a22","ios":"levelo://app?vid=bcb69e0e-db4b-4b7c-a4ff-5d7a4bd56a22"},"vehicle_type_id":"4","last_reported":1718910416,"current_range_meters":27200,"station_id":"ce4bgkp2rcd13ifvqbmg","pricing_plan_id":"cebpf4jnsgd1na2vs0mg"},{"bike_id":"311681c9-4ad2-47aa-bca2-4f5b5b476934","system_id":"levelo_inurba_marseille","lat":43.29977,"lon":5.38477,"is_reserved":false,"is_disabled":false,"rental_uris":{"android":"levelo://app?vid=311681c9-4ad2-47aa-bca2-4f5b5b476934","ios":"levelo://app?vid=311681c9-4ad2-47aa-bca2-4f5b5b476934"},"vehicle_type_id":"4","last_reported":1718910416,"current_range_meters":0,"station_id":"ce4bgj92rcd13ifvqbd0","pricing_plan_id":"cebpf4jnsgd1na2vs0mg"},{"bike_id":"20f31c62-307b-4c16-93b6-6fcc5accd677","system_id":"levelo_inurba_marseille","lat":43.29514,"lon":5.37434,"is_reserved":false,"is_disabled":false,"rental_uris":{"android":"levelo://app?vid=20f31c62-307b-4c16-93b6-6fcc5accd677","ios":"levelo://app?vid=20f31c62-307b-4c16-93b6-6fcc5accd677"},"vehicle_type_id":"4","last_reported":1718910416,"current_range_meters":16400,"station_id":"","pricing_plan_id":"cebpf4jnsgd1na2vs0mg"},{"bike_id":"63041577-c036-49a0-b9e5-0124b8b7fbdf","system_id":"levelo_inurba_marseille","lat":43.299707,"lon":5.384859,"is_reserved":false,"is_disabled":false,"rental_uris":{"android":"levelo://app?vid=63041577-c036-49a0-b9e5-0124b8b7fbdf","ios":"levelo://app?vid=63041577-c036-49a0-b9e5-0124b8b7fbdf"},"vehicle_type_id":"4","last_reported":1718910416,"current_range_meters":0,"station_id":"ce4bgj92rcd13ifvqbd0","pricing_plan_id":"cebpf4jnsgd1na2vs0mg"},{"bike_id":"d8fbd76b-24b0-440b-a657-eba3db415a11","system_id":"levelo_inurba_marseille","lat":43.295279,"lon":5.375048,"is_reserved":false,"is_disabled":false,"rental_uris":{"android":"levelo://app?vid=d8fbd76b-24b0-440b-a657-eba3db415a11","ios":"levelo://app?vid=d8fbd76b-24b0-440b-a657-eba3db415a11"},"vehicle_type_id":"4","last_reported":1718910416,"current_range_meters":6800,"station_id":"ce4bgkp2rcd13ifvqbmg","pricing_plan_id":"cebpf4jnsgd1na2vs0mg"},{"bike_id":"70e545f7-5420-48d9-8eb5-1fc2d7909d67","system_id":"levelo_inurba_marseille","lat":43.299717,"lon":5.384845,"is_reserved":false,"is_disabled":false,"rental_uris":{"android":"levelo://app?vid=70e545f7-5420-48d9-8eb5-1fc2d7909d67","ios":"levelo://app?vid=70e545f7-5420-48d9-8eb5-1fc2d7909d67"},"vehicle_type_id":"4","last_reported":1718910416,"current_range_meters":0,"station_id":"ce4bgj92rcd13ifvqbd0","pricing_plan_id":"cebpf4jnsgd1na2vs0mg"},{"bike_id":"0c7e05cd-5340-4e8b-b483-ef7311c30bc4","system_id":"levelo_inurba_marseille","lat":43.299724,"lon":5.384848,"is_reserved":false,"is_disabled":false,"rental_uris":{"android":"levelo://app?vid=0c7e05cd-5340-4e8b-b483-ef7311c30bc4","ios":"levelo://app?vid=0c7e05cd-5340-4e8b-b483-ef7311c30bc4"},"vehicle_type_id":"4","last_reported":1718910416,"current_range_meters":28400,"station_id":"ce4bgj92rcd13ifvqbd0","pricing_plan_id":"cebpf4jnsgd1na2vs0mg"},{"bike_id":"e92a5fe7-2e6f-4b87-aea6-d0ec64543fa7","system_id":"levelo_inurba_marseille","lat":43.32366,"lon":5.38877,"is_reserved":false,"is_disabled":false,"rental_uris":{"android":"levelo://app?vid=e92a5fe7-2e6f-4b87-aea6-d0ec64543fa7","ios":"levelo://app?vid=e92a5fe7-2e6f-4b87-aea6-d0ec64543fa7"},"vehicle_type_id":"4","last_reported":1718910416,"current_range_meters":18400,"station_id":"ce4bhqp2rcd13ifvqhog","pricing_plan_id":"cebpf4jnsgd1na2vs0mg"},{"bike_id":"b3898f6d-9ee3-4402-9de4-71d88d23e49b","system_id":"levelo_inurba_marseille","lat":43.32368,"lon":5.38881,"is_reserved":false,"is_disabled":false,"rental_uris":{"android":"levelo://app?vid=b3898f6d-9ee3-4402-9de4-71d88d23e49b","ios":"levelo://app?vid=b3898f6d-9ee3-4402-9de4-71d88d23e49b"},"vehicle_type_id":"4","last_reported":1718910416,"current_range_meters":14000,"station_id":"ce4bhqp2rcd13ifvqhog","pricing_plan_id":"cebpf4jnsgd1na2vs0mg"},{"bike_id":"de96a269-0fa5-4ad5-86f5-3e8ecf406eb8","system_id":"levelo_inurba_marseille","lat":43.284538,"lon":5.358657,"is_reserved":false,"is_disabled":false,"rental_uris":{"android":"levelo://app?vid=de96a269-0fa5-4ad5-86f5-3e8ecf406eb8","ios":"levelo://app?vid=de96a269-0fa5-4ad5-86f5-3e8ecf406eb8"},"vehicle_type_id":"4","last_reported":1718910416,"current_range_meters":2400,"station_id":"ce4bhah2rcd13ifvqei0","pricing_plan_id":"cebpf4jnsgd1na2vs0mg"},{"bike_id":"025f8f6c-a9ef-4779-a9b5-66c09a20bce7","system_id":"levelo_inurba_marseille","lat":43.32367,"lon":5.388836,"is_reserved":false,"is_disabled":false,"rental_uris":{"android":"levelo://app?vid=025f8f6c-a9ef-4779-a9b5-66c09a20bce7","ios":"levelo://app?vid=025f8f6c-a9ef-4779-a9b5-66c09a20bce7"},"vehicle_type_id":"4","last_reported":1718910416,"current_range_meters":0,"station_id":"ce4bhqp2rcd13ifvqhog","pricing_plan_id":"cebpf4jnsgd1na2vs0mg"},{"bike_id":"1159ba63-5c3e-4c82-81d4-9c4e1cfcfba3","system_id":"levelo_inurba_marseille","lat":43.32371,"lon":5.38885,"is_reserved":false,"is_disabled":false,"rental_uris":{"android":"levelo://app?vid=1159ba63-5c3e-4c82-81d4-9c4e1cfcfba3","ios":"levelo://app?vid=1159ba63-5c3e-4c82-81d4-9c4e1cfcfba3"},"vehicle_type_id":"4","last_reported":1718910416,"current_range_meters":0,"station_id":"ce4bhqp2rcd13ifvqhog","pricing_plan_id":"cebpf4jnsgd1na2vs0mg"},{"bike_id":"85cc4066-33df-400c-bb45-d24b16696d98","system_id":"levelo_inurba_marseille","lat":43.29605,"lon":5.38103,"is_reserved":false,"is_disabled":false,"rental_uris":{"android":"levelo://app?vid=85cc4066-33df-400c-bb45-d24b16696d98","ios":"levelo://app?vid=85cc4066-33df-400c-bb45-d24b16696d98"},"vehicle_type_id":"4","last_reported":1718910416,"current_range_meters":400,"station_id":"ce4bgl12rcd13ifvqbo0","pricing_plan_id":"cebpf4jnsgd1na2vs0mg"},{"bike_id":"2faeeb9e-eff2-41b2-9e9b-cf170c764edf","system_id":"levelo_inurba_marseille","lat":43.32367,"lon":5.388836,"is_reserved":false,"is_disabled":false,"rental_uris":{"android":"levelo://app?vid=2faeeb9e-eff2-41b2-9e9b-cf170c764edf","ios":"levelo://app?vid=2faeeb9e-eff2-41b2-9e9b-cf170c764edf"},"vehicle_type_id":"4","last_reported":1718910416,"current_range_meters":1200,"station_id":"ce4bhqp2rcd13ifvqhog","pricing_plan_id":"cebpf4jnsgd1na2vs0mg"},{"bike_id":"17ad2392-bda6-4253-8041-f2ada3a9a497","system_id":"levelo_inurba_marseille","lat":43.29602,"lon":5.381084,"is_reserved":false,"is_disabled":false,"rental_uris":{"android":"levelo://app?vid=17ad2392-bda6-4253-8041-f2ada3a9a497","ios":"levelo://app?vid=17ad2392-bda6-4253-8041-f2ada3a9a497"},"vehicle_type_id":"4","last_reported":1718910416,"current_range_meters":27200,"station_id":"ce4bgl12rcd13ifvqbo0","pricing_plan_id":"cebpf4jnsgd1na2vs0mg"},{"bike_id":"b3e36607-66f0-453c-b13f-b0eafcd3ea29","system_id":"levelo_inurba_marseille","lat":43.29313,"lon":5.37178,"is_reserved":false,"is_disabled":false,"rental_uris":{"android":"levelo://app?vid=b3e36607-66f0-453c-b13f-b0eafcd3ea29","ios":"levelo://app?vid=b3e36607-66f0-453c-b13f-b0eafcd3ea29"},"vehicle_type_id":"4","last_reported":1718910416,"current_range_meters":2400,"station_id":"ce4bgh92rcd13ifvqb40","pricing_plan_id":"cebpf4jnsgd1na2vs0mg"},{"bike_id":"6d641cf2-6f37-4451-b5bc-9200e52f2432","system_id":"levelo_inurba_marseille","lat":43.292749,"lon":5.368402,"is_reserved":false,"is_disabled":false,"rental_uris":{"android":"levelo://app?vid=6d641cf2-6f37-4451-b5bc-9200e52f2432","ios":"levelo://app?vid=6d641cf2-6f37-4451-b5bc-9200e52f2432"},"vehicle_type_id":"4","last_reported":1718910416,"current_range_meters":12800,"station_id":"ce4bhbp2rcd13ifvqesg","pricing_plan_id":"cebpf4jnsgd1na2vs0mg"},{"bike_id":"1b6839a6-3416-490f-bbda-9a4968644153","system_id":"levelo_inurba_marseille","lat":43.292749,"lon":5.368402,"is_reserved":false,"is_disabled":false,"rental_uris":{"android":"levelo://app?vid=1b6839a6-3416-490f-bbda-9a4968644153","ios":"levelo://app?vid=1b6839a6-3416-490f-bbda-9a4968644153"},"vehicle_type_id":"4","last_reported":1718910416,"current_range_meters":30400,"station_id":"ce4bhbp2rcd13ifvqesg","pricing_plan_id":"cebpf4jnsgd1na2vs0mg"},{"bike_id":"fbc0a0ab-8709-415c-a33d-0b35f9cacf34","system_id":"levelo_inurba_marseille","lat":43.2931,"lon":5.37177,"is_reserved":false,"is_disabled":false,"rental_uris":{"android":"levelo://app?vid=fbc0a0ab-8709-415c-a33d-0b35f9cacf34","ios":"levelo://app?vid=fbc0a0ab-8709-415c-a33d-0b35f9cacf34"},"vehicle_type_id":"4","last_reported":1718910416,"current_range_meters":29600,"station_id":"ce4bgh92rcd13ifvqb40","pricing_plan_id":"cebpf4jnsgd1na2vs0mg"},{"bike_id":"dc0c368f-2dfb-4772-bd3a-3bc8ad84dda7","system_id":"levelo_inurba_marseille","lat":43.292749,"lon":5.368402,"is_reserved":false,"is_disabled":false,"rental_uris":{"android":"levelo://app?vid=dc0c368f-2dfb-4772-bd3a-3bc8ad84dda7","ios":"levelo://app?vid=dc0c368f-2dfb-4772-bd3a-3bc8ad84dda7"},"vehicle_type_id":"4","last_reported":1718910416,"current_range_meters":1600,"station_id":"ce4bhbp2rcd13ifvqesg","pricing_plan_id":"cebpf4jnsgd1na2vs0mg"},{"bike_id":"6e295685-0f27-4b2c-9f19-e4cd799e8e8b","system_id":"levelo_inurba_marseille","lat":43.292749,"lon":5.368402,"is_reserved":false,"is_disabled":false,"rental_uris":{"android":"levelo://app?vid=6e295685-0f27-4b2c-9f19-e4cd799e8e8b","ios":"levelo://app?vid=6e295685-0f27-4b2c-9f19-e4cd799e8e8b"},"vehicle_type_id":"4","last_reported":1718910416,"current_range_meters":11600,"station_id":"ce4bhbp2rcd13ifvqesg","pricing_plan_id":"cebpf4jnsgd1na2vs0mg"},{"bike_id":"4e7b7743-0303-4e8f-bdce-9c501a9c5d3f","system_id":"levelo_inurba_marseille","lat":43.293249,"lon":5.371578,"is_reserved":false,"is_disabled":false,"rental_uris":{"android":"levelo://app?vid=4e7b7743-0303-4e8f-bdce-9c501a9c5d3f","ios":"levelo://app?vid=4e7b7743-0303-4e8f-bdce-9c501a9c5d3f"},"vehicle_type_id":"4","last_reported":1718910416,"current_range_meters":0,"station_id":"ce4bgh92rcd13ifvqb40","pricing_plan_id":"cebpf4jnsgd1na2vs0mg"},{"bike_id":"105e85a1-2e13-49be-86b1-e7973a5a648d","system_id":"levelo_inurba_marseille","lat":43.29308,"lon":5.37175,"is_reserved":false,"is_disabled":false,"rental_uris":{"android":"levelo://app?vid=105e85a1-2e13-49be-86b1-e7973a5a648d","ios":"levelo://app?vid=105e85a1-2e13-49be-86b1-e7973a5a648d"},"vehicle_type_id":"4","last_reported":1718910416,"current_range_meters":18000,"station_id":"ce4bgh92rcd13ifvqb40","pricing_plan_id":"cebpf4jnsgd1na2vs0mg"},{"bike_id":"419f133e-e747-4bef-a8f0-b171739049f6","system_id":"levelo_inurba_marseille","lat":43.29308,"lon":5.37177,"is_reserved":false,"is_disabled":false,"rental_uris":{"android":"levelo://app?vid=419f133e-e747-4bef-a8f0-b171739049f6","ios":"levelo://app?vid=419f133e-e747-4bef-a8f0-b171739049f6"},"vehicle_type_id":"4","last_reported":1718910416,"current_range_meters":5600,"station_id":"ce4bgh92rcd13ifvqb40","pricing_plan_id":"cebpf4jnsgd1na2vs0mg"},{"bike_id":"126a14bb-0ede-400d-8525-1cc8ba42105b","system_id":"levelo_inurba_marseille","lat":43.29307,"lon":5.37171,"is_reserved":false,"is_disabled":false,"rental_uris":{"android":"levelo://app?vid=126a14bb-0ede-400d-8525-1cc8ba42105b","ios":"levelo://app?vid=126a14bb-0ede-400d-8525-1cc8ba42105b"},"vehicle_type_id":"4","last_reported":1718910416,"current_range_meters":0,"station_id":"ce4bgh92rcd13ifvqb40","pricing_plan_id":"cebpf4jnsgd1na2vs0mg"},{"bike_id":"b4dbf8fd-24d3-4560-8019-39d4f9b82912","system_id":"levelo_inurba_marseille","lat":43.293249,"lon":5.371578,"is_reserved":false,"is_disabled":false,"rental_uris":{"android":"levelo://app?vid=b4dbf8fd-24d3-4560-8019-39d4f9b82912","ios":"levelo://app?vid=b4dbf8fd-24d3-4560-8019-39d4f9b82912"},"vehicle_type_id":"4","last_reported":1718910416,"current_range_meters":28000,"station_id":"ce4bgh92rcd13ifvqb40","pricing_plan_id":"cebpf4jnsgd1na2vs0mg"},{"bike_id":"cb294bab-05c2-4b91-905e-ec4ef31d0348","system_id":"levelo_inurba_marseille","lat":43.292749,"lon":5.368402,"is_reserved":false,"is_disabled":false,"rental_uris":{"android":"levelo://app?vid=cb294bab-05c2-4b91-905e-ec4ef31d0348","ios":"levelo://app?vid=cb294bab-05c2-4b91-905e-ec4ef31d0348"},"vehicle_type_id":"4","last_reported":1718910416,"current_range_meters":27600,"station_id":"ce4bhbp2rcd13ifvqesg","pricing_plan_id":"cebpf4jnsgd1na2vs0mg"},{"bike_id":"3f2f2b65-5aa1-4f62-ad38-7566cc6d327a","system_id":"levelo_inurba_marseille","lat":43.292749,"lon":5.368402,"is_reserved":false,"is_disabled":false,"rental_uris":{"android":"levelo://app?vid=3f2f2b65-5aa1-4f62-ad38-7566cc6d327a","ios":"levelo://app?vid=3f2f2b65-5aa1-4f62-ad38-7566cc6d327a"},"vehicle_type_id":"4","last_reported":1718910416,"current_range_meters":19200,"station_id":"ce4bhbp2rcd13ifvqesg","pricing_plan_id":"cebpf4jnsgd1na2vs0mg"},{"bike_id":"8de3c641-13f2-4b5d-a62a-c85bfe103c56","system_id":"levelo_inurba_marseille","lat":43.292749,"lon":5.368402,"is_reserved":false,"is_disabled":false,"rental_uris":{"android":"levelo://app?vid=8de3c641-13f2-4b5d-a62a-c85bfe103c56","ios":"levelo://app?vid=8de3c641-13f2-4b5d-a62a-c85bfe103c56"},"vehicle_type_id":"4","last_reported":1718910416,"current_range_meters":2400,"station_id":"ce4bhbp2rcd13ifvqesg","pricing_plan_id":"cebpf4jnsgd1na2vs0mg"},{"bike_id":"08427e70-a7c6-4a56-86b8-1155cb19ccd0","system_id":"levelo_inurba_marseille","lat":43.293065,"lon":5.371802,"is_reserved":false,"is_disabled":false,"rental_uris":{"android":"levelo://app?vid=08427e70-a7c6-4a56-86b8-1155cb19ccd0","ios":"levelo://app?vid=08427e70-a7c6-4a56-86b8-1155cb19ccd0"},"vehicle_type_id":"4","last_reported":1718910416,"current_range_meters":18000,"station_id":"ce4bgh92rcd13ifvqb40","pricing_plan_id":"cebpf4jnsgd1na2vs0mg"},{"bike_id":"370f748b-355b-4cda-a3b7-249d72271f03","system_id":"levelo_inurba_marseille","lat":43.29306,"lon":5.37178,"is_reserved":false,"is_disabled":false,"rental_uris":{"android":"levelo://app?vid=370f748b-355b-4cda-a3b7-249d72271f03","ios":"levelo://app?vid=370f748b-355b-4cda-a3b7-249d72271f03"},"vehicle_type_id":"4","last_reported":1718910416,"current_range_meters":4400,"station_id":"ce4bgh92rcd13ifvqb40","pricing_plan_id":"cebpf4jnsgd1na2vs0mg"},{"bike_id":"42a069e1-bc87-412b-93dc-b496e858b7bb","system_id":"levelo_inurba_marseille","lat":43.29276,"lon":5.3684,"is_reserved":false,"is_disabled":false,"rental_uris":{"android":"levelo://app?vid=42a069e1-bc87-412b-93dc-b496e858b7bb","ios":"levelo://app?vid=42a069e1-bc87-412b-93dc-b496e858b7bb"},"vehicle_type_id":"4","last_reported":1718910416,"current_range_meters":13600,"station_id":"ce4bhbp2rcd13ifvqesg","pricing_plan_id":"cebpf4jnsgd1na2vs0mg"},{"bike_id":"360f33e8-d753-4f63-832c-64c6525eb484","system_id":"levelo_inurba_marseille","lat":43.292749,"lon":5.368402,"is_reserved":false,"is_disabled":false,"rental_uris":{"android":"levelo://app?vid=360f33e8-d753-4f63-832c-64c6525eb484","ios":"levelo://app?vid=360f33e8-d753-4f63-832c-64c6525eb484"},"vehicle_type_id":"4","last_reported":1718910416,"current_range_meters":26000,"station_id":"ce4bhbp2rcd13ifvqesg","pricing_plan_id":"cebpf4jnsgd1na2vs0mg"},{"bike_id":"416c9515-8670-4a79-986e-c18e69c8a573","system_id":"levelo_inurba_marseille","lat":43.2927,"lon":5.36842,"is_reserved":false,"is_disabled":false,"rental_uris":{"android":"levelo://app?vid=416c9515-8670-4a79-986e-c18e69c8a573","ios":"levelo://app?vid=416c9515-8670-4a79-986e-c18e69c8a573"},"vehicle_type_id":"4","last_reported":1718910416,"current_range_meters":31200,"station_id":"ce4bhbp2rcd13ifvqesg","pricing_plan_id":"cebpf4jnsgd1na2vs0mg"},{"bike_id":"5960f24b-1ae0-4334-86db-3c1712182d3a","system_id":"levelo_inurba_marseille","lat":43.298037,"lon":5.381066,"is_reserved":false,"is_disabled":false,"rental_uris":{"android":"levelo://app?vid=5960f24b-1ae0-4334-86db-3c1712182d3a","ios":"levelo://app?vid=5960f24b-1ae0-4334-86db-3c1712182d3a"},"vehicle_type_id":"4","last_reported":1718910416,"current_range_meters":11600,"station_id":"ce4bgip2rcd13ifvqbb0","pricing_plan_id":"cebpf4jnsgd1na2vs0mg"},{"bike_id":"c26485cb-f1b5-4ece-bc50-3b3599a14d47","system_id":"levelo_inurba_marseille","lat":43.306125,"lon":5.393315,"is_reserved":false,"is_disabled":false,"rental_uris":{"android":"levelo://app?vid=c26485cb-f1b5-4ece-bc50-3b3599a14d47","ios":"levelo://app?vid=c26485cb-f1b5-4ece-bc50-3b3599a14d47"},"vehicle_type_id":"4","last_reported":1718910416,"current_range_meters":0,"station_id":"ce4bh0p2rcd13ifvqd80","pricing_plan_id":"cebpf4jnsgd1na2vs0mg"},{"bike_id":"fd479e07-4b3b-4812-bd8c-81d32e4238ff","system_id":"levelo_inurba_marseille","lat":43.2925,"lon":5.364305,"is_reserved":false,"is_disabled":false,"rental_uris":{"android":"levelo://app?vid=fd479e07-4b3b-4812-bd8c-81d32e4238ff","ios":"levelo://app?vid=fd479e07-4b3b-4812-bd8c-81d32e4238ff"},"vehicle_type_id":"4","last_reported":1718910416,"current_range_meters":30800,"station_id":"ce4bhbp2rcd13ifvqesg","pricing_plan_id":"cebpf4jnsgd1na2vs0mg"},{"bike_id":"910c4232-ec85-4ac1-b95e-85f1771e9441","system_id":"levelo_inurba_marseille","lat":43.305994,"lon":5.393687,"is_reserved":false,"is_disabled":false,"rental_uris":{"android":"levelo://app?vid=910c4232-ec85-4ac1-b95e-85f1771e9441","ios":"levelo://app?vid=910c4232-ec85-4ac1-b95e-85f1771e9441"},"vehicle_type_id":"4","last_reported":1718910416,"current_range_meters":9200,"station_id":"ce4bh0p2rcd13ifvqd80","pricing_plan_id":"cebpf4jnsgd1na2vs0mg"},{"bike_id":"864a46b4-c45a-422d-a3ac-7f1770f58bc4","system_id":"levelo_inurba_marseille","lat":43.293009,"lon":5.374584,"is_reserved":false,"is_disabled":false,"rental_uris":{"android":"levelo://app?vid=864a46b4-c45a-422d-a3ac-7f1770f58bc4","ios":"levelo://app?vid=864a46b4-c45a-422d-a3ac-7f1770f58bc4"},"vehicle_type_id":"4","last_reported":1718910416,"current_range_meters":20800,"station_id":"ce4bgi12rcd13ifvqb70","pricing_plan_id":"cebpf4jnsgd1na2vs0mg"},{"bike_id":"830af704-719f-4748-a4eb-bfe4e87c5568","system_id":"levelo_inurba_marseille","lat":43.29296,"lon":5.37453,"is_reserved":false,"is_disabled":false,"rental_uris":{"android":"levelo://app?vid=830af704-719f-4748-a4eb-bfe4e87c5568","ios":"levelo://app?vid=830af704-719f-4748-a4eb-bfe4e87c5568"},"vehicle_type_id":"4","last_reported":1718910416,"current_range_meters":0,"station_id":"ce4bgi12rcd13ifvqb70","pricing_plan_id":"cebpf4jnsgd1na2vs0mg"},{"bike_id":"b7856473-7fb1-44b3-af2c-dad367750ee9","system_id":"levelo_inurba_marseille","lat":43.29215,"lon":5.36509,"is_reserved":false,"is_disabled":false,"rental_uris":{"android":"levelo://app?vid=b7856473-7fb1-44b3-af2c-dad367750ee9","ios":"levelo://app?vid=b7856473-7fb1-44b3-af2c-dad367750ee9"},"vehicle_type_id":"4","last_reported":1718910416,"current_range_meters":4000,"station_id":"","pricing_plan_id":"cebpf4jnsgd1na2vs0mg"},{"bike_id":"55cd396f-769a-4f60-a577-b35a0790eccb","system_id":"levelo_inurba_marseille","lat":43.302992,"lon":5.392136,"is_reserved":false,"is_disabled":false,"rental_uris":{"android":"levelo://app?vid=55cd396f-769a-4f60-a577-b35a0790eccb","ios":"levelo://app?vid=55cd396f-769a-4f60-a577-b35a0790eccb"},"vehicle_type_id":"4","last_reported":1718910416,"current_range_meters":6000,"station_id":"ce4bgkh2rcd13ifvqbk0","pricing_plan_id":"cebpf4jnsgd1na2vs0mg"},{"bike_id":"8da00ef7-39b8-41f3-8e3f-f1f6fc62634b","system_id":"levelo_inurba_marseille","lat":43.303002,"lon":5.392142,"is_reserved":false,"is_disabled":false,"rental_uris":{"android":"levelo://app?vid=8da00ef7-39b8-41f3-8e3f-f1f6fc62634b","ios":"levelo://app?vid=8da00ef7-39b8-41f3-8e3f-f1f6fc62634b"},"vehicle_type_id":"4","last_reported":1718910416,"current_range_meters":27600,"station_id":"ce4bgkh2rcd13ifvqbk0","pricing_plan_id":"cebpf4jnsgd1na2vs0mg"},{"bike_id":"0476af6a-2e18-478d-b9c4-3fcd877c9324","system_id":"levelo_inurba_marseille","lat":43.292225,"lon":5.360465,"is_reserved":false,"is_disabled":false,"rental_uris":{"android":"levelo://app?vid=0476af6a-2e18-478d-b9c4-3fcd877c9324","ios":"levelo://app?vid=0476af6a-2e18-478d-b9c4-3fcd877c9324"},"vehicle_type_id":"4","last_reported":1718910416,"current_range_meters":31200,"station_id":"ce4bhbh2rcd13ifvqeqg","pricing_plan_id":"cebpf4jnsgd1na2vs0mg"},{"bike_id":"66a21c0a-1d04-4216-b977-2865fb3cbc7b","system_id":"levelo_inurba_marseille","lat":43.292205,"lon":5.36036,"is_reserved":false,"is_disabled":false,"rental_uris":{"android":"levelo://app?vid=66a21c0a-1d04-4216-b977-2865fb3cbc7b","ios":"levelo://app?vid=66a21c0a-1d04-4216-b977-2865fb3cbc7b"},"vehicle_type_id":"4","last_reported":1718910416,"current_range_meters":30400,"station_id":"ce4bhbh2rcd13ifvqeqg","pricing_plan_id":"cebpf4jnsgd1na2vs0mg"},{"bike_id":"c413c75a-fcac-4f36-bd3c-2f2830295502","system_id":"levelo_inurba_marseille","lat":43.291671,"lon":5.371575,"is_reserved":false,"is_disabled":false,"rental_uris":{"android":"levelo://app?vid=c413c75a-fcac-4f36-bd3c-2f2830295502","ios":"levelo://app?vid=c413c75a-fcac-4f36-bd3c-2f2830295502"},"vehicle_type_id":"4","last_reported":1718910416,"current_range_meters":2400,"station_id":"ce4bha92rcd13ifvqeh0","pricing_plan_id":"cebpf4jnsgd1na2vs0mg"},{"bike_id":"aeda4f5f-6ef4-47e7-9fa2-462e56786f6f","system_id":"levelo_inurba_marseille","lat":43.293009,"lon":5.374584,"is_reserved":false,"is_disabled":false,"rental_uris":{"android":"levelo://app?vid=aeda4f5f-6ef4-47e7-9fa2-462e56786f6f","ios":"levelo://app?vid=aeda4f5f-6ef4-47e7-9fa2-462e56786f6f"},"vehicle_type_id":"4","last_reported":1718910416,"current_range_meters":22000,"station_id":"ce4bgi12rcd13ifvqb70","pricing_plan_id":"cebpf4jnsgd1na2vs0mg"},{"bike_id":"961dbb77-e526-4bf1-b534-ef9834939788","system_id":"levelo_inurba_marseille","lat":43.298764,"lon":5.388973,"is_reserved":false,"is_disabled":false,"rental_uris":{"android":"levelo://app?vid=961dbb77-e526-4bf1-b534-ef9834939788","ios":"levelo://app?vid=961dbb77-e526-4bf1-b534-ef9834939788"},"vehicle_type_id":"4","last_reported":1718910416,"current_range_meters":26400,"station_id":"ce4bh392rcd13ifvqdl0","pricing_plan_id":"cebpf4jnsgd1na2vs0mg"},{"bike_id":"08033c43-7b42-4d3f-96bc-1525a51cc2ea","system_id":"levelo_inurba_marseille","lat":43.298764,"lon":5.388973,"is_reserved":false,"is_disabled":false,"rental_uris":{"android":"levelo://app?vid=08033c43-7b42-4d3f-96bc-1525a51cc2ea","ios":"levelo://app?vid=08033c43-7b42-4d3f-96bc-1525a51cc2ea"},"vehicle_type_id":"4","last_reported":1718910416,"current_range_meters":23200,"station_id":"ce4bh392rcd13ifvqdl0","pricing_plan_id":"cebpf4jnsgd1na2vs0mg"},{"bike_id":"528cdc10-ef3f-40a6-a575-19c71b8e1c69","system_id":"levelo_inurba_marseille","lat":43.29173,"lon":5.37152,"is_reserved":false,"is_disabled":false,"rental_uris":{"android":"levelo://app?vid=528cdc10-ef3f-40a6-a575-19c71b8e1c69","ios":"levelo://app?vid=528cdc10-ef3f-40a6-a575-19c71b8e1c69"},"vehicle_type_id":"4","last_reported":1718910416,"current_range_meters":29600,"station_id":"ce4bha92rcd13ifvqeh0","pricing_plan_id":"cebpf4jnsgd1na2vs0mg"},{"bike_id":"08aa38c0-90f8-497b-b5b6-d0051d51dd71","system_id":"levelo_inurba_marseille","lat":43.298764,"lon":5.388973,"is_reserved":false,"is_disabled":false,"rental_uris":{"android":"levelo://app?vid=08aa38c0-90f8-497b-b5b6-d0051d51dd71","ios":"levelo://app?vid=08aa38c0-90f8-497b-b5b6-d0051d51dd71"},"vehicle_type_id":"4","last_reported":1718910416,"current_range_meters":26000,"station_id":"ce4bh392rcd13ifvqdl0","pricing_plan_id":"cebpf4jnsgd1na2vs0mg"},{"bike_id":"fbe471ec-7608-4c11-92fd-d834ab39fd56","system_id":"levelo_inurba_marseille","lat":43.29169,"lon":5.37157,"is_reserved":false,"is_disabled":false,"rental_uris":{"android":"levelo://app?vid=fbe471ec-7608-4c11-92fd-d834ab39fd56","ios":"levelo://app?vid=fbe471ec-7608-4c11-92fd-d834ab39fd56"},"vehicle_type_id":"4","last_reported":1718910416,"current_range_meters":0,"station_id":"ce4bha92rcd13ifvqeh0","pricing_plan_id":"cebpf4jnsgd1na2vs0mg"},{"bike_id":"5d3b1c23-4de0-4a7d-bb5f-b36a4e117a5e","system_id":"levelo_inurba_marseille","lat":43.298764,"lon":5.388973,"is_reserved":false,"is_disabled":false,"rental_uris":{"android":"levelo://app?vid=5d3b1c23-4de0-4a7d-bb5f-b36a4e117a5e","ios":"levelo://app?vid=5d3b1c23-4de0-4a7d-bb5f-b36a4e117a5e"},"vehicle_type_id":"4","last_reported":1718910416,"current_range_meters":13200,"station_id":"ce4bh392rcd13ifvqdl0","pricing_plan_id":"cebpf4jnsgd1na2vs0mg"},{"bike_id":"d0d92d01-a496-457b-856b-7d1ef5a59cd4","system_id":"levelo_inurba_marseille","lat":43.291671,"lon":5.371575,"is_reserved":false,"is_disabled":false,"rental_uris":{"android":"levelo://app?vid=d0d92d01-a496-457b-856b-7d1ef5a59cd4","ios":"levelo://app?vid=d0d92d01-a496-457b-856b-7d1ef5a59cd4"},"vehicle_type_id":"4","last_reported":1718910416,"current_range_meters":23200,"station_id":"ce4bha92rcd13ifvqeh0","pricing_plan_id":"cebpf4jnsgd1na2vs0mg"},{"bike_id":"9024586c-3e05-4009-88ec-ad71829adeb9","system_id":"levelo_inurba_marseille","lat":43.313291,"lon":5.396838,"is_reserved":false,"is_disabled":false,"rental_uris":{"android":"levelo://app?vid=9024586c-3e05-4009-88ec-ad71829adeb9","ios":"levelo://app?vid=9024586c-3e05-4009-88ec-ad71829adeb9"},"vehicle_type_id":"4","last_reported":1718910416,"current_range_meters":20800,"station_id":"ce4bgvp2rcd13ifvqcu0","pricing_plan_id":"cebpf4jnsgd1na2vs0mg"},{"bike_id":"419556fa-1127-4b00-9264-8815bc8c01df","system_id":"levelo_inurba_marseille","lat":43.29871,"lon":5.38912,"is_reserved":false,"is_disabled":false,"rental_uris":{"android":"levelo://app?vid=419556fa-1127-4b00-9264-8815bc8c01df","ios":"levelo://app?vid=419556fa-1127-4b00-9264-8815bc8c01df"},"vehicle_type_id":"4","last_reported":1718910416,"current_range_meters":0,"station_id":"ce4bh392rcd13ifvqdl0","pricing_plan_id":"cebpf4jnsgd1na2vs0mg"},{"bike_id":"d521642b-6386-488d-8cd1-20781f5c16bb","system_id":"levelo_inurba_marseille","lat":43.309047,"lon":5.396551,"is_reserved":false,"is_disabled":false,"rental_uris":{"android":"levelo://app?vid=d521642b-6386-488d-8cd1-20781f5c16bb","ios":"levelo://app?vid=d521642b-6386-488d-8cd1-20781f5c16bb"},"vehicle_type_id":"4","last_reported":1718910416,"current_range_meters":8400,"station_id":"ce4bh012rcd13ifvqcv0","pricing_plan_id":"cebpf4jnsgd1na2vs0mg"},{"bike_id":"77eaa246-d7d6-4845-915a-f329af9ee7c4","system_id":"levelo_inurba_marseille","lat":43.292005,"lon":5.357875,"is_reserved":false,"is_disabled":false,"rental_uris":{"android":"levelo://app?vid=77eaa246-d7d6-4845-915a-f329af9ee7c4","ios":"levelo://app?vid=77eaa246-d7d6-4845-915a-f329af9ee7c4"},"vehicle_type_id":"4","last_reported":1718910416,"current_range_meters":0,"station_id":"ce4bhb12rcd13ifvqel0","pricing_plan_id":"cebpf4jnsgd1na2vs0mg"},{"bike_id":"7171688e-9ebe-47b3-b26c-17bc5ee10c1d","system_id":"levelo_inurba_marseille","lat":43.309038,"lon":5.396546,"is_reserved":false,"is_disabled":false,"rental_uris":{"android":"levelo://app?vid=7171688e-9ebe-47b3-b26c-17bc5ee10c1d","ios":"levelo://app?vid=7171688e-9ebe-47b3-b26c-17bc5ee10c1d"},"vehicle_type_id":"4","last_reported":1718910416,"current_range_meters":24000,"station_id":"ce4bh012rcd13ifvqcv0","pricing_plan_id":"cebpf4jnsgd1na2vs0mg"},{"bike_id":"e00c7ffe-ab0f-4990-abb3-4f62ab02c109","system_id":"levelo_inurba_marseille","lat":43.309038,"lon":5.396546,"is_reserved":false,"is_disabled":false,"rental_uris":{"android":"levelo://app?vid=e00c7ffe-ab0f-4990-abb3-4f62ab02c109","ios":"levelo://app?vid=e00c7ffe-ab0f-4990-abb3-4f62ab02c109"},"vehicle_type_id":"4","last_reported":1718910416,"current_range_meters":29200,"station_id":"ce4bh012rcd13ifvqcv0","pricing_plan_id":"cebpf4jnsgd1na2vs0mg"},{"bike_id":"af43fb04-84fe-4871-889a-326ae3ac24c8","system_id":"levelo_inurba_marseille","lat":43.313291,"lon":5.396838,"is_reserved":false,"is_disabled":false,"rental_uris":{"android":"levelo://app?vid=af43fb04-84fe-4871-889a-326ae3ac24c8","ios":"levelo://app?vid=af43fb04-84fe-4871-889a-326ae3ac24c8"},"vehicle_type_id":"4","last_reported":1718910416,"current_range_meters":18800,"station_id":"ce4bgvp2rcd13ifvqcu0","pricing_plan_id":"cebpf4jnsgd1na2vs0mg"},{"bike_id":"acfa956d-9e62-453d-9abc-dac8ece4d753","system_id":"levelo_inurba_marseille","lat":43.309038,"lon":5.396546,"is_reserved":false,"is_disabled":false,"rental_uris":{"android":"levelo://app?vid=acfa956d-9e62-453d-9abc-dac8ece4d753","ios":"levelo://app?vid=acfa956d-9e62-453d-9abc-dac8ece4d753"},"vehicle_type_id":"4","last_reported":1718910416,"current_range_meters":30800,"station_id":"ce4bh012rcd13ifvqcv0","pricing_plan_id":"cebpf4jnsgd1na2vs0mg"},{"bike_id":"aadb3d61-e814-4968-9e9e-9fe563160989","system_id":"levelo_inurba_marseille","lat":43.313291,"lon":5.396838,"is_reserved":false,"is_disabled":false,"rental_uris":{"android":"levelo://app?vid=aadb3d61-e814-4968-9e9e-9fe563160989","ios":"levelo://app?vid=aadb3d61-e814-4968-9e9e-9fe563160989"},"vehicle_type_id":"4","last_reported":1718910416,"current_range_meters":30400,"station_id":"ce4bgvp2rcd13ifvqcu0","pricing_plan_id":"cebpf4jnsgd1na2vs0mg"},{"bike_id":"d84e9533-ca4a-42cf-a361-f32df36636b3","system_id":"levelo_inurba_marseille","lat":43.313291,"lon":5.396838,"is_reserved":false,"is_disabled":false,"rental_uris":{"android":"levelo://app?vid=d84e9533-ca4a-42cf-a361-f32df36636b3","ios":"levelo://app?vid=d84e9533-ca4a-42cf-a361-f32df36636b3"},"vehicle_type_id":"4","last_reported":1718910416,"current_range_meters":0,"station_id":"ce4bgvp2rcd13ifvqcu0","pricing_plan_id":"cebpf4jnsgd1na2vs0mg"},{"bike_id":"797226b6-2925-41c1-b928-b88caed9c4dd","system_id":"levelo_inurba_marseille","lat":43.309038,"lon":5.396546,"is_reserved":false,"is_disabled":false,"rental_uris":{"android":"levelo://app?vid=797226b6-2925-41c1-b928-b88caed9c4dd","ios":"levelo://app?vid=797226b6-2925-41c1-b928-b88caed9c4dd"},"vehicle_type_id":"4","last_reported":1718910416,"current_range_meters":0,"station_id":"ce4bh012rcd13ifvqcv0","pricing_plan_id":"cebpf4jnsgd1na2vs0mg"},{"bike_id":"0fcb3503-5d6a-49b5-95fe-ebc7aecb7e90","system_id":"levelo_inurba_marseille","lat":43.313291,"lon":5.396838,"is_reserved":false,"is_disabled":false,"rental_uris":{"android":"levelo://app?vid=0fcb3503-5d6a-49b5-95fe-ebc7aecb7e90","ios":"levelo://app?vid=0fcb3503-5d6a-49b5-95fe-ebc7aecb7e90"},"vehicle_type_id":"4","last_reported":1718910416,"current_range_meters":2400,"station_id":"ce4bgvp2rcd13ifvqcu0","pricing_plan_id":"cebpf4jnsgd1na2vs0mg"},{"bike_id":"a22dfc6a-4930-4200-a969-4506f91e9f6b","system_id":"levelo_inurba_marseille","lat":43.31327,"lon":5.39691,"is_reserved":false,"is_disabled":false,"rental_uris":{"android":"levelo://app?vid=a22dfc6a-4930-4200-a969-4506f91e9f6b","ios":"levelo://app?vid=a22dfc6a-4930-4200-a969-4506f91e9f6b"},"vehicle_type_id":"4","last_reported":1718910416,"current_range_meters":0,"station_id":"ce4bgvp2rcd13ifvqcu0","pricing_plan_id":"cebpf4jnsgd1na2vs0mg"},{"bike_id":"cbcc4997-d20c-4627-a696-026a6bae103e","system_id":"levelo_inurba_marseille","lat":43.313291,"lon":5.396838,"is_reserved":false,"is_disabled":false,"rental_uris":{"android":"levelo://app?vid=cbcc4997-d20c-4627-a696-026a6bae103e","ios":"levelo://app?vid=cbcc4997-d20c-4627-a696-026a6bae103e"},"vehicle_type_id":"4","last_reported":1718910416,"current_range_meters":23600,"station_id":"ce4bgvp2rcd13ifvqcu0","pricing_plan_id":"cebpf4jnsgd1na2vs0mg"},{"bike_id":"8d78a410-1384-46ff-9836-a4485882dc34","system_id":"levelo_inurba_marseille","lat":43.3133,"lon":5.39693,"is_reserved":false,"is_disabled":false,"rental_uris":{"android":"levelo://app?vid=8d78a410-1384-46ff-9836-a4485882dc34","ios":"levelo://app?vid=8d78a410-1384-46ff-9836-a4485882dc34"},"vehicle_type_id":"4","last_reported":1718910416,"current_range_meters":0,"station_id":"ce4bgvp2rcd13ifvqcu0","pricing_plan_id":"cebpf4jnsgd1na2vs0mg"},{"bike_id":"58fbac63-6135-4919-ad12-413cebb5d9d6","system_id":"levelo_inurba_marseille","lat":43.309047,"lon":5.396551,"is_reserved":false,"is_disabled":false,"rental_uris":{"android":"levelo://app?vid=58fbac63-6135-4919-ad12-413cebb5d9d6","ios":"levelo://app?vid=58fbac63-6135-4919-ad12-413cebb5d9d6"},"vehicle_type_id":"4","last_reported":1718910416,"current_range_meters":7200,"station_id":"ce4bh012rcd13ifvqcv0","pricing_plan_id":"cebpf4jnsgd1na2vs0mg"},{"bike_id":"ece85cba-3327-49d6-953b-fb7c5c8fd46b","system_id":"levelo_inurba_marseille","lat":43.309038,"lon":5.396546,"is_reserved":false,"is_disabled":false,"rental_uris":{"android":"levelo://app?vid=ece85cba-3327-49d6-953b-fb7c5c8fd46b","ios":"levelo://app?vid=ece85cba-3327-49d6-953b-fb7c5c8fd46b"},"vehicle_type_id":"4","last_reported":1718910416,"current_range_meters":2800,"station_id":"ce4bh012rcd13ifvqcv0","pricing_plan_id":"cebpf4jnsgd1na2vs0mg"},{"bike_id":"d4c453d0-4e05-4e14-bf2c-bbca72445e44","system_id":"levelo_inurba_marseille","lat":43.313291,"lon":5.396838,"is_reserved":false,"is_disabled":false,"rental_uris":{"android":"levelo://app?vid=d4c453d0-4e05-4e14-bf2c-bbca72445e44","ios":"levelo://app?vid=d4c453d0-4e05-4e14-bf2c-bbca72445e44"},"vehicle_type_id":"4","last_reported":1718910416,"current_range_meters":0,"station_id":"ce4bgvp2rcd13ifvqcu0","pricing_plan_id":"cebpf4jnsgd1na2vs0mg"},{"bike_id":"00cfe0a1-0c9c-4b28-81f8-faf2ebd1cee1","system_id":"levelo_inurba_marseille","lat":43.309047,"lon":5.396551,"is_reserved":false,"is_disabled":false,"rental_uris":{"android":"levelo://app?vid=00cfe0a1-0c9c-4b28-81f8-faf2ebd1cee1","ios":"levelo://app?vid=00cfe0a1-0c9c-4b28-81f8-faf2ebd1cee1"},"vehicle_type_id":"4","last_reported":1718910416,"current_range_meters":24000,"station_id":"ce4bh012rcd13ifvqcv0","pricing_plan_id":"cebpf4jnsgd1na2vs0mg"},{"bike_id":"82aa46e0-6f02-4683-8fa4-306e3f089502","system_id":"levelo_inurba_marseille","lat":43.309038,"lon":5.396546,"is_reserved":false,"is_disabled":false,"rental_uris":{"android":"levelo://app?vid=82aa46e0-6f02-4683-8fa4-306e3f089502","ios":"levelo://app?vid=82aa46e0-6f02-4683-8fa4-306e3f089502"},"vehicle_type_id":"4","last_reported":1718910416,"current_range_meters":3600,"station_id":"ce4bh012rcd13ifvqcv0","pricing_plan_id":"cebpf4jnsgd1na2vs0mg"},{"bike_id":"b137d64e-5687-43fc-b42f-5663ad0e1e47","system_id":"levelo_inurba_marseille","lat":43.29529,"lon":5.385581,"is_reserved":false,"is_disabled":false,"rental_uris":{"android":"levelo://app?vid=b137d64e-5687-43fc-b42f-5663ad0e1e47","ios":"levelo://app?vid=b137d64e-5687-43fc-b42f-5663ad0e1e47"},"vehicle_type_id":"4","last_reported":1718910416,"current_range_meters":800,"station_id":"ce4bgih2rcd13ifvqba0","pricing_plan_id":"cebpf4jnsgd1na2vs0mg"},{"bike_id":"5c54588d-93b9-4994-a852-055edeb97278","system_id":"levelo_inurba_marseille","lat":43.29529,"lon":5.385581,"is_reserved":false,"is_disabled":false,"rental_uris":{"android":"levelo://app?vid=5c54588d-93b9-4994-a852-055edeb97278","ios":"levelo://app?vid=5c54588d-93b9-4994-a852-055edeb97278"},"vehicle_type_id":"4","last_reported":1718910416,"current_range_meters":20400,"station_id":"ce4bgih2rcd13ifvqba0","pricing_plan_id":"cebpf4jnsgd1na2vs0mg"},{"bike_id":"fdcfffeb-0f46-447f-848b-8b460b20cb0e","system_id":"levelo_inurba_marseille","lat":43.29529,"lon":5.385581,"is_reserved":false,"is_disabled":false,"rental_uris":{"android":"levelo://app?vid=fdcfffeb-0f46-447f-848b-8b460b20cb0e","ios":"levelo://app?vid=fdcfffeb-0f46-447f-848b-8b460b20cb0e"},"vehicle_type_id":"4","last_reported":1718910416,"current_range_meters":16800,"station_id":"ce4bgih2rcd13ifvqba0","pricing_plan_id":"cebpf4jnsgd1na2vs0mg"},{"bike_id":"af9356cc-7a1e-407e-b9db-784dc8fe3222","system_id":"levelo_inurba_marseille","lat":43.290779,"lon":5.371482,"is_reserved":false,"is_disabled":false,"rental_uris":{"android":"levelo://app?vid=af9356cc-7a1e-407e-b9db-784dc8fe3222","ios":"levelo://app?vid=af9356cc-7a1e-407e-b9db-784dc8fe3222"},"vehicle_type_id":"4","last_reported":1718910416,"current_range_meters":4800,"station_id":"ce4bh5p2rcd13ifvqe4g","pricing_plan_id":"cebpf4jnsgd1na2vs0mg"},{"bike_id":"0aa76266-2d33-446b-a9bb-850bfc662df5","system_id":"levelo_inurba_marseille","lat":43.290779,"lon":5.371482,"is_reserved":false,"is_disabled":false,"rental_uris":{"android":"levelo://app?vid=0aa76266-2d33-446b-a9bb-850bfc662df5","ios":"levelo://app?vid=0aa76266-2d33-446b-a9bb-850bfc662df5"},"vehicle_type_id":"4","last_reported":1718910416,"current_range_meters":0,"station_id":"ce4bh5p2rcd13ifvqe4g","pricing_plan_id":"cebpf4jnsgd1na2vs0mg"},{"bike_id":"9739b9ed-0662-4da3-9be9-7d32655b94b9","system_id":"levelo_inurba_marseille","lat":43.290779,"lon":5.371482,"is_reserved":false,"is_disabled":false,"rental_uris":{"android":"levelo://app?vid=9739b9ed-0662-4da3-9be9-7d32655b94b9","ios":"levelo://app?vid=9739b9ed-0662-4da3-9be9-7d32655b94b9"},"vehicle_type_id":"4","last_reported":1718910416,"current_range_meters":8400,"station_id":"ce4bh5p2rcd13ifvqe4g","pricing_plan_id":"cebpf4jnsgd1na2vs0mg"},{"bike_id":"ac8bbe38-beda-4e32-9180-d400f35b55e3","system_id":"levelo_inurba_marseille","lat":43.302008,"lon":5.394694,"is_reserved":false,"is_disabled":false,"rental_uris":{"android":"levelo://app?vid=ac8bbe38-beda-4e32-9180-d400f35b55e3","ios":"levelo://app?vid=ac8bbe38-beda-4e32-9180-d400f35b55e3"},"vehicle_type_id":"4","last_reported":1718910416,"current_range_meters":0,"station_id":"ce4bh0p2rcd13ifvqd70","pricing_plan_id":"cebpf4jnsgd1na2vs0mg"},{"bike_id":"6456626c-7c8d-4de7-9d8b-830572e68366","system_id":"levelo_inurba_marseille","lat":43.302008,"lon":5.394694,"is_reserved":false,"is_disabled":false,"rental_uris":{"android":"levelo://app?vid=6456626c-7c8d-4de7-9d8b-830572e68366","ios":"levelo://app?vid=6456626c-7c8d-4de7-9d8b-830572e68366"},"vehicle_type_id":"4","last_reported":1718910416,"current_range_meters":400,"station_id":"ce4bh0p2rcd13ifvqd70","pricing_plan_id":"cebpf4jnsgd1na2vs0mg"},{"bike_id":"89210e5f-0a7c-417c-ac57-343681c42c0a","system_id":"levelo_inurba_marseille","lat":43.302008,"lon":5.394694,"is_reserved":false,"is_disabled":false,"rental_uris":{"android":"levelo://app?vid=89210e5f-0a7c-417c-ac57-343681c42c0a","ios":"levelo://app?vid=89210e5f-0a7c-417c-ac57-343681c42c0a"},"vehicle_type_id":"4","last_reported":1718910416,"current_range_meters":0,"station_id":"ce4bh0p2rcd13ifvqd70","pricing_plan_id":"cebpf4jnsgd1na2vs0mg"},{"bike_id":"554716c6-284a-4b52-8d9e-1c4d4b5c57d4","system_id":"levelo_inurba_marseille","lat":43.290631,"lon":5.359244,"is_reserved":false,"is_disabled":false,"rental_uris":{"android":"levelo://app?vid=554716c6-284a-4b52-8d9e-1c4d4b5c57d4","ios":"levelo://app?vid=554716c6-284a-4b52-8d9e-1c4d4b5c57d4"},"vehicle_type_id":"4","last_reported":1718910416,"current_range_meters":13600,"station_id":"ce4bha92rcd13ifvqeg0","pricing_plan_id":"cebpf4jnsgd1na2vs0mg"},{"bike_id":"282740aa-cfb9-4620-a1b2-98c4ab791af9","system_id":"levelo_inurba_marseille","lat":43.29037,"lon":5.35905,"is_reserved":false,"is_disabled":false,"rental_uris":{"android":"levelo://app?vid=282740aa-cfb9-4620-a1b2-98c4ab791af9","ios":"levelo://app?vid=282740aa-cfb9-4620-a1b2-98c4ab791af9"},"vehicle_type_id":"4","last_reported":1718910416,"current_range_meters":30800,"station_id":"ce4bha92rcd13ifvqeg0","pricing_plan_id":"cebpf4jnsgd1na2vs0mg"},{"bike_id":"135cc199-7613-4b6c-ba9a-ead34dba0b0a","system_id":"levelo_inurba_marseille","lat":43.28969,"lon":5.36441,"is_reserved":false,"is_disabled":false,"rental_uris":{"android":"levelo://app?vid=135cc199-7613-4b6c-ba9a-ead34dba0b0a","ios":"levelo://app?vid=135cc199-7613-4b6c-ba9a-ead34dba0b0a"},"vehicle_type_id":"4","last_reported":1718910416,"current_range_meters":0,"station_id":"ce4bhc92rcd13ifvqetg","pricing_plan_id":"cebpf4jnsgd1na2vs0mg"},{"bike_id":"09956d51-9575-41b2-b605-420fa065d9cf","system_id":"levelo_inurba_marseille","lat":43.28965,"lon":5.36441,"is_reserved":false,"is_disabled":false,"rental_uris":{"android":"levelo://app?vid=09956d51-9575-41b2-b605-420fa065d9cf","ios":"levelo://app?vid=09956d51-9575-41b2-b605-420fa065d9cf"},"vehicle_type_id":"4","last_reported":1718910416,"current_range_meters":18400,"station_id":"","pricing_plan_id":"cebpf4jnsgd1na2vs0mg"},{"bike_id":"99b53c32-46af-4915-97cd-38f62db51307","system_id":"levelo_inurba_marseille","lat":43.28954,"lon":5.36637,"is_reserved":false,"is_disabled":false,"rental_uris":{"android":"levelo://app?vid=99b53c32-46af-4915-97cd-38f62db51307","ios":"levelo://app?vid=99b53c32-46af-4915-97cd-38f62db51307"},"vehicle_type_id":"4","last_reported":1718910416,"current_range_meters":21200,"station_id":"ce4bhap2rcd13ifvqek0","pricing_plan_id":"cebpf4jnsgd1na2vs0mg"},{"bike_id":"257f6e58-010e-4556-abfb-9446cb97c080","system_id":"levelo_inurba_marseille","lat":43.2904,"lon":5.37557,"is_reserved":false,"is_disabled":false,"rental_uris":{"android":"levelo://app?vid=257f6e58-010e-4556-abfb-9446cb97c080","ios":"levelo://app?vid=257f6e58-010e-4556-abfb-9446cb97c080"},"vehicle_type_id":"4","last_reported":1718910416,"current_range_meters":18400,"station_id":"ce4bh692rcd13ifvqe90","pricing_plan_id":"cebpf4jnsgd1na2vs0mg"},{"bike_id":"d6c69a0b-f9a0-4f57-9c05-398eaaaf86f9","system_id":"levelo_inurba_marseille","lat":43.294191,"lon":5.386136,"is_reserved":false,"is_disabled":false,"rental_uris":{"android":"levelo://app?vid=d6c69a0b-f9a0-4f57-9c05-398eaaaf86f9","ios":"levelo://app?vid=d6c69a0b-f9a0-4f57-9c05-398eaaaf86f9"},"vehicle_type_id":"4","last_reported":1718910416,"current_range_meters":0,"station_id":"ce4bh2h2rcd13ifvqdh0","pricing_plan_id":"cebpf4jnsgd1na2vs0mg"},{"bike_id":"3a6a56d2-0d8e-48ca-a6e9-d79aa07acaae","system_id":"levelo_inurba_marseille","lat":43.290327,"lon":5.375711,"is_reserved":false,"is_disabled":false,"rental_uris":{"android":"levelo://app?vid=3a6a56d2-0d8e-48ca-a6e9-d79aa07acaae","ios":"levelo://app?vid=3a6a56d2-0d8e-48ca-a6e9-d79aa07acaae"},"vehicle_type_id":"4","last_reported":1718910416,"current_range_meters":30000,"station_id":"ce4bh692rcd13ifvqe90","pricing_plan_id":"cebpf4jnsgd1na2vs0mg"},{"bike_id":"6bf1be74-ea5e-4c00-a364-123b6b1b7e99","system_id":"levelo_inurba_marseille","lat":43.294153,"lon":5.386305,"is_reserved":false,"is_disabled":false,"rental_uris":{"android":"levelo://app?vid=6bf1be74-ea5e-4c00-a364-123b6b1b7e99","ios":"levelo://app?vid=6bf1be74-ea5e-4c00-a364-123b6b1b7e99"},"vehicle_type_id":"4","last_reported":1718910416,"current_range_meters":28000,"station_id":"ce4bh2h2rcd13ifvqdh0","pricing_plan_id":"cebpf4jnsgd1na2vs0mg"},{"bike_id":"4d57b831-3572-4cc3-a9d9-82fd0d6fe712","system_id":"levelo_inurba_marseille","lat":43.294162,"lon":5.386292,"is_reserved":false,"is_disabled":false,"rental_uris":{"android":"levelo://app?vid=4d57b831-3572-4cc3-a9d9-82fd0d6fe712","ios":"levelo://app?vid=4d57b831-3572-4cc3-a9d9-82fd0d6fe712"},"vehicle_type_id":"4","last_reported":1718910416,"current_range_meters":31200,"station_id":"ce4bh2h2rcd13ifvqdh0","pricing_plan_id":"cebpf4jnsgd1na2vs0mg"},{"bike_id":"61e593ea-bce6-46d2-bb4d-c02dd4e46f9b","system_id":"levelo_inurba_marseille","lat":43.289184,"lon":5.366408,"is_reserved":false,"is_disabled":false,"rental_uris":{"android":"levelo://app?vid=61e593ea-bce6-46d2-bb4d-c02dd4e46f9b","ios":"levelo://app?vid=61e593ea-bce6-46d2-bb4d-c02dd4e46f9b"},"vehicle_type_id":"4","last_reported":1718910416,"current_range_meters":0,"station_id":"ce4bhap2rcd13ifvqek0","pricing_plan_id":"cebpf4jnsgd1na2vs0mg"},{"bike_id":"4a46f18c-0638-436b-a98a-7f33c318e050","system_id":"levelo_inurba_marseille","lat":43.29417,"lon":5.38624,"is_reserved":false,"is_disabled":false,"rental_uris":{"android":"levelo://app?vid=4a46f18c-0638-436b-a98a-7f33c318e050","ios":"levelo://app?vid=4a46f18c-0638-436b-a98a-7f33c318e050"},"vehicle_type_id":"4","last_reported":1718910416,"current_range_meters":3600,"station_id":"ce4bh2h2rcd13ifvqdh0","pricing_plan_id":"cebpf4jnsgd1na2vs0mg"},{"bike_id":"de58aacd-9a67-4c4c-aa9e-9dd8760c523f","system_id":"levelo_inurba_marseille","lat":43.294162,"lon":5.386292,"is_reserved":false,"is_disabled":false,"rental_uris":{"android":"levelo://app?vid=de58aacd-9a67-4c4c-aa9e-9dd8760c523f","ios":"levelo://app?vid=de58aacd-9a67-4c4c-aa9e-9dd8760c523f"},"vehicle_type_id":"4","last_reported":1718910416,"current_range_meters":27600,"station_id":"ce4bh2h2rcd13ifvqdh0","pricing_plan_id":"cebpf4jnsgd1na2vs0mg"},{"bike_id":"48d4b03e-c7dc-4382-b0a7-860e3fb73bad","system_id":"levelo_inurba_marseille","lat":43.29416,"lon":5.38626,"is_reserved":false,"is_disabled":false,"rental_uris":{"android":"levelo://app?vid=48d4b03e-c7dc-4382-b0a7-860e3fb73bad","ios":"levelo://app?vid=48d4b03e-c7dc-4382-b0a7-860e3fb73bad"},"vehicle_type_id":"4","last_reported":1718910416,"current_range_meters":0,"station_id":"ce4bh2h2rcd13ifvqdh0","pricing_plan_id":"cebpf4jnsgd1na2vs0mg"},{"bike_id":"64c810f8-f448-4e60-8dd3-4ccab9cc6ccc","system_id":"levelo_inurba_marseille","lat":43.294162,"lon":5.386292,"is_reserved":false,"is_disabled":false,"rental_uris":{"android":"levelo://app?vid=64c810f8-f448-4e60-8dd3-4ccab9cc6ccc","ios":"levelo://app?vid=64c810f8-f448-4e60-8dd3-4ccab9cc6ccc"},"vehicle_type_id":"4","last_reported":1718910416,"current_range_meters":8000,"station_id":"ce4bh2h2rcd13ifvqdh0","pricing_plan_id":"cebpf4jnsgd1na2vs0mg"},{"bike_id":"421c9743-17ba-4e8a-ae6a-6d4004960858","system_id":"levelo_inurba_marseille","lat":43.290319,"lon":5.375732,"is_reserved":false,"is_disabled":false,"rental_uris":{"android":"levelo://app?vid=421c9743-17ba-4e8a-ae6a-6d4004960858","ios":"levelo://app?vid=421c9743-17ba-4e8a-ae6a-6d4004960858"},"vehicle_type_id":"4","last_reported":1718910416,"current_range_meters":11600,"station_id":"ce4bh692rcd13ifvqe90","pricing_plan_id":"cebpf4jnsgd1na2vs0mg"},{"bike_id":"e6c9f7cc-7332-4005-a2c3-b9d017585cc3","system_id":"levelo_inurba_marseille","lat":43.289184,"lon":5.366408,"is_reserved":false,"is_disabled":false,"rental_uris":{"android":"levelo://app?vid=e6c9f7cc-7332-4005-a2c3-b9d017585cc3","ios":"levelo://app?vid=e6c9f7cc-7332-4005-a2c3-b9d017585cc3"},"vehicle_type_id":"4","last_reported":1718910416,"current_range_meters":31200,"station_id":"ce4bhap2rcd13ifvqek0","pricing_plan_id":"cebpf4jnsgd1na2vs0mg"},{"bike_id":"eec19322-bba2-4e4f-81a6-867d5507f275","system_id":"levelo_inurba_marseille","lat":43.289468,"lon":5.363719,"is_reserved":false,"is_disabled":false,"rental_uris":{"android":"levelo://app?vid=eec19322-bba2-4e4f-81a6-867d5507f275","ios":"levelo://app?vid=eec19322-bba2-4e4f-81a6-867d5507f275"},"vehicle_type_id":"4","last_reported":1718910416,"current_range_meters":0,"station_id":"ce4bhc92rcd13ifvqetg","pricing_plan_id":"cebpf4jnsgd1na2vs0mg"},{"bike_id":"84377b3f-eaf9-4f13-8643-f3fb294fff07","system_id":"levelo_inurba_marseille","lat":43.289184,"lon":5.366408,"is_reserved":false,"is_disabled":false,"rental_uris":{"android":"levelo://app?vid=84377b3f-eaf9-4f13-8643-f3fb294fff07","ios":"levelo://app?vid=84377b3f-eaf9-4f13-8643-f3fb294fff07"},"vehicle_type_id":"4","last_reported":1718910416,"current_range_meters":5200,"station_id":"ce4bhap2rcd13ifvqek0","pricing_plan_id":"cebpf4jnsgd1na2vs0mg"},{"bike_id":"ffab7a6c-e485-4bcf-843f-4866d3a9588a","system_id":"levelo_inurba_marseille","lat":43.289184,"lon":5.366408,"is_reserved":false,"is_disabled":false,"rental_uris":{"android":"levelo://app?vid=ffab7a6c-e485-4bcf-843f-4866d3a9588a","ios":"levelo://app?vid=ffab7a6c-e485-4bcf-843f-4866d3a9588a"},"vehicle_type_id":"4","last_reported":1718910416,"current_range_meters":10400,"station_id":"ce4bhap2rcd13ifvqek0","pricing_plan_id":"cebpf4jnsgd1na2vs0mg"},{"bike_id":"5418ade4-8cfe-412a-a580-a5809bc73c39","system_id":"levelo_inurba_marseille","lat":43.289184,"lon":5.366408,"is_reserved":false,"is_disabled":false,"rental_uris":{"android":"levelo://app?vid=5418ade4-8cfe-412a-a580-a5809bc73c39","ios":"levelo://app?vid=5418ade4-8cfe-412a-a580-a5809bc73c39"},"vehicle_type_id":"4","last_reported":1718910416,"current_range_meters":6400,"station_id":"ce4bhap2rcd13ifvqek0","pricing_plan_id":"cebpf4jnsgd1na2vs0mg"},{"bike_id":"ffaddf68-8ad8-4c36-9801-696b5bd330f1","system_id":"levelo_inurba_marseille","lat":43.289468,"lon":5.363719,"is_reserved":false,"is_disabled":false,"rental_uris":{"android":"levelo://app?vid=ffaddf68-8ad8-4c36-9801-696b5bd330f1","ios":"levelo://app?vid=ffaddf68-8ad8-4c36-9801-696b5bd330f1"},"vehicle_type_id":"4","last_reported":1718910416,"current_range_meters":3600,"station_id":"ce4bhc92rcd13ifvqetg","pricing_plan_id":"cebpf4jnsgd1na2vs0mg"},{"bike_id":"a5ea7afc-42b4-48db-8012-3c77c2ee4bb8","system_id":"levelo_inurba_marseille","lat":43.289184,"lon":5.366408,"is_reserved":false,"is_disabled":false,"rental_uris":{"android":"levelo://app?vid=a5ea7afc-42b4-48db-8012-3c77c2ee4bb8","ios":"levelo://app?vid=a5ea7afc-42b4-48db-8012-3c77c2ee4bb8"},"vehicle_type_id":"4","last_reported":1718910416,"current_range_meters":11200,"station_id":"ce4bhap2rcd13ifvqek0","pricing_plan_id":"cebpf4jnsgd1na2vs0mg"},{"bike_id":"6005e42b-983d-4259-97c5-f1d0d2e6296b","system_id":"levelo_inurba_marseille","lat":43.289184,"lon":5.366408,"is_reserved":false,"is_disabled":false,"rental_uris":{"android":"levelo://app?vid=6005e42b-983d-4259-97c5-f1d0d2e6296b","ios":"levelo://app?vid=6005e42b-983d-4259-97c5-f1d0d2e6296b"},"vehicle_type_id":"4","last_reported":1718910416,"current_range_meters":31200,"station_id":"ce4bhap2rcd13ifvqek0","pricing_plan_id":"cebpf4jnsgd1na2vs0mg"},{"bike_id":"f13e2bd0-7f56-4f4f-b59b-66088f5f1b2b","system_id":"levelo_inurba_marseille","lat":43.28935,"lon":5.36632,"is_reserved":false,"is_disabled":false,"rental_uris":{"android":"levelo://app?vid=f13e2bd0-7f56-4f4f-b59b-66088f5f1b2b","ios":"levelo://app?vid=f13e2bd0-7f56-4f4f-b59b-66088f5f1b2b"},"vehicle_type_id":"4","last_reported":1718910416,"current_range_meters":30000,"station_id":"ce4bhap2rcd13ifvqek0","pricing_plan_id":"cebpf4jnsgd1na2vs0mg"},{"bike_id":"4cd5be5e-275a-4c19-8a23-dbff22003784","system_id":"levelo_inurba_marseille","lat":43.289184,"lon":5.366408,"is_reserved":false,"is_disabled":false,"rental_uris":{"android":"levelo://app?vid=4cd5be5e-275a-4c19-8a23-dbff22003784","ios":"levelo://app?vid=4cd5be5e-275a-4c19-8a23-dbff22003784"},"vehicle_type_id":"4","last_reported":1718910416,"current_range_meters":31200,"station_id":"ce4bhap2rcd13ifvqek0","pricing_plan_id":"cebpf4jnsgd1na2vs0mg"},{"bike_id":"1b645a24-5761-4f58-b914-5b862d09cc22","system_id":"levelo_inurba_marseille","lat":43.289184,"lon":5.366408,"is_reserved":false,"is_disabled":false,"rental_uris":{"android":"levelo://app?vid=1b645a24-5761-4f58-b914-5b862d09cc22","ios":"levelo://app?vid=1b645a24-5761-4f58-b914-5b862d09cc22"},"vehicle_type_id":"4","last_reported":1718910416,"current_range_meters":26400,"station_id":"ce4bhap2rcd13ifvqek0","pricing_plan_id":"cebpf4jnsgd1na2vs0mg"},{"bike_id":"a39a7e51-84fc-405b-8f22-6a9ee13e69df","system_id":"levelo_inurba_marseille","lat":43.289184,"lon":5.366408,"is_reserved":false,"is_disabled":false,"rental_uris":{"android":"levelo://app?vid=a39a7e51-84fc-405b-8f22-6a9ee13e69df","ios":"levelo://app?vid=a39a7e51-84fc-405b-8f22-6a9ee13e69df"},"vehicle_type_id":"4","last_reported":1718910416,"current_range_meters":30400,"station_id":"ce4bhap2rcd13ifvqek0","pricing_plan_id":"cebpf4jnsgd1na2vs0mg"},{"bike_id":"519700bc-6fb3-4eb9-9100-8b25257df8a7","system_id":"levelo_inurba_marseille","lat":43.289468,"lon":5.363719,"is_reserved":false,"is_disabled":false,"rental_uris":{"android":"levelo://app?vid=519700bc-6fb3-4eb9-9100-8b25257df8a7","ios":"levelo://app?vid=519700bc-6fb3-4eb9-9100-8b25257df8a7"},"vehicle_type_id":"4","last_reported":1718910416,"current_range_meters":14800,"station_id":"ce4bhc92rcd13ifvqetg","pricing_plan_id":"cebpf4jnsgd1na2vs0mg"},{"bike_id":"5042770f-6a8d-4063-9e0b-5f97e5b3fd73","system_id":"levelo_inurba_marseille","lat":43.29026,"lon":5.35741,"is_reserved":false,"is_disabled":false,"rental_uris":{"android":"levelo://app?vid=5042770f-6a8d-4063-9e0b-5f97e5b3fd73","ios":"levelo://app?vid=5042770f-6a8d-4063-9e0b-5f97e5b3fd73"},"vehicle_type_id":"4","last_reported":1718910416,"current_range_meters":8800,"station_id":"ce4bhb92rcd13ifvqen0","pricing_plan_id":"cebpf4jnsgd1na2vs0mg"},{"bike_id":"a4aa734d-92cc-4773-b5c8-8e9941b1d738","system_id":"levelo_inurba_marseille","lat":43.289468,"lon":5.363719,"is_reserved":false,"is_disabled":false,"rental_uris":{"android":"levelo://app?vid=a4aa734d-92cc-4773-b5c8-8e9941b1d738","ios":"levelo://app?vid=a4aa734d-92cc-4773-b5c8-8e9941b1d738"},"vehicle_type_id":"4","last_reported":1718910416,"current_range_meters":27200,"station_id":"ce4bhc92rcd13ifvqetg","pricing_plan_id":"cebpf4jnsgd1na2vs0mg"},{"bike_id":"1c1002f7-8d5e-475f-b2cf-d7b865d0caf1","system_id":"levelo_inurba_marseille","lat":43.29274,"lon":5.38443,"is_reserved":false,"is_disabled":false,"rental_uris":{"android":"levelo://app?vid=1c1002f7-8d5e-475f-b2cf-d7b865d0caf1","ios":"levelo://app?vid=1c1002f7-8d5e-475f-b2cf-d7b865d0caf1"},"vehicle_type_id":"4","last_reported":1718910416,"current_range_meters":24800,"station_id":"ce4bh692rcd13ifvqea0","pricing_plan_id":"cebpf4jnsgd1na2vs0mg"},{"bike_id":"8ed61d99-bc59-4ea0-95bb-63e04ca94fe2","system_id":"levelo_inurba_marseille","lat":43.292644,"lon":5.384257,"is_reserved":false,"is_disabled":false,"rental_uris":{"android":"levelo://app?vid=8ed61d99-bc59-4ea0-95bb-63e04ca94fe2","ios":"levelo://app?vid=8ed61d99-bc59-4ea0-95bb-63e04ca94fe2"},"vehicle_type_id":"4","last_reported":1718910416,"current_range_meters":11600,"station_id":"ce4bh692rcd13ifvqea0","pricing_plan_id":"cebpf4jnsgd1na2vs0mg"},{"bike_id":"9052e9f9-65cd-4193-b74d-531712209af1","system_id":"levelo_inurba_marseille","lat":43.304296,"lon":5.397513,"is_reserved":false,"is_disabled":false,"rental_uris":{"android":"levelo://app?vid=9052e9f9-65cd-4193-b74d-531712209af1","ios":"levelo://app?vid=9052e9f9-65cd-4193-b74d-531712209af1"},"vehicle_type_id":"4","last_reported":1718910416,"current_range_meters":24400,"station_id":"ce4bh092rcd13ifvqd20","pricing_plan_id":"cebpf4jnsgd1na2vs0mg"},{"bike_id":"209bdd6d-e559-48c4-b478-ce7b495645cc","system_id":"levelo_inurba_marseille","lat":43.304296,"lon":5.397513,"is_reserved":false,"is_disabled":false,"rental_uris":{"android":"levelo://app?vid=209bdd6d-e559-48c4-b478-ce7b495645cc","ios":"levelo://app?vid=209bdd6d-e559-48c4-b478-ce7b495645cc"},"vehicle_type_id":"4","last_reported":1718910416,"current_range_meters":400,"station_id":"ce4bh092rcd13ifvqd20","pricing_plan_id":"cebpf4jnsgd1na2vs0mg"},{"bike_id":"77992b8e-ff84-4b20-9ae9-5ab5ce467df3","system_id":"levelo_inurba_marseille","lat":43.29267,"lon":5.38441,"is_reserved":false,"is_disabled":false,"rental_uris":{"android":"levelo://app?vid=77992b8e-ff84-4b20-9ae9-5ab5ce467df3","ios":"levelo://app?vid=77992b8e-ff84-4b20-9ae9-5ab5ce467df3"},"vehicle_type_id":"4","last_reported":1718910416,"current_range_meters":26000,"station_id":"ce4bh692rcd13ifvqea0","pricing_plan_id":"cebpf4jnsgd1na2vs0mg"},{"bike_id":"2875563f-dfad-44ec-ab69-f40b7a0b3a63","system_id":"levelo_inurba_marseille","lat":43.29266,"lon":5.384427,"is_reserved":false,"is_disabled":false,"rental_uris":{"android":"levelo://app?vid=2875563f-dfad-44ec-ab69-f40b7a0b3a63","ios":"levelo://app?vid=2875563f-dfad-44ec-ab69-f40b7a0b3a63"},"vehicle_type_id":"4","last_reported":1718910416,"current_range_meters":30800,"station_id":"ce4bh692rcd13ifvqea0","pricing_plan_id":"cebpf4jnsgd1na2vs0mg"},{"bike_id":"b44ba2fa-de6d-478a-81ea-4135ea8a4c72","system_id":"levelo_inurba_marseille","lat":43.29265,"lon":5.38442,"is_reserved":false,"is_disabled":false,"rental_uris":{"android":"levelo://app?vid=b44ba2fa-de6d-478a-81ea-4135ea8a4c72","ios":"levelo://app?vid=b44ba2fa-de6d-478a-81ea-4135ea8a4c72"},"vehicle_type_id":"4","last_reported":1718910416,"current_range_meters":31200,"station_id":"ce4bh692rcd13ifvqea0","pricing_plan_id":"cebpf4jnsgd1na2vs0mg"},{"bike_id":"305bb79b-922b-4f13-8478-713ca5a074e4","system_id":"levelo_inurba_marseille","lat":43.29265,"lon":5.38446,"is_reserved":false,"is_disabled":false,"rental_uris":{"android":"levelo://app?vid=305bb79b-922b-4f13-8478-713ca5a074e4","ios":"levelo://app?vid=305bb79b-922b-4f13-8478-713ca5a074e4"},"vehicle_type_id":"4","last_reported":1718910416,"current_range_meters":30000,"station_id":"ce4bh692rcd13ifvqea0","pricing_plan_id":"cebpf4jnsgd1na2vs0mg"},{"bike_id":"e096ab0d-dfc8-4827-a05d-d32c21512fcb","system_id":"levelo_inurba_marseille","lat":43.292644,"lon":5.384257,"is_reserved":false,"is_disabled":false,"rental_uris":{"android":"levelo://app?vid=e096ab0d-dfc8-4827-a05d-d32c21512fcb","ios":"levelo://app?vid=e096ab0d-dfc8-4827-a05d-d32c21512fcb"},"vehicle_type_id":"4","last_reported":1718910416,"current_range_meters":18000,"station_id":"ce4bh692rcd13ifvqea0","pricing_plan_id":"cebpf4jnsgd1na2vs0mg"},{"bike_id":"be3c60ed-0e5f-45e4-95a1-8eb622c04f66","system_id":"levelo_inurba_marseille","lat":43.29263,"lon":5.3845,"is_reserved":false,"is_disabled":false,"rental_uris":{"android":"levelo://app?vid=be3c60ed-0e5f-45e4-95a1-8eb622c04f66","ios":"levelo://app?vid=be3c60ed-0e5f-45e4-95a1-8eb622c04f66"},"vehicle_type_id":"4","last_reported":1718910416,"current_range_meters":25600,"station_id":"ce4bh692rcd13ifvqea0","pricing_plan_id":"cebpf4jnsgd1na2vs0mg"},{"bike_id":"bcc62547-2759-4bd8-9acd-b9b5bcce1fd6","system_id":"levelo_inurba_marseille","lat":43.292611,"lon":5.384507,"is_reserved":false,"is_disabled":false,"rental_uris":{"android":"levelo://app?vid=bcc62547-2759-4bd8-9acd-b9b5bcce1fd6","ios":"levelo://app?vid=bcc62547-2759-4bd8-9acd-b9b5bcce1fd6"},"vehicle_type_id":"4","last_reported":1718910416,"current_range_meters":31600,"station_id":"ce4bh692rcd13ifvqea0","pricing_plan_id":"cebpf4jnsgd1na2vs0mg"},{"bike_id":"a230b850-33c2-443f-a004-c17b1c58d6b1","system_id":"levelo_inurba_marseille","lat":43.292596,"lon":5.384477,"is_reserved":false,"is_disabled":false,"rental_uris":{"android":"levelo://app?vid=a230b850-33c2-443f-a004-c17b1c58d6b1","ios":"levelo://app?vid=a230b850-33c2-443f-a004-c17b1c58d6b1"},"vehicle_type_id":"4","last_reported":1718910416,"current_range_meters":31200,"station_id":"ce4bh692rcd13ifvqea0","pricing_plan_id":"cebpf4jnsgd1na2vs0mg"},{"bike_id":"9e92fb32-a45f-4095-a6f4-f90374db1ff4","system_id":"levelo_inurba_marseille","lat":43.292642,"lon":5.384254,"is_reserved":false,"is_disabled":false,"rental_uris":{"android":"levelo://app?vid=9e92fb32-a45f-4095-a6f4-f90374db1ff4","ios":"levelo://app?vid=9e92fb32-a45f-4095-a6f4-f90374db1ff4"},"vehicle_type_id":"4","last_reported":1718910416,"current_range_meters":12400,"station_id":"ce4bh692rcd13ifvqea0","pricing_plan_id":"cebpf4jnsgd1na2vs0mg"},{"bike_id":"aa3e1790-77c5-4af3-a2f8-d3669b5f5dfa","system_id":"levelo_inurba_marseille","lat":43.29257,"lon":5.38454,"is_reserved":false,"is_disabled":false,"rental_uris":{"android":"levelo://app?vid=aa3e1790-77c5-4af3-a2f8-d3669b5f5dfa","ios":"levelo://app?vid=aa3e1790-77c5-4af3-a2f8-d3669b5f5dfa"},"vehicle_type_id":"4","last_reported":1718910416,"current_range_meters":14800,"station_id":"ce4bh692rcd13ifvqea0","pricing_plan_id":"cebpf4jnsgd1na2vs0mg"},{"bike_id":"a66c22b0-09e7-4f22-9b49-6bfe46e13d44","system_id":"levelo_inurba_marseille","lat":43.290995,"lon":5.381361,"is_reserved":false,"is_disabled":false,"rental_uris":{"android":"levelo://app?vid=a66c22b0-09e7-4f22-9b49-6bfe46e13d44","ios":"levelo://app?vid=a66c22b0-09e7-4f22-9b49-6bfe46e13d44"},"vehicle_type_id":"4","last_reported":1718910416,"current_range_meters":25200,"station_id":"ce4bh512rcd13ifvqe2g","pricing_plan_id":"cebpf4jnsgd1na2vs0mg"},