{"last_updated":1748628881,"ttl":60,"version":"2.2","data":{"bikes":[{"bike_id":"55d42eeb-6b71-4987-a0f2-3d758b10d43e","system_id":"levelo_inurba_marseille","lat":43.33771,"lon":5.37424,"is_reserved":false,"is_disabled":true,"rental_uris":{"android":"levelo://app?vid=55d42eeb-6b71-4987-a0f2-3d758b10d43e","ios":"levelo://app?vid=55d42eeb-6b71-4987-a0f2-3d758b10d43e"},"vehicle_type_id":"4","last_reported":1748628882,"current_range_meters":0,"station_id":"","pricing_plan_id":"cebpf4jnsgd1na2vs0mg"},{"bike_id":"b7fe4621-b706-42f0-9085-4811142f84e8","system_id":"levelo_inurba_marseille","lat":43.337499,"lon":5.374469,"is_reserved":false,"is_disabled":true,"rental_uris":{"android":"levelo://app?vid=b7fe4621-b706-42f0-9085-4811142f84e8","ios":"levelo://app?vid=b7fe4621-b706-42f0-9085-4811142f84e8"},"vehicle_type_id":"4","last_reported":1748628882,"current_range_meters":0,"station_id":"","pricing_plan_id":"cebpf4jnsgd1na2vs0mg"},{"bike_id":"9a189ee8-27ed-444b-b171-f705371af28f","system_id":"levelo_inurba_marseille","lat":43.2826,"lon":5.349,"is_reserved":false,"is_disabled":true,"rental_uris":{"android":"levelo://app?vid=9a189ee8-27ed-444b-b171-f705371af28f","ios":"levelo://app?vid=9a189ee8-27ed-444b-b171-f705371af28f"},"vehicle_type_id":"4","last_reported":1748628882,"current_range_meters":0,"station_id":"","pricing_plan_id":"cebpf4jnsgd1na2vs0mg"},{"bike_id":"ad402f0f-3192-410c-afac-8cf064a40c6d","system_id":"levelo_inurba_marseille","lat":43.337444,"lon":5.374475,"is_reserved":false,"is_disabled":true,"rental_uris":{"android":"levelo://app?vid=ad402f0f-3192-410c-afac-8cf064a40c6d","ios":"levelo://app?vid=ad402f0f-3192-410c-afac-8cf064a40c6d"},"vehicle_type_id":"4","last_reported":1748628882,"current_range_meters":0,"station_id":"","pricing_plan_id":"cebpf4jnsgd1na2vs0mg"},{"bike_id":"d90baf97-e6b3-4c48-bcd2-63bc44243da4","system_id":"levelo_inurba_marseille","lat":43.216578,"lon":5.342949,"is_reserved":false,"is_disabled":true,"rental_uris":{"android":"levelo://app?vid=d90baf97-e6b3-4c48-bcd2-63bc44243da4","ios":"levelo://app?vid=d90baf97-e6b3-4c48-bcd2-63bc44243da4"},"vehicle_type_id":"4","last_reported":1748628882,"current_range_meters":0,"station_id":"","pricing_plan_id":"cebpf4jnsgd1na2vs0mg"},{"bike_id":"e8d8ddad-17f0-4297-b743-7c17818146e6","system_id":"levelo_inurba_marseille","lat":43.28225,"lon":5.42948,"is_reserved":false,"is_disabled":true,"rental_uris":{"android":"levelo://app?vid=e8d8ddad-17f0-4297-b743-7c17818146e6","ios":"levelo://app?vid=e8d8ddad-17f0-4297-b743-7c17818146e6"},"vehicle_type_id":"4","last_reported":1748628882,"current_range_meters":0,"station_id":"","pricing_plan_id":"cebpf4jnsgd1na2vs0mg"},{"bike_id":"1982defd-166d-4255-89b9-40e6a677a3ca","system_id":"levelo_inurba_marseille","lat":43.26556,"lon":5.40317,"is_reserved":false,"is_disabled":true,"rental_uris":{"android":"levelo://app?vid=1982defd-166d-4255-89b9-40e6a677a3ca","ios":"levelo://app?vid=1982defd-166d-4255-89b9-40e6a677a3ca"},"vehicle_type_id":"4","last_reported":1748628882,"current_range_meters":0,"station_id":"","pricing_plan_id":"cebpf4jnsgd1na2vs0mg"},{"bike_id":"80dc1064-d63f-4a22-ad21-d8abd70986c0","system_id":"levelo_inurba_marseille","lat":43.33811,"lon":5.37503,"is_reserved":false,"is_disabled":true,"rental_uris":{"android":"levelo://app?vid=80dc1064-d63f-4a22-ad21-d8abd70986c0","ios":"levelo://app?vid=80dc1064-d63f-4a22-ad21-d8abd70986c0"},"vehicle_type_id":"4","last_reported":1748628882,"current_range_meters":0,"station_id":"","pricing_plan_id":"cebpf4jnsgd1na2vs0mg"},{"bike_id":"fcbedf31-ab26-42ed-9a7e-5f9e97aa9a93","system_id":"levelo_inurba_marseille","lat":43.29581,"lon":5.38258,"is_reserved":false,"is_disabled":true,"rental_uris":{"android":"levelo://app?vid=fcbedf31-ab26-42ed-9a7e-5f9e97aa9a93","ios":"levelo://app?vid=fcbedf31-ab26-42ed-9a7e-5f9e97aa9a93"},"vehicle_type_id":"4","last_reported":1748628882,"current_range_meters":0,"station_id":"","pricing_plan_id":"cebpf4jnsgd1na2vs0mg"},{"bike_id":"e85986f7-78ee-45ca-a51c-ad41979e478c","system_id":"levelo_inurba_marseille","lat":43.295166,"lon":5.375107,"is_reserved":false,"is_disabled":true,"rental_uris":{"android":"levelo://app?vid=e85986f7-78ee-45ca-a51c-ad41979e478c","ios":"levelo://app?vid=e85986f7-78ee-45ca-a51c-ad41979e478c"},"vehicle_type_id":"4","last_reported":1748628882,"current_range_meters":0,"station_id":"","pricing_plan_id":"cebpf4jnsgd1na2vs0mg"},{"bike_id":"74c1e076-13a8-4361-a537-f1cad05da938","system_id":"levelo_inurba_marseille","lat":43.23894,"lon":5.36258,"is_reserved":false,"is_disabled":true,"rental_uris":{"android":"levelo://app?vid=74c1e076-13a8-4361-a537-f1cad05da938","ios":"levelo://app?vid=74c1e076-13a8-4361-a537-f1cad05da938"},"vehicle_type_id":"4","last_reported":1748628882,"current_range_meters":0,"station_id":"","pricing_plan_id":"cebpf4jnsgd1na2vs0mg"},{"bike_id":"e4c29532-f07a-4102-b0ae-61730aa1af99","system_id":"levelo_inurba_marseille","lat":43.30794,"lon":5.37197,"is_reserved":false,"is_disabled":true,"rental_uris":{"android":"levelo://app?vid=e4c29532-f07a-4102-b0ae-61730aa1af99","ios":"levelo://app?vid=e4c29532-f07a-4102-b0ae-61730aa1af99"},"vehicle_type_id":"4","last_reported":1748628882,"current_range_meters":0,"station_id":"","pricing_plan_id":"cebpf4jnsgd1na2vs0mg"},{"bike_id":"6d84dc06-ecdd-4bc5-860c-164f81fb4bf9","system_id":"levelo_inurba_marseille","lat":43.282678,"lon":5.350661,"is_reserved":false,"is_disabled":true,"rental_uris":{"android":"levelo://app?vid=6d84dc06-ecdd-4bc5-860c-164f81fb4bf9","ios":"levelo://app?vid=6d84dc06-ecdd-4bc5-860c-164f81fb4bf9"},"vehicle_type_id":"4","last_reported":1748628882,"current_range_meters":0,"station_id":"","pricing_plan_id":"cebpf4jnsgd1na2vs0mg"},{"bike_id":"91396ea3-59c1-406c-a212-96c3d0028218","system_id":"levelo_inurba_marseille","lat":43.3088,"lon":5.39609,"is_reserved":false,"is_disabled":true,"rental_uris":{"android":"levelo://app?vid=91396ea3-59c1-406c-a212-96c3d0028218","ios":"levelo://app?vid=91396ea3-59c1-406c-a212-96c3d0028218"},"vehicle_type_id":"4","last_reported":1748628882,"current_range_meters":0,"station_id":"ce4bh012rcd13ifvqcv0","pricing_plan_id":"cebpf4jnsgd1na2vs0mg"},{"bike_id":"40523e5d-e1e0-4e63-918e-dd56cc3d71ea","system_id":"levelo_inurba_marseille","lat":43.2883,"lon":5.35854,"is_reserved":false,"is_disabled":true,"rental_uris":{"android":"levelo://app?vid=40523e5d-e1e0-4e63-918e-dd56cc3d71ea","ios":"levelo://app?vid=40523e5d-e1e0-4e63-918e-dd56cc3d71ea"},"vehicle_type_id":"4","last_reported":1748628882,"current_range_meters":0,"station_id":"ce4bhb12rcd13ifvqem0","pricing_plan_id":"cebpf4jnsgd1na2vs0mg"},{"bike_id":"491caa9a-6c28-485e-b2b7-e758a7da4bf8","system_id":"levelo_inurba_marseille","lat":43.29002,"lon":5.3561,"is_reserved":false,"is_disabled":true,"rental_uris":{"android":"levelo://app?vid=491caa9a-6c28-485e-b2b7-e758a7da4bf8","ios":"levelo://app?vid=491caa9a-6c28-485e-b2b7-e758a7da4bf8"},"vehicle_type_id":"4","last_reported":1748628882,"current_range_meters":0,"station_id":"ce4bhb92rcd13ifvqen0","pricing_plan_id":"cebpf4jnsgd1na2vs0mg"},{"bike_id":"75d32046-a7cd-4c4e-b128-60a65782b7cc","system_id":"levelo_inurba_marseille","lat":43.24807,"lon":5.37469,"is_reserved":false,"is_disabled":true,"rental_uris":{"android":"levelo://app?vid=75d32046-a7cd-4c4e-b128-60a65782b7cc","ios":"levelo://app?vid=75d32046-a7cd-4c4e-b128-60a65782b7cc"},"vehicle_type_id":"4","last_reported":1748628882,"current_range_meters":0,"station_id":"ce4bhgh2rcd13ifvqfb0","pricing_plan_id":"cebpf4jnsgd1na2vs0mg"},{"bike_id":"8a018e2d-69d1-4d0b-851b-ed68f17c7c54","system_id":"levelo_inurba_marseille","lat":43.26213,"lon":5.37439,"is_reserved":false,"is_disabled":true,"rental_uris":{"android":"levelo://app?vid=8a018e2d-69d1-4d0b-851b-ed68f17c7c54","ios":"levelo://app?vid=8a018e2d-69d1-4d0b-851b-ed68f17c7c54"},"vehicle_type_id":"4","last_reported":1748628882,"current_range_meters":0,"station_id":"ce4bhgp2rcd13ifvqfc0","pricing_plan_id":"cebpf4jnsgd1na2vs0mg"},{"bike_id":"fbf34f0f-f9e0-451c-821d-85a5c5e8b87a","system_id":"levelo_inurba_marseille","lat":43.26214,"lon":5.37443,"is_reserved":false,"is_disabled":true,"rental_uris":{"android":"levelo://app?vid=fbf34f0f-f9e0-451c-821d-85a5c5e8b87a","ios":"levelo://app?vid=fbf34f0f-f9e0-451c-821d-85a5c5e8b87a"},"vehicle_type_id":"4","last_reported":1748628882,"current_range_meters":0,"station_id":"ce4bhgp2rcd13ifvqfc0","pricing_plan_id":"cebpf4jnsgd1na2vs0mg"},{"bike_id":"5c6a6cd9-6d2b-45ce-a8e9-37b27e7ed0b2","system_id":"levelo_inurba_marseille","lat":43.25001,"lon":5.38937,"is_reserved":false,"is_disabled":true,"rental_uris":{"android":"levelo://app?vid=5c6a6cd9-6d2b-45ce-a8e9-37b27e7ed0b2","ios":"levelo://app?vid=5c6a6cd9-6d2b-45ce-a8e9-37b27e7ed0b2"},"vehicle_type_id":"4","last_reported":1748628882,"current_range_meters":0,"station_id":"ce4bhgp2rcd13ifvqfd0","pricing_plan_id":"cebpf4jnsgd1na2vs0mg"},{"bike_id":"002b8bf1-9979-4986-99ce-9a91e4c67fd2","system_id":"levelo_inurba_marseille","lat":43.255034,"lon":5.376489,"is_reserved":false,"is_disabled":true,"rental_uris":{"android":"levelo://app?vid=002b8bf1-9979-4986-99ce-9a91e4c67fd2","ios":"levelo://app?vid=002b8bf1-9979-4986-99ce-9a91e4c67fd2"},"vehicle_type_id":"4","last_reported":1748628882,"current_range_meters":0,"station_id":"ce4bhh12rcd13ifvqff0","pricing_plan_id":"cebpf4jnsgd1na2vs0mg"},{"bike_id":"ff65314b-c6d7-4480-ae07-5fd9dfc89f84","system_id":"levelo_inurba_marseille","lat":43.27079,"lon":5.42271,"is_reserved":false,"is_disabled":true,"rental_uris":{"android":"levelo://app?vid=ff65314b-c6d7-4480-ae07-5fd9dfc89f84","ios":"levelo://app?vid=ff65314b-c6d7-4480-ae07-5fd9dfc89f84"},"vehicle_type_id":"4","last_reported":1748628882,"current_range_meters":0,"station_id":"ce4bhk92rcd13ifvqgb0","pricing_plan_id":"cebpf4jnsgd1na2vs0mg"},{"bike_id":"b1cd69f3-9080-4b81-b7e6-e4c2c9ac50ac","system_id":"levelo_inurba_marseille","lat":43.25717,"lon":5.41108,"is_reserved":false,"is_disabled":true,"rental_uris":{"android":"levelo://app?vid=b1cd69f3-9080-4b81-b7e6-e4c2c9ac50ac","ios":"levelo://app?vid=b1cd69f3-9080-4b81-b7e6-e4c2c9ac50ac"},"vehicle_type_id":"4","last_reported":1748628882,"current_range_meters":0,"station_id":"ce4bhkp2rcd13ifvqgd0","pricing_plan_id":"cebpf4jnsgd1na2vs0mg"},{"bike_id":"b80ee325-09b2-4724-993d-4f8d3707c41c","system_id":"levelo_inurba_marseille","lat":43.25862,"lon":5.39902,"is_reserved":false,"is_disabled":true,"rental_uris":{"android":"levelo://app?vid=b80ee325-09b2-4724-993d-4f8d3707c41c","ios":"levelo://app?vid=b80ee325-09b2-4724-993d-4f8d3707c41c"},"vehicle_type_id":"4","last_reported":1748628882,"current_range_meters":0,"station_id":"ce4bhl92rcd13ifvqghg","pricing_plan_id":"cebpf4jnsgd1na2vs0mg"},{"bike_id":"d15385dd-e601-4661-b726-8b3c4d3a429c","system_id":"levelo_inurba_marseille","lat":43.24183,"lon":5.39719,"is_reserved":false,"is_disabled":true,"rental_uris":{"android":"levelo://app?vid=d15385dd-e601-4661-b726-8b3c4d3a429c","ios":"levelo://app?vid=d15385dd-e601-4661-b726-8b3c4d3a429c"},"vehicle_type_id":"4","last_reported":1748628882,"current_range_meters":0,"station_id":"ce4bhn12rcd13ifvqgpg","pricing_plan_id":"cebpf4jnsgd1na2vs0mg"},{"bike_id":"ab912b4f-94f6-45da-9bc9-0c18561f34cc","system_id":"levelo_inurba_marseille","lat":43.3073,"lon":5.42445,"is_reserved":false,"is_disabled":true,"rental_uris":{"android":"levelo://app?vid=ab912b4f-94f6-45da-9bc9-0c18561f34cc","ios":"levelo://app?vid=ab912b4f-94f6-45da-9bc9-0c18561f34cc"},"vehicle_type_id":"4","last_reported":1748628882,"current_range_meters":0,"station_id":"st_cvj6ca6bvosntc0bfgr0","pricing_plan_id":"cebpf4jnsgd1na2vs0mg"},{"bike_id":"ab9c9983-bf72-44ed-ad75-a96b382dad3c","system_id":"levelo_inurba_marseille","lat":43.21743,"lon":5.34614,"is_reserved":false,"is_disabled":true,"rental_uris":{"android":"levelo://app?vid=ab9c9983-bf72-44ed-ad75-a96b382dad3c","ios":"levelo://app?vid=ab9c9983-bf72-44ed-ad75-a96b382dad3c"},"vehicle_type_id":"4","last_reported":1748628882,"current_range_meters":0,"station_id":"st_cvj6r9ubvosntc0bgbag","pricing_plan_id":"cebpf4jnsgd1na2vs0mg"},{"bike_id":"edcb0dfe-bdaa-4cf7-84cb-f40080951379","system_id":"levelo_inurba_marseille","lat":43.21736,"lon":5.34603,"is_reserved":false,"is_disabled":true,"rental_uris":{"android":"levelo://app?vid=edcb0dfe-bdaa-4cf7-84cb-f40080951379","ios":"levelo://app?vid=edcb0dfe-bdaa-4cf7-84cb-f40080951379"},"vehicle_type_id":"4","last_reported":1748628882,"current_range_meters":0,"station_id":"st_cvj6r9ubvosntc0bgbag","pricing_plan_id":"cebpf4jnsgd1na2vs0mg"},{"bike_id":"9c6f4056-a7a8-44f7-9efe-1649dfc86486","system_id":"levelo_inurba_marseille","lat":43.29912,"lon":5.38146,"is_reserved":false,"is_disabled":true,"rental_uris":{"android":"levelo://app?vid=9c6f4056-a7a8-44f7-9efe-1649dfc86486","ios":"levelo://app?vid=9c6f4056-a7a8-44f7-9efe-1649dfc86486"},"vehicle_type_id":"4","last_reported":1748628882,"current_range_meters":400,"station_id":"ce4bgj12rcd13ifvqbc0","pricing_plan_id":"cebpf4jnsgd1na2vs0mg"},{"bike_id":"47baeec3-afa8-4d71-bd22-39fc95d5cec8","system_id":"levelo_inurba_marseille","lat":43.295136,"lon":5.375072,"is_reserved":false,"is_disabled":true,"rental_uris":{"android":"levelo://app?vid=47baeec3-afa8-4d71-bd22-39fc95d5cec8","ios":"levelo://app?vid=47baeec3-afa8-4d71-bd22-39fc95d5cec8"},"vehicle_type_id":"4","last_reported":1748628882,"current_range_meters":400,"station_id":"ce4bgkp2rcd13ifvqbmg","pricing_plan_id":"cebpf4jnsgd1na2vs0mg"},{"bike_id":"c14759a8-f5d2-4212-ab8e-4e4cf78d620e","system_id":"levelo_inurba_marseille","lat":43.239503,"lon":5.366616,"is_reserved":false,"is_disabled":true,"rental_uris":{"android":"levelo://app?vid=c14759a8-f5d2-4212-ab8e-4e4cf78d620e","ios":"levelo://app?vid=c14759a8-f5d2-4212-ab8e-4e4cf78d620e"},"vehicle_type_id":"4","last_reported":1748628882,"current_range_meters":400,"station_id":"ce4bhi12rcd13ifvqfp0","pricing_plan_id":"cebpf4jnsgd1na2vs0mg"},{"bike_id":"8dcf7ebc-3f2c-4fb4-b020-240c23a4bdf8","system_id":"levelo_inurba_marseille","lat":43.25109,"lon":5.40322,"is_reserved":false,"is_disabled":true,"rental_uris":{"android":"levelo://app?vid=8dcf7ebc-3f2c-4fb4-b020-240c23a4bdf8","ios":"levelo://app?vid=8dcf7ebc-3f2c-4fb4-b020-240c23a4bdf8"},"vehicle_type_id":"4","last_reported":1748628882,"current_range_meters":400,"station_id":"ce4bhlh2rcd13ifvqgig","pricing_plan_id":"cebpf4jnsgd1na2vs0mg"},{"bike_id":"d28a9d54-04cd-4e7c-8287-9e44466043be","system_id":"levelo_inurba_marseille","lat":43.30948,"lon":5.39028,"is_reserved":false,"is_disabled":true,"rental_uris":{"android":"levelo://app?vid=d28a9d54-04cd-4e7c-8287-9e44466043be","ios":"levelo://app?vid=d28a9d54-04cd-4e7c-8287-9e44466043be"},"vehicle_type_id":"4","last_reported":1748628882,"current_range_meters":800,"station_id":"ce4bgup2rcd13ifvqco0","pricing_plan_id":"cebpf4jnsgd1na2vs0mg"},{"bike_id":"118b6cc7-56c7-4779-9078-c6b36a92aa1d","system_id":"levelo_inurba_marseille","lat":43.28357,"lon":5.38642,"is_reserved":false,"is_disabled":true,"rental_uris":{"android":"levelo://app?vid=118b6cc7-56c7-4779-9078-c6b36a92aa1d","ios":"levelo://app?vid=118b6cc7-56c7-4779-9078-c6b36a92aa1d"},"vehicle_type_id":"4","last_reported":1748628882,"current_range_meters":800,"station_id":"ce4bh492rcd13ifvqdvg","pricing_plan_id":"cebpf4jnsgd1na2vs0mg"},{"bike_id":"a4fc0f00-cc8f-4878-8d8a-462138d32572","system_id":"levelo_inurba_marseille","lat":43.27225,"lon":5.39179,"is_reserved":false,"is_disabled":true,"rental_uris":{"android":"levelo://app?vid=a4fc0f00-cc8f-4878-8d8a-462138d32572","ios":"levelo://app?vid=a4fc0f00-cc8f-4878-8d8a-462138d32572"},"vehicle_type_id":"4","last_reported":1748628882,"current_range_meters":800,"station_id":"ce4bhhp2rcd13ifvqfm0","pricing_plan_id":"cebpf4jnsgd1na2vs0mg"},{"bike_id":"f6cb3cc0-1c66-4001-bd4b-1b366586e45d","system_id":"levelo_inurba_marseille","lat":43.27069,"lon":5.40249,"is_reserved":false,"is_disabled":true,"rental_uris":{"android":"levelo://app?vid=f6cb3cc0-1c66-4001-bd4b-1b366586e45d","ios":"levelo://app?vid=f6cb3cc0-1c66-4001-bd4b-1b366586e45d"},"vehicle_type_id":"4","last_reported":1748628882,"current_range_meters":800,"station_id":"ce4bhk92rcd13ifvqgc0","pricing_plan_id":"cebpf4jnsgd1na2vs0mg"},{"bike_id":"7cc63e9d-878c-4099-b74a-7194fd7fb94f","system_id":"levelo_inurba_marseille","lat":43.25078,"lon":5.39522,"is_reserved":false,"is_disabled":true,"rental_uris":{"android":"levelo://app?vid=7cc63e9d-878c-4099-b74a-7194fd7fb94f","ios":"levelo://app?vid=7cc63e9d-878c-4099-b74a-7194fd7fb94f"},"vehicle_type_id":"4","last_reported":1748628882,"current_range_meters":800,"station_id":"ce4bhm12rcd13ifvqgkg","pricing_plan_id":"cebpf4jnsgd1na2vs0mg"},{"bike_id":"773c1455-d022-4f8e-8c6e-cf957b22d221","system_id":"levelo_inurba_marseille","lat":43.2177,"lon":5.34609,"is_reserved":false,"is_disabled":true,"rental_uris":{"android":"levelo://app?vid=773c1455-d022-4f8e-8c6e-cf957b22d221","ios":"levelo://app?vid=773c1455-d022-4f8e-8c6e-cf957b22d221"},"vehicle_type_id":"4","last_reported":1748628882,"current_range_meters":800,"station_id":"st_cvj6r9ubvosntc0bgbag","pricing_plan_id":"cebpf4jnsgd1na2vs0mg"},{"bike_id":"24204c04-5d8c-4ac1-bc38-3e364dee5b7a","system_id":"levelo_inurba_marseille","lat":43.30246,"lon":5.41311,"is_reserved":false,"is_disabled":true,"rental_uris":{"android":"levelo://app?vid=24204c04-5d8c-4ac1-bc38-3e364dee5b7a","ios":"levelo://app?vid=24204c04-5d8c-4ac1-bc38-3e364dee5b7a"},"vehicle_type_id":"4","last_reported":1748628882,"current_range_meters":1200,"station_id":"","pricing_plan_id":"cebpf4jnsgd1na2vs0mg"},{"bike_id":"db111e29-c7bc-419e-9b00-20231fbec330","system_id":"levelo_inurba_marseille","lat":43.21787,"lon":5.34661,"is_reserved":false,"is_disabled":true,"rental_uris":{"android":"levelo://app?vid=db111e29-c7bc-419e-9b00-20231fbec330","ios":"levelo://app?vid=db111e29-c7bc-419e-9b00-20231fbec330"},"vehicle_type_id":"4","last_reported":1748628882,"current_range_meters":1200,"station_id":"","pricing_plan_id":"cebpf4jnsgd1na2vs0mg"},{"bike_id":"77e04ab8-b44f-40dc-908e-e5838eb58075","system_id":"levelo_inurba_marseille","lat":43.23551,"lon":5.36021,"is_reserved":false,"is_disabled":true,"rental_uris":{"android":"levelo://app?vid=77e04ab8-b44f-40dc-908e-e5838eb58075","ios":"levelo://app?vid=77e04ab8-b44f-40dc-908e-e5838eb58075"},"vehicle_type_id":"4","last_reported":1748628882,"current_range_meters":1200,"station_id":"","pricing_plan_id":"cebpf4jnsgd1na2vs0mg"},{"bike_id":"c9882f9f-e5b6-469f-b83b-d4f6323dad3f","system_id":"levelo_inurba_marseille","lat":43.30643,"lon":5.40104,"is_reserved":false,"is_disabled":true,"rental_uris":{"android":"levelo://app?vid=c9882f9f-e5b6-469f-b83b-d4f6323dad3f","ios":"levelo://app?vid=c9882f9f-e5b6-469f-b83b-d4f6323dad3f"},"vehicle_type_id":"4","last_reported":1748628882,"current_range_meters":1200,"station_id":"ce4bh112rcd13ifvqda0","pricing_plan_id":"cebpf4jnsgd1na2vs0mg"},{"bike_id":"80667655-1bda-449d-a22e-c7b28b476232","system_id":"levelo_inurba_marseille","lat":43.283508,"lon":5.381032,"is_reserved":false,"is_disabled":true,"rental_uris":{"android":"levelo://app?vid=80667655-1bda-449d-a22e-c7b28b476232","ios":"levelo://app?vid=80667655-1bda-449d-a22e-c7b28b476232"},"vehicle_type_id":"4","last_reported":1748628882,"current_range_meters":1200,"station_id":"ce4bh412rcd13ifvqdr0","pricing_plan_id":"cebpf4jnsgd1na2vs0mg"},{"bike_id":"a4fcc583-7596-4ca2-a0e3-9b3c0ddbc144","system_id":"levelo_inurba_marseille","lat":43.292146,"lon":5.35897,"is_reserved":false,"is_disabled":true,"rental_uris":{"android":"levelo://app?vid=a4fcc583-7596-4ca2-a0e3-9b3c0ddbc144","ios":"levelo://app?vid=a4fcc583-7596-4ca2-a0e3-9b3c0ddbc144"},"vehicle_type_id":"4","last_reported":1748628882,"current_range_meters":1200,"station_id":"ce4bhb12rcd13ifvqel0","pricing_plan_id":"cebpf4jnsgd1na2vs0mg"},{"bike_id":"13ca879c-f148-4461-978a-ef34db67035e","system_id":"levelo_inurba_marseille","lat":43.25117,"lon":5.40327,"is_reserved":false,"is_disabled":true,"rental_uris":{"android":"levelo://app?vid=13ca879c-f148-4461-978a-ef34db67035e","ios":"levelo://app?vid=13ca879c-f148-4461-978a-ef34db67035e"},"vehicle_type_id":"4","last_reported":1748628882,"current_range_meters":1200,"station_id":"ce4bhlh2rcd13ifvqgig","pricing_plan_id":"cebpf4jnsgd1na2vs0mg"},{"bike_id":"9d2d75de-6f79-4c98-a794-66bda20110b0","system_id":"levelo_inurba_marseille","lat":43.230623,"lon":5.354934,"is_reserved":false,"is_disabled":true,"rental_uris":{"android":"levelo://app?vid=9d2d75de-6f79-4c98-a794-66bda20110b0","ios":"levelo://app?vid=9d2d75de-6f79-4c98-a794-66bda20110b0"},"vehicle_type_id":"4","last_reported":1748628882,"current_range_meters":1200,"station_id":"cpo3342slgdg3j2ifvpg","pricing_plan_id":"cebpf4jnsgd1na2vs0mg"},{"bike_id":"8b5d33f8-a3c5-47ae-a1ac-c1c145627af5","system_id":"levelo_inurba_marseille","lat":43.2293,"lon":5.35379,"is_reserved":false,"is_disabled":true,"rental_uris":{"android":"levelo://app?vid=8b5d33f8-a3c5-47ae-a1ac-c1c145627af5","ios":"levelo://app?vid=8b5d33f8-a3c5-47ae-a1ac-c1c145627af5"},"vehicle_type_id":"4","last_reported":1748628882,"current_range_meters":1200,"station_id":"cpo3532slgdg3j2ikp40","pricing_plan_id":"cebpf4jnsgd1na2vs0mg"},{"bike_id":"d456397f-07c2-4450-80f7-2eb303ca0da8","system_id":"levelo_inurba_marseille","lat":43.30436,"lon":5.38883,"is_reserved":false,"is_disabled":true,"rental_uris":{"android":"levelo://app?vid=d456397f-07c2-4450-80f7-2eb303ca0da8","ios":"levelo://app?vid=d456397f-07c2-4450-80f7-2eb303ca0da8"},"vehicle_type_id":"4","last_reported":1748628882,"current_range_meters":1600,"station_id":"ce4bgk12rcd13ifvqbi0","pricing_plan_id":"cebpf4jnsgd1na2vs0mg"},{"bike_id":"7856cc33-85c7-4853-99e8-3eb49bbeec3a","system_id":"levelo_inurba_marseille","lat":43.30654,"lon":5.40096,"is_reserved":false,"is_disabled":true,"rental_uris":{"android":"levelo://app?vid=7856cc33-85c7-4853-99e8-3eb49bbeec3a","ios":"levelo://app?vid=7856cc33-85c7-4853-99e8-3eb49bbeec3a"},"vehicle_type_id":"4","last_reported":1748628882,"current_range_meters":1600,"station_id":"ce4bh112rcd13ifvqda0","pricing_plan_id":"cebpf4jnsgd1na2vs0mg"},{"bike_id":"f8a2967e-210a-4696-beb6-5fc49d941171","system_id":"levelo_inurba_marseille","lat":43.284116,"lon":5.375114,"is_reserved":false,"is_disabled":true,"rental_uris":{"android":"levelo://app?vid=f8a2967e-210a-4696-beb6-5fc49d941171","ios":"levelo://app?vid=f8a2967e-210a-4696-beb6-5fc49d941171"},"vehicle_type_id":"4","last_reported":1748628882,"current_range_meters":1600,"station_id":"ce4bh412rcd13ifvqds0","pricing_plan_id":"cebpf4jnsgd1na2vs0mg"},{"bike_id":"d9f1f4d8-b422-476d-8100-627ece5eb5b8","system_id":"levelo_inurba_marseille","lat":43.29283,"lon":5.3684,"is_reserved":false,"is_disabled":true,"rental_uris":{"android":"levelo://app?vid=d9f1f4d8-b422-476d-8100-627ece5eb5b8","ios":"levelo://app?vid=d9f1f4d8-b422-476d-8100-627ece5eb5b8"},"vehicle_type_id":"4","last_reported":1748628882,"current_range_meters":1600,"station_id":"ce4bhbp2rcd13ifvqesg","pricing_plan_id":"cebpf4jnsgd1na2vs0mg"},{"bike_id":"1206d580-3c37-4c5e-801c-b9ad1eff839a","system_id":"levelo_inurba_marseille","lat":43.26678,"lon":5.38266,"is_reserved":false,"is_disabled":true,"rental_uris":{"android":"levelo://app?vid=1206d580-3c37-4c5e-801c-b9ad1eff839a","ios":"levelo://app?vid=1206d580-3c37-4c5e-801c-b9ad1eff839a"},"vehicle_type_id":"4","last_reported":1748628882,"current_range_meters":1600,"station_id":"ce4bhg92rcd13ifvqf90","pricing_plan_id":"cebpf4jnsgd1na2vs0mg"},{"bike_id":"c583cc07-6878-478c-93ba-ee04d045cb45","system_id":"levelo_inurba_marseille","lat":43.26211,"lon":5.37901,"is_reserved":false,"is_disabled":true,"rental_uris":{"android":"levelo://app?vid=c583cc07-6878-478c-93ba-ee04d045cb45","ios":"levelo://app?vid=c583cc07-6878-478c-93ba-ee04d045cb45"},"vehicle_type_id":"4","last_reported":1748628882,"current_range_meters":1600,"station_id":"ce4bhjp2rcd13ifvqg90","pricing_plan_id":"cebpf4jnsgd1na2vs0mg"},{"bike_id":"30d1a0bb-3e2c-4a0d-bfcc-9f1435c3b87a","system_id":"levelo_inurba_marseille","lat":43.28699,"lon":5.39974,"is_reserved":false,"is_disabled":true,"rental_uris":{"android":"levelo://app?vid=30d1a0bb-3e2c-4a0d-bfcc-9f1435c3b87a","ios":"levelo://app?vid=30d1a0bb-3e2c-4a0d-bfcc-9f1435c3b87a"},"vehicle_type_id":"4","last_reported":1748628882,"current_range_meters":1600,"station_id":"ce4bho92rcd13ifvqh3g","pricing_plan_id":"cebpf4jnsgd1na2vs0mg"},{"bike_id":"5278b434-6c84-40e9-b526-dac962bdf780","system_id":"levelo_inurba_marseille","lat":43.234956,"lon":5.360236,"is_reserved":false,"is_disabled":true,"rental_uris":{"android":"levelo://app?vid=5278b434-6c84-40e9-b526-dac962bdf780","ios":"levelo://app?vid=5278b434-6c84-40e9-b526-dac962bdf780"},"vehicle_type_id":"4","last_reported":1748628882,"current_range_meters":2000,"station_id":"","pricing_plan_id":"cebpf4jnsgd1na2vs0mg"},{"bike_id":"660518f4-1847-4b36-8410-9858e20e272f","system_id":"levelo_inurba_marseille","lat":43.26754,"lon":5.389418,"is_reserved":false,"is_disabled":true,"rental_uris":{"android":"levelo://app?vid=660518f4-1847-4b36-8410-9858e20e272f","ios":"levelo://app?vid=660518f4-1847-4b36-8410-9858e20e272f"},"vehicle_type_id":"4","last_reported":1748628882,"current_range_meters":2000,"station_id":"","pricing_plan_id":"cebpf4jnsgd1na2vs0mg"},{"bike_id":"41f65482-ea94-4af0-aba2-0914f4ea70b0","system_id":"levelo_inurba_marseille","lat":43.29006,"lon":5.35608,"is_reserved":false,"is_disabled":true,"rental_uris":{"android":"levelo://app?vid=41f65482-ea94-4af0-aba2-0914f4ea70b0","ios":"levelo://app?vid=41f65482-ea94-4af0-aba2-0914f4ea70b0"},"vehicle_type_id":"4","last_reported":1748628882,"current_range_meters":2000,"station_id":"ce4bhb92rcd13ifvqen0","pricing_plan_id":"cebpf4jnsgd1na2vs0mg"},{"bike_id":"3a3b9538-beeb-4ce9-b7d6-a33359b3ef92","system_id":"levelo_inurba_marseille","lat":43.28418,"lon":5.34977,"is_reserved":false,"is_disabled":true,"rental_uris":{"android":"levelo://app?vid=3a3b9538-beeb-4ce9-b7d6-a33359b3ef92","ios":"levelo://app?vid=3a3b9538-beeb-4ce9-b7d6-a33359b3ef92"},"vehicle_type_id":"4","last_reported":1748628882,"current_range_meters":2000,"station_id":"ce4bhbh2rcd13ifvqepg","pricing_plan_id":"cebpf4jnsgd1na2vs0mg"},{"bike_id":"1346dca2-5b91-4781-b36b-7c29f2b82629","system_id":"levelo_inurba_marseille","lat":43.26218,"lon":5.37437,"is_reserved":false,"is_disabled":true,"rental_uris":{"android":"levelo://app?vid=1346dca2-5b91-4781-b36b-7c29f2b82629","ios":"levelo://app?vid=1346dca2-5b91-4781-b36b-7c29f2b82629"},"vehicle_type_id":"4","last_reported":1748628882,"current_range_meters":2000,"station_id":"ce4bhgp2rcd13ifvqfc0","pricing_plan_id":"cebpf4jnsgd1na2vs0mg"},{"bike_id":"e43c7476-68f1-40ee-a9ca-35be4a8d1ecc","system_id":"levelo_inurba_marseille","lat":43.27235,"lon":5.391573,"is_reserved":false,"is_disabled":true,"rental_uris":{"android":"levelo://app?vid=e43c7476-68f1-40ee-a9ca-35be4a8d1ecc","ios":"levelo://app?vid=e43c7476-68f1-40ee-a9ca-35be4a8d1ecc"},"vehicle_type_id":"4","last_reported":1748628882,"current_range_meters":2000,"station_id":"ce4bhhp2rcd13ifvqfm0","pricing_plan_id":"cebpf4jnsgd1na2vs0mg"},{"bike_id":"9789b009-c539-45d3-9eec-bc1ea62ced00","system_id":"levelo_inurba_marseille","lat":43.27667,"lon":5.38899,"is_reserved":false,"is_disabled":true,"rental_uris":{"android":"levelo://app?vid=9789b009-c539-45d3-9eec-bc1ea62ced00","ios":"levelo://app?vid=9789b009-c539-45d3-9eec-bc1ea62ced00"},"vehicle_type_id":"4","last_reported":1748628882,"current_range_meters":2000,"station_id":"ce4bhi12rcd13ifvqfo0","pricing_plan_id":"cebpf4jnsgd1na2vs0mg"},{"bike_id":"469482cc-0f12-4ca5-925e-34d890f284af","system_id":"levelo_inurba_marseille","lat":43.2509,"lon":5.403,"is_reserved":false,"is_disabled":true,"rental_uris":{"android":"levelo://app?vid=469482cc-0f12-4ca5-925e-34d890f284af","ios":"levelo://app?vid=469482cc-0f12-4ca5-925e-34d890f284af"},"vehicle_type_id":"4","last_reported":1748628882,"current_range_meters":2000,"station_id":"ce4bhlh2rcd13ifvqgig","pricing_plan_id":"cebpf4jnsgd1na2vs0mg"},{"bike_id":"c8371029-f848-406b-9e41-37b50a8274ab","system_id":"levelo_inurba_marseille","lat":43.23147,"lon":5.437165,"is_reserved":false,"is_disabled":true,"rental_uris":{"android":"levelo://app?vid=c8371029-f848-406b-9e41-37b50a8274ab","ios":"levelo://app?vid=c8371029-f848-406b-9e41-37b50a8274ab"},"vehicle_type_id":"4","last_reported":1748628882,"current_range_meters":2000,"station_id":"ce4bhmp2rcd13ifvqgog","pricing_plan_id":"cebpf4jnsgd1na2vs0mg"},{"bike_id":"baa3c0ea-c4ce-4792-9c16-2d4480e4bc2b","system_id":"levelo_inurba_marseille","lat":43.29553,"lon":5.42296,"is_reserved":false,"is_disabled":true,"rental_uris":{"android":"levelo://app?vid=baa3c0ea-c4ce-4792-9c16-2d4480e4bc2b","ios":"levelo://app?vid=baa3c0ea-c4ce-4792-9c16-2d4480e4bc2b"},"vehicle_type_id":"4","last_reported":1748628882,"current_range_meters":2000,"station_id":"ce4bhph2rcd13ifvqhdg","pricing_plan_id":"cebpf4jnsgd1na2vs0mg"},{"bike_id":"2f650bb1-6027-4191-83d2-16315820a0a7","system_id":"levelo_inurba_marseille","lat":43.299904,"lon":5.373614,"is_reserved":false,"is_disabled":false,"rental_uris":{"android":"levelo://app?vid=2f650bb1-6027-4191-83d2-16315820a0a7","ios":"levelo://app?vid=2f650bb1-6027-4191-83d2-16315820a0a7"},"vehicle_type_id":"4","last_reported":1748628882,"current_range_meters":2800,"station_id":"","pricing_plan_id":"cebpf4jnsgd1na2vs0mg"},{"bike_id":"7f703dbe-29fd-468e-9461-ca3f44ca3cf0","system_id":"levelo_inurba_marseille","lat":43.29985,"lon":5.38507,"is_reserved":false,"is_disabled":false,"rental_uris":{"android":"levelo://app?vid=7f703dbe-29fd-468e-9461-ca3f44ca3cf0","ios":"levelo://app?vid=7f703dbe-29fd-468e-9461-ca3f44ca3cf0"},"vehicle_type_id":"4","last_reported":1748628882,"current_range_meters":2800,"station_id":"ce4bgj92rcd13ifvqbd0","pricing_plan_id":"cebpf4jnsgd1na2vs0mg"},{"bike_id":"ab121bbe-f724-4bce-9229-988a1ad84eb1","system_id":"levelo_inurba_marseille","lat":43.29533,"lon":5.39029,"is_reserved":false,"is_disabled":true,"rental_uris":{"android":"levelo://app?vid=ab121bbe-f724-4bce-9229-988a1ad84eb1","ios":"levelo://app?vid=ab121bbe-f724-4bce-9229-988a1ad84eb1"},"vehicle_type_id":"4","last_reported":1748628882,"current_range_meters":2800,"station_id":"ce4bh3p2rcd13ifvqdp0","pricing_plan_id":"cebpf4jnsgd1na2vs0mg"},{"bike_id":"9f8fa15b-6230-4321-a243-1c5e94106eb0","system_id":"levelo_inurba_marseille","lat":43.26226,"lon":5.37433,"is_reserved":false,"is_disabled":false,"rental_uris":{"android":"levelo://app?vid=9f8fa15b-6230-4321-a243-1c5e94106eb0","ios":"levelo://app?vid=9f8fa15b-6230-4321-a243-1c5e94106eb0"},"vehicle_type_id":"4","last_reported":1748628882,"current_range_meters":2800,"station_id":"ce4bhgp2rcd13ifvqfc0","pricing_plan_id":"cebpf4jnsgd1na2vs0mg"},{"bike_id":"d4d44586-29f6-48c5-b39d-b23bfd54427c","system_id":"levelo_inurba_marseille","lat":43.22502,"lon":5.34782,"is_reserved":false,"is_disabled":false,"rental_uris":{"android":"levelo://app?vid=d4d44586-29f6-48c5-b39d-b23bfd54427c","ios":"levelo://app?vid=d4d44586-29f6-48c5-b39d-b23bfd54427c"},"vehicle_type_id":"4","last_reported":1748628882,"current_range_meters":3200,"station_id":"","pricing_plan_id":"cebpf4jnsgd1na2vs0mg"},{"bike_id":"80deebc0-6135-4774-a04c-c45271043ee6","system_id":"levelo_inurba_marseille","lat":43.30794,"lon":5.37653,"is_reserved":false,"is_disabled":false,"rental_uris":{"android":"levelo://app?vid=80deebc0-6135-4774-a04c-c45271043ee6","ios":"levelo://app?vid=80deebc0-6135-4774-a04c-c45271043ee6"},"vehicle_type_id":"4","last_reported":1748628882,"current_range_meters":3200,"station_id":"ce4bgv92rcd13ifvqcq0","pricing_plan_id":"cebpf4jnsgd1na2vs0mg"},{"bike_id":"5bdb6eab-05cf-4a9c-bed3-3bdb78c5a077","system_id":"levelo_inurba_marseille","lat":43.30887,"lon":5.39626,"is_reserved":false,"is_disabled":false,"rental_uris":{"android":"levelo://app?vid=5bdb6eab-05cf-4a9c-bed3-3bdb78c5a077","ios":"levelo://app?vid=5bdb6eab-05cf-4a9c-bed3-3bdb78c5a077"},"vehicle_type_id":"4","last_reported":1748628882,"current_range_meters":3200,"station_id":"ce4bh012rcd13ifvqcv0","pricing_plan_id":"cebpf4jnsgd1na2vs0mg"},{"bike_id":"b01180ec-9cd8-4b30-9ef0-df344c24c931","system_id":"levelo_inurba_marseille","lat":43.28499,"lon":5.38524,"is_reserved":false,"is_disabled":false,"rental_uris":{"android":"levelo://app?vid=b01180ec-9cd8-4b30-9ef0-df344c24c931","ios":"levelo://app?vid=b01180ec-9cd8-4b30-9ef0-df344c24c931"},"vehicle_type_id":"4","last_reported":1748628882,"current_range_meters":3200,"station_id":"ce4bh8p2rcd13ifvqeb0","pricing_plan_id":"cebpf4jnsgd1na2vs0mg"},{"bike_id":"c354ccdf-ba61-4562-9fea-bfd24cbead19","system_id":"levelo_inurba_marseille","lat":43.28668,"lon":5.36354,"is_reserved":false,"is_disabled":false,"rental_uris":{"android":"levelo://app?vid=c354ccdf-ba61-4562-9fea-bfd24cbead19","ios":"levelo://app?vid=c354ccdf-ba61-4562-9fea-bfd24cbead19"},"vehicle_type_id":"4","last_reported":1748628882,"current_range_meters":3200,"station_id":"ce4bhah2rcd13ifvqej0","pricing_plan_id":"cebpf4jnsgd1na2vs0mg"},{"bike_id":"81d3ddd0-a52b-4cfc-a615-536fbc77e7a6","system_id":"levelo_inurba_marseille","lat":43.2901,"lon":5.35611,"is_reserved":false,"is_disabled":false,"rental_uris":{"android":"levelo://app?vid=81d3ddd0-a52b-4cfc-a615-536fbc77e7a6","ios":"levelo://app?vid=81d3ddd0-a52b-4cfc-a615-536fbc77e7a6"},"vehicle_type_id":"4","last_reported":1748628882,"current_range_meters":3200,"station_id":"ce4bhb92rcd13ifvqen0","pricing_plan_id":"cebpf4jnsgd1na2vs0mg"},{"bike_id":"c92d79f3-0133-44c7-b716-7917b90c4b3a","system_id":"levelo_inurba_marseille","lat":43.26507,"lon":5.39532,"is_reserved":false,"is_disabled":false,"rental_uris":{"android":"levelo://app?vid=c92d79f3-0133-44c7-b716-7917b90c4b3a","ios":"levelo://app?vid=c92d79f3-0133-44c7-b716-7917b90c4b3a"},"vehicle_type_id":"4","last_reported":1748628882,"current_range_meters":3200,"station_id":"ce4bhi12rcd13ifvqfq0","pricing_plan_id":"cebpf4jnsgd1na2vs0mg"},{"bike_id":"0bcf8bc6-f298-419a-9cd8-5945b1962414","system_id":"levelo_inurba_marseille","lat":43.25929,"lon":5.40898,"is_reserved":false,"is_disabled":false,"rental_uris":{"android":"levelo://app?vid=0bcf8bc6-f298-419a-9cd8-5945b1962414","ios":"levelo://app?vid=0bcf8bc6-f298-419a-9cd8-5945b1962414"},"vehicle_type_id":"4","last_reported":1748628882,"current_range_meters":3200,"station_id":"ce4bhm92rcd13ifvqglg","pricing_plan_id":"cebpf4jnsgd1na2vs0mg"},{"bike_id":"98647771-bb74-41f9-810a-2b5195bbd895","system_id":"levelo_inurba_marseille","lat":43.30577,"lon":5.40174,"is_reserved":false,"is_disabled":false,"rental_uris":{"android":"levelo://app?vid=98647771-bb74-41f9-810a-2b5195bbd895","ios":"levelo://app?vid=98647771-bb74-41f9-810a-2b5195bbd895"},"vehicle_type_id":"4","last_reported":1748628882,"current_range_meters":3600,"station_id":"","pricing_plan_id":"cebpf4jnsgd1na2vs0mg"},{"bike_id":"3f42daba-715e-44c8-870a-b18e0e4ab1d5","system_id":"levelo_inurba_marseille","lat":43.29251,"lon":5.38415,"is_reserved":false,"is_disabled":false,"rental_uris":{"android":"levelo://app?vid=3f42daba-715e-44c8-870a-b18e0e4ab1d5","ios":"levelo://app?vid=3f42daba-715e-44c8-870a-b18e0e4ab1d5"},"vehicle_type_id":"4","last_reported":1748628882,"current_range_meters":3600,"station_id":"ce4bh692rcd13ifvqea0","pricing_plan_id":"cebpf4jnsgd1na2vs0mg"},{"bike_id":"11831d3c-6061-4a2f-8104-114278f3ccb9","system_id":"levelo_inurba_marseille","lat":43.28716,"lon":5.37941,"is_reserved":false,"is_disabled":false,"rental_uris":{"android":"levelo://app?vid=11831d3c-6061-4a2f-8104-114278f3ccb9","ios":"levelo://app?vid=11831d3c-6061-4a2f-8104-114278f3ccb9"},"vehicle_type_id":"4","last_reported":1748628882,"current_range_meters":3600,"station_id":"ce4bh9p2rcd13ifvqec0","pricing_plan_id":"cebpf4jnsgd1na2vs0mg"},{"bike_id":"28e0392d-554f-4aac-a7bc-33e38435f037","system_id":"levelo_inurba_marseille","lat":43.28936,"lon":5.36629,"is_reserved":false,"is_disabled":false,"rental_uris":{"android":"levelo://app?vid=28e0392d-554f-4aac-a7bc-33e38435f037","ios":"levelo://app?vid=28e0392d-554f-4aac-a7bc-33e38435f037"},"vehicle_type_id":"4","last_reported":1748628882,"current_range_meters":3600,"station_id":"ce4bhap2rcd13ifvqek0","pricing_plan_id":"cebpf4jnsgd1na2vs0mg"},{"bike_id":"1b24d380-e606-4dcf-b046-976a38d86b91","system_id":"levelo_inurba_marseille","lat":43.254995,"lon":5.37645,"is_reserved":false,"is_disabled":false,"rental_uris":{"android":"levelo://app?vid=1b24d380-e606-4dcf-b046-976a38d86b91","ios":"levelo://app?vid=1b24d380-e606-4dcf-b046-976a38d86b91"},"vehicle_type_id":"4","last_reported":1748628882,"current_range_meters":3600,"station_id":"ce4bhh12rcd13ifvqff0","pricing_plan_id":"cebpf4jnsgd1na2vs0mg"},{"bike_id":"7c6e48ab-b87e-4e89-9339-a1a2992e6797","system_id":"levelo_inurba_marseille","lat":43.26118,"lon":5.4148,"is_reserved":false,"is_disabled":false,"rental_uris":{"android":"levelo://app?vid=7c6e48ab-b87e-4e89-9339-a1a2992e6797","ios":"levelo://app?vid=7c6e48ab-b87e-4e89-9339-a1a2992e6797"},"vehicle_type_id":"4","last_reported":1748628882,"current_range_meters":4000,"station_id":"","pricing_plan_id":"cebpf4jnsgd1na2vs0mg"},{"bike_id":"589b1613-0f99-4da1-9ef5-c7d4468cf777","system_id":"levelo_inurba_marseille","lat":43.249901,"lon":5.396515,"is_reserved":false,"is_disabled":false,"rental_uris":{"android":"levelo://app?vid=589b1613-0f99-4da1-9ef5-c7d4468cf777","ios":"levelo://app?vid=589b1613-0f99-4da1-9ef5-c7d4468cf777"},"vehicle_type_id":"4","last_reported":1748628882,"current_range_meters":4000,"station_id":"","pricing_plan_id":"cebpf4jnsgd1na2vs0mg"},{"bike_id":"1343c01e-b52c-494a-9609-b9752f778ba6","system_id":"levelo_inurba_marseille","lat":43.28211,"lon":5.39059,"is_reserved":false,"is_disabled":false,"rental_uris":{"android":"levelo://app?vid=1343c01e-b52c-494a-9609-b9752f778ba6","ios":"levelo://app?vid=1343c01e-b52c-494a-9609-b9752f778ba6"},"vehicle_type_id":"4","last_reported":1748628882,"current_range_meters":4000,"station_id":"","pricing_plan_id":"cebpf4jnsgd1na2vs0mg"},{"bike_id":"410f313c-f4ba-4606-879b-9db442194d93","system_id":"levelo_inurba_marseille","lat":43.24546,"lon":5.39518,"is_reserved":false,"is_disabled":false,"rental_uris":{"android":"levelo://app?vid=410f313c-f4ba-4606-879b-9db442194d93","ios":"levelo://app?vid=410f313c-f4ba-4606-879b-9db442194d93"},"vehicle_type_id":"4","last_reported":1748628882,"current_range_meters":4000,"station_id":"ce4bhlp2rcd13ifvqgjg","pricing_plan_id":"cebpf4jnsgd1na2vs0mg"},{"bike_id":"575cc0c0-524b-43c6-8517-867388769383","system_id":"levelo_inurba_marseille","lat":43.32097,"lon":5.36792,"is_reserved":false,"is_disabled":false,"rental_uris":{"android":"levelo://app?vid=575cc0c0-524b-43c6-8517-867388769383","ios":"levelo://app?vid=575cc0c0-524b-43c6-8517-867388769383"},"vehicle_type_id":"4","last_reported":1748628882,"current_range_meters":4000,"station_id":"ce4bhrh2rcd13ifvqhug","pricing_plan_id":"cebpf4jnsgd1na2vs0mg"},{"bike_id":"93222ebe-437b-49ba-b05e-139fa3159770","system_id":"levelo_inurba_marseille","lat":43.22904,"lon":5.35351,"is_reserved":false,"is_disabled":false,"rental_uris":{"android":"levelo://app?vid=93222ebe-437b-49ba-b05e-139fa3159770","ios":"levelo://app?vid=93222ebe-437b-49ba-b05e-139fa3159770"},"vehicle_type_id":"4","last_reported":1748628882,"current_range_meters":4000,"station_id":"cpo3532slgdg3j2ikp40","pricing_plan_id":"cebpf4jnsgd1na2vs0mg"},{"bike_id":"697d924a-ea53-411b-88e3-ed7542c4178d","system_id":"levelo_inurba_marseille","lat":43.33777,"lon":5.37468,"is_reserved":false,"is_disabled":false,"rental_uris":{"android":"levelo://app?vid=697d924a-ea53-411b-88e3-ed7542c4178d","ios":"levelo://app?vid=697d924a-ea53-411b-88e3-ed7542c4178d"},"vehicle_type_id":"4","last_reported":1748628882,"current_range_meters":4400,"station_id":"","pricing_plan_id":"cebpf4jnsgd1na2vs0mg"},{"bike_id":"eb6f7b70-b554-4f0b-9071-c468db80e368","system_id":"levelo_inurba_marseille","lat":43.23994,"lon":5.36284,"is_reserved":false,"is_disabled":false,"rental_uris":{"android":"levelo://app?vid=eb6f7b70-b554-4f0b-9071-c468db80e368","ios":"levelo://app?vid=eb6f7b70-b554-4f0b-9071-c468db80e368"},"vehicle_type_id":"4","last_reported":1748628882,"current_range_meters":4400,"station_id":"","pricing_plan_id":"cebpf4jnsgd1na2vs0mg"},{"bike_id":"27936244-3f55-4d1d-877c-378acff6e8f1","system_id":"levelo_inurba_marseille","lat":43.2998,"lon":5.38485,"is_reserved":false,"is_disabled":false,"rental_uris":{"android":"levelo://app?vid=27936244-3f55-4d1d-877c-378acff6e8f1","ios":"levelo://app?vid=27936244-3f55-4d1d-877c-378acff6e8f1"},"vehicle_type_id":"4","last_reported":1748628882,"current_range_meters":4400,"station_id":"ce4bgj92rcd13ifvqbd0","pricing_plan_id":"cebpf4jnsgd1na2vs0mg"},{"bike_id":"7d2ad599-5c48-4f33-8dc6-d0389411a73c","system_id":"levelo_inurba_marseille","lat":43.29703,"lon":5.37708,"is_reserved":false,"is_disabled":false,"rental_uris":{"android":"levelo://app?vid=7d2ad599-5c48-4f33-8dc6-d0389411a73c","ios":"levelo://app?vid=7d2ad599-5c48-4f33-8dc6-d0389411a73c"},"vehicle_type_id":"4","last_reported":1748628882,"current_range_meters":4400,"station_id":"ce4bgkh2rcd13ifvqbl0","pricing_plan_id":"cebpf4jnsgd1na2vs0mg"},{"bike_id":"17f227d3-cf90-4828-8ede-0fa2bf66713f","system_id":"levelo_inurba_marseille","lat":43.289385,"lon":5.366335,"is_reserved":false,"is_disabled":false,"rental_uris":{"android":"levelo://app?vid=17f227d3-cf90-4828-8ede-0fa2bf66713f","ios":"levelo://app?vid=17f227d3-cf90-4828-8ede-0fa2bf66713f"},"vehicle_type_id":"4","last_reported":1748628882,"current_range_meters":4800,"station_id":"","pricing_plan_id":"cebpf4jnsgd1na2vs0mg"},{"bike_id":"53a8e4a7-9124-4d4c-8bba-577f19133006","system_id":"levelo_inurba_marseille","lat":43.28712,"lon":5.37928,"is_reserved":false,"is_disabled":false,"rental_uris":{"android":"levelo://app?vid=53a8e4a7-9124-4d4c-8bba-577f19133006","ios":"levelo://app?vid=53a8e4a7-9124-4d4c-8bba-577f19133006"},"vehicle_type_id":"4","last_reported":1748628882,"current_range_meters":4800,"station_id":"ce4bh9p2rcd13ifvqec0","pricing_plan_id":"cebpf4jnsgd1na2vs0mg"},{"bike_id":"83f58932-5e4f-4759-9290-dfe976998719","system_id":"levelo_inurba_marseille","lat":43.231913,"lon":5.355524,"is_reserved":false,"is_disabled":false,"rental_uris":{"android":"levelo://app?vid=83f58932-5e4f-4759-9290-dfe976998719","ios":"levelo://app?vid=83f58932-5e4f-4759-9290-dfe976998719"},"vehicle_type_id":"4","last_reported":1748628882,"current_range_meters":4800,"station_id":"ce4bhr12rcd13ifvqhqg","pricing_plan_id":"cebpf4jnsgd1na2vs0mg"},{"bike_id":"a00fb376-37dc-4186-8b13-ddb6fcbdb59f","system_id":"levelo_inurba_marseille","lat":43.26573,"lon":5.40316,"is_reserved":false,"is_disabled":false,"rental_uris":{"android":"levelo://app?vid=a00fb376-37dc-4186-8b13-ddb6fcbdb59f","ios":"levelo://app?vid=a00fb376-37dc-4186-8b13-ddb6fcbdb59f"},"vehicle_type_id":"4","last_reported":1748628882,"current_range_meters":5600,"station_id":"","pricing_plan_id":"cebpf4jnsgd1na2vs0mg"},{"bike_id":"060d7186-f33c-4994-89bd-f87df1ce83ff","system_id":"levelo_inurba_marseille","lat":43.31774,"lon":5.37601,"is_reserved":false,"is_disabled":false,"rental_uris":{"android":"levelo://app?vid=060d7186-f33c-4994-89bd-f87df1ce83ff","ios":"levelo://app?vid=060d7186-f33c-4994-89bd-f87df1ce83ff"},"vehicle_type_id":"4","last_reported":1748628882,"current_range_meters":5600,"station_id":"","pricing_plan_id":"cebpf4jnsgd1na2vs0mg"},{"bike_id":"c7105b5a-fee9-4696-8c5a-b8d6d934ea09","system_id":"levelo_inurba_marseille","lat":43.29515,"lon":5.39396,"is_reserved":false,"is_disabled":false,"rental_uris":{"android":"levelo://app?vid=c7105b5a-fee9-4696-8c5a-b8d6d934ea09","ios":"levelo://app?vid=c7105b5a-fee9-4696-8c5a-b8d6d934ea09"},"vehicle_type_id":"4","last_reported":1748628882,"current_range_meters":5600,"station_id":"ce4bh292rcd13ifvqdf0","pricing_plan_id":"cebpf4jnsgd1na2vs0mg"},{"bike_id":"3f6dfd06-a863-46cf-8293-55edeb5dfc5a","system_id":"levelo_inurba_marseille","lat":43.28483,"lon":5.38416,"is_reserved":false,"is_disabled":false,"rental_uris":{"android":"levelo://app?vid=3f6dfd06-a863-46cf-8293-55edeb5dfc5a","ios":"levelo://app?vid=3f6dfd06-a863-46cf-8293-55edeb5dfc5a"},"vehicle_type_id":"4","last_reported":1748628882,"current_range_meters":5600,"station_id":"ce4bh512rcd13ifvqe3g","pricing_plan_id":"cebpf4jnsgd1na2vs0mg"},{"bike_id":"df89b9cf-95f1-48b4-9635-dd6899d1ada8","system_id":"levelo_inurba_marseille","lat":43.31757,"lon":5.39021,"is_reserved":false,"is_disabled":false,"rental_uris":{"android":"levelo://app?vid=df89b9cf-95f1-48b4-9635-dd6899d1ada8","ios":"levelo://app?vid=df89b9cf-95f1-48b4-9635-dd6899d1ada8"},"vehicle_type_id":"4","last_reported":1748628882,"current_range_meters":5600,"station_id":"ce4bhqp2rcd13ifvqhng","pricing_plan_id":"cebpf4jnsgd1na2vs0mg"},{"bike_id":"299bc464-0062-40b9-b8fd-94e53cb49a69","system_id":"levelo_inurba_marseille","lat":43.29641,"lon":5.36229,"is_reserved":false,"is_disabled":false,"rental_uris":{"android":"levelo://app?vid=299bc464-0062-40b9-b8fd-94e53cb49a69","ios":"levelo://app?vid=299bc464-0062-40b9-b8fd-94e53cb49a69"},"vehicle_type_id":"4","last_reported":1748628882,"current_range_meters":6000,"station_id":"","pricing_plan_id":"cebpf4jnsgd1na2vs0mg"},{"bike_id":"188c9a92-eca5-4a12-ba2d-12f9275c27c6","system_id":"levelo_inurba_marseille","lat":43.29227,"lon":5.36475,"is_reserved":false,"is_disabled":false,"rental_uris":{"android":"levelo://app?vid=188c9a92-eca5-4a12-ba2d-12f9275c27c6","ios":"levelo://app?vid=188c9a92-eca5-4a12-ba2d-12f9275c27c6"},"vehicle_type_id":"4","last_reported":1748628882,"current_range_meters":6000,"station_id":"","pricing_plan_id":"cebpf4jnsgd1na2vs0mg"},{"bike_id":"878e1383-9eb4-438f-89e7-ab324d204400","system_id":"levelo_inurba_marseille","lat":43.28267,"lon":5.35056,"is_reserved":false,"is_disabled":false,"rental_uris":{"android":"levelo://app?vid=878e1383-9eb4-438f-89e7-ab324d204400","ios":"levelo://app?vid=878e1383-9eb4-438f-89e7-ab324d204400"},"vehicle_type_id":"4","last_reported":1748628882,"current_range_meters":6000,"station_id":"ce4bhbp2rcd13ifvqerg","pricing_plan_id":"cebpf4jnsgd1na2vs0mg"},{"bike_id":"0ee8a1e5-15ae-4643-ba93-64e6b91c92f2","system_id":"levelo_inurba_marseille","lat":43.26555,"lon":5.37283,"is_reserved":false,"is_disabled":false,"rental_uris":{"android":"levelo://app?vid=0ee8a1e5-15ae-4643-ba93-64e6b91c92f2","ios":"levelo://app?vid=0ee8a1e5-15ae-4643-ba93-64e6b91c92f2"},"vehicle_type_id":"4","last_reported":1748628882,"current_range_meters":6000,"station_id":"ce4bhg12rcd13ifvqf70","pricing_plan_id":"cebpf4jnsgd1na2vs0mg"},{"bike_id":"e75cc3f9-55c1-44d9-8855-7fbfcad69798","system_id":"levelo_inurba_marseille","lat":43.27206,"lon":5.39189,"is_reserved":false,"is_disabled":false,"rental_uris":{"android":"levelo://app?vid=e75cc3f9-55c1-44d9-8855-7fbfcad69798","ios":"levelo://app?vid=e75cc3f9-55c1-44d9-8855-7fbfcad69798"},"vehicle_type_id":"4","last_reported":1748628882,"current_range_meters":6000,"station_id":"ce4bhhp2rcd13ifvqfm0","pricing_plan_id":"cebpf4jnsgd1na2vs0mg"},{"bike_id":"c88d4834-ce31-418d-a229-818e5dfbffe4","system_id":"levelo_inurba_marseille","lat":43.23964,"lon":5.36651,"is_reserved":false,"is_disabled":false,"rental_uris":{"android":"levelo://app?vid=c88d4834-ce31-418d-a229-818e5dfbffe4","ios":"levelo://app?vid=c88d4834-ce31-418d-a229-818e5dfbffe4"},"vehicle_type_id":"4","last_reported":1748628882,"current_range_meters":6000,"station_id":"ce4bhi12rcd13ifvqfp0","pricing_plan_id":"cebpf4jnsgd1na2vs0mg"},{"bike_id":"8486607b-28ea-4212-ad94-901dc26a4262","system_id":"levelo_inurba_marseille","lat":43.28608,"lon":5.37059,"is_reserved":false,"is_disabled":false,"rental_uris":{"android":"levelo://app?vid=8486607b-28ea-4212-ad94-901dc26a4262","ios":"levelo://app?vid=8486607b-28ea-4212-ad94-901dc26a4262"},"vehicle_type_id":"4","last_reported":1748628882,"current_range_meters":6000,"station_id":"ce4bht12rcd13ifvqi60","pricing_plan_id":"cebpf4jnsgd1na2vs0mg"},{"bike_id":"8d9f69c4-ca71-4dc5-bc9b-be08d92bb43f","system_id":"levelo_inurba_marseille","lat":43.28717,"lon":5.36115,"is_reserved":false,"is_disabled":false,"rental_uris":{"android":"levelo://app?vid=8d9f69c4-ca71-4dc5-bc9b-be08d92bb43f","ios":"levelo://app?vid=8d9f69c4-ca71-4dc5-bc9b-be08d92bb43f"},"vehicle_type_id":"4","last_reported":1748628882,"current_range_meters":6000,"station_id":"cki0cbj6b192h4jlfktg","pricing_plan_id":"cebpf4jnsgd1na2vs0mg"},{"bike_id":"7dd049a4-416e-423b-bcee-25522aff5207","system_id":"levelo_inurba_marseille","lat":43.2971,"lon":5.37705,"is_reserved":false,"is_disabled":false,"rental_uris":{"android":"levelo://app?vid=7dd049a4-416e-423b-bcee-25522aff5207","ios":"levelo://app?vid=7dd049a4-416e-423b-bcee-25522aff5207"},"vehicle_type_id":"4","last_reported":1748628882,"current_range_meters":6400,"station_id":"ce4bgkh2rcd13ifvqbl0","pricing_plan_id":"cebpf4jnsgd1na2vs0mg"},{"bike_id":"427e3e0d-50d9-4211-9e56-4accbc035a2d","system_id":"levelo_inurba_marseille","lat":43.29709,"lon":5.36603,"is_reserved":false,"is_disabled":false,"rental_uris":{"android":"levelo://app?vid=427e3e0d-50d9-4211-9e56-4accbc035a2d","ios":"levelo://app?vid=427e3e0d-50d9-4211-9e56-4accbc035a2d"},"vehicle_type_id":"4","last_reported":1748628882,"current_range_meters":6400,"station_id":"ce4bgn12rcd13ifvqbt0","pricing_plan_id":"cebpf4jnsgd1na2vs0mg"},{"bike_id":"a9727d38-f20e-4ab1-b86d-27c1831468f8","system_id":"levelo_inurba_marseille","lat":43.30948,"lon":5.39017,"is_reserved":false,"is_disabled":false,"rental_uris":{"android":"levelo://app?vid=a9727d38-f20e-4ab1-b86d-27c1831468f8","ios":"levelo://app?vid=a9727d38-f20e-4ab1-b86d-27c1831468f8"},"vehicle_type_id":"4","last_reported":1748628882,"current_range_meters":6400,"station_id":"ce4bgup2rcd13ifvqco0","pricing_plan_id":"cebpf4jnsgd1na2vs0mg"},{"bike_id":"ace0e633-d410-4bfa-9f57-b0e949ce0ec6","system_id":"levelo_inurba_marseille","lat":43.28937,"lon":5.36644,"is_reserved":false,"is_disabled":false,"rental_uris":{"android":"levelo://app?vid=ace0e633-d410-4bfa-9f57-b0e949ce0ec6","ios":"levelo://app?vid=ace0e633-d410-4bfa-9f57-b0e949ce0ec6"},"vehicle_type_id":"4","last_reported":1748628882,"current_range_meters":6400,"station_id":"ce4bhap2rcd13ifvqek0","pricing_plan_id":"cebpf4jnsgd1na2vs0mg"},{"bike_id":"b52a3df2-025a-4bfd-8da0-c020402ea3cc","system_id":"levelo_inurba_marseille","lat":43.26566,"lon":5.39005,"is_reserved":false,"is_disabled":false,"rental_uris":{"android":"levelo://app?vid=b52a3df2-025a-4bfd-8da0-c020402ea3cc","ios":"levelo://app?vid=b52a3df2-025a-4bfd-8da0-c020402ea3cc"},"vehicle_type_id":"4","last_reported":1748628882,"current_range_meters":6400,"station_id":"ce4bhe12rcd13ifvqf30","pricing_plan_id":"cebpf4jnsgd1na2vs0mg"},{"bike_id":"bbb2d7fa-4fea-45cc-92c7-b1f8fb614697","system_id":"levelo_inurba_marseille","lat":43.265536,"lon":5.372914,"is_reserved":false,"is_disabled":false,"rental_uris":{"android":"levelo://app?vid=bbb2d7fa-4fea-45cc-92c7-b1f8fb614697","ios":"levelo://app?vid=bbb2d7fa-4fea-45cc-92c7-b1f8fb614697"},"vehicle_type_id":"4","last_reported":1748628882,"current_range_meters":6400,"station_id":"ce4bhg12rcd13ifvqf70","pricing_plan_id":"cebpf4jnsgd1na2vs0mg"},{"bike_id":"36240f0a-66a2-43ec-8330-1f3a9d08cc7e","system_id":"levelo_inurba_marseille","lat":43.238983,"lon":5.362587,"is_reserved":false,"is_disabled":false,"rental_uris":{"android":"levelo://app?vid=36240f0a-66a2-43ec-8330-1f3a9d08cc7e","ios":"levelo://app?vid=36240f0a-66a2-43ec-8330-1f3a9d08cc7e"},"vehicle_type_id":"4","last_reported":1748628882,"current_range_meters":6800,"station_id":"","pricing_plan_id":"cebpf4jnsgd1na2vs0mg"},{"bike_id":"c3156a68-e856-4b03-a031-0f27e467b5b3","system_id":"levelo_inurba_marseille","lat":43.31375,"lon":5.385,"is_reserved":false,"is_disabled":false,"rental_uris":{"android":"levelo://app?vid=c3156a68-e856-4b03-a031-0f27e467b5b3","ios":"levelo://app?vid=c3156a68-e856-4b03-a031-0f27e467b5b3"},"vehicle_type_id":"4","last_reported":1748628882,"current_range_meters":6800,"station_id":"ce4bgt92rcd13ifvqcf0","pricing_plan_id":"cebpf4jnsgd1na2vs0mg"},{"bike_id":"047535a3-d9aa-4e3a-a35f-8b5c5e9bf3de","system_id":"levelo_inurba_marseille","lat":43.29884,"lon":5.38895,"is_reserved":false,"is_disabled":false,"rental_uris":{"android":"levelo://app?vid=047535a3-d9aa-4e3a-a35f-8b5c5e9bf3de","ios":"levelo://app?vid=047535a3-d9aa-4e3a-a35f-8b5c5e9bf3de"},"vehicle_type_id":"4","last_reported":1748628882,"current_range_meters":6800,"station_id":"ce4bh392rcd13ifvqdl0","pricing_plan_id":"cebpf4jnsgd1na2vs0mg"},{"bike_id":"097432ee-2928-42fa-8785-9ded74f3307b","system_id":"levelo_inurba_marseille","lat":43.29267,"lon":5.38445,"is_reserved":false,"is_disabled":false,"rental_uris":{"android":"levelo://app?vid=097432ee-2928-42fa-8785-9ded74f3307b","ios":"levelo://app?vid=097432ee-2928-42fa-8785-9ded74f3307b"},"vehicle_type_id":"4","last_reported":1748628882,"current_range_meters":6800,"station_id":"ce4bh692rcd13ifvqea0","pricing_plan_id":"cebpf4jnsgd1na2vs0mg"},{"bike_id":"6f6bfa7f-3c80-4f17-9f83-302c57e0fef8","system_id":"levelo_inurba_marseille","lat":43.23191,"lon":5.39985,"is_reserved":false,"is_disabled":false,"rental_uris":{"android":"levelo://app?vid=6f6bfa7f-3c80-4f17-9f83-302c57e0fef8","ios":"levelo://app?vid=6f6bfa7f-3c80-4f17-9f83-302c57e0fef8"},"vehicle_type_id":"4","last_reported":1748628882,"current_range_meters":6800,"station_id":"ce4bhn12rcd13ifvqgqg","pricing_plan_id":"cebpf4jnsgd1na2vs0mg"},{"bike_id":"c52a5e3b-f639-458d-bfa6-d70c681906ce","system_id":"levelo_inurba_marseille","lat":43.30593,"lon":5.39349,"is_reserved":false,"is_disabled":false,"rental_uris":{"android":"levelo://app?vid=c52a5e3b-f639-458d-bfa6-d70c681906ce","ios":"levelo://app?vid=c52a5e3b-f639-458d-bfa6-d70c681906ce"},"vehicle_type_id":"4","last_reported":1748628882,"current_range_meters":7200,"station_id":"ce4bh0p2rcd13ifvqd80","pricing_plan_id":"cebpf4jnsgd1na2vs0mg"},{"bike_id":"8f0414f1-1b5d-4fb5-8167-551bf500a679","system_id":"levelo_inurba_marseille","lat":43.29208,"lon":5.36032,"is_reserved":false,"is_disabled":false,"rental_uris":{"android":"levelo://app?vid=8f0414f1-1b5d-4fb5-8167-551bf500a679","ios":"levelo://app?vid=8f0414f1-1b5d-4fb5-8167-551bf500a679"},"vehicle_type_id":"4","last_reported":1748628882,"current_range_meters":7200,"station_id":"ce4bhbh2rcd13ifvqeqg","pricing_plan_id":"cebpf4jnsgd1na2vs0mg"},{"bike_id":"2fb2fb6d-2a4c-45f8-a6fd-3b8bc0d5784c","system_id":"levelo_inurba_marseille","lat":43.29217,"lon":5.36046,"is_reserved":false,"is_disabled":false,"rental_uris":{"android":"levelo://app?vid=2fb2fb6d-2a4c-45f8-a6fd-3b8bc0d5784c","ios":"levelo://app?vid=2fb2fb6d-2a4c-45f8-a6fd-3b8bc0d5784c"},"vehicle_type_id":"4","last_reported":1748628882,"current_range_meters":7200,"station_id":"ce4bhbh2rcd13ifvqeqg","pricing_plan_id":"cebpf4jnsgd1na2vs0mg"},{"bike_id":"9779fca0-870a-4ef1-973f-9a6c41d20d5d","system_id":"levelo_inurba_marseille","lat":43.26496,"lon":5.39542,"is_reserved":false,"is_disabled":false,"rental_uris":{"android":"levelo://app?vid=9779fca0-870a-4ef1-973f-9a6c41d20d5d","ios":"levelo://app?vid=9779fca0-870a-4ef1-973f-9a6c41d20d5d"},"vehicle_type_id":"4","last_reported":1748628882,"current_range_meters":7200,"station_id":"ce4bhi12rcd13ifvqfq0","pricing_plan_id":"cebpf4jnsgd1na2vs0mg"},{"bike_id":"158dadf0-f7c2-4491-9661-5b58169e1bb3","system_id":"levelo_inurba_marseille","lat":43.27208,"lon":5.40971,"is_reserved":false,"is_disabled":false,"rental_uris":{"android":"levelo://app?vid=158dadf0-f7c2-4491-9661-5b58169e1bb3","ios":"levelo://app?vid=158dadf0-f7c2-4491-9661-5b58169e1bb3"},"vehicle_type_id":"4","last_reported":1748628882,"current_range_meters":7200,"station_id":"ce4bhl12rcd13ifvqgf0","pricing_plan_id":"cebpf4jnsgd1na2vs0mg"},{"bike_id":"273197c9-2f0a-4393-8c80-12df45998cc0","system_id":"levelo_inurba_marseille","lat":43.25126,"lon":5.40314,"is_reserved":false,"is_disabled":false,"rental_uris":{"android":"levelo://app?vid=273197c9-2f0a-4393-8c80-12df45998cc0","ios":"levelo://app?vid=273197c9-2f0a-4393-8c80-12df45998cc0"},"vehicle_type_id":"4","last_reported":1748628882,"current_range_meters":7200,"station_id":"ce4bhlh2rcd13ifvqgig","pricing_plan_id":"cebpf4jnsgd1na2vs0mg"},{"bike_id":"21f934d2-0f6e-4f7b-b5ed-00eb8063c6cf","system_id":"levelo_inurba_marseille","lat":43.24076,"lon":5.37752,"is_reserved":false,"is_disabled":false,"rental_uris":{"android":"levelo://app?vid=21f934d2-0f6e-4f7b-b5ed-00eb8063c6cf","ios":"levelo://app?vid=21f934d2-0f6e-4f7b-b5ed-00eb8063c6cf"},"vehicle_type_id":"4","last_reported":1748628882,"current_range_meters":7200,"station_id":"ce4bhnp2rcd13ifvqgvg","pricing_plan_id":"cebpf4jnsgd1na2vs0mg"},{"bike_id":"00f77637-c960-45d0-b516-a2f6a0285858","system_id":"levelo_inurba_marseille","lat":43.29729,"lon":5.38541,"is_reserved":false,"is_disabled":false,"rental_uris":{"android":"levelo://app?vid=00f77637-c960-45d0-b516-a2f6a0285858","ios":"levelo://app?vid=00f77637-c960-45d0-b516-a2f6a0285858"},"vehicle_type_id":"4","last_reported":1748628882,"current_range_meters":8000,"station_id":"","pricing_plan_id":"cebpf4jnsgd1na2vs0mg"},{"bike_id":"161ccf12-51e5-431e-acaa-3166efd5d61c","system_id":"levelo_inurba_marseille","lat":43.28196,"lon":5.42714,"is_reserved":false,"is_disabled":false,"rental_uris":{"android":"levelo://app?vid=161ccf12-51e5-431e-acaa-3166efd5d61c","ios":"levelo://app?vid=161ccf12-51e5-431e-acaa-3166efd5d61c"},"vehicle_type_id":"4","last_reported":1748628882,"current_range_meters":8000,"station_id":"","pricing_plan_id":"cebpf4jnsgd1na2vs0mg"},{"bike_id":"f189cf46-f40b-49fd-a7d2-090c8db00dd9","system_id":"levelo_inurba_marseille","lat":43.30805,"lon":5.38149,"is_reserved":false,"is_disabled":false,"rental_uris":{"android":"levelo://app?vid=f189cf46-f40b-49fd-a7d2-090c8db00dd9","ios":"levelo://app?vid=f189cf46-f40b-49fd-a7d2-090c8db00dd9"},"vehicle_type_id":"4","last_reported":1748628882,"current_range_meters":8000,"station_id":"ce4bgt12rcd13ifvqce0","pricing_plan_id":"cebpf4jnsgd1na2vs0mg"},{"bike_id":"d8064b73-0cf9-457c-b491-747d3789d76d","system_id":"levelo_inurba_marseille","lat":43.28415,"lon":5.34977,"is_reserved":false,"is_disabled":false,"rental_uris":{"android":"levelo://app?vid=d8064b73-0cf9-457c-b491-747d3789d76d","ios":"levelo://app?vid=d8064b73-0cf9-457c-b491-747d3789d76d"},"vehicle_type_id":"4","last_reported":1748628882,"current_range_meters":8000,"station_id":"ce4bhbh2rcd13ifvqepg","pricing_plan_id":"cebpf4jnsgd1na2vs0mg"},{"bike_id":"407e5a45-16ab-470f-bd11-310fec85bedc","system_id":"levelo_inurba_marseille","lat":43.2655,"lon":5.3729,"is_reserved":false,"is_disabled":false,"rental_uris":{"android":"levelo://app?vid=407e5a45-16ab-470f-bd11-310fec85bedc","ios":"levelo://app?vid=407e5a45-16ab-470f-bd11-310fec85bedc"},"vehicle_type_id":"4","last_reported":1748628882,"current_range_meters":8000,"station_id":"ce4bhg12rcd13ifvqf70","pricing_plan_id":"cebpf4jnsgd1na2vs0mg"},{"bike_id":"6c2bbf6e-7b79-4d5e-b5f3-24ef0c49893b","system_id":"levelo_inurba_marseille","lat":43.27553,"lon":5.38431,"is_reserved":false,"is_disabled":false,"rental_uris":{"android":"levelo://app?vid=6c2bbf6e-7b79-4d5e-b5f3-24ef0c49893b","ios":"levelo://app?vid=6c2bbf6e-7b79-4d5e-b5f3-24ef0c49893b"},"vehicle_type_id":"4","last_reported":1748628882,"current_range_meters":8000,"station_id":"ce4bhh92rcd13ifvqfi0","pricing_plan_id":"cebpf4jnsgd1na2vs0mg"},{"bike_id":"c2febff3-eb34-4aa6-8571-ac2168a5f8c1","system_id":"levelo_inurba_marseille","lat":43.28173,"lon":5.42651,"is_reserved":false,"is_disabled":false,"rental_uris":{"android":"levelo://app?vid=c2febff3-eb34-4aa6-8571-ac2168a5f8c1","ios":"levelo://app?vid=c2febff3-eb34-4aa6-8571-ac2168a5f8c1"},"vehicle_type_id":"4","last_reported":1748628882,"current_range_meters":8000,"station_id":"ce4bhnh2rcd13ifvqgug","pricing_plan_id":"cebpf4jnsgd1na2vs0mg"},{"bike_id":"a426f99b-d34a-41bf-bbda-59f7dfd6939b","system_id":"levelo_inurba_marseille","lat":43.255796,"lon":5.382262,"is_reserved":false,"is_disabled":false,"rental_uris":{"android":"levelo://app?vid=a426f99b-d34a-41bf-bbda-59f7dfd6939b","ios":"levelo://app?vid=a426f99b-d34a-41bf-bbda-59f7dfd6939b"},"vehicle_type_id":"4","last_reported":1748628882,"current_range_meters":8000,"station_id":"ce501612rcd8frsf0b60","pricing_plan_id":"cebpf4jnsgd1na2vs0mg"},{"bike_id":"da5921cd-e75b-4ce7-b109-06c28f720590","system_id":"levelo_inurba_marseille","lat":43.28742,"lon":5.36172,"is_reserved":false,"is_disabled":false,"rental_uris":{"android":"levelo://app?vid=da5921cd-e75b-4ce7-b109-06c28f720590","ios":"levelo://app?vid=da5921cd-e75b-4ce7-b109-06c28f720590"},"vehicle_type_id":"4","last_reported":1748628882,"current_range_meters":8400,"station_id":"","pricing_plan_id":"cebpf4jnsgd1na2vs0mg"},{"bike_id":"f5733814-9732-4748-bcc9-3b2fac8e1564","system_id":"levelo_inurba_marseille","lat":43.31256,"lon":5.37829,"is_reserved":false,"is_disabled":false,"rental_uris":{"android":"levelo://app?vid=f5733814-9732-4748-bcc9-3b2fac8e1564","ios":"levelo://app?vid=f5733814-9732-4748-bcc9-3b2fac8e1564"},"vehicle_type_id":"4","last_reported":1748628882,"current_range_meters":8400,"station_id":"","pricing_plan_id":"cebpf4jnsgd1na2vs0mg"},{"bike_id":"4c519825-c6ac-4a02-8054-38e411106dfb","system_id":"levelo_inurba_marseille","lat":43.29799,"lon":5.38094,"is_reserved":false,"is_disabled":false,"rental_uris":{"android":"levelo://app?vid=4c519825-c6ac-4a02-8054-38e411106dfb","ios":"levelo://app?vid=4c519825-c6ac-4a02-8054-38e411106dfb"},"vehicle_type_id":"4","last_reported":1748628882,"current_range_meters":8400,"station_id":"ce4bgip2rcd13ifvqbb0","pricing_plan_id":"cebpf4jnsgd1na2vs0mg"},{"bike_id":"0532a1d7-e28e-4f14-8172-35320cda457f","system_id":"levelo_inurba_marseille","lat":43.29915,"lon":5.37472,"is_reserved":false,"is_disabled":false,"rental_uris":{"android":"levelo://app?vid=0532a1d7-e28e-4f14-8172-35320cda457f","ios":"levelo://app?vid=0532a1d7-e28e-4f14-8172-35320cda457f"},"vehicle_type_id":"4","last_reported":1748628882,"current_range_meters":8400,"station_id":"ce4bgjh2rcd13ifvqbg0","pricing_plan_id":"cebpf4jnsgd1na2vs0mg"},{"bike_id":"12a72bb7-baa1-4b3e-ad1a-8dd53992e6eb","system_id":"levelo_inurba_marseille","lat":43.31762,"lon":5.39017,"is_reserved":false,"is_disabled":false,"rental_uris":{"android":"levelo://app?vid=12a72bb7-baa1-4b3e-ad1a-8dd53992e6eb","ios":"levelo://app?vid=12a72bb7-baa1-4b3e-ad1a-8dd53992e6eb"},"vehicle_type_id":"4","last_reported":1748628882,"current_range_meters":8400,"station_id":"ce4bhqp2rcd13ifvqhng","pricing_plan_id":"cebpf4jnsgd1na2vs0mg"},{"bike_id":"544abdfa-b4d6-4c3e-8a04-4e2476db1de5","system_id":"levelo_inurba_marseille","lat":43.298655,"lon":5.36873,"is_reserved":false,"is_disabled":false,"rental_uris":{"android":"levelo://app?vid=544abdfa-b4d6-4c3e-8a04-4e2476db1de5","ios":"levelo://app?vid=544abdfa-b4d6-4c3e-8a04-4e2476db1de5"},"vehicle_type_id":"4","last_reported":1748628882,"current_range_meters":8800,"station_id":"","pricing_plan_id":"cebpf4jnsgd1na2vs0mg"},{"bike_id":"a69c5064-55ac-40fa-a02e-700ee3dac888","system_id":"levelo_inurba_marseille","lat":43.26554,"lon":5.40329,"is_reserved":false,"is_disabled":false,"rental_uris":{"android":"levelo://app?vid=a69c5064-55ac-40fa-a02e-700ee3dac888","ios":"levelo://app?vid=a69c5064-55ac-40fa-a02e-700ee3dac888"},"vehicle_type_id":"4","last_reported":1748628882,"current_range_meters":8800,"station_id":"","pricing_plan_id":"cebpf4jnsgd1na2vs0mg"},{"bike_id":"e9cda520-c6f4-465d-ad7f-8c059b3dc45a","system_id":"levelo_inurba_marseille","lat":43.313967,"lon":5.383993,"is_reserved":false,"is_disabled":false,"rental_uris":{"android":"levelo://app?vid=e9cda520-c6f4-465d-ad7f-8c059b3dc45a","ios":"levelo://app?vid=e9cda520-c6f4-465d-ad7f-8c059b3dc45a"},"vehicle_type_id":"4","last_reported":1748628882,"current_range_meters":8800,"station_id":"","pricing_plan_id":"cebpf4jnsgd1na2vs0mg"},{"bike_id":"a31656a4-5217-4c2d-91ea-e636b7cf9b1f","system_id":"levelo_inurba_marseille","lat":43.28558,"lon":5.38418,"is_reserved":false,"is_disabled":false,"rental_uris":{"android":"levelo://app?vid=a31656a4-5217-4c2d-91ea-e636b7cf9b1f","ios":"levelo://app?vid=a31656a4-5217-4c2d-91ea-e636b7cf9b1f"},"vehicle_type_id":"4","last_reported":1748628882,"current_range_meters":8800,"station_id":"","pricing_plan_id":"cebpf4jnsgd1na2vs0mg"},{"bike_id":"185002fd-f151-4cda-b80a-3970dcf33bd5","system_id":"levelo_inurba_marseille","lat":43.29804,"lon":5.38091,"is_reserved":false,"is_disabled":false,"rental_uris":{"android":"levelo://app?vid=185002fd-f151-4cda-b80a-3970dcf33bd5","ios":"levelo://app?vid=185002fd-f151-4cda-b80a-3970dcf33bd5"},"vehicle_type_id":"4","last_reported":1748628882,"current_range_meters":8800,"station_id":"ce4bgip2rcd13ifvqbb0","pricing_plan_id":"cebpf4jnsgd1na2vs0mg"},{"bike_id":"0ab66a65-9c7d-49fb-b135-6a06c9135de1","system_id":"levelo_inurba_marseille","lat":43.3095,"lon":5.39033,"is_reserved":false,"is_disabled":false,"rental_uris":{"android":"levelo://app?vid=0ab66a65-9c7d-49fb-b135-6a06c9135de1","ios":"levelo://app?vid=0ab66a65-9c7d-49fb-b135-6a06c9135de1"},"vehicle_type_id":"4","last_reported":1748628882,"current_range_meters":8800,"station_id":"ce4bgup2rcd13ifvqco0","pricing_plan_id":"cebpf4jnsgd1na2vs0mg"},{"bike_id":"808cd5b7-161d-404d-9a0b-74642f51d77c","system_id":"levelo_inurba_marseille","lat":43.29,"lon":5.35614,"is_reserved":false,"is_disabled":false,"rental_uris":{"android":"levelo://app?vid=808cd5b7-161d-404d-9a0b-74642f51d77c","ios":"levelo://app?vid=808cd5b7-161d-404d-9a0b-74642f51d77c"},"vehicle_type_id":"4","last_reported":1748628882,"current_range_meters":8800,"station_id":"ce4bhb92rcd13ifvqen0","pricing_plan_id":"cebpf4jnsgd1na2vs0mg"},{"bike_id":"4b1d6b69-d62e-47b0-b432-1d842dbd0bd0","system_id":"levelo_inurba_marseille","lat":43.28421,"lon":5.34977,"is_reserved":false,"is_disabled":false,"rental_uris":{"android":"levelo://app?vid=4b1d6b69-d62e-47b0-b432-1d842dbd0bd0","ios":"levelo://app?vid=4b1d6b69-d62e-47b0-b432-1d842dbd0bd0"},"vehicle_type_id":"4","last_reported":1748628882,"current_range_meters":8800,"station_id":"ce4bhbh2rcd13ifvqepg","pricing_plan_id":"cebpf4jnsgd1na2vs0mg"},{"bike_id":"c0b8799f-a231-418a-a71c-36988c271d22","system_id":"levelo_inurba_marseille","lat":43.27077,"lon":5.42274,"is_reserved":false,"is_disabled":false,"rental_uris":{"android":"levelo://app?vid=c0b8799f-a231-418a-a71c-36988c271d22","ios":"levelo://app?vid=c0b8799f-a231-418a-a71c-36988c271d22"},"vehicle_type_id":"4","last_reported":1748628882,"current_range_meters":8800,"station_id":"ce4bhk92rcd13ifvqgb0","pricing_plan_id":"cebpf4jnsgd1na2vs0mg"},{"bike_id":"6b9bcff0-171d-4c1a-b5be-6f1982ded5c1","system_id":"levelo_inurba_marseille","lat":43.29552,"lon":5.42288,"is_reserved":false,"is_disabled":false,"rental_uris":{"android":"levelo://app?vid=6b9bcff0-171d-4c1a-b5be-6f1982ded5c1","ios":"levelo://app?vid=6b9bcff0-171d-4c1a-b5be-6f1982ded5c1"},"vehicle_type_id":"4","last_reported":1748628882,"current_range_meters":8800,"station_id":"ce4bhph2rcd13ifvqhdg","pricing_plan_id":"cebpf4jnsgd1na2vs0mg"},{"bike_id":"88e37a42-8cec-4ec9-925f-51f9a49833d6","system_id":"levelo_inurba_marseille","lat":43.28416,"lon":5.3498,"is_reserved":false,"is_disabled":false,"rental_uris":{"android":"levelo://app?vid=88e37a42-8cec-4ec9-925f-51f9a49833d6","ios":"levelo://app?vid=88e37a42-8cec-4ec9-925f-51f9a49833d6"},"vehicle_type_id":"4","last_reported":1748628882,"current_range_meters":9200,"station_id":"ce4bhbh2rcd13ifvqepg","pricing_plan_id":"cebpf4jnsgd1na2vs0mg"},{"bike_id":"fbf62787-a3c6-4f23-83c5-9f8471a73f2d","system_id":"levelo_inurba_marseille","lat":43.26557,"lon":5.37285,"is_reserved":false,"is_disabled":false,"rental_uris":{"android":"levelo://app?vid=fbf62787-a3c6-4f23-83c5-9f8471a73f2d","ios":"levelo://app?vid=fbf62787-a3c6-4f23-83c5-9f8471a73f2d"},"vehicle_type_id":"4","last_reported":1748628882,"current_range_meters":9200,"station_id":"ce4bhg12rcd13ifvqf70","pricing_plan_id":"cebpf4jnsgd1na2vs0mg"},{"bike_id":"f78cc853-94fc-4b7f-b345-980d57485950","system_id":"levelo_inurba_marseille","lat":43.28617,"lon":5.37083,"is_reserved":false,"is_disabled":false,"rental_uris":{"android":"levelo://app?vid=f78cc853-94fc-4b7f-b345-980d57485950","ios":"levelo://app?vid=f78cc853-94fc-4b7f-b345-980d57485950"},"vehicle_type_id":"4","last_reported":1748628882,"current_range_meters":9200,"station_id":"ce4bht12rcd13ifvqi60","pricing_plan_id":"cebpf4jnsgd1na2vs0mg"},{"bike_id":"a807c8dd-75ce-4f49-b322-50ddd08ec8d0","system_id":"levelo_inurba_marseille","lat":43.34765,"lon":5.3732,"is_reserved":false,"is_disabled":false,"rental_uris":{"android":"levelo://app?vid=a807c8dd-75ce-4f49-b322-50ddd08ec8d0","ios":"levelo://app?vid=a807c8dd-75ce-4f49-b322-50ddd08ec8d0"},"vehicle_type_id":"4","last_reported":1748628882,"current_range_meters":9600,"station_id":"","pricing_plan_id":"cebpf4jnsgd1na2vs0mg"},{"bike_id":"59f782ea-8f8c-4939-8a44-2c4beaaa5a08","system_id":"levelo_inurba_marseille","lat":43.29546,"lon":5.38547,"is_reserved":false,"is_disabled":false,"rental_uris":{"android":"levelo://app?vid=59f782ea-8f8c-4939-8a44-2c4beaaa5a08","ios":"levelo://app?vid=59f782ea-8f8c-4939-8a44-2c4beaaa5a08"},"vehicle_type_id":"4","last_reported":1748628882,"current_range_meters":9600,"station_id":"ce4bgih2rcd13ifvqba0","pricing_plan_id":"cebpf4jnsgd1na2vs0mg"},{"bike_id":"96fb7735-f437-4b0b-86df-91470aa9e7bb","system_id":"levelo_inurba_marseille","lat":43.28939,"lon":5.36378,"is_reserved":false,"is_disabled":false,"rental_uris":{"android":"levelo://app?vid=96fb7735-f437-4b0b-86df-91470aa9e7bb","ios":"levelo://app?vid=96fb7735-f437-4b0b-86df-91470aa9e7bb"},"vehicle_type_id":"4","last_reported":1748628882,"current_range_meters":9600,"station_id":"ce4bhc92rcd13ifvqetg","pricing_plan_id":"cebpf4jnsgd1na2vs0mg"},{"bike_id":"fe0e0aab-c84d-4e36-a4c6-6bf7f57a8f05","system_id":"levelo_inurba_marseille","lat":43.265581,"lon":5.37299,"is_reserved":false,"is_disabled":false,"rental_uris":{"android":"levelo://app?vid=fe0e0aab-c84d-4e36-a4c6-6bf7f57a8f05","ios":"levelo://app?vid=fe0e0aab-c84d-4e36-a4c6-6bf7f57a8f05"},"vehicle_type_id":"4","last_reported":1748628882,"current_range_meters":9600,"station_id":"ce4bhg12rcd13ifvqf70","pricing_plan_id":"cebpf4jnsgd1na2vs0mg"},{"bike_id":"9f5cdba8-740a-479a-a159-32506200106c","system_id":"levelo_inurba_marseille","lat":43.31882,"lon":5.40742,"is_reserved":false,"is_disabled":false,"rental_uris":{"android":"levelo://app?vid=9f5cdba8-740a-479a-a159-32506200106c","ios":"levelo://app?vid=9f5cdba8-740a-479a-a159-32506200106c"},"vehicle_type_id":"4","last_reported":1748628882,"current_range_meters":9600,"station_id":"ce4bhq12rcd13ifvqhig","pricing_plan_id":"cebpf4jnsgd1na2vs0mg"},{"bike_id":"10506cb7-ecd1-4b9a-8a8d-ad241d961b8c","system_id":"levelo_inurba_marseille","lat":43.23205,"lon":5.35553,"is_reserved":false,"is_disabled":false,"rental_uris":{"android":"levelo://app?vid=10506cb7-ecd1-4b9a-8a8d-ad241d961b8c","ios":"levelo://app?vid=10506cb7-ecd1-4b9a-8a8d-ad241d961b8c"},"vehicle_type_id":"4","last_reported":1748628882,"current_range_meters":9600,"station_id":"ce4bhu92rcd13ifvqi70","pricing_plan_id":"cebpf4jnsgd1na2vs0mg"},{"bike_id":"897cca03-43cc-40ed-b3d6-58175ab7a86d","system_id":"levelo_inurba_marseille","lat":43.28585,"lon":5.37034,"is_reserved":false,"is_disabled":false,"rental_uris":{"android":"levelo://app?vid=897cca03-43cc-40ed-b3d6-58175ab7a86d","ios":"levelo://app?vid=897cca03-43cc-40ed-b3d6-58175ab7a86d"},"vehicle_type_id":"4","last_reported":1748628882,"current_range_meters":10000,"station_id":"","pricing_plan_id":"cebpf4jnsgd1na2vs0mg"},{"bike_id":"6bb6b0fc-6101-4831-af1a-168a2a7622fb","system_id":"levelo_inurba_marseille","lat":43.31228,"lon":5.36851,"is_reserved":false,"is_disabled":false,"rental_uris":{"android":"levelo://app?vid=6bb6b0fc-6101-4831-af1a-168a2a7622fb","ios":"levelo://app?vid=6bb6b0fc-6101-4831-af1a-168a2a7622fb"},"vehicle_type_id":"4","last_reported":1748628882,"current_range_meters":10000,"station_id":"ce4bgl92rcd13ifvqbq0","pricing_plan_id":"cebpf4jnsgd1na2vs0mg"},{"bike_id":"6d60f85d-bee1-472a-8890-612bf622c225","system_id":"levelo_inurba_marseille","lat":43.28406,"lon":5.37513,"is_reserved":false,"is_disabled":false,"rental_uris":{"android":"levelo://app?vid=6d60f85d-bee1-472a-8890-612bf622c225","ios":"levelo://app?vid=6d60f85d-bee1-472a-8890-612bf622c225"},"vehicle_type_id":"4","last_reported":1748628882,"current_range_meters":10000,"station_id":"ce4bh412rcd13ifvqds0","pricing_plan_id":"cebpf4jnsgd1na2vs0mg"},{"bike_id":"e75c54e2-a90c-4106-8c64-de85d7c75322","system_id":"levelo_inurba_marseille","lat":43.26189,"lon":5.37444,"is_reserved":false,"is_disabled":false,"rental_uris":{"android":"levelo://app?vid=e75c54e2-a90c-4106-8c64-de85d7c75322","ios":"levelo://app?vid=e75c54e2-a90c-4106-8c64-de85d7c75322"},"vehicle_type_id":"4","last_reported":1748628882,"current_range_meters":10000,"station_id":"ce4bhgp2rcd13ifvqfc0","pricing_plan_id":"cebpf4jnsgd1na2vs0mg"},{"bike_id":"b9853bf0-2544-4a55-8b04-076638c78330","system_id":"levelo_inurba_marseille","lat":43.262107,"lon":5.374407,"is_reserved":false,"is_disabled":false,"rental_uris":{"android":"levelo://app?vid=b9853bf0-2544-4a55-8b04-076638c78330","ios":"levelo://app?vid=b9853bf0-2544-4a55-8b04-076638c78330"},"vehicle_type_id":"4","last_reported":1748628882,"current_range_meters":10000,"station_id":"ce4bhgp2rcd13ifvqfc0","pricing_plan_id":"cebpf4jnsgd1na2vs0mg"},{"bike_id":"31c89d19-ab76-4cd1-885c-2ffa107b2ce0","system_id":"levelo_inurba_marseille","lat":43.27053,"lon":5.4025,"is_reserved":false,"is_disabled":false,"rental_uris":{"android":"levelo://app?vid=31c89d19-ab76-4cd1-885c-2ffa107b2ce0","ios":"levelo://app?vid=31c89d19-ab76-4cd1-885c-2ffa107b2ce0"},"vehicle_type_id":"4","last_reported":1748628882,"current_range_meters":10000,"station_id":"ce4bhk92rcd13ifvqgc0","pricing_plan_id":"cebpf4jnsgd1na2vs0mg"},{"bike_id":"8588c8cd-2f4b-429a-923c-fc0a25cd8d5a","system_id":"levelo_inurba_marseille","lat":43.28154,"lon":5.42653,"is_reserved":false,"is_disabled":false,"rental_uris":{"android":"levelo://app?vid=8588c8cd-2f4b-429a-923c-fc0a25cd8d5a","ios":"levelo://app?vid=8588c8cd-2f4b-429a-923c-fc0a25cd8d5a"},"vehicle_type_id":"4","last_reported":1748628882,"current_range_meters":10000,"station_id":"ce4bhnh2rcd13ifvqgug","pricing_plan_id":"cebpf4jnsgd1na2vs0mg"},{"bike_id":"7243d7c8-02f5-4392-89cf-8c360e846d55","system_id":"levelo_inurba_marseille","lat":43.25282,"lon":5.3786,"is_reserved":false,"is_disabled":false,"rental_uris":{"android":"levelo://app?vid=7243d7c8-02f5-4392-89cf-8c360e846d55","ios":"levelo://app?vid=7243d7c8-02f5-4392-89cf-8c360e846d55"},"vehicle_type_id":"4","last_reported":1748628882,"current_range_meters":10800,"station_id":"","pricing_plan_id":"cebpf4jnsgd1na2vs0mg"},{"bike_id":"b9986bcd-d935-43b4-9761-6db0c42f4dd8","system_id":"levelo_inurba_marseille","lat":43.31693,"lon":5.40462,"is_reserved":false,"is_disabled":false,"rental_uris":{"android":"levelo://app?vid=b9986bcd-d935-43b4-9761-6db0c42f4dd8","ios":"levelo://app?vid=b9986bcd-d935-43b4-9761-6db0c42f4dd8"},"vehicle_type_id":"4","last_reported":1748628882,"current_range_meters":10800,"station_id":"ce4bh012rcd13ifvqd00","pricing_plan_id":"cebpf4jnsgd1na2vs0mg"},{"bike_id":"2820f341-12fc-4e5f-aea8-5031f0a345f8","system_id":"levelo_inurba_marseille","lat":43.28421,"lon":5.34971,"is_reserved":false,"is_disabled":false,"rental_uris":{"android":"levelo://app?vid=2820f341-12fc-4e5f-aea8-5031f0a345f8","ios":"levelo://app?vid=2820f341-12fc-4e5f-aea8-5031f0a345f8"},"vehicle_type_id":"4","last_reported":1748628882,"current_range_meters":10800,"station_id":"ce4bhbh2rcd13ifvqepg","pricing_plan_id":"cebpf4jnsgd1na2vs0mg"},{"bike_id":"bddca6a4-cca0-41aa-ac81-4ecc89db5f94","system_id":"levelo_inurba_marseille","lat":43.29278,"lon":5.36844,"is_reserved":false,"is_disabled":false,"rental_uris":{"android":"levelo://app?vid=bddca6a4-cca0-41aa-ac81-4ecc89db5f94","ios":"levelo://app?vid=bddca6a4-cca0-41aa-ac81-4ecc89db5f94"},"vehicle_type_id":"4","last_reported":1748628882,"current_range_meters":10800,"station_id":"ce4bhbp2rcd13ifvqesg","pricing_plan_id":"cebpf4jnsgd1na2vs0mg"},{"bike_id":"b5c15be9-65ad-4fde-ad47-c3f06f0bb188","system_id":"levelo_inurba_marseille","lat":43.28698,"lon":5.39992,"is_reserved":false,"is_disabled":false,"rental_uris":{"android":"levelo://app?vid=b5c15be9-65ad-4fde-ad47-c3f06f0bb188","ios":"levelo://app?vid=b5c15be9-65ad-4fde-ad47-c3f06f0bb188"},"vehicle_type_id":"4","last_reported":1748628882,"current_range_meters":10800,"station_id":"ce4bho92rcd13ifvqh3g","pricing_plan_id":"cebpf4jnsgd1na2vs0mg"},{"bike_id":"e29482c7-5a0e-4a29-aa3b-ee0d775eff1a","system_id":"levelo_inurba_marseille","lat":43.286083,"lon":5.370602,"is_reserved":false,"is_disabled":false,"rental_uris":{"android":"levelo://app?vid=e29482c7-5a0e-4a29-aa3b-ee0d775eff1a","ios":"levelo://app?vid=e29482c7-5a0e-4a29-aa3b-ee0d775eff1a"},"vehicle_type_id":"4","last_reported":1748628882,"current_range_meters":10800,"station_id":"ce4bht12rcd13ifvqi60","pricing_plan_id":"cebpf4jnsgd1na2vs0mg"},{"bike_id":"c61f2078-3b1f-4923-9017-f64c7004b7bc","system_id":"levelo_inurba_marseille","lat":43.30453,"lon":5.38879,"is_reserved":false,"is_disabled":false,"rental_uris":{"android":"levelo://app?vid=c61f2078-3b1f-4923-9017-f64c7004b7bc","ios":"levelo://app?vid=c61f2078-3b1f-4923-9017-f64c7004b7bc"},"vehicle_type_id":"4","last_reported":1748628882,"current_range_meters":11200,"station_id":"ce4bgk12rcd13ifvqbi0","pricing_plan_id":"cebpf4jnsgd1na2vs0mg"},{"bike_id":"d7ea6bda-401d-470c-8f82-d7e8179ff232","system_id":"levelo_inurba_marseille","lat":43.29697,"lon":5.37712,"is_reserved":false,"is_disabled":false,"rental_uris":{"android":"levelo://app?vid=d7ea6bda-401d-470c-8f82-d7e8179ff232","ios":"levelo://app?vid=d7ea6bda-401d-470c-8f82-d7e8179ff232"},"vehicle_type_id":"4","last_reported":1748628882,"current_range_meters":11200,"station_id":"ce4bgkh2rcd13ifvqbl0","pricing_plan_id":"cebpf4jnsgd1na2vs0mg"},{"bike_id":"ca56806b-dcab-4330-abdb-acee005e3b6e","system_id":"levelo_inurba_marseille","lat":43.2904,"lon":5.37578,"is_reserved":false,"is_disabled":false,"rental_uris":{"android":"levelo://app?vid=ca56806b-dcab-4330-abdb-acee005e3b6e","ios":"levelo://app?vid=ca56806b-dcab-4330-abdb-acee005e3b6e"},"vehicle_type_id":"4","last_reported":1748628882,"current_range_meters":11200,"station_id":"ce4bh692rcd13ifvqe90","pricing_plan_id":"cebpf4jnsgd1na2vs0mg"},{"bike_id":"ac212ab7-7c66-4fbb-9651-36ee2acf6e1c","system_id":"levelo_inurba_marseille","lat":43.28934,"lon":5.36389,"is_reserved":false,"is_disabled":false,"rental_uris":{"android":"levelo://app?vid=ac212ab7-7c66-4fbb-9651-36ee2acf6e1c","ios":"levelo://app?vid=ac212ab7-7c66-4fbb-9651-36ee2acf6e1c"},"vehicle_type_id":"4","last_reported":1748628882,"current_range_meters":11200,"station_id":"ce4bhc92rcd13ifvqetg","pricing_plan_id":"cebpf4jnsgd1na2vs0mg"},{"bike_id":"c5955212-23b9-47a9-8fed-0e2d976ea049","system_id":"levelo_inurba_marseille","lat":43.265574,"lon":5.372788,"is_reserved":false,"is_disabled":false,"rental_uris":{"android":"levelo://app?vid=c5955212-23b9-47a9-8fed-0e2d976ea049","ios":"levelo://app?vid=c5955212-23b9-47a9-8fed-0e2d976ea049"},"vehicle_type_id":"4","last_reported":1748628882,"current_range_meters":11200,"station_id":"ce4bhg12rcd13ifvqf70","pricing_plan_id":"cebpf4jnsgd1na2vs0mg"},{"bike_id":"cd30c94f-75b6-42c2-819b-22c7951fc4f6","system_id":"levelo_inurba_marseille","lat":43.27315,"lon":5.39081,"is_reserved":false,"is_disabled":false,"rental_uris":{"android":"levelo://app?vid=cd30c94f-75b6-42c2-819b-22c7951fc4f6","ios":"levelo://app?vid=cd30c94f-75b6-42c2-819b-22c7951fc4f6"},"vehicle_type_id":"4","last_reported":1748628882,"current_range_meters":11200,"station_id":"ce4bhgp2rcd13ifvqfe0","pricing_plan_id":"cebpf4jnsgd1na2vs0mg"},{"bike_id":"99f5270a-9347-41b3-8083-a5c2b5ba4b95","system_id":"levelo_inurba_marseille","lat":43.25497,"lon":5.37641,"is_reserved":false,"is_disabled":false,"rental_uris":{"android":"levelo://app?vid=99f5270a-9347-41b3-8083-a5c2b5ba4b95","ios":"levelo://app?vid=99f5270a-9347-41b3-8083-a5c2b5ba4b95"},"vehicle_type_id":"4","last_reported":1748628882,"current_range_meters":11200,"station_id":"ce4bhh12rcd13ifvqff0","pricing_plan_id":"cebpf4jnsgd1na2vs0mg"},{"bike_id":"a15699f7-2031-47b8-bec4-afb14ab8ca05","system_id":"levelo_inurba_marseille","lat":43.25092,"lon":5.39519,"is_reserved":false,"is_disabled":false,"rental_uris":{"android":"levelo://app?vid=a15699f7-2031-47b8-bec4-afb14ab8ca05","ios":"levelo://app?vid=a15699f7-2031-47b8-bec4-afb14ab8ca05"},"vehicle_type_id":"4","last_reported":1748628882,"current_range_meters":11200,"station_id":"ce4bhm12rcd13ifvqgkg","pricing_plan_id":"cebpf4jnsgd1na2vs0mg"},{"bike_id":"7330b40d-aef1-42a3-9294-a8c9048131a4","system_id":"levelo_inurba_marseille","lat":43.24085,"lon":5.37762,"is_reserved":false,"is_disabled":false,"rental_uris":{"android":"levelo://app?vid=7330b40d-aef1-42a3-9294-a8c9048131a4","ios":"levelo://app?vid=7330b40d-aef1-42a3-9294-a8c9048131a4"},"vehicle_type_id":"4","last_reported":1748628882,"current_range_meters":11200,"station_id":"ce4bhnp2rcd13ifvqgvg","pricing_plan_id":"cebpf4jnsgd1na2vs0mg"},{"bike_id":"c61c3dd9-af9b-4a12-ae14-05ccaf25c625","system_id":"levelo_inurba_marseille","lat":43.24076,"lon":5.37768,"is_reserved":false,"is_disabled":false,"rental_uris":{"android":"levelo://app?vid=c61c3dd9-af9b-4a12-ae14-05ccaf25c625","ios":"levelo://app?vid=c61c3dd9-af9b-4a12-ae14-05ccaf25c625"},"vehicle_type_id":"4","last_reported":1748628882,"current_range_meters":11200,"station_id":"ce4bhnp2rcd13ifvqgvg","pricing_plan_id":"cebpf4jnsgd1na2vs0mg"},{"bike_id":"05384ac0-6885-4ce9-82a7-9a17497de3d7","system_id":"levelo_inurba_marseille","lat":43.27942,"lon":5.41047,"is_reserved":false,"is_disabled":false,"rental_uris":{"android":"levelo://app?vid=05384ac0-6885-4ce9-82a7-9a17497de3d7","ios":"levelo://app?vid=05384ac0-6885-4ce9-82a7-9a17497de3d7"},"vehicle_type_id":"4","last_reported":1748628882,"current_range_meters":11200,"station_id":"ce4bhnp2rcd13ifvqh0g","pricing_plan_id":"cebpf4jnsgd1na2vs0mg"},{"bike_id":"6cab2d10-7f2c-4dac-ba3d-4f103803cc6a","system_id":"levelo_inurba_marseille","lat":43.2892,"lon":5.3841,"is_reserved":false,"is_disabled":false,"rental_uris":{"android":"levelo://app?vid=6cab2d10-7f2c-4dac-ba3d-4f103803cc6a","ios":"levelo://app?vid=6cab2d10-7f2c-4dac-ba3d-4f103803cc6a"},"vehicle_type_id":"4","last_reported":1748628882,"current_range_meters":11600,"station_id":"ce4bh612rcd13ifvqe6g","pricing_plan_id":"cebpf4jnsgd1na2vs0mg"},{"bike_id":"e53d43de-6314-4e33-86ea-9443af7ada1f","system_id":"levelo_inurba_marseille","lat":43.2926,"lon":5.38439,"is_reserved":false,"is_disabled":false,"rental_uris":{"android":"levelo://app?vid=e53d43de-6314-4e33-86ea-9443af7ada1f","ios":"levelo://app?vid=e53d43de-6314-4e33-86ea-9443af7ada1f"},"vehicle_type_id":"4","last_reported":1748628882,"current_range_meters":11600,"station_id":"ce4bh692rcd13ifvqea0","pricing_plan_id":"cebpf4jnsgd1na2vs0mg"},{"bike_id":"b1a15b56-e42c-40b9-be4b-72fe7a562af2","system_id":"levelo_inurba_marseille","lat":43.28416,"lon":5.34995,"is_reserved":false,"is_disabled":false,"rental_uris":{"android":"levelo://app?vid=b1a15b56-e42c-40b9-be4b-72fe7a562af2","ios":"levelo://app?vid=b1a15b56-e42c-40b9-be4b-72fe7a562af2"},"vehicle_type_id":"4","last_reported":1748628882,"current_range_meters":11600,"station_id":"ce4bhbh2rcd13ifvqepg","pricing_plan_id":"cebpf4jnsgd1na2vs0mg"},{"bike_id":"224bd8e6-5aa6-43c3-9b35-d938c57a99b5","system_id":"levelo_inurba_marseille","lat":43.26562,"lon":5.37272,"is_reserved":false,"is_disabled":false,"rental_uris":{"android":"levelo://app?vid=224bd8e6-5aa6-43c3-9b35-d938c57a99b5","ios":"levelo://app?vid=224bd8e6-5aa6-43c3-9b35-d938c57a99b5"},"vehicle_type_id":"4","last_reported":1748628882,"current_range_meters":11600,"station_id":"ce4bhg12rcd13ifvqf70","pricing_plan_id":"cebpf4jnsgd1na2vs0mg"},{"bike_id":"4edf320b-3fad-4826-a207-7b11ddbeb24a","system_id":"levelo_inurba_marseille","lat":43.24809,"lon":5.37456,"is_reserved":false,"is_disabled":false,"rental_uris":{"android":"levelo://app?vid=4edf320b-3fad-4826-a207-7b11ddbeb24a","ios":"levelo://app?vid=4edf320b-3fad-4826-a207-7b11ddbeb24a"},"vehicle_type_id":"4","last_reported":1748628882,"current_range_meters":11600,"station_id":"ce4bhgh2rcd13ifvqfb0","pricing_plan_id":"cebpf4jnsgd1na2vs0mg"},{"bike_id":"05253e4d-8973-4427-91ee-73d5bfba4f2b","system_id":"levelo_inurba_marseille","lat":43.26191,"lon":5.37449,"is_reserved":false,"is_disabled":false,"rental_uris":{"android":"levelo://app?vid=05253e4d-8973-4427-91ee-73d5bfba4f2b","ios":"levelo://app?vid=05253e4d-8973-4427-91ee-73d5bfba4f2b"},"vehicle_type_id":"4","last_reported":1748628882,"current_range_meters":11600,"station_id":"ce4bhgp2rcd13ifvqfc0","pricing_plan_id":"cebpf4jnsgd1na2vs0mg"},{"bike_id":"c8caa637-4673-4fd6-aa8f-8dfcae9e1886","system_id":"levelo_inurba_marseille","lat":43.262126,"lon":5.374967,"is_reserved":false,"is_disabled":false,"rental_uris":{"android":"levelo://app?vid=c8caa637-4673-4fd6-aa8f-8dfcae9e1886","ios":"levelo://app?vid=c8caa637-4673-4fd6-aa8f-8dfcae9e1886"},"vehicle_type_id":"4","last_reported":1748628882,"current_range_meters":11600,"station_id":"ce4bhgp2rcd13ifvqfc0","pricing_plan_id":"cebpf4jnsgd1na2vs0mg"},{"bike_id":"4e5bc681-7c1e-49e5-ad35-d83b80630d5f","system_id":"levelo_inurba_marseille","lat":43.26191,"lon":5.37446,"is_reserved":false,"is_disabled":false,"rental_uris":{"android":"levelo://app?vid=4e5bc681-7c1e-49e5-ad35-d83b80630d5f","ios":"levelo://app?vid=4e5bc681-7c1e-49e5-ad35-d83b80630d5f"},"vehicle_type_id":"4","last_reported":1748628882,"current_range_meters":11600,"station_id":"ce4bhgp2rcd13ifvqfc0","pricing_plan_id":"cebpf4jnsgd1na2vs0mg"},{"bike_id":"11d5a3c3-b5c3-45ee-9c59-63e06770cf8b","system_id":"levelo_inurba_marseille","lat":43.25108,"lon":5.40325,"is_reserved":false,"is_disabled":false,"rental_uris":{"android":"levelo://app?vid=11d5a3c3-b5c3-45ee-9c59-63e06770cf8b","ios":"levelo://app?vid=11d5a3c3-b5c3-45ee-9c59-63e06770cf8b"},"vehicle_type_id":"4","last_reported":1748628882,"current_range_meters":11600,"station_id":"ce4bhlh2rcd13ifvqgig","pricing_plan_id":"cebpf4jnsgd1na2vs0mg"},{"bike_id":"2514b015-5ccf-4446-80a4-ab3f36946222","system_id":"levelo_inurba_marseille","lat":43.28697,"lon":5.3999,"is_reserved":false,"is_disabled":false,"rental_uris":{"android":"levelo://app?vid=2514b015-5ccf-4446-80a4-ab3f36946222","ios":"levelo://app?vid=2514b015-5ccf-4446-80a4-ab3f36946222"},"vehicle_type_id":"4","last_reported":1748628882,"current_range_meters":11600,"station_id":"ce4bho92rcd13ifvqh3g","pricing_plan_id":"cebpf4jnsgd1na2vs0mg"},{"bike_id":"ec87e33b-85cd-437a-aee0-b4e95c62f028","system_id":"levelo_inurba_marseille","lat":43.29794,"lon":5.38102,"is_reserved":false,"is_disabled":false,"rental_uris":{"android":"levelo://app?vid=ec87e33b-85cd-437a-aee0-b4e95c62f028","ios":"levelo://app?vid=ec87e33b-85cd-437a-aee0-b4e95c62f028"},"vehicle_type_id":"4","last_reported":1748628882,"current_range_meters":12000,"station_id":"ce4bgip2rcd13ifvqbb0","pricing_plan_id":"cebpf4jnsgd1na2vs0mg"},{"bike_id":"64a3d9b3-30f8-4a8c-b831-0d99a9fae7a2","system_id":"levelo_inurba_marseille","lat":43.31691,"lon":5.40472,"is_reserved":false,"is_disabled":false,"rental_uris":{"android":"levelo://app?vid=64a3d9b3-30f8-4a8c-b831-0d99a9fae7a2","ios":"levelo://app?vid=64a3d9b3-30f8-4a8c-b831-0d99a9fae7a2"},"vehicle_type_id":"4","last_reported":1748628882,"current_range_meters":12000,"station_id":"ce4bh012rcd13ifvqd00","pricing_plan_id":"cebpf4jnsgd1na2vs0mg"},{"bike_id":"41c26d2c-77d1-4efc-95e8-5e28166f9fbe","system_id":"levelo_inurba_marseille","lat":43.292513,"lon":5.384378,"is_reserved":false,"is_disabled":false,"rental_uris":{"android":"levelo://app?vid=41c26d2c-77d1-4efc-95e8-5e28166f9fbe","ios":"levelo://app?vid=41c26d2c-77d1-4efc-95e8-5e28166f9fbe"},"vehicle_type_id":"4","last_reported":1748628882,"current_range_meters":12000,"station_id":"ce4bh692rcd13ifvqea0","pricing_plan_id":"cebpf4jnsgd1na2vs0mg"},{"bike_id":"201c1259-18d0-41c7-becc-87af9b859516","system_id":"levelo_inurba_marseille","lat":43.28026,"lon":5.36955,"is_reserved":false,"is_disabled":false,"rental_uris":{"android":"levelo://app?vid=201c1259-18d0-41c7-becc-87af9b859516","ios":"levelo://app?vid=201c1259-18d0-41c7-becc-87af9b859516"},"vehicle_type_id":"4","last_reported":1748628882,"current_range_meters":12000,"station_id":"ce4bha12rcd13ifvqef0","pricing_plan_id":"cebpf4jnsgd1na2vs0mg"},{"bike_id":"7e961dbd-4037-43b3-b2ac-b2957ebe79bc","system_id":"levelo_inurba_marseille","lat":43.29052,"lon":5.35907,"is_reserved":false,"is_disabled":false,"rental_uris":{"android":"levelo://app?vid=7e961dbd-4037-43b3-b2ac-b2957ebe79bc","ios":"levelo://app?vid=7e961dbd-4037-43b3-b2ac-b2957ebe79bc"},"vehicle_type_id":"4","last_reported":1748628882,"current_range_meters":12000,"station_id":"ce4bha92rcd13ifvqeg0","pricing_plan_id":"cebpf4jnsgd1na2vs0mg"},{"bike_id":"cd48de4e-d6f2-4d8f-92c9-d6eea5b6937b","system_id":"levelo_inurba_marseille","lat":43.29217,"lon":5.36049,"is_reserved":false,"is_disabled":false,"rental_uris":{"android":"levelo://app?vid=cd48de4e-d6f2-4d8f-92c9-d6eea5b6937b","ios":"levelo://app?vid=cd48de4e-d6f2-4d8f-92c9-d6eea5b6937b"},"vehicle_type_id":"4","last_reported":1748628882,"current_range_meters":12000,"station_id":"ce4bhbh2rcd13ifvqeqg","pricing_plan_id":"cebpf4jnsgd1na2vs0mg"},{"bike_id":"bac667cf-137e-4ea7-b037-7ebd6a2ad77c","system_id":"levelo_inurba_marseille","lat":43.28265,"lon":5.35085,"is_reserved":false,"is_disabled":false,"rental_uris":{"android":"levelo://app?vid=bac667cf-137e-4ea7-b037-7ebd6a2ad77c","ios":"levelo://app?vid=bac667cf-137e-4ea7-b037-7ebd6a2ad77c"},"vehicle_type_id":"4","last_reported":1748628882,"current_range_meters":12000,"station_id":"ce4bhbp2rcd13ifvqerg","pricing_plan_id":"cebpf4jnsgd1na2vs0mg"},{"bike_id":"9ee87dbe-3990-4764-9a6b-2020fac42886","system_id":"levelo_inurba_marseille","lat":43.321006,"lon":5.367892,"is_reserved":false,"is_disabled":false,"rental_uris":{"android":"levelo://app?vid=9ee87dbe-3990-4764-9a6b-2020fac42886","ios":"levelo://app?vid=9ee87dbe-3990-4764-9a6b-2020fac42886"},"vehicle_type_id":"4","last_reported":1748628882,"current_range_meters":12000,"station_id":"ce4bhrh2rcd13ifvqhug","pricing_plan_id":"cebpf4jnsgd1na2vs0mg"},{"bike_id":"5c7b52fc-c0ab-4e90-9c3c-4b17190c70be","system_id":"levelo_inurba_marseille","lat":43.28614,"lon":5.37054,"is_reserved":false,"is_disabled":false,"rental_uris":{"android":"levelo://app?vid=5c7b52fc-c0ab-4e90-9c3c-4b17190c70be","ios":"levelo://app?vid=5c7b52fc-c0ab-4e90-9c3c-4b17190c70be"},"vehicle_type_id":"4","last_reported":1748628882,"current_range_meters":12000,"station_id":"ce4bht12rcd13ifvqi60","pricing_plan_id":"cebpf4jnsgd1na2vs0mg"},{"bike_id":"b84eaeb5-e634-45be-ab4e-1da5ef32fbf4","system_id":"levelo_inurba_marseille","lat":43.30933,"lon":5.40139,"is_reserved":false,"is_disabled":false,"rental_uris":{"android":"levelo://app?vid=b84eaeb5-e634-45be-ab4e-1da5ef32fbf4","ios":"levelo://app?vid=b84eaeb5-e634-45be-ab4e-1da5ef32fbf4"},"vehicle_type_id":"4","last_reported":1748628882,"current_range_meters":12400,"station_id":"ce4bgvp2rcd13ifvqct0","pricing_plan_id":"cebpf4jnsgd1na2vs0mg"},{"bike_id":"ba36469e-a1f0-4bf7-bc97-06097ee789dd","system_id":"levelo_inurba_marseille","lat":43.29803,"lon":5.40386,"is_reserved":false,"is_disabled":false,"rental_uris":{"android":"levelo://app?vid=ba36469e-a1f0-4bf7-bc97-06097ee789dd","ios":"levelo://app?vid=ba36469e-a1f0-4bf7-bc97-06097ee789dd"},"vehicle_type_id":"4","last_reported":1748628882,"current_range_meters":12400,"station_id":"ce4bh112rcd13ifvqd90","pricing_plan_id":"cebpf4jnsgd1na2vs0mg"},{"bike_id":"ec6b75ab-bd10-4279-8945-564dfce56542","system_id":"levelo_inurba_marseille","lat":43.2669,"lon":5.38267,"is_reserved":false,"is_disabled":false,"rental_uris":{"android":"levelo://app?vid=ec6b75ab-bd10-4279-8945-564dfce56542","ios":"levelo://app?vid=ec6b75ab-bd10-4279-8945-564dfce56542"},"vehicle_type_id":"4","last_reported":1748628882,"current_range_meters":12400,"station_id":"ce4bhg92rcd13ifvqf90","pricing_plan_id":"cebpf4jnsgd1na2vs0mg"},{"bike_id":"99659fe4-df05-4333-ac2b-276971b19282","system_id":"levelo_inurba_marseille","lat":43.22932,"lon":5.35376,"is_reserved":false,"is_disabled":false,"rental_uris":{"android":"levelo://app?vid=99659fe4-df05-4333-ac2b-276971b19282","ios":"levelo://app?vid=99659fe4-df05-4333-ac2b-276971b19282"},"vehicle_type_id":"4","last_reported":1748628882,"current_range_meters":12400,"station_id":"cpo3532slgdg3j2ikp40","pricing_plan_id":"cebpf4jnsgd1na2vs0mg"},{"bike_id":"dd34afa2-f665-4263-85a8-7de7dbd3a196","system_id":"levelo_inurba_marseille","lat":43.27641,"lon":5.39686,"is_reserved":false,"is_disabled":false,"rental_uris":{"android":"levelo://app?vid=dd34afa2-f665-4263-85a8-7de7dbd3a196","ios":"levelo://app?vid=dd34afa2-f665-4263-85a8-7de7dbd3a196"},"vehicle_type_id":"4","last_reported":1748628882,"current_range_meters":12800,"station_id":"","pricing_plan_id":"cebpf4jnsgd1na2vs0mg"},{"bike_id":"990df701-79a7-41ec-b963-3693dc590a87","system_id":"levelo_inurba_marseille","lat":43.301825,"lon":5.379262,"is_reserved":false,"is_disabled":false,"rental_uris":{"android":"levelo://app?vid=990df701-79a7-41ec-b963-3693dc590a87","ios":"levelo://app?vid=990df701-79a7-41ec-b963-3693dc590a87"},"vehicle_type_id":"4","last_reported":1748628882,"current_range_meters":12800,"station_id":"","pricing_plan_id":"cebpf4jnsgd1na2vs0mg"},{"bike_id":"b18036e4-cdbb-441f-a4f1-99c9cdbece34","system_id":"levelo_inurba_marseille","lat":43.295141,"lon":5.39068,"is_reserved":false,"is_disabled":false,"rental_uris":{"android":"levelo://app?vid=b18036e4-cdbb-441f-a4f1-99c9cdbece34","ios":"levelo://app?vid=b18036e4-cdbb-441f-a4f1-99c9cdbece34"},"vehicle_type_id":"4","last_reported":1748628882,"current_range_meters":12800,"station_id":"ce4bh3p2rcd13ifvqdp0","pricing_plan_id":"cebpf4jnsgd1na2vs0mg"},{"bike_id":"237bedd6-639b-4da9-86cd-2a73d690c6f7","system_id":"levelo_inurba_marseille","lat":43.26023,"lon":5.3755,"is_reserved":false,"is_disabled":false,"rental_uris":{"android":"levelo://app?vid=237bedd6-639b-4da9-86cd-2a73d690c6f7","ios":"levelo://app?vid=237bedd6-639b-4da9-86cd-2a73d690c6f7"},"vehicle_type_id":"4","last_reported":1748628882,"current_range_meters":12800,"station_id":"ce4bhgh2rcd13ifvqfa0","pricing_plan_id":"cebpf4jnsgd1na2vs0mg"},{"bike_id":"ef581f4c-67e6-4fec-a59f-aa7c8e6c7dec","system_id":"levelo_inurba_marseille","lat":43.2901,"lon":5.35612,"is_reserved":false,"is_disabled":false,"rental_uris":{"android":"levelo://app?vid=ef581f4c-67e6-4fec-a59f-aa7c8e6c7dec","ios":"levelo://app?vid=ef581f4c-67e6-4fec-a59f-aa7c8e6c7dec"},"vehicle_type_id":"4","last_reported":1748628882,"current_range_meters":13600,"station_id":"","pricing_plan_id":"cebpf4jnsgd1na2vs0mg"},{"bike_id":"7322276a-0795-4cd4-9248-5c6b383798c3","system_id":"levelo_inurba_marseille","lat":43.29302,"lon":5.37165,"is_reserved":false,"is_disabled":false,"rental_uris":{"android":"levelo://app?vid=7322276a-0795-4cd4-9248-5c6b383798c3","ios":"levelo://app?vid=7322276a-0795-4cd4-9248-5c6b383798c3"},"vehicle_type_id":"4","last_reported":1748628882,"current_range_meters":13600,"station_id":"ce4bgh92rcd13ifvqb40","pricing_plan_id":"cebpf4jnsgd1na2vs0mg"},{"bike_id":"dcac3f7e-ac89-4f51-9065-db434d572e88","system_id":"levelo_inurba_marseille","lat":43.29537,"lon":5.38547,"is_reserved":false,"is_disabled":false,"rental_uris":{"android":"levelo://app?vid=dcac3f7e-ac89-4f51-9065-db434d572e88","ios":"levelo://app?vid=dcac3f7e-ac89-4f51-9065-db434d572e88"},"vehicle_type_id":"4","last_reported":1748628882,"current_range_meters":13600,"station_id":"ce4bgih2rcd13ifvqba0","pricing_plan_id":"cebpf4jnsgd1na2vs0mg"},{"bike_id":"e9a78985-0992-4a85-9f33-605a6e4cedb9","system_id":"levelo_inurba_marseille","lat":43.29603,"lon":5.38097,"is_reserved":false,"is_disabled":false,"rental_uris":{"android":"levelo://app?vid=e9a78985-0992-4a85-9f33-605a6e4cedb9","ios":"levelo://app?vid=e9a78985-0992-4a85-9f33-605a6e4cedb9"},"vehicle_type_id":"4","last_reported":1748628882,"current_range_meters":13600,"station_id":"ce4bgl12rcd13ifvqbo0","pricing_plan_id":"cebpf4jnsgd1na2vs0mg"},{"bike_id":"d8e37d9c-b044-408d-9485-96878292aa41","system_id":"levelo_inurba_marseille","lat":43.29882,"lon":5.39725,"is_reserved":false,"is_disabled":false,"rental_uris":{"android":"levelo://app?vid=d8e37d9c-b044-408d-9485-96878292aa41","ios":"levelo://app?vid=d8e37d9c-b044-408d-9485-96878292aa41"},"vehicle_type_id":"4","last_reported":1748628882,"current_range_meters":13600,"station_id":"ce4bh0h2rcd13ifvqd50","pricing_plan_id":"cebpf4jnsgd1na2vs0mg"},{"bike_id":"472e026e-3124-4d00-8455-c82e1d86dfb5","system_id":"levelo_inurba_marseille","lat":43.29268,"lon":5.36852,"is_reserved":false,"is_disabled":false,"rental_uris":{"android":"levelo://app?vid=472e026e-3124-4d00-8455-c82e1d86dfb5","ios":"levelo://app?vid=472e026e-3124-4d00-8455-c82e1d86dfb5"},"vehicle_type_id":"4","last_reported":1748628882,"current_range_meters":13600,"station_id":"ce4bhbp2rcd13ifvqesg","pricing_plan_id":"cebpf4jnsgd1na2vs0mg"},{"bike_id":"143a89d0-b585-4dd0-aef6-2ee26bb03371","system_id":"levelo_inurba_marseille","lat":43.26032,"lon":5.37548,"is_reserved":false,"is_disabled":false,"rental_uris":{"android":"levelo://app?vid=143a89d0-b585-4dd0-aef6-2ee26bb03371","ios":"levelo://app?vid=143a89d0-b585-4dd0-aef6-2ee26bb03371"},"vehicle_type_id":"4","last_reported":1748628882,"current_range_meters":13600,"station_id":"ce4bhgh2rcd13ifvqfa0","pricing_plan_id":"cebpf4jnsgd1na2vs0mg"},{"bike_id":"d6d1ada7-d095-4848-a9c7-71d520f6d868","system_id":"levelo_inurba_marseille","lat":43.299666,"lon":5.384894,"is_reserved":false,"is_disabled":false,"rental_uris":{"android":"levelo://app?vid=d6d1ada7-d095-4848-a9c7-71d520f6d868","ios":"levelo://app?vid=d6d1ada7-d095-4848-a9c7-71d520f6d868"},"vehicle_type_id":"4","last_reported":1748628882,"current_range_meters":14000,"station_id":"","pricing_plan_id":"cebpf4jnsgd1na2vs0mg"},{"bike_id":"1dd79b56-33d8-4238-bfcf-2eecb068f3c9","system_id":"levelo_inurba_marseille","lat":43.29304,"lon":5.37452,"is_reserved":false,"is_disabled":false,"rental_uris":{"android":"levelo://app?vid=1dd79b56-33d8-4238-bfcf-2eecb068f3c9","ios":"levelo://app?vid=1dd79b56-33d8-4238-bfcf-2eecb068f3c9"},"vehicle_type_id":"4","last_reported":1748628882,"current_range_meters":14000,"station_id":"ce4bgi12rcd13ifvqb70","pricing_plan_id":"cebpf4jnsgd1na2vs0mg"},{"bike_id":"9bd8add5-9336-4adc-8c1a-40257f706cf5","system_id":"levelo_inurba_marseille","lat":43.29032,"lon":5.38632,"is_reserved":false,"is_disabled":false,"rental_uris":{"android":"levelo://app?vid=9bd8add5-9336-4adc-8c1a-40257f706cf5","ios":"levelo://app?vid=9bd8add5-9336-4adc-8c1a-40257f706cf5"},"vehicle_type_id":"4","last_reported":1748628882,"current_range_meters":14000,"station_id":"ce4bh4p2rcd13ifvqe0g","pricing_plan_id":"cebpf4jnsgd1na2vs0mg"},{"bike_id":"03976688-07dd-4c46-b124-e49004387be0","system_id":"levelo_inurba_marseille","lat":43.28735,"lon":5.3608,"is_reserved":false,"is_disabled":false,"rental_uris":{"android":"levelo://app?vid=03976688-07dd-4c46-b124-e49004387be0","ios":"levelo://app?vid=03976688-07dd-4c46-b124-e49004387be0"},"vehicle_type_id":"4","last_reported":1748628882,"current_range_meters":14000,"station_id":"cki0cbj6b192h4jlfktg","pricing_plan_id":"cebpf4jnsgd1na2vs0mg"},{"bike_id":"b433ccd5-cacf-41ad-b027-1bfde740b889","system_id":"levelo_inurba_marseille","lat":43.23055,"lon":5.35486,"is_reserved":false,"is_disabled":false,"rental_uris":{"android":"levelo://app?vid=b433ccd5-cacf-41ad-b027-1bfde740b889","ios":"levelo://app?vid=b433ccd5-cacf-41ad-b027-1bfde740b889"},"vehicle_type_id":"4","last_reported":1748628882,"current_range_meters":14000,"station_id":"cpo3342slgdg3j2ifvpg","pricing_plan_id":"cebpf4jnsgd1na2vs0mg"},{"bike_id":"c9c49a7b-e0d5-4e90-9d86-ae4230e24344","system_id":"levelo_inurba_marseille","lat":43.29704,"lon":5.37697,"is_reserved":false,"is_disabled":false,"rental_uris":{"android":"levelo://app?vid=c9c49a7b-e0d5-4e90-9d86-ae4230e24344","ios":"levelo://app?vid=c9c49a7b-e0d5-4e90-9d86-ae4230e24344"},"vehicle_type_id":"4","last_reported":1748628882,"current_range_meters":14400,"station_id":"ce4bgkh2rcd13ifvqbl0","pricing_plan_id":"cebpf4jnsgd1na2vs0mg"},