{"last_updated":1731186442,"ttl":60,"version":"2.2","data":{"bikes":[{"bike_id":"dcd8b508-2c18-4839-ab68-7b52cc2d3fb7","system_id":"levelo_inurba_marseille","lat":43.27067,"lon":5.42277,"is_reserved":false,"is_disabled":false,"rental_uris":{"android":"levelo://app?vid=dcd8b508-2c18-4839-ab68-7b52cc2d3fb7","ios":"levelo://app?vid=dcd8b508-2c18-4839-ab68-7b52cc2d3fb7"},"vehicle_type_id":"4","last_reported":1731186442,"current_range_meters":34000,"station_id":"ce4bhk92rcd13ifvqgb0","pricing_plan_id":"cebpf4jnsgd1na2vs0mg"},{"bike_id":"e94e2327-9eaf-4d26-bd7f-903afa708be6","system_id":"levelo_inurba_marseille","lat":43.3375,"lon":5.39151,"is_reserved":false,"is_disabled":false,"rental_uris":{"android":"levelo://app?vid=e94e2327-9eaf-4d26-bd7f-903afa708be6","ios":"levelo://app?vid=e94e2327-9eaf-4d26-bd7f-903afa708be6"},"vehicle_type_id":"4","last_reported":1731186442,"current_range_meters":17200,"station_id":"ce4bhr92rcd13ifvqhsg","pricing_plan_id":"cebpf4jnsgd1na2vs0mg"},{"bike_id":"b0f42332-bc18-4d94-9a5f-fb485178dd42","system_id":"levelo_inurba_marseille","lat":43.31764,"lon":5.39008,"is_reserved":false,"is_disabled":false,"rental_uris":{"android":"levelo://app?vid=b0f42332-bc18-4d94-9a5f-fb485178dd42","ios":"levelo://app?vid=b0f42332-bc18-4d94-9a5f-fb485178dd42"},"vehicle_type_id":"4","last_reported":1731186442,"current_range_meters":38800,"station_id":"ce4bhqp2rcd13ifvqhng","pricing_plan_id":"cebpf4jnsgd1na2vs0mg"},{"bike_id":"94a7c957-0293-47c8-aa56-b8ac7e660252","system_id":"levelo_inurba_marseille","lat":43.29975,"lon":5.38498,"is_reserved":false,"is_disabled":false,"rental_uris":{"android":"levelo://app?vid=94a7c957-0293-47c8-aa56-b8ac7e660252","ios":"levelo://app?vid=94a7c957-0293-47c8-aa56-b8ac7e660252"},"vehicle_type_id":"4","last_reported":1731186442,"current_range_meters":38000,"station_id":"ce4bgup2rcd13ifvqco0","pricing_plan_id":"cebpf4jnsgd1na2vs0mg"},{"bike_id":"ebc2dd38-00f9-4425-8b8d-2f7cbcea7677","system_id":"levelo_inurba_marseille","lat":43.28003,"lon":5.40016,"is_reserved":false,"is_disabled":false,"rental_uris":{"android":"levelo://app?vid=ebc2dd38-00f9-4425-8b8d-2f7cbcea7677","ios":"levelo://app?vid=ebc2dd38-00f9-4425-8b8d-2f7cbcea7677"},"vehicle_type_id":"4","last_reported":1731186442,"current_range_meters":38000,"station_id":"ce4bho92rcd13ifvqh4g","pricing_plan_id":"cebpf4jnsgd1na2vs0mg"},{"bike_id":"8d618ad3-e42f-4b7f-961b-1ad00e2aa17c","system_id":"levelo_inurba_marseille","lat":43.250106,"lon":5.38922,"is_reserved":false,"is_disabled":false,"rental_uris":{"android":"levelo://app?vid=8d618ad3-e42f-4b7f-961b-1ad00e2aa17c","ios":"levelo://app?vid=8d618ad3-e42f-4b7f-961b-1ad00e2aa17c"},"vehicle_type_id":"4","last_reported":1731186442,"current_range_meters":38400,"station_id":"ce4bhgp2rcd13ifvqfd0","pricing_plan_id":"cebpf4jnsgd1na2vs0mg"},{"bike_id":"68bb9078-c705-4e4c-81de-7ae7c7d86c43","system_id":"levelo_inurba_marseille","lat":43.316975,"lon":5.377543,"is_reserved":false,"is_disabled":false,"rental_uris":{"android":"levelo://app?vid=68bb9078-c705-4e4c-81de-7ae7c7d86c43","ios":"levelo://app?vid=68bb9078-c705-4e4c-81de-7ae7c7d86c43"},"vehicle_type_id":"4","last_reported":1731186442,"current_range_meters":27200,"station_id":"ce4bgth2rcd13ifvqch0","pricing_plan_id":"cebpf4jnsgd1na2vs0mg"},{"bike_id":"b1b45304-85de-47be-a140-b98549ece647","system_id":"levelo_inurba_marseille","lat":43.29781,"lon":5.38106,"is_reserved":false,"is_disabled":false,"rental_uris":{"android":"levelo://app?vid=b1b45304-85de-47be-a140-b98549ece647","ios":"levelo://app?vid=b1b45304-85de-47be-a140-b98549ece647"},"vehicle_type_id":"4","last_reported":1731186442,"current_range_meters":31200,"station_id":"ce4bgip2rcd13ifvqbb0","pricing_plan_id":"cebpf4jnsgd1na2vs0mg"},{"bike_id":"db24e85c-0936-4611-aa24-e7280f607250","system_id":"levelo_inurba_marseille","lat":43.29422,"lon":5.38628,"is_reserved":false,"is_disabled":false,"rental_uris":{"android":"levelo://app?vid=db24e85c-0936-4611-aa24-e7280f607250","ios":"levelo://app?vid=db24e85c-0936-4611-aa24-e7280f607250"},"vehicle_type_id":"4","last_reported":1731186442,"current_range_meters":32400,"station_id":"ce4bh2h2rcd13ifvqdh0","pricing_plan_id":"cebpf4jnsgd1na2vs0mg"},{"bike_id":"5daf7e81-adca-4c69-ac49-7439dac41928","system_id":"levelo_inurba_marseille","lat":43.29561,"lon":5.42287,"is_reserved":false,"is_disabled":false,"rental_uris":{"android":"levelo://app?vid=5daf7e81-adca-4c69-ac49-7439dac41928","ios":"levelo://app?vid=5daf7e81-adca-4c69-ac49-7439dac41928"},"vehicle_type_id":"4","last_reported":1731186442,"current_range_meters":39200,"station_id":"ce4bhph2rcd13ifvqhdg","pricing_plan_id":"cebpf4jnsgd1na2vs0mg"},{"bike_id":"01b71f6d-f085-41cc-9ba8-f10f314851eb","system_id":"levelo_inurba_marseille","lat":43.29538,"lon":5.38538,"is_reserved":false,"is_disabled":false,"rental_uris":{"android":"levelo://app?vid=01b71f6d-f085-41cc-9ba8-f10f314851eb","ios":"levelo://app?vid=01b71f6d-f085-41cc-9ba8-f10f314851eb"},"vehicle_type_id":"4","last_reported":1731186442,"current_range_meters":8400,"station_id":"ce4bgih2rcd13ifvqba0","pricing_plan_id":"cebpf4jnsgd1na2vs0mg"},{"bike_id":"bab7e8bf-3dd9-4ba8-ae9e-1d78dcf614a2","system_id":"levelo_inurba_marseille","lat":43.25082,"lon":5.3951,"is_reserved":false,"is_disabled":false,"rental_uris":{"android":"levelo://app?vid=bab7e8bf-3dd9-4ba8-ae9e-1d78dcf614a2","ios":"levelo://app?vid=bab7e8bf-3dd9-4ba8-ae9e-1d78dcf614a2"},"vehicle_type_id":"4","last_reported":1731186442,"current_range_meters":38400,"station_id":"ce4bhm12rcd13ifvqgkg","pricing_plan_id":"cebpf4jnsgd1na2vs0mg"},{"bike_id":"e216a384-3e35-4268-818c-54b5ad9b419d","system_id":"levelo_inurba_marseille","lat":43.27621,"lon":5.36112,"is_reserved":false,"is_disabled":false,"rental_uris":{"android":"levelo://app?vid=e216a384-3e35-4268-818c-54b5ad9b419d","ios":"levelo://app?vid=e216a384-3e35-4268-818c-54b5ad9b419d"},"vehicle_type_id":"4","last_reported":1731186442,"current_range_meters":9200,"station_id":"ce4bgj92rcd13ifvqbe0","pricing_plan_id":"cebpf4jnsgd1na2vs0mg"},{"bike_id":"5ea278e9-e58b-4e73-bd5d-69aeffdf193a","system_id":"levelo_inurba_marseille","lat":43.29019,"lon":5.38645,"is_reserved":false,"is_disabled":false,"rental_uris":{"android":"levelo://app?vid=5ea278e9-e58b-4e73-bd5d-69aeffdf193a","ios":"levelo://app?vid=5ea278e9-e58b-4e73-bd5d-69aeffdf193a"},"vehicle_type_id":"4","last_reported":1731186442,"current_range_meters":8400,"station_id":"ce4bh4p2rcd13ifvqe0g","pricing_plan_id":"cebpf4jnsgd1na2vs0mg"},{"bike_id":"e07f73d2-5550-4a7c-b567-9792af3c3e2d","system_id":"levelo_inurba_marseille","lat":43.28661,"lon":5.38652,"is_reserved":false,"is_disabled":false,"rental_uris":{"android":"levelo://app?vid=e07f73d2-5550-4a7c-b567-9792af3c3e2d","ios":"levelo://app?vid=e07f73d2-5550-4a7c-b567-9792af3c3e2d"},"vehicle_type_id":"4","last_reported":1731186442,"current_range_meters":38800,"station_id":"ce4bh492rcd13ifvqdug","pricing_plan_id":"cebpf4jnsgd1na2vs0mg"},{"bike_id":"25a016db-5934-4bcc-b160-867ba2a800ae","system_id":"levelo_inurba_marseille","lat":43.29421,"lon":5.38629,"is_reserved":false,"is_disabled":false,"rental_uris":{"android":"levelo://app?vid=25a016db-5934-4bcc-b160-867ba2a800ae","ios":"levelo://app?vid=25a016db-5934-4bcc-b160-867ba2a800ae"},"vehicle_type_id":"4","last_reported":1731186442,"current_range_meters":24800,"station_id":"ce4bh2h2rcd13ifvqdh0","pricing_plan_id":"cebpf4jnsgd1na2vs0mg"},{"bike_id":"9c38ce58-02e0-458d-baf5-e45e12ce62d2","system_id":"levelo_inurba_marseille","lat":43.29529,"lon":5.385442,"is_reserved":false,"is_disabled":false,"rental_uris":{"android":"levelo://app?vid=9c38ce58-02e0-458d-baf5-e45e12ce62d2","ios":"levelo://app?vid=9c38ce58-02e0-458d-baf5-e45e12ce62d2"},"vehicle_type_id":"4","last_reported":1731186442,"current_range_meters":35600,"station_id":"ce4bgih2rcd13ifvqba0","pricing_plan_id":"cebpf4jnsgd1na2vs0mg"},{"bike_id":"95ca7179-935a-4af0-be88-359ab914c56b","system_id":"levelo_inurba_marseille","lat":43.30527,"lon":5.36537,"is_reserved":false,"is_disabled":false,"rental_uris":{"android":"levelo://app?vid=95ca7179-935a-4af0-be88-359ab914c56b","ios":"levelo://app?vid=95ca7179-935a-4af0-be88-359ab914c56b"},"vehicle_type_id":"4","last_reported":1731186442,"current_range_meters":36800,"station_id":"ce4bgs12rcd13ifvqcag","pricing_plan_id":"cebpf4jnsgd1na2vs0mg"},{"bike_id":"ac497fa7-10d3-4ff0-bcf4-f822c6042086","system_id":"levelo_inurba_marseille","lat":43.29975,"lon":5.37166,"is_reserved":false,"is_disabled":false,"rental_uris":{"android":"levelo://app?vid=ac497fa7-10d3-4ff0-bcf4-f822c6042086","ios":"levelo://app?vid=ac497fa7-10d3-4ff0-bcf4-f822c6042086"},"vehicle_type_id":"4","last_reported":1731186442,"current_range_meters":35600,"station_id":"ce4bgr92rcd13ifvqc7g","pricing_plan_id":"cebpf4jnsgd1na2vs0mg"},{"bike_id":"e4741e83-8d7f-4eba-a939-6b9a195f55bd","system_id":"levelo_inurba_marseille","lat":43.28414,"lon":5.37839,"is_reserved":false,"is_disabled":false,"rental_uris":{"android":"levelo://app?vid=e4741e83-8d7f-4eba-a939-6b9a195f55bd","ios":"levelo://app?vid=e4741e83-8d7f-4eba-a939-6b9a195f55bd"},"vehicle_type_id":"4","last_reported":1731186442,"current_range_meters":21600,"station_id":"","pricing_plan_id":"cebpf4jnsgd1na2vs0mg"},{"bike_id":"b8cc0ed6-e1f5-47a0-b50d-47b73189564b","system_id":"levelo_inurba_marseille","lat":43.26208,"lon":5.37927,"is_reserved":false,"is_disabled":false,"rental_uris":{"android":"levelo://app?vid=b8cc0ed6-e1f5-47a0-b50d-47b73189564b","ios":"levelo://app?vid=b8cc0ed6-e1f5-47a0-b50d-47b73189564b"},"vehicle_type_id":"4","last_reported":1731186442,"current_range_meters":3200,"station_id":"ce4bhjp2rcd13ifvqg90","pricing_plan_id":"cebpf4jnsgd1na2vs0mg"},{"bike_id":"b3e47c63-7f80-4237-b227-50e17af583df","system_id":"levelo_inurba_marseille","lat":43.3031,"lon":5.39209,"is_reserved":false,"is_disabled":false,"rental_uris":{"android":"levelo://app?vid=b3e47c63-7f80-4237-b227-50e17af583df","ios":"levelo://app?vid=b3e47c63-7f80-4237-b227-50e17af583df"},"vehicle_type_id":"4","last_reported":1731186442,"current_range_meters":39200,"station_id":"ce4bgkh2rcd13ifvqbk0","pricing_plan_id":"cebpf4jnsgd1na2vs0mg"},{"bike_id":"c21bbdd4-e4f5-4997-95ba-d9b5aa294fac","system_id":"levelo_inurba_marseille","lat":43.27816,"lon":5.40713,"is_reserved":false,"is_disabled":false,"rental_uris":{"android":"levelo://app?vid=c21bbdd4-e4f5-4997-95ba-d9b5aa294fac","ios":"levelo://app?vid=c21bbdd4-e4f5-4997-95ba-d9b5aa294fac"},"vehicle_type_id":"4","last_reported":1731186442,"current_range_meters":6400,"station_id":"ce4bhnh2rcd13ifvqgtg","pricing_plan_id":"cebpf4jnsgd1na2vs0mg"},{"bike_id":"b9059161-bc2a-4853-8231-de961bd5f1e7","system_id":"levelo_inurba_marseille","lat":43.33718,"lon":5.39179,"is_reserved":false,"is_disabled":false,"rental_uris":{"android":"levelo://app?vid=b9059161-bc2a-4853-8231-de961bd5f1e7","ios":"levelo://app?vid=b9059161-bc2a-4853-8231-de961bd5f1e7"},"vehicle_type_id":"4","last_reported":1731186442,"current_range_meters":20800,"station_id":"ce4bhr92rcd13ifvqhsg","pricing_plan_id":"cebpf4jnsgd1na2vs0mg"},{"bike_id":"c66c2227-0a84-41fc-a7bd-1f5d638fa313","system_id":"levelo_inurba_marseille","lat":43.25006,"lon":5.3892,"is_reserved":false,"is_disabled":false,"rental_uris":{"android":"levelo://app?vid=c66c2227-0a84-41fc-a7bd-1f5d638fa313","ios":"levelo://app?vid=c66c2227-0a84-41fc-a7bd-1f5d638fa313"},"vehicle_type_id":"4","last_reported":1731186442,"current_range_meters":38800,"station_id":"ce4bhgp2rcd13ifvqfd0","pricing_plan_id":"cebpf4jnsgd1na2vs0mg"},{"bike_id":"9e00ae8d-b3a9-4d4b-a691-62debbf0e14c","system_id":"levelo_inurba_marseille","lat":43.23187,"lon":5.39991,"is_reserved":false,"is_disabled":false,"rental_uris":{"android":"levelo://app?vid=9e00ae8d-b3a9-4d4b-a691-62debbf0e14c","ios":"levelo://app?vid=9e00ae8d-b3a9-4d4b-a691-62debbf0e14c"},"vehicle_type_id":"4","last_reported":1731186442,"current_range_meters":38800,"station_id":"ce4bhn12rcd13ifvqgqg","pricing_plan_id":"cebpf4jnsgd1na2vs0mg"},{"bike_id":"3e09356d-842a-4c31-9cc1-46c2d49b70cc","system_id":"levelo_inurba_marseille","lat":43.32363,"lon":5.38883,"is_reserved":false,"is_disabled":false,"rental_uris":{"android":"levelo://app?vid=3e09356d-842a-4c31-9cc1-46c2d49b70cc","ios":"levelo://app?vid=3e09356d-842a-4c31-9cc1-46c2d49b70cc"},"vehicle_type_id":"4","last_reported":1731186442,"current_range_meters":3200,"station_id":"ce4bhqp2rcd13ifvqhog","pricing_plan_id":"cebpf4jnsgd1na2vs0mg"},{"bike_id":"9d060b47-c978-4432-b622-c8056cdba2bd","system_id":"levelo_inurba_marseille","lat":43.27071,"lon":5.42275,"is_reserved":false,"is_disabled":false,"rental_uris":{"android":"levelo://app?vid=9d060b47-c978-4432-b622-c8056cdba2bd","ios":"levelo://app?vid=9d060b47-c978-4432-b622-c8056cdba2bd"},"vehicle_type_id":"4","last_reported":1731186442,"current_range_meters":14800,"station_id":"ce4bhk92rcd13ifvqgb0","pricing_plan_id":"cebpf4jnsgd1na2vs0mg"},{"bike_id":"0c840890-4ab7-41f8-8e64-cf28adac14a2","system_id":"levelo_inurba_marseille","lat":43.24996,"lon":5.38933,"is_reserved":false,"is_disabled":false,"rental_uris":{"android":"levelo://app?vid=0c840890-4ab7-41f8-8e64-cf28adac14a2","ios":"levelo://app?vid=0c840890-4ab7-41f8-8e64-cf28adac14a2"},"vehicle_type_id":"4","last_reported":1731186442,"current_range_meters":31200,"station_id":"ce4bhgp2rcd13ifvqfd0","pricing_plan_id":"cebpf4jnsgd1na2vs0mg"},{"bike_id":"7f6039b9-3968-4840-8062-3d5a572ce874","system_id":"levelo_inurba_marseille","lat":43.29635,"lon":5.38792,"is_reserved":false,"is_disabled":false,"rental_uris":{"android":"levelo://app?vid=7f6039b9-3968-4840-8062-3d5a572ce874","ios":"levelo://app?vid=7f6039b9-3968-4840-8062-3d5a572ce874"},"vehicle_type_id":"4","last_reported":1731186442,"current_range_meters":36400,"station_id":"","pricing_plan_id":"cebpf4jnsgd1na2vs0mg"},{"bike_id":"0895aa40-b5f1-4923-b742-567b31932882","system_id":"levelo_inurba_marseille","lat":43.29034,"lon":5.38639,"is_reserved":false,"is_disabled":false,"rental_uris":{"android":"levelo://app?vid=0895aa40-b5f1-4923-b742-567b31932882","ios":"levelo://app?vid=0895aa40-b5f1-4923-b742-567b31932882"},"vehicle_type_id":"4","last_reported":1731186442,"current_range_meters":6400,"station_id":"ce4bh4p2rcd13ifvqe0g","pricing_plan_id":"cebpf4jnsgd1na2vs0mg"},{"bike_id":"eadc5544-d74f-4b08-ad57-ddeb63b596fa","system_id":"levelo_inurba_marseille","lat":43.29536,"lon":5.38546,"is_reserved":false,"is_disabled":false,"rental_uris":{"android":"levelo://app?vid=eadc5544-d74f-4b08-ad57-ddeb63b596fa","ios":"levelo://app?vid=eadc5544-d74f-4b08-ad57-ddeb63b596fa"},"vehicle_type_id":"4","last_reported":1731186442,"current_range_meters":22400,"station_id":"ce4bgih2rcd13ifvqba0","pricing_plan_id":"cebpf4jnsgd1na2vs0mg"},{"bike_id":"d2b69f2e-daf8-4233-be65-2d8ca4c447e9","system_id":"levelo_inurba_marseille","lat":43.25821,"lon":5.39421,"is_reserved":false,"is_disabled":false,"rental_uris":{"android":"levelo://app?vid=d2b69f2e-daf8-4233-be65-2d8ca4c447e9","ios":"levelo://app?vid=d2b69f2e-daf8-4233-be65-2d8ca4c447e9"},"vehicle_type_id":"4","last_reported":1731186442,"current_range_meters":33600,"station_id":"ce4bhip2rcd13ifvqft0","pricing_plan_id":"cebpf4jnsgd1na2vs0mg"},{"bike_id":"9edd8629-ae10-4d90-95bf-0a076dd01727","system_id":"levelo_inurba_marseille","lat":43.26803,"lon":5.40263,"is_reserved":false,"is_disabled":false,"rental_uris":{"android":"levelo://app?vid=9edd8629-ae10-4d90-95bf-0a076dd01727","ios":"levelo://app?vid=9edd8629-ae10-4d90-95bf-0a076dd01727"},"vehicle_type_id":"4","last_reported":1731186442,"current_range_meters":38400,"station_id":"ce501612rcd8frsf0b60","pricing_plan_id":"cebpf4jnsgd1na2vs0mg"},{"bike_id":"22c1039a-3f92-4394-9c5d-93bfb30a65e0","system_id":"levelo_inurba_marseille","lat":43.255,"lon":5.37651,"is_reserved":false,"is_disabled":false,"rental_uris":{"android":"levelo://app?vid=22c1039a-3f92-4394-9c5d-93bfb30a65e0","ios":"levelo://app?vid=22c1039a-3f92-4394-9c5d-93bfb30a65e0"},"vehicle_type_id":"4","last_reported":1731186442,"current_range_meters":19600,"station_id":"ce4bhh12rcd13ifvqff0","pricing_plan_id":"cebpf4jnsgd1na2vs0mg"},{"bike_id":"022a6c3f-2c40-4cbf-9753-f6fa44b0f843","system_id":"levelo_inurba_marseille","lat":43.3128,"lon":5.4016,"is_reserved":false,"is_disabled":false,"rental_uris":{"android":"levelo://app?vid=022a6c3f-2c40-4cbf-9753-f6fa44b0f843","ios":"levelo://app?vid=022a6c3f-2c40-4cbf-9753-f6fa44b0f843"},"vehicle_type_id":"4","last_reported":1731186442,"current_range_meters":38000,"station_id":"ce4bh092rcd13ifvqd30","pricing_plan_id":"cebpf4jnsgd1na2vs0mg"},{"bike_id":"f558ea4f-d047-481c-9fbf-d3b1e5bd4e51","system_id":"levelo_inurba_marseille","lat":43.29912,"lon":5.38134,"is_reserved":false,"is_disabled":false,"rental_uris":{"android":"levelo://app?vid=f558ea4f-d047-481c-9fbf-d3b1e5bd4e51","ios":"levelo://app?vid=f558ea4f-d047-481c-9fbf-d3b1e5bd4e51"},"vehicle_type_id":"4","last_reported":1731186442,"current_range_meters":38000,"station_id":"ce4bgj12rcd13ifvqbc0","pricing_plan_id":"cebpf4jnsgd1na2vs0mg"},{"bike_id":"bc3a48a9-7194-48b5-ad77-f491458d95e1","system_id":"levelo_inurba_marseille","lat":43.31272,"lon":5.40157,"is_reserved":false,"is_disabled":false,"rental_uris":{"android":"levelo://app?vid=bc3a48a9-7194-48b5-ad77-f491458d95e1","ios":"levelo://app?vid=bc3a48a9-7194-48b5-ad77-f491458d95e1"},"vehicle_type_id":"4","last_reported":1731186442,"current_range_meters":27600,"station_id":"ce4bh092rcd13ifvqd30","pricing_plan_id":"cebpf4jnsgd1na2vs0mg"},{"bike_id":"61224571-9b82-4d04-8f16-7b7172746aeb","system_id":"levelo_inurba_marseille","lat":43.26208,"lon":5.37442,"is_reserved":false,"is_disabled":false,"rental_uris":{"android":"levelo://app?vid=61224571-9b82-4d04-8f16-7b7172746aeb","ios":"levelo://app?vid=61224571-9b82-4d04-8f16-7b7172746aeb"},"vehicle_type_id":"4","last_reported":1731186442,"current_range_meters":17200,"station_id":"ce4bhgp2rcd13ifvqfc0","pricing_plan_id":"cebpf4jnsgd1na2vs0mg"},{"bike_id":"24379765-2365-4292-a764-63d757b8cdf7","system_id":"levelo_inurba_marseille","lat":43.2998,"lon":5.38485,"is_reserved":false,"is_disabled":false,"rental_uris":{"android":"levelo://app?vid=24379765-2365-4292-a764-63d757b8cdf7","ios":"levelo://app?vid=24379765-2365-4292-a764-63d757b8cdf7"},"vehicle_type_id":"4","last_reported":1731186442,"current_range_meters":24000,"station_id":"ce4bgj92rcd13ifvqbd0","pricing_plan_id":"cebpf4jnsgd1na2vs0mg"},{"bike_id":"cbe52ca1-7ea1-4cfa-9099-43c9013d88ca","system_id":"levelo_inurba_marseille","lat":43.23961,"lon":5.3663,"is_reserved":false,"is_disabled":false,"rental_uris":{"android":"levelo://app?vid=cbe52ca1-7ea1-4cfa-9099-43c9013d88ca","ios":"levelo://app?vid=cbe52ca1-7ea1-4cfa-9099-43c9013d88ca"},"vehicle_type_id":"4","last_reported":1731186442,"current_range_meters":11200,"station_id":"ce4bhi12rcd13ifvqfp0","pricing_plan_id":"cebpf4jnsgd1na2vs0mg"},{"bike_id":"82fd59e6-9e99-48f0-a873-0ce99c0896f7","system_id":"levelo_inurba_marseille","lat":43.24078,"lon":5.3775,"is_reserved":false,"is_disabled":false,"rental_uris":{"android":"levelo://app?vid=82fd59e6-9e99-48f0-a873-0ce99c0896f7","ios":"levelo://app?vid=82fd59e6-9e99-48f0-a873-0ce99c0896f7"},"vehicle_type_id":"4","last_reported":1731186442,"current_range_meters":22800,"station_id":"ce4bhg12rcd13ifvqf80","pricing_plan_id":"cebpf4jnsgd1na2vs0mg"},{"bike_id":"bdd6c1e4-4d64-4f78-b0c1-188ffa73cc53","system_id":"levelo_inurba_marseille","lat":43.30246,"lon":5.390596,"is_reserved":false,"is_disabled":false,"rental_uris":{"android":"levelo://app?vid=bdd6c1e4-4d64-4f78-b0c1-188ffa73cc53","ios":"levelo://app?vid=bdd6c1e4-4d64-4f78-b0c1-188ffa73cc53"},"vehicle_type_id":"4","last_reported":1731186442,"current_range_meters":16000,"station_id":"","pricing_plan_id":"cebpf4jnsgd1na2vs0mg"},{"bike_id":"b1ecee2f-b8b4-4cb1-b1d1-c31d65983a4e","system_id":"levelo_inurba_marseille","lat":43.29596,"lon":5.37737,"is_reserved":false,"is_disabled":false,"rental_uris":{"android":"levelo://app?vid=b1ecee2f-b8b4-4cb1-b1d1-c31d65983a4e","ios":"levelo://app?vid=b1ecee2f-b8b4-4cb1-b1d1-c31d65983a4e"},"vehicle_type_id":"4","last_reported":1731186442,"current_range_meters":33200,"station_id":"ce4bgi92rcd13ifvqb90","pricing_plan_id":"cebpf4jnsgd1na2vs0mg"},{"bike_id":"4e167b6a-95ea-4c5a-b48a-967acf7cdae4","system_id":"levelo_inurba_marseille","lat":43.29423,"lon":5.38624,"is_reserved":false,"is_disabled":false,"rental_uris":{"android":"levelo://app?vid=4e167b6a-95ea-4c5a-b48a-967acf7cdae4","ios":"levelo://app?vid=4e167b6a-95ea-4c5a-b48a-967acf7cdae4"},"vehicle_type_id":"4","last_reported":1731186442,"current_range_meters":38800,"station_id":"ce4bh2h2rcd13ifvqdh0","pricing_plan_id":"cebpf4jnsgd1na2vs0mg"},{"bike_id":"e931dbea-a637-4f2a-b715-63e0aded4802","system_id":"levelo_inurba_marseille","lat":43.31168,"lon":5.38717,"is_reserved":false,"is_disabled":false,"rental_uris":{"android":"levelo://app?vid=e931dbea-a637-4f2a-b715-63e0aded4802","ios":"levelo://app?vid=e931dbea-a637-4f2a-b715-63e0aded4802"},"vehicle_type_id":"4","last_reported":1731186442,"current_range_meters":39200,"station_id":"ce4bgv12rcd13ifvqcp0","pricing_plan_id":"cebpf4jnsgd1na2vs0mg"},{"bike_id":"c2e7ed3a-f62d-4fe5-9088-bf07ba717243","system_id":"levelo_inurba_marseille","lat":43.26688,"lon":5.38269,"is_reserved":false,"is_disabled":false,"rental_uris":{"android":"levelo://app?vid=c2e7ed3a-f62d-4fe5-9088-bf07ba717243","ios":"levelo://app?vid=c2e7ed3a-f62d-4fe5-9088-bf07ba717243"},"vehicle_type_id":"4","last_reported":1731186442,"current_range_meters":4400,"station_id":"ce4bhg92rcd13ifvqf90","pricing_plan_id":"cebpf4jnsgd1na2vs0mg"},{"bike_id":"71bb50a1-6cdb-4a6f-b24c-1cbd7c603ad3","system_id":"levelo_inurba_marseille","lat":43.31438,"lon":5.3741,"is_reserved":false,"is_disabled":false,"rental_uris":{"android":"levelo://app?vid=71bb50a1-6cdb-4a6f-b24c-1cbd7c603ad3","ios":"levelo://app?vid=71bb50a1-6cdb-4a6f-b24c-1cbd7c603ad3"},"vehicle_type_id":"4","last_reported":1731186442,"current_range_meters":25600,"station_id":"","pricing_plan_id":"cebpf4jnsgd1na2vs0mg"},{"bike_id":"c94909dd-e782-4a49-bf66-6d27f36ac2ee","system_id":"levelo_inurba_marseille","lat":43.29641,"lon":5.38078,"is_reserved":false,"is_disabled":false,"rental_uris":{"android":"levelo://app?vid=c94909dd-e782-4a49-bf66-6d27f36ac2ee","ios":"levelo://app?vid=c94909dd-e782-4a49-bf66-6d27f36ac2ee"},"vehicle_type_id":"4","last_reported":1731186442,"current_range_meters":33200,"station_id":"","pricing_plan_id":"cebpf4jnsgd1na2vs0mg"},{"bike_id":"c221efe7-efcb-49b8-a1b0-1dd8d171a453","system_id":"levelo_inurba_marseille","lat":43.33734,"lon":5.39183,"is_reserved":false,"is_disabled":false,"rental_uris":{"android":"levelo://app?vid=c221efe7-efcb-49b8-a1b0-1dd8d171a453","ios":"levelo://app?vid=c221efe7-efcb-49b8-a1b0-1dd8d171a453"},"vehicle_type_id":"4","last_reported":1731186442,"current_range_meters":38000,"station_id":"ce4bhr92rcd13ifvqhsg","pricing_plan_id":"cebpf4jnsgd1na2vs0mg"},{"bike_id":"b8fdd341-0697-41ca-82c9-e4253415f4e6","system_id":"levelo_inurba_marseille","lat":43.23062,"lon":5.35493,"is_reserved":false,"is_disabled":false,"rental_uris":{"android":"levelo://app?vid=b8fdd341-0697-41ca-82c9-e4253415f4e6","ios":"levelo://app?vid=b8fdd341-0697-41ca-82c9-e4253415f4e6"},"vehicle_type_id":"4","last_reported":1731186442,"current_range_meters":30400,"station_id":"cpo3342slgdg3j2ifvpg","pricing_plan_id":"cebpf4jnsgd1na2vs0mg"},{"bike_id":"cf9daf46-3bd1-47e7-80ac-0de06577c598","system_id":"levelo_inurba_marseille","lat":43.24386,"lon":5.37053,"is_reserved":false,"is_disabled":false,"rental_uris":{"android":"levelo://app?vid=cf9daf46-3bd1-47e7-80ac-0de06577c598","ios":"levelo://app?vid=cf9daf46-3bd1-47e7-80ac-0de06577c598"},"vehicle_type_id":"4","last_reported":1731186442,"current_range_meters":39200,"station_id":"ce4bhhh2rcd13ifvqfk0","pricing_plan_id":"cebpf4jnsgd1na2vs0mg"},{"bike_id":"293483d6-6326-4561-ab3e-ed615f5625f1","system_id":"levelo_inurba_marseille","lat":43.30433,"lon":5.38882,"is_reserved":false,"is_disabled":false,"rental_uris":{"android":"levelo://app?vid=293483d6-6326-4561-ab3e-ed615f5625f1","ios":"levelo://app?vid=293483d6-6326-4561-ab3e-ed615f5625f1"},"vehicle_type_id":"4","last_reported":1731186442,"current_range_meters":25600,"station_id":"ce4bgk12rcd13ifvqbi0","pricing_plan_id":"cebpf4jnsgd1na2vs0mg"},{"bike_id":"5522894e-f5c1-432c-9c12-0e95590ee043","system_id":"levelo_inurba_marseille","lat":43.28041,"lon":5.36949,"is_reserved":false,"is_disabled":false,"rental_uris":{"android":"levelo://app?vid=5522894e-f5c1-432c-9c12-0e95590ee043","ios":"levelo://app?vid=5522894e-f5c1-432c-9c12-0e95590ee043"},"vehicle_type_id":"4","last_reported":1731186442,"current_range_meters":23200,"station_id":"ce4bha12rcd13ifvqef0","pricing_plan_id":"cebpf4jnsgd1na2vs0mg"},{"bike_id":"9273fa3f-8051-4693-b481-186e59c04091","system_id":"levelo_inurba_marseille","lat":43.29429,"lon":5.38614,"is_reserved":false,"is_disabled":false,"rental_uris":{"android":"levelo://app?vid=9273fa3f-8051-4693-b481-186e59c04091","ios":"levelo://app?vid=9273fa3f-8051-4693-b481-186e59c04091"},"vehicle_type_id":"4","last_reported":1731186442,"current_range_meters":20400,"station_id":"ce4bh2h2rcd13ifvqdh0","pricing_plan_id":"cebpf4jnsgd1na2vs0mg"},{"bike_id":"c67a1795-3146-4b01-8240-7fe64c056eca","system_id":"levelo_inurba_marseille","lat":43.3093,"lon":5.40142,"is_reserved":false,"is_disabled":false,"rental_uris":{"android":"levelo://app?vid=c67a1795-3146-4b01-8240-7fe64c056eca","ios":"levelo://app?vid=c67a1795-3146-4b01-8240-7fe64c056eca"},"vehicle_type_id":"4","last_reported":1731186442,"current_range_meters":10000,"station_id":"ce4bgvp2rcd13ifvqct0","pricing_plan_id":"cebpf4jnsgd1na2vs0mg"},{"bike_id":"48ac5c04-4660-41a3-b787-f30e05fcc0f0","system_id":"levelo_inurba_marseille","lat":43.28461,"lon":5.35892,"is_reserved":false,"is_disabled":false,"rental_uris":{"android":"levelo://app?vid=48ac5c04-4660-41a3-b787-f30e05fcc0f0","ios":"levelo://app?vid=48ac5c04-4660-41a3-b787-f30e05fcc0f0"},"vehicle_type_id":"4","last_reported":1731186442,"current_range_meters":27200,"station_id":"ce4bhah2rcd13ifvqei0","pricing_plan_id":"cebpf4jnsgd1na2vs0mg"},{"bike_id":"79cfb2da-a585-4fce-98cf-dc3b63c5a31f","system_id":"levelo_inurba_marseille","lat":43.25086,"lon":5.39519,"is_reserved":false,"is_disabled":false,"rental_uris":{"android":"levelo://app?vid=79cfb2da-a585-4fce-98cf-dc3b63c5a31f","ios":"levelo://app?vid=79cfb2da-a585-4fce-98cf-dc3b63c5a31f"},"vehicle_type_id":"4","last_reported":1731186442,"current_range_meters":38000,"station_id":"ce4bhm12rcd13ifvqgkg","pricing_plan_id":"cebpf4jnsgd1na2vs0mg"},{"bike_id":"42fb419d-4a12-47ad-a0ca-8ce20270d860","system_id":"levelo_inurba_marseille","lat":43.27209,"lon":5.39184,"is_reserved":false,"is_disabled":false,"rental_uris":{"android":"levelo://app?vid=42fb419d-4a12-47ad-a0ca-8ce20270d860","ios":"levelo://app?vid=42fb419d-4a12-47ad-a0ca-8ce20270d860"},"vehicle_type_id":"4","last_reported":1731186442,"current_range_meters":24800,"station_id":"ce4bhhp2rcd13ifvqfm0","pricing_plan_id":"cebpf4jnsgd1na2vs0mg"},{"bike_id":"bc4759fa-afe0-409c-990b-9bc7a136ee1f","system_id":"levelo_inurba_marseille","lat":43.29261,"lon":5.40908,"is_reserved":false,"is_disabled":false,"rental_uris":{"android":"levelo://app?vid=bc4759fa-afe0-409c-990b-9bc7a136ee1f","ios":"levelo://app?vid=bc4759fa-afe0-409c-990b-9bc7a136ee1f"},"vehicle_type_id":"4","last_reported":1731186442,"current_range_meters":14800,"station_id":"ce4bh192rcd13ifvqdc0","pricing_plan_id":"cebpf4jnsgd1na2vs0mg"},{"bike_id":"83206641-9d25-4382-bd47-0c70d39bd341","system_id":"levelo_inurba_marseille","lat":43.3059,"lon":5.39348,"is_reserved":false,"is_disabled":false,"rental_uris":{"android":"levelo://app?vid=83206641-9d25-4382-bd47-0c70d39bd341","ios":"levelo://app?vid=83206641-9d25-4382-bd47-0c70d39bd341"},"vehicle_type_id":"4","last_reported":1731186442,"current_range_meters":38400,"station_id":"ce4bh0p2rcd13ifvqd80","pricing_plan_id":"cebpf4jnsgd1na2vs0mg"},{"bike_id":"45da62df-7f80-44a3-ba8e-1acd781a5f69","system_id":"levelo_inurba_marseille","lat":43.29555,"lon":5.42281,"is_reserved":false,"is_disabled":false,"rental_uris":{"android":"levelo://app?vid=45da62df-7f80-44a3-ba8e-1acd781a5f69","ios":"levelo://app?vid=45da62df-7f80-44a3-ba8e-1acd781a5f69"},"vehicle_type_id":"4","last_reported":1731186442,"current_range_meters":28000,"station_id":"ce4bhph2rcd13ifvqhdg","pricing_plan_id":"cebpf4jnsgd1na2vs0mg"},{"bike_id":"b69da229-916c-4093-9909-4a6100affb0c","system_id":"levelo_inurba_marseille","lat":43.30593,"lon":5.39358,"is_reserved":false,"is_disabled":false,"rental_uris":{"android":"levelo://app?vid=b69da229-916c-4093-9909-4a6100affb0c","ios":"levelo://app?vid=b69da229-916c-4093-9909-4a6100affb0c"},"vehicle_type_id":"4","last_reported":1731186442,"current_range_meters":37600,"station_id":"ce4bh0p2rcd13ifvqd80","pricing_plan_id":"cebpf4jnsgd1na2vs0mg"},{"bike_id":"2972f759-c98e-4fe7-9758-85d215895273","system_id":"levelo_inurba_marseille","lat":43.23964,"lon":5.36627,"is_reserved":false,"is_disabled":false,"rental_uris":{"android":"levelo://app?vid=2972f759-c98e-4fe7-9758-85d215895273","ios":"levelo://app?vid=2972f759-c98e-4fe7-9758-85d215895273"},"vehicle_type_id":"4","last_reported":1731186442,"current_range_meters":38400,"station_id":"ce4bhi12rcd13ifvqfp0","pricing_plan_id":"cebpf4jnsgd1na2vs0mg"},{"bike_id":"010d3bc6-1da9-4e2e-9558-6436a5780c21","system_id":"levelo_inurba_marseille","lat":43.23194,"lon":5.35548,"is_reserved":false,"is_disabled":false,"rental_uris":{"android":"levelo://app?vid=010d3bc6-1da9-4e2e-9558-6436a5780c21","ios":"levelo://app?vid=010d3bc6-1da9-4e2e-9558-6436a5780c21"},"vehicle_type_id":"4","last_reported":1731186442,"current_range_meters":39200,"station_id":"ce4bhu92rcd13ifvqi70","pricing_plan_id":"cebpf4jnsgd1na2vs0mg"},{"bike_id":"197c105a-f7c0-4383-adea-686cdf323f28","system_id":"levelo_inurba_marseille","lat":43.31713,"lon":5.43712,"is_reserved":false,"is_disabled":false,"rental_uris":{"android":"levelo://app?vid=197c105a-f7c0-4383-adea-686cdf323f28","ios":"levelo://app?vid=197c105a-f7c0-4383-adea-686cdf323f28"},"vehicle_type_id":"4","last_reported":1731186442,"current_range_meters":33200,"station_id":"ce4bhp92rcd13ifvqhcg","pricing_plan_id":"cebpf4jnsgd1na2vs0mg"},{"bike_id":"720179be-536c-414c-b19d-c298d2a8d0ec","system_id":"levelo_inurba_marseille","lat":43.29563,"lon":5.42287,"is_reserved":false,"is_disabled":false,"rental_uris":{"android":"levelo://app?vid=720179be-536c-414c-b19d-c298d2a8d0ec","ios":"levelo://app?vid=720179be-536c-414c-b19d-c298d2a8d0ec"},"vehicle_type_id":"4","last_reported":1731186442,"current_range_meters":6800,"station_id":"ce4bhph2rcd13ifvqhdg","pricing_plan_id":"cebpf4jnsgd1na2vs0mg"},{"bike_id":"091a95f2-fbba-49b3-a29a-ec1683eff292","system_id":"levelo_inurba_marseille","lat":43.25119,"lon":5.40314,"is_reserved":false,"is_disabled":false,"rental_uris":{"android":"levelo://app?vid=091a95f2-fbba-49b3-a29a-ec1683eff292","ios":"levelo://app?vid=091a95f2-fbba-49b3-a29a-ec1683eff292"},"vehicle_type_id":"4","last_reported":1731186442,"current_range_meters":9200,"station_id":"ce4bhlh2rcd13ifvqgig","pricing_plan_id":"cebpf4jnsgd1na2vs0mg"},{"bike_id":"b25de221-e9a7-4c18-8d50-062dbb86e768","system_id":"levelo_inurba_marseille","lat":43.32472,"lon":5.36559,"is_reserved":false,"is_disabled":false,"rental_uris":{"android":"levelo://app?vid=b25de221-e9a7-4c18-8d50-062dbb86e768","ios":"levelo://app?vid=b25de221-e9a7-4c18-8d50-062dbb86e768"},"vehicle_type_id":"4","last_reported":1731186442,"current_range_meters":38000,"station_id":"ce4bhs12rcd13ifvqhvg","pricing_plan_id":"cebpf4jnsgd1na2vs0mg"},{"bike_id":"b484e10f-5530-499a-9266-a7d441c35196","system_id":"levelo_inurba_marseille","lat":43.29271,"lon":5.38444,"is_reserved":false,"is_disabled":false,"rental_uris":{"android":"levelo://app?vid=b484e10f-5530-499a-9266-a7d441c35196","ios":"levelo://app?vid=b484e10f-5530-499a-9266-a7d441c35196"},"vehicle_type_id":"4","last_reported":1731186442,"current_range_meters":22800,"station_id":"ce4bh692rcd13ifvqea0","pricing_plan_id":"cebpf4jnsgd1na2vs0mg"},{"bike_id":"018a3589-77d8-4b19-83ac-f9642172d886","system_id":"levelo_inurba_marseille","lat":43.28116,"lon":5.37839,"is_reserved":false,"is_disabled":false,"rental_uris":{"android":"levelo://app?vid=018a3589-77d8-4b19-83ac-f9642172d886","ios":"levelo://app?vid=018a3589-77d8-4b19-83ac-f9642172d886"},"vehicle_type_id":"4","last_reported":1731186442,"current_range_meters":28800,"station_id":"ce4bha12rcd13ifvqee0","pricing_plan_id":"cebpf4jnsgd1na2vs0mg"},{"bike_id":"d1288870-7c66-420c-a79d-ed206752a9ad","system_id":"levelo_inurba_marseille","lat":43.27831,"lon":5.39202,"is_reserved":false,"is_disabled":false,"rental_uris":{"android":"levelo://app?vid=d1288870-7c66-420c-a79d-ed206752a9ad","ios":"levelo://app?vid=d1288870-7c66-420c-a79d-ed206752a9ad"},"vehicle_type_id":"4","last_reported":1731186442,"current_range_meters":8000,"station_id":"ce4bhjp2rcd13ifvqga0","pricing_plan_id":"cebpf4jnsgd1na2vs0mg"},{"bike_id":"1511e94f-1490-4ebd-bfc7-b9fb035707c0","system_id":"levelo_inurba_marseille","lat":43.26953,"lon":5.38624,"is_reserved":false,"is_disabled":false,"rental_uris":{"android":"levelo://app?vid=1511e94f-1490-4ebd-bfc7-b9fb035707c0","ios":"levelo://app?vid=1511e94f-1490-4ebd-bfc7-b9fb035707c0"},"vehicle_type_id":"4","last_reported":1731186442,"current_range_meters":37600,"station_id":"ce4bhh92rcd13ifvqfh0","pricing_plan_id":"cebpf4jnsgd1na2vs0mg"},{"bike_id":"b69ed352-f5e4-4470-9d1b-9ce134e97c50","system_id":"levelo_inurba_marseille","lat":43.27945,"lon":5.410435,"is_reserved":false,"is_disabled":false,"rental_uris":{"android":"levelo://app?vid=b69ed352-f5e4-4470-9d1b-9ce134e97c50","ios":"levelo://app?vid=b69ed352-f5e4-4470-9d1b-9ce134e97c50"},"vehicle_type_id":"4","last_reported":1731186442,"current_range_meters":30000,"station_id":"ce4bhnp2rcd13ifvqh0g","pricing_plan_id":"cebpf4jnsgd1na2vs0mg"},{"bike_id":"7412918f-e852-4734-ac8b-c4b5d62b6217","system_id":"levelo_inurba_marseille","lat":43.31363,"lon":5.38497,"is_reserved":false,"is_disabled":false,"rental_uris":{"android":"levelo://app?vid=7412918f-e852-4734-ac8b-c4b5d62b6217","ios":"levelo://app?vid=7412918f-e852-4734-ac8b-c4b5d62b6217"},"vehicle_type_id":"4","last_reported":1731186442,"current_range_meters":19200,"station_id":"ce4bgt92rcd13ifvqcf0","pricing_plan_id":"cebpf4jnsgd1na2vs0mg"},{"bike_id":"2ad361b6-540e-4873-9e5b-6b5de9b52523","system_id":"levelo_inurba_marseille","lat":43.23963,"lon":5.36622,"is_reserved":false,"is_disabled":false,"rental_uris":{"android":"levelo://app?vid=2ad361b6-540e-4873-9e5b-6b5de9b52523","ios":"levelo://app?vid=2ad361b6-540e-4873-9e5b-6b5de9b52523"},"vehicle_type_id":"4","last_reported":1731186442,"current_range_meters":6400,"station_id":"ce4bhi12rcd13ifvqfp0","pricing_plan_id":"cebpf4jnsgd1na2vs0mg"},{"bike_id":"fa290c10-0eac-401f-bd34-34c77d81c917","system_id":"levelo_inurba_marseille","lat":43.23966,"lon":5.36629,"is_reserved":false,"is_disabled":false,"rental_uris":{"android":"levelo://app?vid=fa290c10-0eac-401f-bd34-34c77d81c917","ios":"levelo://app?vid=fa290c10-0eac-401f-bd34-34c77d81c917"},"vehicle_type_id":"4","last_reported":1731186442,"current_range_meters":19200,"station_id":"ce4bhi12rcd13ifvqfp0","pricing_plan_id":"cebpf4jnsgd1na2vs0mg"},{"bike_id":"2dd3642c-3383-41e6-ad25-833a8bc678a1","system_id":"levelo_inurba_marseille","lat":43.27684,"lon":5.38905,"is_reserved":false,"is_disabled":false,"rental_uris":{"android":"levelo://app?vid=2dd3642c-3383-41e6-ad25-833a8bc678a1","ios":"levelo://app?vid=2dd3642c-3383-41e6-ad25-833a8bc678a1"},"vehicle_type_id":"4","last_reported":1731186442,"current_range_meters":25200,"station_id":"ce4bhi12rcd13ifvqfo0","pricing_plan_id":"cebpf4jnsgd1na2vs0mg"},{"bike_id":"cb9b0141-af3c-4068-925c-38c2867ded80","system_id":"levelo_inurba_marseille","lat":43.27375,"lon":5.36249,"is_reserved":false,"is_disabled":false,"rental_uris":{"android":"levelo://app?vid=cb9b0141-af3c-4068-925c-38c2867ded80","ios":"levelo://app?vid=cb9b0141-af3c-4068-925c-38c2867ded80"},"vehicle_type_id":"4","last_reported":1731186442,"current_range_meters":11200,"station_id":"ce4bhbh2rcd13ifvqeo0","pricing_plan_id":"cebpf4jnsgd1na2vs0mg"},{"bike_id":"e2c2f3e0-4f75-4dab-b721-40ad3e42e2b2","system_id":"levelo_inurba_marseille","lat":43.28135,"lon":5.44269,"is_reserved":false,"is_disabled":false,"rental_uris":{"android":"levelo://app?vid=e2c2f3e0-4f75-4dab-b721-40ad3e42e2b2","ios":"levelo://app?vid=e2c2f3e0-4f75-4dab-b721-40ad3e42e2b2"},"vehicle_type_id":"4","last_reported":1731186442,"current_range_meters":25200,"station_id":"","pricing_plan_id":"cebpf4jnsgd1na2vs0mg"},{"bike_id":"5e9b58e1-3c83-4d6d-8e63-bd401c235d13","system_id":"levelo_inurba_marseille","lat":43.2417,"lon":5.36404,"is_reserved":false,"is_disabled":false,"rental_uris":{"android":"levelo://app?vid=5e9b58e1-3c83-4d6d-8e63-bd401c235d13","ios":"levelo://app?vid=5e9b58e1-3c83-4d6d-8e63-bd401c235d13"},"vehicle_type_id":"4","last_reported":1731186442,"current_range_meters":9600,"station_id":"cpo36qri1sfpv3e86is0","pricing_plan_id":"cebpf4jnsgd1na2vs0mg"},{"bike_id":"b9478b1d-79e3-44c9-ae60-496dd5151f62","system_id":"levelo_inurba_marseille","lat":43.29166,"lon":5.37147,"is_reserved":false,"is_disabled":false,"rental_uris":{"android":"levelo://app?vid=b9478b1d-79e3-44c9-ae60-496dd5151f62","ios":"levelo://app?vid=b9478b1d-79e3-44c9-ae60-496dd5151f62"},"vehicle_type_id":"4","last_reported":1731186442,"current_range_meters":35600,"station_id":"ce4bha92rcd13ifvqeh0","pricing_plan_id":"cebpf4jnsgd1na2vs0mg"},{"bike_id":"b0ddf9b4-5e10-4df8-a49e-eaf62a5f5034","system_id":"levelo_inurba_marseille","lat":43.30157,"lon":5.38073,"is_reserved":false,"is_disabled":false,"rental_uris":{"android":"levelo://app?vid=b0ddf9b4-5e10-4df8-a49e-eaf62a5f5034","ios":"levelo://app?vid=b0ddf9b4-5e10-4df8-a49e-eaf62a5f5034"},"vehicle_type_id":"4","last_reported":1731186442,"current_range_meters":28000,"station_id":"ce4bgjp2rcd13ifvqbh0","pricing_plan_id":"cebpf4jnsgd1na2vs0mg"},{"bike_id":"4204c697-9142-4d6f-a64b-20f319f8c9a7","system_id":"levelo_inurba_marseille","lat":43.2707,"lon":5.42277,"is_reserved":false,"is_disabled":false,"rental_uris":{"android":"levelo://app?vid=4204c697-9142-4d6f-a64b-20f319f8c9a7","ios":"levelo://app?vid=4204c697-9142-4d6f-a64b-20f319f8c9a7"},"vehicle_type_id":"4","last_reported":1731186442,"current_range_meters":11600,"station_id":"ce4bhk92rcd13ifvqgb0","pricing_plan_id":"cebpf4jnsgd1na2vs0mg"},{"bike_id":"784b2a2a-419a-460b-9e9b-be804f36db5c","system_id":"levelo_inurba_marseille","lat":43.24807,"lon":5.37453,"is_reserved":false,"is_disabled":false,"rental_uris":{"android":"levelo://app?vid=784b2a2a-419a-460b-9e9b-be804f36db5c","ios":"levelo://app?vid=784b2a2a-419a-460b-9e9b-be804f36db5c"},"vehicle_type_id":"4","last_reported":1731186442,"current_range_meters":6000,"station_id":"ce4bhgh2rcd13ifvqfb0","pricing_plan_id":"cebpf4jnsgd1na2vs0mg"},{"bike_id":"3330e2ed-9116-4a4c-946c-9a8f4885593d","system_id":"levelo_inurba_marseille","lat":43.29259,"lon":5.3843,"is_reserved":false,"is_disabled":false,"rental_uris":{"android":"levelo://app?vid=3330e2ed-9116-4a4c-946c-9a8f4885593d","ios":"levelo://app?vid=3330e2ed-9116-4a4c-946c-9a8f4885593d"},"vehicle_type_id":"4","last_reported":1731186442,"current_range_meters":36000,"station_id":"ce4bh692rcd13ifvqea0","pricing_plan_id":"cebpf4jnsgd1na2vs0mg"},{"bike_id":"de15f00a-25b1-4b9b-a102-3b4e4c3a83ba","system_id":"levelo_inurba_marseille","lat":43.30155,"lon":5.38087,"is_reserved":false,"is_disabled":false,"rental_uris":{"android":"levelo://app?vid=de15f00a-25b1-4b9b-a102-3b4e4c3a83ba","ios":"levelo://app?vid=de15f00a-25b1-4b9b-a102-3b4e4c3a83ba"},"vehicle_type_id":"4","last_reported":1731186442,"current_range_meters":28800,"station_id":"ce4bgjp2rcd13ifvqbh0","pricing_plan_id":"cebpf4jnsgd1na2vs0mg"},{"bike_id":"3a118f73-4a27-43eb-90d2-9a235b7e31e8","system_id":"levelo_inurba_marseille","lat":43.29788,"lon":5.3809,"is_reserved":false,"is_disabled":false,"rental_uris":{"android":"levelo://app?vid=3a118f73-4a27-43eb-90d2-9a235b7e31e8","ios":"levelo://app?vid=3a118f73-4a27-43eb-90d2-9a235b7e31e8"},"vehicle_type_id":"4","last_reported":1731186442,"current_range_meters":38800,"station_id":"ce4bgip2rcd13ifvqbb0","pricing_plan_id":"cebpf4jnsgd1na2vs0mg"},{"bike_id":"4f8f3d05-77a1-4608-a529-e5ae940296cc","system_id":"levelo_inurba_marseille","lat":43.28938,"lon":5.36634,"is_reserved":false,"is_disabled":false,"rental_uris":{"android":"levelo://app?vid=4f8f3d05-77a1-4608-a529-e5ae940296cc","ios":"levelo://app?vid=4f8f3d05-77a1-4608-a529-e5ae940296cc"},"vehicle_type_id":"4","last_reported":1731186442,"current_range_meters":38800,"station_id":"ce4bhap2rcd13ifvqek0","pricing_plan_id":"cebpf4jnsgd1na2vs0mg"},{"bike_id":"62e36f07-39ba-480c-a73a-58914fab6d81","system_id":"levelo_inurba_marseille","lat":43.29569,"lon":5.3998,"is_reserved":false,"is_disabled":false,"rental_uris":{"android":"levelo://app?vid=62e36f07-39ba-480c-a73a-58914fab6d81","ios":"levelo://app?vid=62e36f07-39ba-480c-a73a-58914fab6d81"},"vehicle_type_id":"4","last_reported":1731186442,"current_range_meters":19600,"station_id":"ce4bh312rcd13ifvqdj0","pricing_plan_id":"cebpf4jnsgd1na2vs0mg"},{"bike_id":"72209f68-d3ea-4a0c-9190-6a49cfe843ba","system_id":"levelo_inurba_marseille","lat":43.27945,"lon":5.41054,"is_reserved":false,"is_disabled":false,"rental_uris":{"android":"levelo://app?vid=72209f68-d3ea-4a0c-9190-6a49cfe843ba","ios":"levelo://app?vid=72209f68-d3ea-4a0c-9190-6a49cfe843ba"},"vehicle_type_id":"4","last_reported":1731186442,"current_range_meters":8800,"station_id":"ce4bhnp2rcd13ifvqh0g","pricing_plan_id":"cebpf4jnsgd1na2vs0mg"},{"bike_id":"5bf22cbb-f31b-471c-8d5f-6aeecda0ccf8","system_id":"levelo_inurba_marseille","lat":43.29068,"lon":5.37155,"is_reserved":false,"is_disabled":false,"rental_uris":{"android":"levelo://app?vid=5bf22cbb-f31b-471c-8d5f-6aeecda0ccf8","ios":"levelo://app?vid=5bf22cbb-f31b-471c-8d5f-6aeecda0ccf8"},"vehicle_type_id":"4","last_reported":1731186442,"current_range_meters":21600,"station_id":"ce4bh5p2rcd13ifvqe4g","pricing_plan_id":"cebpf4jnsgd1na2vs0mg"},{"bike_id":"3ac16dfb-3fd5-4c02-b439-fa79027ad069","system_id":"levelo_inurba_marseille","lat":43.29621,"lon":5.3772,"is_reserved":false,"is_disabled":false,"rental_uris":{"android":"levelo://app?vid=3ac16dfb-3fd5-4c02-b439-fa79027ad069","ios":"levelo://app?vid=3ac16dfb-3fd5-4c02-b439-fa79027ad069"},"vehicle_type_id":"4","last_reported":1731186442,"current_range_meters":37600,"station_id":"ce4bgi92rcd13ifvqb90","pricing_plan_id":"cebpf4jnsgd1na2vs0mg"},{"bike_id":"9a23734e-d78f-4570-ac93-276040298589","system_id":"levelo_inurba_marseille","lat":43.25113,"lon":5.40316,"is_reserved":false,"is_disabled":false,"rental_uris":{"android":"levelo://app?vid=9a23734e-d78f-4570-ac93-276040298589","ios":"levelo://app?vid=9a23734e-d78f-4570-ac93-276040298589"},"vehicle_type_id":"4","last_reported":1731186442,"current_range_meters":38800,"station_id":"ce4bhlh2rcd13ifvqgig","pricing_plan_id":"cebpf4jnsgd1na2vs0mg"},{"bike_id":"e6dc57cf-44da-4102-9d69-7c7b35161e11","system_id":"levelo_inurba_marseille","lat":43.24174,"lon":5.3639,"is_reserved":false,"is_disabled":false,"rental_uris":{"android":"levelo://app?vid=e6dc57cf-44da-4102-9d69-7c7b35161e11","ios":"levelo://app?vid=e6dc57cf-44da-4102-9d69-7c7b35161e11"},"vehicle_type_id":"4","last_reported":1731186442,"current_range_meters":38800,"station_id":"cpo36qri1sfpv3e86is0","pricing_plan_id":"cebpf4jnsgd1na2vs0mg"},{"bike_id":"ef288286-229d-4b9a-a189-8d61840dcffb","system_id":"levelo_inurba_marseille","lat":43.23198,"lon":5.35549,"is_reserved":false,"is_disabled":false,"rental_uris":{"android":"levelo://app?vid=ef288286-229d-4b9a-a189-8d61840dcffb","ios":"levelo://app?vid=ef288286-229d-4b9a-a189-8d61840dcffb"},"vehicle_type_id":"4","last_reported":1731186442,"current_range_meters":32000,"station_id":"ce4bhu92rcd13ifvqi70","pricing_plan_id":"cebpf4jnsgd1na2vs0mg"},{"bike_id":"a90f60de-af06-4929-aa1e-d28432ded2b3","system_id":"levelo_inurba_marseille","lat":43.24547,"lon":5.3952,"is_reserved":false,"is_disabled":false,"rental_uris":{"android":"levelo://app?vid=a90f60de-af06-4929-aa1e-d28432ded2b3","ios":"levelo://app?vid=a90f60de-af06-4929-aa1e-d28432ded2b3"},"vehicle_type_id":"4","last_reported":1731186442,"current_range_meters":22000,"station_id":"ce4bhlp2rcd13ifvqgjg","pricing_plan_id":"cebpf4jnsgd1na2vs0mg"},{"bike_id":"29831e44-80f6-4b23-93d4-fc8b0d9e5081","system_id":"levelo_inurba_marseille","lat":43.32655,"lon":5.40994,"is_reserved":false,"is_disabled":false,"rental_uris":{"android":"levelo://app?vid=29831e44-80f6-4b23-93d4-fc8b0d9e5081","ios":"levelo://app?vid=29831e44-80f6-4b23-93d4-fc8b0d9e5081"},"vehicle_type_id":"4","last_reported":1731186442,"current_range_meters":38800,"station_id":"ce4bhpp2rcd13ifvqhgg","pricing_plan_id":"cebpf4jnsgd1na2vs0mg"},{"bike_id":"7f0b151f-707d-4e17-92a8-e86a0b1a1933","system_id":"levelo_inurba_marseille","lat":43.29025,"lon":5.38652,"is_reserved":false,"is_disabled":false,"rental_uris":{"android":"levelo://app?vid=7f0b151f-707d-4e17-92a8-e86a0b1a1933","ios":"levelo://app?vid=7f0b151f-707d-4e17-92a8-e86a0b1a1933"},"vehicle_type_id":"4","last_reported":1731186442,"current_range_meters":36000,"station_id":"ce4bh4p2rcd13ifvqe0g","pricing_plan_id":"cebpf4jnsgd1na2vs0mg"},{"bike_id":"b209aea8-010f-4804-9829-2e3b3a19832b","system_id":"levelo_inurba_marseille","lat":43.29981,"lon":5.37169,"is_reserved":false,"is_disabled":false,"rental_uris":{"android":"levelo://app?vid=b209aea8-010f-4804-9829-2e3b3a19832b","ios":"levelo://app?vid=b209aea8-010f-4804-9829-2e3b3a19832b"},"vehicle_type_id":"4","last_reported":1731186442,"current_range_meters":29600,"station_id":"ce4bgr92rcd13ifvqc7g","pricing_plan_id":"cebpf4jnsgd1na2vs0mg"},{"bike_id":"a2fa04e3-6643-42d6-935c-150fa80d7020","system_id":"levelo_inurba_marseille","lat":43.29589,"lon":5.38107,"is_reserved":false,"is_disabled":false,"rental_uris":{"android":"levelo://app?vid=a2fa04e3-6643-42d6-935c-150fa80d7020","ios":"levelo://app?vid=a2fa04e3-6643-42d6-935c-150fa80d7020"},"vehicle_type_id":"4","last_reported":1731186442,"current_range_meters":38800,"station_id":"ce4bgl12rcd13ifvqbo0","pricing_plan_id":"cebpf4jnsgd1na2vs0mg"},{"bike_id":"50dbf5a8-127a-4b83-8559-ce30ebb77bae","system_id":"levelo_inurba_marseille","lat":43.25088,"lon":5.39526,"is_reserved":false,"is_disabled":false,"rental_uris":{"android":"levelo://app?vid=50dbf5a8-127a-4b83-8559-ce30ebb77bae","ios":"levelo://app?vid=50dbf5a8-127a-4b83-8559-ce30ebb77bae"},"vehicle_type_id":"4","last_reported":1731186442,"current_range_meters":38800,"station_id":"ce4bhm12rcd13ifvqgkg","pricing_plan_id":"cebpf4jnsgd1na2vs0mg"},{"bike_id":"81d75b94-235f-4d66-95b8-a1c86584fb9a","system_id":"levelo_inurba_marseille","lat":43.29911,"lon":5.38067,"is_reserved":false,"is_disabled":false,"rental_uris":{"android":"levelo://app?vid=81d75b94-235f-4d66-95b8-a1c86584fb9a","ios":"levelo://app?vid=81d75b94-235f-4d66-95b8-a1c86584fb9a"},"vehicle_type_id":"4","last_reported":1731186442,"current_range_meters":8000,"station_id":"","pricing_plan_id":"cebpf4jnsgd1na2vs0mg"},{"bike_id":"86cea570-f3eb-4f91-9d52-d9ae66e3bc8f","system_id":"levelo_inurba_marseille","lat":43.29795,"lon":5.38089,"is_reserved":false,"is_disabled":false,"rental_uris":{"android":"levelo://app?vid=86cea570-f3eb-4f91-9d52-d9ae66e3bc8f","ios":"levelo://app?vid=86cea570-f3eb-4f91-9d52-d9ae66e3bc8f"},"vehicle_type_id":"4","last_reported":1731186442,"current_range_meters":38800,"station_id":"ce4bgip2rcd13ifvqbb0","pricing_plan_id":"cebpf4jnsgd1na2vs0mg"},{"bike_id":"e941d4bd-50f5-4659-9a23-44ee47c672ae","system_id":"levelo_inurba_marseille","lat":43.3078,"lon":5.37642,"is_reserved":false,"is_disabled":false,"rental_uris":{"android":"levelo://app?vid=e941d4bd-50f5-4659-9a23-44ee47c672ae","ios":"levelo://app?vid=e941d4bd-50f5-4659-9a23-44ee47c672ae"},"vehicle_type_id":"4","last_reported":1731186442,"current_range_meters":23200,"station_id":"ce4bgv92rcd13ifvqcq0","pricing_plan_id":"cebpf4jnsgd1na2vs0mg"},{"bike_id":"f0730e13-11c4-4020-956a-ca204d2dd6c0","system_id":"levelo_inurba_marseille","lat":43.29557,"lon":5.42286,"is_reserved":false,"is_disabled":false,"rental_uris":{"android":"levelo://app?vid=f0730e13-11c4-4020-956a-ca204d2dd6c0","ios":"levelo://app?vid=f0730e13-11c4-4020-956a-ca204d2dd6c0"},"vehicle_type_id":"4","last_reported":1731186442,"current_range_meters":9600,"station_id":"ce4bhph2rcd13ifvqhdg","pricing_plan_id":"cebpf4jnsgd1na2vs0mg"},{"bike_id":"7dd58fa2-256b-4976-9ccd-79d00d13c0e3","system_id":"levelo_inurba_marseille","lat":43.28071,"lon":5.39666,"is_reserved":false,"is_disabled":false,"rental_uris":{"android":"levelo://app?vid=7dd58fa2-256b-4976-9ccd-79d00d13c0e3","ios":"levelo://app?vid=7dd58fa2-256b-4976-9ccd-79d00d13c0e3"},"vehicle_type_id":"4","last_reported":1731186442,"current_range_meters":38000,"station_id":"ce4bho12rcd13ifvqh2g","pricing_plan_id":"cebpf4jnsgd1na2vs0mg"},{"bike_id":"b66b1d6b-71a0-477f-a8e4-5c83ce8687f4","system_id":"levelo_inurba_marseille","lat":43.29534,"lon":5.38542,"is_reserved":false,"is_disabled":false,"rental_uris":{"android":"levelo://app?vid=b66b1d6b-71a0-477f-a8e4-5c83ce8687f4","ios":"levelo://app?vid=b66b1d6b-71a0-477f-a8e4-5c83ce8687f4"},"vehicle_type_id":"4","last_reported":1731186442,"current_range_meters":29600,"station_id":"ce4bgih2rcd13ifvqba0","pricing_plan_id":"cebpf4jnsgd1na2vs0mg"},{"bike_id":"acfc4c88-f0d5-497e-86c1-c566b23c1747","system_id":"levelo_inurba_marseille","lat":43.24817,"lon":5.37456,"is_reserved":false,"is_disabled":false,"rental_uris":{"android":"levelo://app?vid=acfc4c88-f0d5-497e-86c1-c566b23c1747","ios":"levelo://app?vid=acfc4c88-f0d5-497e-86c1-c566b23c1747"},"vehicle_type_id":"4","last_reported":1731186442,"current_range_meters":6400,"station_id":"ce4bhgh2rcd13ifvqfb0","pricing_plan_id":"cebpf4jnsgd1na2vs0mg"},{"bike_id":"d8b069df-29e1-4273-99b0-c9104446d9c3","system_id":"levelo_inurba_marseille","lat":43.232,"lon":5.35556,"is_reserved":false,"is_disabled":false,"rental_uris":{"android":"levelo://app?vid=d8b069df-29e1-4273-99b0-c9104446d9c3","ios":"levelo://app?vid=d8b069df-29e1-4273-99b0-c9104446d9c3"},"vehicle_type_id":"4","last_reported":1731186442,"current_range_meters":8400,"station_id":"ce4bhu92rcd13ifvqi70","pricing_plan_id":"cebpf4jnsgd1na2vs0mg"},{"bike_id":"7bb5871f-cc9d-417c-af00-3f2a72d466bc","system_id":"levelo_inurba_marseille","lat":43.30808,"lon":5.38151,"is_reserved":false,"is_disabled":false,"rental_uris":{"android":"levelo://app?vid=7bb5871f-cc9d-417c-af00-3f2a72d466bc","ios":"levelo://app?vid=7bb5871f-cc9d-417c-af00-3f2a72d466bc"},"vehicle_type_id":"4","last_reported":1731186442,"current_range_meters":37600,"station_id":"ce4bgt12rcd13ifvqce0","pricing_plan_id":"cebpf4jnsgd1na2vs0mg"},{"bike_id":"58530892-70f0-4e6a-a0fb-ad90bf156e1f","system_id":"levelo_inurba_marseille","lat":43.30264,"lon":5.37725,"is_reserved":false,"is_disabled":false,"rental_uris":{"android":"levelo://app?vid=58530892-70f0-4e6a-a0fb-ad90bf156e1f","ios":"levelo://app?vid=58530892-70f0-4e6a-a0fb-ad90bf156e1f"},"vehicle_type_id":"4","last_reported":1731186442,"current_range_meters":29600,"station_id":"ce4bguh2rcd13ifvqcj0","pricing_plan_id":"cebpf4jnsgd1na2vs0mg"},{"bike_id":"966fc991-e46d-41cf-85eb-7c6d5f74e195","system_id":"levelo_inurba_marseille","lat":43.30532,"lon":5.36695,"is_reserved":false,"is_disabled":false,"rental_uris":{"android":"levelo://app?vid=966fc991-e46d-41cf-85eb-7c6d5f74e195","ios":"levelo://app?vid=966fc991-e46d-41cf-85eb-7c6d5f74e195"},"vehicle_type_id":"4","last_reported":1731186442,"current_range_meters":32800,"station_id":"ce4bgrp2rcd13ifvqc9g","pricing_plan_id":"cebpf4jnsgd1na2vs0mg"},{"bike_id":"fbbe362b-7b29-4c8f-b506-484f07761f02","system_id":"levelo_inurba_marseille","lat":43.29915,"lon":5.37461,"is_reserved":false,"is_disabled":false,"rental_uris":{"android":"levelo://app?vid=fbbe362b-7b29-4c8f-b506-484f07761f02","ios":"levelo://app?vid=fbbe362b-7b29-4c8f-b506-484f07761f02"},"vehicle_type_id":"4","last_reported":1731186442,"current_range_meters":36800,"station_id":"ce4bgjh2rcd13ifvqbg0","pricing_plan_id":"cebpf4jnsgd1na2vs0mg"},{"bike_id":"018a5969-48d6-493e-abbb-cd5d32841d3f","system_id":"levelo_inurba_marseille","lat":43.282756,"lon":5.35071,"is_reserved":false,"is_disabled":false,"rental_uris":{"android":"levelo://app?vid=018a5969-48d6-493e-abbb-cd5d32841d3f","ios":"levelo://app?vid=018a5969-48d6-493e-abbb-cd5d32841d3f"},"vehicle_type_id":"4","last_reported":1731186442,"current_range_meters":38800,"station_id":"ce4bhbp2rcd13ifvqerg","pricing_plan_id":"cebpf4jnsgd1na2vs0mg"},{"bike_id":"7a21a1d1-0647-4cbb-8f42-d32abe3269e9","system_id":"levelo_inurba_marseille","lat":43.29165,"lon":5.37156,"is_reserved":false,"is_disabled":false,"rental_uris":{"android":"levelo://app?vid=7a21a1d1-0647-4cbb-8f42-d32abe3269e9","ios":"levelo://app?vid=7a21a1d1-0647-4cbb-8f42-d32abe3269e9"},"vehicle_type_id":"4","last_reported":1731186442,"current_range_meters":19200,"station_id":"ce4bha92rcd13ifvqeh0","pricing_plan_id":"cebpf4jnsgd1na2vs0mg"},{"bike_id":"f9aeacdd-bf01-432f-bf4e-03e65cef4bbd","system_id":"levelo_inurba_marseille","lat":43.29555,"lon":5.42284,"is_reserved":false,"is_disabled":false,"rental_uris":{"android":"levelo://app?vid=f9aeacdd-bf01-432f-bf4e-03e65cef4bbd","ios":"levelo://app?vid=f9aeacdd-bf01-432f-bf4e-03e65cef4bbd"},"vehicle_type_id":"4","last_reported":1731186442,"current_range_meters":30800,"station_id":"ce4bhph2rcd13ifvqhdg","pricing_plan_id":"cebpf4jnsgd1na2vs0mg"},{"bike_id":"c57a525c-f071-4533-b30f-a7e0981a7452","system_id":"levelo_inurba_marseille","lat":43.31374,"lon":5.38495,"is_reserved":false,"is_disabled":false,"rental_uris":{"android":"levelo://app?vid=c57a525c-f071-4533-b30f-a7e0981a7452","ios":"levelo://app?vid=c57a525c-f071-4533-b30f-a7e0981a7452"},"vehicle_type_id":"4","last_reported":1731186442,"current_range_meters":37600,"station_id":"ce4bgt92rcd13ifvqcf0","pricing_plan_id":"cebpf4jnsgd1na2vs0mg"},{"bike_id":"6821b9ad-509a-46f9-8ec3-77f8b60e207e","system_id":"levelo_inurba_marseille","lat":43.28141,"lon":5.44199,"is_reserved":false,"is_disabled":false,"rental_uris":{"android":"levelo://app?vid=6821b9ad-509a-46f9-8ec3-77f8b60e207e","ios":"levelo://app?vid=6821b9ad-509a-46f9-8ec3-77f8b60e207e"},"vehicle_type_id":"4","last_reported":1731186442,"current_range_meters":25200,"station_id":"","pricing_plan_id":"cebpf4jnsgd1na2vs0mg"},{"bike_id":"137831ca-d038-4d93-8a71-38ac8211ab7a","system_id":"levelo_inurba_marseille","lat":43.29417,"lon":5.38621,"is_reserved":false,"is_disabled":false,"rental_uris":{"android":"levelo://app?vid=137831ca-d038-4d93-8a71-38ac8211ab7a","ios":"levelo://app?vid=137831ca-d038-4d93-8a71-38ac8211ab7a"},"vehicle_type_id":"4","last_reported":1731186442,"current_range_meters":16400,"station_id":"ce4bh2h2rcd13ifvqdh0","pricing_plan_id":"cebpf4jnsgd1na2vs0mg"},{"bike_id":"ef86cab5-f16b-4a24-b6d4-e587627d88fb","system_id":"levelo_inurba_marseille","lat":43.29712,"lon":5.36601,"is_reserved":false,"is_disabled":false,"rental_uris":{"android":"levelo://app?vid=ef86cab5-f16b-4a24-b6d4-e587627d88fb","ios":"levelo://app?vid=ef86cab5-f16b-4a24-b6d4-e587627d88fb"},"vehicle_type_id":"4","last_reported":1731186442,"current_range_meters":39200,"station_id":"ce4bgn12rcd13ifvqbt0","pricing_plan_id":"cebpf4jnsgd1na2vs0mg"},{"bike_id":"0e0927fd-6870-4f0d-95d2-a322362844a9","system_id":"levelo_inurba_marseille","lat":43.23155,"lon":5.43718,"is_reserved":false,"is_disabled":false,"rental_uris":{"android":"levelo://app?vid=0e0927fd-6870-4f0d-95d2-a322362844a9","ios":"levelo://app?vid=0e0927fd-6870-4f0d-95d2-a322362844a9"},"vehicle_type_id":"4","last_reported":1731186442,"current_range_meters":38800,"station_id":"ce4bhmp2rcd13ifvqgog","pricing_plan_id":"cebpf4jnsgd1na2vs0mg"},{"bike_id":"30a878ff-eb9d-436f-bfff-7d2ca1ce4c25","system_id":"levelo_inurba_marseille","lat":43.30913,"lon":5.36855,"is_reserved":false,"is_disabled":false,"rental_uris":{"android":"levelo://app?vid=30a878ff-eb9d-436f-bfff-7d2ca1ce4c25","ios":"levelo://app?vid=30a878ff-eb9d-436f-bfff-7d2ca1ce4c25"},"vehicle_type_id":"4","last_reported":1731186442,"current_range_meters":38800,"station_id":"ce4bgn92rcd13ifvqbvg","pricing_plan_id":"cebpf4jnsgd1na2vs0mg"},{"bike_id":"ae6ee6df-5779-49bd-a122-e5a8ebd03b7d","system_id":"levelo_inurba_marseille","lat":43.29307,"lon":5.37164,"is_reserved":false,"is_disabled":false,"rental_uris":{"android":"levelo://app?vid=ae6ee6df-5779-49bd-a122-e5a8ebd03b7d","ios":"levelo://app?vid=ae6ee6df-5779-49bd-a122-e5a8ebd03b7d"},"vehicle_type_id":"4","last_reported":1731186442,"current_range_meters":38800,"station_id":"ce4bgh92rcd13ifvqb40","pricing_plan_id":"cebpf4jnsgd1na2vs0mg"},{"bike_id":"93586a53-6b2f-473f-973d-b214bef1f466","system_id":"levelo_inurba_marseille","lat":43.24392,"lon":5.37058,"is_reserved":false,"is_disabled":false,"rental_uris":{"android":"levelo://app?vid=93586a53-6b2f-473f-973d-b214bef1f466","ios":"levelo://app?vid=93586a53-6b2f-473f-973d-b214bef1f466"},"vehicle_type_id":"4","last_reported":1731186442,"current_range_meters":11600,"station_id":"ce4bhhh2rcd13ifvqfk0","pricing_plan_id":"cebpf4jnsgd1na2vs0mg"},{"bike_id":"af04419d-cb5a-461f-8472-2fe2c0c525d4","system_id":"levelo_inurba_marseille","lat":43.29607,"lon":5.38098,"is_reserved":false,"is_disabled":false,"rental_uris":{"android":"levelo://app?vid=af04419d-cb5a-461f-8472-2fe2c0c525d4","ios":"levelo://app?vid=af04419d-cb5a-461f-8472-2fe2c0c525d4"},"vehicle_type_id":"4","last_reported":1731186442,"current_range_meters":27200,"station_id":"ce4bgl12rcd13ifvqbo0","pricing_plan_id":"cebpf4jnsgd1na2vs0mg"},{"bike_id":"ac47f265-4562-4425-9e18-917a3d68a748","system_id":"levelo_inurba_marseille","lat":43.29375,"lon":5.3755,"is_reserved":false,"is_disabled":false,"rental_uris":{"android":"levelo://app?vid=ac47f265-4562-4425-9e18-917a3d68a748","ios":"levelo://app?vid=ac47f265-4562-4425-9e18-917a3d68a748"},"vehicle_type_id":"4","last_reported":1731186442,"current_range_meters":19200,"station_id":"ce4bgi12rcd13ifvqb70","pricing_plan_id":"cebpf4jnsgd1na2vs0mg"},{"bike_id":"56520eb4-9818-402a-9c77-9b9ed2a210ce","system_id":"levelo_inurba_marseille","lat":43.32549,"lon":5.41443,"is_reserved":false,"is_disabled":false,"rental_uris":{"android":"levelo://app?vid=56520eb4-9818-402a-9c77-9b9ed2a210ce","ios":"levelo://app?vid=56520eb4-9818-402a-9c77-9b9ed2a210ce"},"vehicle_type_id":"4","last_reported":1731186442,"current_range_meters":16400,"station_id":"ce4bhq12rcd13ifvqhhg","pricing_plan_id":"cebpf4jnsgd1na2vs0mg"},{"bike_id":"49978485-393b-4e39-8478-42a03caafaca","system_id":"levelo_inurba_marseille","lat":43.29263,"lon":5.40917,"is_reserved":false,"is_disabled":false,"rental_uris":{"android":"levelo://app?vid=49978485-393b-4e39-8478-42a03caafaca","ios":"levelo://app?vid=49978485-393b-4e39-8478-42a03caafaca"},"vehicle_type_id":"4","last_reported":1731186442,"current_range_meters":38800,"station_id":"ce4bh192rcd13ifvqdc0","pricing_plan_id":"cebpf4jnsgd1na2vs0mg"},{"bike_id":"ee313d94-7c1a-4843-9690-a00ef5ec273b","system_id":"levelo_inurba_marseille","lat":43.2931,"lon":5.37466,"is_reserved":false,"is_disabled":false,"rental_uris":{"android":"levelo://app?vid=ee313d94-7c1a-4843-9690-a00ef5ec273b","ios":"levelo://app?vid=ee313d94-7c1a-4843-9690-a00ef5ec273b"},"vehicle_type_id":"4","last_reported":1731186442,"current_range_meters":27200,"station_id":"ce4bgi12rcd13ifvqb70","pricing_plan_id":"cebpf4jnsgd1na2vs0mg"},{"bike_id":"297f033e-87da-4632-8152-550bc3bd6546","system_id":"levelo_inurba_marseille","lat":43.24804,"lon":5.3745,"is_reserved":false,"is_disabled":false,"rental_uris":{"android":"levelo://app?vid=297f033e-87da-4632-8152-550bc3bd6546","ios":"levelo://app?vid=297f033e-87da-4632-8152-550bc3bd6546"},"vehicle_type_id":"4","last_reported":1731186442,"current_range_meters":40000,"station_id":"ce4bhgh2rcd13ifvqfb0","pricing_plan_id":"cebpf4jnsgd1na2vs0mg"},{"bike_id":"181119f1-e49b-47fa-b0ae-ebb5b6ad4b2a","system_id":"levelo_inurba_marseille","lat":43.29269,"lon":5.38438,"is_reserved":false,"is_disabled":false,"rental_uris":{"android":"levelo://app?vid=181119f1-e49b-47fa-b0ae-ebb5b6ad4b2a","ios":"levelo://app?vid=181119f1-e49b-47fa-b0ae-ebb5b6ad4b2a"},"vehicle_type_id":"4","last_reported":1731186442,"current_range_meters":36800,"station_id":"ce4bh692rcd13ifvqea0","pricing_plan_id":"cebpf4jnsgd1na2vs0mg"},{"bike_id":"99a89a04-e7de-473e-a01d-582a49ffa666","system_id":"levelo_inurba_marseille","lat":43.29294,"lon":5.37448,"is_reserved":false,"is_disabled":false,"rental_uris":{"android":"levelo://app?vid=99a89a04-e7de-473e-a01d-582a49ffa666","ios":"levelo://app?vid=99a89a04-e7de-473e-a01d-582a49ffa666"},"vehicle_type_id":"4","last_reported":1731186442,"current_range_meters":12400,"station_id":"ce4bgi12rcd13ifvqb70","pricing_plan_id":"cebpf4jnsgd1na2vs0mg"},{"bike_id":"0aa05a67-745d-4475-a5a6-5dedb91efe97","system_id":"levelo_inurba_marseille","lat":43.27428,"lon":5.39405,"is_reserved":false,"is_disabled":false,"rental_uris":{"android":"levelo://app?vid=0aa05a67-745d-4475-a5a6-5dedb91efe97","ios":"levelo://app?vid=0aa05a67-745d-4475-a5a6-5dedb91efe97"},"vehicle_type_id":"4","last_reported":1731186442,"current_range_meters":5600,"station_id":"ce4bhdp2rcd13ifvqf20","pricing_plan_id":"cebpf4jnsgd1na2vs0mg"},{"bike_id":"21e4192a-35a4-4589-95a3-c0d888af9267","system_id":"levelo_inurba_marseille","lat":43.29529,"lon":5.38546,"is_reserved":false,"is_disabled":false,"rental_uris":{"android":"levelo://app?vid=21e4192a-35a4-4589-95a3-c0d888af9267","ios":"levelo://app?vid=21e4192a-35a4-4589-95a3-c0d888af9267"},"vehicle_type_id":"4","last_reported":1731186442,"current_range_meters":6000,"station_id":"ce4bgih2rcd13ifvqba0","pricing_plan_id":"cebpf4jnsgd1na2vs0mg"},{"bike_id":"9279a5e9-9c29-4f9a-b692-a7f762aa6dee","system_id":"levelo_inurba_marseille","lat":43.24996,"lon":5.38915,"is_reserved":false,"is_disabled":false,"rental_uris":{"android":"levelo://app?vid=9279a5e9-9c29-4f9a-b692-a7f762aa6dee","ios":"levelo://app?vid=9279a5e9-9c29-4f9a-b692-a7f762aa6dee"},"vehicle_type_id":"4","last_reported":1731186442,"current_range_meters":11200,"station_id":"ce4bhgp2rcd13ifvqfd0","pricing_plan_id":"cebpf4jnsgd1na2vs0mg"},{"bike_id":"1364bcd0-75b8-4b5d-ac18-a0974b04fcce","system_id":"levelo_inurba_marseille","lat":43.29378,"lon":5.37842,"is_reserved":false,"is_disabled":false,"rental_uris":{"android":"levelo://app?vid=1364bcd0-75b8-4b5d-ac18-a0974b04fcce","ios":"levelo://app?vid=1364bcd0-75b8-4b5d-ac18-a0974b04fcce"},"vehicle_type_id":"4","last_reported":1731186442,"current_range_meters":38800,"station_id":"ce4bgjh2rcd13ifvqbf0","pricing_plan_id":"cebpf4jnsgd1na2vs0mg"},{"bike_id":"96aef8c1-f007-442e-b872-036e6f6c58ad","system_id":"levelo_inurba_marseille","lat":43.31759,"lon":5.39021,"is_reserved":false,"is_disabled":false,"rental_uris":{"android":"levelo://app?vid=96aef8c1-f007-442e-b872-036e6f6c58ad","ios":"levelo://app?vid=96aef8c1-f007-442e-b872-036e6f6c58ad"},"vehicle_type_id":"4","last_reported":1731186442,"current_range_meters":38800,"station_id":"ce4bhqp2rcd13ifvqhng","pricing_plan_id":"cebpf4jnsgd1na2vs0mg"},{"bike_id":"48b5ac08-9e0c-42d5-b37f-57e0c8fe2cd4","system_id":"levelo_inurba_marseille","lat":43.29422,"lon":5.3864,"is_reserved":false,"is_disabled":false,"rental_uris":{"android":"levelo://app?vid=48b5ac08-9e0c-42d5-b37f-57e0c8fe2cd4","ios":"levelo://app?vid=48b5ac08-9e0c-42d5-b37f-57e0c8fe2cd4"},"vehicle_type_id":"4","last_reported":1731186442,"current_range_meters":24000,"station_id":"ce4bh2h2rcd13ifvqdh0","pricing_plan_id":"cebpf4jnsgd1na2vs0mg"},{"bike_id":"134ce1ce-579d-4d82-bde6-b146c0c11c11","system_id":"levelo_inurba_marseille","lat":43.29896,"lon":5.43675,"is_reserved":false,"is_disabled":false,"rental_uris":{"android":"levelo://app?vid=134ce1ce-579d-4d82-bde6-b146c0c11c11","ios":"levelo://app?vid=134ce1ce-579d-4d82-bde6-b146c0c11c11"},"vehicle_type_id":"4","last_reported":1731186442,"current_range_meters":6800,"station_id":"ce4bhpp2rcd13ifvqhfg","pricing_plan_id":"cebpf4jnsgd1na2vs0mg"},{"bike_id":"901d0e1b-e30d-4036-b73c-cb7c4fb9a461","system_id":"levelo_inurba_marseille","lat":43.27913,"lon":5.39579,"is_reserved":false,"is_disabled":false,"rental_uris":{"android":"levelo://app?vid=901d0e1b-e30d-4036-b73c-cb7c4fb9a461","ios":"levelo://app?vid=901d0e1b-e30d-4036-b73c-cb7c4fb9a461"},"vehicle_type_id":"4","last_reported":1731186442,"current_range_meters":8800,"station_id":"ce4bhf92rcd13ifvqf40","pricing_plan_id":"cebpf4jnsgd1na2vs0mg"},{"bike_id":"f536995d-9e9d-483d-919b-de11993b1fcb","system_id":"levelo_inurba_marseille","lat":43.29267,"lon":5.38441,"is_reserved":false,"is_disabled":false,"rental_uris":{"android":"levelo://app?vid=f536995d-9e9d-483d-919b-de11993b1fcb","ios":"levelo://app?vid=f536995d-9e9d-483d-919b-de11993b1fcb"},"vehicle_type_id":"4","last_reported":1731186442,"current_range_meters":28000,"station_id":"ce4bh692rcd13ifvqea0","pricing_plan_id":"cebpf4jnsgd1na2vs0mg"},{"bike_id":"4758fd0f-4d30-444b-aaa9-86e781e81807","system_id":"levelo_inurba_marseille","lat":43.30898,"lon":5.37194,"is_reserved":false,"is_disabled":false,"rental_uris":{"android":"levelo://app?vid=4758fd0f-4d30-444b-aaa9-86e781e81807","ios":"levelo://app?vid=4758fd0f-4d30-444b-aaa9-86e781e81807"},"vehicle_type_id":"4","last_reported":1731186442,"current_range_meters":6800,"station_id":"ce4bguh2rcd13ifvqckg","pricing_plan_id":"cebpf4jnsgd1na2vs0mg"},{"bike_id":"181fa628-fd06-4339-88f4-5d411c857699","system_id":"levelo_inurba_marseille","lat":43.27082,"lon":5.42282,"is_reserved":false,"is_disabled":false,"rental_uris":{"android":"levelo://app?vid=181fa628-fd06-4339-88f4-5d411c857699","ios":"levelo://app?vid=181fa628-fd06-4339-88f4-5d411c857699"},"vehicle_type_id":"4","last_reported":1731186442,"current_range_meters":12000,"station_id":"ce4bhk92rcd13ifvqgb0","pricing_plan_id":"cebpf4jnsgd1na2vs0mg"},{"bike_id":"f6797815-af74-4740-88bd-bac91aed4205","system_id":"levelo_inurba_marseille","lat":43.30896,"lon":5.3718,"is_reserved":false,"is_disabled":false,"rental_uris":{"android":"levelo://app?vid=f6797815-af74-4740-88bd-bac91aed4205","ios":"levelo://app?vid=f6797815-af74-4740-88bd-bac91aed4205"},"vehicle_type_id":"4","last_reported":1731186442,"current_range_meters":38000,"station_id":"ce4bguh2rcd13ifvqckg","pricing_plan_id":"cebpf4jnsgd1na2vs0mg"},{"bike_id":"fe48f452-9500-41a3-83e9-7c76cb35e219","system_id":"levelo_inurba_marseille","lat":43.31269,"lon":5.40164,"is_reserved":false,"is_disabled":false,"rental_uris":{"android":"levelo://app?vid=fe48f452-9500-41a3-83e9-7c76cb35e219","ios":"levelo://app?vid=fe48f452-9500-41a3-83e9-7c76cb35e219"},"vehicle_type_id":"4","last_reported":1731186442,"current_range_meters":8400,"station_id":"ce4bh092rcd13ifvqd30","pricing_plan_id":"cebpf4jnsgd1na2vs0mg"},{"bike_id":"7904d9be-2130-44a8-9530-e32316c9b56e","system_id":"levelo_inurba_marseille","lat":43.29531,"lon":5.37503,"is_reserved":false,"is_disabled":false,"rental_uris":{"android":"levelo://app?vid=7904d9be-2130-44a8-9530-e32316c9b56e","ios":"levelo://app?vid=7904d9be-2130-44a8-9530-e32316c9b56e"},"vehicle_type_id":"4","last_reported":1731186442,"current_range_meters":38000,"station_id":"ce4bgkp2rcd13ifvqbmg","pricing_plan_id":"cebpf4jnsgd1na2vs0mg"},{"bike_id":"750f60c0-cbc4-492c-8cec-1b99360aadde","system_id":"levelo_inurba_marseille","lat":43.2801,"lon":5.40002,"is_reserved":false,"is_disabled":false,"rental_uris":{"android":"levelo://app?vid=750f60c0-cbc4-492c-8cec-1b99360aadde","ios":"levelo://app?vid=750f60c0-cbc4-492c-8cec-1b99360aadde"},"vehicle_type_id":"4","last_reported":1731186442,"current_range_meters":34000,"station_id":"ce4bho92rcd13ifvqh4g","pricing_plan_id":"cebpf4jnsgd1na2vs0mg"},{"bike_id":"e662ba77-e6b8-4482-8937-6e11fab5b336","system_id":"levelo_inurba_marseille","lat":43.33033,"lon":5.39048,"is_reserved":false,"is_disabled":false,"rental_uris":{"android":"levelo://app?vid=e662ba77-e6b8-4482-8937-6e11fab5b336","ios":"levelo://app?vid=e662ba77-e6b8-4482-8937-6e11fab5b336"},"vehicle_type_id":"4","last_reported":1731186442,"current_range_meters":9200,"station_id":"ce4bhr92rcd13ifvqhrg","pricing_plan_id":"cebpf4jnsgd1na2vs0mg"},{"bike_id":"27e15419-d9b0-4647-890e-e21a7149b1cd","system_id":"levelo_inurba_marseille","lat":43.2707,"lon":5.42273,"is_reserved":false,"is_disabled":false,"rental_uris":{"android":"levelo://app?vid=27e15419-d9b0-4647-890e-e21a7149b1cd","ios":"levelo://app?vid=27e15419-d9b0-4647-890e-e21a7149b1cd"},"vehicle_type_id":"4","last_reported":1731186442,"current_range_meters":10800,"station_id":"ce4bhk92rcd13ifvqgb0","pricing_plan_id":"cebpf4jnsgd1na2vs0mg"},{"bike_id":"55f47cbb-4cd2-4214-9965-9e0698b16e2e","system_id":"levelo_inurba_marseille","lat":43.32358,"lon":5.3676,"is_reserved":false,"is_disabled":false,"rental_uris":{"android":"levelo://app?vid=55f47cbb-4cd2-4214-9965-9e0698b16e2e","ios":"levelo://app?vid=55f47cbb-4cd2-4214-9965-9e0698b16e2e"},"vehicle_type_id":"4","last_reported":1731186442,"current_range_meters":38800,"station_id":"ce4bhsh2rcd13ifvqi2g","pricing_plan_id":"cebpf4jnsgd1na2vs0mg"},{"bike_id":"1e5ee150-b94d-4bed-ab85-f55b0e0803fe","system_id":"levelo_inurba_marseille","lat":43.29024,"lon":5.38642,"is_reserved":false,"is_disabled":false,"rental_uris":{"android":"levelo://app?vid=1e5ee150-b94d-4bed-ab85-f55b0e0803fe","ios":"levelo://app?vid=1e5ee150-b94d-4bed-ab85-f55b0e0803fe"},"vehicle_type_id":"4","last_reported":1731186442,"current_range_meters":36800,"station_id":"ce4bh4p2rcd13ifvqe0g","pricing_plan_id":"cebpf4jnsgd1na2vs0mg"},{"bike_id":"d4d2039d-7616-4c0c-910c-0f5355caf5da","system_id":"levelo_inurba_marseille","lat":43.30155,"lon":5.38091,"is_reserved":false,"is_disabled":false,"rental_uris":{"android":"levelo://app?vid=d4d2039d-7616-4c0c-910c-0f5355caf5da","ios":"levelo://app?vid=d4d2039d-7616-4c0c-910c-0f5355caf5da"},"vehicle_type_id":"4","last_reported":1731186442,"current_range_meters":38000,"station_id":"ce4bgjp2rcd13ifvqbh0","pricing_plan_id":"cebpf4jnsgd1na2vs0mg"},{"bike_id":"9005c685-cfb4-498c-8547-dcd7b0076889","system_id":"levelo_inurba_marseille","lat":43.29419,"lon":5.38606,"is_reserved":false,"is_disabled":false,"rental_uris":{"android":"levelo://app?vid=9005c685-cfb4-498c-8547-dcd7b0076889","ios":"levelo://app?vid=9005c685-cfb4-498c-8547-dcd7b0076889"},"vehicle_type_id":"4","last_reported":1731186442,"current_range_meters":37600,"station_id":"ce4bh2h2rcd13ifvqdh0","pricing_plan_id":"cebpf4jnsgd1na2vs0mg"},{"bike_id":"0d93b31b-854a-4c31-b287-70df5cbe7d07","system_id":"levelo_inurba_marseille","lat":43.24081,"lon":5.37741,"is_reserved":false,"is_disabled":false,"rental_uris":{"android":"levelo://app?vid=0d93b31b-854a-4c31-b287-70df5cbe7d07","ios":"levelo://app?vid=0d93b31b-854a-4c31-b287-70df5cbe7d07"},"vehicle_type_id":"4","last_reported":1731186442,"current_range_meters":14400,"station_id":"ce4bhnp2rcd13ifvqgvg","pricing_plan_id":"cebpf4jnsgd1na2vs0mg"},{"bike_id":"8d2b72fb-c6f8-44de-b9b8-8b5223930e89","system_id":"levelo_inurba_marseille","lat":43.24606,"lon":5.38969,"is_reserved":false,"is_disabled":false,"rental_uris":{"android":"levelo://app?vid=8d2b72fb-c6f8-44de-b9b8-8b5223930e89","ios":"levelo://app?vid=8d2b72fb-c6f8-44de-b9b8-8b5223930e89"},"vehicle_type_id":"4","last_reported":1731186442,"current_range_meters":27600,"station_id":"","pricing_plan_id":"cebpf4jnsgd1na2vs0mg"},{"bike_id":"99671fd3-b1a0-4899-83ce-74ae00a35f51","system_id":"levelo_inurba_marseille","lat":43.28484,"lon":5.38412,"is_reserved":false,"is_disabled":false,"rental_uris":{"android":"levelo://app?vid=99671fd3-b1a0-4899-83ce-74ae00a35f51","ios":"levelo://app?vid=99671fd3-b1a0-4899-83ce-74ae00a35f51"},"vehicle_type_id":"4","last_reported":1731186442,"current_range_meters":38800,"station_id":"ce4bh512rcd13ifvqe3g","pricing_plan_id":"cebpf4jnsgd1na2vs0mg"},{"bike_id":"56372106-f101-4e4e-ad73-a819ecafcccb","system_id":"levelo_inurba_marseille","lat":43.29302,"lon":5.37185,"is_reserved":false,"is_disabled":false,"rental_uris":{"android":"levelo://app?vid=56372106-f101-4e4e-ad73-a819ecafcccb","ios":"levelo://app?vid=56372106-f101-4e4e-ad73-a819ecafcccb"},"vehicle_type_id":"4","last_reported":1731186442,"current_range_meters":36000,"station_id":"ce4bgh92rcd13ifvqb40","pricing_plan_id":"cebpf4jnsgd1na2vs0mg"},{"bike_id":"e2abec00-3ef2-41a5-b9f5-46bbbaa02e60","system_id":"levelo_inurba_marseille","lat":43.25505,"lon":5.37649,"is_reserved":false,"is_disabled":false,"rental_uris":{"android":"levelo://app?vid=e2abec00-3ef2-41a5-b9f5-46bbbaa02e60","ios":"levelo://app?vid=e2abec00-3ef2-41a5-b9f5-46bbbaa02e60"},"vehicle_type_id":"4","last_reported":1731186442,"current_range_meters":5600,"station_id":"ce4bhh12rcd13ifvqff0","pricing_plan_id":"cebpf4jnsgd1na2vs0mg"},{"bike_id":"09fd6b48-5b17-42a1-a15e-dce7aa293b94","system_id":"levelo_inurba_marseille","lat":43.28351,"lon":5.38111,"is_reserved":false,"is_disabled":false,"rental_uris":{"android":"levelo://app?vid=09fd6b48-5b17-42a1-a15e-dce7aa293b94","ios":"levelo://app?vid=09fd6b48-5b17-42a1-a15e-dce7aa293b94"},"vehicle_type_id":"4","last_reported":1731186442,"current_range_meters":16800,"station_id":"ce4bh412rcd13ifvqdr0","pricing_plan_id":"cebpf4jnsgd1na2vs0mg"},{"bike_id":"1e051457-bfc1-4a88-a2a9-e3757a21bf49","system_id":"levelo_inurba_marseille","lat":43.30141,"lon":5.37411,"is_reserved":false,"is_disabled":false,"rental_uris":{"android":"levelo://app?vid=1e051457-bfc1-4a88-a2a9-e3757a21bf49","ios":"levelo://app?vid=1e051457-bfc1-4a88-a2a9-e3757a21bf49"},"vehicle_type_id":"4","last_reported":1731186442,"current_range_meters":8400,"station_id":"ce4bgs92rcd13ifvqcc0","pricing_plan_id":"cebpf4jnsgd1na2vs0mg"},{"bike_id":"66afb7f5-4d84-403d-a244-5efb1d992fbd","system_id":"levelo_inurba_marseille","lat":43.25501,"lon":5.37646,"is_reserved":false,"is_disabled":false,"rental_uris":{"android":"levelo://app?vid=66afb7f5-4d84-403d-a244-5efb1d992fbd","ios":"levelo://app?vid=66afb7f5-4d84-403d-a244-5efb1d992fbd"},"vehicle_type_id":"4","last_reported":1731186442,"current_range_meters":38800,"station_id":"ce4bhh12rcd13ifvqff0","pricing_plan_id":"cebpf4jnsgd1na2vs0mg"},{"bike_id":"28ca929a-76d3-4185-86ab-f3f5e6d28eda","system_id":"levelo_inurba_marseille","lat":43.29268,"lon":5.38446,"is_reserved":false,"is_disabled":false,"rental_uris":{"android":"levelo://app?vid=28ca929a-76d3-4185-86ab-f3f5e6d28eda","ios":"levelo://app?vid=28ca929a-76d3-4185-86ab-f3f5e6d28eda"},"vehicle_type_id":"4","last_reported":1731186442,"current_range_meters":38800,"station_id":"ce4bh692rcd13ifvqea0","pricing_plan_id":"cebpf4jnsgd1na2vs0mg"},{"bike_id":"c7057ba6-697b-4814-876e-11ed214bec97","system_id":"levelo_inurba_marseille","lat":43.30314,"lon":5.37739,"is_reserved":false,"is_disabled":false,"rental_uris":{"android":"levelo://app?vid=c7057ba6-697b-4814-876e-11ed214bec97","ios":"levelo://app?vid=c7057ba6-697b-4814-876e-11ed214bec97"},"vehicle_type_id":"4","last_reported":1731186442,"current_range_meters":38800,"station_id":"ce4bguh2rcd13ifvqcj0","pricing_plan_id":"cebpf4jnsgd1na2vs0mg"},{"bike_id":"c6ae65bf-8d5e-4ea9-a3a9-adc79d0ebafe","system_id":"levelo_inurba_marseille","lat":43.24387,"lon":5.37052,"is_reserved":false,"is_disabled":false,"rental_uris":{"android":"levelo://app?vid=c6ae65bf-8d5e-4ea9-a3a9-adc79d0ebafe","ios":"levelo://app?vid=c6ae65bf-8d5e-4ea9-a3a9-adc79d0ebafe"},"vehicle_type_id":"4","last_reported":1731186442,"current_range_meters":25600,"station_id":"ce4bhhh2rcd13ifvqfk0","pricing_plan_id":"cebpf4jnsgd1na2vs0mg"},{"bike_id":"99ee7c5d-6e65-4a9b-a86a-ad54643ebf7a","system_id":"levelo_inurba_marseille","lat":43.31385,"lon":5.38502,"is_reserved":false,"is_disabled":false,"rental_uris":{"android":"levelo://app?vid=99ee7c5d-6e65-4a9b-a86a-ad54643ebf7a","ios":"levelo://app?vid=99ee7c5d-6e65-4a9b-a86a-ad54643ebf7a"},"vehicle_type_id":"4","last_reported":1731186442,"current_range_meters":38800,"station_id":"ce4bgt92rcd13ifvqcf0","pricing_plan_id":"cebpf4jnsgd1na2vs0mg"},{"bike_id":"cb0207d1-a359-4257-9c1b-bdbf3d283b94","system_id":"levelo_inurba_marseille","lat":43.31281,"lon":5.40159,"is_reserved":false,"is_disabled":false,"rental_uris":{"android":"levelo://app?vid=cb0207d1-a359-4257-9c1b-bdbf3d283b94","ios":"levelo://app?vid=cb0207d1-a359-4257-9c1b-bdbf3d283b94"},"vehicle_type_id":"4","last_reported":1731186442,"current_range_meters":38800,"station_id":"ce4bh092rcd13ifvqd30","pricing_plan_id":"cebpf4jnsgd1na2vs0mg"},{"bike_id":"1b641421-2e55-46f2-aa52-a5bd61345632","system_id":"levelo_inurba_marseille","lat":43.2417,"lon":5.36396,"is_reserved":false,"is_disabled":false,"rental_uris":{"android":"levelo://app?vid=1b641421-2e55-46f2-aa52-a5bd61345632","ios":"levelo://app?vid=1b641421-2e55-46f2-aa52-a5bd61345632"},"vehicle_type_id":"4","last_reported":1731186442,"current_range_meters":15200,"station_id":"cpo36qri1sfpv3e86is0","pricing_plan_id":"cebpf4jnsgd1na2vs0mg"},{"bike_id":"ba4109b1-d99b-4b96-b8be-e7a7d80ac365","system_id":"levelo_inurba_marseille","lat":43.32371,"lon":5.38883,"is_reserved":false,"is_disabled":false,"rental_uris":{"android":"levelo://app?vid=ba4109b1-d99b-4b96-b8be-e7a7d80ac365","ios":"levelo://app?vid=ba4109b1-d99b-4b96-b8be-e7a7d80ac365"},"vehicle_type_id":"4","last_reported":1731186442,"current_range_meters":3600,"station_id":"ce4bhqp2rcd13ifvqhog","pricing_plan_id":"cebpf4jnsgd1na2vs0mg"},{"bike_id":"27b464f9-caaa-4ce7-9079-f637dd48276c","system_id":"levelo_inurba_marseille","lat":43.31387,"lon":5.38493,"is_reserved":false,"is_disabled":false,"rental_uris":{"android":"levelo://app?vid=27b464f9-caaa-4ce7-9079-f637dd48276c","ios":"levelo://app?vid=27b464f9-caaa-4ce7-9079-f637dd48276c"},"vehicle_type_id":"4","last_reported":1731186442,"current_range_meters":30000,"station_id":"ce4bgt92rcd13ifvqcf0","pricing_plan_id":"cebpf4jnsgd1na2vs0mg"},{"bike_id":"cf3bde0b-e897-4173-a3d2-359f4503a90f","system_id":"levelo_inurba_marseille","lat":43.31331,"lon":5.39687,"is_reserved":false,"is_disabled":false,"rental_uris":{"android":"levelo://app?vid=cf3bde0b-e897-4173-a3d2-359f4503a90f","ios":"levelo://app?vid=cf3bde0b-e897-4173-a3d2-359f4503a90f"},"vehicle_type_id":"4","last_reported":1731186442,"current_range_meters":38800,"station_id":"ce4bgvp2rcd13ifvqcu0","pricing_plan_id":"cebpf4jnsgd1na2vs0mg"},{"bike_id":"0d0ef880-2434-4d1b-be5b-12320ed92e83","system_id":"levelo_inurba_marseille","lat":43.25738,"lon":5.41108,"is_reserved":false,"is_disabled":false,"rental_uris":{"android":"levelo://app?vid=0d0ef880-2434-4d1b-be5b-12320ed92e83","ios":"levelo://app?vid=0d0ef880-2434-4d1b-be5b-12320ed92e83"},"vehicle_type_id":"4","last_reported":1731186442,"current_range_meters":28000,"station_id":"ce4bhkp2rcd13ifvqgd0","pricing_plan_id":"cebpf4jnsgd1na2vs0mg"},{"bike_id":"07704a86-dbed-425a-854d-11b1a4e3d84c","system_id":"levelo_inurba_marseille","lat":43.33754,"lon":5.3745,"is_reserved":false,"is_disabled":false,"rental_uris":{"android":"levelo://app?vid=07704a86-dbed-425a-854d-11b1a4e3d84c","ios":"levelo://app?vid=07704a86-dbed-425a-854d-11b1a4e3d84c"},"vehicle_type_id":"4","last_reported":1731186442,"current_range_meters":35600,"station_id":"","pricing_plan_id":"cebpf4jnsgd1na2vs0mg"},{"bike_id":"79b39923-b687-4420-a58b-1f85feafef16","system_id":"levelo_inurba_marseille","lat":43.29984,"lon":5.3742,"is_reserved":false,"is_disabled":false,"rental_uris":{"android":"levelo://app?vid=79b39923-b687-4420-a58b-1f85feafef16","ios":"levelo://app?vid=79b39923-b687-4420-a58b-1f85feafef16"},"vehicle_type_id":"4","last_reported":1731186442,"current_range_meters":38800,"station_id":"","pricing_plan_id":"cebpf4jnsgd1na2vs0mg"},{"bike_id":"e88ed4b9-c019-43b2-958e-6095c76050de","system_id":"levelo_inurba_marseille","lat":43.29528,"lon":5.3751,"is_reserved":false,"is_disabled":false,"rental_uris":{"android":"levelo://app?vid=e88ed4b9-c019-43b2-958e-6095c76050de","ios":"levelo://app?vid=e88ed4b9-c019-43b2-958e-6095c76050de"},"vehicle_type_id":"4","last_reported":1731186442,"current_range_meters":29600,"station_id":"ce4bgkp2rcd13ifvqbmg","pricing_plan_id":"cebpf4jnsgd1na2vs0mg"},{"bike_id":"81abc5b8-f7c3-49f1-865e-3d42da567318","system_id":"levelo_inurba_marseille","lat":43.29531,"lon":5.38538,"is_reserved":false,"is_disabled":false,"rental_uris":{"android":"levelo://app?vid=81abc5b8-f7c3-49f1-865e-3d42da567318","ios":"levelo://app?vid=81abc5b8-f7c3-49f1-865e-3d42da567318"},"vehicle_type_id":"4","last_reported":1731186442,"current_range_meters":24800,"station_id":"ce4bgih2rcd13ifvqba0","pricing_plan_id":"cebpf4jnsgd1na2vs0mg"},{"bike_id":"39e0fb1d-6066-4204-83e9-c454b4b8332c","system_id":"levelo_inurba_marseille","lat":43.27838,"lon":5.39207,"is_reserved":false,"is_disabled":false,"rental_uris":{"android":"levelo://app?vid=39e0fb1d-6066-4204-83e9-c454b4b8332c","ios":"levelo://app?vid=39e0fb1d-6066-4204-83e9-c454b4b8332c"},"vehicle_type_id":"4","last_reported":1731186442,"current_range_meters":21600,"station_id":"ce4bhjp2rcd13ifvqga0","pricing_plan_id":"cebpf4jnsgd1na2vs0mg"},{"bike_id":"0b74ce83-e6b1-4485-8ca6-3897f29a426e","system_id":"levelo_inurba_marseille","lat":43.2396,"lon":5.36622,"is_reserved":false,"is_disabled":false,"rental_uris":{"android":"levelo://app?vid=0b74ce83-e6b1-4485-8ca6-3897f29a426e","ios":"levelo://app?vid=0b74ce83-e6b1-4485-8ca6-3897f29a426e"},"vehicle_type_id":"4","last_reported":1731186442,"current_range_meters":13600,"station_id":"ce4bhi12rcd13ifvqfp0","pricing_plan_id":"cebpf4jnsgd1na2vs0mg"},{"bike_id":"2c342691-4553-4cce-b007-e89e690aafbe","system_id":"levelo_inurba_marseille","lat":43.28284,"lon":5.35089,"is_reserved":false,"is_disabled":false,"rental_uris":{"android":"levelo://app?vid=2c342691-4553-4cce-b007-e89e690aafbe","ios":"levelo://app?vid=2c342691-4553-4cce-b007-e89e690aafbe"},"vehicle_type_id":"4","last_reported":1731186442,"current_range_meters":37600,"station_id":"ce4bhbp2rcd13ifvqerg","pricing_plan_id":"cebpf4jnsgd1na2vs0mg"},{"bike_id":"4c262411-f2f8-4849-ba41-a80c1965d2f3","system_id":"levelo_inurba_marseille","lat":43.30303,"lon":5.39212,"is_reserved":false,"is_disabled":false,"rental_uris":{"android":"levelo://app?vid=4c262411-f2f8-4849-ba41-a80c1965d2f3","ios":"levelo://app?vid=4c262411-f2f8-4849-ba41-a80c1965d2f3"},"vehicle_type_id":"4","last_reported":1731186442,"current_range_meters":33200,"station_id":"ce4bgkh2rcd13ifvqbk0","pricing_plan_id":"cebpf4jnsgd1na2vs0mg"},{"bike_id":"38634f08-7ba3-4030-8239-f8d873928eb8","system_id":"levelo_inurba_marseille","lat":43.26956,"lon":5.38631,"is_reserved":false,"is_disabled":false,"rental_uris":{"android":"levelo://app?vid=38634f08-7ba3-4030-8239-f8d873928eb8","ios":"levelo://app?vid=38634f08-7ba3-4030-8239-f8d873928eb8"},"vehicle_type_id":"4","last_reported":1731186442,"current_range_meters":20400,"station_id":"ce4bhh92rcd13ifvqfh0","pricing_plan_id":"cebpf4jnsgd1na2vs0mg"},{"bike_id":"71e5e972-cef5-4a9d-9eed-f6c91977142d","system_id":"levelo_inurba_marseille","lat":43.32655,"lon":5.40991,"is_reserved":false,"is_disabled":false,"rental_uris":{"android":"levelo://app?vid=71e5e972-cef5-4a9d-9eed-f6c91977142d","ios":"levelo://app?vid=71e5e972-cef5-4a9d-9eed-f6c91977142d"},"vehicle_type_id":"4","last_reported":1731186442,"current_range_meters":5600,"station_id":"ce4bhpp2rcd13ifvqhgg","pricing_plan_id":"cebpf4jnsgd1na2vs0mg"},{"bike_id":"af9cd3eb-6786-4eb5-818d-938dc019f111","system_id":"levelo_inurba_marseille","lat":43.31167,"lon":5.3871,"is_reserved":false,"is_disabled":false,"rental_uris":{"android":"levelo://app?vid=af9cd3eb-6786-4eb5-818d-938dc019f111","ios":"levelo://app?vid=af9cd3eb-6786-4eb5-818d-938dc019f111"},"vehicle_type_id":"4","last_reported":1731186442,"current_range_meters":21600,"station_id":"ce4bgv12rcd13ifvqcp0","pricing_plan_id":"cebpf4jnsgd1na2vs0mg"},{"bike_id":"896a2ba9-5285-4686-975d-79ddd9cd99a3","system_id":"levelo_inurba_marseille","lat":43.25838,"lon":5.39431,"is_reserved":false,"is_disabled":false,"rental_uris":{"android":"levelo://app?vid=896a2ba9-5285-4686-975d-79ddd9cd99a3","ios":"levelo://app?vid=896a2ba9-5285-4686-975d-79ddd9cd99a3"},"vehicle_type_id":"4","last_reported":1731186442,"current_range_meters":36800,"station_id":"ce4bhip2rcd13ifvqft0","pricing_plan_id":"cebpf4jnsgd1na2vs0mg"},{"bike_id":"dd2985d6-ca86-4b4b-9cc0-0ae5b8b1dbed","system_id":"levelo_inurba_marseille","lat":43.28367,"lon":5.38638,"is_reserved":false,"is_disabled":false,"rental_uris":{"android":"levelo://app?vid=dd2985d6-ca86-4b4b-9cc0-0ae5b8b1dbed","ios":"levelo://app?vid=dd2985d6-ca86-4b4b-9cc0-0ae5b8b1dbed"},"vehicle_type_id":"4","last_reported":1731186442,"current_range_meters":13600,"station_id":"ce4bh492rcd13ifvqdvg","pricing_plan_id":"cebpf4jnsgd1na2vs0mg"},{"bike_id":"2c42f401-8588-45b2-801d-41b9137e6000","system_id":"levelo_inurba_marseille","lat":43.31693,"lon":5.4048,"is_reserved":false,"is_disabled":false,"rental_uris":{"android":"levelo://app?vid=2c42f401-8588-45b2-801d-41b9137e6000","ios":"levelo://app?vid=2c42f401-8588-45b2-801d-41b9137e6000"},"vehicle_type_id":"4","last_reported":1731186442,"current_range_meters":27600,"station_id":"ce4bh012rcd13ifvqd00","pricing_plan_id":"cebpf4jnsgd1na2vs0mg"},{"bike_id":"baac3be3-010c-4ab7-b814-2af962c842f8","system_id":"levelo_inurba_marseille","lat":43.28358,"lon":5.37518,"is_reserved":false,"is_disabled":false,"rental_uris":{"android":"levelo://app?vid=baac3be3-010c-4ab7-b814-2af962c842f8","ios":"levelo://app?vid=baac3be3-010c-4ab7-b814-2af962c842f8"},"vehicle_type_id":"4","last_reported":1731186442,"current_range_meters":29600,"station_id":"ce4bh412rcd13ifvqds0","pricing_plan_id":"cebpf4jnsgd1na2vs0mg"},{"bike_id":"153b7ff0-4860-49f2-baf2-71c24452214b","system_id":"levelo_inurba_marseille","lat":43.29777,"lon":5.3812,"is_reserved":false,"is_disabled":false,"rental_uris":{"android":"levelo://app?vid=153b7ff0-4860-49f2-baf2-71c24452214b","ios":"levelo://app?vid=153b7ff0-4860-49f2-baf2-71c24452214b"},"vehicle_type_id":"4","last_reported":1731186442,"current_range_meters":18000,"station_id":"ce4bgip2rcd13ifvqbb0","pricing_plan_id":"cebpf4jnsgd1na2vs0mg"},{"bike_id":"05392e91-71dc-4faf-b327-894246161aca","system_id":"levelo_inurba_marseille","lat":43.31268,"lon":5.40168,"is_reserved":false,"is_disabled":false,"rental_uris":{"android":"levelo://app?vid=05392e91-71dc-4faf-b327-894246161aca","ios":"levelo://app?vid=05392e91-71dc-4faf-b327-894246161aca"},"vehicle_type_id":"4","last_reported":1731186442,"current_range_meters":14000,"station_id":"ce4bh092rcd13ifvqd30","pricing_plan_id":"cebpf4jnsgd1na2vs0mg"},{"bike_id":"fdbb3f58-421e-451f-bab3-b582ca428cc3","system_id":"levelo_inurba_marseille","lat":43.27946,"lon":5.41043,"is_reserved":false,"is_disabled":false,"rental_uris":{"android":"levelo://app?vid=fdbb3f58-421e-451f-bab3-b582ca428cc3","ios":"levelo://app?vid=fdbb3f58-421e-451f-bab3-b582ca428cc3"},"vehicle_type_id":"4","last_reported":1731186442,"current_range_meters":24000,"station_id":"ce4bhnp2rcd13ifvqh0g","pricing_plan_id":"cebpf4jnsgd1na2vs0mg"},{"bike_id":"6cc6a739-317f-4468-80b8-5778ff50ba67","system_id":"levelo_inurba_marseille","lat":43.299347,"lon":5.374632,"is_reserved":false,"is_disabled":false,"rental_uris":{"android":"levelo://app?vid=6cc6a739-317f-4468-80b8-5778ff50ba67","ios":"levelo://app?vid=6cc6a739-317f-4468-80b8-5778ff50ba67"},"vehicle_type_id":"4","last_reported":1731186442,"current_range_meters":28800,"station_id":"ce4bgjh2rcd13ifvqbg0","pricing_plan_id":"cebpf4jnsgd1na2vs0mg"},{"bike_id":"c48eca37-84d8-445e-b66f-c452247de6b7","system_id":"levelo_inurba_marseille","lat":43.25501,"lon":5.37655,"is_reserved":false,"is_disabled":false,"rental_uris":{"android":"levelo://app?vid=c48eca37-84d8-445e-b66f-c452247de6b7","ios":"levelo://app?vid=c48eca37-84d8-445e-b66f-c452247de6b7"},"vehicle_type_id":"4","last_reported":1731186442,"current_range_meters":7200,"station_id":"ce4bhh12rcd13ifvqff0","pricing_plan_id":"cebpf4jnsgd1na2vs0mg"},{"bike_id":"40f593b1-c6b4-4056-9082-85c23863896b","system_id":"levelo_inurba_marseille","lat":43.25495,"lon":5.37647,"is_reserved":false,"is_disabled":false,"rental_uris":{"android":"levelo://app?vid=40f593b1-c6b4-4056-9082-85c23863896b","ios":"levelo://app?vid=40f593b1-c6b4-4056-9082-85c23863896b"},"vehicle_type_id":"4","last_reported":1731186442,"current_range_meters":38800,"station_id":"ce4bhh12rcd13ifvqff0","pricing_plan_id":"cebpf4jnsgd1na2vs0mg"},{"bike_id":"5e6225c0-2d39-469c-8147-59151b03250f","system_id":"levelo_inurba_marseille","lat":43.31692,"lon":5.40474,"is_reserved":false,"is_disabled":false,"rental_uris":{"android":"levelo://app?vid=5e6225c0-2d39-469c-8147-59151b03250f","ios":"levelo://app?vid=5e6225c0-2d39-469c-8147-59151b03250f"},"vehicle_type_id":"4","last_reported":1731186442,"current_range_meters":38800,"station_id":"ce4bh012rcd13ifvqd00","pricing_plan_id":"cebpf4jnsgd1na2vs0mg"},{"bike_id":"c570186d-f928-464d-b1f7-47e1fae4f5ab","system_id":"levelo_inurba_marseille","lat":43.28619,"lon":5.351,"is_reserved":false,"is_disabled":false,"rental_uris":{"android":"levelo://app?vid=c570186d-f928-464d-b1f7-47e1fae4f5ab","ios":"levelo://app?vid=c570186d-f928-464d-b1f7-47e1fae4f5ab"},"vehicle_type_id":"4","last_reported":1731186442,"current_range_meters":36400,"station_id":"ce4bhch2rcd13ifvqeug","pricing_plan_id":"cebpf4jnsgd1na2vs0mg"},{"bike_id":"11508394-60dd-4294-be15-43de4d3084f6","system_id":"levelo_inurba_marseille","lat":43.23962,"lon":5.36628,"is_reserved":false,"is_disabled":false,"rental_uris":{"android":"levelo://app?vid=11508394-60dd-4294-be15-43de4d3084f6","ios":"levelo://app?vid=11508394-60dd-4294-be15-43de4d3084f6"},"vehicle_type_id":"4","last_reported":1731186442,"current_range_meters":17600,"station_id":"ce4bhi12rcd13ifvqfp0","pricing_plan_id":"cebpf4jnsgd1na2vs0mg"},{"bike_id":"25845ab9-1181-480c-b25b-a96b7f2023da","system_id":"levelo_inurba_marseille","lat":43.2992,"lon":5.37464,"is_reserved":false,"is_disabled":false,"rental_uris":{"android":"levelo://app?vid=25845ab9-1181-480c-b25b-a96b7f2023da","ios":"levelo://app?vid=25845ab9-1181-480c-b25b-a96b7f2023da"},"vehicle_type_id":"4","last_reported":1731186442,"current_range_meters":32400,"station_id":"ce4bgjh2rcd13ifvqbg0","pricing_plan_id":"cebpf4jnsgd1na2vs0mg"},{"bike_id":"b4eb30bc-dd09-4cbf-8ece-3b8ada662aaf","system_id":"levelo_inurba_marseille","lat":43.25005,"lon":5.38916,"is_reserved":false,"is_disabled":false,"rental_uris":{"android":"levelo://app?vid=b4eb30bc-dd09-4cbf-8ece-3b8ada662aaf","ios":"levelo://app?vid=b4eb30bc-dd09-4cbf-8ece-3b8ada662aaf"},"vehicle_type_id":"4","last_reported":1731186442,"current_range_meters":17600,"station_id":"ce4bhgp2rcd13ifvqfd0","pricing_plan_id":"cebpf4jnsgd1na2vs0mg"},{"bike_id":"cc06a548-e4c7-417f-b8f3-b58dba14ef25","system_id":"levelo_inurba_marseille","lat":43.23963,"lon":5.36637,"is_reserved":false,"is_disabled":false,"rental_uris":{"android":"levelo://app?vid=cc06a548-e4c7-417f-b8f3-b58dba14ef25","ios":"levelo://app?vid=cc06a548-e4c7-417f-b8f3-b58dba14ef25"},"vehicle_type_id":"4","last_reported":1731186442,"current_range_meters":38800,"station_id":"ce4bhi12rcd13ifvqfp0","pricing_plan_id":"cebpf4jnsgd1na2vs0mg"},{"bike_id":"76b83856-087c-4d16-915b-4c09513c417e","system_id":"levelo_inurba_marseille","lat":43.28657,"lon":5.36357,"is_reserved":false,"is_disabled":false,"rental_uris":{"android":"levelo://app?vid=76b83856-087c-4d16-915b-4c09513c417e","ios":"levelo://app?vid=76b83856-087c-4d16-915b-4c09513c417e"},"vehicle_type_id":"4","last_reported":1731186442,"current_range_meters":34000,"station_id":"ce4bhah2rcd13ifvqej0","pricing_plan_id":"cebpf4jnsgd1na2vs0mg"},{"bike_id":"c1111ee5-6bbc-4511-8860-d1df8cebf5f0","system_id":"levelo_inurba_marseille","lat":43.30957,"lon":5.39039,"is_reserved":false,"is_disabled":false,"rental_uris":{"android":"levelo://app?vid=c1111ee5-6bbc-4511-8860-d1df8cebf5f0","ios":"levelo://app?vid=c1111ee5-6bbc-4511-8860-d1df8cebf5f0"},"vehicle_type_id":"4","last_reported":1731186442,"current_range_meters":8400,"station_id":"ce4bgup2rcd13ifvqco0","pricing_plan_id":"cebpf4jnsgd1na2vs0mg"},{"bike_id":"d19d38e7-34df-44f8-bbe6-4862f8fbaa71","system_id":"levelo_inurba_marseille","lat":43.24075,"lon":5.37751,"is_reserved":false,"is_disabled":false,"rental_uris":{"android":"levelo://app?vid=d19d38e7-34df-44f8-bbe6-4862f8fbaa71","ios":"levelo://app?vid=d19d38e7-34df-44f8-bbe6-4862f8fbaa71"},"vehicle_type_id":"4","last_reported":1731186442,"current_range_meters":26000,"station_id":"ce4bhnp2rcd13ifvqgvg","pricing_plan_id":"cebpf4jnsgd1na2vs0mg"},{"bike_id":"be94c940-c56d-4132-af66-fedb762b3e0f","system_id":"levelo_inurba_marseille","lat":43.23196,"lon":5.35558,"is_reserved":false,"is_disabled":false,"rental_uris":{"android":"levelo://app?vid=be94c940-c56d-4132-af66-fedb762b3e0f","ios":"levelo://app?vid=be94c940-c56d-4132-af66-fedb762b3e0f"},"vehicle_type_id":"4","last_reported":1731186442,"current_range_meters":36000,"station_id":"ce4bhu92rcd13ifvqi70","pricing_plan_id":"cebpf4jnsgd1na2vs0mg"},{"bike_id":"9769b54a-608a-49dc-ab6a-d885f78ea978","system_id":"levelo_inurba_marseille","lat":43.31116,"lon":5.37768,"is_reserved":false,"is_disabled":false,"rental_uris":{"android":"levelo://app?vid=9769b54a-608a-49dc-ab6a-d885f78ea978","ios":"levelo://app?vid=9769b54a-608a-49dc-ab6a-d885f78ea978"},"vehicle_type_id":"4","last_reported":1731186442,"current_range_meters":19200,"station_id":"ce4bgt92rcd13ifvqcg0","pricing_plan_id":"cebpf4jnsgd1na2vs0mg"},{"bike_id":"6a8f90cf-dd6b-4336-809c-cc3deb3a9c75","system_id":"levelo_inurba_marseille","lat":43.27947,"lon":5.41039,"is_reserved":false,"is_disabled":false,"rental_uris":{"android":"levelo://app?vid=6a8f90cf-dd6b-4336-809c-cc3deb3a9c75","ios":"levelo://app?vid=6a8f90cf-dd6b-4336-809c-cc3deb3a9c75"},"vehicle_type_id":"4","last_reported":1731186442,"current_range_meters":32800,"station_id":"ce4bhnp2rcd13ifvqh0g","pricing_plan_id":"cebpf4jnsgd1na2vs0mg"},{"bike_id":"5ef9fd6f-4b20-4393-a8a6-914b9723a6a4","system_id":"levelo_inurba_marseille","lat":43.25487,"lon":5.37648,"is_reserved":false,"is_disabled":false,"rental_uris":{"android":"levelo://app?vid=5ef9fd6f-4b20-4393-a8a6-914b9723a6a4","ios":"levelo://app?vid=5ef9fd6f-4b20-4393-a8a6-914b9723a6a4"},"vehicle_type_id":"4","last_reported":1731186442,"current_range_meters":38800,"station_id":"ce4bhh12rcd13ifvqff0","pricing_plan_id":"cebpf4jnsgd1na2vs0mg"},{"bike_id":"777659d5-9785-4f45-a6b1-235042ba707c","system_id":"levelo_inurba_marseille","lat":43.29976,"lon":5.38489,"is_reserved":false,"is_disabled":false,"rental_uris":{"android":"levelo://app?vid=777659d5-9785-4f45-a6b1-235042ba707c","ios":"levelo://app?vid=777659d5-9785-4f45-a6b1-235042ba707c"},"vehicle_type_id":"4","last_reported":1731186442,"current_range_meters":38800,"station_id":"ce4bgj92rcd13ifvqbd0","pricing_plan_id":"cebpf4jnsgd1na2vs0mg"},{"bike_id":"82ac9e6e-af6d-463e-ab8b-7319ee23ee98","system_id":"levelo_inurba_marseille","lat":43.26494,"lon":5.39547,"is_reserved":false,"is_disabled":false,"rental_uris":{"android":"levelo://app?vid=82ac9e6e-af6d-463e-ab8b-7319ee23ee98","ios":"levelo://app?vid=82ac9e6e-af6d-463e-ab8b-7319ee23ee98"},"vehicle_type_id":"4","last_reported":1731186442,"current_range_meters":9600,"station_id":"ce4bhi12rcd13ifvqfq0","pricing_plan_id":"cebpf4jnsgd1na2vs0mg"},{"bike_id":"799051fd-d983-438d-b1a6-f94aa3428752","system_id":"levelo_inurba_marseille","lat":43.2956,"lon":5.42287,"is_reserved":false,"is_disabled":false,"rental_uris":{"android":"levelo://app?vid=799051fd-d983-438d-b1a6-f94aa3428752","ios":"levelo://app?vid=799051fd-d983-438d-b1a6-f94aa3428752"},"vehicle_type_id":"4","last_reported":1731186442,"current_range_meters":38800,"station_id":"ce4bhph2rcd13ifvqhdg","pricing_plan_id":"cebpf4jnsgd1na2vs0mg"},{"bike_id":"26b37ce0-ca3a-4194-994a-47773616e440","system_id":"levelo_inurba_marseille","lat":43.289787,"lon":5.382236,"is_reserved":false,"is_disabled":false,"rental_uris":{"android":"levelo://app?vid=26b37ce0-ca3a-4194-994a-47773616e440","ios":"levelo://app?vid=26b37ce0-ca3a-4194-994a-47773616e440"},"vehicle_type_id":"4","last_reported":1731186442,"current_range_meters":24800,"station_id":"ce4bgqh2rcd13ifvqc4g","pricing_plan_id":"cebpf4jnsgd1na2vs0mg"},{"bike_id":"d6f1fae5-de27-43bd-be64-cf67130f0761","system_id":"levelo_inurba_marseille","lat":43.29592,"lon":5.3805,"is_reserved":false,"is_disabled":false,"rental_uris":{"android":"levelo://app?vid=d6f1fae5-de27-43bd-be64-cf67130f0761","ios":"levelo://app?vid=d6f1fae5-de27-43bd-be64-cf67130f0761"},"vehicle_type_id":"4","last_reported":1731186442,"current_range_meters":38000,"station_id":"ce4bgl12rcd13ifvqbo0","pricing_plan_id":"cebpf4jnsgd1na2vs0mg"},{"bike_id":"70d9933d-741e-4429-84fb-de4809e21853","system_id":"levelo_inurba_marseille","lat":43.29257,"lon":5.38441,"is_reserved":false,"is_disabled":false,"rental_uris":{"android":"levelo://app?vid=70d9933d-741e-4429-84fb-de4809e21853","ios":"levelo://app?vid=70d9933d-741e-4429-84fb-de4809e21853"},"vehicle_type_id":"4","last_reported":1731186442,"current_range_meters":13600,"station_id":"ce4bh692rcd13ifvqea0","pricing_plan_id":"cebpf4jnsgd1na2vs0mg"},{"bike_id":"3f290639-0985-46ac-acc5-58d8b986d28a","system_id":"levelo_inurba_marseille","lat":43.295278,"lon":5.390355,"is_reserved":false,"is_disabled":false,"rental_uris":{"android":"levelo://app?vid=3f290639-0985-46ac-acc5-58d8b986d28a","ios":"levelo://app?vid=3f290639-0985-46ac-acc5-58d8b986d28a"},"vehicle_type_id":"4","last_reported":1731186442,"current_range_meters":18800,"station_id":"ce4bh2p2rcd13ifvqdi0","pricing_plan_id":"cebpf4jnsgd1na2vs0mg"},{"bike_id":"68ef1dd3-b20c-422b-8092-56b260dc3425","system_id":"levelo_inurba_marseille","lat":43.29527,"lon":5.38544,"is_reserved":false,"is_disabled":false,"rental_uris":{"android":"levelo://app?vid=68ef1dd3-b20c-422b-8092-56b260dc3425","ios":"levelo://app?vid=68ef1dd3-b20c-422b-8092-56b260dc3425"},"vehicle_type_id":"4","last_reported":1731186442,"current_range_meters":38800,"station_id":"ce4bgih2rcd13ifvqba0","pricing_plan_id":"cebpf4jnsgd1na2vs0mg"},{"bike_id":"ec9c7755-ff98-4680-93df-dd7f7d72f12b","system_id":"levelo_inurba_marseille","lat":43.31722,"lon":5.42392,"is_reserved":false,"is_disabled":false,"rental_uris":{"android":"levelo://app?vid=ec9c7755-ff98-4680-93df-dd7f7d72f12b","ios":"levelo://app?vid=ec9c7755-ff98-4680-93df-dd7f7d72f12b"},"vehicle_type_id":"4","last_reported":1731186442,"current_range_meters":38800,"station_id":"ce4bhp92rcd13ifvqhbg","pricing_plan_id":"cebpf4jnsgd1na2vs0mg"},{"bike_id":"2a2b6bd4-7604-497d-9ca3-0e5e501b0d20","system_id":"levelo_inurba_marseille","lat":43.31179,"lon":5.38717,"is_reserved":false,"is_disabled":false,"rental_uris":{"android":"levelo://app?vid=2a2b6bd4-7604-497d-9ca3-0e5e501b0d20","ios":"levelo://app?vid=2a2b6bd4-7604-497d-9ca3-0e5e501b0d20"},"vehicle_type_id":"4","last_reported":1731186442,"current_range_meters":38800,"station_id":"ce4bgv12rcd13ifvqcp0","pricing_plan_id":"cebpf4jnsgd1na2vs0mg"},{"bike_id":"6366a0a2-434c-449e-8ae3-0585efb08dbc","system_id":"levelo_inurba_marseille","lat":43.25006,"lon":5.38927,"is_reserved":false,"is_disabled":false,"rental_uris":{"android":"levelo://app?vid=6366a0a2-434c-449e-8ae3-0585efb08dbc","ios":"levelo://app?vid=6366a0a2-434c-449e-8ae3-0585efb08dbc"},"vehicle_type_id":"4","last_reported":1731186442,"current_range_meters":38800,"station_id":"ce4bhgp2rcd13ifvqfd0","pricing_plan_id":"cebpf4jnsgd1na2vs0mg"},{"bike_id":"3ab4b425-5996-4c7a-92d8-b00a0f4ea76b","system_id":"levelo_inurba_marseille","lat":43.29426,"lon":5.38622,"is_reserved":false,"is_disabled":false,"rental_uris":{"android":"levelo://app?vid=3ab4b425-5996-4c7a-92d8-b00a0f4ea76b","ios":"levelo://app?vid=3ab4b425-5996-4c7a-92d8-b00a0f4ea76b"},"vehicle_type_id":"4","last_reported":1731186442,"current_range_meters":38800,"station_id":"ce4bh2h2rcd13ifvqdh0","pricing_plan_id":"cebpf4jnsgd1na2vs0mg"},{"bike_id":"e61e0940-c088-4879-95f6-2eeeebf20835","system_id":"levelo_inurba_marseille","lat":43.3171,"lon":5.37736,"is_reserved":false,"is_disabled":false,"rental_uris":{"android":"levelo://app?vid=e61e0940-c088-4879-95f6-2eeeebf20835","ios":"levelo://app?vid=e61e0940-c088-4879-95f6-2eeeebf20835"},"vehicle_type_id":"4","last_reported":1731186442,"current_range_meters":24000,"station_id":"ce4bgth2rcd13ifvqch0","pricing_plan_id":"cebpf4jnsgd1na2vs0mg"},