{"last_updated":1740164821,"ttl":60,"version":"2.2","data":{"bikes":[{"bike_id":"0daceb12-03c8-4738-8cca-d21330c01121","system_id":"levelo_inurba_marseille","lat":43.28884,"lon":5.35853,"is_reserved":false,"is_disabled":false,"rental_uris":{"android":"levelo://app?vid=0daceb12-03c8-4738-8cca-d21330c01121","ios":"levelo://app?vid=0daceb12-03c8-4738-8cca-d21330c01121"},"vehicle_type_id":"4","last_reported":1740164821,"current_range_meters":2800,"station_id":"ce4bhb12rcd13ifvqem0","pricing_plan_id":"cebpf4jnsgd1na2vs0mg"},{"bike_id":"4b57187e-2569-4a17-84f5-8486548aaefb","system_id":"levelo_inurba_marseille","lat":43.31279,"lon":5.40169,"is_reserved":false,"is_disabled":false,"rental_uris":{"android":"levelo://app?vid=4b57187e-2569-4a17-84f5-8486548aaefb","ios":"levelo://app?vid=4b57187e-2569-4a17-84f5-8486548aaefb"},"vehicle_type_id":"4","last_reported":1740164821,"current_range_meters":2800,"station_id":"ce4bh092rcd13ifvqd30","pricing_plan_id":"cebpf4jnsgd1na2vs0mg"},{"bike_id":"704f5d06-0528-432f-8279-b2bb7a9da9fd","system_id":"levelo_inurba_marseille","lat":43.27313,"lon":5.39089,"is_reserved":false,"is_disabled":false,"rental_uris":{"android":"levelo://app?vid=704f5d06-0528-432f-8279-b2bb7a9da9fd","ios":"levelo://app?vid=704f5d06-0528-432f-8279-b2bb7a9da9fd"},"vehicle_type_id":"4","last_reported":1740164821,"current_range_meters":2000,"station_id":"ce4bhgp2rcd13ifvqfe0","pricing_plan_id":"cebpf4jnsgd1na2vs0mg"},{"bike_id":"21d1a152-179c-4274-a581-4a52114a7a4d","system_id":"levelo_inurba_marseille","lat":43.27692,"lon":5.389,"is_reserved":false,"is_disabled":false,"rental_uris":{"android":"levelo://app?vid=21d1a152-179c-4274-a581-4a52114a7a4d","ios":"levelo://app?vid=21d1a152-179c-4274-a581-4a52114a7a4d"},"vehicle_type_id":"4","last_reported":1740164821,"current_range_meters":3200,"station_id":"ce4bhi12rcd13ifvqfo0","pricing_plan_id":"cebpf4jnsgd1na2vs0mg"},{"bike_id":"0cab19bb-6912-4338-90fa-29a7a9a5e5b8","system_id":"levelo_inurba_marseille","lat":43.29201,"lon":5.39326,"is_reserved":false,"is_disabled":false,"rental_uris":{"android":"levelo://app?vid=0cab19bb-6912-4338-90fa-29a7a9a5e5b8","ios":"levelo://app?vid=0cab19bb-6912-4338-90fa-29a7a9a5e5b8"},"vehicle_type_id":"4","last_reported":1740164821,"current_range_meters":3600,"station_id":"ce4bh192rcd13ifvqdd0","pricing_plan_id":"cebpf4jnsgd1na2vs0mg"},{"bike_id":"cf596e2a-5a8a-448f-b4cb-1b1a4b2b203d","system_id":"levelo_inurba_marseille","lat":43.30153,"lon":5.37412,"is_reserved":false,"is_disabled":false,"rental_uris":{"android":"levelo://app?vid=cf596e2a-5a8a-448f-b4cb-1b1a4b2b203d","ios":"levelo://app?vid=cf596e2a-5a8a-448f-b4cb-1b1a4b2b203d"},"vehicle_type_id":"4","last_reported":1740164821,"current_range_meters":3600,"station_id":"ce4bgs92rcd13ifvqcc0","pricing_plan_id":"cebpf4jnsgd1na2vs0mg"},{"bike_id":"59706855-db7b-41b6-bf99-b2ab94560039","system_id":"levelo_inurba_marseille","lat":43.28669,"lon":5.38657,"is_reserved":false,"is_disabled":false,"rental_uris":{"android":"levelo://app?vid=59706855-db7b-41b6-bf99-b2ab94560039","ios":"levelo://app?vid=59706855-db7b-41b6-bf99-b2ab94560039"},"vehicle_type_id":"4","last_reported":1740164821,"current_range_meters":4000,"station_id":"ce4bh492rcd13ifvqdug","pricing_plan_id":"cebpf4jnsgd1na2vs0mg"},{"bike_id":"53c73ba9-5fd0-474c-83e7-cc02755d07bd","system_id":"levelo_inurba_marseille","lat":43.29532,"lon":5.38541,"is_reserved":false,"is_disabled":false,"rental_uris":{"android":"levelo://app?vid=53c73ba9-5fd0-474c-83e7-cc02755d07bd","ios":"levelo://app?vid=53c73ba9-5fd0-474c-83e7-cc02755d07bd"},"vehicle_type_id":"4","last_reported":1740164821,"current_range_meters":4000,"station_id":"ce4bgih2rcd13ifvqba0","pricing_plan_id":"cebpf4jnsgd1na2vs0mg"},{"bike_id":"03edd3dc-a746-4f71-8f34-9a6ae6b8d503","system_id":"levelo_inurba_marseille","lat":43.27618,"lon":5.36113,"is_reserved":false,"is_disabled":false,"rental_uris":{"android":"levelo://app?vid=03edd3dc-a746-4f71-8f34-9a6ae6b8d503","ios":"levelo://app?vid=03edd3dc-a746-4f71-8f34-9a6ae6b8d503"},"vehicle_type_id":"4","last_reported":1740164821,"current_range_meters":4400,"station_id":"ce4bgj92rcd13ifvqbe0","pricing_plan_id":"cebpf4jnsgd1na2vs0mg"},{"bike_id":"a893fffa-47fa-4c47-b3a3-341ff4e3de56","system_id":"levelo_inurba_marseille","lat":43.29528,"lon":5.39031,"is_reserved":false,"is_disabled":false,"rental_uris":{"android":"levelo://app?vid=a893fffa-47fa-4c47-b3a3-341ff4e3de56","ios":"levelo://app?vid=a893fffa-47fa-4c47-b3a3-341ff4e3de56"},"vehicle_type_id":"4","last_reported":1740164821,"current_range_meters":4400,"station_id":"ce4bh3p2rcd13ifvqdp0","pricing_plan_id":"cebpf4jnsgd1na2vs0mg"},{"bike_id":"6f4e1524-4b8c-4c11-8ada-c33a2e79163c","system_id":"levelo_inurba_marseille","lat":43.27968,"lon":5.41051,"is_reserved":false,"is_disabled":true,"rental_uris":{"android":"levelo://app?vid=6f4e1524-4b8c-4c11-8ada-c33a2e79163c","ios":"levelo://app?vid=6f4e1524-4b8c-4c11-8ada-c33a2e79163c"},"vehicle_type_id":"4","last_reported":1740164821,"current_range_meters":4400,"station_id":"ce4bhnp2rcd13ifvqh0g","pricing_plan_id":"cebpf4jnsgd1na2vs0mg"},{"bike_id":"1608a1cc-7792-4b0d-acd6-ed340e6e93cf","system_id":"levelo_inurba_marseille","lat":43.29422,"lon":5.38619,"is_reserved":false,"is_disabled":false,"rental_uris":{"android":"levelo://app?vid=1608a1cc-7792-4b0d-acd6-ed340e6e93cf","ios":"levelo://app?vid=1608a1cc-7792-4b0d-acd6-ed340e6e93cf"},"vehicle_type_id":"4","last_reported":1740164821,"current_range_meters":4400,"station_id":"ce4bh2h2rcd13ifvqdh0","pricing_plan_id":"cebpf4jnsgd1na2vs0mg"},{"bike_id":"b90f9a96-8672-4dea-9ee2-c15eae3805a9","system_id":"levelo_inurba_marseille","lat":43.31283,"lon":5.3684,"is_reserved":false,"is_disabled":false,"rental_uris":{"android":"levelo://app?vid=b90f9a96-8672-4dea-9ee2-c15eae3805a9","ios":"levelo://app?vid=b90f9a96-8672-4dea-9ee2-c15eae3805a9"},"vehicle_type_id":"4","last_reported":1740164821,"current_range_meters":4400,"station_id":"ce4bgl92rcd13ifvqbq0","pricing_plan_id":"cebpf4jnsgd1na2vs0mg"},{"bike_id":"9f601027-2c15-49c8-a617-292eb6a7fe34","system_id":"levelo_inurba_marseille","lat":43.30306,"lon":5.36888,"is_reserved":false,"is_disabled":false,"rental_uris":{"android":"levelo://app?vid=9f601027-2c15-49c8-a617-292eb6a7fe34","ios":"levelo://app?vid=9f601027-2c15-49c8-a617-292eb6a7fe34"},"vehicle_type_id":"4","last_reported":1740164821,"current_range_meters":4400,"station_id":"ce4bgqh2rcd13ifvqc5g","pricing_plan_id":"cebpf4jnsgd1na2vs0mg"},{"bike_id":"7f210161-0afc-456c-91d6-f90c66bc0ab3","system_id":"levelo_inurba_marseille","lat":43.29903,"lon":5.43651,"is_reserved":false,"is_disabled":false,"rental_uris":{"android":"levelo://app?vid=7f210161-0afc-456c-91d6-f90c66bc0ab3","ios":"levelo://app?vid=7f210161-0afc-456c-91d6-f90c66bc0ab3"},"vehicle_type_id":"4","last_reported":1740164821,"current_range_meters":4800,"station_id":"ce4bhpp2rcd13ifvqhfg","pricing_plan_id":"cebpf4jnsgd1na2vs0mg"},{"bike_id":"0fa38bd9-dd0c-46db-add0-a244c591910b","system_id":"levelo_inurba_marseille","lat":43.29537,"lon":5.38551,"is_reserved":false,"is_disabled":false,"rental_uris":{"android":"levelo://app?vid=0fa38bd9-dd0c-46db-add0-a244c591910b","ios":"levelo://app?vid=0fa38bd9-dd0c-46db-add0-a244c591910b"},"vehicle_type_id":"4","last_reported":1740164821,"current_range_meters":5600,"station_id":"ce4bgih2rcd13ifvqba0","pricing_plan_id":"cebpf4jnsgd1na2vs0mg"},{"bike_id":"77ff63e8-b5ae-48d0-8725-3fc2e7c2e786","system_id":"levelo_inurba_marseille","lat":43.32106,"lon":5.36782,"is_reserved":false,"is_disabled":false,"rental_uris":{"android":"levelo://app?vid=77ff63e8-b5ae-48d0-8725-3fc2e7c2e786","ios":"levelo://app?vid=77ff63e8-b5ae-48d0-8725-3fc2e7c2e786"},"vehicle_type_id":"4","last_reported":1740164821,"current_range_meters":5600,"station_id":"ce4bhrh2rcd13ifvqhug","pricing_plan_id":"cebpf4jnsgd1na2vs0mg"},{"bike_id":"418204bb-d845-489c-a63c-8be02144db94","system_id":"levelo_inurba_marseille","lat":43.29527,"lon":5.39021,"is_reserved":false,"is_disabled":false,"rental_uris":{"android":"levelo://app?vid=418204bb-d845-489c-a63c-8be02144db94","ios":"levelo://app?vid=418204bb-d845-489c-a63c-8be02144db94"},"vehicle_type_id":"4","last_reported":1740164821,"current_range_meters":5600,"station_id":"","pricing_plan_id":"cebpf4jnsgd1na2vs0mg"},{"bike_id":"43541d45-a315-499d-926c-afcabcfdafed","system_id":"levelo_inurba_marseille","lat":43.2979,"lon":5.3809,"is_reserved":false,"is_disabled":false,"rental_uris":{"android":"levelo://app?vid=43541d45-a315-499d-926c-afcabcfdafed","ios":"levelo://app?vid=43541d45-a315-499d-926c-afcabcfdafed"},"vehicle_type_id":"4","last_reported":1740164821,"current_range_meters":6000,"station_id":"ce4bgip2rcd13ifvqbb0","pricing_plan_id":"cebpf4jnsgd1na2vs0mg"},{"bike_id":"419b4ccf-9337-4dc9-9409-111b92134d45","system_id":"levelo_inurba_marseille","lat":43.262,"lon":5.37444,"is_reserved":false,"is_disabled":true,"rental_uris":{"android":"levelo://app?vid=419b4ccf-9337-4dc9-9409-111b92134d45","ios":"levelo://app?vid=419b4ccf-9337-4dc9-9409-111b92134d45"},"vehicle_type_id":"4","last_reported":1740164821,"current_range_meters":6400,"station_id":"ce4bhgp2rcd13ifvqfc0","pricing_plan_id":"cebpf4jnsgd1na2vs0mg"},{"bike_id":"cfb05cb1-bdaf-4628-af25-de48d634065f","system_id":"levelo_inurba_marseille","lat":43.29218,"lon":5.36071,"is_reserved":false,"is_disabled":false,"rental_uris":{"android":"levelo://app?vid=cfb05cb1-bdaf-4628-af25-de48d634065f","ios":"levelo://app?vid=cfb05cb1-bdaf-4628-af25-de48d634065f"},"vehicle_type_id":"4","last_reported":1740164821,"current_range_meters":6400,"station_id":"ce4bhbh2rcd13ifvqeqg","pricing_plan_id":"cebpf4jnsgd1na2vs0mg"},{"bike_id":"64d65393-2c8f-496a-889b-c9b158c35ed8","system_id":"levelo_inurba_marseille","lat":43.31166,"lon":5.38725,"is_reserved":false,"is_disabled":false,"rental_uris":{"android":"levelo://app?vid=64d65393-2c8f-496a-889b-c9b158c35ed8","ios":"levelo://app?vid=64d65393-2c8f-496a-889b-c9b158c35ed8"},"vehicle_type_id":"4","last_reported":1740164821,"current_range_meters":6400,"station_id":"ce4bgv12rcd13ifvqcp0","pricing_plan_id":"cebpf4jnsgd1na2vs0mg"},{"bike_id":"c96c3d3b-9528-4c97-971b-3e11a7e1ad2c","system_id":"levelo_inurba_marseille","lat":43.30929,"lon":5.40131,"is_reserved":false,"is_disabled":false,"rental_uris":{"android":"levelo://app?vid=c96c3d3b-9528-4c97-971b-3e11a7e1ad2c","ios":"levelo://app?vid=c96c3d3b-9528-4c97-971b-3e11a7e1ad2c"},"vehicle_type_id":"4","last_reported":1740164821,"current_range_meters":6400,"station_id":"ce4bgvp2rcd13ifvqct0","pricing_plan_id":"cebpf4jnsgd1na2vs0mg"},{"bike_id":"887bb024-e842-474f-9fa4-01f6ab1651ef","system_id":"levelo_inurba_marseille","lat":43.29534,"lon":5.39028,"is_reserved":false,"is_disabled":false,"rental_uris":{"android":"levelo://app?vid=887bb024-e842-474f-9fa4-01f6ab1651ef","ios":"levelo://app?vid=887bb024-e842-474f-9fa4-01f6ab1651ef"},"vehicle_type_id":"4","last_reported":1740164821,"current_range_meters":6800,"station_id":"ce4bh3p2rcd13ifvqdp0","pricing_plan_id":"cebpf4jnsgd1na2vs0mg"},{"bike_id":"7a227780-efa1-4341-8263-6444da5d6812","system_id":"levelo_inurba_marseille","lat":43.27921,"lon":5.39592,"is_reserved":false,"is_disabled":false,"rental_uris":{"android":"levelo://app?vid=7a227780-efa1-4341-8263-6444da5d6812","ios":"levelo://app?vid=7a227780-efa1-4341-8263-6444da5d6812"},"vehicle_type_id":"4","last_reported":1740164821,"current_range_meters":6800,"station_id":"ce4bhf92rcd13ifvqf40","pricing_plan_id":"cebpf4jnsgd1na2vs0mg"},{"bike_id":"df54718b-bb77-42a5-95d5-f8ded1f2f1e6","system_id":"levelo_inurba_marseille","lat":43.30135,"lon":5.38777,"is_reserved":false,"is_disabled":false,"rental_uris":{"android":"levelo://app?vid=df54718b-bb77-42a5-95d5-f8ded1f2f1e6","ios":"levelo://app?vid=df54718b-bb77-42a5-95d5-f8ded1f2f1e6"},"vehicle_type_id":"4","last_reported":1740164821,"current_range_meters":6800,"station_id":"ce4bghh2rcd13ifvqb60","pricing_plan_id":"cebpf4jnsgd1na2vs0mg"},{"bike_id":"cc2f8cf6-dc47-4020-9d20-a4579f24b39b","system_id":"levelo_inurba_marseille","lat":43.3058,"lon":5.39343,"is_reserved":false,"is_disabled":false,"rental_uris":{"android":"levelo://app?vid=cc2f8cf6-dc47-4020-9d20-a4579f24b39b","ios":"levelo://app?vid=cc2f8cf6-dc47-4020-9d20-a4579f24b39b"},"vehicle_type_id":"4","last_reported":1740164821,"current_range_meters":6800,"station_id":"ce4bh0p2rcd13ifvqd80","pricing_plan_id":"cebpf4jnsgd1na2vs0mg"},{"bike_id":"81070b51-eca5-401c-bb5d-b402bbbe1ddd","system_id":"levelo_inurba_marseille","lat":43.29093,"lon":5.38126,"is_reserved":false,"is_disabled":false,"rental_uris":{"android":"levelo://app?vid=81070b51-eca5-401c-bb5d-b402bbbe1ddd","ios":"levelo://app?vid=81070b51-eca5-401c-bb5d-b402bbbe1ddd"},"vehicle_type_id":"4","last_reported":1740164821,"current_range_meters":6800,"station_id":"ce4bh512rcd13ifvqe2g","pricing_plan_id":"cebpf4jnsgd1na2vs0mg"},{"bike_id":"6b6e1059-5264-45b9-9cb9-d24cf5205f2a","system_id":"levelo_inurba_marseille","lat":43.23971,"lon":5.36647,"is_reserved":false,"is_disabled":true,"rental_uris":{"android":"levelo://app?vid=6b6e1059-5264-45b9-9cb9-d24cf5205f2a","ios":"levelo://app?vid=6b6e1059-5264-45b9-9cb9-d24cf5205f2a"},"vehicle_type_id":"4","last_reported":1740164821,"current_range_meters":7200,"station_id":"","pricing_plan_id":"cebpf4jnsgd1na2vs0mg"},{"bike_id":"948ca15e-dd0e-4b24-9dae-3803d237a65d","system_id":"levelo_inurba_marseille","lat":43.23951,"lon":5.36648,"is_reserved":false,"is_disabled":false,"rental_uris":{"android":"levelo://app?vid=948ca15e-dd0e-4b24-9dae-3803d237a65d","ios":"levelo://app?vid=948ca15e-dd0e-4b24-9dae-3803d237a65d"},"vehicle_type_id":"4","last_reported":1740164821,"current_range_meters":7200,"station_id":"ce4bhi12rcd13ifvqfp0","pricing_plan_id":"cebpf4jnsgd1na2vs0mg"},{"bike_id":"4c87352b-e4ee-4aa9-b24f-9d6ccdea13e6","system_id":"levelo_inurba_marseille","lat":43.25084,"lon":5.39518,"is_reserved":false,"is_disabled":false,"rental_uris":{"android":"levelo://app?vid=4c87352b-e4ee-4aa9-b24f-9d6ccdea13e6","ios":"levelo://app?vid=4c87352b-e4ee-4aa9-b24f-9d6ccdea13e6"},"vehicle_type_id":"4","last_reported":1740164821,"current_range_meters":7200,"station_id":"ce4bhm12rcd13ifvqgkg","pricing_plan_id":"cebpf4jnsgd1na2vs0mg"},{"bike_id":"91a0a94b-f5a9-4c5f-abb9-d36be501d1c2","system_id":"levelo_inurba_marseille","lat":43.2836,"lon":5.38101,"is_reserved":false,"is_disabled":false,"rental_uris":{"android":"levelo://app?vid=91a0a94b-f5a9-4c5f-abb9-d36be501d1c2","ios":"levelo://app?vid=91a0a94b-f5a9-4c5f-abb9-d36be501d1c2"},"vehicle_type_id":"4","last_reported":1740164821,"current_range_meters":7200,"station_id":"ce4bh412rcd13ifvqdr0","pricing_plan_id":"cebpf4jnsgd1na2vs0mg"},{"bike_id":"87590419-9431-46cd-a562-7648976d855a","system_id":"levelo_inurba_marseille","lat":43.2791,"lon":5.41206,"is_reserved":false,"is_disabled":false,"rental_uris":{"android":"levelo://app?vid=87590419-9431-46cd-a562-7648976d855a","ios":"levelo://app?vid=87590419-9431-46cd-a562-7648976d855a"},"vehicle_type_id":"4","last_reported":1740164821,"current_range_meters":7200,"station_id":"","pricing_plan_id":"cebpf4jnsgd1na2vs0mg"},{"bike_id":"1428d04e-1237-401b-b898-f0d8a4cc6a5b","system_id":"levelo_inurba_marseille","lat":43.29027,"lon":5.38641,"is_reserved":false,"is_disabled":false,"rental_uris":{"android":"levelo://app?vid=1428d04e-1237-401b-b898-f0d8a4cc6a5b","ios":"levelo://app?vid=1428d04e-1237-401b-b898-f0d8a4cc6a5b"},"vehicle_type_id":"4","last_reported":1740164821,"current_range_meters":7200,"station_id":"","pricing_plan_id":"cebpf4jnsgd1na2vs0mg"},{"bike_id":"a11a0fcf-3ad8-4aee-b3cf-ee49bd88fd48","system_id":"levelo_inurba_marseille","lat":43.29559,"lon":5.42291,"is_reserved":false,"is_disabled":false,"rental_uris":{"android":"levelo://app?vid=a11a0fcf-3ad8-4aee-b3cf-ee49bd88fd48","ios":"levelo://app?vid=a11a0fcf-3ad8-4aee-b3cf-ee49bd88fd48"},"vehicle_type_id":"4","last_reported":1740164821,"current_range_meters":7200,"station_id":"ce4bhph2rcd13ifvqhdg","pricing_plan_id":"cebpf4jnsgd1na2vs0mg"},{"bike_id":"8c4c9458-3df5-4e73-9e61-7a736f2797b2","system_id":"levelo_inurba_marseille","lat":43.33027,"lon":5.39045,"is_reserved":false,"is_disabled":false,"rental_uris":{"android":"levelo://app?vid=8c4c9458-3df5-4e73-9e61-7a736f2797b2","ios":"levelo://app?vid=8c4c9458-3df5-4e73-9e61-7a736f2797b2"},"vehicle_type_id":"4","last_reported":1740164821,"current_range_meters":8000,"station_id":"ce4bhr92rcd13ifvqhrg","pricing_plan_id":"cebpf4jnsgd1na2vs0mg"},{"bike_id":"5b480cc3-4d68-49c0-a9df-95966150c84b","system_id":"levelo_inurba_marseille","lat":43.28107,"lon":5.37836,"is_reserved":false,"is_disabled":false,"rental_uris":{"android":"levelo://app?vid=5b480cc3-4d68-49c0-a9df-95966150c84b","ios":"levelo://app?vid=5b480cc3-4d68-49c0-a9df-95966150c84b"},"vehicle_type_id":"4","last_reported":1740164821,"current_range_meters":7200,"station_id":"ce4bha12rcd13ifvqee0","pricing_plan_id":"cebpf4jnsgd1na2vs0mg"},{"bike_id":"b45ab281-2ffb-4786-bbfb-31f4db8658f9","system_id":"levelo_inurba_marseille","lat":43.26573,"lon":5.39018,"is_reserved":false,"is_disabled":false,"rental_uris":{"android":"levelo://app?vid=b45ab281-2ffb-4786-bbfb-31f4db8658f9","ios":"levelo://app?vid=b45ab281-2ffb-4786-bbfb-31f4db8658f9"},"vehicle_type_id":"4","last_reported":1740164821,"current_range_meters":8000,"station_id":"ce4bhe12rcd13ifvqf30","pricing_plan_id":"cebpf4jnsgd1na2vs0mg"},{"bike_id":"40784db3-47a7-42a7-bfcb-873821884954","system_id":"levelo_inurba_marseille","lat":43.28147,"lon":5.4264,"is_reserved":false,"is_disabled":false,"rental_uris":{"android":"levelo://app?vid=40784db3-47a7-42a7-bfcb-873821884954","ios":"levelo://app?vid=40784db3-47a7-42a7-bfcb-873821884954"},"vehicle_type_id":"4","last_reported":1740164821,"current_range_meters":8000,"station_id":"ce4bhnh2rcd13ifvqgug","pricing_plan_id":"cebpf4jnsgd1na2vs0mg"},{"bike_id":"fc0349de-a96b-4e9e-88b6-f49bf89d84ae","system_id":"levelo_inurba_marseille","lat":43.28003,"lon":5.4002,"is_reserved":false,"is_disabled":false,"rental_uris":{"android":"levelo://app?vid=fc0349de-a96b-4e9e-88b6-f49bf89d84ae","ios":"levelo://app?vid=fc0349de-a96b-4e9e-88b6-f49bf89d84ae"},"vehicle_type_id":"4","last_reported":1740164821,"current_range_meters":8000,"station_id":"ce4bho92rcd13ifvqh4g","pricing_plan_id":"cebpf4jnsgd1na2vs0mg"},{"bike_id":"08e8d0dc-8773-465a-b9ae-200a6cadc258","system_id":"levelo_inurba_marseille","lat":43.29585,"lon":5.39988,"is_reserved":false,"is_disabled":false,"rental_uris":{"android":"levelo://app?vid=08e8d0dc-8773-465a-b9ae-200a6cadc258","ios":"levelo://app?vid=08e8d0dc-8773-465a-b9ae-200a6cadc258"},"vehicle_type_id":"4","last_reported":1740164821,"current_range_meters":8000,"station_id":"ce4bh312rcd13ifvqdj0","pricing_plan_id":"cebpf4jnsgd1na2vs0mg"},{"bike_id":"f75ece54-414d-4d3e-9198-c4a6ae7eb90d","system_id":"levelo_inurba_marseille","lat":43.25025,"lon":5.38907,"is_reserved":false,"is_disabled":false,"rental_uris":{"android":"levelo://app?vid=f75ece54-414d-4d3e-9198-c4a6ae7eb90d","ios":"levelo://app?vid=f75ece54-414d-4d3e-9198-c4a6ae7eb90d"},"vehicle_type_id":"4","last_reported":1740164821,"current_range_meters":8400,"station_id":"ce4bhgp2rcd13ifvqfd0","pricing_plan_id":"cebpf4jnsgd1na2vs0mg"},{"bike_id":"2f586b3d-59d2-4ed5-bd4b-4264deca22d2","system_id":"levelo_inurba_marseille","lat":43.2835,"lon":5.38645,"is_reserved":false,"is_disabled":false,"rental_uris":{"android":"levelo://app?vid=2f586b3d-59d2-4ed5-bd4b-4264deca22d2","ios":"levelo://app?vid=2f586b3d-59d2-4ed5-bd4b-4264deca22d2"},"vehicle_type_id":"4","last_reported":1740164821,"current_range_meters":8400,"station_id":"ce4bh492rcd13ifvqdvg","pricing_plan_id":"cebpf4jnsgd1na2vs0mg"},{"bike_id":"d1326944-48c1-4b8b-af72-a96dbb77ffca","system_id":"levelo_inurba_marseille","lat":43.27999,"lon":5.40017,"is_reserved":false,"is_disabled":false,"rental_uris":{"android":"levelo://app?vid=d1326944-48c1-4b8b-af72-a96dbb77ffca","ios":"levelo://app?vid=d1326944-48c1-4b8b-af72-a96dbb77ffca"},"vehicle_type_id":"4","last_reported":1740164821,"current_range_meters":8400,"station_id":"ce4bho92rcd13ifvqh4g","pricing_plan_id":"cebpf4jnsgd1na2vs0mg"},{"bike_id":"0584e728-54f2-4eca-887e-fe95607e016b","system_id":"levelo_inurba_marseille","lat":43.28274,"lon":5.35053,"is_reserved":false,"is_disabled":false,"rental_uris":{"android":"levelo://app?vid=0584e728-54f2-4eca-887e-fe95607e016b","ios":"levelo://app?vid=0584e728-54f2-4eca-887e-fe95607e016b"},"vehicle_type_id":"4","last_reported":1740164821,"current_range_meters":8400,"station_id":"ce4bhbp2rcd13ifvqerg","pricing_plan_id":"cebpf4jnsgd1na2vs0mg"},{"bike_id":"52cd4595-82b7-40b1-a8e8-49d24b81f06b","system_id":"levelo_inurba_marseille","lat":43.28429,"lon":5.34997,"is_reserved":false,"is_disabled":false,"rental_uris":{"android":"levelo://app?vid=52cd4595-82b7-40b1-a8e8-49d24b81f06b","ios":"levelo://app?vid=52cd4595-82b7-40b1-a8e8-49d24b81f06b"},"vehicle_type_id":"4","last_reported":1740164821,"current_range_meters":8400,"station_id":"ce4bhbh2rcd13ifvqepg","pricing_plan_id":"cebpf4jnsgd1na2vs0mg"},{"bike_id":"47ad7c30-34cc-434c-9d7d-27d0d397ecd8","system_id":"levelo_inurba_marseille","lat":43.27814,"lon":5.40709,"is_reserved":false,"is_disabled":false,"rental_uris":{"android":"levelo://app?vid=47ad7c30-34cc-434c-9d7d-27d0d397ecd8","ios":"levelo://app?vid=47ad7c30-34cc-434c-9d7d-27d0d397ecd8"},"vehicle_type_id":"4","last_reported":1740164821,"current_range_meters":8400,"station_id":"ce4bhnh2rcd13ifvqgtg","pricing_plan_id":"cebpf4jnsgd1na2vs0mg"},{"bike_id":"747976c2-2863-444c-aba0-193155b8f0c0","system_id":"levelo_inurba_marseille","lat":43.25582,"lon":5.38241,"is_reserved":false,"is_disabled":false,"rental_uris":{"android":"levelo://app?vid=747976c2-2863-444c-aba0-193155b8f0c0","ios":"levelo://app?vid=747976c2-2863-444c-aba0-193155b8f0c0"},"vehicle_type_id":"4","last_reported":1740164821,"current_range_meters":8400,"station_id":"ce4bhih2rcd13ifvqfs0","pricing_plan_id":"cebpf4jnsgd1na2vs0mg"},{"bike_id":"2094c6d3-4179-4c37-821f-ec72b5990f6c","system_id":"levelo_inurba_marseille","lat":43.30247,"lon":5.4006,"is_reserved":false,"is_disabled":false,"rental_uris":{"android":"levelo://app?vid=2094c6d3-4179-4c37-821f-ec72b5990f6c","ios":"levelo://app?vid=2094c6d3-4179-4c37-821f-ec72b5990f6c"},"vehicle_type_id":"4","last_reported":1740164821,"current_range_meters":8400,"station_id":"ce4bgvh2rcd13ifvqcs0","pricing_plan_id":"cebpf4jnsgd1na2vs0mg"},{"bike_id":"c262f01c-1577-478b-8326-3d352004e770","system_id":"levelo_inurba_marseille","lat":43.25113,"lon":5.40321,"is_reserved":false,"is_disabled":false,"rental_uris":{"android":"levelo://app?vid=c262f01c-1577-478b-8326-3d352004e770","ios":"levelo://app?vid=c262f01c-1577-478b-8326-3d352004e770"},"vehicle_type_id":"4","last_reported":1740164821,"current_range_meters":8800,"station_id":"ce4bhlh2rcd13ifvqgig","pricing_plan_id":"cebpf4jnsgd1na2vs0mg"},{"bike_id":"e2124d37-d1a5-4d4d-8c06-fda2ba0b4397","system_id":"levelo_inurba_marseille","lat":43.29245,"lon":5.42657,"is_reserved":false,"is_disabled":false,"rental_uris":{"android":"levelo://app?vid=e2124d37-d1a5-4d4d-8c06-fda2ba0b4397","ios":"levelo://app?vid=e2124d37-d1a5-4d4d-8c06-fda2ba0b4397"},"vehicle_type_id":"4","last_reported":1740164821,"current_range_meters":8800,"station_id":"","pricing_plan_id":"cebpf4jnsgd1na2vs0mg"},{"bike_id":"4bea683f-9404-4f77-9220-6fed7a623011","system_id":"levelo_inurba_marseille","lat":43.28443,"lon":5.39203,"is_reserved":false,"is_disabled":false,"rental_uris":{"android":"levelo://app?vid=4bea683f-9404-4f77-9220-6fed7a623011","ios":"levelo://app?vid=4bea683f-9404-4f77-9220-6fed7a623011"},"vehicle_type_id":"4","last_reported":1740164821,"current_range_meters":8800,"station_id":"ce4bhoh2rcd13ifvqh5g","pricing_plan_id":"cebpf4jnsgd1na2vs0mg"},{"bike_id":"902e1618-1fc7-410f-b59f-802024e2a609","system_id":"levelo_inurba_marseille","lat":43.297,"lon":5.389756,"is_reserved":false,"is_disabled":false,"rental_uris":{"android":"levelo://app?vid=902e1618-1fc7-410f-b59f-802024e2a609","ios":"levelo://app?vid=902e1618-1fc7-410f-b59f-802024e2a609"},"vehicle_type_id":"4","last_reported":1740164821,"current_range_meters":8800,"station_id":"ce4bh292rcd13ifvqdf0","pricing_plan_id":"cebpf4jnsgd1na2vs0mg"},{"bike_id":"a7e57524-7096-4476-8d9d-8e8806b1c3d0","system_id":"levelo_inurba_marseille","lat":43.23161,"lon":5.43688,"is_reserved":false,"is_disabled":true,"rental_uris":{"android":"levelo://app?vid=a7e57524-7096-4476-8d9d-8e8806b1c3d0","ios":"levelo://app?vid=a7e57524-7096-4476-8d9d-8e8806b1c3d0"},"vehicle_type_id":"4","last_reported":1740164821,"current_range_meters":8800,"station_id":"ce4bhmp2rcd13ifvqgog","pricing_plan_id":"cebpf4jnsgd1na2vs0mg"},{"bike_id":"bc93406c-b02c-4b6b-ab26-06b59b2b5702","system_id":"levelo_inurba_marseille","lat":43.29527,"lon":5.39404,"is_reserved":false,"is_disabled":false,"rental_uris":{"android":"levelo://app?vid=bc93406c-b02c-4b6b-ab26-06b59b2b5702","ios":"levelo://app?vid=bc93406c-b02c-4b6b-ab26-06b59b2b5702"},"vehicle_type_id":"4","last_reported":1740164821,"current_range_meters":8800,"station_id":"ce4bh292rcd13ifvqdf0","pricing_plan_id":"cebpf4jnsgd1na2vs0mg"},{"bike_id":"4249a367-a50b-4ee7-8148-1ad704c9fa4e","system_id":"levelo_inurba_marseille","lat":43.28003,"lon":5.41653,"is_reserved":false,"is_disabled":false,"rental_uris":{"android":"levelo://app?vid=4249a367-a50b-4ee7-8148-1ad704c9fa4e","ios":"levelo://app?vid=4249a367-a50b-4ee7-8148-1ad704c9fa4e"},"vehicle_type_id":"4","last_reported":1740164821,"current_range_meters":8800,"station_id":"ce4bho12rcd13ifvqh1g","pricing_plan_id":"cebpf4jnsgd1na2vs0mg"},{"bike_id":"2b8d73ad-5137-4320-bf7a-9fcaea6cd84f","system_id":"levelo_inurba_marseille","lat":43.27989,"lon":5.40009,"is_reserved":false,"is_disabled":false,"rental_uris":{"android":"levelo://app?vid=2b8d73ad-5137-4320-bf7a-9fcaea6cd84f","ios":"levelo://app?vid=2b8d73ad-5137-4320-bf7a-9fcaea6cd84f"},"vehicle_type_id":"4","last_reported":1740164821,"current_range_meters":8800,"station_id":"ce4bho92rcd13ifvqh4g","pricing_plan_id":"cebpf4jnsgd1na2vs0mg"},{"bike_id":"e080c45a-a05d-4297-8995-86678422b056","system_id":"levelo_inurba_marseille","lat":43.34459,"lon":5.38088,"is_reserved":false,"is_disabled":false,"rental_uris":{"android":"levelo://app?vid=e080c45a-a05d-4297-8995-86678422b056","ios":"levelo://app?vid=e080c45a-a05d-4297-8995-86678422b056"},"vehicle_type_id":"4","last_reported":1740164821,"current_range_meters":8800,"station_id":"","pricing_plan_id":"cebpf4jnsgd1na2vs0mg"},{"bike_id":"3e661bc0-4256-43dc-99fd-4f1e869bd55b","system_id":"levelo_inurba_marseille","lat":43.29421,"lon":5.39738,"is_reserved":false,"is_disabled":false,"rental_uris":{"android":"levelo://app?vid=3e661bc0-4256-43dc-99fd-4f1e869bd55b","ios":"levelo://app?vid=3e661bc0-4256-43dc-99fd-4f1e869bd55b"},"vehicle_type_id":"4","last_reported":1740164821,"current_range_meters":9200,"station_id":"ce4bh3h2rcd13ifvqdo0","pricing_plan_id":"cebpf4jnsgd1na2vs0mg"},{"bike_id":"4fa8bf46-90e7-42f5-bd69-8132a897f84f","system_id":"levelo_inurba_marseille","lat":43.31542,"lon":5.3893,"is_reserved":false,"is_disabled":false,"rental_uris":{"android":"levelo://app?vid=4fa8bf46-90e7-42f5-bd69-8132a897f84f","ios":"levelo://app?vid=4fa8bf46-90e7-42f5-bd69-8132a897f84f"},"vehicle_type_id":"4","last_reported":1740164821,"current_range_meters":9200,"station_id":"","pricing_plan_id":"cebpf4jnsgd1na2vs0mg"},{"bike_id":"e12df5bd-7f37-45cb-b3bc-8373b4f306bc","system_id":"levelo_inurba_marseille","lat":43.30311,"lon":5.39212,"is_reserved":false,"is_disabled":false,"rental_uris":{"android":"levelo://app?vid=e12df5bd-7f37-45cb-b3bc-8373b4f306bc","ios":"levelo://app?vid=e12df5bd-7f37-45cb-b3bc-8373b4f306bc"},"vehicle_type_id":"4","last_reported":1740164821,"current_range_meters":9200,"station_id":"ce4bgkh2rcd13ifvqbk0","pricing_plan_id":"cebpf4jnsgd1na2vs0mg"},{"bike_id":"d0109f8e-c695-44b8-83b5-050518c2c6c9","system_id":"levelo_inurba_marseille","lat":43.23067,"lon":5.35487,"is_reserved":false,"is_disabled":false,"rental_uris":{"android":"levelo://app?vid=d0109f8e-c695-44b8-83b5-050518c2c6c9","ios":"levelo://app?vid=d0109f8e-c695-44b8-83b5-050518c2c6c9"},"vehicle_type_id":"4","last_reported":1740164821,"current_range_meters":9200,"station_id":"cpo3342slgdg3j2ifvpg","pricing_plan_id":"cebpf4jnsgd1na2vs0mg"},{"bike_id":"7b9eaf6e-4489-4224-b436-ef6be4484e51","system_id":"levelo_inurba_marseille","lat":43.24815,"lon":5.37451,"is_reserved":false,"is_disabled":false,"rental_uris":{"android":"levelo://app?vid=7b9eaf6e-4489-4224-b436-ef6be4484e51","ios":"levelo://app?vid=7b9eaf6e-4489-4224-b436-ef6be4484e51"},"vehicle_type_id":"4","last_reported":1740164821,"current_range_meters":9200,"station_id":"ce4bhgh2rcd13ifvqfb0","pricing_plan_id":"cebpf4jnsgd1na2vs0mg"},{"bike_id":"849d245a-be14-47ff-9742-f234bf067745","system_id":"levelo_inurba_marseille","lat":43.29751,"lon":5.3791,"is_reserved":false,"is_disabled":false,"rental_uris":{"android":"levelo://app?vid=849d245a-be14-47ff-9742-f234bf067745","ios":"levelo://app?vid=849d245a-be14-47ff-9742-f234bf067745"},"vehicle_type_id":"4","last_reported":1740164821,"current_range_meters":9200,"station_id":"ce4bguh2rcd13ifvqckg","pricing_plan_id":"cebpf4jnsgd1na2vs0mg"},{"bike_id":"dd3500a7-2aa4-49e8-97c7-f1595af3c323","system_id":"levelo_inurba_marseille","lat":43.26066,"lon":5.39397,"is_reserved":false,"is_disabled":false,"rental_uris":{"android":"levelo://app?vid=dd3500a7-2aa4-49e8-97c7-f1595af3c323","ios":"levelo://app?vid=dd3500a7-2aa4-49e8-97c7-f1595af3c323"},"vehicle_type_id":"4","last_reported":1740164821,"current_range_meters":9200,"station_id":"ce4bhh92rcd13ifvqfj0","pricing_plan_id":"cebpf4jnsgd1na2vs0mg"},{"bike_id":"e2605be6-729f-4263-a772-380592b3879d","system_id":"levelo_inurba_marseille","lat":43.30466,"lon":5.38077,"is_reserved":false,"is_disabled":false,"rental_uris":{"android":"levelo://app?vid=e2605be6-729f-4263-a772-380592b3879d","ios":"levelo://app?vid=e2605be6-729f-4263-a772-380592b3879d"},"vehicle_type_id":"4","last_reported":1740164821,"current_range_meters":9200,"station_id":"","pricing_plan_id":"cebpf4jnsgd1na2vs0mg"},{"bike_id":"e35e542f-775a-4612-aea3-19572be52e08","system_id":"levelo_inurba_marseille","lat":43.27375,"lon":5.36254,"is_reserved":false,"is_disabled":false,"rental_uris":{"android":"levelo://app?vid=e35e542f-775a-4612-aea3-19572be52e08","ios":"levelo://app?vid=e35e542f-775a-4612-aea3-19572be52e08"},"vehicle_type_id":"4","last_reported":1740164821,"current_range_meters":9600,"station_id":"ce4bhbh2rcd13ifvqeo0","pricing_plan_id":"cebpf4jnsgd1na2vs0mg"},{"bike_id":"b4201eca-459d-498d-8f6b-6cc46243ef27","system_id":"levelo_inurba_marseille","lat":43.2909,"lon":5.381216,"is_reserved":false,"is_disabled":false,"rental_uris":{"android":"levelo://app?vid=b4201eca-459d-498d-8f6b-6cc46243ef27","ios":"levelo://app?vid=b4201eca-459d-498d-8f6b-6cc46243ef27"},"vehicle_type_id":"4","last_reported":1740164821,"current_range_meters":9600,"station_id":"ce4bh512rcd13ifvqe2g","pricing_plan_id":"cebpf4jnsgd1na2vs0mg"},{"bike_id":"23c1fef2-a3fe-4b4d-9a5a-478c6d40f61a","system_id":"levelo_inurba_marseille","lat":43.281,"lon":5.37827,"is_reserved":false,"is_disabled":false,"rental_uris":{"android":"levelo://app?vid=23c1fef2-a3fe-4b4d-9a5a-478c6d40f61a","ios":"levelo://app?vid=23c1fef2-a3fe-4b4d-9a5a-478c6d40f61a"},"vehicle_type_id":"4","last_reported":1740164821,"current_range_meters":9600,"station_id":"ce4bha12rcd13ifvqee0","pricing_plan_id":"cebpf4jnsgd1na2vs0mg"},{"bike_id":"5c1c3b63-b8e7-4bb0-9eef-e9206534f83e","system_id":"levelo_inurba_marseille","lat":43.32035,"lon":5.41522,"is_reserved":false,"is_disabled":false,"rental_uris":{"android":"levelo://app?vid=5c1c3b63-b8e7-4bb0-9eef-e9206534f83e","ios":"levelo://app?vid=5c1c3b63-b8e7-4bb0-9eef-e9206534f83e"},"vehicle_type_id":"4","last_reported":1740164821,"current_range_meters":9600,"station_id":"ce4bhq92rcd13ifvqhkg","pricing_plan_id":"cebpf4jnsgd1na2vs0mg"},{"bike_id":"37997c59-d0f6-4e17-844d-6b689b8d69d8","system_id":"levelo_inurba_marseille","lat":43.29421,"lon":5.38621,"is_reserved":false,"is_disabled":false,"rental_uris":{"android":"levelo://app?vid=37997c59-d0f6-4e17-844d-6b689b8d69d8","ios":"levelo://app?vid=37997c59-d0f6-4e17-844d-6b689b8d69d8"},"vehicle_type_id":"4","last_reported":1740164821,"current_range_meters":9600,"station_id":"ce4bh2h2rcd13ifvqdh0","pricing_plan_id":"cebpf4jnsgd1na2vs0mg"},{"bike_id":"415cdb3a-d077-466c-9a79-699ca7e7a7b6","system_id":"levelo_inurba_marseille","lat":43.28951,"lon":5.36399,"is_reserved":false,"is_disabled":false,"rental_uris":{"android":"levelo://app?vid=415cdb3a-d077-466c-9a79-699ca7e7a7b6","ios":"levelo://app?vid=415cdb3a-d077-466c-9a79-699ca7e7a7b6"},"vehicle_type_id":"4","last_reported":1740164821,"current_range_meters":9600,"station_id":"ce4bhc92rcd13ifvqetg","pricing_plan_id":"cebpf4jnsgd1na2vs0mg"},{"bike_id":"dd7c5baa-c6b8-46b6-958a-9333d77967cb","system_id":"levelo_inurba_marseille","lat":43.30527,"lon":5.36706,"is_reserved":false,"is_disabled":false,"rental_uris":{"android":"levelo://app?vid=dd7c5baa-c6b8-46b6-958a-9333d77967cb","ios":"levelo://app?vid=dd7c5baa-c6b8-46b6-958a-9333d77967cb"},"vehicle_type_id":"4","last_reported":1740164821,"current_range_meters":9600,"station_id":"ce4bgrp2rcd13ifvqc9g","pricing_plan_id":"cebpf4jnsgd1na2vs0mg"},{"bike_id":"23cbb8c6-032e-4c12-bd5c-f753c88faae9","system_id":"levelo_inurba_marseille","lat":43.30931,"lon":5.40156,"is_reserved":false,"is_disabled":false,"rental_uris":{"android":"levelo://app?vid=23cbb8c6-032e-4c12-bd5c-f753c88faae9","ios":"levelo://app?vid=23cbb8c6-032e-4c12-bd5c-f753c88faae9"},"vehicle_type_id":"4","last_reported":1740164821,"current_range_meters":10000,"station_id":"ce4bgvp2rcd13ifvqct0","pricing_plan_id":"cebpf4jnsgd1na2vs0mg"},{"bike_id":"78ada5a0-495b-4465-834f-56f42c7cb425","system_id":"levelo_inurba_marseille","lat":43.2905,"lon":5.35905,"is_reserved":false,"is_disabled":false,"rental_uris":{"android":"levelo://app?vid=78ada5a0-495b-4465-834f-56f42c7cb425","ios":"levelo://app?vid=78ada5a0-495b-4465-834f-56f42c7cb425"},"vehicle_type_id":"4","last_reported":1740164821,"current_range_meters":10000,"station_id":"ce4bha92rcd13ifvqeg0","pricing_plan_id":"cebpf4jnsgd1na2vs0mg"},{"bike_id":"ff72b3d6-f08b-4cec-82b6-3f5bf8bd662b","system_id":"levelo_inurba_marseille","lat":43.28151,"lon":5.42642,"is_reserved":false,"is_disabled":false,"rental_uris":{"android":"levelo://app?vid=ff72b3d6-f08b-4cec-82b6-3f5bf8bd662b","ios":"levelo://app?vid=ff72b3d6-f08b-4cec-82b6-3f5bf8bd662b"},"vehicle_type_id":"4","last_reported":1740164821,"current_range_meters":10000,"station_id":"ce4bhnh2rcd13ifvqgug","pricing_plan_id":"cebpf4jnsgd1na2vs0mg"},{"bike_id":"0f2fd252-c713-4368-9150-36539d0792ad","system_id":"levelo_inurba_marseille","lat":43.28844,"lon":5.39338,"is_reserved":false,"is_disabled":false,"rental_uris":{"android":"levelo://app?vid=0f2fd252-c713-4368-9150-36539d0792ad","ios":"levelo://app?vid=0f2fd252-c713-4368-9150-36539d0792ad"},"vehicle_type_id":"4","last_reported":1740164821,"current_range_meters":10000,"station_id":"ce4bh2p2rcd13ifvqdi0","pricing_plan_id":"cebpf4jnsgd1na2vs0mg"},{"bike_id":"36aa7686-e3a7-4f06-8ff7-ba43dcfeb7d0","system_id":"levelo_inurba_marseille","lat":43.2869,"lon":5.37404,"is_reserved":false,"is_disabled":false,"rental_uris":{"android":"levelo://app?vid=36aa7686-e3a7-4f06-8ff7-ba43dcfeb7d0","ios":"levelo://app?vid=36aa7686-e3a7-4f06-8ff7-ba43dcfeb7d0"},"vehicle_type_id":"4","last_reported":1740164821,"current_range_meters":10000,"station_id":"ce4bh3p2rcd13ifvqdq0","pricing_plan_id":"cebpf4jnsgd1na2vs0mg"},{"bike_id":"53b97ee1-c4a2-4bbc-9702-d2b3a813e357","system_id":"levelo_inurba_marseille","lat":43.30138,"lon":5.38795,"is_reserved":false,"is_disabled":false,"rental_uris":{"android":"levelo://app?vid=53b97ee1-c4a2-4bbc-9702-d2b3a813e357","ios":"levelo://app?vid=53b97ee1-c4a2-4bbc-9702-d2b3a813e357"},"vehicle_type_id":"4","last_reported":1740164821,"current_range_meters":10000,"station_id":"ce4bghh2rcd13ifvqb60","pricing_plan_id":"cebpf4jnsgd1na2vs0mg"},{"bike_id":"d414c500-f227-4efb-aabd-f7246cca81bc","system_id":"levelo_inurba_marseille","lat":43.2305,"lon":5.35472,"is_reserved":false,"is_disabled":false,"rental_uris":{"android":"levelo://app?vid=d414c500-f227-4efb-aabd-f7246cca81bc","ios":"levelo://app?vid=d414c500-f227-4efb-aabd-f7246cca81bc"},"vehicle_type_id":"4","last_reported":1740164821,"current_range_meters":10000,"station_id":"cpo3342slgdg3j2ifvpg","pricing_plan_id":"cebpf4jnsgd1na2vs0mg"},{"bike_id":"52a28d82-fcb0-4b47-873c-493e116ce8e7","system_id":"levelo_inurba_marseille","lat":43.28846,"lon":5.35856,"is_reserved":false,"is_disabled":false,"rental_uris":{"android":"levelo://app?vid=52a28d82-fcb0-4b47-873c-493e116ce8e7","ios":"levelo://app?vid=52a28d82-fcb0-4b47-873c-493e116ce8e7"},"vehicle_type_id":"4","last_reported":1740164821,"current_range_meters":10000,"station_id":"ce4bhb12rcd13ifvqem0","pricing_plan_id":"cebpf4jnsgd1na2vs0mg"},{"bike_id":"12517b09-e056-425c-95fc-8e6ffba53bc2","system_id":"levelo_inurba_marseille","lat":43.27838,"lon":5.39197,"is_reserved":false,"is_disabled":false,"rental_uris":{"android":"levelo://app?vid=12517b09-e056-425c-95fc-8e6ffba53bc2","ios":"levelo://app?vid=12517b09-e056-425c-95fc-8e6ffba53bc2"},"vehicle_type_id":"4","last_reported":1740164821,"current_range_meters":10000,"station_id":"ce4bhjp2rcd13ifvqga0","pricing_plan_id":"cebpf4jnsgd1na2vs0mg"},{"bike_id":"2e497b6f-a3fb-47b1-a227-317a819a4aa6","system_id":"levelo_inurba_marseille","lat":43.31671,"lon":5.3778,"is_reserved":false,"is_disabled":false,"rental_uris":{"android":"levelo://app?vid=2e497b6f-a3fb-47b1-a227-317a819a4aa6","ios":"levelo://app?vid=2e497b6f-a3fb-47b1-a227-317a819a4aa6"},"vehicle_type_id":"4","last_reported":1740164821,"current_range_meters":10000,"station_id":"ce4bgth2rcd13ifvqch0","pricing_plan_id":"cebpf4jnsgd1na2vs0mg"},{"bike_id":"555b4cf1-5dac-418a-8e49-fa9cdfd8f028","system_id":"levelo_inurba_marseille","lat":43.28942,"lon":5.36637,"is_reserved":false,"is_disabled":false,"rental_uris":{"android":"levelo://app?vid=555b4cf1-5dac-418a-8e49-fa9cdfd8f028","ios":"levelo://app?vid=555b4cf1-5dac-418a-8e49-fa9cdfd8f028"},"vehicle_type_id":"4","last_reported":1740164821,"current_range_meters":9600,"station_id":"ce4bhap2rcd13ifvqek0","pricing_plan_id":"cebpf4jnsgd1na2vs0mg"},{"bike_id":"f3feea2e-5bf7-41f6-a6d2-c494ec11d6a2","system_id":"levelo_inurba_marseille","lat":43.230658,"lon":5.354909,"is_reserved":false,"is_disabled":false,"rental_uris":{"android":"levelo://app?vid=f3feea2e-5bf7-41f6-a6d2-c494ec11d6a2","ios":"levelo://app?vid=f3feea2e-5bf7-41f6-a6d2-c494ec11d6a2"},"vehicle_type_id":"4","last_reported":1740164821,"current_range_meters":10000,"station_id":"cpo3342slgdg3j2ifvpg","pricing_plan_id":"cebpf4jnsgd1na2vs0mg"},{"bike_id":"84c075d3-179e-4f3d-8887-25bb9583ca9b","system_id":"levelo_inurba_marseille","lat":43.29414,"lon":5.38626,"is_reserved":false,"is_disabled":false,"rental_uris":{"android":"levelo://app?vid=84c075d3-179e-4f3d-8887-25bb9583ca9b","ios":"levelo://app?vid=84c075d3-179e-4f3d-8887-25bb9583ca9b"},"vehicle_type_id":"4","last_reported":1740164821,"current_range_meters":10800,"station_id":"ce4bh2h2rcd13ifvqdh0","pricing_plan_id":"cebpf4jnsgd1na2vs0mg"},{"bike_id":"943382b3-3ac2-40b7-baae-7ca1aec3b930","system_id":"levelo_inurba_marseille","lat":43.28151,"lon":5.42654,"is_reserved":false,"is_disabled":false,"rental_uris":{"android":"levelo://app?vid=943382b3-3ac2-40b7-baae-7ca1aec3b930","ios":"levelo://app?vid=943382b3-3ac2-40b7-baae-7ca1aec3b930"},"vehicle_type_id":"4","last_reported":1740164821,"current_range_meters":10800,"station_id":"ce4bhnh2rcd13ifvqgug","pricing_plan_id":"cebpf4jnsgd1na2vs0mg"},{"bike_id":"8198dc47-ae3a-498b-82d2-dc151349a0c0","system_id":"levelo_inurba_marseille","lat":43.27995,"lon":5.40017,"is_reserved":false,"is_disabled":false,"rental_uris":{"android":"levelo://app?vid=8198dc47-ae3a-498b-82d2-dc151349a0c0","ios":"levelo://app?vid=8198dc47-ae3a-498b-82d2-dc151349a0c0"},"vehicle_type_id":"4","last_reported":1740164821,"current_range_meters":11200,"station_id":"ce4bho92rcd13ifvqh4g","pricing_plan_id":"cebpf4jnsgd1na2vs0mg"},{"bike_id":"62b11dbd-9d62-4b23-8886-677f6ae1da49","system_id":"levelo_inurba_marseille","lat":43.250641,"lon":5.375441,"is_reserved":false,"is_disabled":false,"rental_uris":{"android":"levelo://app?vid=62b11dbd-9d62-4b23-8886-677f6ae1da49","ios":"levelo://app?vid=62b11dbd-9d62-4b23-8886-677f6ae1da49"},"vehicle_type_id":"4","last_reported":1740164821,"current_range_meters":11200,"station_id":"ce4bh512rcd13ifvqe3g","pricing_plan_id":"cebpf4jnsgd1na2vs0mg"},{"bike_id":"cf955375-6efc-4c58-b72f-488429c9e00a","system_id":"levelo_inurba_marseille","lat":43.29419,"lon":5.38622,"is_reserved":false,"is_disabled":false,"rental_uris":{"android":"levelo://app?vid=cf955375-6efc-4c58-b72f-488429c9e00a","ios":"levelo://app?vid=cf955375-6efc-4c58-b72f-488429c9e00a"},"vehicle_type_id":"4","last_reported":1740164821,"current_range_meters":11200,"station_id":"ce4bh2h2rcd13ifvqdh0","pricing_plan_id":"cebpf4jnsgd1na2vs0mg"},{"bike_id":"f6026d7c-3117-46cd-931d-5629ce431db5","system_id":"levelo_inurba_marseille","lat":43.2695,"lon":5.38634,"is_reserved":false,"is_disabled":false,"rental_uris":{"android":"levelo://app?vid=f6026d7c-3117-46cd-931d-5629ce431db5","ios":"levelo://app?vid=f6026d7c-3117-46cd-931d-5629ce431db5"},"vehicle_type_id":"4","last_reported":1740164821,"current_range_meters":11200,"station_id":"ce4bhh92rcd13ifvqfh0","pricing_plan_id":"cebpf4jnsgd1na2vs0mg"},{"bike_id":"7a811fd9-b132-4914-a795-bbd931482c71","system_id":"levelo_inurba_marseille","lat":43.29526,"lon":5.38549,"is_reserved":false,"is_disabled":true,"rental_uris":{"android":"levelo://app?vid=7a811fd9-b132-4914-a795-bbd931482c71","ios":"levelo://app?vid=7a811fd9-b132-4914-a795-bbd931482c71"},"vehicle_type_id":"4","last_reported":1740164821,"current_range_meters":11600,"station_id":"ce4bgih2rcd13ifvqba0","pricing_plan_id":"cebpf4jnsgd1na2vs0mg"},{"bike_id":"3ef70969-bfb5-416f-a0b5-1cde7bf9c9de","system_id":"levelo_inurba_marseille","lat":43.25076,"lon":5.39484,"is_reserved":false,"is_disabled":false,"rental_uris":{"android":"levelo://app?vid=3ef70969-bfb5-416f-a0b5-1cde7bf9c9de","ios":"levelo://app?vid=3ef70969-bfb5-416f-a0b5-1cde7bf9c9de"},"vehicle_type_id":"4","last_reported":1740164821,"current_range_meters":11600,"station_id":"ce4bhm12rcd13ifvqgkg","pricing_plan_id":"cebpf4jnsgd1na2vs0mg"},{"bike_id":"fbdb5bd4-d8df-4cf1-88b9-88590ac3fee1","system_id":"levelo_inurba_marseille","lat":43.2481,"lon":5.37446,"is_reserved":false,"is_disabled":false,"rental_uris":{"android":"levelo://app?vid=fbdb5bd4-d8df-4cf1-88b9-88590ac3fee1","ios":"levelo://app?vid=fbdb5bd4-d8df-4cf1-88b9-88590ac3fee1"},"vehicle_type_id":"4","last_reported":1740164821,"current_range_meters":11600,"station_id":"ce4bhgh2rcd13ifvqfb0","pricing_plan_id":"cebpf4jnsgd1na2vs0mg"},{"bike_id":"5348d5dc-5dca-4978-b167-cd7e8ce45433","system_id":"levelo_inurba_marseille","lat":43.30559,"lon":5.36516,"is_reserved":false,"is_disabled":true,"rental_uris":{"android":"levelo://app?vid=5348d5dc-5dca-4978-b167-cd7e8ce45433","ios":"levelo://app?vid=5348d5dc-5dca-4978-b167-cd7e8ce45433"},"vehicle_type_id":"4","last_reported":1740164821,"current_range_meters":11600,"station_id":"ce4bgs12rcd13ifvqcag","pricing_plan_id":"cebpf4jnsgd1na2vs0mg"},{"bike_id":"2afb22c7-7048-4615-a3b7-71b0be04e579","system_id":"levelo_inurba_marseille","lat":43.23184,"lon":5.3557,"is_reserved":false,"is_disabled":false,"rental_uris":{"android":"levelo://app?vid=2afb22c7-7048-4615-a3b7-71b0be04e579","ios":"levelo://app?vid=2afb22c7-7048-4615-a3b7-71b0be04e579"},"vehicle_type_id":"4","last_reported":1740164821,"current_range_meters":11600,"station_id":"","pricing_plan_id":"cebpf4jnsgd1na2vs0mg"},{"bike_id":"ab1a6583-633d-405d-bd4a-1fdedc00f747","system_id":"levelo_inurba_marseille","lat":43.33023,"lon":5.39038,"is_reserved":false,"is_disabled":false,"rental_uris":{"android":"levelo://app?vid=ab1a6583-633d-405d-bd4a-1fdedc00f747","ios":"levelo://app?vid=ab1a6583-633d-405d-bd4a-1fdedc00f747"},"vehicle_type_id":"4","last_reported":1740164821,"current_range_meters":12000,"station_id":"ce4bhr92rcd13ifvqhrg","pricing_plan_id":"cebpf4jnsgd1na2vs0mg"},{"bike_id":"699594a6-5e86-4084-9c66-74dc431a8fb3","system_id":"levelo_inurba_marseille","lat":43.30886,"lon":5.39647,"is_reserved":false,"is_disabled":false,"rental_uris":{"android":"levelo://app?vid=699594a6-5e86-4084-9c66-74dc431a8fb3","ios":"levelo://app?vid=699594a6-5e86-4084-9c66-74dc431a8fb3"},"vehicle_type_id":"4","last_reported":1740164821,"current_range_meters":12400,"station_id":"ce4bh012rcd13ifvqcv0","pricing_plan_id":"cebpf4jnsgd1na2vs0mg"},{"bike_id":"417001bc-e8ee-4b24-9108-f07a293bf8c3","system_id":"levelo_inurba_marseille","lat":43.29721,"lon":5.37707,"is_reserved":false,"is_disabled":true,"rental_uris":{"android":"levelo://app?vid=417001bc-e8ee-4b24-9108-f07a293bf8c3","ios":"levelo://app?vid=417001bc-e8ee-4b24-9108-f07a293bf8c3"},"vehicle_type_id":"4","last_reported":1740164821,"current_range_meters":12400,"station_id":"ce4bgkh2rcd13ifvqbl0","pricing_plan_id":"cebpf4jnsgd1na2vs0mg"},{"bike_id":"d908c46d-9c38-4618-8fdc-472fec55e19c","system_id":"levelo_inurba_marseille","lat":43.303,"lon":5.36891,"is_reserved":false,"is_disabled":false,"rental_uris":{"android":"levelo://app?vid=d908c46d-9c38-4618-8fdc-472fec55e19c","ios":"levelo://app?vid=d908c46d-9c38-4618-8fdc-472fec55e19c"},"vehicle_type_id":"4","last_reported":1740164821,"current_range_meters":12400,"station_id":"ce4bgqh2rcd13ifvqc5g","pricing_plan_id":"cebpf4jnsgd1na2vs0mg"},{"bike_id":"594ceabb-be88-4e84-828d-fef93d76fdfc","system_id":"levelo_inurba_marseille","lat":43.30309,"lon":5.36896,"is_reserved":false,"is_disabled":false,"rental_uris":{"android":"levelo://app?vid=594ceabb-be88-4e84-828d-fef93d76fdfc","ios":"levelo://app?vid=594ceabb-be88-4e84-828d-fef93d76fdfc"},"vehicle_type_id":"4","last_reported":1740164821,"current_range_meters":12400,"station_id":"ce4bgqh2rcd13ifvqc5g","pricing_plan_id":"cebpf4jnsgd1na2vs0mg"},{"bike_id":"b38fb230-3a3d-40f0-83f8-884ac1e0c645","system_id":"levelo_inurba_marseille","lat":43.29542,"lon":5.39023,"is_reserved":false,"is_disabled":false,"rental_uris":{"android":"levelo://app?vid=b38fb230-3a3d-40f0-83f8-884ac1e0c645","ios":"levelo://app?vid=b38fb230-3a3d-40f0-83f8-884ac1e0c645"},"vehicle_type_id":"4","last_reported":1740164821,"current_range_meters":12400,"station_id":"ce4bh3p2rcd13ifvqdp0","pricing_plan_id":"cebpf4jnsgd1na2vs0mg"},{"bike_id":"b148a809-0ec9-410c-89c1-b17610a0796c","system_id":"levelo_inurba_marseille","lat":43.26495,"lon":5.39537,"is_reserved":false,"is_disabled":false,"rental_uris":{"android":"levelo://app?vid=b148a809-0ec9-410c-89c1-b17610a0796c","ios":"levelo://app?vid=b148a809-0ec9-410c-89c1-b17610a0796c"},"vehicle_type_id":"4","last_reported":1740164821,"current_range_meters":12400,"station_id":"ce4bhi12rcd13ifvqfq0","pricing_plan_id":"cebpf4jnsgd1na2vs0mg"},{"bike_id":"0bd68673-1302-4cc7-9519-de0e3b64f8b2","system_id":"levelo_inurba_marseille","lat":43.28842,"lon":5.39335,"is_reserved":false,"is_disabled":false,"rental_uris":{"android":"levelo://app?vid=0bd68673-1302-4cc7-9519-de0e3b64f8b2","ios":"levelo://app?vid=0bd68673-1302-4cc7-9519-de0e3b64f8b2"},"vehicle_type_id":"4","last_reported":1740164821,"current_range_meters":12400,"station_id":"ce4bh2p2rcd13ifvqdi0","pricing_plan_id":"cebpf4jnsgd1na2vs0mg"},{"bike_id":"422c9c6a-dd4c-42f0-b344-7d74d1211939","system_id":"levelo_inurba_marseille","lat":43.258247,"lon":5.39441,"is_reserved":false,"is_disabled":false,"rental_uris":{"android":"levelo://app?vid=422c9c6a-dd4c-42f0-b344-7d74d1211939","ios":"levelo://app?vid=422c9c6a-dd4c-42f0-b344-7d74d1211939"},"vehicle_type_id":"4","last_reported":1740164821,"current_range_meters":12400,"station_id":"ce4bhip2rcd13ifvqft0","pricing_plan_id":"cebpf4jnsgd1na2vs0mg"},{"bike_id":"51e44677-feac-4e84-b1b4-624259e1a6a6","system_id":"levelo_inurba_marseille","lat":43.2893,"lon":5.38383,"is_reserved":false,"is_disabled":false,"rental_uris":{"android":"levelo://app?vid=51e44677-feac-4e84-b1b4-624259e1a6a6","ios":"levelo://app?vid=51e44677-feac-4e84-b1b4-624259e1a6a6"},"vehicle_type_id":"4","last_reported":1740164821,"current_range_meters":12400,"station_id":"ce4bh612rcd13ifvqe6g","pricing_plan_id":"cebpf4jnsgd1na2vs0mg"},{"bike_id":"3c8aac07-80ad-4986-a150-17fd9f678e45","system_id":"levelo_inurba_marseille","lat":43.2418,"lon":5.39731,"is_reserved":false,"is_disabled":false,"rental_uris":{"android":"levelo://app?vid=3c8aac07-80ad-4986-a150-17fd9f678e45","ios":"levelo://app?vid=3c8aac07-80ad-4986-a150-17fd9f678e45"},"vehicle_type_id":"4","last_reported":1740164821,"current_range_meters":12400,"station_id":"ce4bhn12rcd13ifvqgpg","pricing_plan_id":"cebpf4jnsgd1na2vs0mg"},{"bike_id":"e501be99-a171-4e91-9e5b-ac547e4c06f2","system_id":"levelo_inurba_marseille","lat":43.23198,"lon":5.35551,"is_reserved":false,"is_disabled":false,"rental_uris":{"android":"levelo://app?vid=e501be99-a171-4e91-9e5b-ac547e4c06f2","ios":"levelo://app?vid=e501be99-a171-4e91-9e5b-ac547e4c06f2"},"vehicle_type_id":"4","last_reported":1740164821,"current_range_meters":12400,"station_id":"ce4bhu92rcd13ifvqi70","pricing_plan_id":"cebpf4jnsgd1na2vs0mg"},{"bike_id":"4668300d-2783-4785-9860-f7aa2cf6af65","system_id":"levelo_inurba_marseille","lat":43.29599,"lon":5.38091,"is_reserved":false,"is_disabled":false,"rental_uris":{"android":"levelo://app?vid=4668300d-2783-4785-9860-f7aa2cf6af65","ios":"levelo://app?vid=4668300d-2783-4785-9860-f7aa2cf6af65"},"vehicle_type_id":"4","last_reported":1740164821,"current_range_meters":12400,"station_id":"ce4bgl12rcd13ifvqbo0","pricing_plan_id":"cebpf4jnsgd1na2vs0mg"},{"bike_id":"a83cc5a6-bfb2-46a0-9d3d-01202179361b","system_id":"levelo_inurba_marseille","lat":43.28939,"lon":5.36385,"is_reserved":false,"is_disabled":false,"rental_uris":{"android":"levelo://app?vid=a83cc5a6-bfb2-46a0-9d3d-01202179361b","ios":"levelo://app?vid=a83cc5a6-bfb2-46a0-9d3d-01202179361b"},"vehicle_type_id":"4","last_reported":1740164821,"current_range_meters":12800,"station_id":"ce4bhc92rcd13ifvqetg","pricing_plan_id":"cebpf4jnsgd1na2vs0mg"},{"bike_id":"ed82fb5d-90ce-4428-bd14-b9a920cf65c5","system_id":"levelo_inurba_marseille","lat":43.26195,"lon":5.37445,"is_reserved":false,"is_disabled":false,"rental_uris":{"android":"levelo://app?vid=ed82fb5d-90ce-4428-bd14-b9a920cf65c5","ios":"levelo://app?vid=ed82fb5d-90ce-4428-bd14-b9a920cf65c5"},"vehicle_type_id":"4","last_reported":1740164821,"current_range_meters":12800,"station_id":"ce4bhgp2rcd13ifvqfc0","pricing_plan_id":"cebpf4jnsgd1na2vs0mg"},{"bike_id":"d93b56e8-81a2-4df1-b772-ccfe1aba8adb","system_id":"levelo_inurba_marseille","lat":43.29455,"lon":5.39071,"is_reserved":false,"is_disabled":false,"rental_uris":{"android":"levelo://app?vid=d93b56e8-81a2-4df1-b772-ccfe1aba8adb","ios":"levelo://app?vid=d93b56e8-81a2-4df1-b772-ccfe1aba8adb"},"vehicle_type_id":"4","last_reported":1740164821,"current_range_meters":12800,"station_id":"","pricing_plan_id":"cebpf4jnsgd1na2vs0mg"},{"bike_id":"7c8f3d05-5401-4545-847e-9fcee9ea83d5","system_id":"levelo_inurba_marseille","lat":43.26585,"lon":5.39873,"is_reserved":false,"is_disabled":false,"rental_uris":{"android":"levelo://app?vid=7c8f3d05-5401-4545-847e-9fcee9ea83d5","ios":"levelo://app?vid=7c8f3d05-5401-4545-847e-9fcee9ea83d5"},"vehicle_type_id":"4","last_reported":1740164821,"current_range_meters":12800,"station_id":"","pricing_plan_id":"cebpf4jnsgd1na2vs0mg"},{"bike_id":"a404738f-d592-4923-bb7f-8cad6bf8fec4","system_id":"levelo_inurba_marseille","lat":43.27949,"lon":5.38495,"is_reserved":false,"is_disabled":false,"rental_uris":{"android":"levelo://app?vid=a404738f-d592-4923-bb7f-8cad6bf8fec4","ios":"levelo://app?vid=a404738f-d592-4923-bb7f-8cad6bf8fec4"},"vehicle_type_id":"4","last_reported":1740164821,"current_range_meters":12800,"station_id":"","pricing_plan_id":"cebpf4jnsgd1na2vs0mg"},{"bike_id":"6c2ab6e6-2d04-4225-b04d-1f709ec68055","system_id":"levelo_inurba_marseille","lat":43.22936,"lon":5.35372,"is_reserved":false,"is_disabled":false,"rental_uris":{"android":"levelo://app?vid=6c2ab6e6-2d04-4225-b04d-1f709ec68055","ios":"levelo://app?vid=6c2ab6e6-2d04-4225-b04d-1f709ec68055"},"vehicle_type_id":"4","last_reported":1740164821,"current_range_meters":12800,"station_id":"cpo3532slgdg3j2ikp40","pricing_plan_id":"cebpf4jnsgd1na2vs0mg"},{"bike_id":"54b45f3b-f685-44dd-8b79-1a758bf759d2","system_id":"levelo_inurba_marseille","lat":43.337444,"lon":5.374475,"is_reserved":false,"is_disabled":true,"rental_uris":{"android":"levelo://app?vid=54b45f3b-f685-44dd-8b79-1a758bf759d2","ios":"levelo://app?vid=54b45f3b-f685-44dd-8b79-1a758bf759d2"},"vehicle_type_id":"4","last_reported":1740164821,"current_range_meters":12800,"station_id":"","pricing_plan_id":"cebpf4jnsgd1na2vs0mg"},{"bike_id":"96cdc694-1c9c-4cda-b45c-2b04682fafe2","system_id":"levelo_inurba_marseille","lat":43.29387,"lon":5.38571,"is_reserved":false,"is_disabled":false,"rental_uris":{"android":"levelo://app?vid=96cdc694-1c9c-4cda-b45c-2b04682fafe2","ios":"levelo://app?vid=96cdc694-1c9c-4cda-b45c-2b04682fafe2"},"vehicle_type_id":"4","last_reported":1740164821,"current_range_meters":12800,"station_id":"ce4bh2h2rcd13ifvqdh0","pricing_plan_id":"cebpf4jnsgd1na2vs0mg"},{"bike_id":"78ccc1b5-e05d-4c30-bc5b-473f9d97e2cd","system_id":"levelo_inurba_marseille","lat":43.3013,"lon":5.3781,"is_reserved":false,"is_disabled":false,"rental_uris":{"android":"levelo://app?vid=78ccc1b5-e05d-4c30-bc5b-473f9d97e2cd","ios":"levelo://app?vid=78ccc1b5-e05d-4c30-bc5b-473f9d97e2cd"},"vehicle_type_id":"4","last_reported":1740164821,"current_range_meters":13600,"station_id":"","pricing_plan_id":"cebpf4jnsgd1na2vs0mg"},{"bike_id":"3372843d-d9b8-48e7-a75e-62d9bb27ba4f","system_id":"levelo_inurba_marseille","lat":43.27921,"lon":5.39587,"is_reserved":false,"is_disabled":false,"rental_uris":{"android":"levelo://app?vid=3372843d-d9b8-48e7-a75e-62d9bb27ba4f","ios":"levelo://app?vid=3372843d-d9b8-48e7-a75e-62d9bb27ba4f"},"vehicle_type_id":"4","last_reported":1740164821,"current_range_meters":13600,"station_id":"ce4bhf92rcd13ifvqf40","pricing_plan_id":"cebpf4jnsgd1na2vs0mg"},{"bike_id":"a6c45017-e937-4e9d-9e1b-53522ae521f4","system_id":"levelo_inurba_marseille","lat":43.30598,"lon":5.37212,"is_reserved":false,"is_disabled":false,"rental_uris":{"android":"levelo://app?vid=a6c45017-e937-4e9d-9e1b-53522ae521f4","ios":"levelo://app?vid=a6c45017-e937-4e9d-9e1b-53522ae521f4"},"vehicle_type_id":"4","last_reported":1740164821,"current_range_meters":13600,"station_id":"ce4bgqh2rcd13ifvqc4g","pricing_plan_id":"cebpf4jnsgd1na2vs0mg"},{"bike_id":"efd9f2f1-7b10-4189-aa91-1f4ab21cf36a","system_id":"levelo_inurba_marseille","lat":43.2417,"lon":5.39737,"is_reserved":false,"is_disabled":false,"rental_uris":{"android":"levelo://app?vid=efd9f2f1-7b10-4189-aa91-1f4ab21cf36a","ios":"levelo://app?vid=efd9f2f1-7b10-4189-aa91-1f4ab21cf36a"},"vehicle_type_id":"4","last_reported":1740164821,"current_range_meters":13600,"station_id":"ce4bhn12rcd13ifvqgpg","pricing_plan_id":"cebpf4jnsgd1na2vs0mg"},{"bike_id":"20c03868-5bd2-4011-baaf-a537d64ad403","system_id":"levelo_inurba_marseille","lat":43.29333,"lon":5.38537,"is_reserved":false,"is_disabled":false,"rental_uris":{"android":"levelo://app?vid=20c03868-5bd2-4011-baaf-a537d64ad403","ios":"levelo://app?vid=20c03868-5bd2-4011-baaf-a537d64ad403"},"vehicle_type_id":"4","last_reported":1740164821,"current_range_meters":13600,"station_id":"ce4bh692rcd13ifvqea0","pricing_plan_id":"cebpf4jnsgd1na2vs0mg"},{"bike_id":"31d0d669-dda8-4b16-b753-834b065be4af","system_id":"levelo_inurba_marseille","lat":43.30298,"lon":5.36886,"is_reserved":false,"is_disabled":false,"rental_uris":{"android":"levelo://app?vid=31d0d669-dda8-4b16-b753-834b065be4af","ios":"levelo://app?vid=31d0d669-dda8-4b16-b753-834b065be4af"},"vehicle_type_id":"4","last_reported":1740164821,"current_range_meters":13600,"station_id":"ce4bgqh2rcd13ifvqc5g","pricing_plan_id":"cebpf4jnsgd1na2vs0mg"},{"bike_id":"6edc2c22-6d0d-4591-bdda-b3841ed921a5","system_id":"levelo_inurba_marseille","lat":43.24387,"lon":5.37049,"is_reserved":false,"is_disabled":false,"rental_uris":{"android":"levelo://app?vid=6edc2c22-6d0d-4591-bdda-b3841ed921a5","ios":"levelo://app?vid=6edc2c22-6d0d-4591-bdda-b3841ed921a5"},"vehicle_type_id":"4","last_reported":1740164821,"current_range_meters":12800,"station_id":"ce4bhhh2rcd13ifvqfk0","pricing_plan_id":"cebpf4jnsgd1na2vs0mg"},{"bike_id":"b985ad1f-1942-453b-b5eb-7462cafd1e31","system_id":"levelo_inurba_marseille","lat":43.23182,"lon":5.3556,"is_reserved":false,"is_disabled":false,"rental_uris":{"android":"levelo://app?vid=b985ad1f-1942-453b-b5eb-7462cafd1e31","ios":"levelo://app?vid=b985ad1f-1942-453b-b5eb-7462cafd1e31"},"vehicle_type_id":"4","last_reported":1740164821,"current_range_meters":13600,"station_id":"ce4bhu92rcd13ifvqi70","pricing_plan_id":"cebpf4jnsgd1na2vs0mg"},{"bike_id":"c88a28e7-77d6-44e0-a79d-8f6ca388d896","system_id":"levelo_inurba_marseille","lat":43.29265,"lon":5.38443,"is_reserved":false,"is_disabled":false,"rental_uris":{"android":"levelo://app?vid=c88a28e7-77d6-44e0-a79d-8f6ca388d896","ios":"levelo://app?vid=c88a28e7-77d6-44e0-a79d-8f6ca388d896"},"vehicle_type_id":"4","last_reported":1740164821,"current_range_meters":14000,"station_id":"ce4bh692rcd13ifvqea0","pricing_plan_id":"cebpf4jnsgd1na2vs0mg"},{"bike_id":"ad675d28-1269-4fc9-809d-07eb510922ee","system_id":"levelo_inurba_marseille","lat":43.29535,"lon":5.38543,"is_reserved":false,"is_disabled":false,"rental_uris":{"android":"levelo://app?vid=ad675d28-1269-4fc9-809d-07eb510922ee","ios":"levelo://app?vid=ad675d28-1269-4fc9-809d-07eb510922ee"},"vehicle_type_id":"4","last_reported":1740164821,"current_range_meters":14000,"station_id":"ce4bgih2rcd13ifvqba0","pricing_plan_id":"cebpf4jnsgd1na2vs0mg"},{"bike_id":"116a0bf3-0cf0-45ef-a91d-8a20056a58c4","system_id":"levelo_inurba_marseille","lat":43.29531,"lon":5.38549,"is_reserved":false,"is_disabled":false,"rental_uris":{"android":"levelo://app?vid=116a0bf3-0cf0-45ef-a91d-8a20056a58c4","ios":"levelo://app?vid=116a0bf3-0cf0-45ef-a91d-8a20056a58c4"},"vehicle_type_id":"4","last_reported":1740164821,"current_range_meters":14000,"station_id":"ce4bgih2rcd13ifvqba0","pricing_plan_id":"cebpf4jnsgd1na2vs0mg"},{"bike_id":"1b7ac129-ecd5-4ebe-ac49-f8a6cd5fd7db","system_id":"levelo_inurba_marseille","lat":43.25025,"lon":5.38935,"is_reserved":false,"is_disabled":false,"rental_uris":{"android":"levelo://app?vid=1b7ac129-ecd5-4ebe-ac49-f8a6cd5fd7db","ios":"levelo://app?vid=1b7ac129-ecd5-4ebe-ac49-f8a6cd5fd7db"},"vehicle_type_id":"4","last_reported":1740164821,"current_range_meters":14000,"station_id":"ce4bhgp2rcd13ifvqfd0","pricing_plan_id":"cebpf4jnsgd1na2vs0mg"},{"bike_id":"089b421a-1c36-49ca-a690-f002c1cadcb6","system_id":"levelo_inurba_marseille","lat":43.24165,"lon":5.36412,"is_reserved":false,"is_disabled":false,"rental_uris":{"android":"levelo://app?vid=089b421a-1c36-49ca-a690-f002c1cadcb6","ios":"levelo://app?vid=089b421a-1c36-49ca-a690-f002c1cadcb6"},"vehicle_type_id":"4","last_reported":1740164821,"current_range_meters":14000,"station_id":"cpo36qri1sfpv3e86is0","pricing_plan_id":"cebpf4jnsgd1na2vs0mg"},{"bike_id":"d4bb1bbe-a99c-4306-a2c1-9502ce4648a1","system_id":"levelo_inurba_marseille","lat":43.29597,"lon":5.38095,"is_reserved":false,"is_disabled":false,"rental_uris":{"android":"levelo://app?vid=d4bb1bbe-a99c-4306-a2c1-9502ce4648a1","ios":"levelo://app?vid=d4bb1bbe-a99c-4306-a2c1-9502ce4648a1"},"vehicle_type_id":"4","last_reported":1740164821,"current_range_meters":14000,"station_id":"ce4bgl12rcd13ifvqbo0","pricing_plan_id":"cebpf4jnsgd1na2vs0mg"},{"bike_id":"ee1cc897-3ec8-46b0-a480-e70604ef828b","system_id":"levelo_inurba_marseille","lat":43.26495,"lon":5.3954,"is_reserved":false,"is_disabled":false,"rental_uris":{"android":"levelo://app?vid=ee1cc897-3ec8-46b0-a480-e70604ef828b","ios":"levelo://app?vid=ee1cc897-3ec8-46b0-a480-e70604ef828b"},"vehicle_type_id":"4","last_reported":1740164821,"current_range_meters":13600,"station_id":"ce4bhi12rcd13ifvqfq0","pricing_plan_id":"cebpf4jnsgd1na2vs0mg"},{"bike_id":"06d8c8ef-791d-40de-8e1b-f55dcb9c7a0c","system_id":"levelo_inurba_marseille","lat":43.2737,"lon":5.36252,"is_reserved":false,"is_disabled":false,"rental_uris":{"android":"levelo://app?vid=06d8c8ef-791d-40de-8e1b-f55dcb9c7a0c","ios":"levelo://app?vid=06d8c8ef-791d-40de-8e1b-f55dcb9c7a0c"},"vehicle_type_id":"4","last_reported":1740164821,"current_range_meters":14000,"station_id":"ce4bhbh2rcd13ifvqeo0","pricing_plan_id":"cebpf4jnsgd1na2vs0mg"},{"bike_id":"2bd2e251-7232-4a39-8853-8cfa76cfaeff","system_id":"levelo_inurba_marseille","lat":43.32362,"lon":5.36755,"is_reserved":false,"is_disabled":false,"rental_uris":{"android":"levelo://app?vid=2bd2e251-7232-4a39-8853-8cfa76cfaeff","ios":"levelo://app?vid=2bd2e251-7232-4a39-8853-8cfa76cfaeff"},"vehicle_type_id":"4","last_reported":1740164821,"current_range_meters":14000,"station_id":"ce4bhsh2rcd13ifvqi2g","pricing_plan_id":"cebpf4jnsgd1na2vs0mg"},{"bike_id":"4bb50bdf-3657-43bd-bb8f-d9f5cb743369","system_id":"levelo_inurba_marseille","lat":43.269515,"lon":5.367067,"is_reserved":false,"is_disabled":false,"rental_uris":{"android":"levelo://app?vid=4bb50bdf-3657-43bd-bb8f-d9f5cb743369","ios":"levelo://app?vid=4bb50bdf-3657-43bd-bb8f-d9f5cb743369"},"vehicle_type_id":"4","last_reported":1740164821,"current_range_meters":14400,"station_id":"ce4bhgp2rcd13ifvqfc0","pricing_plan_id":"cebpf4jnsgd1na2vs0mg"},{"bike_id":"719268f3-b06a-41b8-a738-8a5ca3fe6c16","system_id":"levelo_inurba_marseille","lat":43.30099,"lon":5.39102,"is_reserved":false,"is_disabled":false,"rental_uris":{"android":"levelo://app?vid=719268f3-b06a-41b8-a738-8a5ca3fe6c16","ios":"levelo://app?vid=719268f3-b06a-41b8-a738-8a5ca3fe6c16"},"vehicle_type_id":"4","last_reported":1740164821,"current_range_meters":14400,"station_id":"ce4bh192rcd13ifvqdb0","pricing_plan_id":"cebpf4jnsgd1na2vs0mg"},{"bike_id":"8acef1c9-73ff-4674-add9-1b64ba9b9b77","system_id":"levelo_inurba_marseille","lat":43.31324,"lon":5.39689,"is_reserved":false,"is_disabled":false,"rental_uris":{"android":"levelo://app?vid=8acef1c9-73ff-4674-add9-1b64ba9b9b77","ios":"levelo://app?vid=8acef1c9-73ff-4674-add9-1b64ba9b9b77"},"vehicle_type_id":"4","last_reported":1740164821,"current_range_meters":14400,"station_id":"ce4bgvp2rcd13ifvqcu0","pricing_plan_id":"cebpf4jnsgd1na2vs0mg"},{"bike_id":"d312ce1d-aae9-4c62-a1e8-38c15d95735a","system_id":"levelo_inurba_marseille","lat":43.22937,"lon":5.35389,"is_reserved":false,"is_disabled":false,"rental_uris":{"android":"levelo://app?vid=d312ce1d-aae9-4c62-a1e8-38c15d95735a","ios":"levelo://app?vid=d312ce1d-aae9-4c62-a1e8-38c15d95735a"},"vehicle_type_id":"4","last_reported":1740164821,"current_range_meters":14800,"station_id":"cpo3532slgdg3j2ikp40","pricing_plan_id":"cebpf4jnsgd1na2vs0mg"},{"bike_id":"9fba7521-ae76-4d2f-a355-c0e49bf3d8c6","system_id":"levelo_inurba_marseille","lat":43.29519,"lon":5.39401,"is_reserved":false,"is_disabled":false,"rental_uris":{"android":"levelo://app?vid=9fba7521-ae76-4d2f-a355-c0e49bf3d8c6","ios":"levelo://app?vid=9fba7521-ae76-4d2f-a355-c0e49bf3d8c6"},"vehicle_type_id":"4","last_reported":1740164821,"current_range_meters":14800,"station_id":"ce4bh292rcd13ifvqdf0","pricing_plan_id":"cebpf4jnsgd1na2vs0mg"},{"bike_id":"35331f57-b06c-41f1-8224-4eb3668702eb","system_id":"levelo_inurba_marseille","lat":43.23049,"lon":5.355,"is_reserved":false,"is_disabled":false,"rental_uris":{"android":"levelo://app?vid=35331f57-b06c-41f1-8224-4eb3668702eb","ios":"levelo://app?vid=35331f57-b06c-41f1-8224-4eb3668702eb"},"vehicle_type_id":"4","last_reported":1740164821,"current_range_meters":14800,"station_id":"cpo3342slgdg3j2ifvpg","pricing_plan_id":"cebpf4jnsgd1na2vs0mg"},{"bike_id":"162e579c-75db-43f0-8416-81480bdf4758","system_id":"levelo_inurba_marseille","lat":43.309639,"lon":5.402073,"is_reserved":false,"is_disabled":false,"rental_uris":{"android":"levelo://app?vid=162e579c-75db-43f0-8416-81480bdf4758","ios":"levelo://app?vid=162e579c-75db-43f0-8416-81480bdf4758"},"vehicle_type_id":"4","last_reported":1740164821,"current_range_meters":15200,"station_id":"ce4bgvp2rcd13ifvqct0","pricing_plan_id":"cebpf4jnsgd1na2vs0mg"},{"bike_id":"5f8af92d-f19a-493a-9ee0-f265ff0b3ca5","system_id":"levelo_inurba_marseille","lat":43.28476,"lon":5.38416,"is_reserved":false,"is_disabled":false,"rental_uris":{"android":"levelo://app?vid=5f8af92d-f19a-493a-9ee0-f265ff0b3ca5","ios":"levelo://app?vid=5f8af92d-f19a-493a-9ee0-f265ff0b3ca5"},"vehicle_type_id":"4","last_reported":1740164821,"current_range_meters":15200,"station_id":"ce4bh512rcd13ifvqe3g","pricing_plan_id":"cebpf4jnsgd1na2vs0mg"},{"bike_id":"622ff567-a086-4c65-b861-971a2380aeef","system_id":"levelo_inurba_marseille","lat":43.26568,"lon":5.39008,"is_reserved":false,"is_disabled":false,"rental_uris":{"android":"levelo://app?vid=622ff567-a086-4c65-b861-971a2380aeef","ios":"levelo://app?vid=622ff567-a086-4c65-b861-971a2380aeef"},"vehicle_type_id":"4","last_reported":1740164821,"current_range_meters":15200,"station_id":"ce4bhe12rcd13ifvqf30","pricing_plan_id":"cebpf4jnsgd1na2vs0mg"},{"bike_id":"6ae6bafd-8b2c-47fe-a545-9d9de8a202dd","system_id":"levelo_inurba_marseille","lat":43.29866,"lon":5.39735,"is_reserved":false,"is_disabled":false,"rental_uris":{"android":"levelo://app?vid=6ae6bafd-8b2c-47fe-a545-9d9de8a202dd","ios":"levelo://app?vid=6ae6bafd-8b2c-47fe-a545-9d9de8a202dd"},"vehicle_type_id":"4","last_reported":1740164821,"current_range_meters":15200,"station_id":"ce4bh0h2rcd13ifvqd50","pricing_plan_id":"cebpf4jnsgd1na2vs0mg"},{"bike_id":"6b4fcdbb-2403-4441-965e-35208bfd825c","system_id":"levelo_inurba_marseille","lat":43.29416,"lon":5.38619,"is_reserved":false,"is_disabled":false,"rental_uris":{"android":"levelo://app?vid=6b4fcdbb-2403-4441-965e-35208bfd825c","ios":"levelo://app?vid=6b4fcdbb-2403-4441-965e-35208bfd825c"},"vehicle_type_id":"4","last_reported":1740164821,"current_range_meters":15200,"station_id":"ce4bh2h2rcd13ifvqdh0","pricing_plan_id":"cebpf4jnsgd1na2vs0mg"},{"bike_id":"69f6c7fb-e991-4330-95b2-a58173874fa5","system_id":"levelo_inurba_marseille","lat":43.27992,"lon":5.41661,"is_reserved":false,"is_disabled":false,"rental_uris":{"android":"levelo://app?vid=69f6c7fb-e991-4330-95b2-a58173874fa5","ios":"levelo://app?vid=69f6c7fb-e991-4330-95b2-a58173874fa5"},"vehicle_type_id":"4","last_reported":1740164821,"current_range_meters":16000,"station_id":"ce4bho12rcd13ifvqh1g","pricing_plan_id":"cebpf4jnsgd1na2vs0mg"},{"bike_id":"d77ea98d-3aac-4602-a4a3-955cbd6114a3","system_id":"levelo_inurba_marseille","lat":43.29421,"lon":5.3862,"is_reserved":false,"is_disabled":false,"rental_uris":{"android":"levelo://app?vid=d77ea98d-3aac-4602-a4a3-955cbd6114a3","ios":"levelo://app?vid=d77ea98d-3aac-4602-a4a3-955cbd6114a3"},"vehicle_type_id":"4","last_reported":1740164821,"current_range_meters":16000,"station_id":"ce4bh2h2rcd13ifvqdh0","pricing_plan_id":"cebpf4jnsgd1na2vs0mg"},{"bike_id":"2d3cef83-fd1d-4e81-80ba-36de4a9061f2","system_id":"levelo_inurba_marseille","lat":43.29541,"lon":5.38535,"is_reserved":false,"is_disabled":false,"rental_uris":{"android":"levelo://app?vid=2d3cef83-fd1d-4e81-80ba-36de4a9061f2","ios":"levelo://app?vid=2d3cef83-fd1d-4e81-80ba-36de4a9061f2"},"vehicle_type_id":"4","last_reported":1740164821,"current_range_meters":16000,"station_id":"ce4bgih2rcd13ifvqba0","pricing_plan_id":"cebpf4jnsgd1na2vs0mg"},{"bike_id":"961e5057-0e78-4860-bb2d-5a40f6b3e7aa","system_id":"levelo_inurba_marseille","lat":43.29416,"lon":5.38635,"is_reserved":false,"is_disabled":false,"rental_uris":{"android":"levelo://app?vid=961e5057-0e78-4860-bb2d-5a40f6b3e7aa","ios":"levelo://app?vid=961e5057-0e78-4860-bb2d-5a40f6b3e7aa"},"vehicle_type_id":"4","last_reported":1740164821,"current_range_meters":16000,"station_id":"ce4bh2h2rcd13ifvqdh0","pricing_plan_id":"cebpf4jnsgd1na2vs0mg"},{"bike_id":"035da111-010a-4a2d-ab5f-13d5a093c9e6","system_id":"levelo_inurba_marseille","lat":43.2954,"lon":5.38537,"is_reserved":false,"is_disabled":false,"rental_uris":{"android":"levelo://app?vid=035da111-010a-4a2d-ab5f-13d5a093c9e6","ios":"levelo://app?vid=035da111-010a-4a2d-ab5f-13d5a093c9e6"},"vehicle_type_id":"4","last_reported":1740164821,"current_range_meters":16000,"station_id":"ce4bgih2rcd13ifvqba0","pricing_plan_id":"cebpf4jnsgd1na2vs0mg"},{"bike_id":"130f9693-efc1-4544-ac5a-952bad4a139b","system_id":"levelo_inurba_marseille","lat":43.31714,"lon":5.43674,"is_reserved":false,"is_disabled":false,"rental_uris":{"android":"levelo://app?vid=130f9693-efc1-4544-ac5a-952bad4a139b","ios":"levelo://app?vid=130f9693-efc1-4544-ac5a-952bad4a139b"},"vehicle_type_id":"4","last_reported":1740164821,"current_range_meters":16000,"station_id":"ce4bhp92rcd13ifvqhcg","pricing_plan_id":"cebpf4jnsgd1na2vs0mg"},{"bike_id":"53e98235-3865-4b36-9a63-4c6f64ad761c","system_id":"levelo_inurba_marseille","lat":43.31756,"lon":5.39009,"is_reserved":false,"is_disabled":false,"rental_uris":{"android":"levelo://app?vid=53e98235-3865-4b36-9a63-4c6f64ad761c","ios":"levelo://app?vid=53e98235-3865-4b36-9a63-4c6f64ad761c"},"vehicle_type_id":"4","last_reported":1740164821,"current_range_meters":16000,"station_id":"ce4bhqp2rcd13ifvqhng","pricing_plan_id":"cebpf4jnsgd1na2vs0mg"},{"bike_id":"c84b679a-2aad-441e-9c6a-b7b2a3ca27d5","system_id":"levelo_inurba_marseille","lat":43.28848,"lon":5.39318,"is_reserved":false,"is_disabled":false,"rental_uris":{"android":"levelo://app?vid=c84b679a-2aad-441e-9c6a-b7b2a3ca27d5","ios":"levelo://app?vid=c84b679a-2aad-441e-9c6a-b7b2a3ca27d5"},"vehicle_type_id":"4","last_reported":1740164821,"current_range_meters":16000,"station_id":"ce4bh2p2rcd13ifvqdi0","pricing_plan_id":"cebpf4jnsgd1na2vs0mg"},{"bike_id":"fb40b058-b8da-4d8d-8620-f5820c02f729","system_id":"levelo_inurba_marseille","lat":43.29428,"lon":5.38605,"is_reserved":false,"is_disabled":false,"rental_uris":{"android":"levelo://app?vid=fb40b058-b8da-4d8d-8620-f5820c02f729","ios":"levelo://app?vid=fb40b058-b8da-4d8d-8620-f5820c02f729"},"vehicle_type_id":"4","last_reported":1740164821,"current_range_meters":16400,"station_id":"ce4bh2h2rcd13ifvqdh0","pricing_plan_id":"cebpf4jnsgd1na2vs0mg"},{"bike_id":"fe28d101-9308-4dd1-a12d-1ed12ca54da1","system_id":"levelo_inurba_marseille","lat":43.2953,"lon":5.39033,"is_reserved":false,"is_disabled":false,"rental_uris":{"android":"levelo://app?vid=fe28d101-9308-4dd1-a12d-1ed12ca54da1","ios":"levelo://app?vid=fe28d101-9308-4dd1-a12d-1ed12ca54da1"},"vehicle_type_id":"4","last_reported":1740164821,"current_range_meters":16400,"station_id":"ce4bh3p2rcd13ifvqdp0","pricing_plan_id":"cebpf4jnsgd1na2vs0mg"},{"bike_id":"3c36db4c-97d5-4134-a36a-ae78baf9a0f4","system_id":"levelo_inurba_marseille","lat":43.28273,"lon":5.35069,"is_reserved":false,"is_disabled":false,"rental_uris":{"android":"levelo://app?vid=3c36db4c-97d5-4134-a36a-ae78baf9a0f4","ios":"levelo://app?vid=3c36db4c-97d5-4134-a36a-ae78baf9a0f4"},"vehicle_type_id":"4","last_reported":1740164821,"current_range_meters":16400,"station_id":"ce4bhbp2rcd13ifvqerg","pricing_plan_id":"cebpf4jnsgd1na2vs0mg"},{"bike_id":"da34983c-3719-4316-a06a-e2c968129006","system_id":"levelo_inurba_marseille","lat":43.28707,"lon":5.3999,"is_reserved":false,"is_disabled":false,"rental_uris":{"android":"levelo://app?vid=da34983c-3719-4316-a06a-e2c968129006","ios":"levelo://app?vid=da34983c-3719-4316-a06a-e2c968129006"},"vehicle_type_id":"4","last_reported":1740164821,"current_range_meters":16400,"station_id":"ce4bho92rcd13ifvqh3g","pricing_plan_id":"cebpf4jnsgd1na2vs0mg"},{"bike_id":"202bca41-2a93-41cc-b36a-503a76150837","system_id":"levelo_inurba_marseille","lat":43.29601,"lon":5.38106,"is_reserved":false,"is_disabled":false,"rental_uris":{"android":"levelo://app?vid=202bca41-2a93-41cc-b36a-503a76150837","ios":"levelo://app?vid=202bca41-2a93-41cc-b36a-503a76150837"},"vehicle_type_id":"4","last_reported":1740164821,"current_range_meters":16800,"station_id":"ce4bgl12rcd13ifvqbo0","pricing_plan_id":"cebpf4jnsgd1na2vs0mg"},{"bike_id":"1951b280-e8ac-4fa5-a3ef-806580107c2a","system_id":"levelo_inurba_marseille","lat":43.281555,"lon":5.426398,"is_reserved":false,"is_disabled":false,"rental_uris":{"android":"levelo://app?vid=1951b280-e8ac-4fa5-a3ef-806580107c2a","ios":"levelo://app?vid=1951b280-e8ac-4fa5-a3ef-806580107c2a"},"vehicle_type_id":"4","last_reported":1740164821,"current_range_meters":16800,"station_id":"ce4bhnh2rcd13ifvqgug","pricing_plan_id":"cebpf4jnsgd1na2vs0mg"},{"bike_id":"37043282-0a1e-4ddc-816a-9da08dba219b","system_id":"levelo_inurba_marseille","lat":43.27993,"lon":5.40004,"is_reserved":false,"is_disabled":false,"rental_uris":{"android":"levelo://app?vid=37043282-0a1e-4ddc-816a-9da08dba219b","ios":"levelo://app?vid=37043282-0a1e-4ddc-816a-9da08dba219b"},"vehicle_type_id":"4","last_reported":1740164821,"current_range_meters":16800,"station_id":"ce4bho92rcd13ifvqh4g","pricing_plan_id":"cebpf4jnsgd1na2vs0mg"},{"bike_id":"47c2bda1-b080-4330-9259-8165a7e570ad","system_id":"levelo_inurba_marseille","lat":43.32693,"lon":5.39,"is_reserved":false,"is_disabled":false,"rental_uris":{"android":"levelo://app?vid=47c2bda1-b080-4330-9259-8165a7e570ad","ios":"levelo://app?vid=47c2bda1-b080-4330-9259-8165a7e570ad"},"vehicle_type_id":"4","last_reported":1740164821,"current_range_meters":16800,"station_id":"","pricing_plan_id":"cebpf4jnsgd1na2vs0mg"},{"bike_id":"0b35ef10-1d1d-4e8a-949e-c3122c5e3874","system_id":"levelo_inurba_marseille","lat":43.2396,"lon":5.36644,"is_reserved":false,"is_disabled":false,"rental_uris":{"android":"levelo://app?vid=0b35ef10-1d1d-4e8a-949e-c3122c5e3874","ios":"levelo://app?vid=0b35ef10-1d1d-4e8a-949e-c3122c5e3874"},"vehicle_type_id":"4","last_reported":1740164821,"current_range_meters":16800,"station_id":"ce4bhi12rcd13ifvqfp0","pricing_plan_id":"cebpf4jnsgd1na2vs0mg"},{"bike_id":"2438116c-0eac-4745-af80-c56857c3119c","system_id":"levelo_inurba_marseille","lat":43.2481,"lon":5.3746,"is_reserved":false,"is_disabled":false,"rental_uris":{"android":"levelo://app?vid=2438116c-0eac-4745-af80-c56857c3119c","ios":"levelo://app?vid=2438116c-0eac-4745-af80-c56857c3119c"},"vehicle_type_id":"4","last_reported":1740164821,"current_range_meters":16800,"station_id":"ce4bhgh2rcd13ifvqfb0","pricing_plan_id":"cebpf4jnsgd1na2vs0mg"},{"bike_id":"06b5b92e-20c2-4581-8ccf-06307578ea44","system_id":"levelo_inurba_marseille","lat":43.27177,"lon":5.40986,"is_reserved":false,"is_disabled":false,"rental_uris":{"android":"levelo://app?vid=06b5b92e-20c2-4581-8ccf-06307578ea44","ios":"levelo://app?vid=06b5b92e-20c2-4581-8ccf-06307578ea44"},"vehicle_type_id":"4","last_reported":1740164821,"current_range_meters":16800,"station_id":"ce4bhl12rcd13ifvqgf0","pricing_plan_id":"cebpf4jnsgd1na2vs0mg"},{"bike_id":"91f097cc-300b-4e69-ad37-b04e80210a80","system_id":"levelo_inurba_marseille","lat":43.29775,"lon":5.37108,"is_reserved":false,"is_disabled":false,"rental_uris":{"android":"levelo://app?vid=91f097cc-300b-4e69-ad37-b04e80210a80","ios":"levelo://app?vid=91f097cc-300b-4e69-ad37-b04e80210a80"},"vehicle_type_id":"4","last_reported":1740164821,"current_range_meters":16800,"station_id":"ce4bgop2rcd13ifvqc1g","pricing_plan_id":"cebpf4jnsgd1na2vs0mg"},{"bike_id":"c78c04c9-5018-4da0-b4a7-022a88a636dd","system_id":"levelo_inurba_marseille","lat":43.29963,"lon":5.385,"is_reserved":false,"is_disabled":false,"rental_uris":{"android":"levelo://app?vid=c78c04c9-5018-4da0-b4a7-022a88a636dd","ios":"levelo://app?vid=c78c04c9-5018-4da0-b4a7-022a88a636dd"},"vehicle_type_id":"4","last_reported":1740164821,"current_range_meters":16800,"station_id":"ce4bgj92rcd13ifvqbd0","pricing_plan_id":"cebpf4jnsgd1na2vs0mg"},{"bike_id":"2f365603-98e9-4ca7-9acd-f34a233627a9","system_id":"levelo_inurba_marseille","lat":43.29793,"lon":5.38094,"is_reserved":false,"is_disabled":false,"rental_uris":{"android":"levelo://app?vid=2f365603-98e9-4ca7-9acd-f34a233627a9","ios":"levelo://app?vid=2f365603-98e9-4ca7-9acd-f34a233627a9"},"vehicle_type_id":"4","last_reported":1740164821,"current_range_meters":16800,"station_id":"ce4bgip2rcd13ifvqbb0","pricing_plan_id":"cebpf4jnsgd1na2vs0mg"},{"bike_id":"827dbbce-1253-4846-9d9e-7a229b12d704","system_id":"levelo_inurba_marseille","lat":43.28036,"lon":5.36933,"is_reserved":false,"is_disabled":false,"rental_uris":{"android":"levelo://app?vid=827dbbce-1253-4846-9d9e-7a229b12d704","ios":"levelo://app?vid=827dbbce-1253-4846-9d9e-7a229b12d704"},"vehicle_type_id":"4","last_reported":1740164821,"current_range_meters":16800,"station_id":"ce4bha12rcd13ifvqef0","pricing_plan_id":"cebpf4jnsgd1na2vs0mg"},{"bike_id":"58200a84-9a1f-49a4-afb1-cb49453e12a5","system_id":"levelo_inurba_marseille","lat":43.29185,"lon":5.39315,"is_reserved":false,"is_disabled":false,"rental_uris":{"android":"levelo://app?vid=58200a84-9a1f-49a4-afb1-cb49453e12a5","ios":"levelo://app?vid=58200a84-9a1f-49a4-afb1-cb49453e12a5"},"vehicle_type_id":"4","last_reported":1740164821,"current_range_meters":17200,"station_id":"ce4bh192rcd13ifvqdd0","pricing_plan_id":"cebpf4jnsgd1na2vs0mg"},{"bike_id":"b27cb940-9a4c-438c-b494-cfa5947a50bb","system_id":"levelo_inurba_marseille","lat":43.28847,"lon":5.393,"is_reserved":false,"is_disabled":false,"rental_uris":{"android":"levelo://app?vid=b27cb940-9a4c-438c-b494-cfa5947a50bb","ios":"levelo://app?vid=b27cb940-9a4c-438c-b494-cfa5947a50bb"},"vehicle_type_id":"4","last_reported":1740164821,"current_range_meters":16800,"station_id":"ce4bh2p2rcd13ifvqdi0","pricing_plan_id":"cebpf4jnsgd1na2vs0mg"},{"bike_id":"80047685-3e47-4f26-ba7d-fd95b4cc557e","system_id":"levelo_inurba_marseille","lat":43.27073,"lon":5.42279,"is_reserved":false,"is_disabled":false,"rental_uris":{"android":"levelo://app?vid=80047685-3e47-4f26-ba7d-fd95b4cc557e","ios":"levelo://app?vid=80047685-3e47-4f26-ba7d-fd95b4cc557e"},"vehicle_type_id":"4","last_reported":1740164821,"current_range_meters":17200,"station_id":"ce4bhk92rcd13ifvqgb0","pricing_plan_id":"cebpf4jnsgd1na2vs0mg"},{"bike_id":"abb93cba-6888-4edb-9ac8-e2a73b730e86","system_id":"levelo_inurba_marseille","lat":43.28272,"lon":5.35062,"is_reserved":false,"is_disabled":false,"rental_uris":{"android":"levelo://app?vid=abb93cba-6888-4edb-9ac8-e2a73b730e86","ios":"levelo://app?vid=abb93cba-6888-4edb-9ac8-e2a73b730e86"},"vehicle_type_id":"4","last_reported":1740164821,"current_range_meters":17200,"station_id":"ce4bhbp2rcd13ifvqerg","pricing_plan_id":"cebpf4jnsgd1na2vs0mg"},{"bike_id":"6945e92c-d214-4351-8199-1abf291add29","system_id":"levelo_inurba_marseille","lat":43.28265,"lon":5.35058,"is_reserved":false,"is_disabled":false,"rental_uris":{"android":"levelo://app?vid=6945e92c-d214-4351-8199-1abf291add29","ios":"levelo://app?vid=6945e92c-d214-4351-8199-1abf291add29"},"vehicle_type_id":"4","last_reported":1740164821,"current_range_meters":17200,"station_id":"ce4bhbp2rcd13ifvqerg","pricing_plan_id":"cebpf4jnsgd1na2vs0mg"},{"bike_id":"1b0d6542-f74d-4dd5-b78b-1cd1115ff80b","system_id":"levelo_inurba_marseille","lat":43.3062,"lon":5.3739,"is_reserved":false,"is_disabled":false,"rental_uris":{"android":"levelo://app?vid=1b0d6542-f74d-4dd5-b78b-1cd1115ff80b","ios":"levelo://app?vid=1b0d6542-f74d-4dd5-b78b-1cd1115ff80b"},"vehicle_type_id":"4","last_reported":1740164821,"current_range_meters":17600,"station_id":"","pricing_plan_id":"cebpf4jnsgd1na2vs0mg"},{"bike_id":"519c0d90-c598-4074-9c80-d5e1565ff705","system_id":"levelo_inurba_marseille","lat":43.23059,"lon":5.35495,"is_reserved":false,"is_disabled":false,"rental_uris":{"android":"levelo://app?vid=519c0d90-c598-4074-9c80-d5e1565ff705","ios":"levelo://app?vid=519c0d90-c598-4074-9c80-d5e1565ff705"},"vehicle_type_id":"4","last_reported":1740164821,"current_range_meters":17600,"station_id":"cpo3342slgdg3j2ifvpg","pricing_plan_id":"cebpf4jnsgd1na2vs0mg"},{"bike_id":"ecb792ba-e590-4d62-97cc-1e9b429064df","system_id":"levelo_inurba_marseille","lat":43.2501,"lon":5.3891,"is_reserved":false,"is_disabled":false,"rental_uris":{"android":"levelo://app?vid=ecb792ba-e590-4d62-97cc-1e9b429064df","ios":"levelo://app?vid=ecb792ba-e590-4d62-97cc-1e9b429064df"},"vehicle_type_id":"4","last_reported":1740164821,"current_range_meters":17600,"station_id":"ce4bhgp2rcd13ifvqfd0","pricing_plan_id":"cebpf4jnsgd1na2vs0mg"},{"bike_id":"d5566d2e-78e8-488f-b3e7-c9c338cd491f","system_id":"levelo_inurba_marseille","lat":43.27493,"lon":5.42461,"is_reserved":false,"is_disabled":false,"rental_uris":{"android":"levelo://app?vid=d5566d2e-78e8-488f-b3e7-c9c338cd491f","ios":"levelo://app?vid=d5566d2e-78e8-488f-b3e7-c9c338cd491f"},"vehicle_type_id":"4","last_reported":1740164821,"current_range_meters":17600,"station_id":"ce4bhn92rcd13ifvqgrg","pricing_plan_id":"cebpf4jnsgd1na2vs0mg"},{"bike_id":"ae73ab75-f53c-4982-bad0-d7ce44e42709","system_id":"levelo_inurba_marseille","lat":43.31071,"lon":5.38352,"is_reserved":false,"is_disabled":false,"rental_uris":{"android":"levelo://app?vid=ae73ab75-f53c-4982-bad0-d7ce44e42709","ios":"levelo://app?vid=ae73ab75-f53c-4982-bad0-d7ce44e42709"},"vehicle_type_id":"4","last_reported":1740164821,"current_range_meters":17600,"station_id":"ce4bgv92rcd13ifvqcr0","pricing_plan_id":"cebpf4jnsgd1na2vs0mg"},{"bike_id":"1deaa002-5243-48d8-8779-82891264a102","system_id":"levelo_inurba_marseille","lat":43.24801,"lon":5.37441,"is_reserved":false,"is_disabled":false,"rental_uris":{"android":"levelo://app?vid=1deaa002-5243-48d8-8779-82891264a102","ios":"levelo://app?vid=1deaa002-5243-48d8-8779-82891264a102"},"vehicle_type_id":"4","last_reported":1740164821,"current_range_meters":17600,"station_id":"ce4bhgh2rcd13ifvqfb0","pricing_plan_id":"cebpf4jnsgd1na2vs0mg"},{"bike_id":"1b5b87c8-f96f-4740-8b60-bcc62c6e3f59","system_id":"levelo_inurba_marseille","lat":43.31399,"lon":5.38459,"is_reserved":false,"is_disabled":false,"rental_uris":{"android":"levelo://app?vid=1b5b87c8-f96f-4740-8b60-bcc62c6e3f59","ios":"levelo://app?vid=1b5b87c8-f96f-4740-8b60-bcc62c6e3f59"},"vehicle_type_id":"4","last_reported":1740164821,"current_range_meters":17600,"station_id":"","pricing_plan_id":"cebpf4jnsgd1na2vs0mg"},{"bike_id":"e7300d5d-688d-4dcd-8453-c036cb791fa4","system_id":"levelo_inurba_marseille","lat":43.29543,"lon":5.39388,"is_reserved":false,"is_disabled":false,"rental_uris":{"android":"levelo://app?vid=e7300d5d-688d-4dcd-8453-c036cb791fa4","ios":"levelo://app?vid=e7300d5d-688d-4dcd-8453-c036cb791fa4"},"vehicle_type_id":"4","last_reported":1740164821,"current_range_meters":17600,"station_id":"ce4bh292rcd13ifvqdf0","pricing_plan_id":"cebpf4jnsgd1na2vs0mg"},{"bike_id":"d11be0c5-7c44-446b-87dc-96d0fa4aded0","system_id":"levelo_inurba_marseille","lat":43.27996,"lon":5.40035,"is_reserved":false,"is_disabled":false,"rental_uris":{"android":"levelo://app?vid=d11be0c5-7c44-446b-87dc-96d0fa4aded0","ios":"levelo://app?vid=d11be0c5-7c44-446b-87dc-96d0fa4aded0"},"vehicle_type_id":"4","last_reported":1740164821,"current_range_meters":17600,"station_id":"ce4bho92rcd13ifvqh4g","pricing_plan_id":"cebpf4jnsgd1na2vs0mg"},{"bike_id":"ce5f586c-8096-48a5-8143-bce662e5979a","system_id":"levelo_inurba_marseille","lat":43.29261,"lon":5.38436,"is_reserved":false,"is_disabled":false,"rental_uris":{"android":"levelo://app?vid=ce5f586c-8096-48a5-8143-bce662e5979a","ios":"levelo://app?vid=ce5f586c-8096-48a5-8143-bce662e5979a"},"vehicle_type_id":"4","last_reported":1740164821,"current_range_meters":17600,"station_id":"ce4bh692rcd13ifvqea0","pricing_plan_id":"cebpf4jnsgd1na2vs0mg"},{"bike_id":"467a0ac7-872c-4bb6-8ee3-3c6f458a51d9","system_id":"levelo_inurba_marseille","lat":43.27904,"lon":5.41258,"is_reserved":false,"is_disabled":false,"rental_uris":{"android":"levelo://app?vid=467a0ac7-872c-4bb6-8ee3-3c6f458a51d9","ios":"levelo://app?vid=467a0ac7-872c-4bb6-8ee3-3c6f458a51d9"},"vehicle_type_id":"4","last_reported":1740164821,"current_range_meters":18000,"station_id":"","pricing_plan_id":"cebpf4jnsgd1na2vs0mg"},{"bike_id":"af6517b5-8e86-4356-ae57-fbef39282085","system_id":"levelo_inurba_marseille","lat":43.3137,"lon":5.38498,"is_reserved":false,"is_disabled":false,"rental_uris":{"android":"levelo://app?vid=af6517b5-8e86-4356-ae57-fbef39282085","ios":"levelo://app?vid=af6517b5-8e86-4356-ae57-fbef39282085"},"vehicle_type_id":"4","last_reported":1740164821,"current_range_meters":18000,"station_id":"ce4bgt92rcd13ifvqcf0","pricing_plan_id":"cebpf4jnsgd1na2vs0mg"},{"bike_id":"ba0bce3c-2f0f-4319-a7aa-4f3727bd81ea","system_id":"levelo_inurba_marseille","lat":43.32096,"lon":5.36792,"is_reserved":false,"is_disabled":false,"rental_uris":{"android":"levelo://app?vid=ba0bce3c-2f0f-4319-a7aa-4f3727bd81ea","ios":"levelo://app?vid=ba0bce3c-2f0f-4319-a7aa-4f3727bd81ea"},"vehicle_type_id":"4","last_reported":1740164821,"current_range_meters":18000,"station_id":"ce4bhrh2rcd13ifvqhug","pricing_plan_id":"cebpf4jnsgd1na2vs0mg"},{"bike_id":"8b52c24a-60e9-4f95-8f6d-a404db75239c","system_id":"levelo_inurba_marseille","lat":43.27379,"lon":5.36252,"is_reserved":false,"is_disabled":false,"rental_uris":{"android":"levelo://app?vid=8b52c24a-60e9-4f95-8f6d-a404db75239c","ios":"levelo://app?vid=8b52c24a-60e9-4f95-8f6d-a404db75239c"},"vehicle_type_id":"4","last_reported":1740164821,"current_range_meters":18000,"station_id":"ce4bhbh2rcd13ifvqeo0","pricing_plan_id":"cebpf4jnsgd1na2vs0mg"},{"bike_id":"07b1cac7-831a-4a28-8e2f-9203cf799fc9","system_id":"levelo_inurba_marseille","lat":43.28855,"lon":5.35871,"is_reserved":false,"is_disabled":false,"rental_uris":{"android":"levelo://app?vid=07b1cac7-831a-4a28-8e2f-9203cf799fc9","ios":"levelo://app?vid=07b1cac7-831a-4a28-8e2f-9203cf799fc9"},"vehicle_type_id":"4","last_reported":1740164821,"current_range_meters":18000,"station_id":"ce4bhb12rcd13ifvqem0","pricing_plan_id":"cebpf4jnsgd1na2vs0mg"},{"bike_id":"dcad0235-79cf-4585-a59b-543b93956463","system_id":"levelo_inurba_marseille","lat":43.30538,"lon":5.367,"is_reserved":false,"is_disabled":false,"rental_uris":{"android":"levelo://app?vid=dcad0235-79cf-4585-a59b-543b93956463","ios":"levelo://app?vid=dcad0235-79cf-4585-a59b-543b93956463"},"vehicle_type_id":"4","last_reported":1740164821,"current_range_meters":18000,"station_id":"ce4bgrp2rcd13ifvqc9g","pricing_plan_id":"cebpf4jnsgd1na2vs0mg"},{"bike_id":"005e5eb8-39b1-40fe-bf10-36f6bd3cba88","system_id":"levelo_inurba_marseille","lat":43.28353,"lon":5.38643,"is_reserved":false,"is_disabled":false,"rental_uris":{"android":"levelo://app?vid=005e5eb8-39b1-40fe-bf10-36f6bd3cba88","ios":"levelo://app?vid=005e5eb8-39b1-40fe-bf10-36f6bd3cba88"},"vehicle_type_id":"4","last_reported":1740164821,"current_range_meters":18000,"station_id":"ce4bh492rcd13ifvqdvg","pricing_plan_id":"cebpf4jnsgd1na2vs0mg"},{"bike_id":"273c6419-dee4-4627-9d53-0902edadbc9c","system_id":"levelo_inurba_marseille","lat":43.27921,"lon":5.39591,"is_reserved":false,"is_disabled":false,"rental_uris":{"android":"levelo://app?vid=273c6419-dee4-4627-9d53-0902edadbc9c","ios":"levelo://app?vid=273c6419-dee4-4627-9d53-0902edadbc9c"},"vehicle_type_id":"4","last_reported":1740164821,"current_range_meters":18000,"station_id":"ce4bhf92rcd13ifvqf40","pricing_plan_id":"cebpf4jnsgd1na2vs0mg"},{"bike_id":"dab960d9-1ede-46dd-ade3-a5360c9021cf","system_id":"levelo_inurba_marseille","lat":43.23198,"lon":5.35557,"is_reserved":false,"is_disabled":false,"rental_uris":{"android":"levelo://app?vid=dab960d9-1ede-46dd-ade3-a5360c9021cf","ios":"levelo://app?vid=dab960d9-1ede-46dd-ade3-a5360c9021cf"},"vehicle_type_id":"4","last_reported":1740164821,"current_range_meters":18000,"station_id":"ce4bhu92rcd13ifvqi70","pricing_plan_id":"cebpf4jnsgd1na2vs0mg"},{"bike_id":"eb354cf3-daf0-4f07-9e6f-1eb2682396af","system_id":"levelo_inurba_marseille","lat":43.27993,"lon":5.40031,"is_reserved":false,"is_disabled":false,"rental_uris":{"android":"levelo://app?vid=eb354cf3-daf0-4f07-9e6f-1eb2682396af","ios":"levelo://app?vid=eb354cf3-daf0-4f07-9e6f-1eb2682396af"},"vehicle_type_id":"4","last_reported":1740164821,"current_range_meters":18000,"station_id":"ce4bho92rcd13ifvqh4g","pricing_plan_id":"cebpf4jnsgd1na2vs0mg"},{"bike_id":"96b9f7c0-cd3c-40d1-bc41-8a82bed04cc8","system_id":"levelo_inurba_marseille","lat":43.29274,"lon":5.36838,"is_reserved":false,"is_disabled":true,"rental_uris":{"android":"levelo://app?vid=96b9f7c0-cd3c-40d1-bc41-8a82bed04cc8","ios":"levelo://app?vid=96b9f7c0-cd3c-40d1-bc41-8a82bed04cc8"},"vehicle_type_id":"4","last_reported":1740164821,"current_range_meters":18000,"station_id":"ce4bhbp2rcd13ifvqesg","pricing_plan_id":"cebpf4jnsgd1na2vs0mg"},{"bike_id":"650348ee-9b72-44ce-aedd-b7ed3739c621","system_id":"levelo_inurba_marseille","lat":43.29536,"lon":5.39031,"is_reserved":false,"is_disabled":false,"rental_uris":{"android":"levelo://app?vid=650348ee-9b72-44ce-aedd-b7ed3739c621","ios":"levelo://app?vid=650348ee-9b72-44ce-aedd-b7ed3739c621"},"vehicle_type_id":"4","last_reported":1740164821,"current_range_meters":18000,"station_id":"ce4bh3p2rcd13ifvqdp0","pricing_plan_id":"cebpf4jnsgd1na2vs0mg"},{"bike_id":"324beb06-ad7d-4e0b-989a-7865fd9aec9b","system_id":"levelo_inurba_marseille","lat":43.33048,"lon":5.39049,"is_reserved":false,"is_disabled":false,"rental_uris":{"android":"levelo://app?vid=324beb06-ad7d-4e0b-989a-7865fd9aec9b","ios":"levelo://app?vid=324beb06-ad7d-4e0b-989a-7865fd9aec9b"},"vehicle_type_id":"4","last_reported":1740164821,"current_range_meters":18000,"station_id":"ce4bhr92rcd13ifvqhrg","pricing_plan_id":"cebpf4jnsgd1na2vs0mg"},{"bike_id":"398eb922-fb04-4a72-9fe3-c229955ac278","system_id":"levelo_inurba_marseille","lat":43.25583,"lon":5.38229,"is_reserved":false,"is_disabled":false,"rental_uris":{"android":"levelo://app?vid=398eb922-fb04-4a72-9fe3-c229955ac278","ios":"levelo://app?vid=398eb922-fb04-4a72-9fe3-c229955ac278"},"vehicle_type_id":"4","last_reported":1740164821,"current_range_meters":18000,"station_id":"ce4bhih2rcd13ifvqfs0","pricing_plan_id":"cebpf4jnsgd1na2vs0mg"},{"bike_id":"1f7411cd-9379-4bab-a8bc-411b928d8602","system_id":"levelo_inurba_marseille","lat":43.274945,"lon":5.42458,"is_reserved":false,"is_disabled":false,"rental_uris":{"android":"levelo://app?vid=1f7411cd-9379-4bab-a8bc-411b928d8602","ios":"levelo://app?vid=1f7411cd-9379-4bab-a8bc-411b928d8602"},"vehicle_type_id":"4","last_reported":1740164821,"current_range_meters":18800,"station_id":"ce4bhn92rcd13ifvqgrg","pricing_plan_id":"cebpf4jnsgd1na2vs0mg"},{"bike_id":"cb925db1-e157-4bba-a14f-b83f88fc7558","system_id":"levelo_inurba_marseille","lat":43.27173,"lon":5.40994,"is_reserved":false,"is_disabled":false,"rental_uris":{"android":"levelo://app?vid=cb925db1-e157-4bba-a14f-b83f88fc7558","ios":"levelo://app?vid=cb925db1-e157-4bba-a14f-b83f88fc7558"},"vehicle_type_id":"4","last_reported":1740164821,"current_range_meters":18800,"station_id":"ce4bhl12rcd13ifvqgf0","pricing_plan_id":"cebpf4jnsgd1na2vs0mg"},{"bike_id":"6897935d-90c4-4aaa-81bd-a334d1112cb3","system_id":"levelo_inurba_marseille","lat":43.24677,"lon":5.38169,"is_reserved":false,"is_disabled":false,"rental_uris":{"android":"levelo://app?vid=6897935d-90c4-4aaa-81bd-a334d1112cb3","ios":"levelo://app?vid=6897935d-90c4-4aaa-81bd-a334d1112cb3"},"vehicle_type_id":"4","last_reported":1740164821,"current_range_meters":18800,"station_id":"ce4bhih2rcd13ifvqfr0","pricing_plan_id":"cebpf4jnsgd1na2vs0mg"},{"bike_id":"8c20ab15-f04e-4e58-be71-0abf1d05d250","system_id":"levelo_inurba_marseille","lat":43.23966,"lon":5.3662,"is_reserved":false,"is_disabled":false,"rental_uris":{"android":"levelo://app?vid=8c20ab15-f04e-4e58-be71-0abf1d05d250","ios":"levelo://app?vid=8c20ab15-f04e-4e58-be71-0abf1d05d250"},"vehicle_type_id":"4","last_reported":1740164821,"current_range_meters":18800,"station_id":"ce4bhi12rcd13ifvqfp0","pricing_plan_id":"cebpf4jnsgd1na2vs0mg"},{"bike_id":"b6fd572c-83f0-4ec2-a4a8-936f62e444c3","system_id":"levelo_inurba_marseille","lat":43.29821,"lon":5.38086,"is_reserved":false,"is_disabled":false,"rental_uris":{"android":"levelo://app?vid=b6fd572c-83f0-4ec2-a4a8-936f62e444c3","ios":"levelo://app?vid=b6fd572c-83f0-4ec2-a4a8-936f62e444c3"},"vehicle_type_id":"4","last_reported":1740164821,"current_range_meters":18800,"station_id":"ce4bgip2rcd13ifvqbb0","pricing_plan_id":"cebpf4jnsgd1na2vs0mg"},{"bike_id":"f5298310-14cd-4aed-bc3f-841e7d37dcf5","system_id":"levelo_inurba_marseille","lat":43.32668,"lon":5.41006,"is_reserved":false,"is_disabled":true,"rental_uris":{"android":"levelo://app?vid=f5298310-14cd-4aed-bc3f-841e7d37dcf5","ios":"levelo://app?vid=f5298310-14cd-4aed-bc3f-841e7d37dcf5"},"vehicle_type_id":"4","last_reported":1740164821,"current_range_meters":18800,"station_id":"ce4bhpp2rcd13ifvqhgg","pricing_plan_id":"cebpf4jnsgd1na2vs0mg"},{"bike_id":"ff49b8bb-82c8-4782-bb98-ae74ae771eef","system_id":"levelo_inurba_marseille","lat":43.29612,"lon":5.38119,"is_reserved":false,"is_disabled":false,"rental_uris":{"android":"levelo://app?vid=ff49b8bb-82c8-4782-bb98-ae74ae771eef","ios":"levelo://app?vid=ff49b8bb-82c8-4782-bb98-ae74ae771eef"},"vehicle_type_id":"4","last_reported":1740164821,"current_range_meters":18800,"station_id":"ce4bgl12rcd13ifvqbo0","pricing_plan_id":"cebpf4jnsgd1na2vs0mg"},{"bike_id":"e3d9d7ab-fe61-451b-8f88-24a2dfea43f4","system_id":"levelo_inurba_marseille","lat":43.29428,"lon":5.38607,"is_reserved":false,"is_disabled":false,"rental_uris":{"android":"levelo://app?vid=e3d9d7ab-fe61-451b-8f88-24a2dfea43f4","ios":"levelo://app?vid=e3d9d7ab-fe61-451b-8f88-24a2dfea43f4"},"vehicle_type_id":"4","last_reported":1740164821,"current_range_meters":19200,"station_id":"ce4bh2h2rcd13ifvqdh0","pricing_plan_id":"cebpf4jnsgd1na2vs0mg"},{"bike_id":"6171c7fc-2f00-4981-afb4-d8d6db9c37a7","system_id":"levelo_inurba_marseille","lat":43.30808,"lon":5.38134,"is_reserved":false,"is_disabled":true,"rental_uris":{"android":"levelo://app?vid=6171c7fc-2f00-4981-afb4-d8d6db9c37a7","ios":"levelo://app?vid=6171c7fc-2f00-4981-afb4-d8d6db9c37a7"},"vehicle_type_id":"4","last_reported":1740164821,"current_range_meters":19200,"station_id":"ce4bgt12rcd13ifvqce0","pricing_plan_id":"cebpf4jnsgd1na2vs0mg"},{"bike_id":"0b4b6c33-07be-4a76-a0f4-6d396661e952","system_id":"levelo_inurba_marseille","lat":43.28925,"lon":5.36392,"is_reserved":false,"is_disabled":false,"rental_uris":{"android":"levelo://app?vid=0b4b6c33-07be-4a76-a0f4-6d396661e952","ios":"levelo://app?vid=0b4b6c33-07be-4a76-a0f4-6d396661e952"},"vehicle_type_id":"4","last_reported":1740164821,"current_range_meters":19200,"station_id":"ce4bhc92rcd13ifvqetg","pricing_plan_id":"cebpf4jnsgd1na2vs0mg"},{"bike_id":"a54602d7-ce22-4ec1-b915-734fd6f9eabf","system_id":"levelo_inurba_marseille","lat":43.303253,"lon":5.40432,"is_reserved":false,"is_disabled":false,"rental_uris":{"android":"levelo://app?vid=a54602d7-ce22-4ec1-b915-734fd6f9eabf","ios":"levelo://app?vid=a54602d7-ce22-4ec1-b915-734fd6f9eabf"},"vehicle_type_id":"4","last_reported":1740164821,"current_range_meters":19200,"station_id":"ce4bhdp2rcd13ifvqf20","pricing_plan_id":"cebpf4jnsgd1na2vs0mg"},{"bike_id":"f75b7c43-b1e9-419b-9e88-97af31d30220","system_id":"levelo_inurba_marseille","lat":43.23966,"lon":5.36634,"is_reserved":false,"is_disabled":false,"rental_uris":{"android":"levelo://app?vid=f75b7c43-b1e9-419b-9e88-97af31d30220","ios":"levelo://app?vid=f75b7c43-b1e9-419b-9e88-97af31d30220"},"vehicle_type_id":"4","last_reported":1740164821,"current_range_meters":19200,"station_id":"ce4bhi12rcd13ifvqfp0","pricing_plan_id":"cebpf4jnsgd1na2vs0mg"},{"bike_id":"38f9bc40-639e-4f64-87e9-15092cc7344e","system_id":"levelo_inurba_marseille","lat":43.34411,"lon":5.38156,"is_reserved":false,"is_disabled":false,"rental_uris":{"android":"levelo://app?vid=38f9bc40-639e-4f64-87e9-15092cc7344e","ios":"levelo://app?vid=38f9bc40-639e-4f64-87e9-15092cc7344e"},"vehicle_type_id":"4","last_reported":1740164821,"current_range_meters":19200,"station_id":"","pricing_plan_id":"cebpf4jnsgd1na2vs0mg"},{"bike_id":"ab46b189-6bae-4129-a7fd-10b3ccd5a48e","system_id":"levelo_inurba_marseille","lat":43.272,"lon":5.39993,"is_reserved":false,"is_disabled":false,"rental_uris":{"android":"levelo://app?vid=ab46b189-6bae-4129-a7fd-10b3ccd5a48e","ios":"levelo://app?vid=ab46b189-6bae-4129-a7fd-10b3ccd5a48e"},"vehicle_type_id":"4","last_reported":1740164821,"current_range_meters":19200,"station_id":"","pricing_plan_id":"cebpf4jnsgd1na2vs0mg"},{"bike_id":"66331ac8-52ca-4371-8a63-3712288340c2","system_id":"levelo_inurba_marseille","lat":43.28949,"lon":5.36414,"is_reserved":false,"is_disabled":false,"rental_uris":{"android":"levelo://app?vid=66331ac8-52ca-4371-8a63-3712288340c2","ios":"levelo://app?vid=66331ac8-52ca-4371-8a63-3712288340c2"},"vehicle_type_id":"4","last_reported":1740164821,"current_range_meters":19200,"station_id":"ce4bhc92rcd13ifvqetg","pricing_plan_id":"cebpf4jnsgd1na2vs0mg"},{"bike_id":"a064b6c0-f0cd-4526-a12c-21a2fd0486aa","system_id":"levelo_inurba_marseille","lat":43.29532,"lon":5.38547,"is_reserved":false,"is_disabled":false,"rental_uris":{"android":"levelo://app?vid=a064b6c0-f0cd-4526-a12c-21a2fd0486aa","ios":"levelo://app?vid=a064b6c0-f0cd-4526-a12c-21a2fd0486aa"},"vehicle_type_id":"4","last_reported":1740164821,"current_range_meters":19200,"station_id":"ce4bgih2rcd13ifvqba0","pricing_plan_id":"cebpf4jnsgd1na2vs0mg"},{"bike_id":"1ba84607-88b3-4793-a4e7-dca4302fce98","system_id":"levelo_inurba_marseille","lat":43.28348,"lon":5.38101,"is_reserved":false,"is_disabled":false,"rental_uris":{"android":"levelo://app?vid=1ba84607-88b3-4793-a4e7-dca4302fce98","ios":"levelo://app?vid=1ba84607-88b3-4793-a4e7-dca4302fce98"},"vehicle_type_id":"4","last_reported":1740164821,"current_range_meters":19200,"station_id":"ce4bh412rcd13ifvqdr0","pricing_plan_id":"cebpf4jnsgd1na2vs0mg"},{"bike_id":"8e403f8a-b998-4fb1-bb90-54bf70e024a5","system_id":"levelo_inurba_marseille","lat":43.26954,"lon":5.38917,"is_reserved":false,"is_disabled":false,"rental_uris":{"android":"levelo://app?vid=8e403f8a-b998-4fb1-bb90-54bf70e024a5","ios":"levelo://app?vid=8e403f8a-b998-4fb1-bb90-54bf70e024a5"},"vehicle_type_id":"4","last_reported":1740164821,"current_range_meters":19200,"station_id":"ce4bhhh2rcd13ifvqfl0","pricing_plan_id":"cebpf4jnsgd1na2vs0mg"},{"bike_id":"78aa47e2-a7fa-44ca-94a7-c65c375b91d7","system_id":"levelo_inurba_marseille","lat":43.24805,"lon":5.37455,"is_reserved":false,"is_disabled":false,"rental_uris":{"android":"levelo://app?vid=78aa47e2-a7fa-44ca-94a7-c65c375b91d7","ios":"levelo://app?vid=78aa47e2-a7fa-44ca-94a7-c65c375b91d7"},"vehicle_type_id":"4","last_reported":1740164821,"current_range_meters":19600,"station_id":"ce4bhgh2rcd13ifvqfb0","pricing_plan_id":"cebpf4jnsgd1na2vs0mg"},{"bike_id":"a447a6d1-b4f3-4b18-af71-a7587d5fd90c","system_id":"levelo_inurba_marseille","lat":43.3035,"lon":5.41874,"is_reserved":false,"is_disabled":false,"rental_uris":{"android":"levelo://app?vid=a447a6d1-b4f3-4b18-af71-a7587d5fd90c","ios":"levelo://app?vid=a447a6d1-b4f3-4b18-af71-a7587d5fd90c"},"vehicle_type_id":"4","last_reported":1740164821,"current_range_meters":19600,"station_id":"ce4bhop2rcd13ifvqh7g","pricing_plan_id":"cebpf4jnsgd1na2vs0mg"},{"bike_id":"e9a8e62f-c6bf-44b7-a025-fbaba6c13dd6","system_id":"levelo_inurba_marseille","lat":43.29868,"lon":5.39738,"is_reserved":false,"is_disabled":false,"rental_uris":{"android":"levelo://app?vid=e9a8e62f-c6bf-44b7-a025-fbaba6c13dd6","ios":"levelo://app?vid=e9a8e62f-c6bf-44b7-a025-fbaba6c13dd6"},"vehicle_type_id":"4","last_reported":1740164821,"current_range_meters":19600,"station_id":"ce4bh0h2rcd13ifvqd50","pricing_plan_id":"cebpf4jnsgd1na2vs0mg"},{"bike_id":"562e00c6-26d4-4dc9-a1d7-b0960a97becf","system_id":"levelo_inurba_marseille","lat":43.26226,"lon":5.40448,"is_reserved":false,"is_disabled":false,"rental_uris":{"android":"levelo://app?vid=562e00c6-26d4-4dc9-a1d7-b0960a97becf","ios":"levelo://app?vid=562e00c6-26d4-4dc9-a1d7-b0960a97becf"},"vehicle_type_id":"4","last_reported":1740164821,"current_range_meters":19600,"station_id":"ce4bhmh2rcd13ifvqgmg","pricing_plan_id":"cebpf4jnsgd1na2vs0mg"},{"bike_id":"96f698fc-49f5-4636-b6dc-07ace91a44b8","system_id":"levelo_inurba_marseille","lat":43.246569,"lon":5.381659,"is_reserved":false,"is_disabled":false,"rental_uris":{"android":"levelo://app?vid=96f698fc-49f5-4636-b6dc-07ace91a44b8","ios":"levelo://app?vid=96f698fc-49f5-4636-b6dc-07ace91a44b8"},