{"last_updated":1728313807,"ttl":60,"version":"2.2","data":{"bikes":[{"bike_id":"5cc8d285-4fd4-4862-98ec-a3ae40dbae5b","system_id":"levelo_inurba_marseille","lat":43.309259,"lon":5.401463,"is_reserved":false,"is_disabled":false,"rental_uris":{"android":"levelo://app?vid=5cc8d285-4fd4-4862-98ec-a3ae40dbae5b","ios":"levelo://app?vid=5cc8d285-4fd4-4862-98ec-a3ae40dbae5b"},"vehicle_type_id":"4","last_reported":1728313807,"current_range_meters":25600,"station_id":"ce4bgvp2rcd13ifvqct0","pricing_plan_id":"cebpf4jnsgd1na2vs0mg"},{"bike_id":"4a54c7ac-8cbf-487c-a629-2fa393032eb4","system_id":"levelo_inurba_marseille","lat":43.27173,"lon":5.40999,"is_reserved":false,"is_disabled":false,"rental_uris":{"android":"levelo://app?vid=4a54c7ac-8cbf-487c-a629-2fa393032eb4","ios":"levelo://app?vid=4a54c7ac-8cbf-487c-a629-2fa393032eb4"},"vehicle_type_id":"4","last_reported":1728313807,"current_range_meters":20000,"station_id":"ce4bhl12rcd13ifvqgf0","pricing_plan_id":"cebpf4jnsgd1na2vs0mg"},{"bike_id":"98aed22c-7d37-46d3-8e48-ccf0e3b1f167","system_id":"levelo_inurba_marseille","lat":43.24192,"lon":5.39738,"is_reserved":false,"is_disabled":false,"rental_uris":{"android":"levelo://app?vid=98aed22c-7d37-46d3-8e48-ccf0e3b1f167","ios":"levelo://app?vid=98aed22c-7d37-46d3-8e48-ccf0e3b1f167"},"vehicle_type_id":"4","last_reported":1728313807,"current_range_meters":19600,"station_id":"ce4bhn12rcd13ifvqgpg","pricing_plan_id":"cebpf4jnsgd1na2vs0mg"},{"bike_id":"8a874caf-3db6-4bc3-b3d8-4f7a2a032123","system_id":"levelo_inurba_marseille","lat":43.22969,"lon":5.35313,"is_reserved":false,"is_disabled":false,"rental_uris":{"android":"levelo://app?vid=8a874caf-3db6-4bc3-b3d8-4f7a2a032123","ios":"levelo://app?vid=8a874caf-3db6-4bc3-b3d8-4f7a2a032123"},"vehicle_type_id":"4","last_reported":1728313807,"current_range_meters":25200,"station_id":"cpo3532slgdg3j2ikp40","pricing_plan_id":"cebpf4jnsgd1na2vs0mg"},{"bike_id":"a42d3666-5bc1-47e2-af96-3cf77db7e89b","system_id":"levelo_inurba_marseille","lat":43.2768,"lon":5.3893,"is_reserved":false,"is_disabled":false,"rental_uris":{"android":"levelo://app?vid=a42d3666-5bc1-47e2-af96-3cf77db7e89b","ios":"levelo://app?vid=a42d3666-5bc1-47e2-af96-3cf77db7e89b"},"vehicle_type_id":"4","last_reported":1728313807,"current_range_meters":30000,"station_id":"ce4bhi12rcd13ifvqfo0","pricing_plan_id":"cebpf4jnsgd1na2vs0mg"},{"bike_id":"3edccbad-c604-40df-acb2-6e9d91b67298","system_id":"levelo_inurba_marseille","lat":43.23058,"lon":5.35504,"is_reserved":false,"is_disabled":false,"rental_uris":{"android":"levelo://app?vid=3edccbad-c604-40df-acb2-6e9d91b67298","ios":"levelo://app?vid=3edccbad-c604-40df-acb2-6e9d91b67298"},"vehicle_type_id":"4","last_reported":1728313807,"current_range_meters":20000,"station_id":"cpo3342slgdg3j2ifvpg","pricing_plan_id":"cebpf4jnsgd1na2vs0mg"},{"bike_id":"650e3eb5-c2a5-4cf6-8911-6c5eced231f5","system_id":"levelo_inurba_marseille","lat":43.28354,"lon":5.38108,"is_reserved":false,"is_disabled":false,"rental_uris":{"android":"levelo://app?vid=650e3eb5-c2a5-4cf6-8911-6c5eced231f5","ios":"levelo://app?vid=650e3eb5-c2a5-4cf6-8911-6c5eced231f5"},"vehicle_type_id":"4","last_reported":1728313807,"current_range_meters":8000,"station_id":"ce4bh412rcd13ifvqdr0","pricing_plan_id":"cebpf4jnsgd1na2vs0mg"},{"bike_id":"f23c67cf-33cd-4632-ac5b-eba431d5a89a","system_id":"levelo_inurba_marseille","lat":43.29622,"lon":5.37171,"is_reserved":false,"is_disabled":false,"rental_uris":{"android":"levelo://app?vid=f23c67cf-33cd-4632-ac5b-eba431d5a89a","ios":"levelo://app?vid=f23c67cf-33cd-4632-ac5b-eba431d5a89a"},"vehicle_type_id":"4","last_reported":1728313807,"current_range_meters":22800,"station_id":"ce4bgnh2rcd13ifvqc0g","pricing_plan_id":"cebpf4jnsgd1na2vs0mg"},{"bike_id":"934c3880-2dcf-4e1e-9c73-63f64faaa5ef","system_id":"levelo_inurba_marseille","lat":43.29702,"lon":5.36624,"is_reserved":false,"is_disabled":false,"rental_uris":{"android":"levelo://app?vid=934c3880-2dcf-4e1e-9c73-63f64faaa5ef","ios":"levelo://app?vid=934c3880-2dcf-4e1e-9c73-63f64faaa5ef"},"vehicle_type_id":"4","last_reported":1728313807,"current_range_meters":2800,"station_id":"ce4bgn12rcd13ifvqbt0","pricing_plan_id":"cebpf4jnsgd1na2vs0mg"},{"bike_id":"d18187fd-e6fe-4fce-ba73-287aef21ff02","system_id":"levelo_inurba_marseille","lat":43.33027,"lon":5.39035,"is_reserved":false,"is_disabled":false,"rental_uris":{"android":"levelo://app?vid=d18187fd-e6fe-4fce-ba73-287aef21ff02","ios":"levelo://app?vid=d18187fd-e6fe-4fce-ba73-287aef21ff02"},"vehicle_type_id":"4","last_reported":1728313807,"current_range_meters":11200,"station_id":"ce4bhr92rcd13ifvqhrg","pricing_plan_id":"cebpf4jnsgd1na2vs0mg"},{"bike_id":"36046fb3-2ac2-4b39-8b54-9fabbd6a6524","system_id":"levelo_inurba_marseille","lat":43.31121,"lon":5.3776,"is_reserved":false,"is_disabled":false,"rental_uris":{"android":"levelo://app?vid=36046fb3-2ac2-4b39-8b54-9fabbd6a6524","ios":"levelo://app?vid=36046fb3-2ac2-4b39-8b54-9fabbd6a6524"},"vehicle_type_id":"4","last_reported":1728313807,"current_range_meters":38800,"station_id":"ce4bgt92rcd13ifvqcg0","pricing_plan_id":"cebpf4jnsgd1na2vs0mg"},{"bike_id":"05380375-9908-4ca8-908b-db79de13c3fa","system_id":"levelo_inurba_marseille","lat":43.29802,"lon":5.38117,"is_reserved":false,"is_disabled":false,"rental_uris":{"android":"levelo://app?vid=05380375-9908-4ca8-908b-db79de13c3fa","ios":"levelo://app?vid=05380375-9908-4ca8-908b-db79de13c3fa"},"vehicle_type_id":"4","last_reported":1728313807,"current_range_meters":4000,"station_id":"ce4bgip2rcd13ifvqbb0","pricing_plan_id":"cebpf4jnsgd1na2vs0mg"},{"bike_id":"b71de40c-14f6-4d45-a578-8c8b8fa76988","system_id":"levelo_inurba_marseille","lat":43.26067,"lon":5.39398,"is_reserved":false,"is_disabled":false,"rental_uris":{"android":"levelo://app?vid=b71de40c-14f6-4d45-a578-8c8b8fa76988","ios":"levelo://app?vid=b71de40c-14f6-4d45-a578-8c8b8fa76988"},"vehicle_type_id":"4","last_reported":1728313807,"current_range_meters":30400,"station_id":"ce4bhh92rcd13ifvqfj0","pricing_plan_id":"cebpf4jnsgd1na2vs0mg"},{"bike_id":"97d9e939-1161-4885-960a-4204e3ed8272","system_id":"levelo_inurba_marseille","lat":43.29787,"lon":5.39341,"is_reserved":false,"is_disabled":false,"rental_uris":{"android":"levelo://app?vid=97d9e939-1161-4885-960a-4204e3ed8272","ios":"levelo://app?vid=97d9e939-1161-4885-960a-4204e3ed8272"},"vehicle_type_id":"4","last_reported":1728313807,"current_range_meters":20400,"station_id":"chh1huq6cuj3fo74tm60","pricing_plan_id":"cebpf4jnsgd1na2vs0mg"},{"bike_id":"6f7b3a87-41ce-483d-a7ea-51a3979ba39a","system_id":"levelo_inurba_marseille","lat":43.29783,"lon":5.37092,"is_reserved":false,"is_disabled":false,"rental_uris":{"android":"levelo://app?vid=6f7b3a87-41ce-483d-a7ea-51a3979ba39a","ios":"levelo://app?vid=6f7b3a87-41ce-483d-a7ea-51a3979ba39a"},"vehicle_type_id":"4","last_reported":1728313807,"current_range_meters":36800,"station_id":"ce4bgop2rcd13ifvqc1g","pricing_plan_id":"cebpf4jnsgd1na2vs0mg"},{"bike_id":"81b07a05-4c57-4e76-99d6-5f6e3acbb201","system_id":"levelo_inurba_marseille","lat":43.23066,"lon":5.35498,"is_reserved":false,"is_disabled":false,"rental_uris":{"android":"levelo://app?vid=81b07a05-4c57-4e76-99d6-5f6e3acbb201","ios":"levelo://app?vid=81b07a05-4c57-4e76-99d6-5f6e3acbb201"},"vehicle_type_id":"4","last_reported":1728313807,"current_range_meters":11600,"station_id":"cpo3342slgdg3j2ifvpg","pricing_plan_id":"cebpf4jnsgd1na2vs0mg"},{"bike_id":"e60bbbd0-387d-4477-9954-d38aa9bd46bf","system_id":"levelo_inurba_marseille","lat":43.2668,"lon":5.38271,"is_reserved":false,"is_disabled":false,"rental_uris":{"android":"levelo://app?vid=e60bbbd0-387d-4477-9954-d38aa9bd46bf","ios":"levelo://app?vid=e60bbbd0-387d-4477-9954-d38aa9bd46bf"},"vehicle_type_id":"4","last_reported":1728313807,"current_range_meters":38400,"station_id":"ce4bhg92rcd13ifvqf90","pricing_plan_id":"cebpf4jnsgd1na2vs0mg"},{"bike_id":"2de177f7-8604-4a9a-a458-12822dd27798","system_id":"levelo_inurba_marseille","lat":43.28417,"lon":5.34993,"is_reserved":false,"is_disabled":false,"rental_uris":{"android":"levelo://app?vid=2de177f7-8604-4a9a-a458-12822dd27798","ios":"levelo://app?vid=2de177f7-8604-4a9a-a458-12822dd27798"},"vehicle_type_id":"4","last_reported":1728313807,"current_range_meters":38400,"station_id":"ce4bhbh2rcd13ifvqepg","pricing_plan_id":"cebpf4jnsgd1na2vs0mg"},{"bike_id":"0b1d5951-6fe1-4ccd-98cf-e29a84c2ce0f","system_id":"levelo_inurba_marseille","lat":43.31326,"lon":5.39696,"is_reserved":false,"is_disabled":false,"rental_uris":{"android":"levelo://app?vid=0b1d5951-6fe1-4ccd-98cf-e29a84c2ce0f","ios":"levelo://app?vid=0b1d5951-6fe1-4ccd-98cf-e29a84c2ce0f"},"vehicle_type_id":"4","last_reported":1728313807,"current_range_meters":28800,"station_id":"ce4bgvp2rcd13ifvqcu0","pricing_plan_id":"cebpf4jnsgd1na2vs0mg"},{"bike_id":"69c954f2-fbf8-497b-909d-f3b0d57c76c2","system_id":"levelo_inurba_marseille","lat":43.3108,"lon":5.38362,"is_reserved":false,"is_disabled":false,"rental_uris":{"android":"levelo://app?vid=69c954f2-fbf8-497b-909d-f3b0d57c76c2","ios":"levelo://app?vid=69c954f2-fbf8-497b-909d-f3b0d57c76c2"},"vehicle_type_id":"4","last_reported":1728313807,"current_range_meters":28000,"station_id":"ce4bgv92rcd13ifvqcr0","pricing_plan_id":"cebpf4jnsgd1na2vs0mg"},{"bike_id":"1233cd95-e3b9-412f-ae28-ef2422ac1d11","system_id":"levelo_inurba_marseille","lat":43.31367,"lon":5.385,"is_reserved":false,"is_disabled":false,"rental_uris":{"android":"levelo://app?vid=1233cd95-e3b9-412f-ae28-ef2422ac1d11","ios":"levelo://app?vid=1233cd95-e3b9-412f-ae28-ef2422ac1d11"},"vehicle_type_id":"4","last_reported":1728313807,"current_range_meters":29600,"station_id":"ce4bgt92rcd13ifvqcf0","pricing_plan_id":"cebpf4jnsgd1na2vs0mg"},{"bike_id":"2533866c-19bd-4519-9be3-2b4cdb95f5c7","system_id":"levelo_inurba_marseille","lat":43.29615,"lon":5.37151,"is_reserved":false,"is_disabled":false,"rental_uris":{"android":"levelo://app?vid=2533866c-19bd-4519-9be3-2b4cdb95f5c7","ios":"levelo://app?vid=2533866c-19bd-4519-9be3-2b4cdb95f5c7"},"vehicle_type_id":"4","last_reported":1728313807,"current_range_meters":6800,"station_id":"ce4bgnh2rcd13ifvqc0g","pricing_plan_id":"cebpf4jnsgd1na2vs0mg"},{"bike_id":"f6a00b42-3db7-4c07-8c0d-1372ac4e577d","system_id":"levelo_inurba_marseille","lat":43.31485,"lon":5.37309,"is_reserved":false,"is_disabled":false,"rental_uris":{"android":"levelo://app?vid=f6a00b42-3db7-4c07-8c0d-1372ac4e577d","ios":"levelo://app?vid=f6a00b42-3db7-4c07-8c0d-1372ac4e577d"},"vehicle_type_id":"4","last_reported":1728313807,"current_range_meters":36800,"station_id":"ce4bgt12rcd13ifvqcd0","pricing_plan_id":"cebpf4jnsgd1na2vs0mg"},{"bike_id":"51c4357d-0f3d-4d6e-a6f8-1885409f798a","system_id":"levelo_inurba_marseille","lat":43.29166,"lon":5.40311,"is_reserved":false,"is_disabled":false,"rental_uris":{"android":"levelo://app?vid=51c4357d-0f3d-4d6e-a6f8-1885409f798a","ios":"levelo://app?vid=51c4357d-0f3d-4d6e-a6f8-1885409f798a"},"vehicle_type_id":"4","last_reported":1728313807,"current_range_meters":34800,"station_id":"","pricing_plan_id":"cebpf4jnsgd1na2vs0mg"},{"bike_id":"f78ae037-218a-495f-b90a-ea6f7f284c98","system_id":"levelo_inurba_marseille","lat":43.30414,"lon":5.39769,"is_reserved":false,"is_disabled":false,"rental_uris":{"android":"levelo://app?vid=f78ae037-218a-495f-b90a-ea6f7f284c98","ios":"levelo://app?vid=f78ae037-218a-495f-b90a-ea6f7f284c98"},"vehicle_type_id":"4","last_reported":1728313807,"current_range_meters":16800,"station_id":"ce4bh092rcd13ifvqd20","pricing_plan_id":"cebpf4jnsgd1na2vs0mg"},{"bike_id":"60758834-bf08-4484-addf-9426dfcda56b","system_id":"levelo_inurba_marseille","lat":43.30329,"lon":5.40439,"is_reserved":false,"is_disabled":false,"rental_uris":{"android":"levelo://app?vid=60758834-bf08-4484-addf-9426dfcda56b","ios":"levelo://app?vid=60758834-bf08-4484-addf-9426dfcda56b"},"vehicle_type_id":"4","last_reported":1728313807,"current_range_meters":26000,"station_id":"ce4bh012rcd13ifvqd10","pricing_plan_id":"cebpf4jnsgd1na2vs0mg"},{"bike_id":"598309ae-42ce-43b7-81e0-035347c7920c","system_id":"levelo_inurba_marseille","lat":43.27673,"lon":5.38902,"is_reserved":false,"is_disabled":false,"rental_uris":{"android":"levelo://app?vid=598309ae-42ce-43b7-81e0-035347c7920c","ios":"levelo://app?vid=598309ae-42ce-43b7-81e0-035347c7920c"},"vehicle_type_id":"4","last_reported":1728313807,"current_range_meters":26000,"station_id":"ce4bhi12rcd13ifvqfo0","pricing_plan_id":"cebpf4jnsgd1na2vs0mg"},{"bike_id":"3d0728f4-cedf-45d7-8e99-2abb2792bc99","system_id":"levelo_inurba_marseille","lat":43.29868,"lon":5.39734,"is_reserved":false,"is_disabled":false,"rental_uris":{"android":"levelo://app?vid=3d0728f4-cedf-45d7-8e99-2abb2792bc99","ios":"levelo://app?vid=3d0728f4-cedf-45d7-8e99-2abb2792bc99"},"vehicle_type_id":"4","last_reported":1728313807,"current_range_meters":20400,"station_id":"ce4bh0h2rcd13ifvqd50","pricing_plan_id":"cebpf4jnsgd1na2vs0mg"},{"bike_id":"3d6b3b10-d868-4c1f-8181-2f1f42bd1f54","system_id":"levelo_inurba_marseille","lat":43.3372,"lon":5.37472,"is_reserved":false,"is_disabled":false,"rental_uris":{"android":"levelo://app?vid=3d6b3b10-d868-4c1f-8181-2f1f42bd1f54","ios":"levelo://app?vid=3d6b3b10-d868-4c1f-8181-2f1f42bd1f54"},"vehicle_type_id":"4","last_reported":1728313807,"current_range_meters":4000,"station_id":"","pricing_plan_id":"cebpf4jnsgd1na2vs0mg"},{"bike_id":"00da2976-3493-4bc8-94d2-f051823aec2a","system_id":"levelo_inurba_marseille","lat":43.2953,"lon":5.38545,"is_reserved":false,"is_disabled":false,"rental_uris":{"android":"levelo://app?vid=00da2976-3493-4bc8-94d2-f051823aec2a","ios":"levelo://app?vid=00da2976-3493-4bc8-94d2-f051823aec2a"},"vehicle_type_id":"4","last_reported":1728313807,"current_range_meters":27200,"station_id":"ce4bgih2rcd13ifvqba0","pricing_plan_id":"cebpf4jnsgd1na2vs0mg"},{"bike_id":"35db5aab-a536-4286-87d7-90ec43783f24","system_id":"levelo_inurba_marseille","lat":43.23193,"lon":5.35557,"is_reserved":false,"is_disabled":false,"rental_uris":{"android":"levelo://app?vid=35db5aab-a536-4286-87d7-90ec43783f24","ios":"levelo://app?vid=35db5aab-a536-4286-87d7-90ec43783f24"},"vehicle_type_id":"4","last_reported":1728313807,"current_range_meters":36000,"station_id":"ce4bhu92rcd13ifvqi70","pricing_plan_id":"cebpf4jnsgd1na2vs0mg"},{"bike_id":"62dfd99c-f976-4937-b2d0-5b50f5ae699f","system_id":"levelo_inurba_marseille","lat":43.24175,"lon":5.364,"is_reserved":false,"is_disabled":false,"rental_uris":{"android":"levelo://app?vid=62dfd99c-f976-4937-b2d0-5b50f5ae699f","ios":"levelo://app?vid=62dfd99c-f976-4937-b2d0-5b50f5ae699f"},"vehicle_type_id":"4","last_reported":1728313807,"current_range_meters":9600,"station_id":"cpo36qri1sfpv3e86is0","pricing_plan_id":"cebpf4jnsgd1na2vs0mg"},{"bike_id":"f4de0f32-0f1c-4dd3-b4ad-e20a85dcabf5","system_id":"levelo_inurba_marseille","lat":43.305,"lon":5.39366,"is_reserved":false,"is_disabled":false,"rental_uris":{"android":"levelo://app?vid=f4de0f32-0f1c-4dd3-b4ad-e20a85dcabf5","ios":"levelo://app?vid=f4de0f32-0f1c-4dd3-b4ad-e20a85dcabf5"},"vehicle_type_id":"4","last_reported":1728313807,"current_range_meters":38400,"station_id":"","pricing_plan_id":"cebpf4jnsgd1na2vs0mg"},{"bike_id":"7d8e2075-dfbf-45ea-a039-461732e9d7a3","system_id":"levelo_inurba_marseille","lat":43.26063,"lon":5.39395,"is_reserved":false,"is_disabled":false,"rental_uris":{"android":"levelo://app?vid=7d8e2075-dfbf-45ea-a039-461732e9d7a3","ios":"levelo://app?vid=7d8e2075-dfbf-45ea-a039-461732e9d7a3"},"vehicle_type_id":"4","last_reported":1728313807,"current_range_meters":12400,"station_id":"ce4bhh92rcd13ifvqfj0","pricing_plan_id":"cebpf4jnsgd1na2vs0mg"},{"bike_id":"e9676a39-f8ee-4e8c-9c08-4997084dfed5","system_id":"levelo_inurba_marseille","lat":43.29712,"lon":5.36614,"is_reserved":false,"is_disabled":false,"rental_uris":{"android":"levelo://app?vid=e9676a39-f8ee-4e8c-9c08-4997084dfed5","ios":"levelo://app?vid=e9676a39-f8ee-4e8c-9c08-4997084dfed5"},"vehicle_type_id":"4","last_reported":1728313807,"current_range_meters":38000,"station_id":"ce4bgn12rcd13ifvqbt0","pricing_plan_id":"cebpf4jnsgd1na2vs0mg"},{"bike_id":"18deaa06-d046-4706-ae6d-788e5b7bfdfe","system_id":"levelo_inurba_marseille","lat":43.29266,"lon":5.38434,"is_reserved":false,"is_disabled":false,"rental_uris":{"android":"levelo://app?vid=18deaa06-d046-4706-ae6d-788e5b7bfdfe","ios":"levelo://app?vid=18deaa06-d046-4706-ae6d-788e5b7bfdfe"},"vehicle_type_id":"4","last_reported":1728313807,"current_range_meters":39200,"station_id":"ce4bh692rcd13ifvqea0","pricing_plan_id":"cebpf4jnsgd1na2vs0mg"},{"bike_id":"e2ccd035-e2f6-4b13-8c3b-407f63e2c6d1","system_id":"levelo_inurba_marseille","lat":43.33022,"lon":5.39039,"is_reserved":false,"is_disabled":false,"rental_uris":{"android":"levelo://app?vid=e2ccd035-e2f6-4b13-8c3b-407f63e2c6d1","ios":"levelo://app?vid=e2ccd035-e2f6-4b13-8c3b-407f63e2c6d1"},"vehicle_type_id":"4","last_reported":1728313807,"current_range_meters":7200,"station_id":"ce4bhr92rcd13ifvqhrg","pricing_plan_id":"cebpf4jnsgd1na2vs0mg"},{"bike_id":"b1a2e341-1463-47b4-a3b3-aad3a717d328","system_id":"levelo_inurba_marseille","lat":43.27315,"lon":5.3908,"is_reserved":false,"is_disabled":false,"rental_uris":{"android":"levelo://app?vid=b1a2e341-1463-47b4-a3b3-aad3a717d328","ios":"levelo://app?vid=b1a2e341-1463-47b4-a3b3-aad3a717d328"},"vehicle_type_id":"4","last_reported":1728313807,"current_range_meters":4000,"station_id":"ce4bhgp2rcd13ifvqfe0","pricing_plan_id":"cebpf4jnsgd1na2vs0mg"},{"bike_id":"6911b83b-b637-45d9-9e96-b1001d5a3b6a","system_id":"levelo_inurba_marseille","lat":43.30786,"lon":5.37634,"is_reserved":false,"is_disabled":false,"rental_uris":{"android":"levelo://app?vid=6911b83b-b637-45d9-9e96-b1001d5a3b6a","ios":"levelo://app?vid=6911b83b-b637-45d9-9e96-b1001d5a3b6a"},"vehicle_type_id":"4","last_reported":1728313807,"current_range_meters":24800,"station_id":"ce4bgv92rcd13ifvqcq0","pricing_plan_id":"cebpf4jnsgd1na2vs0mg"},{"bike_id":"11d714b7-1569-4f07-831f-05b1fcaf7f1e","system_id":"levelo_inurba_marseille","lat":43.30924,"lon":5.4014,"is_reserved":false,"is_disabled":false,"rental_uris":{"android":"levelo://app?vid=11d714b7-1569-4f07-831f-05b1fcaf7f1e","ios":"levelo://app?vid=11d714b7-1569-4f07-831f-05b1fcaf7f1e"},"vehicle_type_id":"4","last_reported":1728313807,"current_range_meters":38800,"station_id":"ce4bgvp2rcd13ifvqct0","pricing_plan_id":"cebpf4jnsgd1na2vs0mg"},{"bike_id":"4af55307-045f-4c66-a045-a91d88bb4c16","system_id":"levelo_inurba_marseille","lat":43.22933,"lon":5.3538,"is_reserved":false,"is_disabled":false,"rental_uris":{"android":"levelo://app?vid=4af55307-045f-4c66-a045-a91d88bb4c16","ios":"levelo://app?vid=4af55307-045f-4c66-a045-a91d88bb4c16"},"vehicle_type_id":"4","last_reported":1728313807,"current_range_meters":26000,"station_id":"cpo3532slgdg3j2ikp40","pricing_plan_id":"cebpf4jnsgd1na2vs0mg"},{"bike_id":"aa598db1-3c3a-48c0-acd0-1929a2b13407","system_id":"levelo_inurba_marseille","lat":43.31716,"lon":5.43709,"is_reserved":false,"is_disabled":false,"rental_uris":{"android":"levelo://app?vid=aa598db1-3c3a-48c0-acd0-1929a2b13407","ios":"levelo://app?vid=aa598db1-3c3a-48c0-acd0-1929a2b13407"},"vehicle_type_id":"4","last_reported":1728313807,"current_range_meters":31200,"station_id":"ce4bhp92rcd13ifvqhcg","pricing_plan_id":"cebpf4jnsgd1na2vs0mg"},{"bike_id":"47efe985-66e3-4fb1-a00d-60851f779f19","system_id":"levelo_inurba_marseille","lat":43.32541,"lon":5.41424,"is_reserved":false,"is_disabled":false,"rental_uris":{"android":"levelo://app?vid=47efe985-66e3-4fb1-a00d-60851f779f19","ios":"levelo://app?vid=47efe985-66e3-4fb1-a00d-60851f779f19"},"vehicle_type_id":"4","last_reported":1728313807,"current_range_meters":29600,"station_id":"ce4bhq12rcd13ifvqhhg","pricing_plan_id":"cebpf4jnsgd1na2vs0mg"},{"bike_id":"6482b1fb-67cb-4384-a7c9-6c0a7b56e3b4","system_id":"levelo_inurba_marseille","lat":43.28846,"lon":5.43323,"is_reserved":false,"is_disabled":false,"rental_uris":{"android":"levelo://app?vid=6482b1fb-67cb-4384-a7c9-6c0a7b56e3b4","ios":"levelo://app?vid=6482b1fb-67cb-4384-a7c9-6c0a7b56e3b4"},"vehicle_type_id":"4","last_reported":1728313807,"current_range_meters":5600,"station_id":"","pricing_plan_id":"cebpf4jnsgd1na2vs0mg"},{"bike_id":"98c2402a-bd95-46e7-aaa1-b4b2364aa4ae","system_id":"levelo_inurba_marseille","lat":43.30089,"lon":5.39091,"is_reserved":false,"is_disabled":false,"rental_uris":{"android":"levelo://app?vid=98c2402a-bd95-46e7-aaa1-b4b2364aa4ae","ios":"levelo://app?vid=98c2402a-bd95-46e7-aaa1-b4b2364aa4ae"},"vehicle_type_id":"4","last_reported":1728313807,"current_range_meters":19600,"station_id":"ce4bh192rcd13ifvqdb0","pricing_plan_id":"cebpf4jnsgd1na2vs0mg"},{"bike_id":"31a58f65-03d4-47e2-b8c3-1566040ed6d2","system_id":"levelo_inurba_marseille","lat":43.31205,"lon":5.4179,"is_reserved":false,"is_disabled":false,"rental_uris":{"android":"levelo://app?vid=31a58f65-03d4-47e2-b8c3-1566040ed6d2","ios":"levelo://app?vid=31a58f65-03d4-47e2-b8c3-1566040ed6d2"},"vehicle_type_id":"4","last_reported":1728313807,"current_range_meters":10000,"station_id":"ce4bhop2rcd13ifvqh7g","pricing_plan_id":"cebpf4jnsgd1na2vs0mg"},{"bike_id":"97ef281f-c717-429c-a078-d6a368902950","system_id":"levelo_inurba_marseille","lat":43.24166,"lon":5.36393,"is_reserved":false,"is_disabled":false,"rental_uris":{"android":"levelo://app?vid=97ef281f-c717-429c-a078-d6a368902950","ios":"levelo://app?vid=97ef281f-c717-429c-a078-d6a368902950"},"vehicle_type_id":"4","last_reported":1728313807,"current_range_meters":18800,"station_id":"cpo36qri1sfpv3e86is0","pricing_plan_id":"cebpf4jnsgd1na2vs0mg"},{"bike_id":"57de19cd-220a-4f65-8460-f183fac1c695","system_id":"levelo_inurba_marseille","lat":43.29561,"lon":5.42294,"is_reserved":false,"is_disabled":false,"rental_uris":{"android":"levelo://app?vid=57de19cd-220a-4f65-8460-f183fac1c695","ios":"levelo://app?vid=57de19cd-220a-4f65-8460-f183fac1c695"},"vehicle_type_id":"4","last_reported":1728313807,"current_range_meters":26800,"station_id":"ce4bhph2rcd13ifvqhdg","pricing_plan_id":"cebpf4jnsgd1na2vs0mg"},{"bike_id":"8c7a88ce-3ed4-4212-a65a-9f6d49446c03","system_id":"levelo_inurba_marseille","lat":43.3237,"lon":5.38884,"is_reserved":false,"is_disabled":false,"rental_uris":{"android":"levelo://app?vid=8c7a88ce-3ed4-4212-a65a-9f6d49446c03","ios":"levelo://app?vid=8c7a88ce-3ed4-4212-a65a-9f6d49446c03"},"vehicle_type_id":"4","last_reported":1728313807,"current_range_meters":16000,"station_id":"ce4bhqp2rcd13ifvqhog","pricing_plan_id":"cebpf4jnsgd1na2vs0mg"},{"bike_id":"c12c46a4-bd86-493d-803e-5d507cd7924b","system_id":"levelo_inurba_marseille","lat":43.23193,"lon":5.35547,"is_reserved":false,"is_disabled":false,"rental_uris":{"android":"levelo://app?vid=c12c46a4-bd86-493d-803e-5d507cd7924b","ios":"levelo://app?vid=c12c46a4-bd86-493d-803e-5d507cd7924b"},"vehicle_type_id":"4","last_reported":1728313807,"current_range_meters":30800,"station_id":"ce4bhu92rcd13ifvqi70","pricing_plan_id":"cebpf4jnsgd1na2vs0mg"},{"bike_id":"8d5796b8-a6ed-48cb-b542-23a0f07d9178","system_id":"levelo_inurba_marseille","lat":43.31115,"lon":5.37757,"is_reserved":false,"is_disabled":false,"rental_uris":{"android":"levelo://app?vid=8d5796b8-a6ed-48cb-b542-23a0f07d9178","ios":"levelo://app?vid=8d5796b8-a6ed-48cb-b542-23a0f07d9178"},"vehicle_type_id":"4","last_reported":1728313807,"current_range_meters":28000,"station_id":"ce4bgt92rcd13ifvqcg0","pricing_plan_id":"cebpf4jnsgd1na2vs0mg"},{"bike_id":"d1f1bcf1-d7cd-44c5-90a9-289820d8c103","system_id":"levelo_inurba_marseille","lat":43.25494,"lon":5.37657,"is_reserved":false,"is_disabled":false,"rental_uris":{"android":"levelo://app?vid=d1f1bcf1-d7cd-44c5-90a9-289820d8c103","ios":"levelo://app?vid=d1f1bcf1-d7cd-44c5-90a9-289820d8c103"},"vehicle_type_id":"4","last_reported":1728313807,"current_range_meters":38400,"station_id":"ce4bhh12rcd13ifvqff0","pricing_plan_id":"cebpf4jnsgd1na2vs0mg"},{"bike_id":"dfefcc9f-5cf4-4c45-9ae6-d5a76d78a77b","system_id":"levelo_inurba_marseille","lat":43.31366,"lon":5.38495,"is_reserved":false,"is_disabled":false,"rental_uris":{"android":"levelo://app?vid=dfefcc9f-5cf4-4c45-9ae6-d5a76d78a77b","ios":"levelo://app?vid=dfefcc9f-5cf4-4c45-9ae6-d5a76d78a77b"},"vehicle_type_id":"4","last_reported":1728313807,"current_range_meters":38800,"station_id":"ce4bgt92rcd13ifvqcf0","pricing_plan_id":"cebpf4jnsgd1na2vs0mg"},{"bike_id":"85a8b07e-682b-4725-800e-b0749654fba5","system_id":"levelo_inurba_marseille","lat":43.24168,"lon":5.36393,"is_reserved":false,"is_disabled":false,"rental_uris":{"android":"levelo://app?vid=85a8b07e-682b-4725-800e-b0749654fba5","ios":"levelo://app?vid=85a8b07e-682b-4725-800e-b0749654fba5"},"vehicle_type_id":"4","last_reported":1728313807,"current_range_meters":23200,"station_id":"cpo36qri1sfpv3e86is0","pricing_plan_id":"cebpf4jnsgd1na2vs0mg"},{"bike_id":"200c0c84-a970-4891-9f27-f33e2ae72622","system_id":"levelo_inurba_marseille","lat":43.30788,"lon":5.37648,"is_reserved":false,"is_disabled":false,"rental_uris":{"android":"levelo://app?vid=200c0c84-a970-4891-9f27-f33e2ae72622","ios":"levelo://app?vid=200c0c84-a970-4891-9f27-f33e2ae72622"},"vehicle_type_id":"4","last_reported":1728313807,"current_range_meters":16400,"station_id":"ce4bgv92rcd13ifvqcq0","pricing_plan_id":"cebpf4jnsgd1na2vs0mg"},{"bike_id":"99f637bb-a55d-4ee5-83b0-2c7aab6ea572","system_id":"levelo_inurba_marseille","lat":43.302948,"lon":5.392195,"is_reserved":false,"is_disabled":false,"rental_uris":{"android":"levelo://app?vid=99f637bb-a55d-4ee5-83b0-2c7aab6ea572","ios":"levelo://app?vid=99f637bb-a55d-4ee5-83b0-2c7aab6ea572"},"vehicle_type_id":"4","last_reported":1728313807,"current_range_meters":28400,"station_id":"ce4bh0p2rcd13ifvqd70","pricing_plan_id":"cebpf4jnsgd1na2vs0mg"},{"bike_id":"3636387c-cdb0-4e03-9a42-81bfcae805dc","system_id":"levelo_inurba_marseille","lat":43.2904,"lon":5.3591,"is_reserved":false,"is_disabled":false,"rental_uris":{"android":"levelo://app?vid=3636387c-cdb0-4e03-9a42-81bfcae805dc","ios":"levelo://app?vid=3636387c-cdb0-4e03-9a42-81bfcae805dc"},"vehicle_type_id":"4","last_reported":1728313807,"current_range_meters":38800,"station_id":"ce4bha92rcd13ifvqeg0","pricing_plan_id":"cebpf4jnsgd1na2vs0mg"},{"bike_id":"51432522-2b1f-486b-a19c-4c1e8573425f","system_id":"levelo_inurba_marseille","lat":43.31701,"lon":5.3777,"is_reserved":false,"is_disabled":false,"rental_uris":{"android":"levelo://app?vid=51432522-2b1f-486b-a19c-4c1e8573425f","ios":"levelo://app?vid=51432522-2b1f-486b-a19c-4c1e8573425f"},"vehicle_type_id":"4","last_reported":1728313807,"current_range_meters":27200,"station_id":"ce4bgth2rcd13ifvqch0","pricing_plan_id":"cebpf4jnsgd1na2vs0mg"},{"bike_id":"7668f942-5e07-4d77-b815-02f7e3feb71e","system_id":"levelo_inurba_marseille","lat":43.28275,"lon":5.35066,"is_reserved":false,"is_disabled":false,"rental_uris":{"android":"levelo://app?vid=7668f942-5e07-4d77-b815-02f7e3feb71e","ios":"levelo://app?vid=7668f942-5e07-4d77-b815-02f7e3feb71e"},"vehicle_type_id":"4","last_reported":1728313807,"current_range_meters":34800,"station_id":"ce4bhbp2rcd13ifvqerg","pricing_plan_id":"cebpf4jnsgd1na2vs0mg"},{"bike_id":"05ddab4b-2219-453e-b9f6-9211ae63c830","system_id":"levelo_inurba_marseille","lat":43.24165,"lon":5.36394,"is_reserved":false,"is_disabled":false,"rental_uris":{"android":"levelo://app?vid=05ddab4b-2219-453e-b9f6-9211ae63c830","ios":"levelo://app?vid=05ddab4b-2219-453e-b9f6-9211ae63c830"},"vehicle_type_id":"4","last_reported":1728313807,"current_range_meters":27600,"station_id":"cpo36qri1sfpv3e86is0","pricing_plan_id":"cebpf4jnsgd1na2vs0mg"},{"bike_id":"aa6a835e-7c99-4f80-9677-a9bc58c08d09","system_id":"levelo_inurba_marseille","lat":43.26195,"lon":5.37926,"is_reserved":false,"is_disabled":false,"rental_uris":{"android":"levelo://app?vid=aa6a835e-7c99-4f80-9677-a9bc58c08d09","ios":"levelo://app?vid=aa6a835e-7c99-4f80-9677-a9bc58c08d09"},"vehicle_type_id":"4","last_reported":1728313807,"current_range_meters":38800,"station_id":"ce4bhjp2rcd13ifvqg90","pricing_plan_id":"cebpf4jnsgd1na2vs0mg"},{"bike_id":"d0ca1193-12e8-4ac2-9a60-4ae6e0040151","system_id":"levelo_inurba_marseille","lat":43.22935,"lon":5.35379,"is_reserved":false,"is_disabled":false,"rental_uris":{"android":"levelo://app?vid=d0ca1193-12e8-4ac2-9a60-4ae6e0040151","ios":"levelo://app?vid=d0ca1193-12e8-4ac2-9a60-4ae6e0040151"},"vehicle_type_id":"4","last_reported":1728313807,"current_range_meters":23200,"station_id":"cpo3532slgdg3j2ikp40","pricing_plan_id":"cebpf4jnsgd1na2vs0mg"},{"bike_id":"3dafb8e5-84bd-4b49-8ab3-75020a961a71","system_id":"levelo_inurba_marseille","lat":43.27994,"lon":5.41668,"is_reserved":false,"is_disabled":false,"rental_uris":{"android":"levelo://app?vid=3dafb8e5-84bd-4b49-8ab3-75020a961a71","ios":"levelo://app?vid=3dafb8e5-84bd-4b49-8ab3-75020a961a71"},"vehicle_type_id":"4","last_reported":1728313807,"current_range_meters":9200,"station_id":"ce4bho12rcd13ifvqh1g","pricing_plan_id":"cebpf4jnsgd1na2vs0mg"},{"bike_id":"5fd97b48-8eeb-44e8-bc7a-e8fa9d0cf5b6","system_id":"levelo_inurba_marseille","lat":43.30724,"lon":5.39707,"is_reserved":false,"is_disabled":false,"rental_uris":{"android":"levelo://app?vid=5fd97b48-8eeb-44e8-bc7a-e8fa9d0cf5b6","ios":"levelo://app?vid=5fd97b48-8eeb-44e8-bc7a-e8fa9d0cf5b6"},"vehicle_type_id":"4","last_reported":1728313807,"current_range_meters":8800,"station_id":"","pricing_plan_id":"cebpf4jnsgd1na2vs0mg"},{"bike_id":"04dd476f-a774-48a7-97ec-cb8ea6cefacf","system_id":"levelo_inurba_marseille","lat":43.26956,"lon":5.38636,"is_reserved":false,"is_disabled":false,"rental_uris":{"android":"levelo://app?vid=04dd476f-a774-48a7-97ec-cb8ea6cefacf","ios":"levelo://app?vid=04dd476f-a774-48a7-97ec-cb8ea6cefacf"},"vehicle_type_id":"4","last_reported":1728313807,"current_range_meters":35200,"station_id":"ce4bhh92rcd13ifvqfh0","pricing_plan_id":"cebpf4jnsgd1na2vs0mg"},{"bike_id":"383e6238-5106-499a-8e26-d16b81b00a77","system_id":"levelo_inurba_marseille","lat":43.299626,"lon":5.413329,"is_reserved":false,"is_disabled":false,"rental_uris":{"android":"levelo://app?vid=383e6238-5106-499a-8e26-d16b81b00a77","ios":"levelo://app?vid=383e6238-5106-499a-8e26-d16b81b00a77"},"vehicle_type_id":"4","last_reported":1728313807,"current_range_meters":20800,"station_id":"ce4bhp12rcd13ifvqh9g","pricing_plan_id":"cebpf4jnsgd1na2vs0mg"},{"bike_id":"e8f38f77-6572-42be-9296-0cbe6e7cb972","system_id":"levelo_inurba_marseille","lat":43.23054,"lon":5.35492,"is_reserved":false,"is_disabled":false,"rental_uris":{"android":"levelo://app?vid=e8f38f77-6572-42be-9296-0cbe6e7cb972","ios":"levelo://app?vid=e8f38f77-6572-42be-9296-0cbe6e7cb972"},"vehicle_type_id":"4","last_reported":1728313807,"current_range_meters":36400,"station_id":"cpo3342slgdg3j2ifvpg","pricing_plan_id":"cebpf4jnsgd1na2vs0mg"},{"bike_id":"e84ddb96-ae29-440f-9cc9-5077382cbfca","system_id":"levelo_inurba_marseille","lat":43.31327,"lon":5.39691,"is_reserved":false,"is_disabled":false,"rental_uris":{"android":"levelo://app?vid=e84ddb96-ae29-440f-9cc9-5077382cbfca","ios":"levelo://app?vid=e84ddb96-ae29-440f-9cc9-5077382cbfca"},"vehicle_type_id":"4","last_reported":1728313807,"current_range_meters":17600,"station_id":"ce4bgvp2rcd13ifvqcu0","pricing_plan_id":"cebpf4jnsgd1na2vs0mg"},{"bike_id":"6383107e-a90b-48e5-ad67-a00f3da06e6b","system_id":"levelo_inurba_marseille","lat":43.28084,"lon":5.39658,"is_reserved":false,"is_disabled":false,"rental_uris":{"android":"levelo://app?vid=6383107e-a90b-48e5-ad67-a00f3da06e6b","ios":"levelo://app?vid=6383107e-a90b-48e5-ad67-a00f3da06e6b"},"vehicle_type_id":"4","last_reported":1728313807,"current_range_meters":17600,"station_id":"ce4bho12rcd13ifvqh2g","pricing_plan_id":"cebpf4jnsgd1na2vs0mg"},{"bike_id":"5e951cfd-dd43-4c96-bd6e-55d687e0a99c","system_id":"levelo_inurba_marseille","lat":43.23181,"lon":5.39994,"is_reserved":false,"is_disabled":false,"rental_uris":{"android":"levelo://app?vid=5e951cfd-dd43-4c96-bd6e-55d687e0a99c","ios":"levelo://app?vid=5e951cfd-dd43-4c96-bd6e-55d687e0a99c"},"vehicle_type_id":"4","last_reported":1728313807,"current_range_meters":5600,"station_id":"ce4bhn12rcd13ifvqgqg","pricing_plan_id":"cebpf4jnsgd1na2vs0mg"},{"bike_id":"129d387b-3f9d-4c3c-814f-2aa397d7b971","system_id":"levelo_inurba_marseille","lat":43.28109,"lon":5.37847,"is_reserved":false,"is_disabled":false,"rental_uris":{"android":"levelo://app?vid=129d387b-3f9d-4c3c-814f-2aa397d7b971","ios":"levelo://app?vid=129d387b-3f9d-4c3c-814f-2aa397d7b971"},"vehicle_type_id":"4","last_reported":1728313807,"current_range_meters":15200,"station_id":"ce4bha12rcd13ifvqee0","pricing_plan_id":"cebpf4jnsgd1na2vs0mg"},{"bike_id":"e0eb77d5-1654-47d1-93cc-99b03faf932d","system_id":"levelo_inurba_marseille","lat":43.27172,"lon":5.40997,"is_reserved":false,"is_disabled":false,"rental_uris":{"android":"levelo://app?vid=e0eb77d5-1654-47d1-93cc-99b03faf932d","ios":"levelo://app?vid=e0eb77d5-1654-47d1-93cc-99b03faf932d"},"vehicle_type_id":"4","last_reported":1728313807,"current_range_meters":14800,"station_id":"ce4bhl12rcd13ifvqgf0","pricing_plan_id":"cebpf4jnsgd1na2vs0mg"},{"bike_id":"f4c41b39-3379-4c07-9438-a097bdc028ad","system_id":"levelo_inurba_marseille","lat":43.28273,"lon":5.3509,"is_reserved":false,"is_disabled":false,"rental_uris":{"android":"levelo://app?vid=f4c41b39-3379-4c07-9438-a097bdc028ad","ios":"levelo://app?vid=f4c41b39-3379-4c07-9438-a097bdc028ad"},"vehicle_type_id":"4","last_reported":1728313807,"current_range_meters":30000,"station_id":"ce4bhbp2rcd13ifvqerg","pricing_plan_id":"cebpf4jnsgd1na2vs0mg"},{"bike_id":"2c1e7870-9f7a-40c2-8424-de2c344276f8","system_id":"levelo_inurba_marseille","lat":43.30138,"lon":5.3877,"is_reserved":false,"is_disabled":false,"rental_uris":{"android":"levelo://app?vid=2c1e7870-9f7a-40c2-8424-de2c344276f8","ios":"levelo://app?vid=2c1e7870-9f7a-40c2-8424-de2c344276f8"},"vehicle_type_id":"4","last_reported":1728313807,"current_range_meters":32800,"station_id":"ce4bghh2rcd13ifvqb60","pricing_plan_id":"cebpf4jnsgd1na2vs0mg"},{"bike_id":"10315fd6-48d5-4b6b-b7d4-62499876786f","system_id":"levelo_inurba_marseille","lat":43.28155,"lon":5.42642,"is_reserved":false,"is_disabled":false,"rental_uris":{"android":"levelo://app?vid=10315fd6-48d5-4b6b-b7d4-62499876786f","ios":"levelo://app?vid=10315fd6-48d5-4b6b-b7d4-62499876786f"},"vehicle_type_id":"4","last_reported":1728313807,"current_range_meters":8800,"station_id":"ce4bhnh2rcd13ifvqgug","pricing_plan_id":"cebpf4jnsgd1na2vs0mg"},{"bike_id":"78770ea8-e04b-48c9-8b70-7988375e4bc3","system_id":"levelo_inurba_marseille","lat":43.295214,"lon":5.422863,"is_reserved":false,"is_disabled":false,"rental_uris":{"android":"levelo://app?vid=78770ea8-e04b-48c9-8b70-7988375e4bc3","ios":"levelo://app?vid=78770ea8-e04b-48c9-8b70-7988375e4bc3"},"vehicle_type_id":"4","last_reported":1728313807,"current_range_meters":19200,"station_id":"ce4bhph2rcd13ifvqhdg","pricing_plan_id":"cebpf4jnsgd1na2vs0mg"},{"bike_id":"4378a0dd-7ddd-4246-9294-1e2af02e0700","system_id":"levelo_inurba_marseille","lat":43.23198,"lon":5.35554,"is_reserved":false,"is_disabled":false,"rental_uris":{"android":"levelo://app?vid=4378a0dd-7ddd-4246-9294-1e2af02e0700","ios":"levelo://app?vid=4378a0dd-7ddd-4246-9294-1e2af02e0700"},"vehicle_type_id":"4","last_reported":1728313807,"current_range_meters":4000,"station_id":"ce4bhu92rcd13ifvqi70","pricing_plan_id":"cebpf4jnsgd1na2vs0mg"},{"bike_id":"c95bac08-414b-4ecc-b8c7-d823120fdeba","system_id":"levelo_inurba_marseille","lat":43.29023,"lon":5.38637,"is_reserved":false,"is_disabled":false,"rental_uris":{"android":"levelo://app?vid=c95bac08-414b-4ecc-b8c7-d823120fdeba","ios":"levelo://app?vid=c95bac08-414b-4ecc-b8c7-d823120fdeba"},"vehicle_type_id":"4","last_reported":1728313807,"current_range_meters":5600,"station_id":"ce4bh4p2rcd13ifvqe0g","pricing_plan_id":"cebpf4jnsgd1na2vs0mg"},{"bike_id":"8ff15290-42d7-4b64-aeb1-4bc05ed60e19","system_id":"levelo_inurba_marseille","lat":43.287659,"lon":5.390059,"is_reserved":false,"is_disabled":false,"rental_uris":{"android":"levelo://app?vid=8ff15290-42d7-4b64-aeb1-4bc05ed60e19","ios":"levelo://app?vid=8ff15290-42d7-4b64-aeb1-4bc05ed60e19"},"vehicle_type_id":"4","last_reported":1728313807,"current_range_meters":33200,"station_id":"ce4bh4p2rcd13ifvqe1g","pricing_plan_id":"cebpf4jnsgd1na2vs0mg"},{"bike_id":"fbe13ee7-bbb5-4ef0-8c22-5128f572da39","system_id":"levelo_inurba_marseille","lat":43.31325,"lon":5.39692,"is_reserved":false,"is_disabled":false,"rental_uris":{"android":"levelo://app?vid=fbe13ee7-bbb5-4ef0-8c22-5128f572da39","ios":"levelo://app?vid=fbe13ee7-bbb5-4ef0-8c22-5128f572da39"},"vehicle_type_id":"4","last_reported":1728313807,"current_range_meters":28000,"station_id":"ce4bgvp2rcd13ifvqcu0","pricing_plan_id":"cebpf4jnsgd1na2vs0mg"},{"bike_id":"7234181f-ecfc-4ed9-9161-a208760d5874","system_id":"levelo_inurba_marseille","lat":43.29869,"lon":5.39732,"is_reserved":false,"is_disabled":false,"rental_uris":{"android":"levelo://app?vid=7234181f-ecfc-4ed9-9161-a208760d5874","ios":"levelo://app?vid=7234181f-ecfc-4ed9-9161-a208760d5874"},"vehicle_type_id":"4","last_reported":1728313807,"current_range_meters":25600,"station_id":"ce4bh0h2rcd13ifvqd50","pricing_plan_id":"cebpf4jnsgd1na2vs0mg"},{"bike_id":"97a742ae-2fde-4077-ad89-fadcc5cc2906","system_id":"levelo_inurba_marseille","lat":43.28449,"lon":5.39209,"is_reserved":false,"is_disabled":false,"rental_uris":{"android":"levelo://app?vid=97a742ae-2fde-4077-ad89-fadcc5cc2906","ios":"levelo://app?vid=97a742ae-2fde-4077-ad89-fadcc5cc2906"},"vehicle_type_id":"4","last_reported":1728313807,"current_range_meters":32800,"station_id":"ce4bhoh2rcd13ifvqh5g","pricing_plan_id":"cebpf4jnsgd1na2vs0mg"},{"bike_id":"d3714612-10b7-4f5b-a136-0a6d5d45e54d","system_id":"levelo_inurba_marseille","lat":43.31757,"lon":5.39015,"is_reserved":false,"is_disabled":false,"rental_uris":{"android":"levelo://app?vid=d3714612-10b7-4f5b-a136-0a6d5d45e54d","ios":"levelo://app?vid=d3714612-10b7-4f5b-a136-0a6d5d45e54d"},"vehicle_type_id":"4","last_reported":1728313807,"current_range_meters":7200,"station_id":"ce4bhqp2rcd13ifvqhng","pricing_plan_id":"cebpf4jnsgd1na2vs0mg"},{"bike_id":"12ba70a1-500f-4b40-802b-4272163fe417","system_id":"levelo_inurba_marseille","lat":43.296326,"lon":5.377116,"is_reserved":false,"is_disabled":false,"rental_uris":{"android":"levelo://app?vid=12ba70a1-500f-4b40-802b-4272163fe417","ios":"levelo://app?vid=12ba70a1-500f-4b40-802b-4272163fe417"},"vehicle_type_id":"4","last_reported":1728313807,"current_range_meters":7200,"station_id":"ce4bgi92rcd13ifvqb90","pricing_plan_id":"cebpf4jnsgd1na2vs0mg"},{"bike_id":"8c9d3733-168f-4426-863c-f6c97950eb9a","system_id":"levelo_inurba_marseille","lat":43.31117,"lon":5.37769,"is_reserved":false,"is_disabled":false,"rental_uris":{"android":"levelo://app?vid=8c9d3733-168f-4426-863c-f6c97950eb9a","ios":"levelo://app?vid=8c9d3733-168f-4426-863c-f6c97950eb9a"},"vehicle_type_id":"4","last_reported":1728313807,"current_range_meters":8000,"station_id":"ce4bgt92rcd13ifvqcg0","pricing_plan_id":"cebpf4jnsgd1na2vs0mg"},{"bike_id":"93d45870-2e1c-4ed1-9664-7b219a4ed443","system_id":"levelo_inurba_marseille","lat":43.22931,"lon":5.35382,"is_reserved":false,"is_disabled":false,"rental_uris":{"android":"levelo://app?vid=93d45870-2e1c-4ed1-9664-7b219a4ed443","ios":"levelo://app?vid=93d45870-2e1c-4ed1-9664-7b219a4ed443"},"vehicle_type_id":"4","last_reported":1728313807,"current_range_meters":36400,"station_id":"cpo3532slgdg3j2ikp40","pricing_plan_id":"cebpf4jnsgd1na2vs0mg"},{"bike_id":"3ec4f08c-4c49-45fc-8d63-1405d5a5553d","system_id":"levelo_inurba_marseille","lat":43.2987,"lon":5.39725,"is_reserved":false,"is_disabled":false,"rental_uris":{"android":"levelo://app?vid=3ec4f08c-4c49-45fc-8d63-1405d5a5553d","ios":"levelo://app?vid=3ec4f08c-4c49-45fc-8d63-1405d5a5553d"},"vehicle_type_id":"4","last_reported":1728313807,"current_range_meters":14400,"station_id":"ce4bh0h2rcd13ifvqd50","pricing_plan_id":"cebpf4jnsgd1na2vs0mg"},{"bike_id":"6e512044-ef12-457b-bcca-26bd86c5618a","system_id":"levelo_inurba_marseille","lat":43.23061,"lon":5.3549,"is_reserved":false,"is_disabled":false,"rental_uris":{"android":"levelo://app?vid=6e512044-ef12-457b-bcca-26bd86c5618a","ios":"levelo://app?vid=6e512044-ef12-457b-bcca-26bd86c5618a"},"vehicle_type_id":"4","last_reported":1728313807,"current_range_meters":36400,"station_id":"cpo3342slgdg3j2ifvpg","pricing_plan_id":"cebpf4jnsgd1na2vs0mg"},{"bike_id":"af3e9575-0c57-4cdb-b1d1-46c9d4588ced","system_id":"levelo_inurba_marseille","lat":43.33724,"lon":5.39196,"is_reserved":false,"is_disabled":false,"rental_uris":{"android":"levelo://app?vid=af3e9575-0c57-4cdb-b1d1-46c9d4588ced","ios":"levelo://app?vid=af3e9575-0c57-4cdb-b1d1-46c9d4588ced"},"vehicle_type_id":"4","last_reported":1728313807,"current_range_meters":800,"station_id":"ce4bhr92rcd13ifvqhsg","pricing_plan_id":"cebpf4jnsgd1na2vs0mg"},{"bike_id":"8ac7dc23-479b-4537-9571-b3045c5ee708","system_id":"levelo_inurba_marseille","lat":43.26943,"lon":5.40255,"is_reserved":false,"is_disabled":false,"rental_uris":{"android":"levelo://app?vid=8ac7dc23-479b-4537-9571-b3045c5ee708","ios":"levelo://app?vid=8ac7dc23-479b-4537-9571-b3045c5ee708"},"vehicle_type_id":"4","last_reported":1728313807,"current_range_meters":20800,"station_id":"cjm6bp8fraef2m0cb0m0","pricing_plan_id":"cebpf4jnsgd1na2vs0mg"},{"bike_id":"385b1e92-0cd5-4282-905d-2e075ac555ed","system_id":"levelo_inurba_marseille","lat":43.29785,"lon":5.37099,"is_reserved":false,"is_disabled":false,"rental_uris":{"android":"levelo://app?vid=385b1e92-0cd5-4282-905d-2e075ac555ed","ios":"levelo://app?vid=385b1e92-0cd5-4282-905d-2e075ac555ed"},"vehicle_type_id":"4","last_reported":1728313807,"current_range_meters":35200,"station_id":"ce4bgop2rcd13ifvqc1g","pricing_plan_id":"cebpf4jnsgd1na2vs0mg"},{"bike_id":"270b90ca-7521-4165-af49-e1c727e5fa34","system_id":"levelo_inurba_marseille","lat":43.24165,"lon":5.36395,"is_reserved":false,"is_disabled":false,"rental_uris":{"android":"levelo://app?vid=270b90ca-7521-4165-af49-e1c727e5fa34","ios":"levelo://app?vid=270b90ca-7521-4165-af49-e1c727e5fa34"},"vehicle_type_id":"4","last_reported":1728313807,"current_range_meters":28400,"station_id":"cpo36qri1sfpv3e86is0","pricing_plan_id":"cebpf4jnsgd1na2vs0mg"},{"bike_id":"1c6c58c3-e803-47d0-aae9-62fa2a62056c","system_id":"levelo_inurba_marseille","lat":43.23069,"lon":5.35492,"is_reserved":false,"is_disabled":false,"rental_uris":{"android":"levelo://app?vid=1c6c58c3-e803-47d0-aae9-62fa2a62056c","ios":"levelo://app?vid=1c6c58c3-e803-47d0-aae9-62fa2a62056c"},"vehicle_type_id":"4","last_reported":1728313807,"current_range_meters":24800,"station_id":"cpo3342slgdg3j2ifvpg","pricing_plan_id":"cebpf4jnsgd1na2vs0mg"},{"bike_id":"23a3d0ef-65be-465f-85f1-7077570bef6b","system_id":"levelo_inurba_marseille","lat":43.295772,"lon":5.378161,"is_reserved":false,"is_disabled":false,"rental_uris":{"android":"levelo://app?vid=23a3d0ef-65be-465f-85f1-7077570bef6b","ios":"levelo://app?vid=23a3d0ef-65be-465f-85f1-7077570bef6b"},"vehicle_type_id":"4","last_reported":1728313807,"current_range_meters":30000,"station_id":"ce4bgkh2rcd13ifvqbl0","pricing_plan_id":"cebpf4jnsgd1na2vs0mg"},{"bike_id":"8ed1ff55-62df-43d5-8643-8e2b3102d1e9","system_id":"levelo_inurba_marseille","lat":43.25499,"lon":5.37657,"is_reserved":false,"is_disabled":false,"rental_uris":{"android":"levelo://app?vid=8ed1ff55-62df-43d5-8643-8e2b3102d1e9","ios":"levelo://app?vid=8ed1ff55-62df-43d5-8643-8e2b3102d1e9"},"vehicle_type_id":"4","last_reported":1728313807,"current_range_meters":19600,"station_id":"ce4bhh12rcd13ifvqff0","pricing_plan_id":"cebpf4jnsgd1na2vs0mg"},{"bike_id":"36ce7bd9-8557-4fa1-b635-55b5a0b1fac8","system_id":"levelo_inurba_marseille","lat":43.31085,"lon":5.42429,"is_reserved":false,"is_disabled":false,"rental_uris":{"android":"levelo://app?vid=36ce7bd9-8557-4fa1-b635-55b5a0b1fac8","ios":"levelo://app?vid=36ce7bd9-8557-4fa1-b635-55b5a0b1fac8"},"vehicle_type_id":"4","last_reported":1728313807,"current_range_meters":38800,"station_id":"ce4bhp92rcd13ifvqhag","pricing_plan_id":"cebpf4jnsgd1na2vs0mg"},{"bike_id":"7f6742f8-1f89-4a3b-830a-71cdb5514de4","system_id":"levelo_inurba_marseille","lat":43.31121,"lon":5.37771,"is_reserved":false,"is_disabled":false,"rental_uris":{"android":"levelo://app?vid=7f6742f8-1f89-4a3b-830a-71cdb5514de4","ios":"levelo://app?vid=7f6742f8-1f89-4a3b-830a-71cdb5514de4"},"vehicle_type_id":"4","last_reported":1728313807,"current_range_meters":34000,"station_id":"ce4bgt92rcd13ifvqcg0","pricing_plan_id":"cebpf4jnsgd1na2vs0mg"},{"bike_id":"afc96649-6801-48d3-bfc0-647ddc1fcf84","system_id":"levelo_inurba_marseille","lat":43.312469,"lon":5.401623,"is_reserved":false,"is_disabled":false,"rental_uris":{"android":"levelo://app?vid=afc96649-6801-48d3-bfc0-647ddc1fcf84","ios":"levelo://app?vid=afc96649-6801-48d3-bfc0-647ddc1fcf84"},"vehicle_type_id":"4","last_reported":1728313807,"current_range_meters":30800,"station_id":"ce4bh092rcd13ifvqd30","pricing_plan_id":"cebpf4jnsgd1na2vs0mg"},{"bike_id":"e77a5168-df9e-4cba-8a47-066649b8c49b","system_id":"levelo_inurba_marseille","lat":43.26555,"lon":5.37287,"is_reserved":false,"is_disabled":false,"rental_uris":{"android":"levelo://app?vid=e77a5168-df9e-4cba-8a47-066649b8c49b","ios":"levelo://app?vid=e77a5168-df9e-4cba-8a47-066649b8c49b"},"vehicle_type_id":"4","last_reported":1728313807,"current_range_meters":6000,"station_id":"ce4bhg12rcd13ifvqf70","pricing_plan_id":"cebpf4jnsgd1na2vs0mg"},{"bike_id":"290773d5-b926-4243-8d8a-8fd9729f3ffd","system_id":"levelo_inurba_marseille","lat":43.255005,"lon":5.376503,"is_reserved":false,"is_disabled":false,"rental_uris":{"android":"levelo://app?vid=290773d5-b926-4243-8d8a-8fd9729f3ffd","ios":"levelo://app?vid=290773d5-b926-4243-8d8a-8fd9729f3ffd"},"vehicle_type_id":"4","last_reported":1728313807,"current_range_meters":28800,"station_id":"ce4bhh12rcd13ifvqff0","pricing_plan_id":"cebpf4jnsgd1na2vs0mg"},{"bike_id":"ca150432-5632-417f-a220-d6e10e3598a2","system_id":"levelo_inurba_marseille","lat":43.29893,"lon":5.43656,"is_reserved":false,"is_disabled":false,"rental_uris":{"android":"levelo://app?vid=ca150432-5632-417f-a220-d6e10e3598a2","ios":"levelo://app?vid=ca150432-5632-417f-a220-d6e10e3598a2"},"vehicle_type_id":"4","last_reported":1728313807,"current_range_meters":38800,"station_id":"ce4bhpp2rcd13ifvqhfg","pricing_plan_id":"cebpf4jnsgd1na2vs0mg"},{"bike_id":"6fea6536-76dc-430b-b546-c9439597e325","system_id":"levelo_inurba_marseille","lat":43.27175,"lon":5.40993,"is_reserved":false,"is_disabled":false,"rental_uris":{"android":"levelo://app?vid=6fea6536-76dc-430b-b546-c9439597e325","ios":"levelo://app?vid=6fea6536-76dc-430b-b546-c9439597e325"},"vehicle_type_id":"4","last_reported":1728313807,"current_range_meters":34800,"station_id":"ce4bhl12rcd13ifvqgf0","pricing_plan_id":"cebpf4jnsgd1na2vs0mg"},{"bike_id":"54aa5eb9-9091-4337-b13d-0d82b7987e1a","system_id":"levelo_inurba_marseille","lat":43.3117,"lon":5.38724,"is_reserved":false,"is_disabled":false,"rental_uris":{"android":"levelo://app?vid=54aa5eb9-9091-4337-b13d-0d82b7987e1a","ios":"levelo://app?vid=54aa5eb9-9091-4337-b13d-0d82b7987e1a"},"vehicle_type_id":"4","last_reported":1728313807,"current_range_meters":36400,"station_id":"ce4bgv12rcd13ifvqcp0","pricing_plan_id":"cebpf4jnsgd1na2vs0mg"},{"bike_id":"810c56fc-9d75-48ab-b949-5063e3a536f8","system_id":"levelo_inurba_marseille","lat":43.30799,"lon":5.43526,"is_reserved":false,"is_disabled":false,"rental_uris":{"android":"levelo://app?vid=810c56fc-9d75-48ab-b949-5063e3a536f8","ios":"levelo://app?vid=810c56fc-9d75-48ab-b949-5063e3a536f8"},"vehicle_type_id":"4","last_reported":1728313807,"current_range_meters":38800,"station_id":"ce4bhph2rcd13ifvqheg","pricing_plan_id":"cebpf4jnsgd1na2vs0mg"},{"bike_id":"ab0ef8f6-2d64-477f-ab35-7e54daa51f0f","system_id":"levelo_inurba_marseille","lat":43.31712,"lon":5.4371,"is_reserved":false,"is_disabled":false,"rental_uris":{"android":"levelo://app?vid=ab0ef8f6-2d64-477f-ab35-7e54daa51f0f","ios":"levelo://app?vid=ab0ef8f6-2d64-477f-ab35-7e54daa51f0f"},"vehicle_type_id":"4","last_reported":1728313807,"current_range_meters":25200,"station_id":"ce4bhp92rcd13ifvqhcg","pricing_plan_id":"cebpf4jnsgd1na2vs0mg"},{"bike_id":"c45340a7-5257-408a-897a-01994bd38219","system_id":"levelo_inurba_marseille","lat":43.28469,"lon":5.35891,"is_reserved":false,"is_disabled":false,"rental_uris":{"android":"levelo://app?vid=c45340a7-5257-408a-897a-01994bd38219","ios":"levelo://app?vid=c45340a7-5257-408a-897a-01994bd38219"},"vehicle_type_id":"4","last_reported":1728313807,"current_range_meters":7200,"station_id":"ce4bhah2rcd13ifvqei0","pricing_plan_id":"cebpf4jnsgd1na2vs0mg"},{"bike_id":"54a855ca-e675-42d8-bc9c-cbe6dd7e6ffc","system_id":"levelo_inurba_marseille","lat":43.30129,"lon":5.38784,"is_reserved":false,"is_disabled":false,"rental_uris":{"android":"levelo://app?vid=54a855ca-e675-42d8-bc9c-cbe6dd7e6ffc","ios":"levelo://app?vid=54a855ca-e675-42d8-bc9c-cbe6dd7e6ffc"},"vehicle_type_id":"4","last_reported":1728313807,"current_range_meters":30800,"station_id":"ce4bgv12rcd13ifvqcp0","pricing_plan_id":"cebpf4jnsgd1na2vs0mg"},{"bike_id":"606dd62b-d351-4368-a951-6d0adc3ed87e","system_id":"levelo_inurba_marseille","lat":43.26555,"lon":5.37295,"is_reserved":false,"is_disabled":false,"rental_uris":{"android":"levelo://app?vid=606dd62b-d351-4368-a951-6d0adc3ed87e","ios":"levelo://app?vid=606dd62b-d351-4368-a951-6d0adc3ed87e"},"vehicle_type_id":"4","last_reported":1728313807,"current_range_meters":8800,"station_id":"ce4bhg12rcd13ifvqf70","pricing_plan_id":"cebpf4jnsgd1na2vs0mg"},{"bike_id":"f7612392-4f4b-453b-a64c-499de3c2600f","system_id":"levelo_inurba_marseille","lat":43.24172,"lon":5.36388,"is_reserved":false,"is_disabled":false,"rental_uris":{"android":"levelo://app?vid=f7612392-4f4b-453b-a64c-499de3c2600f","ios":"levelo://app?vid=f7612392-4f4b-453b-a64c-499de3c2600f"},"vehicle_type_id":"4","last_reported":1728313807,"current_range_meters":36400,"station_id":"cpo36qri1sfpv3e86is0","pricing_plan_id":"cebpf4jnsgd1na2vs0mg"},{"bike_id":"e1dfb925-b0e1-4332-b662-2e3e8e12a5dc","system_id":"levelo_inurba_marseille","lat":43.278833,"lon":5.380424,"is_reserved":false,"is_disabled":false,"rental_uris":{"android":"levelo://app?vid=e1dfb925-b0e1-4332-b662-2e3e8e12a5dc","ios":"levelo://app?vid=e1dfb925-b0e1-4332-b662-2e3e8e12a5dc"},"vehicle_type_id":"4","last_reported":1728313807,"current_range_meters":8000,"station_id":"ce4bhf92rcd13ifvqf50","pricing_plan_id":"cebpf4jnsgd1na2vs0mg"},{"bike_id":"aa9eaa42-01e5-47fe-bebd-fff8e74b1100","system_id":"levelo_inurba_marseille","lat":43.26936,"lon":5.40267,"is_reserved":false,"is_disabled":false,"rental_uris":{"android":"levelo://app?vid=aa9eaa42-01e5-47fe-bebd-fff8e74b1100","ios":"levelo://app?vid=aa9eaa42-01e5-47fe-bebd-fff8e74b1100"},"vehicle_type_id":"4","last_reported":1728313807,"current_range_meters":12400,"station_id":"cjm6bp8fraef2m0cb0m0","pricing_plan_id":"cebpf4jnsgd1na2vs0mg"},{"bike_id":"9a873b21-4325-4346-9f74-80b6d80ab720","system_id":"levelo_inurba_marseille","lat":43.26946,"lon":5.38631,"is_reserved":false,"is_disabled":false,"rental_uris":{"android":"levelo://app?vid=9a873b21-4325-4346-9f74-80b6d80ab720","ios":"levelo://app?vid=9a873b21-4325-4346-9f74-80b6d80ab720"},"vehicle_type_id":"4","last_reported":1728313807,"current_range_meters":21600,"station_id":"ce4bhh92rcd13ifvqfh0","pricing_plan_id":"cebpf4jnsgd1na2vs0mg"},{"bike_id":"df63a91f-05d1-41c8-851f-a0dfcfb62e42","system_id":"levelo_inurba_marseille","lat":43.24399,"lon":5.37053,"is_reserved":false,"is_disabled":false,"rental_uris":{"android":"levelo://app?vid=df63a91f-05d1-41c8-851f-a0dfcfb62e42","ios":"levelo://app?vid=df63a91f-05d1-41c8-851f-a0dfcfb62e42"},"vehicle_type_id":"4","last_reported":1728313807,"current_range_meters":16800,"station_id":"ce4bhhh2rcd13ifvqfk0","pricing_plan_id":"cebpf4jnsgd1na2vs0mg"},{"bike_id":"68655d3f-44bf-4a87-a8b5-723f335035d9","system_id":"levelo_inurba_marseille","lat":43.30537,"lon":5.3671,"is_reserved":false,"is_disabled":false,"rental_uris":{"android":"levelo://app?vid=68655d3f-44bf-4a87-a8b5-723f335035d9","ios":"levelo://app?vid=68655d3f-44bf-4a87-a8b5-723f335035d9"},"vehicle_type_id":"4","last_reported":1728313807,"current_range_meters":12800,"station_id":"ce4bgrp2rcd13ifvqc9g","pricing_plan_id":"cebpf4jnsgd1na2vs0mg"},{"bike_id":"a04aea4f-d1e5-4084-9be4-eda0a1e29217","system_id":"levelo_inurba_marseille","lat":43.30791,"lon":5.37633,"is_reserved":false,"is_disabled":false,"rental_uris":{"android":"levelo://app?vid=a04aea4f-d1e5-4084-9be4-eda0a1e29217","ios":"levelo://app?vid=a04aea4f-d1e5-4084-9be4-eda0a1e29217"},"vehicle_type_id":"4","last_reported":1728313807,"current_range_meters":34000,"station_id":"ce4bgv92rcd13ifvqcq0","pricing_plan_id":"cebpf4jnsgd1na2vs0mg"},{"bike_id":"18561caf-83f6-436d-980a-47fefb400d1b","system_id":"levelo_inurba_marseille","lat":43.24658,"lon":5.38898,"is_reserved":false,"is_disabled":false,"rental_uris":{"android":"levelo://app?vid=18561caf-83f6-436d-980a-47fefb400d1b","ios":"levelo://app?vid=18561caf-83f6-436d-980a-47fefb400d1b"},"vehicle_type_id":"4","last_reported":1728313807,"current_range_meters":38800,"station_id":"ce4bhg12rcd13ifvqf60","pricing_plan_id":"cebpf4jnsgd1na2vs0mg"},{"bike_id":"74793ccc-3beb-4d3f-9f7d-5a36630ca0ac","system_id":"levelo_inurba_marseille","lat":43.29701,"lon":5.37171,"is_reserved":false,"is_disabled":false,"rental_uris":{"android":"levelo://app?vid=74793ccc-3beb-4d3f-9f7d-5a36630ca0ac","ios":"levelo://app?vid=74793ccc-3beb-4d3f-9f7d-5a36630ca0ac"},"vehicle_type_id":"4","last_reported":1728313807,"current_range_meters":35600,"station_id":"ce4bgk12rcd13ifvqbj0","pricing_plan_id":"cebpf4jnsgd1na2vs0mg"},{"bike_id":"b77047c6-c53c-42c1-a4fa-83662285b199","system_id":"levelo_inurba_marseille","lat":43.28607,"lon":5.3707,"is_reserved":false,"is_disabled":false,"rental_uris":{"android":"levelo://app?vid=b77047c6-c53c-42c1-a4fa-83662285b199","ios":"levelo://app?vid=b77047c6-c53c-42c1-a4fa-83662285b199"},"vehicle_type_id":"4","last_reported":1728313807,"current_range_meters":30000,"station_id":"ce4bht12rcd13ifvqi60","pricing_plan_id":"cebpf4jnsgd1na2vs0mg"},{"bike_id":"16f2623b-8d6e-4528-b0c1-3479f17c28a9","system_id":"levelo_inurba_marseille","lat":43.2781,"lon":5.40715,"is_reserved":false,"is_disabled":false,"rental_uris":{"android":"levelo://app?vid=16f2623b-8d6e-4528-b0c1-3479f17c28a9","ios":"levelo://app?vid=16f2623b-8d6e-4528-b0c1-3479f17c28a9"},"vehicle_type_id":"4","last_reported":1728313807,"current_range_meters":14000,"station_id":"ce4bhnh2rcd13ifvqgtg","pricing_plan_id":"cebpf4jnsgd1na2vs0mg"},{"bike_id":"ac628847-21d5-434d-9db9-532fbbed3684","system_id":"levelo_inurba_marseille","lat":43.27575,"lon":5.38429,"is_reserved":false,"is_disabled":false,"rental_uris":{"android":"levelo://app?vid=ac628847-21d5-434d-9db9-532fbbed3684","ios":"levelo://app?vid=ac628847-21d5-434d-9db9-532fbbed3684"},"vehicle_type_id":"4","last_reported":1728313807,"current_range_meters":30800,"station_id":"ce4bhh92rcd13ifvqfi0","pricing_plan_id":"cebpf4jnsgd1na2vs0mg"},{"bike_id":"884ed9e9-43dd-47b7-9519-28f1e45cdeb9","system_id":"levelo_inurba_marseille","lat":43.29311,"lon":5.37178,"is_reserved":false,"is_disabled":false,"rental_uris":{"android":"levelo://app?vid=884ed9e9-43dd-47b7-9519-28f1e45cdeb9","ios":"levelo://app?vid=884ed9e9-43dd-47b7-9519-28f1e45cdeb9"},"vehicle_type_id":"4","last_reported":1728313807,"current_range_meters":2000,"station_id":"ce4bgh92rcd13ifvqb40","pricing_plan_id":"cebpf4jnsgd1na2vs0mg"},{"bike_id":"f5abf5f7-e4fc-462f-895f-7e4b09120aaf","system_id":"levelo_inurba_marseille","lat":43.323363,"lon":5.406212,"is_reserved":false,"is_disabled":false,"rental_uris":{"android":"levelo://app?vid=f5abf5f7-e4fc-462f-895f-7e4b09120aaf","ios":"levelo://app?vid=f5abf5f7-e4fc-462f-895f-7e4b09120aaf"},"vehicle_type_id":"4","last_reported":1728313807,"current_range_meters":3600,"station_id":"ce4bhq92rcd13ifvqhjg","pricing_plan_id":"cebpf4jnsgd1na2vs0mg"},{"bike_id":"99620788-164c-4d4d-9da8-8745055ec57c","system_id":"levelo_inurba_marseille","lat":43.30547,"lon":5.36708,"is_reserved":false,"is_disabled":false,"rental_uris":{"android":"levelo://app?vid=99620788-164c-4d4d-9da8-8745055ec57c","ios":"levelo://app?vid=99620788-164c-4d4d-9da8-8745055ec57c"},"vehicle_type_id":"4","last_reported":1728313807,"current_range_meters":8000,"station_id":"ce4bgrp2rcd13ifvqc9g","pricing_plan_id":"cebpf4jnsgd1na2vs0mg"},{"bike_id":"5ed11473-bbe6-414c-8725-55dbeba2a4af","system_id":"levelo_inurba_marseille","lat":43.29025,"lon":5.38615,"is_reserved":false,"is_disabled":false,"rental_uris":{"android":"levelo://app?vid=5ed11473-bbe6-414c-8725-55dbeba2a4af","ios":"levelo://app?vid=5ed11473-bbe6-414c-8725-55dbeba2a4af"},"vehicle_type_id":"4","last_reported":1728313807,"current_range_meters":38000,"station_id":"ce4bh4p2rcd13ifvqe0g","pricing_plan_id":"cebpf4jnsgd1na2vs0mg"},{"bike_id":"7135ea16-e4cc-42fe-a1af-0df9f0e74d04","system_id":"levelo_inurba_marseille","lat":43.29177,"lon":5.37168,"is_reserved":false,"is_disabled":false,"rental_uris":{"android":"levelo://app?vid=7135ea16-e4cc-42fe-a1af-0df9f0e74d04","ios":"levelo://app?vid=7135ea16-e4cc-42fe-a1af-0df9f0e74d04"},"vehicle_type_id":"4","last_reported":1728313807,"current_range_meters":38800,"station_id":"ce4bha92rcd13ifvqeh0","pricing_plan_id":"cebpf4jnsgd1na2vs0mg"},{"bike_id":"5a0e4884-ec03-4c64-b89d-abb274bb2439","system_id":"levelo_inurba_marseille","lat":43.29262,"lon":5.40917,"is_reserved":false,"is_disabled":false,"rental_uris":{"android":"levelo://app?vid=5a0e4884-ec03-4c64-b89d-abb274bb2439","ios":"levelo://app?vid=5a0e4884-ec03-4c64-b89d-abb274bb2439"},"vehicle_type_id":"4","last_reported":1728313807,"current_range_meters":12800,"station_id":"ce4bh192rcd13ifvqdc0","pricing_plan_id":"cebpf4jnsgd1na2vs0mg"},{"bike_id":"fefa5645-c310-4d56-bf70-e3cbbc15a52e","system_id":"levelo_inurba_marseille","lat":43.29374,"lon":5.37835,"is_reserved":false,"is_disabled":false,"rental_uris":{"android":"levelo://app?vid=fefa5645-c310-4d56-bf70-e3cbbc15a52e","ios":"levelo://app?vid=fefa5645-c310-4d56-bf70-e3cbbc15a52e"},"vehicle_type_id":"4","last_reported":1728313807,"current_range_meters":28000,"station_id":"ce4bgjh2rcd13ifvqbf0","pricing_plan_id":"cebpf4jnsgd1na2vs0mg"},{"bike_id":"9d8772ad-50c9-4904-9418-0e104ea09403","system_id":"levelo_inurba_marseille","lat":43.29371,"lon":5.37856,"is_reserved":false,"is_disabled":false,"rental_uris":{"android":"levelo://app?vid=9d8772ad-50c9-4904-9418-0e104ea09403","ios":"levelo://app?vid=9d8772ad-50c9-4904-9418-0e104ea09403"},"vehicle_type_id":"4","last_reported":1728313807,"current_range_meters":37600,"station_id":"ce4bgjh2rcd13ifvqbf0","pricing_plan_id":"cebpf4jnsgd1na2vs0mg"},{"bike_id":"d6c19423-f405-4736-b193-ffdda63d493e","system_id":"levelo_inurba_marseille","lat":43.29582,"lon":5.3675,"is_reserved":false,"is_disabled":false,"rental_uris":{"android":"levelo://app?vid=d6c19423-f405-4736-b193-ffdda63d493e","ios":"levelo://app?vid=d6c19423-f405-4736-b193-ffdda63d493e"},"vehicle_type_id":"4","last_reported":1728313807,"current_range_meters":17200,"station_id":"ce4bgph2rcd13ifvqc2g","pricing_plan_id":"cebpf4jnsgd1na2vs0mg"},{"bike_id":"ad3d18c9-fa55-41ed-b851-2d8ac93a9945","system_id":"levelo_inurba_marseille","lat":43.2956,"lon":5.42291,"is_reserved":false,"is_disabled":false,"rental_uris":{"android":"levelo://app?vid=ad3d18c9-fa55-41ed-b851-2d8ac93a9945","ios":"levelo://app?vid=ad3d18c9-fa55-41ed-b851-2d8ac93a9945"},"vehicle_type_id":"4","last_reported":1728313807,"current_range_meters":38800,"station_id":"ce4bhph2rcd13ifvqhdg","pricing_plan_id":"cebpf4jnsgd1na2vs0mg"},{"bike_id":"035169f9-3688-40e7-b630-6e0665ca7977","system_id":"levelo_inurba_marseille","lat":43.27817,"lon":5.40724,"is_reserved":false,"is_disabled":false,"rental_uris":{"android":"levelo://app?vid=035169f9-3688-40e7-b630-6e0665ca7977","ios":"levelo://app?vid=035169f9-3688-40e7-b630-6e0665ca7977"},"vehicle_type_id":"4","last_reported":1728313807,"current_range_meters":28800,"station_id":"ce4bhnh2rcd13ifvqgtg","pricing_plan_id":"cebpf4jnsgd1na2vs0mg"},{"bike_id":"969ee96f-4c0c-4784-aff3-e8ce55330f69","system_id":"levelo_inurba_marseille","lat":43.30433,"lon":5.39745,"is_reserved":false,"is_disabled":false,"rental_uris":{"android":"levelo://app?vid=969ee96f-4c0c-4784-aff3-e8ce55330f69","ios":"levelo://app?vid=969ee96f-4c0c-4784-aff3-e8ce55330f69"},"vehicle_type_id":"4","last_reported":1728313807,"current_range_meters":30000,"station_id":"ce4bh092rcd13ifvqd20","pricing_plan_id":"cebpf4jnsgd1na2vs0mg"},{"bike_id":"7015adda-36ba-490e-9041-0df976d3621d","system_id":"levelo_inurba_marseille","lat":43.29616,"lon":5.37154,"is_reserved":false,"is_disabled":false,"rental_uris":{"android":"levelo://app?vid=7015adda-36ba-490e-9041-0df976d3621d","ios":"levelo://app?vid=7015adda-36ba-490e-9041-0df976d3621d"},"vehicle_type_id":"4","last_reported":1728313807,"current_range_meters":38800,"station_id":"ce4bgnh2rcd13ifvqc0g","pricing_plan_id":"cebpf4jnsgd1na2vs0mg"},{"bike_id":"83af287b-10f7-40f5-9dd0-b8ade29e4575","system_id":"levelo_inurba_marseille","lat":43.24392,"lon":5.37064,"is_reserved":false,"is_disabled":false,"rental_uris":{"android":"levelo://app?vid=83af287b-10f7-40f5-9dd0-b8ade29e4575","ios":"levelo://app?vid=83af287b-10f7-40f5-9dd0-b8ade29e4575"},"vehicle_type_id":"4","last_reported":1728313807,"current_range_meters":16000,"station_id":"ce4bhhh2rcd13ifvqfk0","pricing_plan_id":"cebpf4jnsgd1na2vs0mg"},{"bike_id":"ab835640-95b0-44f9-874d-a459aafafa83","system_id":"levelo_inurba_marseille","lat":43.2954,"lon":5.394,"is_reserved":false,"is_disabled":false,"rental_uris":{"android":"levelo://app?vid=ab835640-95b0-44f9-874d-a459aafafa83","ios":"levelo://app?vid=ab835640-95b0-44f9-874d-a459aafafa83"},"vehicle_type_id":"4","last_reported":1728313807,"current_range_meters":8800,"station_id":"ce4bh292rcd13ifvqdf0","pricing_plan_id":"cebpf4jnsgd1na2vs0mg"},{"bike_id":"d6171c9c-c1aa-47ac-9271-9f17b347cbec","system_id":"levelo_inurba_marseille","lat":43.241791,"lon":5.397287,"is_reserved":false,"is_disabled":false,"rental_uris":{"android":"levelo://app?vid=d6171c9c-c1aa-47ac-9271-9f17b347cbec","ios":"levelo://app?vid=d6171c9c-c1aa-47ac-9271-9f17b347cbec"},"vehicle_type_id":"4","last_reported":1728313807,"current_range_meters":32000,"station_id":"ce4bhn12rcd13ifvqgpg","pricing_plan_id":"cebpf4jnsgd1na2vs0mg"},{"bike_id":"c92a415b-eb8f-419b-be02-fd59a53594e1","system_id":"levelo_inurba_marseille","lat":43.29052,"lon":5.35911,"is_reserved":false,"is_disabled":false,"rental_uris":{"android":"levelo://app?vid=c92a415b-eb8f-419b-be02-fd59a53594e1","ios":"levelo://app?vid=c92a415b-eb8f-419b-be02-fd59a53594e1"},"vehicle_type_id":"4","last_reported":1728313807,"current_range_meters":38800,"station_id":"ce4bha92rcd13ifvqeg0","pricing_plan_id":"cebpf4jnsgd1na2vs0mg"},{"bike_id":"04b3058b-abd7-466e-95af-8825b5341464","system_id":"levelo_inurba_marseille","lat":43.30181,"lon":5.36605,"is_reserved":false,"is_disabled":false,"rental_uris":{"android":"levelo://app?vid=04b3058b-abd7-466e-95af-8825b5341464","ios":"levelo://app?vid=04b3058b-abd7-466e-95af-8825b5341464"},"vehicle_type_id":"4","last_reported":1728313807,"current_range_meters":28400,"station_id":"ce4bgrh2rcd13ifvqc8g","pricing_plan_id":"cebpf4jnsgd1na2vs0mg"},{"bike_id":"86935d79-a621-4207-926f-5b50a9943dc0","system_id":"levelo_inurba_marseille","lat":43.27559,"lon":5.3842,"is_reserved":false,"is_disabled":false,"rental_uris":{"android":"levelo://app?vid=86935d79-a621-4207-926f-5b50a9943dc0","ios":"levelo://app?vid=86935d79-a621-4207-926f-5b50a9943dc0"},"vehicle_type_id":"4","last_reported":1728313807,"current_range_meters":27600,"station_id":"ce4bhh92rcd13ifvqfi0","pricing_plan_id":"cebpf4jnsgd1na2vs0mg"},{"bike_id":"d194773e-fe06-4f06-8a17-4f237c3f1f3a","system_id":"levelo_inurba_marseille","lat":43.2603,"lon":5.37555,"is_reserved":false,"is_disabled":false,"rental_uris":{"android":"levelo://app?vid=d194773e-fe06-4f06-8a17-4f237c3f1f3a","ios":"levelo://app?vid=d194773e-fe06-4f06-8a17-4f237c3f1f3a"},"vehicle_type_id":"4","last_reported":1728313807,"current_range_meters":3600,"station_id":"ce4bhgh2rcd13ifvqfa0","pricing_plan_id":"cebpf4jnsgd1na2vs0mg"},{"bike_id":"53cc45fb-ee1b-4398-a478-75fb2308c251","system_id":"levelo_inurba_marseille","lat":43.3117,"lon":5.38723,"is_reserved":false,"is_disabled":false,"rental_uris":{"android":"levelo://app?vid=53cc45fb-ee1b-4398-a478-75fb2308c251","ios":"levelo://app?vid=53cc45fb-ee1b-4398-a478-75fb2308c251"},"vehicle_type_id":"4","last_reported":1728313807,"current_range_meters":9200,"station_id":"ce4bgv12rcd13ifvqcp0","pricing_plan_id":"cebpf4jnsgd1na2vs0mg"},{"bike_id":"d65295c6-4391-48d4-96a8-ef5ce77d839b","system_id":"levelo_inurba_marseille","lat":43.28345,"lon":5.38109,"is_reserved":false,"is_disabled":false,"rental_uris":{"android":"levelo://app?vid=d65295c6-4391-48d4-96a8-ef5ce77d839b","ios":"levelo://app?vid=d65295c6-4391-48d4-96a8-ef5ce77d839b"},"vehicle_type_id":"4","last_reported":1728313807,"current_range_meters":36800,"station_id":"ce4bh412rcd13ifvqdr0","pricing_plan_id":"cebpf4jnsgd1na2vs0mg"},{"bike_id":"c7c933ea-453c-4444-a304-2fa069327739","system_id":"levelo_inurba_marseille","lat":43.23066,"lon":5.3549,"is_reserved":false,"is_disabled":false,"rental_uris":{"android":"levelo://app?vid=c7c933ea-453c-4444-a304-2fa069327739","ios":"levelo://app?vid=c7c933ea-453c-4444-a304-2fa069327739"},"vehicle_type_id":"4","last_reported":1728313807,"current_range_meters":11200,"station_id":"cpo3342slgdg3j2ifvpg","pricing_plan_id":"cebpf4jnsgd1na2vs0mg"},{"bike_id":"222e06f0-3e82-4089-82af-6bf55f76bc4f","system_id":"levelo_inurba_marseille","lat":43.30541,"lon":5.36556,"is_reserved":false,"is_disabled":false,"rental_uris":{"android":"levelo://app?vid=222e06f0-3e82-4089-82af-6bf55f76bc4f","ios":"levelo://app?vid=222e06f0-3e82-4089-82af-6bf55f76bc4f"},"vehicle_type_id":"4","last_reported":1728313807,"current_range_meters":8000,"station_id":"ce4bgs12rcd13ifvqcag","pricing_plan_id":"cebpf4jnsgd1na2vs0mg"},{"bike_id":"bdf707ea-407b-44ea-bc91-ab5cdd693e8c","system_id":"levelo_inurba_marseille","lat":43.30175,"lon":5.3661,"is_reserved":false,"is_disabled":false,"rental_uris":{"android":"levelo://app?vid=bdf707ea-407b-44ea-bc91-ab5cdd693e8c","ios":"levelo://app?vid=bdf707ea-407b-44ea-bc91-ab5cdd693e8c"},"vehicle_type_id":"4","last_reported":1728313807,"current_range_meters":19200,"station_id":"ce4bgrh2rcd13ifvqc8g","pricing_plan_id":"cebpf4jnsgd1na2vs0mg"},{"bike_id":"b70ac773-7198-4e72-94f0-27cb5f8aad34","system_id":"levelo_inurba_marseille","lat":43.30322,"lon":5.4044,"is_reserved":false,"is_disabled":false,"rental_uris":{"android":"levelo://app?vid=b70ac773-7198-4e72-94f0-27cb5f8aad34","ios":"levelo://app?vid=b70ac773-7198-4e72-94f0-27cb5f8aad34"},"vehicle_type_id":"4","last_reported":1728313807,"current_range_meters":21600,"station_id":"ce4bh012rcd13ifvqd10","pricing_plan_id":"cebpf4jnsgd1na2vs0mg"},{"bike_id":"63905476-2890-443e-983a-17cf520e6a49","system_id":"levelo_inurba_marseille","lat":43.28267,"lon":5.35072,"is_reserved":false,"is_disabled":false,"rental_uris":{"android":"levelo://app?vid=63905476-2890-443e-983a-17cf520e6a49","ios":"levelo://app?vid=63905476-2890-443e-983a-17cf520e6a49"},"vehicle_type_id":"4","last_reported":1728313807,"current_range_meters":38800,"station_id":"ce4bhbp2rcd13ifvqerg","pricing_plan_id":"cebpf4jnsgd1na2vs0mg"},{"bike_id":"9a2aaf40-52f2-44c8-bdc9-c5cf50735681","system_id":"levelo_inurba_marseille","lat":43.30206,"lon":5.39469,"is_reserved":false,"is_disabled":false,"rental_uris":{"android":"levelo://app?vid=9a2aaf40-52f2-44c8-bdc9-c5cf50735681","ios":"levelo://app?vid=9a2aaf40-52f2-44c8-bdc9-c5cf50735681"},"vehicle_type_id":"4","last_reported":1728313807,"current_range_meters":38400,"station_id":"ce4bh0p2rcd13ifvqd70","pricing_plan_id":"cebpf4jnsgd1na2vs0mg"},{"bike_id":"265a9912-778d-4907-a52c-6597e436c236","system_id":"levelo_inurba_marseille","lat":43.33997,"lon":5.38322,"is_reserved":false,"is_disabled":false,"rental_uris":{"android":"levelo://app?vid=265a9912-778d-4907-a52c-6597e436c236","ios":"levelo://app?vid=265a9912-778d-4907-a52c-6597e436c236"},"vehicle_type_id":"4","last_reported":1728313807,"current_range_meters":2800,"station_id":"","pricing_plan_id":"cebpf4jnsgd1na2vs0mg"},{"bike_id":"c190b4a1-ea1d-47e2-b2e8-eefa3099f9cc","system_id":"levelo_inurba_marseille","lat":43.23191,"lon":5.35556,"is_reserved":false,"is_disabled":false,"rental_uris":{"android":"levelo://app?vid=c190b4a1-ea1d-47e2-b2e8-eefa3099f9cc","ios":"levelo://app?vid=c190b4a1-ea1d-47e2-b2e8-eefa3099f9cc"},"vehicle_type_id":"4","last_reported":1728313807,"current_range_meters":38800,"station_id":"ce4bhu92rcd13ifvqi70","pricing_plan_id":"cebpf4jnsgd1na2vs0mg"},{"bike_id":"62f6a7f3-5a0d-43b0-b01f-92962696bb75","system_id":"levelo_inurba_marseille","lat":43.29011,"lon":5.35625,"is_reserved":false,"is_disabled":false,"rental_uris":{"android":"levelo://app?vid=62f6a7f3-5a0d-43b0-b01f-92962696bb75","ios":"levelo://app?vid=62f6a7f3-5a0d-43b0-b01f-92962696bb75"},"vehicle_type_id":"4","last_reported":1728313807,"current_range_meters":1200,"station_id":"ce4bhb92rcd13ifvqen0","pricing_plan_id":"cebpf4jnsgd1na2vs0mg"},{"bike_id":"f1a587de-a4d9-42a8-8fe6-d4518f6dd1b0","system_id":"levelo_inurba_marseille","lat":43.23063,"lon":5.35493,"is_reserved":false,"is_disabled":false,"rental_uris":{"android":"levelo://app?vid=f1a587de-a4d9-42a8-8fe6-d4518f6dd1b0","ios":"levelo://app?vid=f1a587de-a4d9-42a8-8fe6-d4518f6dd1b0"},"vehicle_type_id":"4","last_reported":1728313807,"current_range_meters":11600,"station_id":"cpo3342slgdg3j2ifvpg","pricing_plan_id":"cebpf4jnsgd1na2vs0mg"},{"bike_id":"6b4618ac-bf15-42bd-b8ce-f62f3e28352b","system_id":"levelo_inurba_marseille","lat":43.23193,"lon":5.35554,"is_reserved":false,"is_disabled":false,"rental_uris":{"android":"levelo://app?vid=6b4618ac-bf15-42bd-b8ce-f62f3e28352b","ios":"levelo://app?vid=6b4618ac-bf15-42bd-b8ce-f62f3e28352b"},"vehicle_type_id":"4","last_reported":1728313807,"current_range_meters":32800,"station_id":"ce4bhu92rcd13ifvqi70","pricing_plan_id":"cebpf4jnsgd1na2vs0mg"},{"bike_id":"222c9908-f186-4402-8e76-3c557b97765d","system_id":"levelo_inurba_marseille","lat":43.3044,"lon":5.39757,"is_reserved":false,"is_disabled":false,"rental_uris":{"android":"levelo://app?vid=222c9908-f186-4402-8e76-3c557b97765d","ios":"levelo://app?vid=222c9908-f186-4402-8e76-3c557b97765d"},"vehicle_type_id":"4","last_reported":1728313807,"current_range_meters":28000,"station_id":"ce4bh092rcd13ifvqd20","pricing_plan_id":"cebpf4jnsgd1na2vs0mg"},{"bike_id":"a69fd01b-3806-4b2c-a0dc-9fb7dfe4ac36","system_id":"levelo_inurba_marseille","lat":43.33018,"lon":5.39049,"is_reserved":false,"is_disabled":false,"rental_uris":{"android":"levelo://app?vid=a69fd01b-3806-4b2c-a0dc-9fb7dfe4ac36","ios":"levelo://app?vid=a69fd01b-3806-4b2c-a0dc-9fb7dfe4ac36"},"vehicle_type_id":"4","last_reported":1728313807,"current_range_meters":25600,"station_id":"ce4bhr92rcd13ifvqhrg","pricing_plan_id":"cebpf4jnsgd1na2vs0mg"},{"bike_id":"65cf87a0-f755-4c25-bc3f-c7bc1093ce46","system_id":"levelo_inurba_marseille","lat":43.33023,"lon":5.39045,"is_reserved":false,"is_disabled":false,"rental_uris":{"android":"levelo://app?vid=65cf87a0-f755-4c25-bc3f-c7bc1093ce46","ios":"levelo://app?vid=65cf87a0-f755-4c25-bc3f-c7bc1093ce46"},"vehicle_type_id":"4","last_reported":1728313807,"current_range_meters":22800,"station_id":"ce4bhr92rcd13ifvqhrg","pricing_plan_id":"cebpf4jnsgd1na2vs0mg"},{"bike_id":"63b7281e-7922-4bde-95cf-fe8696c4e40d","system_id":"levelo_inurba_marseille","lat":43.295135,"lon":5.36406,"is_reserved":false,"is_disabled":false,"rental_uris":{"android":"levelo://app?vid=63b7281e-7922-4bde-95cf-fe8696c4e40d","ios":"levelo://app?vid=63b7281e-7922-4bde-95cf-fe8696c4e40d"},"vehicle_type_id":"4","last_reported":1728313807,"current_range_meters":22800,"station_id":"","pricing_plan_id":"cebpf4jnsgd1na2vs0mg"},{"bike_id":"6f046703-cdc1-4740-bc2c-42035880a3eb","system_id":"levelo_inurba_marseille","lat":43.27997,"lon":5.40024,"is_reserved":false,"is_disabled":false,"rental_uris":{"android":"levelo://app?vid=6f046703-cdc1-4740-bc2c-42035880a3eb","ios":"levelo://app?vid=6f046703-cdc1-4740-bc2c-42035880a3eb"},"vehicle_type_id":"4","last_reported":1728313807,"current_range_meters":37600,"station_id":"ce4bho92rcd13ifvqh4g","pricing_plan_id":"cebpf4jnsgd1na2vs0mg"},{"bike_id":"71a1efee-51f9-4dd9-be1f-92690dbfa1a0","system_id":"levelo_inurba_marseille","lat":43.32654,"lon":5.40993,"is_reserved":false,"is_disabled":false,"rental_uris":{"android":"levelo://app?vid=71a1efee-51f9-4dd9-be1f-92690dbfa1a0","ios":"levelo://app?vid=71a1efee-51f9-4dd9-be1f-92690dbfa1a0"},"vehicle_type_id":"4","last_reported":1728313807,"current_range_meters":39200,"station_id":"ce4bhpp2rcd13ifvqhgg","pricing_plan_id":"cebpf4jnsgd1na2vs0mg"},{"bike_id":"14640a97-4b98-4f68-b77c-f78d03d06873","system_id":"levelo_inurba_marseille","lat":43.31363,"lon":5.38489,"is_reserved":false,"is_disabled":false,"rental_uris":{"android":"levelo://app?vid=14640a97-4b98-4f68-b77c-f78d03d06873","ios":"levelo://app?vid=14640a97-4b98-4f68-b77c-f78d03d06873"},"vehicle_type_id":"4","last_reported":1728313807,"current_range_meters":27600,"station_id":"ce4bgt92rcd13ifvqcf0","pricing_plan_id":"cebpf4jnsgd1na2vs0mg"},{"bike_id":"27a24d71-37fc-44d9-8e93-419e5242b109","system_id":"levelo_inurba_marseille","lat":43.29636,"lon":5.40616,"is_reserved":false,"is_disabled":false,"rental_uris":{"android":"levelo://app?vid=27a24d71-37fc-44d9-8e93-419e5242b109","ios":"levelo://app?vid=27a24d71-37fc-44d9-8e93-419e5242b109"},"vehicle_type_id":"4","last_reported":1728313807,"current_range_meters":22800,"station_id":"ce4bh0h2rcd13ifvqd60","pricing_plan_id":"cebpf4jnsgd1na2vs0mg"},{"bike_id":"6417ba38-724f-4ccc-8f3c-43c479dc426a","system_id":"levelo_inurba_marseille","lat":43.23963,"lon":5.3663,"is_reserved":false,"is_disabled":false,"rental_uris":{"android":"levelo://app?vid=6417ba38-724f-4ccc-8f3c-43c479dc426a","ios":"levelo://app?vid=6417ba38-724f-4ccc-8f3c-43c479dc426a"},"vehicle_type_id":"4","last_reported":1728313807,"current_range_meters":26000,"station_id":"ce4bhi12rcd13ifvqfp0","pricing_plan_id":"cebpf4jnsgd1na2vs0mg"},{"bike_id":"b7d5f233-5cdb-48c7-b935-3dcf72595089","system_id":"levelo_inurba_marseille","lat":43.26557,"lon":5.37285,"is_reserved":false,"is_disabled":false,"rental_uris":{"android":"levelo://app?vid=b7d5f233-5cdb-48c7-b935-3dcf72595089","ios":"levelo://app?vid=b7d5f233-5cdb-48c7-b935-3dcf72595089"},"vehicle_type_id":"4","last_reported":1728313807,"current_range_meters":28400,"station_id":"ce4bhg12rcd13ifvqf70","pricing_plan_id":"cebpf4jnsgd1na2vs0mg"},{"bike_id":"926380f0-4ec2-45d5-8c58-de39b75f601e","system_id":"levelo_inurba_marseille","lat":43.23071,"lon":5.35498,"is_reserved":false,"is_disabled":false,"rental_uris":{"android":"levelo://app?vid=926380f0-4ec2-45d5-8c58-de39b75f601e","ios":"levelo://app?vid=926380f0-4ec2-45d5-8c58-de39b75f601e"},"vehicle_type_id":"4","last_reported":1728313807,"current_range_meters":16000,"station_id":"cpo3342slgdg3j2ifvpg","pricing_plan_id":"cebpf4jnsgd1na2vs0mg"},{"bike_id":"37c420db-fc0b-4790-8ae3-95cbc6a248fe","system_id":"levelo_inurba_marseille","lat":43.30153,"lon":5.38076,"is_reserved":false,"is_disabled":false,"rental_uris":{"android":"levelo://app?vid=37c420db-fc0b-4790-8ae3-95cbc6a248fe","ios":"levelo://app?vid=37c420db-fc0b-4790-8ae3-95cbc6a248fe"},"vehicle_type_id":"4","last_reported":1728313807,"current_range_meters":10800,"station_id":"ce4bgjp2rcd13ifvqbh0","pricing_plan_id":"cebpf4jnsgd1na2vs0mg"},{"bike_id":"e7fb5936-ea5d-4369-85a4-85843247cdd0","system_id":"levelo_inurba_marseille","lat":43.31056,"lon":5.3731,"is_reserved":false,"is_disabled":false,"rental_uris":{"android":"levelo://app?vid=e7fb5936-ea5d-4369-85a4-85843247cdd0","ios":"levelo://app?vid=e7fb5936-ea5d-4369-85a4-85843247cdd0"},"vehicle_type_id":"4","last_reported":1728313807,"current_range_meters":25600,"station_id":"","pricing_plan_id":"cebpf4jnsgd1na2vs0mg"},{"bike_id":"ab6e6edb-0739-4561-acb1-ffa3c039975c","system_id":"levelo_inurba_marseille","lat":43.26034,"lon":5.37548,"is_reserved":false,"is_disabled":false,"rental_uris":{"android":"levelo://app?vid=ab6e6edb-0739-4561-acb1-ffa3c039975c","ios":"levelo://app?vid=ab6e6edb-0739-4561-acb1-ffa3c039975c"},"vehicle_type_id":"4","last_reported":1728313807,"current_range_meters":25200,"station_id":"ce4bhgh2rcd13ifvqfa0","pricing_plan_id":"cebpf4jnsgd1na2vs0mg"},{"bike_id":"a18f016f-f602-4c8a-89ee-19afb4cbf4fa","system_id":"levelo_inurba_marseille","lat":43.30798,"lon":5.37655,"is_reserved":false,"is_disabled":false,"rental_uris":{"android":"levelo://app?vid=a18f016f-f602-4c8a-89ee-19afb4cbf4fa","ios":"levelo://app?vid=a18f016f-f602-4c8a-89ee-19afb4cbf4fa"},"vehicle_type_id":"4","last_reported":1728313807,"current_range_meters":16800,"station_id":"ce4bgv92rcd13ifvqcq0","pricing_plan_id":"cebpf4jnsgd1na2vs0mg"},{"bike_id":"9c1ea2be-f64a-4c1a-82a7-8d19de8e6dc5","system_id":"levelo_inurba_marseille","lat":43.2928,"lon":5.36846,"is_reserved":false,"is_disabled":false,"rental_uris":{"android":"levelo://app?vid=9c1ea2be-f64a-4c1a-82a7-8d19de8e6dc5","ios":"levelo://app?vid=9c1ea2be-f64a-4c1a-82a7-8d19de8e6dc5"},"vehicle_type_id":"4","last_reported":1728313807,"current_range_meters":6800,"station_id":"ce4bhbp2rcd13ifvqesg","pricing_plan_id":"cebpf4jnsgd1na2vs0mg"},{"bike_id":"3196f42e-3a48-431e-914e-c64704126023","system_id":"levelo_inurba_marseille","lat":43.30433,"lon":5.38902,"is_reserved":false,"is_disabled":false,"rental_uris":{"android":"levelo://app?vid=3196f42e-3a48-431e-914e-c64704126023","ios":"levelo://app?vid=3196f42e-3a48-431e-914e-c64704126023"},"vehicle_type_id":"4","last_reported":1728313807,"current_range_meters":26000,"station_id":"ce4bgk12rcd13ifvqbi0","pricing_plan_id":"cebpf4jnsgd1na2vs0mg"},{"bike_id":"758af724-8b03-4dfa-8be2-a7282b76cdea","system_id":"levelo_inurba_marseille","lat":43.29504,"lon":5.38573,"is_reserved":false,"is_disabled":false,"rental_uris":{"android":"levelo://app?vid=758af724-8b03-4dfa-8be2-a7282b76cdea","ios":"levelo://app?vid=758af724-8b03-4dfa-8be2-a7282b76cdea"},"vehicle_type_id":"4","last_reported":1728313807,"current_range_meters":10000,"station_id":"ce4bgih2rcd13ifvqba0","pricing_plan_id":"cebpf4jnsgd1na2vs0mg"},{"bike_id":"a47bc05e-7982-4edc-b2d0-4a81f5e03842","system_id":"levelo_inurba_marseille","lat":43.28939,"lon":5.39638,"is_reserved":false,"is_disabled":false,"rental_uris":{"android":"levelo://app?vid=a47bc05e-7982-4edc-b2d0-4a81f5e03842","ios":"levelo://app?vid=a47bc05e-7982-4edc-b2d0-4a81f5e03842"},"vehicle_type_id":"4","last_reported":1728313807,"current_range_meters":38000,"station_id":"ce4bh3h2rcd13ifvqdn0","pricing_plan_id":"cebpf4jnsgd1na2vs0mg"},{"bike_id":"28b48bfd-2b79-4741-84bb-c4f4545a04d8","system_id":"levelo_inurba_marseille","lat":43.29885,"lon":5.39734,"is_reserved":false,"is_disabled":false,"rental_uris":{"android":"levelo://app?vid=28b48bfd-2b79-4741-84bb-c4f4545a04d8","ios":"levelo://app?vid=28b48bfd-2b79-4741-84bb-c4f4545a04d8"},"vehicle_type_id":"4","last_reported":1728313807,"current_range_meters":14000,"station_id":"ce4bh0h2rcd13ifvqd50","pricing_plan_id":"cebpf4jnsgd1na2vs0mg"},{"bike_id":"d8804017-ccd4-41bd-9f49-8ebe608f86e7","system_id":"levelo_inurba_marseille","lat":43.24179,"lon":5.39726,"is_reserved":false,"is_disabled":false,"rental_uris":{"android":"levelo://app?vid=d8804017-ccd4-41bd-9f49-8ebe608f86e7","ios":"levelo://app?vid=d8804017-ccd4-41bd-9f49-8ebe608f86e7"},"vehicle_type_id":"4","last_reported":1728313807,"current_range_meters":30800,"station_id":"ce4bhn12rcd13ifvqgpg","pricing_plan_id":"cebpf4jnsgd1na2vs0mg"},{"bike_id":"062c735b-9e2e-4d95-8ba0-c53c606015a8","system_id":"levelo_inurba_marseille","lat":43.28155,"lon":5.42653,"is_reserved":false,"is_disabled":false,"rental_uris":{"android":"levelo://app?vid=062c735b-9e2e-4d95-8ba0-c53c606015a8","ios":"levelo://app?vid=062c735b-9e2e-4d95-8ba0-c53c606015a8"},"vehicle_type_id":"4","last_reported":1728313807,"current_range_meters":38800,"station_id":"ce4bhnh2rcd13ifvqgug","pricing_plan_id":"cebpf4jnsgd1na2vs0mg"},{"bike_id":"2de6771b-0e83-4e89-a945-a7f9f80d518f","system_id":"levelo_inurba_marseille","lat":43.31525,"lon":5.38039,"is_reserved":false,"is_disabled":false,"rental_uris":{"android":"levelo://app?vid=2de6771b-0e83-4e89-a945-a7f9f80d518f","ios":"levelo://app?vid=2de6771b-0e83-4e89-a945-a7f9f80d518f"},"vehicle_type_id":"4","last_reported":1728313807,"current_range_meters":14400,"station_id":"ce4bhsp2rcd13ifvqi50","pricing_plan_id":"cebpf4jnsgd1na2vs0mg"},{"bike_id":"69edd299-44ad-4698-9a44-50d0567dadab","system_id":"levelo_inurba_marseille","lat":43.279999,"lon":5.400112,"is_reserved":false,"is_disabled":false,"rental_uris":{"android":"levelo://app?vid=69edd299-44ad-4698-9a44-50d0567dadab","ios":"levelo://app?vid=69edd299-44ad-4698-9a44-50d0567dadab"},"vehicle_type_id":"4","last_reported":1728313807,"current_range_meters":6800,"station_id":"ce4bho92rcd13ifvqh4g","pricing_plan_id":"cebpf4jnsgd1na2vs0mg"},{"bike_id":"d95ea97b-c154-49e5-a424-cd0f2e3e098d","system_id":"levelo_inurba_marseille","lat":43.28036,"lon":5.36948,"is_reserved":false,"is_disabled":false,"rental_uris":{"android":"levelo://app?vid=d95ea97b-c154-49e5-a424-cd0f2e3e098d","ios":"levelo://app?vid=d95ea97b-c154-49e5-a424-cd0f2e3e098d"},"vehicle_type_id":"4","last_reported":1728313807,"current_range_meters":8800,"station_id":"ce4bha12rcd13ifvqef0","pricing_plan_id":"cebpf4jnsgd1na2vs0mg"},{"bike_id":"af101257-97d8-427d-926c-bfd575a5c827","system_id":"levelo_inurba_marseille","lat":43.23067,"lon":5.35486,"is_reserved":false,"is_disabled":false,"rental_uris":{"android":"levelo://app?vid=af101257-97d8-427d-926c-bfd575a5c827","ios":"levelo://app?vid=af101257-97d8-427d-926c-bfd575a5c827"},"vehicle_type_id":"4","last_reported":1728313807,"current_range_meters":9600,"station_id":"cpo3342slgdg3j2ifvpg","pricing_plan_id":"cebpf4jnsgd1na2vs0mg"},{"bike_id":"79d4ce44-dde0-4856-adfb-9d048612b764","system_id":"levelo_inurba_marseille","lat":43.241715,"lon":5.36394,"is_reserved":false,"is_disabled":false,"rental_uris":{"android":"levelo://app?vid=79d4ce44-dde0-4856-adfb-9d048612b764","ios":"levelo://app?vid=79d4ce44-dde0-4856-adfb-9d048612b764"},"vehicle_type_id":"4","last_reported":1728313807,"current_range_meters":28400,"station_id":"cpo36qri1sfpv3e86is0","pricing_plan_id":"cebpf4jnsgd1na2vs0mg"},{"bike_id":"6362dd7e-711b-4b82-af8e-291ea8f6ea1e","system_id":"levelo_inurba_marseille","lat":43.23068,"lon":5.35493,"is_reserved":false,"is_disabled":false,"rental_uris":{"android":"levelo://app?vid=6362dd7e-711b-4b82-af8e-291ea8f6ea1e","ios":"levelo://app?vid=6362dd7e-711b-4b82-af8e-291ea8f6ea1e"},"vehicle_type_id":"4","last_reported":1728313807,"current_range_meters":25600,"station_id":"cpo3342slgdg3j2ifvpg","pricing_plan_id":"cebpf4jnsgd1na2vs0mg"},{"bike_id":"5e648419-c296-47f7-85c9-7a6965d06152","system_id":"levelo_inurba_marseille","lat":43.23963,"lon":5.36633,"is_reserved":false,"is_disabled":false,"rental_uris":{"android":"levelo://app?vid=5e648419-c296-47f7-85c9-7a6965d06152","ios":"levelo://app?vid=5e648419-c296-47f7-85c9-7a6965d06152"},"vehicle_type_id":"4","last_reported":1728313807,"current_range_meters":32800,"station_id":"ce4bhi12rcd13ifvqfp0","pricing_plan_id":"cebpf4jnsgd1na2vs0mg"},{"bike_id":"3c2e30fe-a790-426f-903f-ab98be7e48e3","system_id":"levelo_inurba_marseille","lat":43.3053,"lon":5.36715,"is_reserved":false,"is_disabled":false,"rental_uris":{"android":"levelo://app?vid=3c2e30fe-a790-426f-903f-ab98be7e48e3","ios":"levelo://app?vid=3c2e30fe-a790-426f-903f-ab98be7e48e3"},"vehicle_type_id":"4","last_reported":1728313807,"current_range_meters":39200,"station_id":"ce4bgrp2rcd13ifvqc9g","pricing_plan_id":"cebpf4jnsgd1na2vs0mg"},{"bike_id":"8aa77f63-de81-4042-80cc-6a85548cbec3","system_id":"levelo_inurba_marseille","lat":43.26552,"lon":5.37287,"is_reserved":false,"is_disabled":false,"rental_uris":{"android":"levelo://app?vid=8aa77f63-de81-4042-80cc-6a85548cbec3","ios":"levelo://app?vid=8aa77f63-de81-4042-80cc-6a85548cbec3"},"vehicle_type_id":"4","last_reported":1728313807,"current_range_meters":7200,"station_id":"ce4bhg12rcd13ifvqf70","pricing_plan_id":"cebpf4jnsgd1na2vs0mg"},{"bike_id":"a6eb02c9-05b8-44b0-90b0-1198a1aead23","system_id":"levelo_inurba_marseille","lat":43.26062,"lon":5.39401,"is_reserved":false,"is_disabled":false,"rental_uris":{"android":"levelo://app?vid=a6eb02c9-05b8-44b0-90b0-1198a1aead23","ios":"levelo://app?vid=a6eb02c9-05b8-44b0-90b0-1198a1aead23"},"vehicle_type_id":"4","last_reported":1728313807,"current_range_meters":38800,"station_id":"ce4bhh92rcd13ifvqfj0","pricing_plan_id":"cebpf4jnsgd1na2vs0mg"},{"bike_id":"d1e0158a-eeeb-49d3-90c2-230dbeba2301","system_id":"levelo_inurba_marseille","lat":43.287051,"lon":5.399898,"is_reserved":false,"is_disabled":false,"rental_uris":{"android":"levelo://app?vid=d1e0158a-eeeb-49d3-90c2-230dbeba2301","ios":"levelo://app?vid=d1e0158a-eeeb-49d3-90c2-230dbeba2301"},"vehicle_type_id":"4","last_reported":1728313807,"current_range_meters":3600,"station_id":"ce4bho92rcd13ifvqh3g","pricing_plan_id":"cebpf4jnsgd1na2vs0mg"},{"bike_id":"2ff64e05-9a18-43cc-a44e-9ffbec44777b","system_id":"levelo_inurba_marseille","lat":43.31363,"lon":5.36722,"is_reserved":false,"is_disabled":false,"rental_uris":{"android":"levelo://app?vid=2ff64e05-9a18-43cc-a44e-9ffbec44777b","ios":"levelo://app?vid=2ff64e05-9a18-43cc-a44e-9ffbec44777b"},"vehicle_type_id":"4","last_reported":1728313807,"current_range_meters":25600,"station_id":"ce4bgr92rcd13ifvqc6g","pricing_plan_id":"cebpf4jnsgd1na2vs0mg"},{"bike_id":"fbab334e-6568-46ac-88f7-b856d9d2d598","system_id":"levelo_inurba_marseille","lat":43.23196,"lon":5.35557,"is_reserved":false,"is_disabled":false,"rental_uris":{"android":"levelo://app?vid=fbab334e-6568-46ac-88f7-b856d9d2d598","ios":"levelo://app?vid=fbab334e-6568-46ac-88f7-b856d9d2d598"},"vehicle_type_id":"4","last_reported":1728313807,"current_range_meters":38800,"station_id":"ce4bhu92rcd13ifvqi70","pricing_plan_id":"cebpf4jnsgd1na2vs0mg"},{"bike_id":"ca06f500-fdb8-4316-9347-00462f47e52b","system_id":"levelo_inurba_marseille","lat":43.25497,"lon":5.37642,"is_reserved":false,"is_disabled":false,"rental_uris":{"android":"levelo://app?vid=ca06f500-fdb8-4316-9347-00462f47e52b","ios":"levelo://app?vid=ca06f500-fdb8-4316-9347-00462f47e52b"},"vehicle_type_id":"4","last_reported":1728313807,"current_range_meters":10800,"station_id":"ce4bhh12rcd13ifvqff0","pricing_plan_id":"cebpf4jnsgd1na2vs0mg"},{"bike_id":"6efc0684-0284-4e94-a105-91033da80d0c","system_id":"levelo_inurba_marseille","lat":43.29616,"lon":5.37726,"is_reserved":false,"is_disabled":false,"rental_uris":{"android":"levelo://app?vid=6efc0684-0284-4e94-a105-91033da80d0c","ios":"levelo://app?vid=6efc0684-0284-4e94-a105-91033da80d0c"},"vehicle_type_id":"4","last_reported":1728313807,"current_range_meters":25200,"station_id":"ce4bgi92rcd13ifvqb90","pricing_plan_id":"cebpf4jnsgd1na2vs0mg"},{"bike_id":"c349952c-ab0d-43e1-9ecf-6d7917fdeff4","system_id":"levelo_inurba_marseille","lat":43.33767,"lon":5.37446,"is_reserved":false,"is_disabled":false,"rental_uris":{"android":"levelo://app?vid=c349952c-ab0d-43e1-9ecf-6d7917fdeff4","ios":"levelo://app?vid=c349952c-ab0d-43e1-9ecf-6d7917fdeff4"},"vehicle_type_id":"4","last_reported":1728313807,"current_range_meters":24400,"station_id":"","pricing_plan_id":"cebpf4jnsgd1na2vs0mg"},{"bike_id":"096c3c52-ea66-4fc7-aedf-0f68535ced1d","system_id":"levelo_inurba_marseille","lat":43.23884,"lon":5.39532,"is_reserved":false,"is_disabled":false,"rental_uris":{"android":"levelo://app?vid=096c3c52-ea66-4fc7-aedf-0f68535ced1d","ios":"levelo://app?vid=096c3c52-ea66-4fc7-aedf-0f68535ced1d"},"vehicle_type_id":"4","last_reported":1728313807,"current_range_meters":6000,"station_id":"","pricing_plan_id":"cebpf4jnsgd1na2vs0mg"},{"bike_id":"ac63b881-53ef-4e4b-b5e6-9f4914bcf168","system_id":"levelo_inurba_marseille","lat":43.23054,"lon":5.35491,"is_reserved":false,"is_disabled":false,"rental_uris":{"android":"levelo://app?vid=ac63b881-53ef-4e4b-b5e6-9f4914bcf168","ios":"levelo://app?vid=ac63b881-53ef-4e4b-b5e6-9f4914bcf168"},"vehicle_type_id":"4","last_reported":1728313807,"current_range_meters":36000,"station_id":"cpo3342slgdg3j2ifvpg","pricing_plan_id":"cebpf4jnsgd1na2vs0mg"},{"bike_id":"10e2cad8-5b87-4361-a750-816e7c888c91","system_id":"levelo_inurba_marseille","lat":43.23061,"lon":5.35497,"is_reserved":false,"is_disabled":false,"rental_uris":{"android":"levelo://app?vid=10e2cad8-5b87-4361-a750-816e7c888c91","ios":"levelo://app?vid=10e2cad8-5b87-4361-a750-816e7c888c91"},"vehicle_type_id":"4","last_reported":1728313807,"current_range_meters":26000,"station_id":"cpo3342slgdg3j2ifvpg","pricing_plan_id":"cebpf4jnsgd1na2vs0mg"},{"bike_id":"91646e2f-feb0-46c4-bf52-03d8ef652619","system_id":"levelo_inurba_marseille","lat":43.28075,"lon":5.39665,"is_reserved":false,"is_disabled":false,"rental_uris":{"android":"levelo://app?vid=91646e2f-feb0-46c4-bf52-03d8ef652619","ios":"levelo://app?vid=91646e2f-feb0-46c4-bf52-03d8ef652619"},"vehicle_type_id":"4","last_reported":1728313807,"current_range_meters":22800,"station_id":"ce4bho12rcd13ifvqh2g","pricing_plan_id":"cebpf4jnsgd1na2vs0mg"},{"bike_id":"458d9bb9-a01b-4661-8f33-165b0ebd9966","system_id":"levelo_inurba_marseille","lat":43.26928,"lon":5.38911,"is_reserved":false,"is_disabled":false,"rental_uris":{"android":"levelo://app?vid=458d9bb9-a01b-4661-8f33-165b0ebd9966","ios":"levelo://app?vid=458d9bb9-a01b-4661-8f33-165b0ebd9966"},"vehicle_type_id":"4","last_reported":1728313807,"current_range_meters":39200,"station_id":"ce4bhhh2rcd13ifvqfl0","pricing_plan_id":"cebpf4jnsgd1na2vs0mg"},{"bike_id":"480adba8-d30e-4ae6-acdd-893ce48a0a2d","system_id":"levelo_inurba_marseille","lat":43.22931,"lon":5.35377,"is_reserved":false,"is_disabled":false,"rental_uris":{"android":"levelo://app?vid=480adba8-d30e-4ae6-acdd-893ce48a0a2d","ios":"levelo://app?vid=480adba8-d30e-4ae6-acdd-893ce48a0a2d"},"vehicle_type_id":"4","last_reported":1728313807,"current_range_meters":28000,"station_id":"cpo3532slgdg3j2ikp40","pricing_plan_id":"cebpf4jnsgd1na2vs0mg"},{"bike_id":"c6f722c7-92d4-4235-aab7-80e9afc61694","system_id":"levelo_inurba_marseille","lat":43.285736,"lon":5.394972,"is_reserved":false,"is_disabled":false,"rental_uris":{"android":"levelo://app?vid=c6f722c7-92d4-4235-aab7-80e9afc61694","ios":"levelo://app?vid=c6f722c7-92d4-4235-aab7-80e9afc61694"},"vehicle_type_id":"4","last_reported":1728313807,"current_range_meters":800,"station_id":"ce4bh292rcd13ifvqdg0","pricing_plan_id":"cebpf4jnsgd1na2vs0mg"},{"bike_id":"1f051470-94a4-4881-ab48-08232e0e948e","system_id":"levelo_inurba_marseille","lat":43.23194,"lon":5.35555,"is_reserved":false,"is_disabled":false,"rental_uris":{"android":"levelo://app?vid=1f051470-94a4-4881-ab48-08232e0e948e","ios":"levelo://app?vid=1f051470-94a4-4881-ab48-08232e0e948e"},"vehicle_type_id":"4","last_reported":1728313807,"current_range_meters":11600,"station_id":"ce4bhu92rcd13ifvqi70","pricing_plan_id":"cebpf4jnsgd1na2vs0mg"},{"bike_id":"73250c9a-8811-4b8f-898a-19819a6b7768","system_id":"levelo_inurba_marseille","lat":43.306,"lon":5.3725,"is_reserved":false,"is_disabled":false,"rental_uris":{"android":"levelo://app?vid=73250c9a-8811-4b8f-898a-19819a6b7768","ios":"levelo://app?vid=73250c9a-8811-4b8f-898a-19819a6b7768"},"vehicle_type_id":"4","last_reported":1728313807,"current_range_meters":18000,"station_id":"ce4bgqh2rcd13ifvqc4g","pricing_plan_id":"cebpf4jnsgd1na2vs0mg"},{"bike_id":"9e3fe2e1-eca8-4201-b615-2eaf2b4dc3f2","system_id":"levelo_inurba_marseille","lat":43.23188,"lon":5.35553,"is_reserved":false,"is_disabled":false,"rental_uris":{"android":"levelo://app?vid=9e3fe2e1-eca8-4201-b615-2eaf2b4dc3f2","ios":"levelo://app?vid=9e3fe2e1-eca8-4201-b615-2eaf2b4dc3f2"},"vehicle_type_id":"4","last_reported":1728313807,"current_range_meters":6000,"station_id":"ce4bhu92rcd13ifvqi70","pricing_plan_id":"cebpf4jnsgd1na2vs0mg"},{"bike_id":"5c56a3bd-eee6-46f6-9565-18e2d60b4a2a","system_id":"levelo_inurba_marseille","lat":43.24166,"lon":5.36398,"is_reserved":false,"is_disabled":false,"rental_uris":{"android":"levelo://app?vid=5c56a3bd-eee6-46f6-9565-18e2d60b4a2a","ios":"levelo://app?vid=5c56a3bd-eee6-46f6-9565-18e2d60b4a2a"},"vehicle_type_id":"4","last_reported":1728313807,"current_range_meters":30000,"station_id":"cpo36qri1sfpv3e86is0","pricing_plan_id":"cebpf4jnsgd1na2vs0mg"},{"bike_id":"ff1a796a-b9df-48da-bf6f-cc85754e7685","system_id":"levelo_inurba_marseille","lat":43.30145,"lon":5.38771,"is_reserved":false,"is_disabled":false,"rental_uris":{"android":"levelo://app?vid=ff1a796a-b9df-48da-bf6f-cc85754e7685","ios":"levelo://app?vid=ff1a796a-b9df-48da-bf6f-cc85754e7685"},"vehicle_type_id":"4","last_reported":1728313807,"current_range_meters":5600,"station_id":"ce4bghh2rcd13ifvqb60","pricing_plan_id":"cebpf4jnsgd1na2vs0mg"},{"bike_id":"5567a12b-8b2b-4bff-aec5-4ab11e3bcbeb","system_id":"levelo_inurba_marseille","lat":43.27994,"lon":5.41669,"is_reserved":false,"is_disabled":false,"rental_uris":{"android":"levelo://app?vid=5567a12b-8b2b-4bff-aec5-4ab11e3bcbeb","ios":"levelo://app?vid=5567a12b-8b2b-4bff-aec5-4ab11e3bcbeb"},"vehicle_type_id":"4","last_reported":1728313807,"current_range_meters":27600,"station_id":"ce4bho12rcd13ifvqh1g","pricing_plan_id":"cebpf4jnsgd1na2vs0mg"},{"bike_id":"02eeef86-37b4-49f8-922d-40b3c37c32db","system_id":"levelo_inurba_marseille","lat":43.25871,"lon":5.39894,"is_reserved":false,"is_disabled":false,"rental_uris":{"android":"levelo://app?vid=02eeef86-37b4-49f8-922d-40b3c37c32db","ios":"levelo://app?vid=02eeef86-37b4-49f8-922d-40b3c37c32db"},"vehicle_type_id":"4","last_reported":1728313807,"current_range_meters":27200,"station_id":"ce4bhl92rcd13ifvqghg","pricing_plan_id":"cebpf4jnsgd1na2vs0mg"},{"bike_id":"5c654f49-919e-403d-bfca-2a6bdbfb2d5b","system_id":"levelo_inurba_marseille","lat":43.27432,"lon":5.39407,"is_reserved":false,"is_disabled":false,"rental_uris":{"android":"levelo://app?vid=5c654f49-919e-403d-bfca-2a6bdbfb2d5b","ios":"levelo://app?vid=5c654f49-919e-403d-bfca-2a6bdbfb2d5b"},"vehicle_type_id":"4","last_reported":1728313807,"current_range_meters":34000,"station_id":"ce4bhdp2rcd13ifvqf20","pricing_plan_id":"cebpf4jnsgd1na2vs0mg"},{"bike_id":"63f11e2b-be08-4723-b1cf-896e54897089","system_id":"levelo_inurba_marseille","lat":43.29786,"lon":5.39354,"is_reserved":false,"is_disabled":false,"rental_uris":{"android":"levelo://app?vid=63f11e2b-be08-4723-b1cf-896e54897089","ios":"levelo://app?vid=63f11e2b-be08-4723-b1cf-896e54897089"},"vehicle_type_id":"4","last_reported":1728313807,"current_range_meters":39200,"station_id":"chh1huq6cuj3fo74tm60","pricing_plan_id":"cebpf4jnsgd1na2vs0mg"},{"bike_id":"78a374b4-9081-474f-b699-2f7f1b45d849","system_id":"levelo_inurba_marseille","lat":43.25496,"lon":5.37666,"is_reserved":false,"is_disabled":false,"rental_uris":{"android":"levelo://app?vid=78a374b4-9081-474f-b699-2f7f1b45d849","ios":"levelo://app?vid=78a374b4-9081-474f-b699-2f7f1b45d849"},"vehicle_type_id":"4","last_reported":1728313807,"current_range_meters":24800,"station_id":"ce4bhh12rcd13ifvqff0","pricing_plan_id":"cebpf4jnsgd1na2vs0mg"},{"bike_id":"f081731a-91ab-4910-aa93-0cb4f7a318b7","system_id":"levelo_inurba_marseille","lat":43.293107,"lon":5.371527,"is_reserved":false,"is_disabled":false,"rental_uris":{"android":"levelo://app?vid=f081731a-91ab-4910-aa93-0cb4f7a318b7","ios":"levelo://app?vid=f081731a-91ab-4910-aa93-0cb4f7a318b7"},"vehicle_type_id":"4","last_reported":1728313807,"current_range_meters":2000,"station_id":"cki0cbj6b192h4jlfktg","pricing_plan_id":"cebpf4jnsgd1na2vs0mg"},{"bike_id":"8b10cb9f-15d9-4eb9-a18e-896430cdcbda","system_id":"levelo_inurba_marseille","lat":43.32025,"lon":5.40805,"is_reserved":false,"is_disabled":false,"rental_uris":{"android":"levelo://app?vid=8b10cb9f-15d9-4eb9-a18e-896430cdcbda","ios":"levelo://app?vid=8b10cb9f-15d9-4eb9-a18e-896430cdcbda"},"vehicle_type_id":"4","last_reported":1728313807,"current_range_meters":33200,"station_id":"ce4bhq92rcd13ifvqhjg","pricing_plan_id":"cebpf4jnsgd1na2vs0mg"},{"bike_id":"321b9bcd-012c-4214-82d3-69d82ea503e8","system_id":"levelo_inurba_marseille","lat":43.29555,"lon":5.42297,"is_reserved":false,"is_disabled":false,"rental_uris":{"android":"levelo://app?vid=321b9bcd-012c-4214-82d3-69d82ea503e8","ios":"levelo://app?vid=321b9bcd-012c-4214-82d3-69d82ea503e8"},"vehicle_type_id":"4","last_reported":1728313807,"current_range_meters":16400,"station_id":"ce4bhph2rcd13ifvqhdg","pricing_plan_id":"cebpf4jnsgd1na2vs0mg"},{"bike_id":"6c497c62-d793-49fa-8cd1-531afdd24b47","system_id":"levelo_inurba_marseille","lat":43.25873,"lon":5.39905,"is_reserved":false,"is_disabled":false,"rental_uris":{"android":"levelo://app?vid=6c497c62-d793-49fa-8cd1-531afdd24b47","ios":"levelo://app?vid=6c497c62-d793-49fa-8cd1-531afdd24b47"},"vehicle_type_id":"4","last_reported":1728313807,"current_range_meters":27600,"station_id":"ce4bhl92rcd13ifvqghg","pricing_plan_id":"cebpf4jnsgd1na2vs0mg"},{"bike_id":"64552bb8-a218-4429-bfbb-7655cc10c726","system_id":"levelo_inurba_marseille","lat":43.25725,"lon":5.41108,"is_reserved":false,"is_disabled":false,"rental_uris":{"android":"levelo://app?vid=64552bb8-a218-4429-bfbb-7655cc10c726","ios":"levelo://app?vid=64552bb8-a218-4429-bfbb-7655cc10c726"},"vehicle_type_id":"4","last_reported":1728313807,"current_range_meters":6800,"station_id":"ce4bhkp2rcd13ifvqgd0","pricing_plan_id":"cebpf4jnsgd1na2vs0mg"},{"bike_id":"d8654ab3-0bb2-4149-974b-2766bf9a07bc","system_id":"levelo_inurba_marseille","lat":43.3014,"lon":5.38778,"is_reserved":false,"is_disabled":false,"rental_uris":{"android":"levelo://app?vid=d8654ab3-0bb2-4149-974b-2766bf9a07bc","ios":"levelo://app?vid=d8654ab3-0bb2-4149-974b-2766bf9a07bc"},"vehicle_type_id":"4","last_reported":1728313807,"current_range_meters":16400,"station_id":"ce4bghh2rcd13ifvqb60","pricing_plan_id":"cebpf4jnsgd1na2vs0mg"},{"bike_id":"582b688c-1c7e-4650-a2d7-cb2a79a6055c","system_id":"levelo_inurba_marseille","lat":43.30639,"lon":5.40082,"is_reserved":false,"is_disabled":false,"rental_uris":{"android":"levelo://app?vid=582b688c-1c7e-4650-a2d7-cb2a79a6055c","ios":"levelo://app?vid=582b688c-1c7e-4650-a2d7-cb2a79a6055c"},"vehicle_type_id":"4","last_reported":1728313807,"current_range_meters":38800,"station_id":"ce4bh112rcd13ifvqda0","pricing_plan_id":"cebpf4jnsgd1na2vs0mg"},{"bike_id":"453acb5d-c897-4a67-ab6c-4198714aebc1","system_id":"levelo_inurba_marseille","lat":43.23066,"lon":5.35488,"is_reserved":false,"is_disabled":false,"rental_uris":{"android":"levelo://app?vid=453acb5d-c897-4a67-ab6c-4198714aebc1","ios":"levelo://app?vid=453acb5d-c897-4a67-ab6c-4198714aebc1"},"vehicle_type_id":"4","last_reported":1728313807,"current_range_meters":6800,"station_id":"cpo3342slgdg3j2ifvpg","pricing_plan_id":"cebpf4jnsgd1na2vs0mg"},{"bike_id":"a2891217-22d2-4303-8348-094c578ad2b5","system_id":"levelo_inurba_marseille","lat":43.29002,"lon":5.35606,"is_reserved":false,"is_disabled":false,"rental_uris":{"android":"levelo://app?vid=a2891217-22d2-4303-8348-094c578ad2b5","ios":"levelo://app?vid=a2891217-22d2-4303-8348-094c578ad2b5"},"vehicle_type_id":"4","last_reported":1728313807,"current_range_meters":40000,"station_id":"ce4bhb92rcd13ifvqen0","pricing_plan_id":"cebpf4jnsgd1na2vs0mg"},{"bike_id":"5d98e0b3-1c48-4bce-8ffe-0e2c2ea088a0","system_id":"levelo_inurba_marseille","lat":43.23056,"lon":5.35491,"is_reserved":false,"is_disabled":false,"rental_uris":{"android":"levelo://app?vid=5d98e0b3-1c48-4bce-8ffe-0e2c2ea088a0","ios":"levelo://app?vid=5d98e0b3-1c48-4bce-8ffe-0e2c2ea088a0"},"vehicle_type_id":"4","last_reported":1728313807,"current_range_meters":36400,"station_id":"cpo3342slgdg3j2ifvpg","pricing_plan_id":"cebpf4jnsgd1na2vs0mg"},{"bike_id":"e270a9ca-84e8-4848-a582-e495af1f14e2","system_id":"levelo_inurba_marseille","lat":43.3066,"lon":5.38007,"is_reserved":false,"is_disabled":false,"rental_uris":{"android":"levelo://app?vid=e270a9ca-84e8-4848-a582-e495af1f14e2","ios":"levelo://app?vid=e270a9ca-84e8-4848-a582-e495af1f14e2"},"vehicle_type_id":"4","last_reported":1728313807,"current_range_meters":12800,"station_id":"","pricing_plan_id":"cebpf4jnsgd1na2vs0mg"},