{"last_updated":1746202350,"ttl":60,"version":"2.2","data":{"bikes":[{"bike_id":"26d9ad43-bf0f-4d2c-8179-c315554452ba","system_id":"levelo_inurba_marseille","lat":43.265479,"lon":5.372937,"is_reserved":false,"is_disabled":true,"rental_uris":{"android":"levelo://app?vid=26d9ad43-bf0f-4d2c-8179-c315554452ba","ios":"levelo://app?vid=26d9ad43-bf0f-4d2c-8179-c315554452ba"},"vehicle_type_id":"4","last_reported":1746202350,"current_range_meters":0,"station_id":"","pricing_plan_id":"cebpf4jnsgd1na2vs0mg"},{"bike_id":"587033e8-9114-4237-990e-deafe4f5ad79","system_id":"levelo_inurba_marseille","lat":43.24267,"lon":5.37054,"is_reserved":false,"is_disabled":true,"rental_uris":{"android":"levelo://app?vid=587033e8-9114-4237-990e-deafe4f5ad79","ios":"levelo://app?vid=587033e8-9114-4237-990e-deafe4f5ad79"},"vehicle_type_id":"4","last_reported":1746202350,"current_range_meters":0,"station_id":"","pricing_plan_id":"cebpf4jnsgd1na2vs0mg"},{"bike_id":"76c1809e-b03a-4489-8d04-2161a1946c9d","system_id":"levelo_inurba_marseille","lat":43.2796,"lon":5.37176,"is_reserved":false,"is_disabled":true,"rental_uris":{"android":"levelo://app?vid=76c1809e-b03a-4489-8d04-2161a1946c9d","ios":"levelo://app?vid=76c1809e-b03a-4489-8d04-2161a1946c9d"},"vehicle_type_id":"4","last_reported":1746202350,"current_range_meters":0,"station_id":"","pricing_plan_id":"cebpf4jnsgd1na2vs0mg"},{"bike_id":"98e592b3-5fa3-4a83-b8d7-4600d55d353f","system_id":"levelo_inurba_marseille","lat":43.24656,"lon":5.43629,"is_reserved":false,"is_disabled":true,"rental_uris":{"android":"levelo://app?vid=98e592b3-5fa3-4a83-b8d7-4600d55d353f","ios":"levelo://app?vid=98e592b3-5fa3-4a83-b8d7-4600d55d353f"},"vehicle_type_id":"4","last_reported":1746202350,"current_range_meters":0,"station_id":"","pricing_plan_id":"cebpf4jnsgd1na2vs0mg"},{"bike_id":"e0c4142d-ff6f-42f2-9bd6-5cd5278aa3a6","system_id":"levelo_inurba_marseille","lat":43.25944,"lon":5.40905,"is_reserved":false,"is_disabled":true,"rental_uris":{"android":"levelo://app?vid=e0c4142d-ff6f-42f2-9bd6-5cd5278aa3a6","ios":"levelo://app?vid=e0c4142d-ff6f-42f2-9bd6-5cd5278aa3a6"},"vehicle_type_id":"4","last_reported":1746202350,"current_range_meters":0,"station_id":"","pricing_plan_id":"cebpf4jnsgd1na2vs0mg"},{"bike_id":"27c926f4-2e8c-4fe5-8d0a-ce234b43b164","system_id":"levelo_inurba_marseille","lat":43.27884,"lon":5.38787,"is_reserved":false,"is_disabled":true,"rental_uris":{"android":"levelo://app?vid=27c926f4-2e8c-4fe5-8d0a-ce234b43b164","ios":"levelo://app?vid=27c926f4-2e8c-4fe5-8d0a-ce234b43b164"},"vehicle_type_id":"4","last_reported":1746202350,"current_range_meters":0,"station_id":"","pricing_plan_id":"cebpf4jnsgd1na2vs0mg"},{"bike_id":"a7da839c-8cd7-4858-8d63-a5c3fb97170a","system_id":"levelo_inurba_marseille","lat":43.2565,"lon":5.411,"is_reserved":false,"is_disabled":true,"rental_uris":{"android":"levelo://app?vid=a7da839c-8cd7-4858-8d63-a5c3fb97170a","ios":"levelo://app?vid=a7da839c-8cd7-4858-8d63-a5c3fb97170a"},"vehicle_type_id":"4","last_reported":1746202350,"current_range_meters":0,"station_id":"","pricing_plan_id":"cebpf4jnsgd1na2vs0mg"},{"bike_id":"de5e8179-b7d9-445c-86ef-4f3f2bda04a1","system_id":"levelo_inurba_marseille","lat":43.27878,"lon":5.3881,"is_reserved":false,"is_disabled":true,"rental_uris":{"android":"levelo://app?vid=de5e8179-b7d9-445c-86ef-4f3f2bda04a1","ios":"levelo://app?vid=de5e8179-b7d9-445c-86ef-4f3f2bda04a1"},"vehicle_type_id":"4","last_reported":1746202350,"current_range_meters":0,"station_id":"","pricing_plan_id":"cebpf4jnsgd1na2vs0mg"},{"bike_id":"eefa78c8-4f9d-4d38-a7d3-c880870c89cc","system_id":"levelo_inurba_marseille","lat":43.281089,"lon":5.398614,"is_reserved":false,"is_disabled":true,"rental_uris":{"android":"levelo://app?vid=eefa78c8-4f9d-4d38-a7d3-c880870c89cc","ios":"levelo://app?vid=eefa78c8-4f9d-4d38-a7d3-c880870c89cc"},"vehicle_type_id":"4","last_reported":1746202350,"current_range_meters":0,"station_id":"","pricing_plan_id":"cebpf4jnsgd1na2vs0mg"},{"bike_id":"f1838310-e644-4cc5-b131-598db146ee41","system_id":"levelo_inurba_marseille","lat":43.33771,"lon":5.37467,"is_reserved":false,"is_disabled":true,"rental_uris":{"android":"levelo://app?vid=f1838310-e644-4cc5-b131-598db146ee41","ios":"levelo://app?vid=f1838310-e644-4cc5-b131-598db146ee41"},"vehicle_type_id":"4","last_reported":1746202350,"current_range_meters":0,"station_id":"","pricing_plan_id":"cebpf4jnsgd1na2vs0mg"},{"bike_id":"f9c04a17-f1c6-46ec-9e57-af47f3420156","system_id":"levelo_inurba_marseille","lat":43.26192,"lon":5.37523,"is_reserved":false,"is_disabled":true,"rental_uris":{"android":"levelo://app?vid=f9c04a17-f1c6-46ec-9e57-af47f3420156","ios":"levelo://app?vid=f9c04a17-f1c6-46ec-9e57-af47f3420156"},"vehicle_type_id":"4","last_reported":1746202350,"current_range_meters":0,"station_id":"","pricing_plan_id":"cebpf4jnsgd1na2vs0mg"},{"bike_id":"e93b949e-1738-47f2-ad13-8f512df2ffaf","system_id":"levelo_inurba_marseille","lat":43.28144,"lon":5.44349,"is_reserved":false,"is_disabled":true,"rental_uris":{"android":"levelo://app?vid=e93b949e-1738-47f2-ad13-8f512df2ffaf","ios":"levelo://app?vid=e93b949e-1738-47f2-ad13-8f512df2ffaf"},"vehicle_type_id":"4","last_reported":1746202350,"current_range_meters":0,"station_id":"","pricing_plan_id":"cebpf4jnsgd1na2vs0mg"},{"bike_id":"822a4e30-2a91-4acc-a322-a5c720bb04bf","system_id":"levelo_inurba_marseille","lat":43.30949,"lon":5.39029,"is_reserved":false,"is_disabled":true,"rental_uris":{"android":"levelo://app?vid=822a4e30-2a91-4acc-a322-a5c720bb04bf","ios":"levelo://app?vid=822a4e30-2a91-4acc-a322-a5c720bb04bf"},"vehicle_type_id":"4","last_reported":1746202350,"current_range_meters":0,"station_id":"ce4bgup2rcd13ifvqco0","pricing_plan_id":"cebpf4jnsgd1na2vs0mg"},{"bike_id":"f5693058-0066-4856-85d9-f7b7f8d3656e","system_id":"levelo_inurba_marseille","lat":43.294647,"lon":5.386972,"is_reserved":false,"is_disabled":true,"rental_uris":{"android":"levelo://app?vid=f5693058-0066-4856-85d9-f7b7f8d3656e","ios":"levelo://app?vid=f5693058-0066-4856-85d9-f7b7f8d3656e"},"vehicle_type_id":"4","last_reported":1746202350,"current_range_meters":0,"station_id":"ce4bh192rcd13ifvqdc0","pricing_plan_id":"cebpf4jnsgd1na2vs0mg"},{"bike_id":"dd70f8f3-b3c2-4ade-9411-0631e79a2808","system_id":"levelo_inurba_marseille","lat":43.28866,"lon":5.35865,"is_reserved":false,"is_disabled":true,"rental_uris":{"android":"levelo://app?vid=dd70f8f3-b3c2-4ade-9411-0631e79a2808","ios":"levelo://app?vid=dd70f8f3-b3c2-4ade-9411-0631e79a2808"},"vehicle_type_id":"4","last_reported":1746202350,"current_range_meters":0,"station_id":"ce4bhb12rcd13ifvqem0","pricing_plan_id":"cebpf4jnsgd1na2vs0mg"},{"bike_id":"6362d660-4560-4995-9041-63ec95d5390c","system_id":"levelo_inurba_marseille","lat":43.27921,"lon":5.39588,"is_reserved":false,"is_disabled":true,"rental_uris":{"android":"levelo://app?vid=6362d660-4560-4995-9041-63ec95d5390c","ios":"levelo://app?vid=6362d660-4560-4995-9041-63ec95d5390c"},"vehicle_type_id":"4","last_reported":1746202350,"current_range_meters":0,"station_id":"ce4bhf92rcd13ifvqf40","pricing_plan_id":"cebpf4jnsgd1na2vs0mg"},{"bike_id":"37b73915-5096-49c3-a9a8-a4ff7947ae13","system_id":"levelo_inurba_marseille","lat":43.27978,"lon":5.38775,"is_reserved":false,"is_disabled":true,"rental_uris":{"android":"levelo://app?vid=37b73915-5096-49c3-a9a8-a4ff7947ae13","ios":"levelo://app?vid=37b73915-5096-49c3-a9a8-a4ff7947ae13"},"vehicle_type_id":"4","last_reported":1746202350,"current_range_meters":0,"station_id":"ce4bhg12rcd13ifvqf80","pricing_plan_id":"cebpf4jnsgd1na2vs0mg"},{"bike_id":"c12874bf-dd08-450c-93e9-4e8d17744ad3","system_id":"levelo_inurba_marseille","lat":43.24815,"lon":5.37466,"is_reserved":false,"is_disabled":true,"rental_uris":{"android":"levelo://app?vid=c12874bf-dd08-450c-93e9-4e8d17744ad3","ios":"levelo://app?vid=c12874bf-dd08-450c-93e9-4e8d17744ad3"},"vehicle_type_id":"4","last_reported":1746202350,"current_range_meters":0,"station_id":"ce4bhgh2rcd13ifvqfb0","pricing_plan_id":"cebpf4jnsgd1na2vs0mg"},{"bike_id":"ddb8f148-f63f-48f7-bd79-74cf967801d3","system_id":"levelo_inurba_marseille","lat":43.26202,"lon":5.37446,"is_reserved":false,"is_disabled":true,"rental_uris":{"android":"levelo://app?vid=ddb8f148-f63f-48f7-bd79-74cf967801d3","ios":"levelo://app?vid=ddb8f148-f63f-48f7-bd79-74cf967801d3"},"vehicle_type_id":"4","last_reported":1746202350,"current_range_meters":0,"station_id":"ce4bhgp2rcd13ifvqfc0","pricing_plan_id":"cebpf4jnsgd1na2vs0mg"},{"bike_id":"d29a6ac2-df21-4546-8a48-9bdef78a8008","system_id":"levelo_inurba_marseille","lat":43.27314,"lon":5.39079,"is_reserved":false,"is_disabled":true,"rental_uris":{"android":"levelo://app?vid=d29a6ac2-df21-4546-8a48-9bdef78a8008","ios":"levelo://app?vid=d29a6ac2-df21-4546-8a48-9bdef78a8008"},"vehicle_type_id":"4","last_reported":1746202350,"current_range_meters":0,"station_id":"ce4bhgp2rcd13ifvqfe0","pricing_plan_id":"cebpf4jnsgd1na2vs0mg"},{"bike_id":"034e3b9f-57be-4ed5-a354-96a75fe54216","system_id":"levelo_inurba_marseille","lat":43.25503,"lon":5.3765,"is_reserved":false,"is_disabled":true,"rental_uris":{"android":"levelo://app?vid=034e3b9f-57be-4ed5-a354-96a75fe54216","ios":"levelo://app?vid=034e3b9f-57be-4ed5-a354-96a75fe54216"},"vehicle_type_id":"4","last_reported":1746202350,"current_range_meters":0,"station_id":"ce4bhh12rcd13ifvqff0","pricing_plan_id":"cebpf4jnsgd1na2vs0mg"},{"bike_id":"2575a826-3e21-4da6-9273-d9a4fb1afd62","system_id":"levelo_inurba_marseille","lat":43.275771,"lon":5.386,"is_reserved":false,"is_disabled":true,"rental_uris":{"android":"levelo://app?vid=2575a826-3e21-4da6-9273-d9a4fb1afd62","ios":"levelo://app?vid=2575a826-3e21-4da6-9273-d9a4fb1afd62"},"vehicle_type_id":"4","last_reported":1746202350,"current_range_meters":0,"station_id":"ce4bhh92rcd13ifvqfi0","pricing_plan_id":"cebpf4jnsgd1na2vs0mg"},{"bike_id":"c7479838-7d39-4786-a853-4d61865acd91","system_id":"levelo_inurba_marseille","lat":43.24391,"lon":5.37061,"is_reserved":false,"is_disabled":true,"rental_uris":{"android":"levelo://app?vid=c7479838-7d39-4786-a853-4d61865acd91","ios":"levelo://app?vid=c7479838-7d39-4786-a853-4d61865acd91"},"vehicle_type_id":"4","last_reported":1746202350,"current_range_meters":0,"station_id":"ce4bhhh2rcd13ifvqfk0","pricing_plan_id":"cebpf4jnsgd1na2vs0mg"},{"bike_id":"e336b0c2-a2be-4eca-b6c2-a513a8ae7843","system_id":"levelo_inurba_marseille","lat":43.21759,"lon":5.34598,"is_reserved":false,"is_disabled":true,"rental_uris":{"android":"levelo://app?vid=e336b0c2-a2be-4eca-b6c2-a513a8ae7843","ios":"levelo://app?vid=e336b0c2-a2be-4eca-b6c2-a513a8ae7843"},"vehicle_type_id":"4","last_reported":1746202350,"current_range_meters":0,"station_id":"st_cvj6r9ubvosntc0bgbag","pricing_plan_id":"cebpf4jnsgd1na2vs0mg"},{"bike_id":"3ecf66e2-44b6-472c-af09-0855bf590a80","system_id":"levelo_inurba_marseille","lat":43.21747,"lon":5.34611,"is_reserved":false,"is_disabled":true,"rental_uris":{"android":"levelo://app?vid=3ecf66e2-44b6-472c-af09-0855bf590a80","ios":"levelo://app?vid=3ecf66e2-44b6-472c-af09-0855bf590a80"},"vehicle_type_id":"4","last_reported":1746202350,"current_range_meters":0,"station_id":"st_cvj6r9ubvosntc0bgbag","pricing_plan_id":"cebpf4jnsgd1na2vs0mg"},{"bike_id":"dcf471e5-50d7-4c6d-8c76-01b9d58b8521","system_id":"levelo_inurba_marseille","lat":43.21752,"lon":5.34605,"is_reserved":false,"is_disabled":true,"rental_uris":{"android":"levelo://app?vid=dcf471e5-50d7-4c6d-8c76-01b9d58b8521","ios":"levelo://app?vid=dcf471e5-50d7-4c6d-8c76-01b9d58b8521"},"vehicle_type_id":"4","last_reported":1746202350,"current_range_meters":400,"station_id":"","pricing_plan_id":"cebpf4jnsgd1na2vs0mg"},{"bike_id":"a9271c4c-cb08-419c-89df-c865809695a8","system_id":"levelo_inurba_marseille","lat":43.217466,"lon":5.346146,"is_reserved":false,"is_disabled":true,"rental_uris":{"android":"levelo://app?vid=a9271c4c-cb08-419c-89df-c865809695a8","ios":"levelo://app?vid=a9271c4c-cb08-419c-89df-c865809695a8"},"vehicle_type_id":"4","last_reported":1746202350,"current_range_meters":400,"station_id":"","pricing_plan_id":"cebpf4jnsgd1na2vs0mg"},{"bike_id":"562f5b50-c984-46da-ad89-b0497ac4f514","system_id":"levelo_inurba_marseille","lat":43.2441,"lon":5.37097,"is_reserved":false,"is_disabled":true,"rental_uris":{"android":"levelo://app?vid=562f5b50-c984-46da-ad89-b0497ac4f514","ios":"levelo://app?vid=562f5b50-c984-46da-ad89-b0497ac4f514"},"vehicle_type_id":"4","last_reported":1746202350,"current_range_meters":400,"station_id":"ce4bhhh2rcd13ifvqfk0","pricing_plan_id":"cebpf4jnsgd1na2vs0mg"},{"bike_id":"02ef3096-14c5-4060-a88c-c36fcdf56e5a","system_id":"levelo_inurba_marseille","lat":43.217573,"lon":5.346028,"is_reserved":false,"is_disabled":true,"rental_uris":{"android":"levelo://app?vid=02ef3096-14c5-4060-a88c-c36fcdf56e5a","ios":"levelo://app?vid=02ef3096-14c5-4060-a88c-c36fcdf56e5a"},"vehicle_type_id":"4","last_reported":1746202350,"current_range_meters":400,"station_id":"st_cvj6r9ubvosntc0bgbag","pricing_plan_id":"cebpf4jnsgd1na2vs0mg"},{"bike_id":"f79b9ed7-b2a2-41a2-835e-5ee7249892d1","system_id":"levelo_inurba_marseille","lat":43.30132,"lon":5.388107,"is_reserved":false,"is_disabled":true,"rental_uris":{"android":"levelo://app?vid=f79b9ed7-b2a2-41a2-835e-5ee7249892d1","ios":"levelo://app?vid=f79b9ed7-b2a2-41a2-835e-5ee7249892d1"},"vehicle_type_id":"4","last_reported":1746202350,"current_range_meters":800,"station_id":"ce4bghh2rcd13ifvqb60","pricing_plan_id":"cebpf4jnsgd1na2vs0mg"},{"bike_id":"2820c1c7-edb2-4cfb-9987-8c5001e193cd","system_id":"levelo_inurba_marseille","lat":43.29774,"lon":5.37121,"is_reserved":false,"is_disabled":true,"rental_uris":{"android":"levelo://app?vid=2820c1c7-edb2-4cfb-9987-8c5001e193cd","ios":"levelo://app?vid=2820c1c7-edb2-4cfb-9987-8c5001e193cd"},"vehicle_type_id":"4","last_reported":1746202350,"current_range_meters":800,"station_id":"ce4bgop2rcd13ifvqc1g","pricing_plan_id":"cebpf4jnsgd1na2vs0mg"},{"bike_id":"0ed35af7-da66-4d8d-b595-f5e067c98b15","system_id":"levelo_inurba_marseille","lat":43.27067,"lon":5.4026,"is_reserved":false,"is_disabled":true,"rental_uris":{"android":"levelo://app?vid=0ed35af7-da66-4d8d-b595-f5e067c98b15","ios":"levelo://app?vid=0ed35af7-da66-4d8d-b595-f5e067c98b15"},"vehicle_type_id":"4","last_reported":1746202350,"current_range_meters":800,"station_id":"ce4bhk92rcd13ifvqgc0","pricing_plan_id":"cebpf4jnsgd1na2vs0mg"},{"bike_id":"d9874b99-8529-4ab9-9ff1-4dfd0518416d","system_id":"levelo_inurba_marseille","lat":43.28082,"lon":5.39661,"is_reserved":false,"is_disabled":true,"rental_uris":{"android":"levelo://app?vid=d9874b99-8529-4ab9-9ff1-4dfd0518416d","ios":"levelo://app?vid=d9874b99-8529-4ab9-9ff1-4dfd0518416d"},"vehicle_type_id":"4","last_reported":1746202350,"current_range_meters":800,"station_id":"ce4bho12rcd13ifvqh2g","pricing_plan_id":"cebpf4jnsgd1na2vs0mg"},{"bike_id":"3234e55b-9b8e-48eb-a6d0-a61abc85f7ba","system_id":"levelo_inurba_marseille","lat":43.30378,"lon":5.42496,"is_reserved":false,"is_disabled":true,"rental_uris":{"android":"levelo://app?vid=3234e55b-9b8e-48eb-a6d0-a61abc85f7ba","ios":"levelo://app?vid=3234e55b-9b8e-48eb-a6d0-a61abc85f7ba"},"vehicle_type_id":"4","last_reported":1746202350,"current_range_meters":800,"station_id":"ce4bhoh2rcd13ifvqh6g","pricing_plan_id":"cebpf4jnsgd1na2vs0mg"},{"bike_id":"13271b31-0975-4417-82f7-d4442132d16f","system_id":"levelo_inurba_marseille","lat":43.22934,"lon":5.353856,"is_reserved":false,"is_disabled":true,"rental_uris":{"android":"levelo://app?vid=13271b31-0975-4417-82f7-d4442132d16f","ios":"levelo://app?vid=13271b31-0975-4417-82f7-d4442132d16f"},"vehicle_type_id":"4","last_reported":1746202350,"current_range_meters":1200,"station_id":"","pricing_plan_id":"cebpf4jnsgd1na2vs0mg"},{"bike_id":"7f770ba9-2e48-47c9-8bb4-942855273bad","system_id":"levelo_inurba_marseille","lat":43.2538,"lon":5.42367,"is_reserved":false,"is_disabled":true,"rental_uris":{"android":"levelo://app?vid=7f770ba9-2e48-47c9-8bb4-942855273bad","ios":"levelo://app?vid=7f770ba9-2e48-47c9-8bb4-942855273bad"},"vehicle_type_id":"4","last_reported":1746202350,"current_range_meters":1200,"station_id":"","pricing_plan_id":"cebpf4jnsgd1na2vs0mg"},{"bike_id":"49eb87a1-6f4f-49e5-b35f-cd9314e1327b","system_id":"levelo_inurba_marseille","lat":43.296241,"lon":5.377081,"is_reserved":false,"is_disabled":true,"rental_uris":{"android":"levelo://app?vid=49eb87a1-6f4f-49e5-b35f-cd9314e1327b","ios":"levelo://app?vid=49eb87a1-6f4f-49e5-b35f-cd9314e1327b"},"vehicle_type_id":"4","last_reported":1746202350,"current_range_meters":1200,"station_id":"ce4bgi92rcd13ifvqb90","pricing_plan_id":"cebpf4jnsgd1na2vs0mg"},{"bike_id":"347b15d9-a19f-42c0-9f50-199cfb51376a","system_id":"levelo_inurba_marseille","lat":43.28857,"lon":5.39323,"is_reserved":false,"is_disabled":true,"rental_uris":{"android":"levelo://app?vid=347b15d9-a19f-42c0-9f50-199cfb51376a","ios":"levelo://app?vid=347b15d9-a19f-42c0-9f50-199cfb51376a"},"vehicle_type_id":"4","last_reported":1746202350,"current_range_meters":1200,"station_id":"ce4bh2p2rcd13ifvqdi0","pricing_plan_id":"cebpf4jnsgd1na2vs0mg"},{"bike_id":"b16fc14f-e252-4a28-8edf-aac3b1f45763","system_id":"levelo_inurba_marseille","lat":43.2511,"lon":5.40321,"is_reserved":false,"is_disabled":true,"rental_uris":{"android":"levelo://app?vid=b16fc14f-e252-4a28-8edf-aac3b1f45763","ios":"levelo://app?vid=b16fc14f-e252-4a28-8edf-aac3b1f45763"},"vehicle_type_id":"4","last_reported":1746202350,"current_range_meters":1200,"station_id":"ce4bhlh2rcd13ifvqgig","pricing_plan_id":"cebpf4jnsgd1na2vs0mg"},{"bike_id":"5f4e6cc3-91d2-48f9-8249-129d5d1c6879","system_id":"levelo_inurba_marseille","lat":43.32476,"lon":5.36557,"is_reserved":false,"is_disabled":true,"rental_uris":{"android":"levelo://app?vid=5f4e6cc3-91d2-48f9-8249-129d5d1c6879","ios":"levelo://app?vid=5f4e6cc3-91d2-48f9-8249-129d5d1c6879"},"vehicle_type_id":"4","last_reported":1746202350,"current_range_meters":1200,"station_id":"ce4bhs12rcd13ifvqhvg","pricing_plan_id":"cebpf4jnsgd1na2vs0mg"},{"bike_id":"6b45a587-d682-491d-8617-d87ffa10f656","system_id":"levelo_inurba_marseille","lat":43.27566,"lon":5.38421,"is_reserved":false,"is_disabled":true,"rental_uris":{"android":"levelo://app?vid=6b45a587-d682-491d-8617-d87ffa10f656","ios":"levelo://app?vid=6b45a587-d682-491d-8617-d87ffa10f656"},"vehicle_type_id":"4","last_reported":1746202350,"current_range_meters":1600,"station_id":"ce4bhh92rcd13ifvqfi0","pricing_plan_id":"cebpf4jnsgd1na2vs0mg"},{"bike_id":"1b47e90d-73ee-4236-9e94-8613d2058a6c","system_id":"levelo_inurba_marseille","lat":43.251263,"lon":5.40304,"is_reserved":false,"is_disabled":true,"rental_uris":{"android":"levelo://app?vid=1b47e90d-73ee-4236-9e94-8613d2058a6c","ios":"levelo://app?vid=1b47e90d-73ee-4236-9e94-8613d2058a6c"},"vehicle_type_id":"4","last_reported":1746202350,"current_range_meters":1600,"station_id":"ce4bhlh2rcd13ifvqgig","pricing_plan_id":"cebpf4jnsgd1na2vs0mg"},{"bike_id":"0a1efa6a-a96a-4067-9c66-23aed459b20c","system_id":"levelo_inurba_marseille","lat":43.28154,"lon":5.42669,"is_reserved":false,"is_disabled":true,"rental_uris":{"android":"levelo://app?vid=0a1efa6a-a96a-4067-9c66-23aed459b20c","ios":"levelo://app?vid=0a1efa6a-a96a-4067-9c66-23aed459b20c"},"vehicle_type_id":"4","last_reported":1746202350,"current_range_meters":1600,"station_id":"ce4bhnh2rcd13ifvqgug","pricing_plan_id":"cebpf4jnsgd1na2vs0mg"},{"bike_id":"487c390f-14ee-4095-858d-b936907c6ef7","system_id":"levelo_inurba_marseille","lat":43.308,"lon":5.434987,"is_reserved":false,"is_disabled":true,"rental_uris":{"android":"levelo://app?vid=487c390f-14ee-4095-858d-b936907c6ef7","ios":"levelo://app?vid=487c390f-14ee-4095-858d-b936907c6ef7"},"vehicle_type_id":"4","last_reported":1746202350,"current_range_meters":1600,"station_id":"ce4bhph2rcd13ifvqheg","pricing_plan_id":"cebpf4jnsgd1na2vs0mg"},{"bike_id":"ea209b5f-6ce8-4e86-9f5f-9f8995c8f600","system_id":"levelo_inurba_marseille","lat":43.29364,"lon":5.37854,"is_reserved":false,"is_disabled":false,"rental_uris":{"android":"levelo://app?vid=ea209b5f-6ce8-4e86-9f5f-9f8995c8f600","ios":"levelo://app?vid=ea209b5f-6ce8-4e86-9f5f-9f8995c8f600"},"vehicle_type_id":"4","last_reported":1746202350,"current_range_meters":2000,"station_id":"ce4bgjh2rcd13ifvqbf0","pricing_plan_id":"cebpf4jnsgd1na2vs0mg"},{"bike_id":"21be26f1-1970-45c4-96ad-81550822f085","system_id":"levelo_inurba_marseille","lat":43.29934,"lon":5.36548,"is_reserved":false,"is_disabled":true,"rental_uris":{"android":"levelo://app?vid=21be26f1-1970-45c4-96ad-81550822f085","ios":"levelo://app?vid=21be26f1-1970-45c4-96ad-81550822f085"},"vehicle_type_id":"4","last_reported":1746202350,"current_range_meters":2000,"station_id":"ce4bgm92rcd13ifvqbr0","pricing_plan_id":"cebpf4jnsgd1na2vs0mg"},{"bike_id":"ee65d5bc-4545-469e-8391-fcc039842f3f","system_id":"levelo_inurba_marseille","lat":43.29576,"lon":5.39978,"is_reserved":false,"is_disabled":true,"rental_uris":{"android":"levelo://app?vid=ee65d5bc-4545-469e-8391-fcc039842f3f","ios":"levelo://app?vid=ee65d5bc-4545-469e-8391-fcc039842f3f"},"vehicle_type_id":"4","last_reported":1746202350,"current_range_meters":2000,"station_id":"ce4bh312rcd13ifvqdj0","pricing_plan_id":"cebpf4jnsgd1na2vs0mg"},{"bike_id":"3258878a-e1b7-41dd-871a-cb849ef3f08f","system_id":"levelo_inurba_marseille","lat":43.29269,"lon":5.40169,"is_reserved":false,"is_disabled":true,"rental_uris":{"android":"levelo://app?vid=3258878a-e1b7-41dd-871a-cb849ef3f08f","ios":"levelo://app?vid=3258878a-e1b7-41dd-871a-cb849ef3f08f"},"vehicle_type_id":"4","last_reported":1746202350,"current_range_meters":2000,"station_id":"ce4bh312rcd13ifvqdk0","pricing_plan_id":"cebpf4jnsgd1na2vs0mg"},{"bike_id":"a6104447-5bd4-4ae7-85c0-5e664bcc9c48","system_id":"levelo_inurba_marseille","lat":43.28733,"lon":5.37947,"is_reserved":false,"is_disabled":true,"rental_uris":{"android":"levelo://app?vid=a6104447-5bd4-4ae7-85c0-5e664bcc9c48","ios":"levelo://app?vid=a6104447-5bd4-4ae7-85c0-5e664bcc9c48"},"vehicle_type_id":"4","last_reported":1746202350,"current_range_meters":2000,"station_id":"ce4bh9p2rcd13ifvqec0","pricing_plan_id":"cebpf4jnsgd1na2vs0mg"},{"bike_id":"f1d5309c-056f-4fc1-a6be-b8a3c2de9059","system_id":"levelo_inurba_marseille","lat":43.29223,"lon":5.36054,"is_reserved":false,"is_disabled":true,"rental_uris":{"android":"levelo://app?vid=f1d5309c-056f-4fc1-a6be-b8a3c2de9059","ios":"levelo://app?vid=f1d5309c-056f-4fc1-a6be-b8a3c2de9059"},"vehicle_type_id":"4","last_reported":1746202350,"current_range_meters":2000,"station_id":"ce4bhbh2rcd13ifvqeqg","pricing_plan_id":"cebpf4jnsgd1na2vs0mg"},{"bike_id":"dbe9c794-c57e-4ee5-9f41-62e2054188c5","system_id":"levelo_inurba_marseille","lat":43.26233,"lon":5.40469,"is_reserved":false,"is_disabled":true,"rental_uris":{"android":"levelo://app?vid=dbe9c794-c57e-4ee5-9f41-62e2054188c5","ios":"levelo://app?vid=dbe9c794-c57e-4ee5-9f41-62e2054188c5"},"vehicle_type_id":"4","last_reported":1746202350,"current_range_meters":2000,"station_id":"ce4bhmh2rcd13ifvqgmg","pricing_plan_id":"cebpf4jnsgd1na2vs0mg"},{"bike_id":"e0226bed-040c-4c80-a47d-0d26429d8454","system_id":"levelo_inurba_marseille","lat":43.30819,"lon":5.38166,"is_reserved":false,"is_disabled":false,"rental_uris":{"android":"levelo://app?vid=e0226bed-040c-4c80-a47d-0d26429d8454","ios":"levelo://app?vid=e0226bed-040c-4c80-a47d-0d26429d8454"},"vehicle_type_id":"4","last_reported":1746202350,"current_range_meters":2800,"station_id":"ce4bgt12rcd13ifvqce0","pricing_plan_id":"cebpf4jnsgd1na2vs0mg"},{"bike_id":"84d7bbf8-006a-428a-a326-2ac074d4a558","system_id":"levelo_inurba_marseille","lat":43.30323,"lon":5.40444,"is_reserved":false,"is_disabled":false,"rental_uris":{"android":"levelo://app?vid=84d7bbf8-006a-428a-a326-2ac074d4a558","ios":"levelo://app?vid=84d7bbf8-006a-428a-a326-2ac074d4a558"},"vehicle_type_id":"4","last_reported":1746202350,"current_range_meters":2800,"station_id":"ce4bh012rcd13ifvqd10","pricing_plan_id":"cebpf4jnsgd1na2vs0mg"},{"bike_id":"55b847be-d607-4d5a-87eb-d937eb63c0a5","system_id":"levelo_inurba_marseille","lat":43.283674,"lon":5.386313,"is_reserved":false,"is_disabled":false,"rental_uris":{"android":"levelo://app?vid=55b847be-d607-4d5a-87eb-d937eb63c0a5","ios":"levelo://app?vid=55b847be-d607-4d5a-87eb-d937eb63c0a5"},"vehicle_type_id":"4","last_reported":1746202350,"current_range_meters":2800,"station_id":"ce4bh492rcd13ifvqdvg","pricing_plan_id":"cebpf4jnsgd1na2vs0mg"},{"bike_id":"91988f0e-4773-4dec-80f1-e9a4f0dd0d23","system_id":"levelo_inurba_marseille","lat":43.28042,"lon":5.36944,"is_reserved":false,"is_disabled":false,"rental_uris":{"android":"levelo://app?vid=91988f0e-4773-4dec-80f1-e9a4f0dd0d23","ios":"levelo://app?vid=91988f0e-4773-4dec-80f1-e9a4f0dd0d23"},"vehicle_type_id":"4","last_reported":1746202350,"current_range_meters":2800,"station_id":"ce4bha12rcd13ifvqef0","pricing_plan_id":"cebpf4jnsgd1na2vs0mg"},{"bike_id":"042e833e-ae40-440c-ac18-8f6269a75cf3","system_id":"levelo_inurba_marseille","lat":43.29286,"lon":5.36834,"is_reserved":false,"is_disabled":false,"rental_uris":{"android":"levelo://app?vid=042e833e-ae40-440c-ac18-8f6269a75cf3","ios":"levelo://app?vid=042e833e-ae40-440c-ac18-8f6269a75cf3"},"vehicle_type_id":"4","last_reported":1746202350,"current_range_meters":2800,"station_id":"ce4bhbp2rcd13ifvqesg","pricing_plan_id":"cebpf4jnsgd1na2vs0mg"},{"bike_id":"580f949c-b761-4da6-aadd-7ddaf483913c","system_id":"levelo_inurba_marseille","lat":43.2796,"lon":5.38668,"is_reserved":false,"is_disabled":false,"rental_uris":{"android":"levelo://app?vid=580f949c-b761-4da6-aadd-7ddaf483913c","ios":"levelo://app?vid=580f949c-b761-4da6-aadd-7ddaf483913c"},"vehicle_type_id":"4","last_reported":1746202350,"current_range_meters":3200,"station_id":"","pricing_plan_id":"cebpf4jnsgd1na2vs0mg"},{"bike_id":"41649255-c38b-42cb-ae7f-67f2787c354c","system_id":"levelo_inurba_marseille","lat":43.23782,"lon":5.43593,"is_reserved":false,"is_disabled":false,"rental_uris":{"android":"levelo://app?vid=41649255-c38b-42cb-ae7f-67f2787c354c","ios":"levelo://app?vid=41649255-c38b-42cb-ae7f-67f2787c354c"},"vehicle_type_id":"4","last_reported":1746202350,"current_range_meters":3200,"station_id":"","pricing_plan_id":"cebpf4jnsgd1na2vs0mg"},{"bike_id":"c00973f8-8d9a-4ab3-8e5b-0bd61353eb64","system_id":"levelo_inurba_marseille","lat":43.30311,"lon":5.3921,"is_reserved":false,"is_disabled":false,"rental_uris":{"android":"levelo://app?vid=c00973f8-8d9a-4ab3-8e5b-0bd61353eb64","ios":"levelo://app?vid=c00973f8-8d9a-4ab3-8e5b-0bd61353eb64"},"vehicle_type_id":"4","last_reported":1746202350,"current_range_meters":3200,"station_id":"ce4bgkh2rcd13ifvqbk0","pricing_plan_id":"cebpf4jnsgd1na2vs0mg"},{"bike_id":"2986f22b-4c8e-4309-b096-697a3007c2ba","system_id":"levelo_inurba_marseille","lat":43.25723,"lon":5.41115,"is_reserved":false,"is_disabled":false,"rental_uris":{"android":"levelo://app?vid=2986f22b-4c8e-4309-b096-697a3007c2ba","ios":"levelo://app?vid=2986f22b-4c8e-4309-b096-697a3007c2ba"},"vehicle_type_id":"4","last_reported":1746202350,"current_range_meters":3200,"station_id":"ce4bhkp2rcd13ifvqgd0","pricing_plan_id":"cebpf4jnsgd1na2vs0mg"},{"bike_id":"53355e0c-b5b9-46d1-8a69-8ab490ae822b","system_id":"levelo_inurba_marseille","lat":43.279427,"lon":5.411433,"is_reserved":false,"is_disabled":false,"rental_uris":{"android":"levelo://app?vid=53355e0c-b5b9-46d1-8a69-8ab490ae822b","ios":"levelo://app?vid=53355e0c-b5b9-46d1-8a69-8ab490ae822b"},"vehicle_type_id":"4","last_reported":1746202350,"current_range_meters":3200,"station_id":"ce4bho12rcd13ifvqh1g","pricing_plan_id":"cebpf4jnsgd1na2vs0mg"},{"bike_id":"1b1b10d5-92f7-41eb-b40a-b0d2f9c0e445","system_id":"levelo_inurba_marseille","lat":43.30332,"lon":5.36922,"is_reserved":false,"is_disabled":false,"rental_uris":{"android":"levelo://app?vid=1b1b10d5-92f7-41eb-b40a-b0d2f9c0e445","ios":"levelo://app?vid=1b1b10d5-92f7-41eb-b40a-b0d2f9c0e445"},"vehicle_type_id":"4","last_reported":1746202350,"current_range_meters":3600,"station_id":"ce4bgqh2rcd13ifvqc5g","pricing_plan_id":"cebpf4jnsgd1na2vs0mg"},{"bike_id":"312f353f-5c83-4f9e-a364-e07975a467f2","system_id":"levelo_inurba_marseille","lat":43.30332,"lon":5.40448,"is_reserved":false,"is_disabled":false,"rental_uris":{"android":"levelo://app?vid=312f353f-5c83-4f9e-a364-e07975a467f2","ios":"levelo://app?vid=312f353f-5c83-4f9e-a364-e07975a467f2"},"vehicle_type_id":"4","last_reported":1746202350,"current_range_meters":3600,"station_id":"ce4bh012rcd13ifvqd10","pricing_plan_id":"cebpf4jnsgd1na2vs0mg"},{"bike_id":"ada01c74-8feb-475d-a023-bdcfc9153166","system_id":"levelo_inurba_marseille","lat":43.27579,"lon":5.38438,"is_reserved":false,"is_disabled":false,"rental_uris":{"android":"levelo://app?vid=ada01c74-8feb-475d-a023-bdcfc9153166","ios":"levelo://app?vid=ada01c74-8feb-475d-a023-bdcfc9153166"},"vehicle_type_id":"4","last_reported":1746202350,"current_range_meters":3600,"station_id":"ce4bhh92rcd13ifvqfi0","pricing_plan_id":"cebpf4jnsgd1na2vs0mg"},{"bike_id":"3bfa39c6-24b8-4588-9570-0e001e3c83fb","system_id":"levelo_inurba_marseille","lat":43.25087,"lon":5.39522,"is_reserved":false,"is_disabled":false,"rental_uris":{"android":"levelo://app?vid=3bfa39c6-24b8-4588-9570-0e001e3c83fb","ios":"levelo://app?vid=3bfa39c6-24b8-4588-9570-0e001e3c83fb"},"vehicle_type_id":"4","last_reported":1746202350,"current_range_meters":3600,"station_id":"ce4bhm12rcd13ifvqgkg","pricing_plan_id":"cebpf4jnsgd1na2vs0mg"},{"bike_id":"0c1055eb-fade-4b63-90cc-3023c0894dd7","system_id":"levelo_inurba_marseille","lat":43.29634,"lon":5.40597,"is_reserved":false,"is_disabled":false,"rental_uris":{"android":"levelo://app?vid=0c1055eb-fade-4b63-90cc-3023c0894dd7","ios":"levelo://app?vid=0c1055eb-fade-4b63-90cc-3023c0894dd7"},"vehicle_type_id":"4","last_reported":1746202350,"current_range_meters":4000,"station_id":"ce4bh0h2rcd13ifvqd60","pricing_plan_id":"cebpf4jnsgd1na2vs0mg"},{"bike_id":"590720af-fa04-43da-b341-b300ec679709","system_id":"levelo_inurba_marseille","lat":43.294257,"lon":5.386186,"is_reserved":false,"is_disabled":false,"rental_uris":{"android":"levelo://app?vid=590720af-fa04-43da-b341-b300ec679709","ios":"levelo://app?vid=590720af-fa04-43da-b341-b300ec679709"},"vehicle_type_id":"4","last_reported":1746202350,"current_range_meters":4000,"station_id":"ce4bh2h2rcd13ifvqdh0","pricing_plan_id":"cebpf4jnsgd1na2vs0mg"},{"bike_id":"f0a1f449-beae-4965-b76c-bef87effac4f","system_id":"levelo_inurba_marseille","lat":43.28936,"lon":5.38408,"is_reserved":false,"is_disabled":false,"rental_uris":{"android":"levelo://app?vid=f0a1f449-beae-4965-b76c-bef87effac4f","ios":"levelo://app?vid=f0a1f449-beae-4965-b76c-bef87effac4f"},"vehicle_type_id":"4","last_reported":1746202350,"current_range_meters":4000,"station_id":"ce4bh612rcd13ifvqe6g","pricing_plan_id":"cebpf4jnsgd1na2vs0mg"},{"bike_id":"9efbd981-feaf-472d-9325-e32393cb4782","system_id":"levelo_inurba_marseille","lat":43.27962,"lon":5.38714,"is_reserved":false,"is_disabled":false,"rental_uris":{"android":"levelo://app?vid=9efbd981-feaf-472d-9325-e32393cb4782","ios":"levelo://app?vid=9efbd981-feaf-472d-9325-e32393cb4782"},"vehicle_type_id":"4","last_reported":1746202350,"current_range_meters":4000,"station_id":"ce4bhg12rcd13ifvqf80","pricing_plan_id":"cebpf4jnsgd1na2vs0mg"},{"bike_id":"37fd6a1d-419d-4e1a-9874-076d080fe3fa","system_id":"levelo_inurba_marseille","lat":43.27074,"lon":5.40264,"is_reserved":false,"is_disabled":false,"rental_uris":{"android":"levelo://app?vid=37fd6a1d-419d-4e1a-9874-076d080fe3fa","ios":"levelo://app?vid=37fd6a1d-419d-4e1a-9874-076d080fe3fa"},"vehicle_type_id":"4","last_reported":1746202350,"current_range_meters":4000,"station_id":"ce4bhk92rcd13ifvqgc0","pricing_plan_id":"cebpf4jnsgd1na2vs0mg"},{"bike_id":"6e8eb5e8-1f36-47d0-8471-8866af669e5a","system_id":"levelo_inurba_marseille","lat":43.27945,"lon":5.4105,"is_reserved":false,"is_disabled":false,"rental_uris":{"android":"levelo://app?vid=6e8eb5e8-1f36-47d0-8471-8866af669e5a","ios":"levelo://app?vid=6e8eb5e8-1f36-47d0-8471-8866af669e5a"},"vehicle_type_id":"4","last_reported":1746202350,"current_range_meters":4000,"station_id":"ce4bhnp2rcd13ifvqh0g","pricing_plan_id":"cebpf4jnsgd1na2vs0mg"},{"bike_id":"71db9127-0889-455a-a211-d44792ebd64e","system_id":"levelo_inurba_marseille","lat":43.25729,"lon":5.41104,"is_reserved":false,"is_disabled":false,"rental_uris":{"android":"levelo://app?vid=71db9127-0889-455a-a211-d44792ebd64e","ios":"levelo://app?vid=71db9127-0889-455a-a211-d44792ebd64e"},"vehicle_type_id":"4","last_reported":1746202350,"current_range_meters":4400,"station_id":"ce4bhkp2rcd13ifvqgd0","pricing_plan_id":"cebpf4jnsgd1na2vs0mg"},{"bike_id":"75ef54b7-d421-4d59-9278-9a353c64bc37","system_id":"levelo_inurba_marseille","lat":43.23206,"lon":5.35543,"is_reserved":false,"is_disabled":false,"rental_uris":{"android":"levelo://app?vid=75ef54b7-d421-4d59-9278-9a353c64bc37","ios":"levelo://app?vid=75ef54b7-d421-4d59-9278-9a353c64bc37"},"vehicle_type_id":"4","last_reported":1746202350,"current_range_meters":4400,"station_id":"ce4bhu92rcd13ifvqi70","pricing_plan_id":"cebpf4jnsgd1na2vs0mg"},{"bike_id":"96ac0ca3-bcbd-4d28-b1b2-19e357bb0ad5","system_id":"levelo_inurba_marseille","lat":43.29685,"lon":5.37289,"is_reserved":false,"is_disabled":false,"rental_uris":{"android":"levelo://app?vid=96ac0ca3-bcbd-4d28-b1b2-19e357bb0ad5","ios":"levelo://app?vid=96ac0ca3-bcbd-4d28-b1b2-19e357bb0ad5"},"vehicle_type_id":"4","last_reported":1746202350,"current_range_meters":4800,"station_id":"ce4bgk12rcd13ifvqbj0","pricing_plan_id":"cebpf4jnsgd1na2vs0mg"},{"bike_id":"bb9bb03c-f2b3-4604-bf63-627c14952759","system_id":"levelo_inurba_marseille","lat":43.317283,"lon":5.437513,"is_reserved":false,"is_disabled":false,"rental_uris":{"android":"levelo://app?vid=bb9bb03c-f2b3-4604-bf63-627c14952759","ios":"levelo://app?vid=bb9bb03c-f2b3-4604-bf63-627c14952759"},"vehicle_type_id":"4","last_reported":1746202350,"current_range_meters":4800,"station_id":"ce4bhp92rcd13ifvqhcg","pricing_plan_id":"cebpf4jnsgd1na2vs0mg"},{"bike_id":"5610c778-f8ff-4c65-b91e-890f4d551c0f","system_id":"levelo_inurba_marseille","lat":43.25577,"lon":5.38231,"is_reserved":false,"is_disabled":false,"rental_uris":{"android":"levelo://app?vid=5610c778-f8ff-4c65-b91e-890f4d551c0f","ios":"levelo://app?vid=5610c778-f8ff-4c65-b91e-890f4d551c0f"},"vehicle_type_id":"4","last_reported":1746202350,"current_range_meters":5600,"station_id":"ce4bhih2rcd13ifvqfs0","pricing_plan_id":"cebpf4jnsgd1na2vs0mg"},{"bike_id":"f7e7f7d7-e936-449e-9899-683953b3faad","system_id":"levelo_inurba_marseille","lat":43.24181,"lon":5.39716,"is_reserved":false,"is_disabled":false,"rental_uris":{"android":"levelo://app?vid=f7e7f7d7-e936-449e-9899-683953b3faad","ios":"levelo://app?vid=f7e7f7d7-e936-449e-9899-683953b3faad"},"vehicle_type_id":"4","last_reported":1746202350,"current_range_meters":5600,"station_id":"ce4bhn12rcd13ifvqgpg","pricing_plan_id":"cebpf4jnsgd1na2vs0mg"},{"bike_id":"fd46b497-4284-4e5d-9bd0-383f1a7d6b96","system_id":"levelo_inurba_marseille","lat":43.30801,"lon":5.37671,"is_reserved":false,"is_disabled":false,"rental_uris":{"android":"levelo://app?vid=fd46b497-4284-4e5d-9bd0-383f1a7d6b96","ios":"levelo://app?vid=fd46b497-4284-4e5d-9bd0-383f1a7d6b96"},"vehicle_type_id":"4","last_reported":1746202350,"current_range_meters":6000,"station_id":"ce4bgv92rcd13ifvqcq0","pricing_plan_id":"cebpf4jnsgd1na2vs0mg"},{"bike_id":"5e1b7480-43d5-4c36-9c2b-338d6fb202ea","system_id":"levelo_inurba_marseille","lat":43.30261,"lon":5.40071,"is_reserved":false,"is_disabled":false,"rental_uris":{"android":"levelo://app?vid=5e1b7480-43d5-4c36-9c2b-338d6fb202ea","ios":"levelo://app?vid=5e1b7480-43d5-4c36-9c2b-338d6fb202ea"},"vehicle_type_id":"4","last_reported":1746202350,"current_range_meters":6000,"station_id":"ce4bgvh2rcd13ifvqcs0","pricing_plan_id":"cebpf4jnsgd1na2vs0mg"},{"bike_id":"89a9c8ef-25dd-4e77-ae50-8ad8fd3d0996","system_id":"levelo_inurba_marseille","lat":43.25873,"lon":5.39899,"is_reserved":false,"is_disabled":false,"rental_uris":{"android":"levelo://app?vid=89a9c8ef-25dd-4e77-ae50-8ad8fd3d0996","ios":"levelo://app?vid=89a9c8ef-25dd-4e77-ae50-8ad8fd3d0996"},"vehicle_type_id":"4","last_reported":1746202350,"current_range_meters":6000,"station_id":"ce4bhl92rcd13ifvqghg","pricing_plan_id":"cebpf4jnsgd1na2vs0mg"},{"bike_id":"51ef9827-05d4-4f72-abc3-c6fec8c5a095","system_id":"levelo_inurba_marseille","lat":43.23145,"lon":5.43701,"is_reserved":false,"is_disabled":false,"rental_uris":{"android":"levelo://app?vid=51ef9827-05d4-4f72-abc3-c6fec8c5a095","ios":"levelo://app?vid=51ef9827-05d4-4f72-abc3-c6fec8c5a095"},"vehicle_type_id":"4","last_reported":1746202350,"current_range_meters":6000,"station_id":"ce4bhmp2rcd13ifvqgog","pricing_plan_id":"cebpf4jnsgd1na2vs0mg"},{"bike_id":"8fb04209-e3a1-47f5-82f4-48d16f99b32a","system_id":"levelo_inurba_marseille","lat":43.32291,"lon":5.38274,"is_reserved":false,"is_disabled":false,"rental_uris":{"android":"levelo://app?vid=8fb04209-e3a1-47f5-82f4-48d16f99b32a","ios":"levelo://app?vid=8fb04209-e3a1-47f5-82f4-48d16f99b32a"},"vehicle_type_id":"4","last_reported":1746202350,"current_range_meters":6000,"station_id":"ce4bhr12rcd13ifvqhqg","pricing_plan_id":"cebpf4jnsgd1na2vs0mg"},{"bike_id":"7ce421db-13ba-480b-8c9a-cd87a0be2377","system_id":"levelo_inurba_marseille","lat":43.26752,"lon":5.39765,"is_reserved":false,"is_disabled":false,"rental_uris":{"android":"levelo://app?vid=7ce421db-13ba-480b-8c9a-cd87a0be2377","ios":"levelo://app?vid=7ce421db-13ba-480b-8c9a-cd87a0be2377"},"vehicle_type_id":"4","last_reported":1746202350,"current_range_meters":6400,"station_id":"","pricing_plan_id":"cebpf4jnsgd1na2vs0mg"},{"bike_id":"b233ae87-4ffe-4100-b3fc-5fabaf1b2098","system_id":"levelo_inurba_marseille","lat":43.29793,"lon":5.38098,"is_reserved":false,"is_disabled":false,"rental_uris":{"android":"levelo://app?vid=b233ae87-4ffe-4100-b3fc-5fabaf1b2098","ios":"levelo://app?vid=b233ae87-4ffe-4100-b3fc-5fabaf1b2098"},"vehicle_type_id":"4","last_reported":1746202350,"current_range_meters":6400,"station_id":"ce4bgip2rcd13ifvqbb0","pricing_plan_id":"cebpf4jnsgd1na2vs0mg"},{"bike_id":"23a771c5-bb35-47ec-9ebe-a44477aa2344","system_id":"levelo_inurba_marseille","lat":43.30256,"lon":5.40063,"is_reserved":false,"is_disabled":false,"rental_uris":{"android":"levelo://app?vid=23a771c5-bb35-47ec-9ebe-a44477aa2344","ios":"levelo://app?vid=23a771c5-bb35-47ec-9ebe-a44477aa2344"},"vehicle_type_id":"4","last_reported":1746202350,"current_range_meters":6400,"station_id":"ce4bgvh2rcd13ifvqcs0","pricing_plan_id":"cebpf4jnsgd1na2vs0mg"},{"bike_id":"b450f33d-2cda-4ee8-ab28-3afed1d46bad","system_id":"levelo_inurba_marseille","lat":43.30325,"lon":5.40427,"is_reserved":false,"is_disabled":false,"rental_uris":{"android":"levelo://app?vid=b450f33d-2cda-4ee8-ab28-3afed1d46bad","ios":"levelo://app?vid=b450f33d-2cda-4ee8-ab28-3afed1d46bad"},"vehicle_type_id":"4","last_reported":1746202350,"current_range_meters":6400,"station_id":"ce4bh012rcd13ifvqd10","pricing_plan_id":"cebpf4jnsgd1na2vs0mg"},{"bike_id":"e5b68f13-9fb3-4483-b188-3e9b79b8ec3d","system_id":"levelo_inurba_marseille","lat":43.29009,"lon":5.35622,"is_reserved":false,"is_disabled":false,"rental_uris":{"android":"levelo://app?vid=e5b68f13-9fb3-4483-b188-3e9b79b8ec3d","ios":"levelo://app?vid=e5b68f13-9fb3-4483-b188-3e9b79b8ec3d"},"vehicle_type_id":"4","last_reported":1746202350,"current_range_meters":6400,"station_id":"ce4bhb92rcd13ifvqen0","pricing_plan_id":"cebpf4jnsgd1na2vs0mg"},{"bike_id":"efa66726-5b5d-434d-9669-64bbd9e01ff1","system_id":"levelo_inurba_marseille","lat":43.287016,"lon":5.373778,"is_reserved":false,"is_disabled":false,"rental_uris":{"android":"levelo://app?vid=efa66726-5b5d-434d-9669-64bbd9e01ff1","ios":"levelo://app?vid=efa66726-5b5d-434d-9669-64bbd9e01ff1"},"vehicle_type_id":"4","last_reported":1746202350,"current_range_meters":6800,"station_id":"ce4bh3p2rcd13ifvqdq0","pricing_plan_id":"cebpf4jnsgd1na2vs0mg"},{"bike_id":"455f67f7-96c6-4a98-97ef-953c7a09ec6e","system_id":"levelo_inurba_marseille","lat":43.28488,"lon":5.38425,"is_reserved":false,"is_disabled":false,"rental_uris":{"android":"levelo://app?vid=455f67f7-96c6-4a98-97ef-953c7a09ec6e","ios":"levelo://app?vid=455f67f7-96c6-4a98-97ef-953c7a09ec6e"},"vehicle_type_id":"4","last_reported":1746202350,"current_range_meters":6800,"station_id":"ce4bh512rcd13ifvqe3g","pricing_plan_id":"cebpf4jnsgd1na2vs0mg"},{"bike_id":"cea6e3cc-b3f4-41ee-96d4-a1379fb83773","system_id":"levelo_inurba_marseille","lat":43.28858,"lon":5.35864,"is_reserved":false,"is_disabled":false,"rental_uris":{"android":"levelo://app?vid=cea6e3cc-b3f4-41ee-96d4-a1379fb83773","ios":"levelo://app?vid=cea6e3cc-b3f4-41ee-96d4-a1379fb83773"},"vehicle_type_id":"4","last_reported":1746202350,"current_range_meters":6800,"station_id":"ce4bhb12rcd13ifvqem0","pricing_plan_id":"cebpf4jnsgd1na2vs0mg"},{"bike_id":"ec6e978b-9792-4e4e-a934-3fa755734c8e","system_id":"levelo_inurba_marseille","lat":43.26573,"lon":5.39006,"is_reserved":false,"is_disabled":false,"rental_uris":{"android":"levelo://app?vid=ec6e978b-9792-4e4e-a934-3fa755734c8e","ios":"levelo://app?vid=ec6e978b-9792-4e4e-a934-3fa755734c8e"},"vehicle_type_id":"4","last_reported":1746202350,"current_range_meters":6800,"station_id":"ce4bhe12rcd13ifvqf30","pricing_plan_id":"cebpf4jnsgd1na2vs0mg"},{"bike_id":"dda24de9-9936-487d-8eb1-6c3c3f503f34","system_id":"levelo_inurba_marseille","lat":43.27212,"lon":5.3918,"is_reserved":false,"is_disabled":false,"rental_uris":{"android":"levelo://app?vid=dda24de9-9936-487d-8eb1-6c3c3f503f34","ios":"levelo://app?vid=dda24de9-9936-487d-8eb1-6c3c3f503f34"},"vehicle_type_id":"4","last_reported":1746202350,"current_range_meters":6800,"station_id":"ce4bhhp2rcd13ifvqfm0","pricing_plan_id":"cebpf4jnsgd1na2vs0mg"},{"bike_id":"e8f47a9e-ca1a-4cea-bb90-3aa0f08787b2","system_id":"levelo_inurba_marseille","lat":43.29261,"lon":5.38441,"is_reserved":false,"is_disabled":false,"rental_uris":{"android":"levelo://app?vid=e8f47a9e-ca1a-4cea-bb90-3aa0f08787b2","ios":"levelo://app?vid=e8f47a9e-ca1a-4cea-bb90-3aa0f08787b2"},"vehicle_type_id":"4","last_reported":1746202350,"current_range_meters":7200,"station_id":"ce4bh692rcd13ifvqea0","pricing_plan_id":"cebpf4jnsgd1na2vs0mg"},{"bike_id":"84b66351-e9bc-4702-838f-88965448fdfb","system_id":"levelo_inurba_marseille","lat":43.26946,"lon":5.38632,"is_reserved":false,"is_disabled":false,"rental_uris":{"android":"levelo://app?vid=84b66351-e9bc-4702-838f-88965448fdfb","ios":"levelo://app?vid=84b66351-e9bc-4702-838f-88965448fdfb"},"vehicle_type_id":"4","last_reported":1746202350,"current_range_meters":7200,"station_id":"ce4bhh92rcd13ifvqfh0","pricing_plan_id":"cebpf4jnsgd1na2vs0mg"},{"bike_id":"3af2679c-9f11-4224-8f25-44ae8f02c71a","system_id":"levelo_inurba_marseille","lat":43.26505,"lon":5.3954,"is_reserved":false,"is_disabled":false,"rental_uris":{"android":"levelo://app?vid=3af2679c-9f11-4224-8f25-44ae8f02c71a","ios":"levelo://app?vid=3af2679c-9f11-4224-8f25-44ae8f02c71a"},"vehicle_type_id":"4","last_reported":1746202350,"current_range_meters":7200,"station_id":"ce4bhi12rcd13ifvqfq0","pricing_plan_id":"cebpf4jnsgd1na2vs0mg"},{"bike_id":"77bde069-fc6b-48ce-b847-8ea8190b7aa5","system_id":"levelo_inurba_marseille","lat":43.29345,"lon":5.3823,"is_reserved":false,"is_disabled":false,"rental_uris":{"android":"levelo://app?vid=77bde069-fc6b-48ce-b847-8ea8190b7aa5","ios":"levelo://app?vid=77bde069-fc6b-48ce-b847-8ea8190b7aa5"},"vehicle_type_id":"4","last_reported":1746202350,"current_range_meters":8000,"station_id":"","pricing_plan_id":"cebpf4jnsgd1na2vs0mg"},{"bike_id":"7971fe93-5f1d-4a59-8508-b415e64fcb18","system_id":"levelo_inurba_marseille","lat":43.30977,"lon":5.37357,"is_reserved":false,"is_disabled":false,"rental_uris":{"android":"levelo://app?vid=7971fe93-5f1d-4a59-8508-b415e64fcb18","ios":"levelo://app?vid=7971fe93-5f1d-4a59-8508-b415e64fcb18"},"vehicle_type_id":"4","last_reported":1746202350,"current_range_meters":8000,"station_id":"","pricing_plan_id":"cebpf4jnsgd1na2vs0mg"},{"bike_id":"8604980c-60a7-46ba-b02e-228b66ee5622","system_id":"levelo_inurba_marseille","lat":43.31715,"lon":5.37732,"is_reserved":false,"is_disabled":false,"rental_uris":{"android":"levelo://app?vid=8604980c-60a7-46ba-b02e-228b66ee5622","ios":"levelo://app?vid=8604980c-60a7-46ba-b02e-228b66ee5622"},"vehicle_type_id":"4","last_reported":1746202350,"current_range_meters":8000,"station_id":"ce4bgth2rcd13ifvqch0","pricing_plan_id":"cebpf4jnsgd1na2vs0mg"},{"bike_id":"f0da7f80-b7da-4854-aafb-6049f4fe6da6","system_id":"levelo_inurba_marseille","lat":43.31754,"lon":5.39019,"is_reserved":false,"is_disabled":false,"rental_uris":{"android":"levelo://app?vid=f0da7f80-b7da-4854-aafb-6049f4fe6da6","ios":"levelo://app?vid=f0da7f80-b7da-4854-aafb-6049f4fe6da6"},"vehicle_type_id":"4","last_reported":1746202350,"current_range_meters":8000,"station_id":"ce4bhqp2rcd13ifvqhng","pricing_plan_id":"cebpf4jnsgd1na2vs0mg"},{"bike_id":"ea4e4446-55a5-437a-a5ff-17a7a6e07c84","system_id":"levelo_inurba_marseille","lat":43.32485,"lon":5.36572,"is_reserved":false,"is_disabled":false,"rental_uris":{"android":"levelo://app?vid=ea4e4446-55a5-437a-a5ff-17a7a6e07c84","ios":"levelo://app?vid=ea4e4446-55a5-437a-a5ff-17a7a6e07c84"},"vehicle_type_id":"4","last_reported":1746202350,"current_range_meters":8000,"station_id":"ce4bhs12rcd13ifvqhvg","pricing_plan_id":"cebpf4jnsgd1na2vs0mg"},{"bike_id":"0d6c5100-7db5-44d0-b9d6-cf2b96014798","system_id":"levelo_inurba_marseille","lat":43.310148,"lon":5.37493,"is_reserved":false,"is_disabled":false,"rental_uris":{"android":"levelo://app?vid=0d6c5100-7db5-44d0-b9d6-cf2b96014798","ios":"levelo://app?vid=0d6c5100-7db5-44d0-b9d6-cf2b96014798"},"vehicle_type_id":"4","last_reported":1746202350,"current_range_meters":8400,"station_id":"","pricing_plan_id":"cebpf4jnsgd1na2vs0mg"},{"bike_id":"ba1291bf-568d-477b-8e17-c284858000b8","system_id":"levelo_inurba_marseille","lat":43.338,"lon":5.37457,"is_reserved":false,"is_disabled":false,"rental_uris":{"android":"levelo://app?vid=ba1291bf-568d-477b-8e17-c284858000b8","ios":"levelo://app?vid=ba1291bf-568d-477b-8e17-c284858000b8"},"vehicle_type_id":"4","last_reported":1746202350,"current_range_meters":8400,"station_id":"","pricing_plan_id":"cebpf4jnsgd1na2vs0mg"},{"bike_id":"8bda883e-6040-410f-99e3-b5f959dab265","system_id":"levelo_inurba_marseille","lat":43.275238,"lon":5.384424,"is_reserved":false,"is_disabled":false,"rental_uris":{"android":"levelo://app?vid=8bda883e-6040-410f-99e3-b5f959dab265","ios":"levelo://app?vid=8bda883e-6040-410f-99e3-b5f959dab265"},"vehicle_type_id":"4","last_reported":1746202350,"current_range_meters":8400,"station_id":"ce4bhh92rcd13ifvqfi0","pricing_plan_id":"cebpf4jnsgd1na2vs0mg"},{"bike_id":"7432ad99-c249-43f4-8f16-0cdb6c063922","system_id":"levelo_inurba_marseille","lat":43.25102,"lon":5.40328,"is_reserved":false,"is_disabled":false,"rental_uris":{"android":"levelo://app?vid=7432ad99-c249-43f4-8f16-0cdb6c063922","ios":"levelo://app?vid=7432ad99-c249-43f4-8f16-0cdb6c063922"},"vehicle_type_id":"4","last_reported":1746202350,"current_range_meters":8400,"station_id":"ce4bhlh2rcd13ifvqgig","pricing_plan_id":"cebpf4jnsgd1na2vs0mg"},{"bike_id":"02d0bc8c-e756-4ce9-903c-d6c6e41b006c","system_id":"levelo_inurba_marseille","lat":43.30801,"lon":5.43529,"is_reserved":false,"is_disabled":false,"rental_uris":{"android":"levelo://app?vid=02d0bc8c-e756-4ce9-903c-d6c6e41b006c","ios":"levelo://app?vid=02d0bc8c-e756-4ce9-903c-d6c6e41b006c"},"vehicle_type_id":"4","last_reported":1746202350,"current_range_meters":8400,"station_id":"ce4bhph2rcd13ifvqheg","pricing_plan_id":"cebpf4jnsgd1na2vs0mg"},{"bike_id":"4a6851f9-34fb-48f6-8387-4b9c13325bed","system_id":"levelo_inurba_marseille","lat":43.32089,"lon":5.36794,"is_reserved":false,"is_disabled":false,"rental_uris":{"android":"levelo://app?vid=4a6851f9-34fb-48f6-8387-4b9c13325bed","ios":"levelo://app?vid=4a6851f9-34fb-48f6-8387-4b9c13325bed"},"vehicle_type_id":"4","last_reported":1746202350,"current_range_meters":8400,"station_id":"ce4bhrh2rcd13ifvqhug","pricing_plan_id":"cebpf4jnsgd1na2vs0mg"},{"bike_id":"9a59d77d-13ff-40c9-80cb-641515f30f15","system_id":"levelo_inurba_marseille","lat":43.28724,"lon":5.36096,"is_reserved":false,"is_disabled":false,"rental_uris":{"android":"levelo://app?vid=9a59d77d-13ff-40c9-80cb-641515f30f15","ios":"levelo://app?vid=9a59d77d-13ff-40c9-80cb-641515f30f15"},"vehicle_type_id":"4","last_reported":1746202350,"current_range_meters":8400,"station_id":"cki0cbj6b192h4jlfktg","pricing_plan_id":"cebpf4jnsgd1na2vs0mg"},{"bike_id":"2cbe9895-b61a-4e10-84d6-1db3b08d20aa","system_id":"levelo_inurba_marseille","lat":43.317582,"lon":5.39019,"is_reserved":false,"is_disabled":false,"rental_uris":{"android":"levelo://app?vid=2cbe9895-b61a-4e10-84d6-1db3b08d20aa","ios":"levelo://app?vid=2cbe9895-b61a-4e10-84d6-1db3b08d20aa"},"vehicle_type_id":"4","last_reported":1746202350,"current_range_meters":8800,"station_id":"ce4bhqp2rcd13ifvqhng","pricing_plan_id":"cebpf4jnsgd1na2vs0mg"},{"bike_id":"52653438-d935-4f61-a0a5-dc59b768eafc","system_id":"levelo_inurba_marseille","lat":43.32361,"lon":5.36762,"is_reserved":false,"is_disabled":false,"rental_uris":{"android":"levelo://app?vid=52653438-d935-4f61-a0a5-dc59b768eafc","ios":"levelo://app?vid=52653438-d935-4f61-a0a5-dc59b768eafc"},"vehicle_type_id":"4","last_reported":1746202350,"current_range_meters":8800,"station_id":"ce4bhsh2rcd13ifvqi2g","pricing_plan_id":"cebpf4jnsgd1na2vs0mg"},{"bike_id":"84acc6f9-7591-4f11-85b7-714c4c38c253","system_id":"levelo_inurba_marseille","lat":43.2981,"lon":5.381,"is_reserved":false,"is_disabled":false,"rental_uris":{"android":"levelo://app?vid=84acc6f9-7591-4f11-85b7-714c4c38c253","ios":"levelo://app?vid=84acc6f9-7591-4f11-85b7-714c4c38c253"},"vehicle_type_id":"4","last_reported":1746202350,"current_range_meters":9200,"station_id":"ce4bgip2rcd13ifvqbb0","pricing_plan_id":"cebpf4jnsgd1na2vs0mg"},{"bike_id":"a981ee64-3468-4a99-a2b4-03345fc34846","system_id":"levelo_inurba_marseille","lat":43.30248,"lon":5.40046,"is_reserved":false,"is_disabled":false,"rental_uris":{"android":"levelo://app?vid=a981ee64-3468-4a99-a2b4-03345fc34846","ios":"levelo://app?vid=a981ee64-3468-4a99-a2b4-03345fc34846"},"vehicle_type_id":"4","last_reported":1746202350,"current_range_meters":9200,"station_id":"ce4bgvh2rcd13ifvqcs0","pricing_plan_id":"cebpf4jnsgd1na2vs0mg"},{"bike_id":"87032214-d428-4af2-8ca5-770f05a7d873","system_id":"levelo_inurba_marseille","lat":43.29418,"lon":5.38626,"is_reserved":false,"is_disabled":false,"rental_uris":{"android":"levelo://app?vid=87032214-d428-4af2-8ca5-770f05a7d873","ios":"levelo://app?vid=87032214-d428-4af2-8ca5-770f05a7d873"},"vehicle_type_id":"4","last_reported":1746202350,"current_range_meters":9200,"station_id":"ce4bh2h2rcd13ifvqdh0","pricing_plan_id":"cebpf4jnsgd1na2vs0mg"},{"bike_id":"5beb34f8-af22-42cd-884e-4e8ffe2e1f3a","system_id":"levelo_inurba_marseille","lat":43.286057,"lon":5.370569,"is_reserved":false,"is_disabled":false,"rental_uris":{"android":"levelo://app?vid=5beb34f8-af22-42cd-884e-4e8ffe2e1f3a","ios":"levelo://app?vid=5beb34f8-af22-42cd-884e-4e8ffe2e1f3a"},"vehicle_type_id":"4","last_reported":1746202350,"current_range_meters":9200,"station_id":"ce4bht12rcd13ifvqi60","pricing_plan_id":"cebpf4jnsgd1na2vs0mg"},{"bike_id":"29a83445-0753-40f4-8ed7-c02207f310e3","system_id":"levelo_inurba_marseille","lat":43.28353,"lon":5.38518,"is_reserved":false,"is_disabled":false,"rental_uris":{"android":"levelo://app?vid=29a83445-0753-40f4-8ed7-c02207f310e3","ios":"levelo://app?vid=29a83445-0753-40f4-8ed7-c02207f310e3"},"vehicle_type_id":"4","last_reported":1746202350,"current_range_meters":9600,"station_id":"","pricing_plan_id":"cebpf4jnsgd1na2vs0mg"},{"bike_id":"045b2767-67d3-41b7-8618-6d27646a5585","system_id":"levelo_inurba_marseille","lat":43.31397,"lon":5.38614,"is_reserved":false,"is_disabled":false,"rental_uris":{"android":"levelo://app?vid=045b2767-67d3-41b7-8618-6d27646a5585","ios":"levelo://app?vid=045b2767-67d3-41b7-8618-6d27646a5585"},"vehicle_type_id":"4","last_reported":1746202350,"current_range_meters":9600,"station_id":"","pricing_plan_id":"cebpf4jnsgd1na2vs0mg"},{"bike_id":"b5b8f54d-4b8c-4645-ae78-14f6a3fd22f3","system_id":"levelo_inurba_marseille","lat":43.30263,"lon":5.40069,"is_reserved":false,"is_disabled":false,"rental_uris":{"android":"levelo://app?vid=b5b8f54d-4b8c-4645-ae78-14f6a3fd22f3","ios":"levelo://app?vid=b5b8f54d-4b8c-4645-ae78-14f6a3fd22f3"},"vehicle_type_id":"4","last_reported":1746202350,"current_range_meters":9600,"station_id":"ce4bgvh2rcd13ifvqcs0","pricing_plan_id":"cebpf4jnsgd1na2vs0mg"},{"bike_id":"2bba3e15-be5d-4ad2-8d09-4784eeba9bea","system_id":"levelo_inurba_marseille","lat":43.29867,"lon":5.39733,"is_reserved":false,"is_disabled":false,"rental_uris":{"android":"levelo://app?vid=2bba3e15-be5d-4ad2-8d09-4784eeba9bea","ios":"levelo://app?vid=2bba3e15-be5d-4ad2-8d09-4784eeba9bea"},"vehicle_type_id":"4","last_reported":1746202350,"current_range_meters":9600,"station_id":"ce4bh0h2rcd13ifvqd50","pricing_plan_id":"cebpf4jnsgd1na2vs0mg"},{"bike_id":"213395fa-5abf-4d20-85e1-f07dffc7fb05","system_id":"levelo_inurba_marseille","lat":43.31727,"lon":5.42424,"is_reserved":false,"is_disabled":false,"rental_uris":{"android":"levelo://app?vid=213395fa-5abf-4d20-85e1-f07dffc7fb05","ios":"levelo://app?vid=213395fa-5abf-4d20-85e1-f07dffc7fb05"},"vehicle_type_id":"4","last_reported":1746202350,"current_range_meters":9600,"station_id":"ce4bhp92rcd13ifvqhbg","pricing_plan_id":"cebpf4jnsgd1na2vs0mg"},{"bike_id":"fb8da9f6-1cc9-4ada-aa00-bc7f3659b05a","system_id":"levelo_inurba_marseille","lat":43.32339,"lon":5.40625,"is_reserved":false,"is_disabled":false,"rental_uris":{"android":"levelo://app?vid=fb8da9f6-1cc9-4ada-aa00-bc7f3659b05a","ios":"levelo://app?vid=fb8da9f6-1cc9-4ada-aa00-bc7f3659b05a"},"vehicle_type_id":"4","last_reported":1746202350,"current_range_meters":9600,"station_id":"ce4bhq92rcd13ifvqhjg","pricing_plan_id":"cebpf4jnsgd1na2vs0mg"},{"bike_id":"973f5f27-06e5-4c8a-a238-03f047d91a56","system_id":"levelo_inurba_marseille","lat":43.30891,"lon":5.39657,"is_reserved":false,"is_disabled":false,"rental_uris":{"android":"levelo://app?vid=973f5f27-06e5-4c8a-a238-03f047d91a56","ios":"levelo://app?vid=973f5f27-06e5-4c8a-a238-03f047d91a56"},"vehicle_type_id":"4","last_reported":1746202350,"current_range_meters":10000,"station_id":"ce4bh012rcd13ifvqcv0","pricing_plan_id":"cebpf4jnsgd1na2vs0mg"},{"bike_id":"db896046-9665-404d-8701-c82d909da654","system_id":"levelo_inurba_marseille","lat":43.3169,"lon":5.4047,"is_reserved":false,"is_disabled":false,"rental_uris":{"android":"levelo://app?vid=db896046-9665-404d-8701-c82d909da654","ios":"levelo://app?vid=db896046-9665-404d-8701-c82d909da654"},"vehicle_type_id":"4","last_reported":1746202350,"current_range_meters":10000,"station_id":"ce4bh012rcd13ifvqd00","pricing_plan_id":"cebpf4jnsgd1na2vs0mg"},{"bike_id":"e9d8fcfe-7819-424f-bebf-d45357c91759","system_id":"levelo_inurba_marseille","lat":43.30139,"lon":5.39882,"is_reserved":false,"is_disabled":false,"rental_uris":{"android":"levelo://app?vid=e9d8fcfe-7819-424f-bebf-d45357c91759","ios":"levelo://app?vid=e9d8fcfe-7819-424f-bebf-d45357c91759"},"vehicle_type_id":"4","last_reported":1746202350,"current_range_meters":10000,"station_id":"ce4bh0h2rcd13ifvqd40","pricing_plan_id":"cebpf4jnsgd1na2vs0mg"},{"bike_id":"4e15ea93-21bc-4d52-966e-02f9a452d251","system_id":"levelo_inurba_marseille","lat":43.29879,"lon":5.38907,"is_reserved":false,"is_disabled":false,"rental_uris":{"android":"levelo://app?vid=4e15ea93-21bc-4d52-966e-02f9a452d251","ios":"levelo://app?vid=4e15ea93-21bc-4d52-966e-02f9a452d251"},"vehicle_type_id":"4","last_reported":1746202350,"current_range_meters":10000,"station_id":"ce4bh392rcd13ifvqdl0","pricing_plan_id":"cebpf4jnsgd1na2vs0mg"},{"bike_id":"cc1b5cd5-6629-427b-87cb-6959f0126e26","system_id":"levelo_inurba_marseille","lat":43.324637,"lon":5.36554,"is_reserved":false,"is_disabled":false,"rental_uris":{"android":"levelo://app?vid=cc1b5cd5-6629-427b-87cb-6959f0126e26","ios":"levelo://app?vid=cc1b5cd5-6629-427b-87cb-6959f0126e26"},"vehicle_type_id":"4","last_reported":1746202350,"current_range_meters":10000,"station_id":"ce4bhs12rcd13ifvqhvg","pricing_plan_id":"cebpf4jnsgd1na2vs0mg"},{"bike_id":"7cef89b3-7616-4fec-a111-7960e7c9dc11","system_id":"levelo_inurba_marseille","lat":43.26822,"lon":5.39763,"is_reserved":false,"is_disabled":false,"rental_uris":{"android":"levelo://app?vid=7cef89b3-7616-4fec-a111-7960e7c9dc11","ios":"levelo://app?vid=7cef89b3-7616-4fec-a111-7960e7c9dc11"},"vehicle_type_id":"4","last_reported":1746202350,"current_range_meters":10800,"station_id":"","pricing_plan_id":"cebpf4jnsgd1na2vs0mg"},{"bike_id":"81ebb1a1-bfae-49d2-9e9b-92d0ce8fafed","system_id":"levelo_inurba_marseille","lat":43.29619,"lon":5.37722,"is_reserved":false,"is_disabled":false,"rental_uris":{"android":"levelo://app?vid=81ebb1a1-bfae-49d2-9e9b-92d0ce8fafed","ios":"levelo://app?vid=81ebb1a1-bfae-49d2-9e9b-92d0ce8fafed"},"vehicle_type_id":"4","last_reported":1746202350,"current_range_meters":10800,"station_id":"ce4bgi92rcd13ifvqb90","pricing_plan_id":"cebpf4jnsgd1na2vs0mg"},{"bike_id":"847e97b6-3434-40cb-a435-766baec445a2","system_id":"levelo_inurba_marseille","lat":43.29098,"lon":5.38151,"is_reserved":false,"is_disabled":false,"rental_uris":{"android":"levelo://app?vid=847e97b6-3434-40cb-a435-766baec445a2","ios":"levelo://app?vid=847e97b6-3434-40cb-a435-766baec445a2"},"vehicle_type_id":"4","last_reported":1746202350,"current_range_meters":10800,"station_id":"ce4bh512rcd13ifvqe2g","pricing_plan_id":"cebpf4jnsgd1na2vs0mg"},{"bike_id":"64337420-5500-46a9-9e0f-a10f530d4a4b","system_id":"levelo_inurba_marseille","lat":43.29271,"lon":5.38453,"is_reserved":false,"is_disabled":false,"rental_uris":{"android":"levelo://app?vid=64337420-5500-46a9-9e0f-a10f530d4a4b","ios":"levelo://app?vid=64337420-5500-46a9-9e0f-a10f530d4a4b"},"vehicle_type_id":"4","last_reported":1746202350,"current_range_meters":10800,"station_id":"ce4bh692rcd13ifvqea0","pricing_plan_id":"cebpf4jnsgd1na2vs0mg"},{"bike_id":"5607e47c-b1fa-4e77-b6d2-4bc03e8445a9","system_id":"levelo_inurba_marseille","lat":43.27967,"lon":5.38756,"is_reserved":false,"is_disabled":false,"rental_uris":{"android":"levelo://app?vid=5607e47c-b1fa-4e77-b6d2-4bc03e8445a9","ios":"levelo://app?vid=5607e47c-b1fa-4e77-b6d2-4bc03e8445a9"},"vehicle_type_id":"4","last_reported":1746202350,"current_range_meters":10800,"station_id":"ce4bhg12rcd13ifvqf80","pricing_plan_id":"cebpf4jnsgd1na2vs0mg"},{"bike_id":"f81ea1ed-d760-4383-aa1a-d632370fb8ed","system_id":"levelo_inurba_marseille","lat":43.23192,"lon":5.35553,"is_reserved":false,"is_disabled":false,"rental_uris":{"android":"levelo://app?vid=f81ea1ed-d760-4383-aa1a-d632370fb8ed","ios":"levelo://app?vid=f81ea1ed-d760-4383-aa1a-d632370fb8ed"},"vehicle_type_id":"4","last_reported":1746202350,"current_range_meters":10800,"station_id":"ce4bhu92rcd13ifvqi70","pricing_plan_id":"cebpf4jnsgd1na2vs0mg"},{"bike_id":"a2f098ea-b338-4fcd-94b8-11a9a8900b7c","system_id":"levelo_inurba_marseille","lat":43.28474,"lon":5.38409,"is_reserved":false,"is_disabled":false,"rental_uris":{"android":"levelo://app?vid=a2f098ea-b338-4fcd-94b8-11a9a8900b7c","ios":"levelo://app?vid=a2f098ea-b338-4fcd-94b8-11a9a8900b7c"},"vehicle_type_id":"4","last_reported":1746202350,"current_range_meters":11200,"station_id":"ce4bh512rcd13ifvqe3g","pricing_plan_id":"cebpf4jnsgd1na2vs0mg"},{"bike_id":"7bf210a0-a568-474f-ab8a-18c8a89d5ad9","system_id":"levelo_inurba_marseille","lat":43.26063,"lon":5.39401,"is_reserved":false,"is_disabled":false,"rental_uris":{"android":"levelo://app?vid=7bf210a0-a568-474f-ab8a-18c8a89d5ad9","ios":"levelo://app?vid=7bf210a0-a568-474f-ab8a-18c8a89d5ad9"},"vehicle_type_id":"4","last_reported":1746202350,"current_range_meters":11200,"station_id":"ce4bhh92rcd13ifvqfj0","pricing_plan_id":"cebpf4jnsgd1na2vs0mg"},{"bike_id":"996ece98-94d0-4ab8-83e1-c052f30ac155","system_id":"levelo_inurba_marseille","lat":43.24388,"lon":5.37055,"is_reserved":false,"is_disabled":false,"rental_uris":{"android":"levelo://app?vid=996ece98-94d0-4ab8-83e1-c052f30ac155","ios":"levelo://app?vid=996ece98-94d0-4ab8-83e1-c052f30ac155"},"vehicle_type_id":"4","last_reported":1746202350,"current_range_meters":11200,"station_id":"ce4bhhh2rcd13ifvqfk0","pricing_plan_id":"cebpf4jnsgd1na2vs0mg"},{"bike_id":"00a090c2-ef5c-4f77-aa70-e468ee45a302","system_id":"levelo_inurba_marseille","lat":43.30419,"lon":5.41291,"is_reserved":false,"is_disabled":false,"rental_uris":{"android":"levelo://app?vid=00a090c2-ef5c-4f77-aa70-e468ee45a302","ios":"levelo://app?vid=00a090c2-ef5c-4f77-aa70-e468ee45a302"},"vehicle_type_id":"4","last_reported":1746202350,"current_range_meters":11200,"station_id":"ce4bhop2rcd13ifvqh8g","pricing_plan_id":"cebpf4jnsgd1na2vs0mg"},{"bike_id":"6d74a9f5-3f03-4e8e-aa3b-29a84082925f","system_id":"levelo_inurba_marseille","lat":43.229342,"lon":5.353745,"is_reserved":false,"is_disabled":false,"rental_uris":{"android":"levelo://app?vid=6d74a9f5-3f03-4e8e-aa3b-29a84082925f","ios":"levelo://app?vid=6d74a9f5-3f03-4e8e-aa3b-29a84082925f"},"vehicle_type_id":"4","last_reported":1746202350,"current_range_meters":11200,"station_id":"cpo3532slgdg3j2ikp40","pricing_plan_id":"cebpf4jnsgd1na2vs0mg"},{"bike_id":"6789f728-458b-4466-90c1-b1ee273fb919","system_id":"levelo_inurba_marseille","lat":43.31687,"lon":5.40474,"is_reserved":false,"is_disabled":false,"rental_uris":{"android":"levelo://app?vid=6789f728-458b-4466-90c1-b1ee273fb919","ios":"levelo://app?vid=6789f728-458b-4466-90c1-b1ee273fb919"},"vehicle_type_id":"4","last_reported":1746202350,"current_range_meters":11600,"station_id":"ce4bh012rcd13ifvqd00","pricing_plan_id":"cebpf4jnsgd1na2vs0mg"},{"bike_id":"341bb3e0-dc84-47b3-93fe-f0e2219afa29","system_id":"levelo_inurba_marseille","lat":43.2911,"lon":5.3589,"is_reserved":false,"is_disabled":false,"rental_uris":{"android":"levelo://app?vid=341bb3e0-dc84-47b3-93fe-f0e2219afa29","ios":"levelo://app?vid=341bb3e0-dc84-47b3-93fe-f0e2219afa29"},"vehicle_type_id":"4","last_reported":1746202350,"current_range_meters":11600,"station_id":"ce4bha92rcd13ifvqeg0","pricing_plan_id":"cebpf4jnsgd1na2vs0mg"},{"bike_id":"08208fa9-2db0-4676-834e-87416dba141a","system_id":"levelo_inurba_marseille","lat":43.286083,"lon":5.370667,"is_reserved":false,"is_disabled":false,"rental_uris":{"android":"levelo://app?vid=08208fa9-2db0-4676-834e-87416dba141a","ios":"levelo://app?vid=08208fa9-2db0-4676-834e-87416dba141a"},"vehicle_type_id":"4","last_reported":1746202350,"current_range_meters":11600,"station_id":"ce4bht12rcd13ifvqi60","pricing_plan_id":"cebpf4jnsgd1na2vs0mg"},{"bike_id":"ca8fa3f0-84e7-4f0d-817c-4cea931c6ea8","system_id":"levelo_inurba_marseille","lat":43.327683,"lon":5.392197,"is_reserved":false,"is_disabled":false,"rental_uris":{"android":"levelo://app?vid=ca8fa3f0-84e7-4f0d-817c-4cea931c6ea8","ios":"levelo://app?vid=ca8fa3f0-84e7-4f0d-817c-4cea931c6ea8"},"vehicle_type_id":"4","last_reported":1746202350,"current_range_meters":12000,"station_id":"","pricing_plan_id":"cebpf4jnsgd1na2vs0mg"},{"bike_id":"4bbfda2e-4a25-400e-985b-94c2b8d7b9d4","system_id":"levelo_inurba_marseille","lat":43.29973,"lon":5.37192,"is_reserved":false,"is_disabled":false,"rental_uris":{"android":"levelo://app?vid=4bbfda2e-4a25-400e-985b-94c2b8d7b9d4","ios":"levelo://app?vid=4bbfda2e-4a25-400e-985b-94c2b8d7b9d4"},"vehicle_type_id":"4","last_reported":1746202350,"current_range_meters":12000,"station_id":"ce4bgr92rcd13ifvqc7g","pricing_plan_id":"cebpf4jnsgd1na2vs0mg"},{"bike_id":"def2721c-7260-45ca-9c84-b58f7704f610","system_id":"levelo_inurba_marseille","lat":43.28381,"lon":5.38638,"is_reserved":false,"is_disabled":false,"rental_uris":{"android":"levelo://app?vid=def2721c-7260-45ca-9c84-b58f7704f610","ios":"levelo://app?vid=def2721c-7260-45ca-9c84-b58f7704f610"},"vehicle_type_id":"4","last_reported":1746202350,"current_range_meters":12000,"station_id":"ce4bh492rcd13ifvqdvg","pricing_plan_id":"cebpf4jnsgd1na2vs0mg"},{"bike_id":"79a3c54c-acef-412f-bcb3-50ee203ceb6c","system_id":"levelo_inurba_marseille","lat":43.25489,"lon":5.376551,"is_reserved":false,"is_disabled":false,"rental_uris":{"android":"levelo://app?vid=79a3c54c-acef-412f-bcb3-50ee203ceb6c","ios":"levelo://app?vid=79a3c54c-acef-412f-bcb3-50ee203ceb6c"},"vehicle_type_id":"4","last_reported":1746202350,"current_range_meters":12000,"station_id":"ce4bhh12rcd13ifvqff0","pricing_plan_id":"cebpf4jnsgd1na2vs0mg"},{"bike_id":"86052b55-e4f4-41a7-a175-e195eb43093a","system_id":"levelo_inurba_marseille","lat":43.26058,"lon":5.394,"is_reserved":false,"is_disabled":false,"rental_uris":{"android":"levelo://app?vid=86052b55-e4f4-41a7-a175-e195eb43093a","ios":"levelo://app?vid=86052b55-e4f4-41a7-a175-e195eb43093a"},"vehicle_type_id":"4","last_reported":1746202350,"current_range_meters":12400,"station_id":"ce4bhh92rcd13ifvqfj0","pricing_plan_id":"cebpf4jnsgd1na2vs0mg"},{"bike_id":"b0f79eba-6b9f-47b0-b341-2d1812356c64","system_id":"levelo_inurba_marseille","lat":43.25096,"lon":5.39538,"is_reserved":false,"is_disabled":false,"rental_uris":{"android":"levelo://app?vid=b0f79eba-6b9f-47b0-b341-2d1812356c64","ios":"levelo://app?vid=b0f79eba-6b9f-47b0-b341-2d1812356c64"},"vehicle_type_id":"4","last_reported":1746202350,"current_range_meters":12400,"station_id":"ce4bhm12rcd13ifvqgkg","pricing_plan_id":"cebpf4jnsgd1na2vs0mg"},{"bike_id":"6477d804-73e7-4cb6-84b2-71e934cc5f72","system_id":"levelo_inurba_marseille","lat":43.25079,"lon":5.39526,"is_reserved":false,"is_disabled":false,"rental_uris":{"android":"levelo://app?vid=6477d804-73e7-4cb6-84b2-71e934cc5f72","ios":"levelo://app?vid=6477d804-73e7-4cb6-84b2-71e934cc5f72"},"vehicle_type_id":"4","last_reported":1746202350,"current_range_meters":12400,"station_id":"ce4bhm12rcd13ifvqgkg","pricing_plan_id":"cebpf4jnsgd1na2vs0mg"},{"bike_id":"a6023a85-a5c4-4bff-84b4-2c3f7260f5ad","system_id":"levelo_inurba_marseille","lat":43.24187,"lon":5.3972,"is_reserved":false,"is_disabled":false,"rental_uris":{"android":"levelo://app?vid=a6023a85-a5c4-4bff-84b4-2c3f7260f5ad","ios":"levelo://app?vid=a6023a85-a5c4-4bff-84b4-2c3f7260f5ad"},"vehicle_type_id":"4","last_reported":1746202350,"current_range_meters":12400,"station_id":"ce4bhn12rcd13ifvqgpg","pricing_plan_id":"cebpf4jnsgd1na2vs0mg"},{"bike_id":"e0e163c0-b70c-478b-a240-966060226969","system_id":"levelo_inurba_marseille","lat":43.292435,"lon":5.361975,"is_reserved":false,"is_disabled":false,"rental_uris":{"android":"levelo://app?vid=e0e163c0-b70c-478b-a240-966060226969","ios":"levelo://app?vid=e0e163c0-b70c-478b-a240-966060226969"},"vehicle_type_id":"4","last_reported":1746202350,"current_range_meters":12800,"station_id":"","pricing_plan_id":"cebpf4jnsgd1na2vs0mg"},{"bike_id":"4443c328-203b-4e54-b950-2dbba55131da","system_id":"levelo_inurba_marseille","lat":43.30317,"lon":5.40445,"is_reserved":false,"is_disabled":false,"rental_uris":{"android":"levelo://app?vid=4443c328-203b-4e54-b950-2dbba55131da","ios":"levelo://app?vid=4443c328-203b-4e54-b950-2dbba55131da"},"vehicle_type_id":"4","last_reported":1746202350,"current_range_meters":12800,"station_id":"ce4bh012rcd13ifvqd10","pricing_plan_id":"cebpf4jnsgd1na2vs0mg"},{"bike_id":"78183250-ccf2-49fa-992d-87667a910d70","system_id":"levelo_inurba_marseille","lat":43.29873,"lon":5.39736,"is_reserved":false,"is_disabled":false,"rental_uris":{"android":"levelo://app?vid=78183250-ccf2-49fa-992d-87667a910d70","ios":"levelo://app?vid=78183250-ccf2-49fa-992d-87667a910d70"},"vehicle_type_id":"4","last_reported":1746202350,"current_range_meters":12800,"station_id":"ce4bh0h2rcd13ifvqd50","pricing_plan_id":"cebpf4jnsgd1na2vs0mg"},{"bike_id":"0d3bcae3-7e24-4ca7-8c01-52d25e51ab57","system_id":"levelo_inurba_marseille","lat":43.292716,"lon":5.368434,"is_reserved":false,"is_disabled":false,"rental_uris":{"android":"levelo://app?vid=0d3bcae3-7e24-4ca7-8c01-52d25e51ab57","ios":"levelo://app?vid=0d3bcae3-7e24-4ca7-8c01-52d25e51ab57"},"vehicle_type_id":"4","last_reported":1746202350,"current_range_meters":12800,"station_id":"ce4bhbp2rcd13ifvqesg","pricing_plan_id":"cebpf4jnsgd1na2vs0mg"},{"bike_id":"0dc2c621-d26a-4728-8a28-bbaf03d0da3d","system_id":"levelo_inurba_marseille","lat":43.2791,"lon":5.38021,"is_reserved":false,"is_disabled":false,"rental_uris":{"android":"levelo://app?vid=0dc2c621-d26a-4728-8a28-bbaf03d0da3d","ios":"levelo://app?vid=0dc2c621-d26a-4728-8a28-bbaf03d0da3d"},"vehicle_type_id":"4","last_reported":1746202350,"current_range_meters":12800,"station_id":"ce4bhf92rcd13ifvqf50","pricing_plan_id":"cebpf4jnsgd1na2vs0mg"},{"bike_id":"4072f1b0-a712-4536-8a42-90a0ae2b109c","system_id":"levelo_inurba_marseille","lat":43.28,"lon":5.40019,"is_reserved":false,"is_disabled":false,"rental_uris":{"android":"levelo://app?vid=4072f1b0-a712-4536-8a42-90a0ae2b109c","ios":"levelo://app?vid=4072f1b0-a712-4536-8a42-90a0ae2b109c"},"vehicle_type_id":"4","last_reported":1746202350,"current_range_meters":12800,"station_id":"ce4bho92rcd13ifvqh4g","pricing_plan_id":"cebpf4jnsgd1na2vs0mg"},{"bike_id":"2cce8745-f47d-491d-9776-93cf9f036027","system_id":"levelo_inurba_marseille","lat":43.30817,"lon":5.43512,"is_reserved":false,"is_disabled":false,"rental_uris":{"android":"levelo://app?vid=2cce8745-f47d-491d-9776-93cf9f036027","ios":"levelo://app?vid=2cce8745-f47d-491d-9776-93cf9f036027"},"vehicle_type_id":"4","last_reported":1746202350,"current_range_meters":12800,"station_id":"ce4bhph2rcd13ifvqheg","pricing_plan_id":"cebpf4jnsgd1na2vs0mg"},{"bike_id":"237d016c-70fd-49bc-9f6f-85615f350817","system_id":"levelo_inurba_marseille","lat":43.292,"lon":5.35813,"is_reserved":false,"is_disabled":false,"rental_uris":{"android":"levelo://app?vid=237d016c-70fd-49bc-9f6f-85615f350817","ios":"levelo://app?vid=237d016c-70fd-49bc-9f6f-85615f350817"},"vehicle_type_id":"4","last_reported":1746202350,"current_range_meters":13600,"station_id":"ce4bhb12rcd13ifvqel0","pricing_plan_id":"cebpf4jnsgd1na2vs0mg"},{"bike_id":"00e66528-d941-4c40-89b5-cba3fcddc0ff","system_id":"levelo_inurba_marseille","lat":43.21241,"lon":5.35083,"is_reserved":false,"is_disabled":false,"rental_uris":{"android":"levelo://app?vid=00e66528-d941-4c40-89b5-cba3fcddc0ff","ios":"levelo://app?vid=00e66528-d941-4c40-89b5-cba3fcddc0ff"},"vehicle_type_id":"4","last_reported":1746202350,"current_range_meters":14000,"station_id":"","pricing_plan_id":"cebpf4jnsgd1na2vs0mg"},{"bike_id":"596de3b6-7e55-4713-9cec-e71ac7aa6f6d","system_id":"levelo_inurba_marseille","lat":43.30957,"lon":5.39042,"is_reserved":false,"is_disabled":false,"rental_uris":{"android":"levelo://app?vid=596de3b6-7e55-4713-9cec-e71ac7aa6f6d","ios":"levelo://app?vid=596de3b6-7e55-4713-9cec-e71ac7aa6f6d"},"vehicle_type_id":"4","last_reported":1746202350,"current_range_meters":14000,"station_id":"ce4bgup2rcd13ifvqco0","pricing_plan_id":"cebpf4jnsgd1na2vs0mg"},{"bike_id":"dd7a74df-0bd1-4f87-a4a9-cb6fb55fdea7","system_id":"levelo_inurba_marseille","lat":43.29202,"lon":5.35817,"is_reserved":false,"is_disabled":false,"rental_uris":{"android":"levelo://app?vid=dd7a74df-0bd1-4f87-a4a9-cb6fb55fdea7","ios":"levelo://app?vid=dd7a74df-0bd1-4f87-a4a9-cb6fb55fdea7"},"vehicle_type_id":"4","last_reported":1746202350,"current_range_meters":14000,"station_id":"ce4bhb12rcd13ifvqel0","pricing_plan_id":"cebpf4jnsgd1na2vs0mg"},{"bike_id":"a4f905c2-9f54-453f-b1f4-c4cd368e4631","system_id":"levelo_inurba_marseille","lat":43.27569,"lon":5.38416,"is_reserved":false,"is_disabled":false,"rental_uris":{"android":"levelo://app?vid=a4f905c2-9f54-453f-b1f4-c4cd368e4631","ios":"levelo://app?vid=a4f905c2-9f54-453f-b1f4-c4cd368e4631"},"vehicle_type_id":"4","last_reported":1746202350,"current_range_meters":14000,"station_id":"ce4bhh92rcd13ifvqfi0","pricing_plan_id":"cebpf4jnsgd1na2vs0mg"},{"bike_id":"fd2c3c67-23a6-4380-b7ca-8f23c8f78921","system_id":"levelo_inurba_marseille","lat":43.3237,"lon":5.36761,"is_reserved":false,"is_disabled":false,"rental_uris":{"android":"levelo://app?vid=fd2c3c67-23a6-4380-b7ca-8f23c8f78921","ios":"levelo://app?vid=fd2c3c67-23a6-4380-b7ca-8f23c8f78921"},"vehicle_type_id":"4","last_reported":1746202350,"current_range_meters":14000,"station_id":"ce4bhsh2rcd13ifvqi2g","pricing_plan_id":"cebpf4jnsgd1na2vs0mg"},{"bike_id":"cfc5f69c-169a-4dba-b60a-03c696edbc40","system_id":"levelo_inurba_marseille","lat":43.33433,"lon":5.40039,"is_reserved":false,"is_disabled":false,"rental_uris":{"android":"levelo://app?vid=cfc5f69c-169a-4dba-b60a-03c696edbc40","ios":"levelo://app?vid=cfc5f69c-169a-4dba-b60a-03c696edbc40"},"vehicle_type_id":"4","last_reported":1746202350,"current_range_meters":14400,"station_id":"","pricing_plan_id":"cebpf4jnsgd1na2vs0mg"},{"bike_id":"5a0c0985-76a1-44c5-976a-a8dcae1ecd9d","system_id":"levelo_inurba_marseille","lat":43.28431,"lon":5.37512,"is_reserved":false,"is_disabled":false,"rental_uris":{"android":"levelo://app?vid=5a0c0985-76a1-44c5-976a-a8dcae1ecd9d","ios":"levelo://app?vid=5a0c0985-76a1-44c5-976a-a8dcae1ecd9d"},"vehicle_type_id":"4","last_reported":1746202350,"current_range_meters":14400,"station_id":"ce4bh412rcd13ifvqds0","pricing_plan_id":"cebpf4jnsgd1na2vs0mg"},{"bike_id":"cfe69941-c5e5-49da-a86e-d46d9b9cc1b2","system_id":"levelo_inurba_marseille","lat":43.28999,"lon":5.37843,"is_reserved":false,"is_disabled":false,"rental_uris":{"android":"levelo://app?vid=cfe69941-c5e5-49da-a86e-d46d9b9cc1b2","ios":"levelo://app?vid=cfe69941-c5e5-49da-a86e-d46d9b9cc1b2"},"vehicle_type_id":"4","last_reported":1746202350,"current_range_meters":14400,"station_id":"ce4bh9p2rcd13ifvqed0","pricing_plan_id":"cebpf4jnsgd1na2vs0mg"},{"bike_id":"cd446dc4-b641-483e-b500-6353a2dfa7ba","system_id":"levelo_inurba_marseille","lat":43.29174,"lon":5.3559,"is_reserved":false,"is_disabled":false,"rental_uris":{"android":"levelo://app?vid=cd446dc4-b641-483e-b500-6353a2dfa7ba","ios":"levelo://app?vid=cd446dc4-b641-483e-b500-6353a2dfa7ba"},"vehicle_type_id":"4","last_reported":1746202350,"current_range_meters":14800,"station_id":"","pricing_plan_id":"cebpf4jnsgd1na2vs0mg"},{"bike_id":"43b43b6f-e41f-4001-ae6e-c1401565d54f","system_id":"levelo_inurba_marseille","lat":43.25867,"lon":5.39896,"is_reserved":false,"is_disabled":false,"rental_uris":{"android":"levelo://app?vid=43b43b6f-e41f-4001-ae6e-c1401565d54f","ios":"levelo://app?vid=43b43b6f-e41f-4001-ae6e-c1401565d54f"},"vehicle_type_id":"4","last_reported":1746202350,"current_range_meters":14800,"station_id":"ce4bhl92rcd13ifvqghg","pricing_plan_id":"cebpf4jnsgd1na2vs0mg"},{"bike_id":"e5dec0cd-1652-44a8-a78f-beb3b3f03f4b","system_id":"levelo_inurba_marseille","lat":43.30326,"lon":5.40434,"is_reserved":false,"is_disabled":false,"rental_uris":{"android":"levelo://app?vid=e5dec0cd-1652-44a8-a78f-beb3b3f03f4b","ios":"levelo://app?vid=e5dec0cd-1652-44a8-a78f-beb3b3f03f4b"},"vehicle_type_id":"4","last_reported":1746202350,"current_range_meters":15200,"station_id":"ce4bh012rcd13ifvqd10","pricing_plan_id":"cebpf4jnsgd1na2vs0mg"},{"bike_id":"570b486c-50df-4f1f-97df-caa86c0d419e","system_id":"levelo_inurba_marseille","lat":43.32905,"lon":5.3551,"is_reserved":false,"is_disabled":false,"rental_uris":{"android":"levelo://app?vid=570b486c-50df-4f1f-97df-caa86c0d419e","ios":"levelo://app?vid=570b486c-50df-4f1f-97df-caa86c0d419e"},"vehicle_type_id":"4","last_reported":1746202350,"current_range_meters":16000,"station_id":"","pricing_plan_id":"cebpf4jnsgd1na2vs0mg"},{"bike_id":"ca5fabd5-2041-49f7-8efa-5b1e1a132dfc","system_id":"levelo_inurba_marseille","lat":43.313676,"lon":5.371686,"is_reserved":false,"is_disabled":false,"rental_uris":{"android":"levelo://app?vid=ca5fabd5-2041-49f7-8efa-5b1e1a132dfc","ios":"levelo://app?vid=ca5fabd5-2041-49f7-8efa-5b1e1a132dfc"},"vehicle_type_id":"4","last_reported":1746202350,"current_range_meters":16000,"station_id":"","pricing_plan_id":"cebpf4jnsgd1na2vs0mg"},{"bike_id":"97230667-be23-49a9-bc30-55fbf9838b57","system_id":"levelo_inurba_marseille","lat":43.29939,"lon":5.36549,"is_reserved":false,"is_disabled":false,"rental_uris":{"android":"levelo://app?vid=97230667-be23-49a9-bc30-55fbf9838b57","ios":"levelo://app?vid=97230667-be23-49a9-bc30-55fbf9838b57"},"vehicle_type_id":"4","last_reported":1746202350,"current_range_meters":16000,"station_id":"ce4bgm92rcd13ifvqbr0","pricing_plan_id":"cebpf4jnsgd1na2vs0mg"},{"bike_id":"0d78efc2-0e30-48cc-9700-faaed2f83d2e","system_id":"levelo_inurba_marseille","lat":43.32639,"lon":5.41026,"is_reserved":false,"is_disabled":false,"rental_uris":{"android":"levelo://app?vid=0d78efc2-0e30-48cc-9700-faaed2f83d2e","ios":"levelo://app?vid=0d78efc2-0e30-48cc-9700-faaed2f83d2e"},"vehicle_type_id":"4","last_reported":1746202350,"current_range_meters":16000,"station_id":"ce4bhpp2rcd13ifvqhgg","pricing_plan_id":"cebpf4jnsgd1na2vs0mg"},{"bike_id":"5dfbb0d5-e802-4802-b910-badb825075f9","system_id":"levelo_inurba_marseille","lat":43.317593,"lon":5.390163,"is_reserved":false,"is_disabled":false,"rental_uris":{"android":"levelo://app?vid=5dfbb0d5-e802-4802-b910-badb825075f9","ios":"levelo://app?vid=5dfbb0d5-e802-4802-b910-badb825075f9"},"vehicle_type_id":"4","last_reported":1746202350,"current_range_meters":16000,"station_id":"ce4bhqp2rcd13ifvqhng","pricing_plan_id":"cebpf4jnsgd1na2vs0mg"},{"bike_id":"fb80c1da-d845-467b-9c3b-2f591f4d56ae","system_id":"levelo_inurba_marseille","lat":43.31998,"lon":5.37631,"is_reserved":false,"is_disabled":false,"rental_uris":{"android":"levelo://app?vid=fb80c1da-d845-467b-9c3b-2f591f4d56ae","ios":"levelo://app?vid=fb80c1da-d845-467b-9c3b-2f591f4d56ae"},"vehicle_type_id":"4","last_reported":1746202350,"current_range_meters":16400,"station_id":"","pricing_plan_id":"cebpf4jnsgd1na2vs0mg"},{"bike_id":"038661f0-ee91-417a-96f1-4b143c894b61","system_id":"levelo_inurba_marseille","lat":43.29975,"lon":5.38509,"is_reserved":false,"is_disabled":false,"rental_uris":{"android":"levelo://app?vid=038661f0-ee91-417a-96f1-4b143c894b61","ios":"levelo://app?vid=038661f0-ee91-417a-96f1-4b143c894b61"},"vehicle_type_id":"4","last_reported":1746202350,"current_range_meters":16400,"station_id":"ce4bgj92rcd13ifvqbd0","pricing_plan_id":"cebpf4jnsgd1na2vs0mg"},{"bike_id":"c4ec8bb7-842d-4d5b-959e-e8968bb5d745","system_id":"levelo_inurba_marseille","lat":43.30541,"lon":5.36554,"is_reserved":false,"is_disabled":false,"rental_uris":{"android":"levelo://app?vid=c4ec8bb7-842d-4d5b-959e-e8968bb5d745","ios":"levelo://app?vid=c4ec8bb7-842d-4d5b-959e-e8968bb5d745"},"vehicle_type_id":"4","last_reported":1746202350,"current_range_meters":16400,"station_id":"ce4bgs12rcd13ifvqcag","pricing_plan_id":"cebpf4jnsgd1na2vs0mg"},{"bike_id":"606118d3-fbc3-46d2-9186-85db9f0d665b","system_id":"levelo_inurba_marseille","lat":43.230612,"lon":5.355031,"is_reserved":false,"is_disabled":false,"rental_uris":{"android":"levelo://app?vid=606118d3-fbc3-46d2-9186-85db9f0d665b","ios":"levelo://app?vid=606118d3-fbc3-46d2-9186-85db9f0d665b"},"vehicle_type_id":"4","last_reported":1746202350,"current_range_meters":16400,"station_id":"cpo3342slgdg3j2ifvpg","pricing_plan_id":"cebpf4jnsgd1na2vs0mg"},{"bike_id":"17bcfe73-c6e2-474b-ba3d-b902ac9e15a8","system_id":"levelo_inurba_marseille","lat":43.22953,"lon":5.35381,"is_reserved":false,"is_disabled":false,"rental_uris":{"android":"levelo://app?vid=17bcfe73-c6e2-474b-ba3d-b902ac9e15a8","ios":"levelo://app?vid=17bcfe73-c6e2-474b-ba3d-b902ac9e15a8"},"vehicle_type_id":"4","last_reported":1746202350,"current_range_meters":16400,"station_id":"cpo3532slgdg3j2ikp40","pricing_plan_id":"cebpf4jnsgd1na2vs0mg"},{"bike_id":"acbb6641-2026-488f-9159-977ad264cf28","system_id":"levelo_inurba_marseille","lat":43.2945,"lon":5.38532,"is_reserved":false,"is_disabled":false,"rental_uris":{"android":"levelo://app?vid=acbb6641-2026-488f-9159-977ad264cf28","ios":"levelo://app?vid=acbb6641-2026-488f-9159-977ad264cf28"},"vehicle_type_id":"4","last_reported":1746202350,"current_range_meters":16800,"station_id":"ce4bh2h2rcd13ifvqdh0","pricing_plan_id":"cebpf4jnsgd1na2vs0mg"},{"bike_id":"2c0d7809-fbd4-40c7-9c10-0929c3691d63","system_id":"levelo_inurba_marseille","lat":43.27897,"lon":5.3802,"is_reserved":false,"is_disabled":false,"rental_uris":{"android":"levelo://app?vid=2c0d7809-fbd4-40c7-9c10-0929c3691d63","ios":"levelo://app?vid=2c0d7809-fbd4-40c7-9c10-0929c3691d63"},"vehicle_type_id":"4","last_reported":1746202350,"current_range_meters":16800,"station_id":"ce4bhf92rcd13ifvqf50","pricing_plan_id":"cebpf4jnsgd1na2vs0mg"},{"bike_id":"6f2bea06-00a4-4cc4-bd3c-8b10038acbdb","system_id":"levelo_inurba_marseille","lat":43.31762,"lon":5.39013,"is_reserved":false,"is_disabled":false,"rental_uris":{"android":"levelo://app?vid=6f2bea06-00a4-4cc4-bd3c-8b10038acbdb","ios":"levelo://app?vid=6f2bea06-00a4-4cc4-bd3c-8b10038acbdb"},"vehicle_type_id":"4","last_reported":1746202350,"current_range_meters":16800,"station_id":"ce4bhqp2rcd13ifvqhng","pricing_plan_id":"cebpf4jnsgd1na2vs0mg"},{"bike_id":"3fa05eab-bd38-4e51-9d14-fab3387355a7","system_id":"levelo_inurba_marseille","lat":43.32283,"lon":5.38274,"is_reserved":false,"is_disabled":false,"rental_uris":{"android":"levelo://app?vid=3fa05eab-bd38-4e51-9d14-fab3387355a7","ios":"levelo://app?vid=3fa05eab-bd38-4e51-9d14-fab3387355a7"},"vehicle_type_id":"4","last_reported":1746202350,"current_range_meters":16800,"station_id":"ce4bhr12rcd13ifvqhqg","pricing_plan_id":"cebpf4jnsgd1na2vs0mg"},{"bike_id":"9e29b67e-1c9b-444a-966a-99112c7b8086","system_id":"levelo_inurba_marseille","lat":43.29917,"lon":5.37482,"is_reserved":false,"is_disabled":false,"rental_uris":{"android":"levelo://app?vid=9e29b67e-1c9b-444a-966a-99112c7b8086","ios":"levelo://app?vid=9e29b67e-1c9b-444a-966a-99112c7b8086"},"vehicle_type_id":"4","last_reported":1746202350,"current_range_meters":17200,"station_id":"ce4bgjh2rcd13ifvqbg0","pricing_plan_id":"cebpf4jnsgd1na2vs0mg"},{"bike_id":"3df8be99-7be6-46c6-b082-80398cce44b2","system_id":"levelo_inurba_marseille","lat":43.29276,"lon":5.36846,"is_reserved":false,"is_disabled":false,"rental_uris":{"android":"levelo://app?vid=3df8be99-7be6-46c6-b082-80398cce44b2","ios":"levelo://app?vid=3df8be99-7be6-46c6-b082-80398cce44b2"},"vehicle_type_id":"4","last_reported":1746202350,"current_range_meters":17200,"station_id":"ce4bhbp2rcd13ifvqesg","pricing_plan_id":"cebpf4jnsgd1na2vs0mg"},{"bike_id":"657ded5c-6c77-45d6-befa-b660a4da5b09","system_id":"levelo_inurba_marseille","lat":43.30322,"lon":5.40439,"is_reserved":false,"is_disabled":false,"rental_uris":{"android":"levelo://app?vid=657ded5c-6c77-45d6-befa-b660a4da5b09","ios":"levelo://app?vid=657ded5c-6c77-45d6-befa-b660a4da5b09"},"vehicle_type_id":"4","last_reported":1746202350,"current_range_meters":17600,"station_id":"ce4bh012rcd13ifvqd10","pricing_plan_id":"cebpf4jnsgd1na2vs0mg"},{"bike_id":"8358e3d0-6639-4ac2-ba04-8477e18cc50d","system_id":"levelo_inurba_marseille","lat":43.33216,"lon":5.38558,"is_reserved":false,"is_disabled":false,"rental_uris":{"android":"levelo://app?vid=8358e3d0-6639-4ac2-ba04-8477e18cc50d","ios":"levelo://app?vid=8358e3d0-6639-4ac2-ba04-8477e18cc50d"},"vehicle_type_id":"4","last_reported":1746202350,"current_range_meters":18000,"station_id":"","pricing_plan_id":"cebpf4jnsgd1na2vs0mg"},{"bike_id":"d8c174a8-7ff3-4efc-a604-6ab30901b482","system_id":"levelo_inurba_marseille","lat":43.322,"lon":5.37466,"is_reserved":false,"is_disabled":false,"rental_uris":{"android":"levelo://app?vid=d8c174a8-7ff3-4efc-a604-6ab30901b482","ios":"levelo://app?vid=d8c174a8-7ff3-4efc-a604-6ab30901b482"},"vehicle_type_id":"4","last_reported":1746202350,"current_range_meters":18000,"station_id":"","pricing_plan_id":"cebpf4jnsgd1na2vs0mg"},{"bike_id":"8a722954-64ad-463e-acfc-3d410c24e99b","system_id":"levelo_inurba_marseille","lat":43.295155,"lon":5.394016,"is_reserved":false,"is_disabled":false,"rental_uris":{"android":"levelo://app?vid=8a722954-64ad-463e-acfc-3d410c24e99b","ios":"levelo://app?vid=8a722954-64ad-463e-acfc-3d410c24e99b"},"vehicle_type_id":"4","last_reported":1746202350,"current_range_meters":18000,"station_id":"ce4bh292rcd13ifvqdf0","pricing_plan_id":"cebpf4jnsgd1na2vs0mg"},{"bike_id":"b7691a40-d599-45f1-9e0d-7d15b3ad0d8f","system_id":"levelo_inurba_marseille","lat":43.29199,"lon":5.35804,"is_reserved":false,"is_disabled":false,"rental_uris":{"android":"levelo://app?vid=b7691a40-d599-45f1-9e0d-7d15b3ad0d8f","ios":"levelo://app?vid=b7691a40-d599-45f1-9e0d-7d15b3ad0d8f"},"vehicle_type_id":"4","last_reported":1746202350,"current_range_meters":18000,"station_id":"ce4bhb12rcd13ifvqel0","pricing_plan_id":"cebpf4jnsgd1na2vs0mg"},{"bike_id":"0e77752e-16f4-4557-b8ef-820c6bc4d530","system_id":"levelo_inurba_marseille","lat":43.28445,"lon":5.3919,"is_reserved":false,"is_disabled":false,"rental_uris":{"android":"levelo://app?vid=0e77752e-16f4-4557-b8ef-820c6bc4d530","ios":"levelo://app?vid=0e77752e-16f4-4557-b8ef-820c6bc4d530"},"vehicle_type_id":"4","last_reported":1746202350,"current_range_meters":18000,"station_id":"ce4bhoh2rcd13ifvqh5g","pricing_plan_id":"cebpf4jnsgd1na2vs0mg"},{"bike_id":"3a024ce5-24d1-44c7-b160-2efb6106d6a8","system_id":"levelo_inurba_marseille","lat":43.29259,"lon":5.37616,"is_reserved":false,"is_disabled":false,"rental_uris":{"android":"levelo://app?vid=3a024ce5-24d1-44c7-b160-2efb6106d6a8","ios":"levelo://app?vid=3a024ce5-24d1-44c7-b160-2efb6106d6a8"},"vehicle_type_id":"4","last_reported":1746202350,"current_range_meters":18800,"station_id":"ce4bgi12rcd13ifvqb80","pricing_plan_id":"cebpf4jnsgd1na2vs0mg"},{"bike_id":"9d2b4bd7-81fb-404c-a0b0-ee6f52486c97","system_id":"levelo_inurba_marseille","lat":43.26959,"lon":5.38637,"is_reserved":false,"is_disabled":false,"rental_uris":{"android":"levelo://app?vid=9d2b4bd7-81fb-404c-a0b0-ee6f52486c97","ios":"levelo://app?vid=9d2b4bd7-81fb-404c-a0b0-ee6f52486c97"},"vehicle_type_id":"4","last_reported":1746202350,"current_range_meters":18800,"station_id":"ce4bhh92rcd13ifvqfh0","pricing_plan_id":"cebpf4jnsgd1na2vs0mg"},{"bike_id":"6475c73c-098e-4154-957c-bcdc0670cd58","system_id":"levelo_inurba_marseille","lat":43.27667,"lon":5.38907,"is_reserved":false,"is_disabled":false,"rental_uris":{"android":"levelo://app?vid=6475c73c-098e-4154-957c-bcdc0670cd58","ios":"levelo://app?vid=6475c73c-098e-4154-957c-bcdc0670cd58"},"vehicle_type_id":"4","last_reported":1746202350,"current_range_meters":18800,"station_id":"ce4bhi12rcd13ifvqfo0","pricing_plan_id":"cebpf4jnsgd1na2vs0mg"},{"bike_id":"bf6f2090-3b30-4ba5-8628-2b1487ae3d9b","system_id":"levelo_inurba_marseille","lat":43.25585,"lon":5.38229,"is_reserved":false,"is_disabled":false,"rental_uris":{"android":"levelo://app?vid=bf6f2090-3b30-4ba5-8628-2b1487ae3d9b","ios":"levelo://app?vid=bf6f2090-3b30-4ba5-8628-2b1487ae3d9b"},"vehicle_type_id":"4","last_reported":1746202350,"current_range_meters":18800,"station_id":"ce4bhih2rcd13ifvqfs0","pricing_plan_id":"cebpf4jnsgd1na2vs0mg"},{"bike_id":"0bce16aa-eb61-40e3-bafd-b15560c091ba","system_id":"levelo_inurba_marseille","lat":43.32288,"lon":5.3827,"is_reserved":false,"is_disabled":false,"rental_uris":{"android":"levelo://app?vid=0bce16aa-eb61-40e3-bafd-b15560c091ba","ios":"levelo://app?vid=0bce16aa-eb61-40e3-bafd-b15560c091ba"},"vehicle_type_id":"4","last_reported":1746202350,"current_range_meters":18800,"station_id":"ce4bhr12rcd13ifvqhqg","pricing_plan_id":"cebpf4jnsgd1na2vs0mg"},{"bike_id":"0da910e5-f1e7-48ab-8b19-1db6ce9adf58","system_id":"levelo_inurba_marseille","lat":43.23964,"lon":5.36632,"is_reserved":false,"is_disabled":false,"rental_uris":{"android":"levelo://app?vid=0da910e5-f1e7-48ab-8b19-1db6ce9adf58","ios":"levelo://app?vid=0da910e5-f1e7-48ab-8b19-1db6ce9adf58"},"vehicle_type_id":"4","last_reported":1746202350,"current_range_meters":19200,"station_id":"ce4bhi12rcd13ifvqfp0","pricing_plan_id":"cebpf4jnsgd1na2vs0mg"},{"bike_id":"2bb6a742-8392-44ba-a660-cb62073d888e","system_id":"levelo_inurba_marseille","lat":43.32095,"lon":5.36785,"is_reserved":false,"is_disabled":false,"rental_uris":{"android":"levelo://app?vid=2bb6a742-8392-44ba-a660-cb62073d888e","ios":"levelo://app?vid=2bb6a742-8392-44ba-a660-cb62073d888e"},"vehicle_type_id":"4","last_reported":1746202350,"current_range_meters":19200,"station_id":"ce4bhrh2rcd13ifvqhug","pricing_plan_id":"cebpf4jnsgd1na2vs0mg"},{"bike_id":"e0ceefc0-61c9-406f-91eb-ef69db9dbe42","system_id":"levelo_inurba_marseille","lat":43.2612,"lon":5.41466,"is_reserved":false,"is_disabled":false,"rental_uris":{"android":"levelo://app?vid=e0ceefc0-61c9-406f-91eb-ef69db9dbe42","ios":"levelo://app?vid=e0ceefc0-61c9-406f-91eb-ef69db9dbe42"},"vehicle_type_id":"4","last_reported":1746202350,"current_range_meters":19600,"station_id":"","pricing_plan_id":"cebpf4jnsgd1na2vs0mg"},{"bike_id":"17699dfa-b6e7-41db-8c58-92a93af2c4b1","system_id":"levelo_inurba_marseille","lat":43.29672,"lon":5.37178,"is_reserved":false,"is_disabled":false,"rental_uris":{"android":"levelo://app?vid=17699dfa-b6e7-41db-8c58-92a93af2c4b1","ios":"levelo://app?vid=17699dfa-b6e7-41db-8c58-92a93af2c4b1"},"vehicle_type_id":"4","last_reported":1746202350,"current_range_meters":19600,"station_id":"","pricing_plan_id":"cebpf4jnsgd1na2vs0mg"},{"bike_id":"ace3a79d-4813-4e8b-8007-f2b1037e11ba","system_id":"levelo_inurba_marseille","lat":43.31714,"lon":5.43705,"is_reserved":false,"is_disabled":false,"rental_uris":{"android":"levelo://app?vid=ace3a79d-4813-4e8b-8007-f2b1037e11ba","ios":"levelo://app?vid=ace3a79d-4813-4e8b-8007-f2b1037e11ba"},"vehicle_type_id":"4","last_reported":1746202350,"current_range_meters":19600,"station_id":"ce4bhp92rcd13ifvqhcg","pricing_plan_id":"cebpf4jnsgd1na2vs0mg"},{"bike_id":"522bc563-f459-4487-9a27-d1f25fd71e75","system_id":"levelo_inurba_marseille","lat":43.32323,"lon":5.38261,"is_reserved":false,"is_disabled":false,"rental_uris":{"android":"levelo://app?vid=522bc563-f459-4487-9a27-d1f25fd71e75","ios":"levelo://app?vid=522bc563-f459-4487-9a27-d1f25fd71e75"},"vehicle_type_id":"4","last_reported":1746202350,"current_range_meters":19600,"station_id":"ce4bhr12rcd13ifvqhqg","pricing_plan_id":"cebpf4jnsgd1na2vs0mg"},{"bike_id":"af43396c-6c9f-4cbb-aa06-b3436fbf006e","system_id":"levelo_inurba_marseille","lat":43.22932,"lon":5.35383,"is_reserved":false,"is_disabled":false,"rental_uris":{"android":"levelo://app?vid=af43396c-6c9f-4cbb-aa06-b3436fbf006e","ios":"levelo://app?vid=af43396c-6c9f-4cbb-aa06-b3436fbf006e"},"vehicle_type_id":"4","last_reported":1746202350,"current_range_meters":19600,"station_id":"cpo3532slgdg3j2ikp40","pricing_plan_id":"cebpf4jnsgd1na2vs0mg"},{"bike_id":"b062f731-e576-438e-a142-6caa78a3ca60","system_id":"levelo_inurba_marseille","lat":43.30094,"lon":5.39089,"is_reserved":false,"is_disabled":false,"rental_uris":{"android":"levelo://app?vid=b062f731-e576-438e-a142-6caa78a3ca60","ios":"levelo://app?vid=b062f731-e576-438e-a142-6caa78a3ca60"},"vehicle_type_id":"4","last_reported":1746202350,"current_range_meters":20000,"station_id":"ce4bh192rcd13ifvqdb0","pricing_plan_id":"cebpf4jnsgd1na2vs0mg"},{"bike_id":"f9e6ac8a-d3aa-4f57-bdb5-3ce66ce2a3d9","system_id":"levelo_inurba_marseille","lat":43.29426,"lon":5.38616,"is_reserved":false,"is_disabled":false,"rental_uris":{"android":"levelo://app?vid=f9e6ac8a-d3aa-4f57-bdb5-3ce66ce2a3d9","ios":"levelo://app?vid=f9e6ac8a-d3aa-4f57-bdb5-3ce66ce2a3d9"},"vehicle_type_id":"4","last_reported":1746202350,"current_range_meters":20000,"station_id":"ce4bh2h2rcd13ifvqdh0","pricing_plan_id":"cebpf4jnsgd1na2vs0mg"},{"bike_id":"8813464d-4de6-4983-b72d-88d2fd8637cb","system_id":"levelo_inurba_marseille","lat":43.29168,"lon":5.3717,"is_reserved":false,"is_disabled":false,"rental_uris":{"android":"levelo://app?vid=8813464d-4de6-4983-b72d-88d2fd8637cb","ios":"levelo://app?vid=8813464d-4de6-4983-b72d-88d2fd8637cb"},"vehicle_type_id":"4","last_reported":1746202350,"current_range_meters":20000,"station_id":"ce4bha92rcd13ifvqeh0","pricing_plan_id":"cebpf4jnsgd1na2vs0mg"},{"bike_id":"2a6f9a12-6375-41f9-bf96-b230741e35c8","system_id":"levelo_inurba_marseille","lat":43.258162,"lon":5.394327,"is_reserved":false,"is_disabled":false,"rental_uris":{"android":"levelo://app?vid=2a6f9a12-6375-41f9-bf96-b230741e35c8","ios":"levelo://app?vid=2a6f9a12-6375-41f9-bf96-b230741e35c8"},"vehicle_type_id":"4","last_reported":1746202350,"current_range_meters":20000,"station_id":"ce4bhip2rcd13ifvqft0","pricing_plan_id":"cebpf4jnsgd1na2vs0mg"},{"bike_id":"764745f4-22f3-4d3f-9ccf-0bef40653811","system_id":"levelo_inurba_marseille","lat":43.30818,"lon":5.37261,"is_reserved":false,"is_disabled":false,"rental_uris":{"android":"levelo://app?vid=764745f4-22f3-4d3f-9ccf-0bef40653811","ios":"levelo://app?vid=764745f4-22f3-4d3f-9ccf-0bef40653811"},"vehicle_type_id":"4","last_reported":1746202350,"current_range_meters":20400,"station_id":"","pricing_plan_id":"cebpf4jnsgd1na2vs0mg"},{"bike_id":"d42c0e62-4465-4210-9a49-cabb459e1e39","system_id":"levelo_inurba_marseille","lat":43.3054,"lon":5.36552,"is_reserved":false,"is_disabled":false,"rental_uris":{"android":"levelo://app?vid=d42c0e62-4465-4210-9a49-cabb459e1e39","ios":"levelo://app?vid=d42c0e62-4465-4210-9a49-cabb459e1e39"},"vehicle_type_id":"4","last_reported":1746202350,"current_range_meters":20400,"station_id":"ce4bgs12rcd13ifvqcag","pricing_plan_id":"cebpf4jnsgd1na2vs0mg"},{"bike_id":"1a564678-2200-4c7c-9e3f-5d55d2d2e60c","system_id":"levelo_inurba_marseille","lat":43.25577,"lon":5.38238,"is_reserved":false,"is_disabled":false,"rental_uris":{"android":"levelo://app?vid=1a564678-2200-4c7c-9e3f-5d55d2d2e60c","ios":"levelo://app?vid=1a564678-2200-4c7c-9e3f-5d55d2d2e60c"},"vehicle_type_id":"4","last_reported":1746202350,"current_range_meters":20400,"station_id":"ce4bhih2rcd13ifvqfs0","pricing_plan_id":"cebpf4jnsgd1na2vs0mg"},{"bike_id":"5b4ce374-87a1-4ebe-bc18-c40b5b27e4de","system_id":"levelo_inurba_marseille","lat":43.27993,"lon":5.40017,"is_reserved":false,"is_disabled":false,"rental_uris":{"android":"levelo://app?vid=5b4ce374-87a1-4ebe-bc18-c40b5b27e4de","ios":"levelo://app?vid=5b4ce374-87a1-4ebe-bc18-c40b5b27e4de"},"vehicle_type_id":"4","last_reported":1746202350,"current_range_meters":20400,"station_id":"ce4bho92rcd13ifvqh4g","pricing_plan_id":"cebpf4jnsgd1na2vs0mg"},{"bike_id":"ec6da0aa-0845-4bad-8a7b-8655154f5109","system_id":"levelo_inurba_marseille","lat":43.307977,"lon":5.435264,"is_reserved":false,"is_disabled":false,"rental_uris":{"android":"levelo://app?vid=ec6da0aa-0845-4bad-8a7b-8655154f5109","ios":"levelo://app?vid=ec6da0aa-0845-4bad-8a7b-8655154f5109"},"vehicle_type_id":"4","last_reported":1746202350,"current_range_meters":20400,"station_id":"ce4bhph2rcd13ifvqheg","pricing_plan_id":"cebpf4jnsgd1na2vs0mg"},{"bike_id":"80cee7d3-d51f-46d3-9db2-cce9d197ca75","system_id":"levelo_inurba_marseille","lat":43.32801,"lon":5.38597,"is_reserved":false,"is_disabled":false,"rental_uris":{"android":"levelo://app?vid=80cee7d3-d51f-46d3-9db2-cce9d197ca75","ios":"levelo://app?vid=80cee7d3-d51f-46d3-9db2-cce9d197ca75"},"vehicle_type_id":"4","last_reported":1746202350,"current_range_meters":20800,"station_id":"","pricing_plan_id":"cebpf4jnsgd1na2vs0mg"},{"bike_id":"17c9faf5-2c95-4902-9f37-f8c1b9c4fb08","system_id":"levelo_inurba_marseille","lat":43.29533,"lon":5.38537,"is_reserved":false,"is_disabled":false,"rental_uris":{"android":"levelo://app?vid=17c9faf5-2c95-4902-9f37-f8c1b9c4fb08","ios":"levelo://app?vid=17c9faf5-2c95-4902-9f37-f8c1b9c4fb08"},"vehicle_type_id":"4","last_reported":1746202350,"current_range_meters":20800,"station_id":"ce4bgih2rcd13ifvqba0","pricing_plan_id":"cebpf4jnsgd1na2vs0mg"},{"bike_id":"122b935c-fd7a-4b00-8efd-07f1bb3fcfee","system_id":"levelo_inurba_marseille","lat":43.23966,"lon":5.3664,"is_reserved":false,"is_disabled":false,"rental_uris":{"android":"levelo://app?vid=122b935c-fd7a-4b00-8efd-07f1bb3fcfee","ios":"levelo://app?vid=122b935c-fd7a-4b00-8efd-07f1bb3fcfee"},"vehicle_type_id":"4","last_reported":1746202350,"current_range_meters":20800,"station_id":"ce4bhi12rcd13ifvqfp0","pricing_plan_id":"cebpf4jnsgd1na2vs0mg"},{"bike_id":"ce3ce2e7-adfc-44ca-af4a-7c0f1566aed2","system_id":"levelo_inurba_marseille","lat":43.225,"lon":5.34778,"is_reserved":false,"is_disabled":false,"rental_uris":{"android":"levelo://app?vid=ce3ce2e7-adfc-44ca-af4a-7c0f1566aed2","ios":"levelo://app?vid=ce3ce2e7-adfc-44ca-af4a-7c0f1566aed2"},"vehicle_type_id":"4","last_reported":1746202350,"current_range_meters":20800,"station_id":"st_cvj5dfep6f1abm77gieg","pricing_plan_id":"cebpf4jnsgd1na2vs0mg"},{"bike_id":"f3255640-8e9a-4b25-b6fc-9d2aa00d9d35","system_id":"levelo_inurba_marseille","lat":43.32083,"lon":5.41515,"is_reserved":false,"is_disabled":false,"rental_uris":{"android":"levelo://app?vid=f3255640-8e9a-4b25-b6fc-9d2aa00d9d35","ios":"levelo://app?vid=f3255640-8e9a-4b25-b6fc-9d2aa00d9d35"},"vehicle_type_id":"4","last_reported":1746202350,"current_range_meters":21600,"station_id":"ce4bhq92rcd13ifvqhkg","pricing_plan_id":"cebpf4jnsgd1na2vs0mg"},{"bike_id":"2e52040d-af17-4744-a2ab-3d260d05f264","system_id":"levelo_inurba_marseille","lat":43.30219,"lon":5.40079,"is_reserved":false,"is_disabled":false,"rental_uris":{"android":"levelo://app?vid=2e52040d-af17-4744-a2ab-3d260d05f264","ios":"levelo://app?vid=2e52040d-af17-4744-a2ab-3d260d05f264"},"vehicle_type_id":"4","last_reported":1746202350,"current_range_meters":22000,"station_id":"","pricing_plan_id":"cebpf4jnsgd1na2vs0mg"},{"bike_id":"17bd3118-99ab-42d5-8d75-bfe8b51acc09","system_id":"levelo_inurba_marseille","lat":43.2417,"lon":5.36394,"is_reserved":false,"is_disabled":false,"rental_uris":{"android":"levelo://app?vid=17bd3118-99ab-42d5-8d75-bfe8b51acc09","ios":"levelo://app?vid=17bd3118-99ab-42d5-8d75-bfe8b51acc09"},"vehicle_type_id":"4","last_reported":1746202350,"current_range_meters":22000,"station_id":"cpo36qri1sfpv3e86is0","pricing_plan_id":"cebpf4jnsgd1na2vs0mg"},{"bike_id":"4a4d702f-ecb8-486b-825c-13bc6e41cf09","system_id":"levelo_inurba_marseille","lat":43.29801,"lon":5.38103,"is_reserved":false,"is_disabled":false,"rental_uris":{"android":"levelo://app?vid=4a4d702f-ecb8-486b-825c-13bc6e41cf09","ios":"levelo://app?vid=4a4d702f-ecb8-486b-825c-13bc6e41cf09"},"vehicle_type_id":"4","last_reported":1746202350,"current_range_meters":22400,"station_id":"ce4bgip2rcd13ifvqbb0","pricing_plan_id":"cebpf4jnsgd1na2vs0mg"},{"bike_id":"368f50bf-b318-43f8-b8d5-ae56952c416f","system_id":"levelo_inurba_marseille","lat":43.29597,"lon":5.38101,"is_reserved":false,"is_disabled":false,"rental_uris":{"android":"levelo://app?vid=368f50bf-b318-43f8-b8d5-ae56952c416f","ios":"levelo://app?vid=368f50bf-b318-43f8-b8d5-ae56952c416f"},"vehicle_type_id":"4","last_reported":1746202350,"current_range_meters":22400,"station_id":"ce4bgl12rcd13ifvqbo0","pricing_plan_id":"cebpf4jnsgd1na2vs0mg"},{"bike_id":"ca7d139c-8c69-4a59-b066-ca2b04e5b54b","system_id":"levelo_inurba_marseille","lat":43.24667,"lon":5.38182,"is_reserved":false,"is_disabled":false,"rental_uris":{"android":"levelo://app?vid=ca7d139c-8c69-4a59-b066-ca2b04e5b54b","ios":"levelo://app?vid=ca7d139c-8c69-4a59-b066-ca2b04e5b54b"},"vehicle_type_id":"4","last_reported":1746202350,"current_range_meters":22400,"station_id":"ce4bhih2rcd13ifvqfr0","pricing_plan_id":"cebpf4jnsgd1na2vs0mg"},{"bike_id":"945430c8-5f62-4d67-93e4-f93a8e5052d9","system_id":"levelo_inurba_marseille","lat":43.308,"lon":5.4352,"is_reserved":false,"is_disabled":false,"rental_uris":{"android":"levelo://app?vid=945430c8-5f62-4d67-93e4-f93a8e5052d9","ios":"levelo://app?vid=945430c8-5f62-4d67-93e4-f93a8e5052d9"},"vehicle_type_id":"4","last_reported":1746202350,"current_range_meters":22400,"station_id":"ce4bhph2rcd13ifvqheg","pricing_plan_id":"cebpf4jnsgd1na2vs0mg"},{"bike_id":"d17d0b67-a41e-4438-9c7e-9f7d0e462014","system_id":"levelo_inurba_marseille","lat":43.21184,"lon":5.35059,"is_reserved":false,"is_disabled":false,"rental_uris":{"android":"levelo://app?vid=d17d0b67-a41e-4438-9c7e-9f7d0e462014","ios":"levelo://app?vid=d17d0b67-a41e-4438-9c7e-9f7d0e462014"},"vehicle_type_id":"4","last_reported":1746202350,"current_range_meters":22800,"station_id":"st_cvj6sg6p6f1abm77japg","pricing_plan_id":"cebpf4jnsgd1na2vs0mg"},{"bike_id":"9823363c-82ea-476f-8050-73a8c2c2c4cd","system_id":"levelo_inurba_marseille","lat":43.29415,"lon":5.38627,"is_reserved":false,"is_disabled":false,"rental_uris":{"android":"levelo://app?vid=9823363c-82ea-476f-8050-73a8c2c2c4cd","ios":"levelo://app?vid=9823363c-82ea-476f-8050-73a8c2c2c4cd"},