{"last_updated":1726812792,"ttl":30,"version":"2.2","data":{"bikes":[{"bike_id":"17f0a6f2-84a5-47c5-bd6f-bb0a787ccb28","system_id":"levelo_inurba_marseille","lat":43.28943,"lon":5.3664,"is_reserved":false,"is_disabled":false,"rental_uris":{"android":"levelo://app?vid=17f0a6f2-84a5-47c5-bd6f-bb0a787ccb28","ios":"levelo://app?vid=17f0a6f2-84a5-47c5-bd6f-bb0a787ccb28"},"vehicle_type_id":"4","last_reported":1726812792,"current_range_meters":9600,"station_id":"ce4bhap2rcd13ifvqek0","pricing_plan_id":"cebpf4jnsgd1na2vs0mg"},{"bike_id":"00b49ccd-6029-4e20-95ce-2fcb73e92c52","system_id":"levelo_inurba_marseille","lat":43.30596,"lon":5.3936,"is_reserved":false,"is_disabled":false,"rental_uris":{"android":"levelo://app?vid=00b49ccd-6029-4e20-95ce-2fcb73e92c52","ios":"levelo://app?vid=00b49ccd-6029-4e20-95ce-2fcb73e92c52"},"vehicle_type_id":"4","last_reported":1726812792,"current_range_meters":32800,"station_id":"ce4bh0p2rcd13ifvqd80","pricing_plan_id":"cebpf4jnsgd1na2vs0mg"},{"bike_id":"8ac6d82f-5b78-477d-a9cb-5c523e12158a","system_id":"levelo_inurba_marseille","lat":43.28357,"lon":5.38108,"is_reserved":false,"is_disabled":false,"rental_uris":{"android":"levelo://app?vid=8ac6d82f-5b78-477d-a9cb-5c523e12158a","ios":"levelo://app?vid=8ac6d82f-5b78-477d-a9cb-5c523e12158a"},"vehicle_type_id":"4","last_reported":1726812792,"current_range_meters":6000,"station_id":"ce4bh412rcd13ifvqdr0","pricing_plan_id":"cebpf4jnsgd1na2vs0mg"},{"bike_id":"47c608bb-3eaa-49f7-a86c-48a7c0720d7d","system_id":"levelo_inurba_marseille","lat":43.30162,"lon":5.38085,"is_reserved":false,"is_disabled":false,"rental_uris":{"android":"levelo://app?vid=47c608bb-3eaa-49f7-a86c-48a7c0720d7d","ios":"levelo://app?vid=47c608bb-3eaa-49f7-a86c-48a7c0720d7d"},"vehicle_type_id":"4","last_reported":1726812792,"current_range_meters":27200,"station_id":"ce4bgjp2rcd13ifvqbh0","pricing_plan_id":"cebpf4jnsgd1na2vs0mg"},{"bike_id":"974c369b-e3b6-4a7b-b300-9873b3e2e564","system_id":"levelo_inurba_marseille","lat":43.30594,"lon":5.39348,"is_reserved":false,"is_disabled":false,"rental_uris":{"android":"levelo://app?vid=974c369b-e3b6-4a7b-b300-9873b3e2e564","ios":"levelo://app?vid=974c369b-e3b6-4a7b-b300-9873b3e2e564"},"vehicle_type_id":"4","last_reported":1726812792,"current_range_meters":38400,"station_id":"ce4bh0p2rcd13ifvqd80","pricing_plan_id":"cebpf4jnsgd1na2vs0mg"},{"bike_id":"f94012e7-742e-4cbb-9741-ae85745f3a19","system_id":"levelo_inurba_marseille","lat":43.30456,"lon":5.37914,"is_reserved":false,"is_disabled":false,"rental_uris":{"android":"levelo://app?vid=f94012e7-742e-4cbb-9741-ae85745f3a19","ios":"levelo://app?vid=f94012e7-742e-4cbb-9741-ae85745f3a19"},"vehicle_type_id":"4","last_reported":1726812792,"current_range_meters":2800,"station_id":"ce4bgup2rcd13ifvqcn0","pricing_plan_id":"cebpf4jnsgd1na2vs0mg"},{"bike_id":"a5ed4552-d0d2-4d14-bf49-8a55d4e2e324","system_id":"levelo_inurba_marseille","lat":43.30412,"lon":5.41297,"is_reserved":false,"is_disabled":false,"rental_uris":{"android":"levelo://app?vid=a5ed4552-d0d2-4d14-bf49-8a55d4e2e324","ios":"levelo://app?vid=a5ed4552-d0d2-4d14-bf49-8a55d4e2e324"},"vehicle_type_id":"4","last_reported":1726812792,"current_range_meters":33200,"station_id":"ce4bhop2rcd13ifvqh8g","pricing_plan_id":"cebpf4jnsgd1na2vs0mg"},{"bike_id":"dc873ccc-5283-4204-9440-97850e006bd7","system_id":"levelo_inurba_marseille","lat":43.31543,"lon":5.38011,"is_reserved":false,"is_disabled":false,"rental_uris":{"android":"levelo://app?vid=dc873ccc-5283-4204-9440-97850e006bd7","ios":"levelo://app?vid=dc873ccc-5283-4204-9440-97850e006bd7"},"vehicle_type_id":"4","last_reported":1726812792,"current_range_meters":28400,"station_id":"ce4bhsp2rcd13ifvqi50","pricing_plan_id":"cebpf4jnsgd1na2vs0mg"},{"bike_id":"5cf80444-1425-4a7c-854e-d0982a74618b","system_id":"levelo_inurba_marseille","lat":43.27993,"lon":5.40014,"is_reserved":false,"is_disabled":false,"rental_uris":{"android":"levelo://app?vid=5cf80444-1425-4a7c-854e-d0982a74618b","ios":"levelo://app?vid=5cf80444-1425-4a7c-854e-d0982a74618b"},"vehicle_type_id":"4","last_reported":1726812792,"current_range_meters":30000,"station_id":"ce4bho92rcd13ifvqh4g","pricing_plan_id":"cebpf4jnsgd1na2vs0mg"},{"bike_id":"259a1233-1d98-4d8d-810e-00bdd4c3c766","system_id":"levelo_inurba_marseille","lat":43.31888,"lon":5.4073,"is_reserved":false,"is_disabled":false,"rental_uris":{"android":"levelo://app?vid=259a1233-1d98-4d8d-810e-00bdd4c3c766","ios":"levelo://app?vid=259a1233-1d98-4d8d-810e-00bdd4c3c766"},"vehicle_type_id":"4","last_reported":1726812792,"current_range_meters":38800,"station_id":"ce4bhq12rcd13ifvqhig","pricing_plan_id":"cebpf4jnsgd1na2vs0mg"},{"bike_id":"5a011757-8bed-47aa-aa97-2be1fb39f2aa","system_id":"levelo_inurba_marseille","lat":43.28457,"lon":5.35887,"is_reserved":false,"is_disabled":false,"rental_uris":{"android":"levelo://app?vid=5a011757-8bed-47aa-aa97-2be1fb39f2aa","ios":"levelo://app?vid=5a011757-8bed-47aa-aa97-2be1fb39f2aa"},"vehicle_type_id":"4","last_reported":1726812792,"current_range_meters":26000,"station_id":"ce4bhah2rcd13ifvqei0","pricing_plan_id":"cebpf4jnsgd1na2vs0mg"},{"bike_id":"e532fd53-ad12-4848-82ea-70ac934c1c37","system_id":"levelo_inurba_marseille","lat":43.3375,"lon":5.37446,"is_reserved":false,"is_disabled":false,"rental_uris":{"android":"levelo://app?vid=e532fd53-ad12-4848-82ea-70ac934c1c37","ios":"levelo://app?vid=e532fd53-ad12-4848-82ea-70ac934c1c37"},"vehicle_type_id":"4","last_reported":1726812792,"current_range_meters":34800,"station_id":"","pricing_plan_id":"cebpf4jnsgd1na2vs0mg"},{"bike_id":"1634cb17-a421-4481-a16d-ce76951a2212","system_id":"levelo_inurba_marseille","lat":43.27552,"lon":5.38402,"is_reserved":false,"is_disabled":false,"rental_uris":{"android":"levelo://app?vid=1634cb17-a421-4481-a16d-ce76951a2212","ios":"levelo://app?vid=1634cb17-a421-4481-a16d-ce76951a2212"},"vehicle_type_id":"4","last_reported":1726812792,"current_range_meters":38800,"station_id":"ce4bhh92rcd13ifvqfi0","pricing_plan_id":"cebpf4jnsgd1na2vs0mg"},{"bike_id":"65abb8ea-2468-4cdf-ba67-4b62f664cb13","system_id":"levelo_inurba_marseille","lat":43.31883,"lon":5.40738,"is_reserved":false,"is_disabled":false,"rental_uris":{"android":"levelo://app?vid=65abb8ea-2468-4cdf-ba67-4b62f664cb13","ios":"levelo://app?vid=65abb8ea-2468-4cdf-ba67-4b62f664cb13"},"vehicle_type_id":"4","last_reported":1726812792,"current_range_meters":18800,"station_id":"ce4bhq12rcd13ifvqhig","pricing_plan_id":"cebpf4jnsgd1na2vs0mg"},{"bike_id":"9f82dd97-023d-4b34-8861-6bd43ec16931","system_id":"levelo_inurba_marseille","lat":43.28971,"lon":5.37837,"is_reserved":false,"is_disabled":false,"rental_uris":{"android":"levelo://app?vid=9f82dd97-023d-4b34-8861-6bd43ec16931","ios":"levelo://app?vid=9f82dd97-023d-4b34-8861-6bd43ec16931"},"vehicle_type_id":"4","last_reported":1726812792,"current_range_meters":23200,"station_id":"ce4bh9p2rcd13ifvqed0","pricing_plan_id":"cebpf4jnsgd1na2vs0mg"},{"bike_id":"ce601367-8238-4cf2-a4ec-037c3103b271","system_id":"levelo_inurba_marseille","lat":43.25827,"lon":5.39435,"is_reserved":false,"is_disabled":false,"rental_uris":{"android":"levelo://app?vid=ce601367-8238-4cf2-a4ec-037c3103b271","ios":"levelo://app?vid=ce601367-8238-4cf2-a4ec-037c3103b271"},"vehicle_type_id":"4","last_reported":1726812792,"current_range_meters":32800,"station_id":"ce4bhip2rcd13ifvqft0","pricing_plan_id":"cebpf4jnsgd1na2vs0mg"},{"bike_id":"e3a663e8-7688-46cc-8977-f03f48fde497","system_id":"levelo_inurba_marseille","lat":43.29239,"lon":5.40241,"is_reserved":false,"is_disabled":false,"rental_uris":{"android":"levelo://app?vid=e3a663e8-7688-46cc-8977-f03f48fde497","ios":"levelo://app?vid=e3a663e8-7688-46cc-8977-f03f48fde497"},"vehicle_type_id":"4","last_reported":1726812792,"current_range_meters":30400,"station_id":"","pricing_plan_id":"cebpf4jnsgd1na2vs0mg"},{"bike_id":"f9898cab-cb36-4e00-83b8-7f729aaf5652","system_id":"levelo_inurba_marseille","lat":43.32654,"lon":5.40993,"is_reserved":false,"is_disabled":false,"rental_uris":{"android":"levelo://app?vid=f9898cab-cb36-4e00-83b8-7f729aaf5652","ios":"levelo://app?vid=f9898cab-cb36-4e00-83b8-7f729aaf5652"},"vehicle_type_id":"4","last_reported":1726812792,"current_range_meters":38800,"station_id":"ce4bhpp2rcd13ifvqhgg","pricing_plan_id":"cebpf4jnsgd1na2vs0mg"},{"bike_id":"aed3a4b1-dd0e-4aa9-a2f5-ffca63da2bf4","system_id":"levelo_inurba_marseille","lat":43.30255,"lon":5.40073,"is_reserved":false,"is_disabled":false,"rental_uris":{"android":"levelo://app?vid=aed3a4b1-dd0e-4aa9-a2f5-ffca63da2bf4","ios":"levelo://app?vid=aed3a4b1-dd0e-4aa9-a2f5-ffca63da2bf4"},"vehicle_type_id":"4","last_reported":1726812792,"current_range_meters":31200,"station_id":"ce4bgvh2rcd13ifvqcs0","pricing_plan_id":"cebpf4jnsgd1na2vs0mg"},{"bike_id":"bffa870a-b23e-4f6b-ab86-784225ce1688","system_id":"levelo_inurba_marseille","lat":43.297272,"lon":5.400858,"is_reserved":false,"is_disabled":false,"rental_uris":{"android":"levelo://app?vid=bffa870a-b23e-4f6b-ab86-784225ce1688","ios":"levelo://app?vid=bffa870a-b23e-4f6b-ab86-784225ce1688"},"vehicle_type_id":"4","last_reported":1726812792,"current_range_meters":33600,"station_id":"ce4bh092rcd13ifvqd30","pricing_plan_id":"cebpf4jnsgd1na2vs0mg"},{"bike_id":"ce9fce4d-0405-4ae2-9dc3-435dda88f0ff","system_id":"levelo_inurba_marseille","lat":43.30584,"lon":5.39343,"is_reserved":false,"is_disabled":false,"rental_uris":{"android":"levelo://app?vid=ce9fce4d-0405-4ae2-9dc3-435dda88f0ff","ios":"levelo://app?vid=ce9fce4d-0405-4ae2-9dc3-435dda88f0ff"},"vehicle_type_id":"4","last_reported":1726812792,"current_range_meters":30800,"station_id":"ce4bh0p2rcd13ifvqd80","pricing_plan_id":"cebpf4jnsgd1na2vs0mg"},{"bike_id":"00479890-5c7f-4820-8b84-7d690960759a","system_id":"levelo_inurba_marseille","lat":43.28154,"lon":5.42634,"is_reserved":false,"is_disabled":false,"rental_uris":{"android":"levelo://app?vid=00479890-5c7f-4820-8b84-7d690960759a","ios":"levelo://app?vid=00479890-5c7f-4820-8b84-7d690960759a"},"vehicle_type_id":"4","last_reported":1726812792,"current_range_meters":30800,"station_id":"ce4bhnh2rcd13ifvqgug","pricing_plan_id":"cebpf4jnsgd1na2vs0mg"},{"bike_id":"6a454a5f-f30a-4a25-9d92-bf74907f8eb8","system_id":"levelo_inurba_marseille","lat":43.2407,"lon":5.37762,"is_reserved":false,"is_disabled":false,"rental_uris":{"android":"levelo://app?vid=6a454a5f-f30a-4a25-9d92-bf74907f8eb8","ios":"levelo://app?vid=6a454a5f-f30a-4a25-9d92-bf74907f8eb8"},"vehicle_type_id":"4","last_reported":1726812792,"current_range_meters":25200,"station_id":"ce4bhnp2rcd13ifvqgvg","pricing_plan_id":"cebpf4jnsgd1na2vs0mg"},{"bike_id":"688a42c8-3437-4f6c-989b-dd86d479fdd3","system_id":"levelo_inurba_marseille","lat":43.29077,"lon":5.37216,"is_reserved":false,"is_disabled":false,"rental_uris":{"android":"levelo://app?vid=688a42c8-3437-4f6c-989b-dd86d479fdd3","ios":"levelo://app?vid=688a42c8-3437-4f6c-989b-dd86d479fdd3"},"vehicle_type_id":"4","last_reported":1726812792,"current_range_meters":35600,"station_id":"ce4bh5p2rcd13ifvqe4g","pricing_plan_id":"cebpf4jnsgd1na2vs0mg"},{"bike_id":"0d197c14-823a-4063-8ecb-b214e88b0f7d","system_id":"levelo_inurba_marseille","lat":43.28156,"lon":5.4264,"is_reserved":false,"is_disabled":false,"rental_uris":{"android":"levelo://app?vid=0d197c14-823a-4063-8ecb-b214e88b0f7d","ios":"levelo://app?vid=0d197c14-823a-4063-8ecb-b214e88b0f7d"},"vehicle_type_id":"4","last_reported":1726812792,"current_range_meters":34800,"station_id":"ce4bhnh2rcd13ifvqgug","pricing_plan_id":"cebpf4jnsgd1na2vs0mg"},{"bike_id":"06eef320-c2b1-42ca-bda3-e896022e4f06","system_id":"levelo_inurba_marseille","lat":43.27068,"lon":5.42277,"is_reserved":false,"is_disabled":false,"rental_uris":{"android":"levelo://app?vid=06eef320-c2b1-42ca-bda3-e896022e4f06","ios":"levelo://app?vid=06eef320-c2b1-42ca-bda3-e896022e4f06"},"vehicle_type_id":"4","last_reported":1726812792,"current_range_meters":14800,"station_id":"ce4bhk92rcd13ifvqgb0","pricing_plan_id":"cebpf4jnsgd1na2vs0mg"},{"bike_id":"785c03de-799b-4648-be6b-d7bd28800606","system_id":"levelo_inurba_marseille","lat":43.28992,"lon":5.37226,"is_reserved":false,"is_disabled":false,"rental_uris":{"android":"levelo://app?vid=785c03de-799b-4648-be6b-d7bd28800606","ios":"levelo://app?vid=785c03de-799b-4648-be6b-d7bd28800606"},"vehicle_type_id":"4","last_reported":1726812792,"current_range_meters":26000,"station_id":"ce4bh692rcd13ifvqe90","pricing_plan_id":"cebpf4jnsgd1na2vs0mg"},{"bike_id":"ffafc182-e1e3-466d-bf54-1539ad0fc712","system_id":"levelo_inurba_marseille","lat":43.23153,"lon":5.43711,"is_reserved":false,"is_disabled":false,"rental_uris":{"android":"levelo://app?vid=ffafc182-e1e3-466d-bf54-1539ad0fc712","ios":"levelo://app?vid=ffafc182-e1e3-466d-bf54-1539ad0fc712"},"vehicle_type_id":"4","last_reported":1726812792,"current_range_meters":24400,"station_id":"ce4bhmp2rcd13ifvqgog","pricing_plan_id":"cebpf4jnsgd1na2vs0mg"},{"bike_id":"3161b78b-97fe-421d-96dc-5e191dafdb8c","system_id":"levelo_inurba_marseille","lat":43.32338,"lon":5.40625,"is_reserved":false,"is_disabled":false,"rental_uris":{"android":"levelo://app?vid=3161b78b-97fe-421d-96dc-5e191dafdb8c","ios":"levelo://app?vid=3161b78b-97fe-421d-96dc-5e191dafdb8c"},"vehicle_type_id":"4","last_reported":1726812792,"current_range_meters":8800,"station_id":"ce4bhq92rcd13ifvqhjg","pricing_plan_id":"cebpf4jnsgd1na2vs0mg"},{"bike_id":"5f2e4fae-bb33-4e4e-81dc-fbf1953aa152","system_id":"levelo_inurba_marseille","lat":43.30554,"lon":5.36525,"is_reserved":false,"is_disabled":false,"rental_uris":{"android":"levelo://app?vid=5f2e4fae-bb33-4e4e-81dc-fbf1953aa152","ios":"levelo://app?vid=5f2e4fae-bb33-4e4e-81dc-fbf1953aa152"},"vehicle_type_id":"4","last_reported":1726812792,"current_range_meters":16000,"station_id":"ce4bgs12rcd13ifvqcag","pricing_plan_id":"cebpf4jnsgd1na2vs0mg"},{"bike_id":"e8a43349-6e7a-4086-bc82-dc073f429ffd","system_id":"levelo_inurba_marseille","lat":43.29955,"lon":5.41314,"is_reserved":false,"is_disabled":false,"rental_uris":{"android":"levelo://app?vid=e8a43349-6e7a-4086-bc82-dc073f429ffd","ios":"levelo://app?vid=e8a43349-6e7a-4086-bc82-dc073f429ffd"},"vehicle_type_id":"4","last_reported":1726812792,"current_range_meters":38800,"station_id":"ce4bhp12rcd13ifvqh9g","pricing_plan_id":"cebpf4jnsgd1na2vs0mg"},{"bike_id":"522296b9-a8e3-4bc2-82ad-a3a2fe0dcce3","system_id":"levelo_inurba_marseille","lat":43.31707,"lon":5.37753,"is_reserved":false,"is_disabled":false,"rental_uris":{"android":"levelo://app?vid=522296b9-a8e3-4bc2-82ad-a3a2fe0dcce3","ios":"levelo://app?vid=522296b9-a8e3-4bc2-82ad-a3a2fe0dcce3"},"vehicle_type_id":"4","last_reported":1726812792,"current_range_meters":38000,"station_id":"ce4bgth2rcd13ifvqch0","pricing_plan_id":"cebpf4jnsgd1na2vs0mg"},{"bike_id":"91f6c732-b748-4be1-8d43-5d4f18c7ecb9","system_id":"levelo_inurba_marseille","lat":43.28033,"lon":5.36945,"is_reserved":false,"is_disabled":false,"rental_uris":{"android":"levelo://app?vid=91f6c732-b748-4be1-8d43-5d4f18c7ecb9","ios":"levelo://app?vid=91f6c732-b748-4be1-8d43-5d4f18c7ecb9"},"vehicle_type_id":"4","last_reported":1726812792,"current_range_meters":38800,"station_id":"ce4bha12rcd13ifvqef0","pricing_plan_id":"cebpf4jnsgd1na2vs0mg"},{"bike_id":"6eed4a8a-5765-4f9a-831c-fd77cffc16c2","system_id":"levelo_inurba_marseille","lat":43.30593,"lon":5.39361,"is_reserved":false,"is_disabled":false,"rental_uris":{"android":"levelo://app?vid=6eed4a8a-5765-4f9a-831c-fd77cffc16c2","ios":"levelo://app?vid=6eed4a8a-5765-4f9a-831c-fd77cffc16c2"},"vehicle_type_id":"4","last_reported":1726812792,"current_range_meters":36000,"station_id":"ce4bh0p2rcd13ifvqd80","pricing_plan_id":"cebpf4jnsgd1na2vs0mg"},{"bike_id":"82a011ee-927c-4b1e-a350-b969affb7d65","system_id":"levelo_inurba_marseille","lat":43.3361,"lon":5.41022,"is_reserved":false,"is_disabled":false,"rental_uris":{"android":"levelo://app?vid=82a011ee-927c-4b1e-a350-b969affb7d65","ios":"levelo://app?vid=82a011ee-927c-4b1e-a350-b969affb7d65"},"vehicle_type_id":"4","last_reported":1726812792,"current_range_meters":38000,"station_id":"ce4bhqh2rcd13ifvqhmg","pricing_plan_id":"cebpf4jnsgd1na2vs0mg"},{"bike_id":"ce9d87f2-9941-4431-9f3a-b0e277f41807","system_id":"levelo_inurba_marseille","lat":43.31337,"lon":5.3671,"is_reserved":false,"is_disabled":false,"rental_uris":{"android":"levelo://app?vid=ce9d87f2-9941-4431-9f3a-b0e277f41807","ios":"levelo://app?vid=ce9d87f2-9941-4431-9f3a-b0e277f41807"},"vehicle_type_id":"4","last_reported":1726812792,"current_range_meters":38800,"station_id":"ce4bgr92rcd13ifvqc6g","pricing_plan_id":"cebpf4jnsgd1na2vs0mg"},{"bike_id":"1bcdb92b-8824-41cd-b6cf-d0ee92f5a1da","system_id":"levelo_inurba_marseille","lat":43.28039,"lon":5.36951,"is_reserved":false,"is_disabled":false,"rental_uris":{"android":"levelo://app?vid=1bcdb92b-8824-41cd-b6cf-d0ee92f5a1da","ios":"levelo://app?vid=1bcdb92b-8824-41cd-b6cf-d0ee92f5a1da"},"vehicle_type_id":"4","last_reported":1726812792,"current_range_meters":14800,"station_id":"ce4bha12rcd13ifvqef0","pricing_plan_id":"cebpf4jnsgd1na2vs0mg"},{"bike_id":"04394a73-34a5-4d88-bac1-80c0695aafe5","system_id":"levelo_inurba_marseille","lat":43.337444,"lon":5.374475,"is_reserved":false,"is_disabled":false,"rental_uris":{"android":"levelo://app?vid=04394a73-34a5-4d88-bac1-80c0695aafe5","ios":"levelo://app?vid=04394a73-34a5-4d88-bac1-80c0695aafe5"},"vehicle_type_id":"4","last_reported":1726812792,"current_range_meters":20800,"station_id":"","pricing_plan_id":"cebpf4jnsgd1na2vs0mg"},{"bike_id":"036ab25f-0c34-4c45-8e88-1fc9200da6fd","system_id":"levelo_inurba_marseille","lat":43.27175,"lon":5.42722,"is_reserved":false,"is_disabled":false,"rental_uris":{"android":"levelo://app?vid=036ab25f-0c34-4c45-8e88-1fc9200da6fd","ios":"levelo://app?vid=036ab25f-0c34-4c45-8e88-1fc9200da6fd"},"vehicle_type_id":"4","last_reported":1726812792,"current_range_meters":27200,"station_id":"","pricing_plan_id":"cebpf4jnsgd1na2vs0mg"},{"bike_id":"40e5b403-5590-4098-a474-822a4163b2a7","system_id":"levelo_inurba_marseille","lat":43.24085,"lon":5.37739,"is_reserved":false,"is_disabled":false,"rental_uris":{"android":"levelo://app?vid=40e5b403-5590-4098-a474-822a4163b2a7","ios":"levelo://app?vid=40e5b403-5590-4098-a474-822a4163b2a7"},"vehicle_type_id":"4","last_reported":1726812792,"current_range_meters":25200,"station_id":"ce4bhnp2rcd13ifvqgvg","pricing_plan_id":"cebpf4jnsgd1na2vs0mg"},{"bike_id":"60ba0f6b-768c-4a45-8a5f-fdc9bb710a0e","system_id":"levelo_inurba_marseille","lat":43.27559,"lon":5.38406,"is_reserved":false,"is_disabled":false,"rental_uris":{"android":"levelo://app?vid=60ba0f6b-768c-4a45-8a5f-fdc9bb710a0e","ios":"levelo://app?vid=60ba0f6b-768c-4a45-8a5f-fdc9bb710a0e"},"vehicle_type_id":"4","last_reported":1726812792,"current_range_meters":38800,"station_id":"ce4bhh92rcd13ifvqfi0","pricing_plan_id":"cebpf4jnsgd1na2vs0mg"},{"bike_id":"f385b4a6-31cf-416b-83d1-919567483ec0","system_id":"levelo_inurba_marseille","lat":43.2957,"lon":5.39961,"is_reserved":false,"is_disabled":false,"rental_uris":{"android":"levelo://app?vid=f385b4a6-31cf-416b-83d1-919567483ec0","ios":"levelo://app?vid=f385b4a6-31cf-416b-83d1-919567483ec0"},"vehicle_type_id":"4","last_reported":1726812792,"current_range_meters":30400,"station_id":"ce4bh312rcd13ifvqdj0","pricing_plan_id":"cebpf4jnsgd1na2vs0mg"},{"bike_id":"0fb42f67-e6d4-4b33-8619-af1b1d2a30e9","system_id":"levelo_inurba_marseille","lat":43.23152,"lon":5.43722,"is_reserved":false,"is_disabled":false,"rental_uris":{"android":"levelo://app?vid=0fb42f67-e6d4-4b33-8619-af1b1d2a30e9","ios":"levelo://app?vid=0fb42f67-e6d4-4b33-8619-af1b1d2a30e9"},"vehicle_type_id":"4","last_reported":1726812792,"current_range_meters":30400,"station_id":"ce4bhmp2rcd13ifvqgog","pricing_plan_id":"cebpf4jnsgd1na2vs0mg"},{"bike_id":"727c59dd-4a33-4404-90bc-3a4e59bd8948","system_id":"levelo_inurba_marseille","lat":43.32369,"lon":5.38886,"is_reserved":false,"is_disabled":false,"rental_uris":{"android":"levelo://app?vid=727c59dd-4a33-4404-90bc-3a4e59bd8948","ios":"levelo://app?vid=727c59dd-4a33-4404-90bc-3a4e59bd8948"},"vehicle_type_id":"4","last_reported":1726812792,"current_range_meters":22400,"station_id":"ce4bhqp2rcd13ifvqhog","pricing_plan_id":"cebpf4jnsgd1na2vs0mg"},{"bike_id":"a360d7ec-e318-4d83-a12c-d5ebd57d4833","system_id":"levelo_inurba_marseille","lat":43.30255,"lon":5.40067,"is_reserved":false,"is_disabled":false,"rental_uris":{"android":"levelo://app?vid=a360d7ec-e318-4d83-a12c-d5ebd57d4833","ios":"levelo://app?vid=a360d7ec-e318-4d83-a12c-d5ebd57d4833"},"vehicle_type_id":"4","last_reported":1726812792,"current_range_meters":39200,"station_id":"ce4bgvh2rcd13ifvqcs0","pricing_plan_id":"cebpf4jnsgd1na2vs0mg"},{"bike_id":"e3157b7d-f63e-4215-9b0b-bec081b31a83","system_id":"levelo_inurba_marseille","lat":43.3248,"lon":5.36574,"is_reserved":false,"is_disabled":false,"rental_uris":{"android":"levelo://app?vid=e3157b7d-f63e-4215-9b0b-bec081b31a83","ios":"levelo://app?vid=e3157b7d-f63e-4215-9b0b-bec081b31a83"},"vehicle_type_id":"4","last_reported":1726812792,"current_range_meters":8000,"station_id":"ce4bhs12rcd13ifvqhvg","pricing_plan_id":"cebpf4jnsgd1na2vs0mg"},{"bike_id":"253b057b-a41c-4693-8aa4-03c682f3fbb1","system_id":"levelo_inurba_marseille","lat":43.26809,"lon":5.40263,"is_reserved":false,"is_disabled":false,"rental_uris":{"android":"levelo://app?vid=253b057b-a41c-4693-8aa4-03c682f3fbb1","ios":"levelo://app?vid=253b057b-a41c-4693-8aa4-03c682f3fbb1"},"vehicle_type_id":"4","last_reported":1726812792,"current_range_meters":4000,"station_id":"ce501612rcd8frsf0b60","pricing_plan_id":"cebpf4jnsgd1na2vs0mg"},{"bike_id":"751f90c9-696d-43a3-abf5-68be55a262c9","system_id":"levelo_inurba_marseille","lat":43.33617,"lon":5.4102,"is_reserved":false,"is_disabled":false,"rental_uris":{"android":"levelo://app?vid=751f90c9-696d-43a3-abf5-68be55a262c9","ios":"levelo://app?vid=751f90c9-696d-43a3-abf5-68be55a262c9"},"vehicle_type_id":"4","last_reported":1726812792,"current_range_meters":16800,"station_id":"ce4bhqh2rcd13ifvqhmg","pricing_plan_id":"cebpf4jnsgd1na2vs0mg"},{"bike_id":"e25320fb-d3a0-4f0f-a9af-22f6ef9abdad","system_id":"levelo_inurba_marseille","lat":43.27494,"lon":5.42449,"is_reserved":false,"is_disabled":false,"rental_uris":{"android":"levelo://app?vid=e25320fb-d3a0-4f0f-a9af-22f6ef9abdad","ios":"levelo://app?vid=e25320fb-d3a0-4f0f-a9af-22f6ef9abdad"},"vehicle_type_id":"4","last_reported":1726812792,"current_range_meters":30400,"station_id":"ce4bhn92rcd13ifvqgrg","pricing_plan_id":"cebpf4jnsgd1na2vs0mg"},{"bike_id":"9899969d-4f8e-4fed-bc43-e675716ac04a","system_id":"levelo_inurba_marseille","lat":43.23153,"lon":5.43715,"is_reserved":false,"is_disabled":false,"rental_uris":{"android":"levelo://app?vid=9899969d-4f8e-4fed-bc43-e675716ac04a","ios":"levelo://app?vid=9899969d-4f8e-4fed-bc43-e675716ac04a"},"vehicle_type_id":"4","last_reported":1726812792,"current_range_meters":39200,"station_id":"ce4bhmp2rcd13ifvqgog","pricing_plan_id":"cebpf4jnsgd1na2vs0mg"},{"bike_id":"edfb1ff5-b81b-4225-8da9-100a9115b1e3","system_id":"levelo_inurba_marseille","lat":43.29735,"lon":5.36561,"is_reserved":false,"is_disabled":false,"rental_uris":{"android":"levelo://app?vid=edfb1ff5-b81b-4225-8da9-100a9115b1e3","ios":"levelo://app?vid=edfb1ff5-b81b-4225-8da9-100a9115b1e3"},"vehicle_type_id":"4","last_reported":1726812792,"current_range_meters":14000,"station_id":"","pricing_plan_id":"cebpf4jnsgd1na2vs0mg"},{"bike_id":"6ab676ae-cd93-4ab3-848e-7bd82add110e","system_id":"levelo_inurba_marseille","lat":43.24547,"lon":5.39518,"is_reserved":false,"is_disabled":false,"rental_uris":{"android":"levelo://app?vid=6ab676ae-cd93-4ab3-848e-7bd82add110e","ios":"levelo://app?vid=6ab676ae-cd93-4ab3-848e-7bd82add110e"},"vehicle_type_id":"4","last_reported":1726812792,"current_range_meters":29600,"station_id":"ce4bhlp2rcd13ifvqgjg","pricing_plan_id":"cebpf4jnsgd1na2vs0mg"},{"bike_id":"611e610a-7a9b-4c28-945d-5bb1c64d59f2","system_id":"levelo_inurba_marseille","lat":43.26949,"lon":5.38632,"is_reserved":false,"is_disabled":false,"rental_uris":{"android":"levelo://app?vid=611e610a-7a9b-4c28-945d-5bb1c64d59f2","ios":"levelo://app?vid=611e610a-7a9b-4c28-945d-5bb1c64d59f2"},"vehicle_type_id":"4","last_reported":1726812792,"current_range_meters":33600,"station_id":"ce4bhh92rcd13ifvqfh0","pricing_plan_id":"cebpf4jnsgd1na2vs0mg"},{"bike_id":"9c265d7b-b0a5-4799-b251-6fc39180cbcb","system_id":"levelo_inurba_marseille","lat":43.325388,"lon":5.414262,"is_reserved":false,"is_disabled":false,"rental_uris":{"android":"levelo://app?vid=9c265d7b-b0a5-4799-b251-6fc39180cbcb","ios":"levelo://app?vid=9c265d7b-b0a5-4799-b251-6fc39180cbcb"},"vehicle_type_id":"4","last_reported":1726812792,"current_range_meters":14000,"station_id":"ce4bhq12rcd13ifvqhhg","pricing_plan_id":"cebpf4jnsgd1na2vs0mg"},{"bike_id":"e04f4d01-f583-40a1-bbf8-099d51565899","system_id":"levelo_inurba_marseille","lat":43.28709,"lon":5.3793,"is_reserved":false,"is_disabled":false,"rental_uris":{"android":"levelo://app?vid=e04f4d01-f583-40a1-bbf8-099d51565899","ios":"levelo://app?vid=e04f4d01-f583-40a1-bbf8-099d51565899"},"vehicle_type_id":"4","last_reported":1726812792,"current_range_meters":36000,"station_id":"ce4bh9p2rcd13ifvqec0","pricing_plan_id":"cebpf4jnsgd1na2vs0mg"},{"bike_id":"0945b090-e80e-402c-9b22-adbad6a0d5ae","system_id":"levelo_inurba_marseille","lat":43.3171,"lon":5.43706,"is_reserved":false,"is_disabled":false,"rental_uris":{"android":"levelo://app?vid=0945b090-e80e-402c-9b22-adbad6a0d5ae","ios":"levelo://app?vid=0945b090-e80e-402c-9b22-adbad6a0d5ae"},"vehicle_type_id":"4","last_reported":1726812792,"current_range_meters":4000,"station_id":"ce4bhp92rcd13ifvqhcg","pricing_plan_id":"cebpf4jnsgd1na2vs0mg"},{"bike_id":"861bbc7a-ddba-4bf4-b1e7-781611d14d08","system_id":"levelo_inurba_marseille","lat":43.32536,"lon":5.4143,"is_reserved":false,"is_disabled":false,"rental_uris":{"android":"levelo://app?vid=861bbc7a-ddba-4bf4-b1e7-781611d14d08","ios":"levelo://app?vid=861bbc7a-ddba-4bf4-b1e7-781611d14d08"},"vehicle_type_id":"4","last_reported":1726812792,"current_range_meters":32800,"station_id":"ce4bhq12rcd13ifvqhhg","pricing_plan_id":"cebpf4jnsgd1na2vs0mg"},{"bike_id":"eb1db85b-8f62-4ba4-8e16-c7154885de1d","system_id":"levelo_inurba_marseille","lat":43.26671,"lon":5.3826,"is_reserved":false,"is_disabled":false,"rental_uris":{"android":"levelo://app?vid=eb1db85b-8f62-4ba4-8e16-c7154885de1d","ios":"levelo://app?vid=eb1db85b-8f62-4ba4-8e16-c7154885de1d"},"vehicle_type_id":"4","last_reported":1726812792,"current_range_meters":38400,"station_id":"ce4bhg92rcd13ifvqf90","pricing_plan_id":"cebpf4jnsgd1na2vs0mg"},{"bike_id":"b53ea1c5-b3fe-4741-8e5b-bb216cf38c1b","system_id":"levelo_inurba_marseille","lat":43.2465,"lon":5.38889,"is_reserved":false,"is_disabled":false,"rental_uris":{"android":"levelo://app?vid=b53ea1c5-b3fe-4741-8e5b-bb216cf38c1b","ios":"levelo://app?vid=b53ea1c5-b3fe-4741-8e5b-bb216cf38c1b"},"vehicle_type_id":"4","last_reported":1726812792,"current_range_meters":32000,"station_id":"ce4bhg12rcd13ifvqf60","pricing_plan_id":"cebpf4jnsgd1na2vs0mg"},{"bike_id":"96b332fe-ec14-463a-a727-386ea5e48984","system_id":"levelo_inurba_marseille","lat":43.32367,"lon":5.38884,"is_reserved":false,"is_disabled":false,"rental_uris":{"android":"levelo://app?vid=96b332fe-ec14-463a-a727-386ea5e48984","ios":"levelo://app?vid=96b332fe-ec14-463a-a727-386ea5e48984"},"vehicle_type_id":"4","last_reported":1726812792,"current_range_meters":33600,"station_id":"ce4bhqp2rcd13ifvqhog","pricing_plan_id":"cebpf4jnsgd1na2vs0mg"},{"bike_id":"1d4dce81-26c9-4e90-9512-73a77179f3d4","system_id":"levelo_inurba_marseille","lat":43.23178,"lon":5.3998,"is_reserved":false,"is_disabled":false,"rental_uris":{"android":"levelo://app?vid=1d4dce81-26c9-4e90-9512-73a77179f3d4","ios":"levelo://app?vid=1d4dce81-26c9-4e90-9512-73a77179f3d4"},"vehicle_type_id":"4","last_reported":1726812792,"current_range_meters":8400,"station_id":"ce4bhn12rcd13ifvqgqg","pricing_plan_id":"cebpf4jnsgd1na2vs0mg"},{"bike_id":"43356356-1ebf-41d4-a9de-4fa2973940ef","system_id":"levelo_inurba_marseille","lat":43.29961,"lon":5.41333,"is_reserved":false,"is_disabled":false,"rental_uris":{"android":"levelo://app?vid=43356356-1ebf-41d4-a9de-4fa2973940ef","ios":"levelo://app?vid=43356356-1ebf-41d4-a9de-4fa2973940ef"},"vehicle_type_id":"4","last_reported":1726812792,"current_range_meters":33200,"station_id":"ce4bhp12rcd13ifvqh9g","pricing_plan_id":"cebpf4jnsgd1na2vs0mg"},{"bike_id":"e2bdc4bb-8774-4981-a659-1b1998644639","system_id":"levelo_inurba_marseille","lat":43.30551,"lon":5.36554,"is_reserved":false,"is_disabled":false,"rental_uris":{"android":"levelo://app?vid=e2bdc4bb-8774-4981-a659-1b1998644639","ios":"levelo://app?vid=e2bdc4bb-8774-4981-a659-1b1998644639"},"vehicle_type_id":"4","last_reported":1726812792,"current_range_meters":27600,"station_id":"ce4bgs12rcd13ifvqcag","pricing_plan_id":"cebpf4jnsgd1na2vs0mg"},{"bike_id":"02535061-67be-4999-8d1b-0f097ce0643a","system_id":"levelo_inurba_marseille","lat":43.26943,"lon":5.40244,"is_reserved":false,"is_disabled":false,"rental_uris":{"android":"levelo://app?vid=02535061-67be-4999-8d1b-0f097ce0643a","ios":"levelo://app?vid=02535061-67be-4999-8d1b-0f097ce0643a"},"vehicle_type_id":"4","last_reported":1726812792,"current_range_meters":13600,"station_id":"cjm6bp8fraef2m0cb0m0","pricing_plan_id":"cebpf4jnsgd1na2vs0mg"},{"bike_id":"d0de109a-f70f-408d-9d53-63312d6fb115","system_id":"levelo_inurba_marseille","lat":43.29884,"lon":5.38905,"is_reserved":false,"is_disabled":false,"rental_uris":{"android":"levelo://app?vid=d0de109a-f70f-408d-9d53-63312d6fb115","ios":"levelo://app?vid=d0de109a-f70f-408d-9d53-63312d6fb115"},"vehicle_type_id":"4","last_reported":1726812792,"current_range_meters":38000,"station_id":"ce4bh392rcd13ifvqdl0","pricing_plan_id":"cebpf4jnsgd1na2vs0mg"},{"bike_id":"f91d86b2-456a-48aa-bac9-b4717c616eb8","system_id":"levelo_inurba_marseille","lat":43.25721,"lon":5.41108,"is_reserved":false,"is_disabled":false,"rental_uris":{"android":"levelo://app?vid=f91d86b2-456a-48aa-bac9-b4717c616eb8","ios":"levelo://app?vid=f91d86b2-456a-48aa-bac9-b4717c616eb8"},"vehicle_type_id":"4","last_reported":1726812792,"current_range_meters":6800,"station_id":"ce4bhkp2rcd13ifvqgd0","pricing_plan_id":"cebpf4jnsgd1na2vs0mg"},{"bike_id":"f689521a-328c-4627-83e8-a25c4f32e99b","system_id":"levelo_inurba_marseille","lat":43.23193,"lon":5.35558,"is_reserved":false,"is_disabled":false,"rental_uris":{"android":"levelo://app?vid=f689521a-328c-4627-83e8-a25c4f32e99b","ios":"levelo://app?vid=f689521a-328c-4627-83e8-a25c4f32e99b"},"vehicle_type_id":"4","last_reported":1726812792,"current_range_meters":28000,"station_id":"ce4bhu92rcd13ifvqi70","pricing_plan_id":"cebpf4jnsgd1na2vs0mg"},{"bike_id":"0103eeda-09a7-4e2b-b881-e857ddcec39e","system_id":"levelo_inurba_marseille","lat":43.23184,"lon":5.39981,"is_reserved":false,"is_disabled":false,"rental_uris":{"android":"levelo://app?vid=0103eeda-09a7-4e2b-b881-e857ddcec39e","ios":"levelo://app?vid=0103eeda-09a7-4e2b-b881-e857ddcec39e"},"vehicle_type_id":"4","last_reported":1726812792,"current_range_meters":38400,"station_id":"ce4bhn12rcd13ifvqgqg","pricing_plan_id":"cebpf4jnsgd1na2vs0mg"},{"bike_id":"9e175354-b10a-4427-9666-b04a97787055","system_id":"levelo_inurba_marseille","lat":43.2903,"lon":5.38643,"is_reserved":false,"is_disabled":false,"rental_uris":{"android":"levelo://app?vid=9e175354-b10a-4427-9666-b04a97787055","ios":"levelo://app?vid=9e175354-b10a-4427-9666-b04a97787055"},"vehicle_type_id":"4","last_reported":1726812792,"current_range_meters":35200,"station_id":"ce4bh4p2rcd13ifvqe0g","pricing_plan_id":"cebpf4jnsgd1na2vs0mg"},{"bike_id":"2f52441d-c05b-4b50-bbff-2741745910c1","system_id":"levelo_inurba_marseille","lat":43.28991,"lon":5.37813,"is_reserved":false,"is_disabled":false,"rental_uris":{"android":"levelo://app?vid=2f52441d-c05b-4b50-bbff-2741745910c1","ios":"levelo://app?vid=2f52441d-c05b-4b50-bbff-2741745910c1"},"vehicle_type_id":"4","last_reported":1726812792,"current_range_meters":38800,"station_id":"","pricing_plan_id":"cebpf4jnsgd1na2vs0mg"},{"bike_id":"6490ab74-03a4-4c7a-b932-e712306c75c0","system_id":"levelo_inurba_marseille","lat":43.30319,"lon":5.36906,"is_reserved":false,"is_disabled":false,"rental_uris":{"android":"levelo://app?vid=6490ab74-03a4-4c7a-b932-e712306c75c0","ios":"levelo://app?vid=6490ab74-03a4-4c7a-b932-e712306c75c0"},"vehicle_type_id":"4","last_reported":1726812792,"current_range_meters":30400,"station_id":"ce4bgqh2rcd13ifvqc5g","pricing_plan_id":"cebpf4jnsgd1na2vs0mg"},{"bike_id":"06160354-60df-4cba-b7d5-441cbcd00837","system_id":"levelo_inurba_marseille","lat":43.304235,"lon":5.388867,"is_reserved":false,"is_disabled":false,"rental_uris":{"android":"levelo://app?vid=06160354-60df-4cba-b7d5-441cbcd00837","ios":"levelo://app?vid=06160354-60df-4cba-b7d5-441cbcd00837"},"vehicle_type_id":"4","last_reported":1726812792,"current_range_meters":37600,"station_id":"ce4bgup2rcd13ifvqcn0","pricing_plan_id":"cebpf4jnsgd1na2vs0mg"},{"bike_id":"9cb3eff7-3418-44d3-91f7-68c307b0859b","system_id":"levelo_inurba_marseille","lat":43.28936,"lon":5.36642,"is_reserved":false,"is_disabled":false,"rental_uris":{"android":"levelo://app?vid=9cb3eff7-3418-44d3-91f7-68c307b0859b","ios":"levelo://app?vid=9cb3eff7-3418-44d3-91f7-68c307b0859b"},"vehicle_type_id":"4","last_reported":1726812792,"current_range_meters":34800,"station_id":"ce4bhap2rcd13ifvqek0","pricing_plan_id":"cebpf4jnsgd1na2vs0mg"},{"bike_id":"896e6927-c5f6-4910-b508-b7785967479b","system_id":"levelo_inurba_marseille","lat":43.26204,"lon":5.37923,"is_reserved":false,"is_disabled":false,"rental_uris":{"android":"levelo://app?vid=896e6927-c5f6-4910-b508-b7785967479b","ios":"levelo://app?vid=896e6927-c5f6-4910-b508-b7785967479b"},"vehicle_type_id":"4","last_reported":1726812792,"current_range_meters":24800,"station_id":"ce4bhjp2rcd13ifvqg90","pricing_plan_id":"cebpf4jnsgd1na2vs0mg"},{"bike_id":"cf555b44-67b0-41d4-a5f9-65b67db51574","system_id":"levelo_inurba_marseille","lat":43.22934,"lon":5.353772,"is_reserved":false,"is_disabled":false,"rental_uris":{"android":"levelo://app?vid=cf555b44-67b0-41d4-a5f9-65b67db51574","ios":"levelo://app?vid=cf555b44-67b0-41d4-a5f9-65b67db51574"},"vehicle_type_id":"4","last_reported":1726812792,"current_range_meters":5600,"station_id":"cpo3532slgdg3j2ikp40","pricing_plan_id":"cebpf4jnsgd1na2vs0mg"},{"bike_id":"6c0db99a-70b1-4a8d-9cf8-cf54b7a9570b","system_id":"levelo_inurba_marseille","lat":43.30136,"lon":5.39877,"is_reserved":false,"is_disabled":false,"rental_uris":{"android":"levelo://app?vid=6c0db99a-70b1-4a8d-9cf8-cf54b7a9570b","ios":"levelo://app?vid=6c0db99a-70b1-4a8d-9cf8-cf54b7a9570b"},"vehicle_type_id":"4","last_reported":1726812792,"current_range_meters":4000,"station_id":"ce4bh0h2rcd13ifvqd40","pricing_plan_id":"cebpf4jnsgd1na2vs0mg"},{"bike_id":"002b0699-6ee9-40eb-887b-ba2bc729859f","system_id":"levelo_inurba_marseille","lat":43.23193,"lon":5.35555,"is_reserved":false,"is_disabled":false,"rental_uris":{"android":"levelo://app?vid=002b0699-6ee9-40eb-887b-ba2bc729859f","ios":"levelo://app?vid=002b0699-6ee9-40eb-887b-ba2bc729859f"},"vehicle_type_id":"4","last_reported":1726812792,"current_range_meters":4000,"station_id":"ce4bhu92rcd13ifvqi70","pricing_plan_id":"cebpf4jnsgd1na2vs0mg"},{"bike_id":"d762beb2-fec3-4c89-a0a2-549e13720d9d","system_id":"levelo_inurba_marseille","lat":43.28351,"lon":5.38106,"is_reserved":false,"is_disabled":false,"rental_uris":{"android":"levelo://app?vid=d762beb2-fec3-4c89-a0a2-549e13720d9d","ios":"levelo://app?vid=d762beb2-fec3-4c89-a0a2-549e13720d9d"},"vehicle_type_id":"4","last_reported":1726812792,"current_range_meters":38400,"station_id":"ce4bh412rcd13ifvqdr0","pricing_plan_id":"cebpf4jnsgd1na2vs0mg"},{"bike_id":"66d06816-eba8-4801-9a61-acdd863ffb53","system_id":"levelo_inurba_marseille","lat":43.28459,"lon":5.35897,"is_reserved":false,"is_disabled":false,"rental_uris":{"android":"levelo://app?vid=66d06816-eba8-4801-9a61-acdd863ffb53","ios":"levelo://app?vid=66d06816-eba8-4801-9a61-acdd863ffb53"},"vehicle_type_id":"4","last_reported":1726812792,"current_range_meters":35600,"station_id":"ce4bhah2rcd13ifvqei0","pricing_plan_id":"cebpf4jnsgd1na2vs0mg"},{"bike_id":"f104eaef-b3b0-4392-ad0b-884d81f7af7f","system_id":"levelo_inurba_marseille","lat":43.28717,"lon":5.379376,"is_reserved":false,"is_disabled":false,"rental_uris":{"android":"levelo://app?vid=f104eaef-b3b0-4392-ad0b-884d81f7af7f","ios":"levelo://app?vid=f104eaef-b3b0-4392-ad0b-884d81f7af7f"},"vehicle_type_id":"4","last_reported":1726812792,"current_range_meters":16400,"station_id":"ce4bh9p2rcd13ifvqec0","pricing_plan_id":"cebpf4jnsgd1na2vs0mg"},{"bike_id":"9680a5ae-9565-4f16-a49c-6049cde2422f","system_id":"levelo_inurba_marseille","lat":43.29284,"lon":5.40128,"is_reserved":false,"is_disabled":false,"rental_uris":{"android":"levelo://app?vid=9680a5ae-9565-4f16-a49c-6049cde2422f","ios":"levelo://app?vid=9680a5ae-9565-4f16-a49c-6049cde2422f"},"vehicle_type_id":"4","last_reported":1726812792,"current_range_meters":38800,"station_id":"ce4bh312rcd13ifvqdk0","pricing_plan_id":"cebpf4jnsgd1na2vs0mg"},{"bike_id":"44d0db7b-1e6f-4a76-afce-11c355afe70e","system_id":"levelo_inurba_marseille","lat":43.29039,"lon":5.38635,"is_reserved":false,"is_disabled":false,"rental_uris":{"android":"levelo://app?vid=44d0db7b-1e6f-4a76-afce-11c355afe70e","ios":"levelo://app?vid=44d0db7b-1e6f-4a76-afce-11c355afe70e"},"vehicle_type_id":"4","last_reported":1726812792,"current_range_meters":38000,"station_id":"ce4bh4p2rcd13ifvqe0g","pricing_plan_id":"cebpf4jnsgd1na2vs0mg"},{"bike_id":"44c251f0-f33c-4318-83a7-3def51265b3b","system_id":"levelo_inurba_marseille","lat":43.2885,"lon":5.39313,"is_reserved":false,"is_disabled":false,"rental_uris":{"android":"levelo://app?vid=44c251f0-f33c-4318-83a7-3def51265b3b","ios":"levelo://app?vid=44c251f0-f33c-4318-83a7-3def51265b3b"},"vehicle_type_id":"4","last_reported":1726812792,"current_range_meters":36000,"station_id":"ce4bh2p2rcd13ifvqdi0","pricing_plan_id":"cebpf4jnsgd1na2vs0mg"},{"bike_id":"8188a625-4dbe-4115-a2c5-0c887c58f52e","system_id":"levelo_inurba_marseille","lat":43.304661,"lon":5.379155,"is_reserved":false,"is_disabled":false,"rental_uris":{"android":"levelo://app?vid=8188a625-4dbe-4115-a2c5-0c887c58f52e","ios":"levelo://app?vid=8188a625-4dbe-4115-a2c5-0c887c58f52e"},"vehicle_type_id":"4","last_reported":1726812792,"current_range_meters":27600,"station_id":"ce4bgup2rcd13ifvqcn0","pricing_plan_id":"cebpf4jnsgd1na2vs0mg"},{"bike_id":"0d52dbc2-62c8-4f4b-a876-c94e561cae28","system_id":"levelo_inurba_marseille","lat":43.25583,"lon":5.38236,"is_reserved":false,"is_disabled":false,"rental_uris":{"android":"levelo://app?vid=0d52dbc2-62c8-4f4b-a876-c94e561cae28","ios":"levelo://app?vid=0d52dbc2-62c8-4f4b-a876-c94e561cae28"},"vehicle_type_id":"4","last_reported":1726812792,"current_range_meters":35600,"station_id":"ce4bhih2rcd13ifvqfs0","pricing_plan_id":"cebpf4jnsgd1na2vs0mg"},{"bike_id":"7738401f-101a-4c61-86f8-1271ccec939a","system_id":"levelo_inurba_marseille","lat":43.28348,"lon":5.38099,"is_reserved":false,"is_disabled":false,"rental_uris":{"android":"levelo://app?vid=7738401f-101a-4c61-86f8-1271ccec939a","ios":"levelo://app?vid=7738401f-101a-4c61-86f8-1271ccec939a"},"vehicle_type_id":"4","last_reported":1726812792,"current_range_meters":28400,"station_id":"ce4bh412rcd13ifvqdr0","pricing_plan_id":"cebpf4jnsgd1na2vs0mg"},{"bike_id":"8ee6d5db-cb8b-4219-a1d2-5a1a8206952f","system_id":"levelo_inurba_marseille","lat":43.29548,"lon":5.42279,"is_reserved":false,"is_disabled":false,"rental_uris":{"android":"levelo://app?vid=8ee6d5db-cb8b-4219-a1d2-5a1a8206952f","ios":"levelo://app?vid=8ee6d5db-cb8b-4219-a1d2-5a1a8206952f"},"vehicle_type_id":"4","last_reported":1726812792,"current_range_meters":38000,"station_id":"ce4bhph2rcd13ifvqhdg","pricing_plan_id":"cebpf4jnsgd1na2vs0mg"},{"bike_id":"0ff393b5-2680-4ab9-a61b-b35fece17fe2","system_id":"levelo_inurba_marseille","lat":43.34145,"lon":5.40899,"is_reserved":false,"is_disabled":false,"rental_uris":{"android":"levelo://app?vid=0ff393b5-2680-4ab9-a61b-b35fece17fe2","ios":"levelo://app?vid=0ff393b5-2680-4ab9-a61b-b35fece17fe2"},"vehicle_type_id":"4","last_reported":1726812792,"current_range_meters":38400,"station_id":"ce4bhqh2rcd13ifvqhlg","pricing_plan_id":"cebpf4jnsgd1na2vs0mg"},{"bike_id":"615ef64d-5c00-42ee-bb6b-c6e440bb7723","system_id":"levelo_inurba_marseille","lat":43.325861,"lon":5.415064,"is_reserved":false,"is_disabled":false,"rental_uris":{"android":"levelo://app?vid=615ef64d-5c00-42ee-bb6b-c6e440bb7723","ios":"levelo://app?vid=615ef64d-5c00-42ee-bb6b-c6e440bb7723"},"vehicle_type_id":"4","last_reported":1726812792,"current_range_meters":2000,"station_id":"ce4bhq12rcd13ifvqhhg","pricing_plan_id":"cebpf4jnsgd1na2vs0mg"},{"bike_id":"53ce8669-3b97-4a8c-affc-d1b0f4238509","system_id":"levelo_inurba_marseille","lat":43.26956,"lon":5.38634,"is_reserved":false,"is_disabled":false,"rental_uris":{"android":"levelo://app?vid=53ce8669-3b97-4a8c-affc-d1b0f4238509","ios":"levelo://app?vid=53ce8669-3b97-4a8c-affc-d1b0f4238509"},"vehicle_type_id":"4","last_reported":1726812792,"current_range_meters":11200,"station_id":"ce4bhh92rcd13ifvqfh0","pricing_plan_id":"cebpf4jnsgd1na2vs0mg"},{"bike_id":"10a9ecd7-5504-4eb6-9b43-e633e5b3a837","system_id":"levelo_inurba_marseille","lat":43.32661,"lon":5.40991,"is_reserved":false,"is_disabled":false,"rental_uris":{"android":"levelo://app?vid=10a9ecd7-5504-4eb6-9b43-e633e5b3a837","ios":"levelo://app?vid=10a9ecd7-5504-4eb6-9b43-e633e5b3a837"},"vehicle_type_id":"4","last_reported":1726812792,"current_range_meters":9600,"station_id":"ce4bhpp2rcd13ifvqhgg","pricing_plan_id":"cebpf4jnsgd1na2vs0mg"},{"bike_id":"7308fce8-1130-46c1-b85f-dfba511a6b63","system_id":"levelo_inurba_marseille","lat":43.2761,"lon":5.36107,"is_reserved":false,"is_disabled":false,"rental_uris":{"android":"levelo://app?vid=7308fce8-1130-46c1-b85f-dfba511a6b63","ios":"levelo://app?vid=7308fce8-1130-46c1-b85f-dfba511a6b63"},"vehicle_type_id":"4","last_reported":1726812792,"current_range_meters":36000,"station_id":"ce4bgj92rcd13ifvqbe0","pricing_plan_id":"cebpf4jnsgd1na2vs0mg"},{"bike_id":"5e61556f-03e8-47cf-9661-180ab5b3af4e","system_id":"levelo_inurba_marseille","lat":43.30461,"lon":5.37916,"is_reserved":false,"is_disabled":false,"rental_uris":{"android":"levelo://app?vid=5e61556f-03e8-47cf-9661-180ab5b3af4e","ios":"levelo://app?vid=5e61556f-03e8-47cf-9661-180ab5b3af4e"},"vehicle_type_id":"4","last_reported":1726812792,"current_range_meters":29600,"station_id":"ce4bgup2rcd13ifvqcn0","pricing_plan_id":"cebpf4jnsgd1na2vs0mg"},{"bike_id":"4bc64c0a-0a18-46b6-86ee-8d125d60aede","system_id":"levelo_inurba_marseille","lat":43.29899,"lon":5.38137,"is_reserved":false,"is_disabled":false,"rental_uris":{"android":"levelo://app?vid=4bc64c0a-0a18-46b6-86ee-8d125d60aede","ios":"levelo://app?vid=4bc64c0a-0a18-46b6-86ee-8d125d60aede"},"vehicle_type_id":"4","last_reported":1726812792,"current_range_meters":32400,"station_id":"ce4bgj12rcd13ifvqbc0","pricing_plan_id":"cebpf4jnsgd1na2vs0mg"},{"bike_id":"95ce1ed9-4e19-44c5-8ee3-e642e8421f34","system_id":"levelo_inurba_marseille","lat":43.28714,"lon":5.3793,"is_reserved":false,"is_disabled":false,"rental_uris":{"android":"levelo://app?vid=95ce1ed9-4e19-44c5-8ee3-e642e8421f34","ios":"levelo://app?vid=95ce1ed9-4e19-44c5-8ee3-e642e8421f34"},"vehicle_type_id":"4","last_reported":1726812792,"current_range_meters":33200,"station_id":"ce4bh9p2rcd13ifvqec0","pricing_plan_id":"cebpf4jnsgd1na2vs0mg"},{"bike_id":"0be88429-11a1-475a-b2ea-8a75b3e546b5","system_id":"levelo_inurba_marseille","lat":43.284566,"lon":5.378149,"is_reserved":false,"is_disabled":false,"rental_uris":{"android":"levelo://app?vid=0be88429-11a1-475a-b2ea-8a75b3e546b5","ios":"levelo://app?vid=0be88429-11a1-475a-b2ea-8a75b3e546b5"},"vehicle_type_id":"4","last_reported":1726812792,"current_range_meters":38400,"station_id":"ce4bgl92rcd13ifvqbq0","pricing_plan_id":"cebpf4jnsgd1na2vs0mg"},{"bike_id":"c7bad8ea-8777-4fc3-91f9-23b7ab27e960","system_id":"levelo_inurba_marseille","lat":43.26565,"lon":5.39002,"is_reserved":false,"is_disabled":false,"rental_uris":{"android":"levelo://app?vid=c7bad8ea-8777-4fc3-91f9-23b7ab27e960","ios":"levelo://app?vid=c7bad8ea-8777-4fc3-91f9-23b7ab27e960"},"vehicle_type_id":"4","last_reported":1726812792,"current_range_meters":3600,"station_id":"ce4bhe12rcd13ifvqf30","pricing_plan_id":"cebpf4jnsgd1na2vs0mg"},{"bike_id":"b153f585-91a7-4778-8e3b-fba7bd4d15f4","system_id":"levelo_inurba_marseille","lat":43.31335,"lon":5.36717,"is_reserved":false,"is_disabled":false,"rental_uris":{"android":"levelo://app?vid=b153f585-91a7-4778-8e3b-fba7bd4d15f4","ios":"levelo://app?vid=b153f585-91a7-4778-8e3b-fba7bd4d15f4"},"vehicle_type_id":"4","last_reported":1726812792,"current_range_meters":38800,"station_id":"ce4bgr92rcd13ifvqc6g","pricing_plan_id":"cebpf4jnsgd1na2vs0mg"},{"bike_id":"162400c4-7c8e-4e08-8e30-3872a8628f3a","system_id":"levelo_inurba_marseille","lat":43.26951,"lon":5.38631,"is_reserved":false,"is_disabled":false,"rental_uris":{"android":"levelo://app?vid=162400c4-7c8e-4e08-8e30-3872a8628f3a","ios":"levelo://app?vid=162400c4-7c8e-4e08-8e30-3872a8628f3a"},"vehicle_type_id":"4","last_reported":1726812792,"current_range_meters":8800,"station_id":"ce4bhh92rcd13ifvqfh0","pricing_plan_id":"cebpf4jnsgd1na2vs0mg"},{"bike_id":"4ef5c07e-92cd-40ba-8b01-fc704da3f1bb","system_id":"levelo_inurba_marseille","lat":43.33022,"lon":5.39042,"is_reserved":false,"is_disabled":false,"rental_uris":{"android":"levelo://app?vid=4ef5c07e-92cd-40ba-8b01-fc704da3f1bb","ios":"levelo://app?vid=4ef5c07e-92cd-40ba-8b01-fc704da3f1bb"},"vehicle_type_id":"4","last_reported":1726812792,"current_range_meters":30400,"station_id":"ce4bhr92rcd13ifvqhrg","pricing_plan_id":"cebpf4jnsgd1na2vs0mg"},{"bike_id":"4fad2ed3-fdf4-417b-8c8e-8d5a3d3c5574","system_id":"levelo_inurba_marseille","lat":43.2656,"lon":5.37279,"is_reserved":false,"is_disabled":false,"rental_uris":{"android":"levelo://app?vid=4fad2ed3-fdf4-417b-8c8e-8d5a3d3c5574","ios":"levelo://app?vid=4fad2ed3-fdf4-417b-8c8e-8d5a3d3c5574"},"vehicle_type_id":"4","last_reported":1726812792,"current_range_meters":9600,"station_id":"ce4bhg12rcd13ifvqf70","pricing_plan_id":"cebpf4jnsgd1na2vs0mg"},{"bike_id":"9e17731e-35d9-4aa0-92b3-bc18bc20078c","system_id":"levelo_inurba_marseille","lat":43.30953,"lon":5.39033,"is_reserved":false,"is_disabled":false,"rental_uris":{"android":"levelo://app?vid=9e17731e-35d9-4aa0-92b3-bc18bc20078c","ios":"levelo://app?vid=9e17731e-35d9-4aa0-92b3-bc18bc20078c"},"vehicle_type_id":"4","last_reported":1726812792,"current_range_meters":6800,"station_id":"ce4bgup2rcd13ifvqco0","pricing_plan_id":"cebpf4jnsgd1na2vs0mg"},{"bike_id":"247f8924-d2ca-48e7-b639-f5097299ef61","system_id":"levelo_inurba_marseille","lat":43.24388,"lon":5.37051,"is_reserved":false,"is_disabled":false,"rental_uris":{"android":"levelo://app?vid=247f8924-d2ca-48e7-b639-f5097299ef61","ios":"levelo://app?vid=247f8924-d2ca-48e7-b639-f5097299ef61"},"vehicle_type_id":"4","last_reported":1726812792,"current_range_meters":38800,"station_id":"ce4bhhh2rcd13ifvqfk0","pricing_plan_id":"cebpf4jnsgd1na2vs0mg"},{"bike_id":"e3678fe5-cd97-41c2-92f5-c59b10e32309","system_id":"levelo_inurba_marseille","lat":43.31535,"lon":5.38029,"is_reserved":false,"is_disabled":false,"rental_uris":{"android":"levelo://app?vid=e3678fe5-cd97-41c2-92f5-c59b10e32309","ios":"levelo://app?vid=e3678fe5-cd97-41c2-92f5-c59b10e32309"},"vehicle_type_id":"4","last_reported":1726812792,"current_range_meters":36000,"station_id":"ce4bhsp2rcd13ifvqi50","pricing_plan_id":"cebpf4jnsgd1na2vs0mg"},{"bike_id":"6b0b777a-8312-49d9-bdfc-41a6c52e6b37","system_id":"levelo_inurba_marseille","lat":43.30455,"lon":5.379,"is_reserved":false,"is_disabled":false,"rental_uris":{"android":"levelo://app?vid=6b0b777a-8312-49d9-bdfc-41a6c52e6b37","ios":"levelo://app?vid=6b0b777a-8312-49d9-bdfc-41a6c52e6b37"},"vehicle_type_id":"4","last_reported":1726812792,"current_range_meters":33600,"station_id":"ce4bgup2rcd13ifvqcn0","pricing_plan_id":"cebpf4jnsgd1na2vs0mg"},{"bike_id":"604c9531-be4f-4974-bfe2-bd7828d7386f","system_id":"levelo_inurba_marseille","lat":43.29894,"lon":5.43654,"is_reserved":false,"is_disabled":false,"rental_uris":{"android":"levelo://app?vid=604c9531-be4f-4974-bfe2-bd7828d7386f","ios":"levelo://app?vid=604c9531-be4f-4974-bfe2-bd7828d7386f"},"vehicle_type_id":"4","last_reported":1726812792,"current_range_meters":28800,"station_id":"ce4bhpp2rcd13ifvqhfg","pricing_plan_id":"cebpf4jnsgd1na2vs0mg"},{"bike_id":"44da3e59-dcf2-4354-910f-f3fece0ed467","system_id":"levelo_inurba_marseille","lat":43.27072,"lon":5.42278,"is_reserved":false,"is_disabled":false,"rental_uris":{"android":"levelo://app?vid=44da3e59-dcf2-4354-910f-f3fece0ed467","ios":"levelo://app?vid=44da3e59-dcf2-4354-910f-f3fece0ed467"},"vehicle_type_id":"4","last_reported":1726812792,"current_range_meters":38000,"station_id":"ce4bhk92rcd13ifvqgb0","pricing_plan_id":"cebpf4jnsgd1na2vs0mg"},{"bike_id":"eb2ef9af-e9bb-4b94-aee1-3fb33b5e66f9","system_id":"levelo_inurba_marseille","lat":43.27986,"lon":5.41651,"is_reserved":false,"is_disabled":false,"rental_uris":{"android":"levelo://app?vid=eb2ef9af-e9bb-4b94-aee1-3fb33b5e66f9","ios":"levelo://app?vid=eb2ef9af-e9bb-4b94-aee1-3fb33b5e66f9"},"vehicle_type_id":"4","last_reported":1726812792,"current_range_meters":37600,"station_id":"ce4bho12rcd13ifvqh1g","pricing_plan_id":"cebpf4jnsgd1na2vs0mg"},{"bike_id":"be365c2e-80e2-44c5-a20e-0144c10d6da3","system_id":"levelo_inurba_marseille","lat":43.26954,"lon":5.38632,"is_reserved":false,"is_disabled":false,"rental_uris":{"android":"levelo://app?vid=be365c2e-80e2-44c5-a20e-0144c10d6da3","ios":"levelo://app?vid=be365c2e-80e2-44c5-a20e-0144c10d6da3"},"vehicle_type_id":"4","last_reported":1726812792,"current_range_meters":39200,"station_id":"ce4bhh92rcd13ifvqfh0","pricing_plan_id":"cebpf4jnsgd1na2vs0mg"},{"bike_id":"bbabc812-5d4f-4dde-ac4b-6c59e8a40a27","system_id":"levelo_inurba_marseille","lat":43.27483,"lon":5.4245,"is_reserved":false,"is_disabled":false,"rental_uris":{"android":"levelo://app?vid=bbabc812-5d4f-4dde-ac4b-6c59e8a40a27","ios":"levelo://app?vid=bbabc812-5d4f-4dde-ac4b-6c59e8a40a27"},"vehicle_type_id":"4","last_reported":1726812792,"current_range_meters":38800,"station_id":"ce4bhn92rcd13ifvqgrg","pricing_plan_id":"cebpf4jnsgd1na2vs0mg"},{"bike_id":"15bbdbd8-fa35-4790-b472-706c4e2f4e69","system_id":"levelo_inurba_marseille","lat":43.3053,"lon":5.37272,"is_reserved":false,"is_disabled":false,"rental_uris":{"android":"levelo://app?vid=15bbdbd8-fa35-4790-b472-706c4e2f4e69","ios":"levelo://app?vid=15bbdbd8-fa35-4790-b472-706c4e2f4e69"},"vehicle_type_id":"4","last_reported":1726812792,"current_range_meters":6800,"station_id":"","pricing_plan_id":"cebpf4jnsgd1na2vs0mg"},{"bike_id":"ef6e8a6b-dbc8-497d-adeb-1b246e1a7dec","system_id":"levelo_inurba_marseille","lat":43.24177,"lon":5.39741,"is_reserved":false,"is_disabled":false,"rental_uris":{"android":"levelo://app?vid=ef6e8a6b-dbc8-497d-adeb-1b246e1a7dec","ios":"levelo://app?vid=ef6e8a6b-dbc8-497d-adeb-1b246e1a7dec"},"vehicle_type_id":"4","last_reported":1726812792,"current_range_meters":38800,"station_id":"ce4bhn12rcd13ifvqgpg","pricing_plan_id":"cebpf4jnsgd1na2vs0mg"},{"bike_id":"9f8649e2-75d2-4d09-94ee-538fd13f9680","system_id":"levelo_inurba_marseille","lat":43.33605,"lon":5.41021,"is_reserved":false,"is_disabled":false,"rental_uris":{"android":"levelo://app?vid=9f8649e2-75d2-4d09-94ee-538fd13f9680","ios":"levelo://app?vid=9f8649e2-75d2-4d09-94ee-538fd13f9680"},"vehicle_type_id":"4","last_reported":1726812792,"current_range_meters":38000,"station_id":"ce4bhqh2rcd13ifvqhmg","pricing_plan_id":"cebpf4jnsgd1na2vs0mg"},{"bike_id":"eba8614c-0914-4ce7-a706-4d43d12ff0e3","system_id":"levelo_inurba_marseille","lat":43.28152,"lon":5.4265,"is_reserved":false,"is_disabled":false,"rental_uris":{"android":"levelo://app?vid=eba8614c-0914-4ce7-a706-4d43d12ff0e3","ios":"levelo://app?vid=eba8614c-0914-4ce7-a706-4d43d12ff0e3"},"vehicle_type_id":"4","last_reported":1726812792,"current_range_meters":33600,"station_id":"ce4bhnh2rcd13ifvqgug","pricing_plan_id":"cebpf4jnsgd1na2vs0mg"},{"bike_id":"22b1efca-126a-4e36-8ad6-6d0ee68c6c86","system_id":"levelo_inurba_marseille","lat":43.308111,"lon":5.38144,"is_reserved":false,"is_disabled":false,"rental_uris":{"android":"levelo://app?vid=22b1efca-126a-4e36-8ad6-6d0ee68c6c86","ios":"levelo://app?vid=22b1efca-126a-4e36-8ad6-6d0ee68c6c86"},"vehicle_type_id":"4","last_reported":1726812792,"current_range_meters":6000,"station_id":"ce4bh0h2rcd13ifvqd60","pricing_plan_id":"cebpf4jnsgd1na2vs0mg"},{"bike_id":"2f0435c9-f853-4b1a-ba1e-08de2612b96b","system_id":"levelo_inurba_marseille","lat":43.284695,"lon":5.384168,"is_reserved":false,"is_disabled":false,"rental_uris":{"android":"levelo://app?vid=2f0435c9-f853-4b1a-ba1e-08de2612b96b","ios":"levelo://app?vid=2f0435c9-f853-4b1a-ba1e-08de2612b96b"},"vehicle_type_id":"4","last_reported":1726812792,"current_range_meters":24800,"station_id":"ce4bhi12rcd13ifvqfo0","pricing_plan_id":"cebpf4jnsgd1na2vs0mg"},{"bike_id":"d8ee2fd3-a9a0-4db8-bac9-f46b105fbc1b","system_id":"levelo_inurba_marseille","lat":43.26953,"lon":5.38627,"is_reserved":false,"is_disabled":false,"rental_uris":{"android":"levelo://app?vid=d8ee2fd3-a9a0-4db8-bac9-f46b105fbc1b","ios":"levelo://app?vid=d8ee2fd3-a9a0-4db8-bac9-f46b105fbc1b"},"vehicle_type_id":"4","last_reported":1726812792,"current_range_meters":35600,"station_id":"ce4bhh92rcd13ifvqfh0","pricing_plan_id":"cebpf4jnsgd1na2vs0mg"},{"bike_id":"5910eaa6-f894-4b8f-9a20-79443111bee6","system_id":"levelo_inurba_marseille","lat":43.24069,"lon":5.37781,"is_reserved":false,"is_disabled":false,"rental_uris":{"android":"levelo://app?vid=5910eaa6-f894-4b8f-9a20-79443111bee6","ios":"levelo://app?vid=5910eaa6-f894-4b8f-9a20-79443111bee6"},"vehicle_type_id":"4","last_reported":1726812792,"current_range_meters":34800,"station_id":"ce4bhnp2rcd13ifvqgvg","pricing_plan_id":"cebpf4jnsgd1na2vs0mg"},{"bike_id":"20e03b62-3298-4b3b-9d2d-252e8c1bbeaf","system_id":"levelo_inurba_marseille","lat":43.30589,"lon":5.39348,"is_reserved":false,"is_disabled":false,"rental_uris":{"android":"levelo://app?vid=20e03b62-3298-4b3b-9d2d-252e8c1bbeaf","ios":"levelo://app?vid=20e03b62-3298-4b3b-9d2d-252e8c1bbeaf"},"vehicle_type_id":"4","last_reported":1726812792,"current_range_meters":12000,"station_id":"ce4bh0p2rcd13ifvqd80","pricing_plan_id":"cebpf4jnsgd1na2vs0mg"},{"bike_id":"64dcf5e2-6b57-4efa-badf-cd57405a7aa5","system_id":"levelo_inurba_marseille","lat":43.27561,"lon":5.38433,"is_reserved":false,"is_disabled":false,"rental_uris":{"android":"levelo://app?vid=64dcf5e2-6b57-4efa-badf-cd57405a7aa5","ios":"levelo://app?vid=64dcf5e2-6b57-4efa-badf-cd57405a7aa5"},"vehicle_type_id":"4","last_reported":1726812792,"current_range_meters":38400,"station_id":"ce4bhh92rcd13ifvqfi0","pricing_plan_id":"cebpf4jnsgd1na2vs0mg"},{"bike_id":"8bded9b1-4958-41a5-9529-392455536bc5","system_id":"levelo_inurba_marseille","lat":43.27496,"lon":5.4245,"is_reserved":false,"is_disabled":false,"rental_uris":{"android":"levelo://app?vid=8bded9b1-4958-41a5-9529-392455536bc5","ios":"levelo://app?vid=8bded9b1-4958-41a5-9529-392455536bc5"},"vehicle_type_id":"4","last_reported":1726812792,"current_range_meters":38800,"station_id":"ce4bhn92rcd13ifvqgrg","pricing_plan_id":"cebpf4jnsgd1na2vs0mg"},{"bike_id":"923be1b8-882a-445b-83fa-e72f0e039471","system_id":"levelo_inurba_marseille","lat":43.30542,"lon":5.365612,"is_reserved":false,"is_disabled":false,"rental_uris":{"android":"levelo://app?vid=923be1b8-882a-445b-83fa-e72f0e039471","ios":"levelo://app?vid=923be1b8-882a-445b-83fa-e72f0e039471"},"vehicle_type_id":"4","last_reported":1726812792,"current_range_meters":27600,"station_id":"ce4bgs12rcd13ifvqcag","pricing_plan_id":"cebpf4jnsgd1na2vs0mg"},{"bike_id":"a2a90ab3-4077-4755-9974-d0cba0a8c76c","system_id":"levelo_inurba_marseille","lat":43.27915,"lon":5.39577,"is_reserved":false,"is_disabled":false,"rental_uris":{"android":"levelo://app?vid=a2a90ab3-4077-4755-9974-d0cba0a8c76c","ios":"levelo://app?vid=a2a90ab3-4077-4755-9974-d0cba0a8c76c"},"vehicle_type_id":"4","last_reported":1726812792,"current_range_meters":38000,"station_id":"ce4bhf92rcd13ifvqf40","pricing_plan_id":"cebpf4jnsgd1na2vs0mg"},{"bike_id":"94e34036-1420-44c1-a6d8-6f020814b646","system_id":"levelo_inurba_marseille","lat":43.26567,"lon":5.38996,"is_reserved":false,"is_disabled":false,"rental_uris":{"android":"levelo://app?vid=94e34036-1420-44c1-a6d8-6f020814b646","ios":"levelo://app?vid=94e34036-1420-44c1-a6d8-6f020814b646"},"vehicle_type_id":"4","last_reported":1726812792,"current_range_meters":35600,"station_id":"ce4bhe12rcd13ifvqf30","pricing_plan_id":"cebpf4jnsgd1na2vs0mg"},{"bike_id":"4fa0ca0d-342c-4cd6-990b-f5e4ae40db2b","system_id":"levelo_inurba_marseille","lat":43.29962,"lon":5.41336,"is_reserved":false,"is_disabled":false,"rental_uris":{"android":"levelo://app?vid=4fa0ca0d-342c-4cd6-990b-f5e4ae40db2b","ios":"levelo://app?vid=4fa0ca0d-342c-4cd6-990b-f5e4ae40db2b"},"vehicle_type_id":"4","last_reported":1726812792,"current_range_meters":37600,"station_id":"ce4bhp12rcd13ifvqh9g","pricing_plan_id":"cebpf4jnsgd1na2vs0mg"},{"bike_id":"1b297945-7c8a-4e0e-b2c4-bc43a6c00be3","system_id":"levelo_inurba_marseille","lat":43.24652,"lon":5.38901,"is_reserved":false,"is_disabled":false,"rental_uris":{"android":"levelo://app?vid=1b297945-7c8a-4e0e-b2c4-bc43a6c00be3","ios":"levelo://app?vid=1b297945-7c8a-4e0e-b2c4-bc43a6c00be3"},"vehicle_type_id":"4","last_reported":1726812792,"current_range_meters":38400,"station_id":"ce4bhg12rcd13ifvqf60","pricing_plan_id":"cebpf4jnsgd1na2vs0mg"},{"bike_id":"fc8580d6-9377-4183-8992-39892a693289","system_id":"levelo_inurba_marseille","lat":43.26489,"lon":5.39558,"is_reserved":false,"is_disabled":false,"rental_uris":{"android":"levelo://app?vid=fc8580d6-9377-4183-8992-39892a693289","ios":"levelo://app?vid=fc8580d6-9377-4183-8992-39892a693289"},"vehicle_type_id":"4","last_reported":1726812792,"current_range_meters":37600,"station_id":"ce4bhi12rcd13ifvqfq0","pricing_plan_id":"cebpf4jnsgd1na2vs0mg"},{"bike_id":"23b9ea27-19b1-48e7-95ac-46fed7afef53","system_id":"levelo_inurba_marseille","lat":43.29528,"lon":5.38551,"is_reserved":false,"is_disabled":false,"rental_uris":{"android":"levelo://app?vid=23b9ea27-19b1-48e7-95ac-46fed7afef53","ios":"levelo://app?vid=23b9ea27-19b1-48e7-95ac-46fed7afef53"},"vehicle_type_id":"4","last_reported":1726812792,"current_range_meters":8400,"station_id":"ce4bgih2rcd13ifvqba0","pricing_plan_id":"cebpf4jnsgd1na2vs0mg"},{"bike_id":"a3fa3f9a-8c6e-4bce-9911-e0d61e76c721","system_id":"levelo_inurba_marseille","lat":43.280273,"lon":5.353984,"is_reserved":false,"is_disabled":false,"rental_uris":{"android":"levelo://app?vid=a3fa3f9a-8c6e-4bce-9911-e0d61e76c721","ios":"levelo://app?vid=a3fa3f9a-8c6e-4bce-9911-e0d61e76c721"},"vehicle_type_id":"4","last_reported":1726812792,"current_range_meters":36800,"station_id":"ce4bhbp2rcd13ifvqerg","pricing_plan_id":"cebpf4jnsgd1na2vs0mg"},{"bike_id":"f8571aad-5f92-4ec9-b9ed-faec8639629b","system_id":"levelo_inurba_marseille","lat":43.3362,"lon":5.41019,"is_reserved":false,"is_disabled":false,"rental_uris":{"android":"levelo://app?vid=f8571aad-5f92-4ec9-b9ed-faec8639629b","ios":"levelo://app?vid=f8571aad-5f92-4ec9-b9ed-faec8639629b"},"vehicle_type_id":"4","last_reported":1726812792,"current_range_meters":17600,"station_id":"ce4bhqh2rcd13ifvqhmg","pricing_plan_id":"cebpf4jnsgd1na2vs0mg"},{"bike_id":"b087cbef-0483-4dbd-850f-f0e2e8d121b7","system_id":"levelo_inurba_marseille","lat":43.28714,"lon":5.377094,"is_reserved":false,"is_disabled":false,"rental_uris":{"android":"levelo://app?vid=b087cbef-0483-4dbd-850f-f0e2e8d121b7","ios":"levelo://app?vid=b087cbef-0483-4dbd-850f-f0e2e8d121b7"},"vehicle_type_id":"4","last_reported":1726812792,"current_range_meters":36000,"station_id":"","pricing_plan_id":"cebpf4jnsgd1na2vs0mg"},{"bike_id":"9029c59f-5616-4636-a3a2-5d0cfac2c465","system_id":"levelo_inurba_marseille","lat":43.25828,"lon":5.39438,"is_reserved":false,"is_disabled":false,"rental_uris":{"android":"levelo://app?vid=9029c59f-5616-4636-a3a2-5d0cfac2c465","ios":"levelo://app?vid=9029c59f-5616-4636-a3a2-5d0cfac2c465"},"vehicle_type_id":"4","last_reported":1726812792,"current_range_meters":24800,"station_id":"ce4bhip2rcd13ifvqft0","pricing_plan_id":"cebpf4jnsgd1na2vs0mg"},{"bike_id":"8a12d865-b083-4883-b5aa-f97910a59200","system_id":"levelo_inurba_marseille","lat":43.30155,"lon":5.38078,"is_reserved":false,"is_disabled":false,"rental_uris":{"android":"levelo://app?vid=8a12d865-b083-4883-b5aa-f97910a59200","ios":"levelo://app?vid=8a12d865-b083-4883-b5aa-f97910a59200"},"vehicle_type_id":"4","last_reported":1726812792,"current_range_meters":32800,"station_id":"ce4bgjp2rcd13ifvqbh0","pricing_plan_id":"cebpf4jnsgd1na2vs0mg"},{"bike_id":"972933c8-9e55-4b35-988e-46a11ac13f24","system_id":"levelo_inurba_marseille","lat":43.3088,"lon":5.39632,"is_reserved":false,"is_disabled":false,"rental_uris":{"android":"levelo://app?vid=972933c8-9e55-4b35-988e-46a11ac13f24","ios":"levelo://app?vid=972933c8-9e55-4b35-988e-46a11ac13f24"},"vehicle_type_id":"4","last_reported":1726812792,"current_range_meters":17200,"station_id":"ce4bh012rcd13ifvqcv0","pricing_plan_id":"cebpf4jnsgd1na2vs0mg"},{"bike_id":"653d3593-2d3b-48e2-b00d-d852f743c76a","system_id":"levelo_inurba_marseille","lat":43.24381,"lon":5.37051,"is_reserved":false,"is_disabled":false,"rental_uris":{"android":"levelo://app?vid=653d3593-2d3b-48e2-b00d-d852f743c76a","ios":"levelo://app?vid=653d3593-2d3b-48e2-b00d-d852f743c76a"},"vehicle_type_id":"4","last_reported":1726812792,"current_range_meters":30400,"station_id":"ce4bhhh2rcd13ifvqfk0","pricing_plan_id":"cebpf4jnsgd1na2vs0mg"},{"bike_id":"4f9594be-eb89-451c-99e6-1d1b91e83878","system_id":"levelo_inurba_marseille","lat":43.28766,"lon":5.37849,"is_reserved":false,"is_disabled":false,"rental_uris":{"android":"levelo://app?vid=4f9594be-eb89-451c-99e6-1d1b91e83878","ios":"levelo://app?vid=4f9594be-eb89-451c-99e6-1d1b91e83878"},"vehicle_type_id":"4","last_reported":1726812792,"current_range_meters":9200,"station_id":"","pricing_plan_id":"cebpf4jnsgd1na2vs0mg"},{"bike_id":"5705acbc-d503-4f36-a9f5-13b5f18aa34d","system_id":"levelo_inurba_marseille","lat":43.23959,"lon":5.36645,"is_reserved":false,"is_disabled":false,"rental_uris":{"android":"levelo://app?vid=5705acbc-d503-4f36-a9f5-13b5f18aa34d","ios":"levelo://app?vid=5705acbc-d503-4f36-a9f5-13b5f18aa34d"},"vehicle_type_id":"4","last_reported":1726812792,"current_range_meters":36000,"station_id":"ce4bhi12rcd13ifvqfp0","pricing_plan_id":"cebpf4jnsgd1na2vs0mg"},{"bike_id":"0dd43aa3-2e1c-4d95-888b-e87db44d183f","system_id":"levelo_inurba_marseille","lat":43.29791,"lon":5.38075,"is_reserved":false,"is_disabled":false,"rental_uris":{"android":"levelo://app?vid=0dd43aa3-2e1c-4d95-888b-e87db44d183f","ios":"levelo://app?vid=0dd43aa3-2e1c-4d95-888b-e87db44d183f"},"vehicle_type_id":"4","last_reported":1726812792,"current_range_meters":28800,"station_id":"ce4bgip2rcd13ifvqbb0","pricing_plan_id":"cebpf4jnsgd1na2vs0mg"},{"bike_id":"11228085-23e5-4c89-842a-c1aca906e3a6","system_id":"levelo_inurba_marseille","lat":43.27993,"lon":5.41662,"is_reserved":false,"is_disabled":false,"rental_uris":{"android":"levelo://app?vid=11228085-23e5-4c89-842a-c1aca906e3a6","ios":"levelo://app?vid=11228085-23e5-4c89-842a-c1aca906e3a6"},"vehicle_type_id":"4","last_reported":1726812792,"current_range_meters":38400,"station_id":"ce4bho12rcd13ifvqh1g","pricing_plan_id":"cebpf4jnsgd1na2vs0mg"},{"bike_id":"bf7aa6c5-87c7-4a04-b881-a47a63dfc6e7","system_id":"levelo_inurba_marseille","lat":43.31061,"lon":5.38353,"is_reserved":false,"is_disabled":false,"rental_uris":{"android":"levelo://app?vid=bf7aa6c5-87c7-4a04-b881-a47a63dfc6e7","ios":"levelo://app?vid=bf7aa6c5-87c7-4a04-b881-a47a63dfc6e7"},"vehicle_type_id":"4","last_reported":1726812792,"current_range_meters":31200,"station_id":"ce4bgv92rcd13ifvqcr0","pricing_plan_id":"cebpf4jnsgd1na2vs0mg"},{"bike_id":"7b9dd459-340b-4978-bfb0-6c163a5263e8","system_id":"levelo_inurba_marseille","lat":43.23192,"lon":5.35547,"is_reserved":false,"is_disabled":false,"rental_uris":{"android":"levelo://app?vid=7b9dd459-340b-4978-bfb0-6c163a5263e8","ios":"levelo://app?vid=7b9dd459-340b-4978-bfb0-6c163a5263e8"},"vehicle_type_id":"4","last_reported":1726812792,"current_range_meters":38800,"station_id":"ce4bhu92rcd13ifvqi70","pricing_plan_id":"cebpf4jnsgd1na2vs0mg"},{"bike_id":"4f43dba0-3939-44ed-896a-3812c56c94e0","system_id":"levelo_inurba_marseille","lat":43.30149,"lon":5.38079,"is_reserved":false,"is_disabled":false,"rental_uris":{"android":"levelo://app?vid=4f43dba0-3939-44ed-896a-3812c56c94e0","ios":"levelo://app?vid=4f43dba0-3939-44ed-896a-3812c56c94e0"},"vehicle_type_id":"4","last_reported":1726812792,"current_range_meters":22000,"station_id":"ce4bgjp2rcd13ifvqbh0","pricing_plan_id":"cebpf4jnsgd1na2vs0mg"},{"bike_id":"e3d2cb34-c757-45ad-beac-0be6b9457278","system_id":"levelo_inurba_marseille","lat":43.30792,"lon":5.4352,"is_reserved":false,"is_disabled":false,"rental_uris":{"android":"levelo://app?vid=e3d2cb34-c757-45ad-beac-0be6b9457278","ios":"levelo://app?vid=e3d2cb34-c757-45ad-beac-0be6b9457278"},"vehicle_type_id":"4","last_reported":1726812792,"current_range_meters":36400,"station_id":"ce4bhph2rcd13ifvqheg","pricing_plan_id":"cebpf4jnsgd1na2vs0mg"},{"bike_id":"87440cd1-4d99-421b-9f62-83acc0dd5fa9","system_id":"levelo_inurba_marseille","lat":43.32362,"lon":5.3887,"is_reserved":false,"is_disabled":false,"rental_uris":{"android":"levelo://app?vid=87440cd1-4d99-421b-9f62-83acc0dd5fa9","ios":"levelo://app?vid=87440cd1-4d99-421b-9f62-83acc0dd5fa9"},"vehicle_type_id":"4","last_reported":1726812792,"current_range_meters":38000,"station_id":"ce4bhqp2rcd13ifvqhog","pricing_plan_id":"cebpf4jnsgd1na2vs0mg"},{"bike_id":"58ef9b50-a24c-4af4-bb77-f5f4c13ab282","system_id":"levelo_inurba_marseille","lat":43.31087,"lon":5.42428,"is_reserved":false,"is_disabled":false,"rental_uris":{"android":"levelo://app?vid=58ef9b50-a24c-4af4-bb77-f5f4c13ab282","ios":"levelo://app?vid=58ef9b50-a24c-4af4-bb77-f5f4c13ab282"},"vehicle_type_id":"4","last_reported":1726812792,"current_range_meters":36000,"station_id":"ce4bhp92rcd13ifvqhag","pricing_plan_id":"cebpf4jnsgd1na2vs0mg"},{"bike_id":"f0acb984-d113-4e73-b246-74f9b542af03","system_id":"levelo_inurba_marseille","lat":43.27902,"lon":5.37997,"is_reserved":false,"is_disabled":false,"rental_uris":{"android":"levelo://app?vid=f0acb984-d113-4e73-b246-74f9b542af03","ios":"levelo://app?vid=f0acb984-d113-4e73-b246-74f9b542af03"},"vehicle_type_id":"4","last_reported":1726812792,"current_range_meters":25200,"station_id":"ce4bhf92rcd13ifvqf50","pricing_plan_id":"cebpf4jnsgd1na2vs0mg"},{"bike_id":"59526314-6814-428f-9df0-ead1cf1c2777","system_id":"levelo_inurba_marseille","lat":43.25931,"lon":5.40915,"is_reserved":false,"is_disabled":false,"rental_uris":{"android":"levelo://app?vid=59526314-6814-428f-9df0-ead1cf1c2777","ios":"levelo://app?vid=59526314-6814-428f-9df0-ead1cf1c2777"},"vehicle_type_id":"4","last_reported":1726812792,"current_range_meters":36000,"station_id":"ce4bhm92rcd13ifvqglg","pricing_plan_id":"cebpf4jnsgd1na2vs0mg"},{"bike_id":"32d4a5c9-769a-4251-b032-0492dfb4b942","system_id":"levelo_inurba_marseille","lat":43.27486,"lon":5.42457,"is_reserved":false,"is_disabled":false,"rental_uris":{"android":"levelo://app?vid=32d4a5c9-769a-4251-b032-0492dfb4b942","ios":"levelo://app?vid=32d4a5c9-769a-4251-b032-0492dfb4b942"},"vehicle_type_id":"4","last_reported":1726812792,"current_range_meters":30800,"station_id":"ce4bhn92rcd13ifvqgrg","pricing_plan_id":"cebpf4jnsgd1na2vs0mg"},{"bike_id":"5adc69d9-85ed-4c02-a435-3a325fb2125c","system_id":"levelo_inurba_marseille","lat":43.31689,"lon":5.40474,"is_reserved":false,"is_disabled":false,"rental_uris":{"android":"levelo://app?vid=5adc69d9-85ed-4c02-a435-3a325fb2125c","ios":"levelo://app?vid=5adc69d9-85ed-4c02-a435-3a325fb2125c"},"vehicle_type_id":"4","last_reported":1726812792,"current_range_meters":8400,"station_id":"ce4bh012rcd13ifvqd00","pricing_plan_id":"cebpf4jnsgd1na2vs0mg"},{"bike_id":"99006ca2-3fe8-47ad-9eb8-7ab2081ce855","system_id":"levelo_inurba_marseille","lat":43.31221,"lon":5.3686,"is_reserved":false,"is_disabled":false,"rental_uris":{"android":"levelo://app?vid=99006ca2-3fe8-47ad-9eb8-7ab2081ce855","ios":"levelo://app?vid=99006ca2-3fe8-47ad-9eb8-7ab2081ce855"},"vehicle_type_id":"4","last_reported":1726812792,"current_range_meters":4800,"station_id":"ce4bgl92rcd13ifvqbq0","pricing_plan_id":"cebpf4jnsgd1na2vs0mg"},{"bike_id":"75308ddd-64cf-4f19-8197-d8de2afe069c","system_id":"levelo_inurba_marseille","lat":43.28347,"lon":5.38111,"is_reserved":false,"is_disabled":false,"rental_uris":{"android":"levelo://app?vid=75308ddd-64cf-4f19-8197-d8de2afe069c","ios":"levelo://app?vid=75308ddd-64cf-4f19-8197-d8de2afe069c"},"vehicle_type_id":"4","last_reported":1726812792,"current_range_meters":11600,"station_id":"ce4bh412rcd13ifvqdr0","pricing_plan_id":"cebpf4jnsgd1na2vs0mg"},{"bike_id":"713190fe-62a8-4a89-b416-9eef337be1ed","system_id":"levelo_inurba_marseille","lat":43.31478,"lon":5.37314,"is_reserved":false,"is_disabled":false,"rental_uris":{"android":"levelo://app?vid=713190fe-62a8-4a89-b416-9eef337be1ed","ios":"levelo://app?vid=713190fe-62a8-4a89-b416-9eef337be1ed"},"vehicle_type_id":"4","last_reported":1726812792,"current_range_meters":22800,"station_id":"ce4bgt12rcd13ifvqcd0","pricing_plan_id":"cebpf4jnsgd1na2vs0mg"},{"bike_id":"82826002-cd74-4367-9fd4-f848a99fa007","system_id":"levelo_inurba_marseille","lat":43.265611,"lon":5.390084,"is_reserved":false,"is_disabled":false,"rental_uris":{"android":"levelo://app?vid=82826002-cd74-4367-9fd4-f848a99fa007","ios":"levelo://app?vid=82826002-cd74-4367-9fd4-f848a99fa007"},"vehicle_type_id":"4","last_reported":1726812792,"current_range_meters":20800,"station_id":"","pricing_plan_id":"cebpf4jnsgd1na2vs0mg"},{"bike_id":"a6138b45-7e28-438c-b576-0f9f8832e4f6","system_id":"levelo_inurba_marseille","lat":43.32655,"lon":5.40996,"is_reserved":false,"is_disabled":false,"rental_uris":{"android":"levelo://app?vid=a6138b45-7e28-438c-b576-0f9f8832e4f6","ios":"levelo://app?vid=a6138b45-7e28-438c-b576-0f9f8832e4f6"},"vehicle_type_id":"4","last_reported":1726812792,"current_range_meters":7200,"station_id":"ce4bhpp2rcd13ifvqhgg","pricing_plan_id":"cebpf4jnsgd1na2vs0mg"},{"bike_id":"ffddd2d0-239b-4ad9-bf5e-964f010aa097","system_id":"levelo_inurba_marseille","lat":43.24076,"lon":5.37749,"is_reserved":false,"is_disabled":false,"rental_uris":{"android":"levelo://app?vid=ffddd2d0-239b-4ad9-bf5e-964f010aa097","ios":"levelo://app?vid=ffddd2d0-239b-4ad9-bf5e-964f010aa097"},"vehicle_type_id":"4","last_reported":1726812792,"current_range_meters":26800,"station_id":"ce4bhnp2rcd13ifvqgvg","pricing_plan_id":"cebpf4jnsgd1na2vs0mg"},{"bike_id":"e8838fc0-3cd4-4213-84e3-c33f37fcda59","system_id":"levelo_inurba_marseille","lat":43.25819,"lon":5.39425,"is_reserved":false,"is_disabled":false,"rental_uris":{"android":"levelo://app?vid=e8838fc0-3cd4-4213-84e3-c33f37fcda59","ios":"levelo://app?vid=e8838fc0-3cd4-4213-84e3-c33f37fcda59"},"vehicle_type_id":"4","last_reported":1726812792,"current_range_meters":39200,"station_id":"ce4bhip2rcd13ifvqft0","pricing_plan_id":"cebpf4jnsgd1na2vs0mg"},{"bike_id":"9f41393a-138e-4e65-a1a2-1a0526a4555e","system_id":"levelo_inurba_marseille","lat":43.27497,"lon":5.42446,"is_reserved":false,"is_disabled":false,"rental_uris":{"android":"levelo://app?vid=9f41393a-138e-4e65-a1a2-1a0526a4555e","ios":"levelo://app?vid=9f41393a-138e-4e65-a1a2-1a0526a4555e"},"vehicle_type_id":"4","last_reported":1726812792,"current_range_meters":25600,"station_id":"ce4bhn92rcd13ifvqgrg","pricing_plan_id":"cebpf4jnsgd1na2vs0mg"},{"bike_id":"394bf9a3-da9e-4728-a129-ae27a0c36573","system_id":"levelo_inurba_marseille","lat":43.272099,"lon":5.401193,"is_reserved":false,"is_disabled":false,"rental_uris":{"android":"levelo://app?vid=394bf9a3-da9e-4728-a129-ae27a0c36573","ios":"levelo://app?vid=394bf9a3-da9e-4728-a129-ae27a0c36573"},"vehicle_type_id":"4","last_reported":1726812792,"current_range_meters":20800,"station_id":"","pricing_plan_id":"cebpf4jnsgd1na2vs0mg"},{"bike_id":"e867b2f1-483d-43f1-8393-388c5bc68b9c","system_id":"levelo_inurba_marseille","lat":43.31685,"lon":5.40478,"is_reserved":false,"is_disabled":false,"rental_uris":{"android":"levelo://app?vid=e867b2f1-483d-43f1-8393-388c5bc68b9c","ios":"levelo://app?vid=e867b2f1-483d-43f1-8393-388c5bc68b9c"},"vehicle_type_id":"4","last_reported":1726812792,"current_range_meters":38800,"station_id":"ce4bh012rcd13ifvqd00","pricing_plan_id":"cebpf4jnsgd1na2vs0mg"},{"bike_id":"eb2bede7-1cfc-481d-95f0-4175f9ef21df","system_id":"levelo_inurba_marseille","lat":43.25939,"lon":5.40899,"is_reserved":false,"is_disabled":false,"rental_uris":{"android":"levelo://app?vid=eb2bede7-1cfc-481d-95f0-4175f9ef21df","ios":"levelo://app?vid=eb2bede7-1cfc-481d-95f0-4175f9ef21df"},"vehicle_type_id":"4","last_reported":1726812792,"current_range_meters":17200,"station_id":"ce4bhm92rcd13ifvqglg","pricing_plan_id":"cebpf4jnsgd1na2vs0mg"},{"bike_id":"8347aabf-f906-4ce9-80b0-8519c87250ac","system_id":"levelo_inurba_marseille","lat":43.24808,"lon":5.37454,"is_reserved":false,"is_disabled":false,"rental_uris":{"android":"levelo://app?vid=8347aabf-f906-4ce9-80b0-8519c87250ac","ios":"levelo://app?vid=8347aabf-f906-4ce9-80b0-8519c87250ac"},"vehicle_type_id":"4","last_reported":1726812792,"current_range_meters":38000,"station_id":"ce4bhgh2rcd13ifvqfb0","pricing_plan_id":"cebpf4jnsgd1na2vs0mg"},{"bike_id":"12785ec6-5b34-47f6-aaa3-893182c04edc","system_id":"levelo_inurba_marseille","lat":43.31487,"lon":5.37306,"is_reserved":false,"is_disabled":false,"rental_uris":{"android":"levelo://app?vid=12785ec6-5b34-47f6-aaa3-893182c04edc","ios":"levelo://app?vid=12785ec6-5b34-47f6-aaa3-893182c04edc"},"vehicle_type_id":"4","last_reported":1726812792,"current_range_meters":31200,"station_id":"ce4bgt12rcd13ifvqcd0","pricing_plan_id":"cebpf4jnsgd1na2vs0mg"},{"bike_id":"f0358b7c-0d51-45cd-b0f4-25d08b472a8f","system_id":"levelo_inurba_marseille","lat":43.31705,"lon":5.37758,"is_reserved":false,"is_disabled":false,"rental_uris":{"android":"levelo://app?vid=f0358b7c-0d51-45cd-b0f4-25d08b472a8f","ios":"levelo://app?vid=f0358b7c-0d51-45cd-b0f4-25d08b472a8f"},"vehicle_type_id":"4","last_reported":1726812792,"current_range_meters":37600,"station_id":"ce4bgth2rcd13ifvqch0","pricing_plan_id":"cebpf4jnsgd1na2vs0mg"},{"bike_id":"c429db1f-c350-44d6-9c19-9bb096a9f140","system_id":"levelo_inurba_marseille","lat":43.2834,"lon":5.38105,"is_reserved":false,"is_disabled":false,"rental_uris":{"android":"levelo://app?vid=c429db1f-c350-44d6-9c19-9bb096a9f140","ios":"levelo://app?vid=c429db1f-c350-44d6-9c19-9bb096a9f140"},"vehicle_type_id":"4","last_reported":1726812792,"current_range_meters":20000,"station_id":"ce4bh412rcd13ifvqdr0","pricing_plan_id":"cebpf4jnsgd1na2vs0mg"},{"bike_id":"93e94795-a222-4c33-8338-9093dd96735b","system_id":"levelo_inurba_marseille","lat":43.32541,"lon":5.41442,"is_reserved":false,"is_disabled":false,"rental_uris":{"android":"levelo://app?vid=93e94795-a222-4c33-8338-9093dd96735b","ios":"levelo://app?vid=93e94795-a222-4c33-8338-9093dd96735b"},"vehicle_type_id":"4","last_reported":1726812792,"current_range_meters":38800,"station_id":"ce4bhq12rcd13ifvqhhg","pricing_plan_id":"cebpf4jnsgd1na2vs0mg"},{"bike_id":"1fcb40b6-2e6f-447e-b754-4ed472d4e946","system_id":"levelo_inurba_marseille","lat":43.28152,"lon":5.42643,"is_reserved":false,"is_disabled":false,"rental_uris":{"android":"levelo://app?vid=1fcb40b6-2e6f-447e-b754-4ed472d4e946","ios":"levelo://app?vid=1fcb40b6-2e6f-447e-b754-4ed472d4e946"},"vehicle_type_id":"4","last_reported":1726812792,"current_range_meters":24000,"station_id":"ce4bhnh2rcd13ifvqgug","pricing_plan_id":"cebpf4jnsgd1na2vs0mg"},{"bike_id":"8741d283-b35f-4f31-b80d-f87cb702270f","system_id":"levelo_inurba_marseille","lat":43.295789,"lon":5.375206,"is_reserved":false,"is_disabled":false,"rental_uris":{"android":"levelo://app?vid=8741d283-b35f-4f31-b80d-f87cb702270f","ios":"levelo://app?vid=8741d283-b35f-4f31-b80d-f87cb702270f"},"vehicle_type_id":"4","last_reported":1726812792,"current_range_meters":20400,"station_id":"","pricing_plan_id":"cebpf4jnsgd1na2vs0mg"},{"bike_id":"58bb1613-ffd0-4d2a-9005-4e8fd7737880","system_id":"levelo_inurba_marseille","lat":43.29038,"lon":5.39964,"is_reserved":false,"is_disabled":false,"rental_uris":{"android":"levelo://app?vid=58bb1613-ffd0-4d2a-9005-4e8fd7737880","ios":"levelo://app?vid=58bb1613-ffd0-4d2a-9005-4e8fd7737880"},"vehicle_type_id":"4","last_reported":1726812792,"current_range_meters":36800,"station_id":"ce4bh392rcd13ifvqdm0","pricing_plan_id":"cebpf4jnsgd1na2vs0mg"},{"bike_id":"f203f5c9-b463-4100-b685-f098918cf55d","system_id":"levelo_inurba_marseille","lat":43.30594,"lon":5.39358,"is_reserved":false,"is_disabled":false,"rental_uris":{"android":"levelo://app?vid=f203f5c9-b463-4100-b685-f098918cf55d","ios":"levelo://app?vid=f203f5c9-b463-4100-b685-f098918cf55d"},"vehicle_type_id":"4","last_reported":1726812792,"current_range_meters":25200,"station_id":"ce4bh0p2rcd13ifvqd80","pricing_plan_id":"cebpf4jnsgd1na2vs0mg"},{"bike_id":"82ea35eb-356c-435a-af7e-f3943eee0033","system_id":"levelo_inurba_marseille","lat":43.31532,"lon":5.38023,"is_reserved":false,"is_disabled":false,"rental_uris":{"android":"levelo://app?vid=82ea35eb-356c-435a-af7e-f3943eee0033","ios":"levelo://app?vid=82ea35eb-356c-435a-af7e-f3943eee0033"},"vehicle_type_id":"4","last_reported":1726812792,"current_range_meters":38800,"station_id":"ce4bhsp2rcd13ifvqi50","pricing_plan_id":"cebpf4jnsgd1na2vs0mg"},{"bike_id":"787016c0-3af2-4dc1-8aeb-8fd1d9648c80","system_id":"levelo_inurba_marseille","lat":43.28013,"lon":5.40595,"is_reserved":false,"is_disabled":false,"rental_uris":{"android":"levelo://app?vid=787016c0-3af2-4dc1-8aeb-8fd1d9648c80","ios":"levelo://app?vid=787016c0-3af2-4dc1-8aeb-8fd1d9648c80"},"vehicle_type_id":"4","last_reported":1726812792,"current_range_meters":29600,"station_id":"","pricing_plan_id":"cebpf4jnsgd1na2vs0mg"},{"bike_id":"59bcf95b-4fb4-4ef5-bbe9-00138aa77003","system_id":"levelo_inurba_marseille","lat":43.2418,"lon":5.39735,"is_reserved":false,"is_disabled":false,"rental_uris":{"android":"levelo://app?vid=59bcf95b-4fb4-4ef5-bbe9-00138aa77003","ios":"levelo://app?vid=59bcf95b-4fb4-4ef5-bbe9-00138aa77003"},"vehicle_type_id":"4","last_reported":1726812792,"current_range_meters":18000,"station_id":"ce4bhn12rcd13ifvqgpg","pricing_plan_id":"cebpf4jnsgd1na2vs0mg"},{"bike_id":"ffe054b3-44bf-4c54-b418-d07f10908d45","system_id":"levelo_inurba_marseille","lat":43.27992,"lon":5.4002,"is_reserved":false,"is_disabled":false,"rental_uris":{"android":"levelo://app?vid=ffe054b3-44bf-4c54-b418-d07f10908d45","ios":"levelo://app?vid=ffe054b3-44bf-4c54-b418-d07f10908d45"},"vehicle_type_id":"4","last_reported":1726812792,"current_range_meters":26000,"station_id":"ce4bho92rcd13ifvqh4g","pricing_plan_id":"cebpf4jnsgd1na2vs0mg"},{"bike_id":"54a810db-a7d7-4b08-abc9-28fe556b1426","system_id":"levelo_inurba_marseille","lat":43.27839,"lon":5.39214,"is_reserved":false,"is_disabled":false,"rental_uris":{"android":"levelo://app?vid=54a810db-a7d7-4b08-abc9-28fe556b1426","ios":"levelo://app?vid=54a810db-a7d7-4b08-abc9-28fe556b1426"},"vehicle_type_id":"4","last_reported":1726812792,"current_range_meters":16000,"station_id":"ce4bhjp2rcd13ifvqga0","pricing_plan_id":"cebpf4jnsgd1na2vs0mg"},{"bike_id":"c48441d3-1273-46e7-8012-ad8941a2e1c7","system_id":"levelo_inurba_marseille","lat":43.3126,"lon":5.40183,"is_reserved":false,"is_disabled":false,"rental_uris":{"android":"levelo://app?vid=c48441d3-1273-46e7-8012-ad8941a2e1c7","ios":"levelo://app?vid=c48441d3-1273-46e7-8012-ad8941a2e1c7"},"vehicle_type_id":"4","last_reported":1726812792,"current_range_meters":39200,"station_id":"ce4bh092rcd13ifvqd30","pricing_plan_id":"cebpf4jnsgd1na2vs0mg"},{"bike_id":"c72671e4-48d1-4590-84cd-1cd1b432d06a","system_id":"levelo_inurba_marseille","lat":43.31708,"lon":5.37743,"is_reserved":false,"is_disabled":false,"rental_uris":{"android":"levelo://app?vid=c72671e4-48d1-4590-84cd-1cd1b432d06a","ios":"levelo://app?vid=c72671e4-48d1-4590-84cd-1cd1b432d06a"},"vehicle_type_id":"4","last_reported":1726812792,"current_range_meters":37600,"station_id":"ce4bgth2rcd13ifvqch0","pricing_plan_id":"cebpf4jnsgd1na2vs0mg"},{"bike_id":"9e38dfa4-9722-49d2-ba1f-d7479b703da3","system_id":"levelo_inurba_marseille","lat":43.28935,"lon":5.36396,"is_reserved":false,"is_disabled":false,"rental_uris":{"android":"levelo://app?vid=9e38dfa4-9722-49d2-ba1f-d7479b703da3","ios":"levelo://app?vid=9e38dfa4-9722-49d2-ba1f-d7479b703da3"},"vehicle_type_id":"4","last_reported":1726812792,"current_range_meters":20800,"station_id":"ce4bhc92rcd13ifvqetg","pricing_plan_id":"cebpf4jnsgd1na2vs0mg"},{"bike_id":"3138f315-8173-4eaa-9462-03cc7898a70a","system_id":"levelo_inurba_marseille","lat":43.29043,"lon":5.39969,"is_reserved":false,"is_disabled":false,"rental_uris":{"android":"levelo://app?vid=3138f315-8173-4eaa-9462-03cc7898a70a","ios":"levelo://app?vid=3138f315-8173-4eaa-9462-03cc7898a70a"},"vehicle_type_id":"4","last_reported":1726812792,"current_range_meters":19200,"station_id":"ce4bh392rcd13ifvqdm0","pricing_plan_id":"cebpf4jnsgd1na2vs0mg"},{"bike_id":"7c904801-7111-4d1d-a285-a9fb34472e47","system_id":"levelo_inurba_marseille","lat":43.29803,"lon":5.40407,"is_reserved":false,"is_disabled":false,"rental_uris":{"android":"levelo://app?vid=7c904801-7111-4d1d-a285-a9fb34472e47","ios":"levelo://app?vid=7c904801-7111-4d1d-a285-a9fb34472e47"},"vehicle_type_id":"4","last_reported":1726812792,"current_range_meters":38800,"station_id":"ce4bh112rcd13ifvqd90","pricing_plan_id":"cebpf4jnsgd1na2vs0mg"},{"bike_id":"db5bed51-afb9-4548-98e9-7b7ae226c501","system_id":"levelo_inurba_marseille","lat":43.33756,"lon":5.37453,"is_reserved":false,"is_disabled":false,"rental_uris":{"android":"levelo://app?vid=db5bed51-afb9-4548-98e9-7b7ae226c501","ios":"levelo://app?vid=db5bed51-afb9-4548-98e9-7b7ae226c501"},"vehicle_type_id":"4","last_reported":1726812792,"current_range_meters":19600,"station_id":"","pricing_plan_id":"cebpf4jnsgd1na2vs0mg"},{"bike_id":"9dad5afe-5050-419e-83a1-b8b898ac539b","system_id":"levelo_inurba_marseille","lat":43.30149,"lon":5.38084,"is_reserved":false,"is_disabled":false,"rental_uris":{"android":"levelo://app?vid=9dad5afe-5050-419e-83a1-b8b898ac539b","ios":"levelo://app?vid=9dad5afe-5050-419e-83a1-b8b898ac539b"},"vehicle_type_id":"4","last_reported":1726812792,"current_range_meters":8800,"station_id":"ce4bgjp2rcd13ifvqbh0","pricing_plan_id":"cebpf4jnsgd1na2vs0mg"},{"bike_id":"acf47c03-d493-46fb-9b5b-720a9b9aec60","system_id":"levelo_inurba_marseille","lat":43.27989,"lon":5.41659,"is_reserved":false,"is_disabled":false,"rental_uris":{"android":"levelo://app?vid=acf47c03-d493-46fb-9b5b-720a9b9aec60","ios":"levelo://app?vid=acf47c03-d493-46fb-9b5b-720a9b9aec60"},"vehicle_type_id":"4","last_reported":1726812792,"current_range_meters":38400,"station_id":"ce4bho12rcd13ifvqh1g","pricing_plan_id":"cebpf4jnsgd1na2vs0mg"},{"bike_id":"136b1152-c27a-4ec9-957f-c077600f1d6e","system_id":"levelo_inurba_marseille","lat":43.3059,"lon":5.39355,"is_reserved":false,"is_disabled":false,"rental_uris":{"android":"levelo://app?vid=136b1152-c27a-4ec9-957f-c077600f1d6e","ios":"levelo://app?vid=136b1152-c27a-4ec9-957f-c077600f1d6e"},"vehicle_type_id":"4","last_reported":1726812792,"current_range_meters":24000,"station_id":"ce4bh0p2rcd13ifvqd80","pricing_plan_id":"cebpf4jnsgd1na2vs0mg"},{"bike_id":"49157fb9-67fa-414f-a818-fa4481ecd7cc","system_id":"levelo_inurba_marseille","lat":43.283417,"lon":5.381159,"is_reserved":false,"is_disabled":false,"rental_uris":{"android":"levelo://app?vid=49157fb9-67fa-414f-a818-fa4481ecd7cc","ios":"levelo://app?vid=49157fb9-67fa-414f-a818-fa4481ecd7cc"},"vehicle_type_id":"4","last_reported":1726812792,"current_range_meters":38800,"station_id":"ce4bh412rcd13ifvqdr0","pricing_plan_id":"cebpf4jnsgd1na2vs0mg"},{"bike_id":"509f9ae3-b8f2-48d0-aebc-d5ba2b423f9c","system_id":"levelo_inurba_marseille","lat":43.30454,"lon":5.37897,"is_reserved":false,"is_disabled":false,"rental_uris":{"android":"levelo://app?vid=509f9ae3-b8f2-48d0-aebc-d5ba2b423f9c","ios":"levelo://app?vid=509f9ae3-b8f2-48d0-aebc-d5ba2b423f9c"},"vehicle_type_id":"4","last_reported":1726812792,"current_range_meters":22400,"station_id":"ce4bgup2rcd13ifvqcn0","pricing_plan_id":"cebpf4jnsgd1na2vs0mg"},{"bike_id":"ffa23234-c1ea-4d00-b640-cd73b1915784","system_id":"levelo_inurba_marseille","lat":43.31998,"lon":5.38145,"is_reserved":false,"is_disabled":false,"rental_uris":{"android":"levelo://app?vid=ffa23234-c1ea-4d00-b640-cd73b1915784","ios":"levelo://app?vid=ffa23234-c1ea-4d00-b640-cd73b1915784"},"vehicle_type_id":"4","last_reported":1726812792,"current_range_meters":9200,"station_id":"ce4bhr12rcd13ifvqhpg","pricing_plan_id":"cebpf4jnsgd1na2vs0mg"},{"bike_id":"b85ab7ea-1ddf-4476-a6e6-3d5a1069c8cd","system_id":"levelo_inurba_marseille","lat":43.27923,"lon":5.39588,"is_reserved":false,"is_disabled":false,"rental_uris":{"android":"levelo://app?vid=b85ab7ea-1ddf-4476-a6e6-3d5a1069c8cd","ios":"levelo://app?vid=b85ab7ea-1ddf-4476-a6e6-3d5a1069c8cd"},"vehicle_type_id":"4","last_reported":1726812792,"current_range_meters":5600,"station_id":"ce4bhf92rcd13ifvqf40","pricing_plan_id":"cebpf4jnsgd1na2vs0mg"},{"bike_id":"a6d3c775-d14d-4ded-921d-d3fb357cb1ed","system_id":"levelo_inurba_marseille","lat":43.28891,"lon":5.361034,"is_reserved":false,"is_disabled":false,"rental_uris":{"android":"levelo://app?vid=a6d3c775-d14d-4ded-921d-d3fb357cb1ed","ios":"levelo://app?vid=a6d3c775-d14d-4ded-921d-d3fb357cb1ed"},"vehicle_type_id":"4","last_reported":1726812792,"current_range_meters":26000,"station_id":"ce4bhoh2rcd13ifvqh5g","pricing_plan_id":"cebpf4jnsgd1na2vs0mg"},{"bike_id":"e9edba0d-dce8-4838-8195-0787af9f7552","system_id":"levelo_inurba_marseille","lat":43.29629,"lon":5.37827,"is_reserved":false,"is_disabled":false,"rental_uris":{"android":"levelo://app?vid=e9edba0d-dce8-4838-8195-0787af9f7552","ios":"levelo://app?vid=e9edba0d-dce8-4838-8195-0787af9f7552"},"vehicle_type_id":"4","last_reported":1726812792,"current_range_meters":33200,"station_id":"","pricing_plan_id":"cebpf4jnsgd1na2vs0mg"},{"bike_id":"dfa25865-d491-4319-ac0d-4a43b0719215","system_id":"levelo_inurba_marseille","lat":43.32481,"lon":5.36567,"is_reserved":false,"is_disabled":false,"rental_uris":{"android":"levelo://app?vid=dfa25865-d491-4319-ac0d-4a43b0719215","ios":"levelo://app?vid=dfa25865-d491-4319-ac0d-4a43b0719215"},"vehicle_type_id":"4","last_reported":1726812792,"current_range_meters":8400,"station_id":"ce4bhs12rcd13ifvqhvg","pricing_plan_id":"cebpf4jnsgd1na2vs0mg"},{"bike_id":"41d65973-3bc6-4ce7-9120-9d6ca84a6834","system_id":"levelo_inurba_marseille","lat":43.312203,"lon":5.368635,"is_reserved":false,"is_disabled":false,"rental_uris":{"android":"levelo://app?vid=41d65973-3bc6-4ce7-9120-9d6ca84a6834","ios":"levelo://app?vid=41d65973-3bc6-4ce7-9120-9d6ca84a6834"},"vehicle_type_id":"4","last_reported":1726812792,"current_range_meters":18000,"station_id":"ce4bgl92rcd13ifvqbq0","pricing_plan_id":"cebpf4jnsgd1na2vs0mg"},{"bike_id":"58014cc6-4f39-4119-a8a0-cdc0e2507820","system_id":"levelo_inurba_marseille","lat":43.32287,"lon":5.3827,"is_reserved":false,"is_disabled":false,"rental_uris":{"android":"levelo://app?vid=58014cc6-4f39-4119-a8a0-cdc0e2507820","ios":"levelo://app?vid=58014cc6-4f39-4119-a8a0-cdc0e2507820"},"vehicle_type_id":"4","last_reported":1726812792,"current_range_meters":38800,"station_id":"ce4bhr12rcd13ifvqhqg","pricing_plan_id":"cebpf4jnsgd1na2vs0mg"},{"bike_id":"f1555dfa-16c9-47d6-9ea5-cbb89bcbec3e","system_id":"levelo_inurba_marseille","lat":43.28929,"lon":5.39627,"is_reserved":false,"is_disabled":false,"rental_uris":{"android":"levelo://app?vid=f1555dfa-16c9-47d6-9ea5-cbb89bcbec3e","ios":"levelo://app?vid=f1555dfa-16c9-47d6-9ea5-cbb89bcbec3e"},"vehicle_type_id":"4","last_reported":1726812792,"current_range_meters":38800,"station_id":"ce4bh3h2rcd13ifvqdn0","pricing_plan_id":"cebpf4jnsgd1na2vs0mg"},{"bike_id":"7c28fa92-f889-4595-bf54-9c7e804c4172","system_id":"levelo_inurba_marseille","lat":43.26959,"lon":5.38638,"is_reserved":false,"is_disabled":false,"rental_uris":{"android":"levelo://app?vid=7c28fa92-f889-4595-bf54-9c7e804c4172","ios":"levelo://app?vid=7c28fa92-f889-4595-bf54-9c7e804c4172"},"vehicle_type_id":"4","last_reported":1726812792,"current_range_meters":38800,"station_id":"ce4bhh92rcd13ifvqfh0","pricing_plan_id":"cebpf4jnsgd1na2vs0mg"},{"bike_id":"2c805b3b-a495-4180-86b7-d5d239ddc3de","system_id":"levelo_inurba_marseille","lat":43.27489,"lon":5.42453,"is_reserved":false,"is_disabled":false,"rental_uris":{"android":"levelo://app?vid=2c805b3b-a495-4180-86b7-d5d239ddc3de","ios":"levelo://app?vid=2c805b3b-a495-4180-86b7-d5d239ddc3de"},"vehicle_type_id":"4","last_reported":1726812792,"current_range_meters":28400,"station_id":"ce4bhn92rcd13ifvqgrg","pricing_plan_id":"cebpf4jnsgd1na2vs0mg"},{"bike_id":"bce83964-771d-421d-a795-c2b376c5b9dc","system_id":"levelo_inurba_marseille","lat":43.23194,"lon":5.35548,"is_reserved":false,"is_disabled":false,"rental_uris":{"android":"levelo://app?vid=bce83964-771d-421d-a795-c2b376c5b9dc","ios":"levelo://app?vid=bce83964-771d-421d-a795-c2b376c5b9dc"},"vehicle_type_id":"4","last_reported":1726812792,"current_range_meters":18800,"station_id":"ce4bhu92rcd13ifvqi70","pricing_plan_id":"cebpf4jnsgd1na2vs0mg"},{"bike_id":"f1d55f46-a51b-471b-a027-477a9e124562","system_id":"levelo_inurba_marseille","lat":43.31287,"lon":5.401823,"is_reserved":false,"is_disabled":false,"rental_uris":{"android":"levelo://app?vid=f1d55f46-a51b-471b-a027-477a9e124562","ios":"levelo://app?vid=f1d55f46-a51b-471b-a027-477a9e124562"},"vehicle_type_id":"4","last_reported":1726812792,"current_range_meters":19600,"station_id":"ce4bh092rcd13ifvqd30","pricing_plan_id":"cebpf4jnsgd1na2vs0mg"},{"bike_id":"610f8990-dd77-4468-ab4e-0b488aa87bf5","system_id":"levelo_inurba_marseille","lat":43.28576,"lon":5.39491,"is_reserved":false,"is_disabled":false,"rental_uris":{"android":"levelo://app?vid=610f8990-dd77-4468-ab4e-0b488aa87bf5","ios":"levelo://app?vid=610f8990-dd77-4468-ab4e-0b488aa87bf5"},"vehicle_type_id":"4","last_reported":1726812792,"current_range_meters":38800,"station_id":"ce4bh292rcd13ifvqdg0","pricing_plan_id":"cebpf4jnsgd1na2vs0mg"},{"bike_id":"f0cf2974-349a-40dc-942e-2ff4253a0367","system_id":"levelo_inurba_marseille","lat":43.25818,"lon":5.39434,"is_reserved":false,"is_disabled":false,"rental_uris":{"android":"levelo://app?vid=f0cf2974-349a-40dc-942e-2ff4253a0367","ios":"levelo://app?vid=f0cf2974-349a-40dc-942e-2ff4253a0367"},"vehicle_type_id":"4","last_reported":1726812792,"current_range_meters":26000,"station_id":"ce4bhip2rcd13ifvqft0","pricing_plan_id":"cebpf4jnsgd1na2vs0mg"},{"bike_id":"5a96b346-4bdb-41cb-8aa8-a96b50b63166","system_id":"levelo_inurba_marseille","lat":43.24074,"lon":5.37758,"is_reserved":false,"is_disabled":false,"rental_uris":{"android":"levelo://app?vid=5a96b346-4bdb-41cb-8aa8-a96b50b63166","ios":"levelo://app?vid=5a96b346-4bdb-41cb-8aa8-a96b50b63166"},"vehicle_type_id":"4","last_reported":1726812792,"current_range_meters":38400,"station_id":"ce4bhnp2rcd13ifvqgvg","pricing_plan_id":"cebpf4jnsgd1na2vs0mg"},{"bike_id":"5c643d73-df91-4773-be66-12c4b540fa63","system_id":"levelo_inurba_marseille","lat":43.32366,"lon":5.38886,"is_reserved":false,"is_disabled":false,"rental_uris":{"android":"levelo://app?vid=5c643d73-df91-4773-be66-12c4b540fa63","ios":"levelo://app?vid=5c643d73-df91-4773-be66-12c4b540fa63"},"vehicle_type_id":"4","last_reported":1726812792,"current_range_meters":30400,"station_id":"ce4bhqp2rcd13ifvqhog","pricing_plan_id":"cebpf4jnsgd1na2vs0mg"},{"bike_id":"e123e304-c276-45c0-a8c6-c991c0bcc18b","system_id":"levelo_inurba_marseille","lat":43.30809,"lon":5.38135,"is_reserved":false,"is_disabled":false,"rental_uris":{"android":"levelo://app?vid=e123e304-c276-45c0-a8c6-c991c0bcc18b","ios":"levelo://app?vid=e123e304-c276-45c0-a8c6-c991c0bcc18b"},"vehicle_type_id":"4","last_reported":1726812792,"current_range_meters":38800,"station_id":"ce4bgt12rcd13ifvqce0","pricing_plan_id":"cebpf4jnsgd1na2vs0mg"},{"bike_id":"ec29d62d-5ae9-437a-b766-df37d25daa06","system_id":"levelo_inurba_marseille","lat":43.25435,"lon":5.41288,"is_reserved":false,"is_disabled":false,"rental_uris":{"android":"levelo://app?vid=ec29d62d-5ae9-437a-b766-df37d25daa06","ios":"levelo://app?vid=ec29d62d-5ae9-437a-b766-df37d25daa06"},"vehicle_type_id":"4","last_reported":1726812792,"current_range_meters":16000,"station_id":"","pricing_plan_id":"cebpf4jnsgd1na2vs0mg"},{"bike_id":"79fd17eb-ad03-4239-b171-0f35a724bf5f","system_id":"levelo_inurba_marseille","lat":43.27969,"lon":5.38738,"is_reserved":false,"is_disabled":false,"rental_uris":{"android":"levelo://app?vid=79fd17eb-ad03-4239-b171-0f35a724bf5f","ios":"levelo://app?vid=79fd17eb-ad03-4239-b171-0f35a724bf5f"},"vehicle_type_id":"4","last_reported":1726812792,"current_range_meters":38800,"station_id":"ce4bhg12rcd13ifvqf80","pricing_plan_id":"cebpf4jnsgd1na2vs0mg"},{"bike_id":"1fb16f0e-4ede-4898-a667-e9b62ccc804b","system_id":"levelo_inurba_marseille","lat":43.3055,"lon":5.38426,"is_reserved":false,"is_disabled":false,"rental_uris":{"android":"levelo://app?vid=1fb16f0e-4ede-4898-a667-e9b62ccc804b","ios":"levelo://app?vid=1fb16f0e-4ede-4898-a667-e9b62ccc804b"},"vehicle_type_id":"4","last_reported":1726812792,"current_range_meters":28800,"station_id":"ce4bgg92rcd13ifvqb30","pricing_plan_id":"cebpf4jnsgd1na2vs0mg"},{"bike_id":"e845f61f-efc2-4a29-89dc-8b9550307008","system_id":"levelo_inurba_marseille","lat":43.303114,"lon":5.369022,"is_reserved":false,"is_disabled":false,"rental_uris":{"android":"levelo://app?vid=e845f61f-efc2-4a29-89dc-8b9550307008","ios":"levelo://app?vid=e845f61f-efc2-4a29-89dc-8b9550307008"},"vehicle_type_id":"4","last_reported":1726812792,"current_range_meters":8800,"station_id":"ce4bgqh2rcd13ifvqc5g","pricing_plan_id":"cebpf4jnsgd1na2vs0mg"},{"bike_id":"b6212ed3-8ad4-46f1-a8f3-35f98c25d213","system_id":"levelo_inurba_marseille","lat":43.26808,"lon":5.40268,"is_reserved":false,"is_disabled":false,"rental_uris":{"android":"levelo://app?vid=b6212ed3-8ad4-46f1-a8f3-35f98c25d213","ios":"levelo://app?vid=b6212ed3-8ad4-46f1-a8f3-35f98c25d213"},"vehicle_type_id":"4","last_reported":1726812792,"current_range_meters":35600,"station_id":"ce501612rcd8frsf0b60","pricing_plan_id":"cebpf4jnsgd1na2vs0mg"},{"bike_id":"83df875a-5d3f-4c35-9ab9-74ee899a6fd0","system_id":"levelo_inurba_marseille","lat":43.30147,"lon":5.38065,"is_reserved":false,"is_disabled":false,"rental_uris":{"android":"levelo://app?vid=83df875a-5d3f-4c35-9ab9-74ee899a6fd0","ios":"levelo://app?vid=83df875a-5d3f-4c35-9ab9-74ee899a6fd0"},"vehicle_type_id":"4","last_reported":1726812792,"current_range_meters":37600,"station_id":"ce4bgjp2rcd13ifvqbh0","pricing_plan_id":"cebpf4jnsgd1na2vs0mg"},{"bike_id":"183bb22c-3fd6-4864-8774-98e63170d171","system_id":"levelo_inurba_marseille","lat":43.31344,"lon":5.36718,"is_reserved":false,"is_disabled":false,"rental_uris":{"android":"levelo://app?vid=183bb22c-3fd6-4864-8774-98e63170d171","ios":"levelo://app?vid=183bb22c-3fd6-4864-8774-98e63170d171"},"vehicle_type_id":"4","last_reported":1726812792,"current_range_meters":38000,"station_id":"ce4bgr92rcd13ifvqc6g","pricing_plan_id":"cebpf4jnsgd1na2vs0mg"},{"bike_id":"558c82b6-eaf2-4c6c-b82b-04a3f4a146f6","system_id":"levelo_inurba_marseille","lat":43.31681,"lon":5.40471,"is_reserved":false,"is_disabled":false,"rental_uris":{"android":"levelo://app?vid=558c82b6-eaf2-4c6c-b82b-04a3f4a146f6","ios":"levelo://app?vid=558c82b6-eaf2-4c6c-b82b-04a3f4a146f6"},"vehicle_type_id":"4","last_reported":1726812792,"current_range_meters":30800,"station_id":"ce4bh012rcd13ifvqd00","pricing_plan_id":"cebpf4jnsgd1na2vs0mg"},{"bike_id":"ef0d6c38-810c-4da4-8212-ddd34b972078","system_id":"levelo_inurba_marseille","lat":43.293305,"lon":5.401633,"is_reserved":false,"is_disabled":false,"rental_uris":{"android":"levelo://app?vid=ef0d6c38-810c-4da4-8212-ddd34b972078","ios":"levelo://app?vid=ef0d6c38-810c-4da4-8212-ddd34b972078"},"vehicle_type_id":"4","last_reported":1726812792,"current_range_meters":28800,"station_id":"","pricing_plan_id":"cebpf4jnsgd1na2vs0mg"},{"bike_id":"49641b67-2110-4fdb-b43e-23e54f250a94","system_id":"levelo_inurba_marseille","lat":43.28358,"lon":5.38103,"is_reserved":false,"is_disabled":false,"rental_uris":{"android":"levelo://app?vid=49641b67-2110-4fdb-b43e-23e54f250a94","ios":"levelo://app?vid=49641b67-2110-4fdb-b43e-23e54f250a94"},"vehicle_type_id":"4","last_reported":1726812792,"current_range_meters":22800,"station_id":"ce4bh412rcd13ifvqdr0","pricing_plan_id":"cebpf4jnsgd1na2vs0mg"},{"bike_id":"fa2e946d-01fe-4bb4-a2b0-55af60a0bcec","system_id":"levelo_inurba_marseille","lat":43.3372,"lon":5.39188,"is_reserved":false,"is_disabled":false,"rental_uris":{"android":"levelo://app?vid=fa2e946d-01fe-4bb4-a2b0-55af60a0bcec","ios":"levelo://app?vid=fa2e946d-01fe-4bb4-a2b0-55af60a0bcec"},"vehicle_type_id":"4","last_reported":1726812792,"current_range_meters":38000,"station_id":"ce4bhr92rcd13ifvqhsg","pricing_plan_id":"cebpf4jnsgd1na2vs0mg"},{"bike_id":"c33add25-123c-4b36-8cf5-b7923beb3261","system_id":"levelo_inurba_marseille","lat":43.32482,"lon":5.3657,"is_reserved":false,"is_disabled":false,"rental_uris":{"android":"levelo://app?vid=c33add25-123c-4b36-8cf5-b7923beb3261","ios":"levelo://app?vid=c33add25-123c-4b36-8cf5-b7923beb3261"},"vehicle_type_id":"4","last_reported":1726812792,"current_range_meters":22800,"station_id":"ce4bhs12rcd13ifvqhvg","pricing_plan_id":"cebpf4jnsgd1na2vs0mg"},{"bike_id":"11d9698c-d3bf-48ca-a9ce-d5ad0d09c0f7","system_id":"levelo_inurba_marseille","lat":43.32535,"lon":5.41433,"is_reserved":false,"is_disabled":false,"rental_uris":{"android":"levelo://app?vid=11d9698c-d3bf-48ca-a9ce-d5ad0d09c0f7","ios":"levelo://app?vid=11d9698c-d3bf-48ca-a9ce-d5ad0d09c0f7"},"vehicle_type_id":"4","last_reported":1726812792,"current_range_meters":37600,"station_id":"ce4bhq12rcd13ifvqhhg","pricing_plan_id":"cebpf4jnsgd1na2vs0mg"},{"bike_id":"c82056ba-e0a1-4289-87c8-154affcc175f","system_id":"levelo_inurba_marseille","lat":43.30588,"lon":5.39342,"is_reserved":false,"is_disabled":false,"rental_uris":{"android":"levelo://app?vid=c82056ba-e0a1-4289-87c8-154affcc175f","ios":"levelo://app?vid=c82056ba-e0a1-4289-87c8-154affcc175f"},"vehicle_type_id":"4","last_reported":1726812792,"current_range_meters":38800,"station_id":"ce4bh0p2rcd13ifvqd80","pricing_plan_id":"cebpf4jnsgd1na2vs0mg"},{"bike_id":"a605f782-494f-4421-bc72-b1dc0299b584","system_id":"levelo_inurba_marseille","lat":43.28964,"lon":5.37836,"is_reserved":false,"is_disabled":false,"rental_uris":{"android":"levelo://app?vid=a605f782-494f-4421-bc72-b1dc0299b584","ios":"levelo://app?vid=a605f782-494f-4421-bc72-b1dc0299b584"},"vehicle_type_id":"4","last_reported":1726812792,"current_range_meters":20400,"station_id":"ce4bh9p2rcd13ifvqed0","pricing_plan_id":"cebpf4jnsgd1na2vs0mg"},{"bike_id":"9da6d2b5-5f08-48ad-803f-fd5005db9741","system_id":"levelo_inurba_marseille","lat":43.306702,"lon":5.381027,"is_reserved":false,"is_disabled":false,"rental_uris":{"android":"levelo://app?vid=9da6d2b5-5f08-48ad-803f-fd5005db9741","ios":"levelo://app?vid=9da6d2b5-5f08-48ad-803f-fd5005db9741"},"vehicle_type_id":"4","last_reported":1726812792,"current_range_meters":37600,"station_id":"ce4bgup2rcd13ifvqcn0","pricing_plan_id":"cebpf4jnsgd1na2vs0mg"},{"bike_id":"bedce74e-920e-45c7-8eed-55c9c797a415","system_id":"levelo_inurba_marseille","lat":43.26952,"lon":5.38626,"is_reserved":false,"is_disabled":false,"rental_uris":{"android":"levelo://app?vid=bedce74e-920e-45c7-8eed-55c9c797a415","ios":"levelo://app?vid=bedce74e-920e-45c7-8eed-55c9c797a415"},"vehicle_type_id":"4","last_reported":1726812792,"current_range_meters":33600,"station_id":"ce4bhh92rcd13ifvqfh0","pricing_plan_id":"cebpf4jnsgd1na2vs0mg"},