{"last_updated":1702321543,"ttl":30,"version":"2.2","data":{"bikes":[{"bike_id":"8dae4b8e-58b3-4684-94f1-5aa0883a5212","system_id":"levelo_inurba_marseille","lat":43.312239,"lon":5.368562,"is_reserved":false,"is_disabled":false,"rental_uris":{"android":"levelo://app?vid=8dae4b8e-58b3-4684-94f1-5aa0883a5212","ios":"levelo://app?vid=8dae4b8e-58b3-4684-94f1-5aa0883a5212"},"vehicle_type_id":"4","last_reported":1702321544,"current_range_meters":0,"station_id":"ce4bgl92rcd13ifvqbq0","pricing_plan_id":"free"},{"bike_id":"18698b58-22dd-488d-bcf4-54b568ee7a90","system_id":"levelo_inurba_marseille","lat":43.309076,"lon":5.368465,"is_reserved":false,"is_disabled":false,"rental_uris":{"android":"levelo://app?vid=18698b58-22dd-488d-bcf4-54b568ee7a90","ios":"levelo://app?vid=18698b58-22dd-488d-bcf4-54b568ee7a90"},"vehicle_type_id":"4","last_reported":1702321544,"current_range_meters":1600,"station_id":"ce4bgn92rcd13ifvqbvg","pricing_plan_id":"free"},{"bike_id":"360702b4-a6f4-467a-9f7f-f96bffa6e86e","system_id":"levelo_inurba_marseille","lat":43.314811,"lon":5.373104,"is_reserved":false,"is_disabled":false,"rental_uris":{"android":"levelo://app?vid=360702b4-a6f4-467a-9f7f-f96bffa6e86e","ios":"levelo://app?vid=360702b4-a6f4-467a-9f7f-f96bffa6e86e"},"vehicle_type_id":"4","last_reported":1702321544,"current_range_meters":22000,"station_id":"ce4bgt12rcd13ifvqcd0","pricing_plan_id":"free"},{"bike_id":"51a1c27d-652f-4b49-947f-50c07623f64f","system_id":"levelo_inurba_marseille","lat":43.314925,"lon":5.37308,"is_reserved":false,"is_disabled":false,"rental_uris":{"android":"levelo://app?vid=51a1c27d-652f-4b49-947f-50c07623f64f","ios":"levelo://app?vid=51a1c27d-652f-4b49-947f-50c07623f64f"},"vehicle_type_id":"4","last_reported":1702321544,"current_range_meters":30400,"station_id":"ce4bgt12rcd13ifvqcd0","pricing_plan_id":"free"},{"bike_id":"7861d2d8-1fe7-465d-840c-bf441015b20c","system_id":"levelo_inurba_marseille","lat":43.30549,"lon":5.36558,"is_reserved":false,"is_disabled":false,"rental_uris":{"android":"levelo://app?vid=7861d2d8-1fe7-465d-840c-bf441015b20c","ios":"levelo://app?vid=7861d2d8-1fe7-465d-840c-bf441015b20c"},"vehicle_type_id":"4","last_reported":1702321544,"current_range_meters":13600,"station_id":"ce4bgs12rcd13ifvqcag","pricing_plan_id":"free"},{"bike_id":"28502396-7c25-4937-8bdf-d461b2262542","system_id":"levelo_inurba_marseille","lat":43.305706,"lon":5.365654,"is_reserved":false,"is_disabled":false,"rental_uris":{"android":"levelo://app?vid=28502396-7c25-4937-8bdf-d461b2262542","ios":"levelo://app?vid=28502396-7c25-4937-8bdf-d461b2262542"},"vehicle_type_id":"4","last_reported":1702321544,"current_range_meters":19200,"station_id":"ce4bgs12rcd13ifvqcag","pricing_plan_id":"free"},{"bike_id":"960619ef-3a74-41fe-a53a-cfe7618fee28","system_id":"levelo_inurba_marseille","lat":43.30528,"lon":5.36728,"is_reserved":false,"is_disabled":false,"rental_uris":{"android":"levelo://app?vid=960619ef-3a74-41fe-a53a-cfe7618fee28","ios":"levelo://app?vid=960619ef-3a74-41fe-a53a-cfe7618fee28"},"vehicle_type_id":"4","last_reported":1702321544,"current_range_meters":3600,"station_id":"ce4bgrp2rcd13ifvqc9g","pricing_plan_id":"free"},{"bike_id":"0682765b-95e6-4ad8-8f15-3c5b6dd431f0","system_id":"levelo_inurba_marseille","lat":43.311125,"lon":5.377624,"is_reserved":false,"is_disabled":false,"rental_uris":{"android":"levelo://app?vid=0682765b-95e6-4ad8-8f15-3c5b6dd431f0","ios":"levelo://app?vid=0682765b-95e6-4ad8-8f15-3c5b6dd431f0"},"vehicle_type_id":"4","last_reported":1702321544,"current_range_meters":20400,"station_id":"ce4bgt92rcd13ifvqcg0","pricing_plan_id":"free"},{"bike_id":"51585fd4-cb66-4bfc-a297-f545c6e078eb","system_id":"levelo_inurba_marseille","lat":43.311131,"lon":5.377651,"is_reserved":false,"is_disabled":false,"rental_uris":{"android":"levelo://app?vid=51585fd4-cb66-4bfc-a297-f545c6e078eb","ios":"levelo://app?vid=51585fd4-cb66-4bfc-a297-f545c6e078eb"},"vehicle_type_id":"4","last_reported":1702321544,"current_range_meters":7200,"station_id":"ce4bgt92rcd13ifvqcg0","pricing_plan_id":"free"},{"bike_id":"b959d1cc-dbc0-4c38-ac60-3e1e667f3943","system_id":"levelo_inurba_marseille","lat":43.311215,"lon":5.37771,"is_reserved":false,"is_disabled":false,"rental_uris":{"android":"levelo://app?vid=b959d1cc-dbc0-4c38-ac60-3e1e667f3943","ios":"levelo://app?vid=b959d1cc-dbc0-4c38-ac60-3e1e667f3943"},"vehicle_type_id":"4","last_reported":1702321544,"current_range_meters":23200,"station_id":"ce4bgt92rcd13ifvqcg0","pricing_plan_id":"free"},{"bike_id":"eb55ab0f-4cf4-4960-b142-1557f23bc7ca","system_id":"levelo_inurba_marseille","lat":43.311214,"lon":5.377714,"is_reserved":false,"is_disabled":false,"rental_uris":{"android":"levelo://app?vid=eb55ab0f-4cf4-4960-b142-1557f23bc7ca","ios":"levelo://app?vid=eb55ab0f-4cf4-4960-b142-1557f23bc7ca"},"vehicle_type_id":"4","last_reported":1702321544,"current_range_meters":0,"station_id":"ce4bgt92rcd13ifvqcg0","pricing_plan_id":"free"},{"bike_id":"17a02c9e-3e9a-40d1-b2e9-2a3b71945ed1","system_id":"levelo_inurba_marseille","lat":43.311131,"lon":5.377651,"is_reserved":false,"is_disabled":false,"rental_uris":{"android":"levelo://app?vid=17a02c9e-3e9a-40d1-b2e9-2a3b71945ed1","ios":"levelo://app?vid=17a02c9e-3e9a-40d1-b2e9-2a3b71945ed1"},"vehicle_type_id":"4","last_reported":1702321544,"current_range_meters":20400,"station_id":"ce4bgt92rcd13ifvqcg0","pricing_plan_id":"free"},{"bike_id":"01793230-e62c-4c90-94bf-38c2f6dbb101","system_id":"levelo_inurba_marseille","lat":43.30785,"lon":5.37652,"is_reserved":false,"is_disabled":false,"rental_uris":{"android":"levelo://app?vid=01793230-e62c-4c90-94bf-38c2f6dbb101","ios":"levelo://app?vid=01793230-e62c-4c90-94bf-38c2f6dbb101"},"vehicle_type_id":"4","last_reported":1702321544,"current_range_meters":0,"station_id":"ce4bgv92rcd13ifvqcq0","pricing_plan_id":"free"},{"bike_id":"877318c6-ff91-4e47-b724-2bd92ab47e5b","system_id":"levelo_inurba_marseille","lat":43.307945,"lon":5.376487,"is_reserved":false,"is_disabled":false,"rental_uris":{"android":"levelo://app?vid=877318c6-ff91-4e47-b724-2bd92ab47e5b","ios":"levelo://app?vid=877318c6-ff91-4e47-b724-2bd92ab47e5b"},"vehicle_type_id":"4","last_reported":1702321544,"current_range_meters":26400,"station_id":"ce4bgv92rcd13ifvqcq0","pricing_plan_id":"free"},{"bike_id":"a9e8efa3-e30a-4e32-aa72-dbca40cebdb6","system_id":"levelo_inurba_marseille","lat":43.317075,"lon":5.377367,"is_reserved":false,"is_disabled":false,"rental_uris":{"android":"levelo://app?vid=a9e8efa3-e30a-4e32-aa72-dbca40cebdb6","ios":"levelo://app?vid=a9e8efa3-e30a-4e32-aa72-dbca40cebdb6"},"vehicle_type_id":"4","last_reported":1702321544,"current_range_meters":30000,"station_id":"ce4bgth2rcd13ifvqch0","pricing_plan_id":"free"},{"bike_id":"ae326b30-693f-4a15-9da9-428e9b86db8c","system_id":"levelo_inurba_marseille","lat":43.317075,"lon":5.377367,"is_reserved":false,"is_disabled":false,"rental_uris":{"android":"levelo://app?vid=ae326b30-693f-4a15-9da9-428e9b86db8c","ios":"levelo://app?vid=ae326b30-693f-4a15-9da9-428e9b86db8c"},"vehicle_type_id":"4","last_reported":1702321544,"current_range_meters":29600,"station_id":"ce4bgth2rcd13ifvqch0","pricing_plan_id":"free"},{"bike_id":"e9627390-7690-4fa6-86d0-ff8597dd3cc8","system_id":"levelo_inurba_marseille","lat":43.31534,"lon":5.38024,"is_reserved":false,"is_disabled":false,"rental_uris":{"android":"levelo://app?vid=e9627390-7690-4fa6-86d0-ff8597dd3cc8","ios":"levelo://app?vid=e9627390-7690-4fa6-86d0-ff8597dd3cc8"},"vehicle_type_id":"4","last_reported":1702321544,"current_range_meters":22000,"station_id":"ce4bhsp2rcd13ifvqi50","pricing_plan_id":"free"},{"bike_id":"5508366d-c2be-4f9a-bd0c-3bedb899b742","system_id":"levelo_inurba_marseille","lat":43.301939,"lon":5.366286,"is_reserved":false,"is_disabled":false,"rental_uris":{"android":"levelo://app?vid=5508366d-c2be-4f9a-bd0c-3bedb899b742","ios":"levelo://app?vid=5508366d-c2be-4f9a-bd0c-3bedb899b742"},"vehicle_type_id":"4","last_reported":1702321544,"current_range_meters":25600,"station_id":"ce4bgrh2rcd13ifvqc8g","pricing_plan_id":"free"},{"bike_id":"a5589e38-f15a-46fe-9b37-27cf16ba9de2","system_id":"levelo_inurba_marseille","lat":43.316022,"lon":5.383779,"is_reserved":false,"is_disabled":false,"rental_uris":{"android":"levelo://app?vid=a5589e38-f15a-46fe-9b37-27cf16ba9de2","ios":"levelo://app?vid=a5589e38-f15a-46fe-9b37-27cf16ba9de2"},"vehicle_type_id":"4","last_reported":1702321544,"current_range_meters":23200,"station_id":"","pricing_plan_id":"free"},{"bike_id":"d507dc20-f3f0-485a-b520-e5ecd0effbe5","system_id":"levelo_inurba_marseille","lat":43.319935,"lon":5.381699,"is_reserved":false,"is_disabled":false,"rental_uris":{"android":"levelo://app?vid=d507dc20-f3f0-485a-b520-e5ecd0effbe5","ios":"levelo://app?vid=d507dc20-f3f0-485a-b520-e5ecd0effbe5"},"vehicle_type_id":"4","last_reported":1702321544,"current_range_meters":17600,"station_id":"ce4bhr12rcd13ifvqhpg","pricing_plan_id":"free"},{"bike_id":"f5dc87db-1627-40f9-8d4d-6dfa629a504a","system_id":"levelo_inurba_marseille","lat":43.31356,"lon":5.38493,"is_reserved":false,"is_disabled":false,"rental_uris":{"android":"levelo://app?vid=f5dc87db-1627-40f9-8d4d-6dfa629a504a","ios":"levelo://app?vid=f5dc87db-1627-40f9-8d4d-6dfa629a504a"},"vehicle_type_id":"4","last_reported":1702321544,"current_range_meters":15600,"station_id":"ce4bgt92rcd13ifvqcf0","pricing_plan_id":"free"},{"bike_id":"e40502d4-98d6-485c-b92a-e98949688671","system_id":"levelo_inurba_marseille","lat":43.305364,"lon":5.384119,"is_reserved":false,"is_disabled":false,"rental_uris":{"android":"levelo://app?vid=e40502d4-98d6-485c-b92a-e98949688671","ios":"levelo://app?vid=e40502d4-98d6-485c-b92a-e98949688671"},"vehicle_type_id":"4","last_reported":1702321544,"current_range_meters":23200,"station_id":"ce4bgg92rcd13ifvqb30","pricing_plan_id":"free"},{"bike_id":"c39efe5e-2ee5-4080-ad4e-7074e13ebba9","system_id":"levelo_inurba_marseille","lat":43.30527,"lon":5.38416,"is_reserved":false,"is_disabled":false,"rental_uris":{"android":"levelo://app?vid=c39efe5e-2ee5-4080-ad4e-7074e13ebba9","ios":"levelo://app?vid=c39efe5e-2ee5-4080-ad4e-7074e13ebba9"},"vehicle_type_id":"4","last_reported":1702321544,"current_range_meters":16000,"station_id":"ce4bgg92rcd13ifvqb30","pricing_plan_id":"free"},{"bike_id":"e2d0b849-94b4-410a-a953-5bbd31795a06","system_id":"levelo_inurba_marseille","lat":43.298433,"lon":5.362774,"is_reserved":false,"is_disabled":false,"rental_uris":{"android":"levelo://app?vid=e2d0b849-94b4-410a-a953-5bbd31795a06","ios":"levelo://app?vid=e2d0b849-94b4-410a-a953-5bbd31795a06"},"vehicle_type_id":"4","last_reported":1702321544,"current_range_meters":28000,"station_id":"ce4bgpp2rcd13ifvqc3g","pricing_plan_id":"free"},{"bike_id":"1a5a9ca7-5513-486f-a068-1e28a8c1f673","system_id":"levelo_inurba_marseille","lat":43.299243,"lon":5.37481,"is_reserved":false,"is_disabled":false,"rental_uris":{"android":"levelo://app?vid=1a5a9ca7-5513-486f-a068-1e28a8c1f673","ios":"levelo://app?vid=1a5a9ca7-5513-486f-a068-1e28a8c1f673"},"vehicle_type_id":"4","last_reported":1702321544,"current_range_meters":11600,"station_id":"ce4bgjh2rcd13ifvqbg0","pricing_plan_id":"free"},{"bike_id":"ea30782d-6269-40ef-81ac-0eb759ccbe99","system_id":"levelo_inurba_marseille","lat":43.322872,"lon":5.382756,"is_reserved":false,"is_disabled":false,"rental_uris":{"android":"levelo://app?vid=ea30782d-6269-40ef-81ac-0eb759ccbe99","ios":"levelo://app?vid=ea30782d-6269-40ef-81ac-0eb759ccbe99"},"vehicle_type_id":"4","last_reported":1702321544,"current_range_meters":30000,"station_id":"ce4bhr12rcd13ifvqhqg","pricing_plan_id":"free"},{"bike_id":"8ae63aca-aa68-44b8-bd5b-8551954bc028","system_id":"levelo_inurba_marseille","lat":43.32826,"lon":5.366777,"is_reserved":false,"is_disabled":false,"rental_uris":{"android":"levelo://app?vid=8ae63aca-aa68-44b8-bd5b-8551954bc028","ios":"levelo://app?vid=8ae63aca-aa68-44b8-bd5b-8551954bc028"},"vehicle_type_id":"4","last_reported":1702321544,"current_range_meters":24800,"station_id":"ce4bhs92rcd13ifvqi0g","pricing_plan_id":"free"},{"bike_id":"61a9d821-211d-4cd3-b66f-6a9b3fadd2d2","system_id":"levelo_inurba_marseille","lat":43.32834,"lon":5.36686,"is_reserved":false,"is_disabled":false,"rental_uris":{"android":"levelo://app?vid=61a9d821-211d-4cd3-b66f-6a9b3fadd2d2","ios":"levelo://app?vid=61a9d821-211d-4cd3-b66f-6a9b3fadd2d2"},"vehicle_type_id":"4","last_reported":1702321544,"current_range_meters":22000,"station_id":"ce4bhs92rcd13ifvqi0g","pricing_plan_id":"free"},{"bike_id":"e943b487-c43c-4967-b791-c50dc3993506","system_id":"levelo_inurba_marseille","lat":43.29573,"lon":5.367355,"is_reserved":false,"is_disabled":false,"rental_uris":{"android":"levelo://app?vid=e943b487-c43c-4967-b791-c50dc3993506","ios":"levelo://app?vid=e943b487-c43c-4967-b791-c50dc3993506"},"vehicle_type_id":"4","last_reported":1702321544,"current_range_meters":28000,"station_id":"ce4bgph2rcd13ifvqc2g","pricing_plan_id":"free"},{"bike_id":"aa200bf1-72a2-4fe3-8926-725eb4280641","system_id":"levelo_inurba_marseille","lat":43.296935,"lon":5.376544,"is_reserved":false,"is_disabled":false,"rental_uris":{"android":"levelo://app?vid=aa200bf1-72a2-4fe3-8926-725eb4280641","ios":"levelo://app?vid=aa200bf1-72a2-4fe3-8926-725eb4280641"},"vehicle_type_id":"4","last_reported":1702321544,"current_range_meters":19600,"station_id":"ce4bgkh2rcd13ifvqbl0","pricing_plan_id":"free"},{"bike_id":"9b0409c8-952e-43cd-8929-2c98668b8e00","system_id":"levelo_inurba_marseille","lat":43.330478,"lon":5.370222,"is_reserved":false,"is_disabled":false,"rental_uris":{"android":"levelo://app?vid=9b0409c8-952e-43cd-8929-2c98668b8e00","ios":"levelo://app?vid=9b0409c8-952e-43cd-8929-2c98668b8e00"},"vehicle_type_id":"4","last_reported":1702321544,"current_range_meters":12800,"station_id":"","pricing_plan_id":"free"},{"bike_id":"52d8b7ba-7505-413c-b898-efb75f14c13c","system_id":"levelo_inurba_marseille","lat":43.330626,"lon":5.371057,"is_reserved":false,"is_disabled":false,"rental_uris":{"android":"levelo://app?vid=52d8b7ba-7505-413c-b898-efb75f14c13c","ios":"levelo://app?vid=52d8b7ba-7505-413c-b898-efb75f14c13c"},"vehicle_type_id":"4","last_reported":1702321544,"current_range_meters":19600,"station_id":"","pricing_plan_id":"free"},{"bike_id":"e445088b-ea85-4a39-915c-fe076c5e8f64","system_id":"levelo_inurba_marseille","lat":43.330668,"lon":5.371183,"is_reserved":false,"is_disabled":false,"rental_uris":{"android":"levelo://app?vid=e445088b-ea85-4a39-915c-fe076c5e8f64","ios":"levelo://app?vid=e445088b-ea85-4a39-915c-fe076c5e8f64"},"vehicle_type_id":"4","last_reported":1702321544,"current_range_meters":3600,"station_id":"","pricing_plan_id":"free"},{"bike_id":"5f87770f-ebb5-40c1-a69a-c37d735a7410","system_id":"levelo_inurba_marseille","lat":43.29609,"lon":5.377067,"is_reserved":false,"is_disabled":false,"rental_uris":{"android":"levelo://app?vid=5f87770f-ebb5-40c1-a69a-c37d735a7410","ios":"levelo://app?vid=5f87770f-ebb5-40c1-a69a-c37d735a7410"},"vehicle_type_id":"4","last_reported":1702321544,"current_range_meters":0,"station_id":"ce4bgi92rcd13ifvqb90","pricing_plan_id":"free"},{"bike_id":"77a6c46d-d898-4e4f-8846-efa91689c7f0","system_id":"levelo_inurba_marseille","lat":43.295523,"lon":5.379296,"is_reserved":false,"is_disabled":false,"rental_uris":{"android":"levelo://app?vid=77a6c46d-d898-4e4f-8846-efa91689c7f0","ios":"levelo://app?vid=77a6c46d-d898-4e4f-8846-efa91689c7f0"},"vehicle_type_id":"4","last_reported":1702321544,"current_range_meters":0,"station_id":"","pricing_plan_id":"free"},{"bike_id":"a003974b-8c85-4234-8435-ceb1a3c56920","system_id":"levelo_inurba_marseille","lat":43.304296,"lon":5.397513,"is_reserved":false,"is_disabled":false,"rental_uris":{"android":"levelo://app?vid=a003974b-8c85-4234-8435-ceb1a3c56920","ios":"levelo://app?vid=a003974b-8c85-4234-8435-ceb1a3c56920"},"vehicle_type_id":"4","last_reported":1702321544,"current_range_meters":14800,"station_id":"ce4bh092rcd13ifvqd20","pricing_plan_id":"free"},{"bike_id":"2a3a2e12-1000-4122-a1a0-3ef2eb5e8290","system_id":"levelo_inurba_marseille","lat":43.293009,"lon":5.374584,"is_reserved":false,"is_disabled":false,"rental_uris":{"android":"levelo://app?vid=2a3a2e12-1000-4122-a1a0-3ef2eb5e8290","ios":"levelo://app?vid=2a3a2e12-1000-4122-a1a0-3ef2eb5e8290"},"vehicle_type_id":"4","last_reported":1702321544,"current_range_meters":0,"station_id":"ce4bgi12rcd13ifvqb70","pricing_plan_id":"free"},{"bike_id":"3ab59caf-3e4e-4b0b-8c42-bdd2a3d0da1c","system_id":"levelo_inurba_marseille","lat":43.303083,"lon":5.391946,"is_reserved":false,"is_disabled":false,"rental_uris":{"android":"levelo://app?vid=3ab59caf-3e4e-4b0b-8c42-bdd2a3d0da1c","ios":"levelo://app?vid=3ab59caf-3e4e-4b0b-8c42-bdd2a3d0da1c"},"vehicle_type_id":"4","last_reported":1702321544,"current_range_meters":0,"station_id":"ce4bgkh2rcd13ifvqbk0","pricing_plan_id":"free"},{"bike_id":"ca4e135c-886c-4148-ae09-abe9471e060c","system_id":"levelo_inurba_marseille","lat":43.292311,"lon":5.360731,"is_reserved":false,"is_disabled":false,"rental_uris":{"android":"levelo://app?vid=ca4e135c-886c-4148-ae09-abe9471e060c","ios":"levelo://app?vid=ca4e135c-886c-4148-ae09-abe9471e060c"},"vehicle_type_id":"4","last_reported":1702321544,"current_range_meters":28000,"station_id":"ce4bhbh2rcd13ifvqeqg","pricing_plan_id":"free"},{"bike_id":"79f36a7a-c67e-49d9-8621-9a5e25641ac8","system_id":"levelo_inurba_marseille","lat":43.292311,"lon":5.360731,"is_reserved":false,"is_disabled":false,"rental_uris":{"android":"levelo://app?vid=79f36a7a-c67e-49d9-8621-9a5e25641ac8","ios":"levelo://app?vid=79f36a7a-c67e-49d9-8621-9a5e25641ac8"},"vehicle_type_id":"4","last_reported":1702321544,"current_range_meters":1200,"station_id":"ce4bhbh2rcd13ifvqeqg","pricing_plan_id":"free"},{"bike_id":"fb046c76-71c0-4539-a8e2-725d3931e3b4","system_id":"levelo_inurba_marseille","lat":43.302992,"lon":5.392136,"is_reserved":false,"is_disabled":false,"rental_uris":{"android":"levelo://app?vid=fb046c76-71c0-4539-a8e2-725d3931e3b4","ios":"levelo://app?vid=fb046c76-71c0-4539-a8e2-725d3931e3b4"},"vehicle_type_id":"4","last_reported":1702321544,"current_range_meters":3600,"station_id":"ce4bgkh2rcd13ifvqbk0","pricing_plan_id":"free"},{"bike_id":"c659b711-0195-45e5-9727-f36c772c4318","system_id":"levelo_inurba_marseille","lat":43.298753,"lon":5.389003,"is_reserved":false,"is_disabled":false,"rental_uris":{"android":"levelo://app?vid=c659b711-0195-45e5-9727-f36c772c4318","ios":"levelo://app?vid=c659b711-0195-45e5-9727-f36c772c4318"},"vehicle_type_id":"4","last_reported":1702321544,"current_range_meters":18000,"station_id":"","pricing_plan_id":"free"},{"bike_id":"e0faa393-c92d-4b64-8e12-1c27f1b99ac3","system_id":"levelo_inurba_marseille","lat":43.298775,"lon":5.389055,"is_reserved":false,"is_disabled":false,"rental_uris":{"android":"levelo://app?vid=e0faa393-c92d-4b64-8e12-1c27f1b99ac3","ios":"levelo://app?vid=e0faa393-c92d-4b64-8e12-1c27f1b99ac3"},"vehicle_type_id":"4","last_reported":1702321544,"current_range_meters":29600,"station_id":"","pricing_plan_id":"free"},{"bike_id":"1a7503d8-109e-4483-9f8b-4a906100a2f6","system_id":"levelo_inurba_marseille","lat":43.313291,"lon":5.396838,"is_reserved":false,"is_disabled":false,"rental_uris":{"android":"levelo://app?vid=1a7503d8-109e-4483-9f8b-4a906100a2f6","ios":"levelo://app?vid=1a7503d8-109e-4483-9f8b-4a906100a2f6"},"vehicle_type_id":"4","last_reported":1702321544,"current_range_meters":7200,"station_id":"ce4bgvp2rcd13ifvqcu0","pricing_plan_id":"free"},{"bike_id":"9de81eeb-11be-4276-8eaa-224c01375da7","system_id":"levelo_inurba_marseille","lat":43.291994,"lon":5.357886,"is_reserved":false,"is_disabled":false,"rental_uris":{"android":"levelo://app?vid=9de81eeb-11be-4276-8eaa-224c01375da7","ios":"levelo://app?vid=9de81eeb-11be-4276-8eaa-224c01375da7"},"vehicle_type_id":"4","last_reported":1702321544,"current_range_meters":5600,"station_id":"ce4bhb12rcd13ifvqel0","pricing_plan_id":"free"},{"bike_id":"bf697f35-9648-41be-8e78-cbeefd188d23","system_id":"levelo_inurba_marseille","lat":43.290779,"lon":5.371482,"is_reserved":false,"is_disabled":false,"rental_uris":{"android":"levelo://app?vid=bf697f35-9648-41be-8e78-cbeefd188d23","ios":"levelo://app?vid=bf697f35-9648-41be-8e78-cbeefd188d23"},"vehicle_type_id":"4","last_reported":1702321544,"current_range_meters":20800,"station_id":"ce4bh5p2rcd13ifvqe4g","pricing_plan_id":"free"},{"bike_id":"ee0843cd-945a-44cc-9699-41b3ec18ea77","system_id":"levelo_inurba_marseille","lat":43.302008,"lon":5.394694,"is_reserved":false,"is_disabled":false,"rental_uris":{"android":"levelo://app?vid=ee0843cd-945a-44cc-9699-41b3ec18ea77","ios":"levelo://app?vid=ee0843cd-945a-44cc-9699-41b3ec18ea77"},"vehicle_type_id":"4","last_reported":1702321544,"current_range_meters":0,"station_id":"ce4bh0p2rcd13ifvqd70","pricing_plan_id":"free"},{"bike_id":"8a583d99-8dac-43cf-a91d-adcb6855f5dc","system_id":"levelo_inurba_marseille","lat":43.29044,"lon":5.37588,"is_reserved":false,"is_disabled":false,"rental_uris":{"android":"levelo://app?vid=8a583d99-8dac-43cf-a91d-adcb6855f5dc","ios":"levelo://app?vid=8a583d99-8dac-43cf-a91d-adcb6855f5dc"},"vehicle_type_id":"4","last_reported":1702321544,"current_range_meters":29200,"station_id":"","pricing_plan_id":"free"},{"bike_id":"6f97e3fd-f065-4fed-9d9c-bc3a3785f327","system_id":"levelo_inurba_marseille","lat":43.289468,"lon":5.363719,"is_reserved":false,"is_disabled":false,"rental_uris":{"android":"levelo://app?vid=6f97e3fd-f065-4fed-9d9c-bc3a3785f327","ios":"levelo://app?vid=6f97e3fd-f065-4fed-9d9c-bc3a3785f327"},"vehicle_type_id":"4","last_reported":1702321544,"current_range_meters":23600,"station_id":"ce4bhc92rcd13ifvqetg","pricing_plan_id":"free"},{"bike_id":"618932d8-47c4-4841-9dfe-d57b9952beea","system_id":"levelo_inurba_marseille","lat":43.289184,"lon":5.366408,"is_reserved":false,"is_disabled":false,"rental_uris":{"android":"levelo://app?vid=618932d8-47c4-4841-9dfe-d57b9952beea","ios":"levelo://app?vid=618932d8-47c4-4841-9dfe-d57b9952beea"},"vehicle_type_id":"4","last_reported":1702321544,"current_range_meters":6800,"station_id":"ce4bhap2rcd13ifvqek0","pricing_plan_id":"free"},{"bike_id":"c65bfe47-8006-4f74-81e6-e260754bdefc","system_id":"levelo_inurba_marseille","lat":43.30425,"lon":5.39751,"is_reserved":false,"is_disabled":false,"rental_uris":{"android":"levelo://app?vid=c65bfe47-8006-4f74-81e6-e260754bdefc","ios":"levelo://app?vid=c65bfe47-8006-4f74-81e6-e260754bdefc"},"vehicle_type_id":"4","last_reported":1702321544,"current_range_meters":17600,"station_id":"ce4bh092rcd13ifvqd20","pricing_plan_id":"free"},{"bike_id":"899313d8-de41-44dd-bc8d-5944c142c3a9","system_id":"levelo_inurba_marseille","lat":43.292644,"lon":5.384257,"is_reserved":false,"is_disabled":false,"rental_uris":{"android":"levelo://app?vid=899313d8-de41-44dd-bc8d-5944c142c3a9","ios":"levelo://app?vid=899313d8-de41-44dd-bc8d-5944c142c3a9"},"vehicle_type_id":"4","last_reported":1702321544,"current_range_meters":2400,"station_id":"ce4bh692rcd13ifvqea0","pricing_plan_id":"free"},{"bike_id":"f1896741-896e-40c9-aa4d-96fe134ed880","system_id":"levelo_inurba_marseille","lat":43.330442,"lon":5.389148,"is_reserved":false,"is_disabled":false,"rental_uris":{"android":"levelo://app?vid=f1896741-896e-40c9-aa4d-96fe134ed880","ios":"levelo://app?vid=f1896741-896e-40c9-aa4d-96fe134ed880"},"vehicle_type_id":"4","last_reported":1702321544,"current_range_meters":4800,"station_id":"ce4bhr92rcd13ifvqhrg","pricing_plan_id":"free"},{"bike_id":"9d8e17a7-c4c7-4287-a923-25a1cf206b9b","system_id":"levelo_inurba_marseille","lat":43.330442,"lon":5.389148,"is_reserved":false,"is_disabled":false,"rental_uris":{"android":"levelo://app?vid=9d8e17a7-c4c7-4287-a923-25a1cf206b9b","ios":"levelo://app?vid=9d8e17a7-c4c7-4287-a923-25a1cf206b9b"},"vehicle_type_id":"4","last_reported":1702321544,"current_range_meters":10800,"station_id":"ce4bhr92rcd13ifvqhrg","pricing_plan_id":"free"},{"bike_id":"4601da1a-2bc2-4be5-8fac-e44f32e20802","system_id":"levelo_inurba_marseille","lat":43.33043,"lon":5.38924,"is_reserved":false,"is_disabled":false,"rental_uris":{"android":"levelo://app?vid=4601da1a-2bc2-4be5-8fac-e44f32e20802","ios":"levelo://app?vid=4601da1a-2bc2-4be5-8fac-e44f32e20802"},"vehicle_type_id":"4","last_reported":1702321544,"current_range_meters":27200,"station_id":"ce4bhr92rcd13ifvqhrg","pricing_plan_id":"free"},{"bike_id":"95f47a95-e086-4ec1-9907-83490f2d7208","system_id":"levelo_inurba_marseille","lat":43.290104,"lon":5.356111,"is_reserved":false,"is_disabled":false,"rental_uris":{"android":"levelo://app?vid=95f47a95-e086-4ec1-9907-83490f2d7208","ios":"levelo://app?vid=95f47a95-e086-4ec1-9907-83490f2d7208"},"vehicle_type_id":"4","last_reported":1702321544,"current_range_meters":13200,"station_id":"ce4bhb92rcd13ifvqen0","pricing_plan_id":"free"},{"bike_id":"02248679-509f-4b57-97bb-e9d71f1470fa","system_id":"levelo_inurba_marseille","lat":43.289995,"lon":5.35611,"is_reserved":false,"is_disabled":false,"rental_uris":{"android":"levelo://app?vid=02248679-509f-4b57-97bb-e9d71f1470fa","ios":"levelo://app?vid=02248679-509f-4b57-97bb-e9d71f1470fa"},"vehicle_type_id":"4","last_reported":1702321544,"current_range_meters":30800,"station_id":"ce4bhb92rcd13ifvqen0","pricing_plan_id":"free"},{"bike_id":"84cb3bc2-5698-40ca-8b76-add53bb531b9","system_id":"levelo_inurba_marseille","lat":43.290995,"lon":5.381361,"is_reserved":false,"is_disabled":false,"rental_uris":{"android":"levelo://app?vid=84cb3bc2-5698-40ca-8b76-add53bb531b9","ios":"levelo://app?vid=84cb3bc2-5698-40ca-8b76-add53bb531b9"},"vehicle_type_id":"4","last_reported":1702321544,"current_range_meters":18400,"station_id":"ce4bh512rcd13ifvqe2g","pricing_plan_id":"free"},{"bike_id":"49c911d8-fd11-450f-bb64-dbed6164844e","system_id":"levelo_inurba_marseille","lat":43.290995,"lon":5.381361,"is_reserved":false,"is_disabled":false,"rental_uris":{"android":"levelo://app?vid=49c911d8-fd11-450f-bb64-dbed6164844e","ios":"levelo://app?vid=49c911d8-fd11-450f-bb64-dbed6164844e"},"vehicle_type_id":"4","last_reported":1702321544,"current_range_meters":14000,"station_id":"ce4bh512rcd13ifvqe2g","pricing_plan_id":"free"},{"bike_id":"08a27544-d685-45ed-b81f-01c9ee62a42a","system_id":"levelo_inurba_marseille","lat":43.295169,"lon":5.390426,"is_reserved":false,"is_disabled":false,"rental_uris":{"android":"levelo://app?vid=08a27544-d685-45ed-b81f-01c9ee62a42a","ios":"levelo://app?vid=08a27544-d685-45ed-b81f-01c9ee62a42a"},"vehicle_type_id":"4","last_reported":1702321544,"current_range_meters":27600,"station_id":"ce4bh3p2rcd13ifvqdp0","pricing_plan_id":"free"},{"bike_id":"bb0061ff-628d-4bb7-8ce0-726450104e00","system_id":"levelo_inurba_marseille","lat":43.29785,"lon":5.39343,"is_reserved":false,"is_disabled":false,"rental_uris":{"android":"levelo://app?vid=bb0061ff-628d-4bb7-8ce0-726450104e00","ios":"levelo://app?vid=bb0061ff-628d-4bb7-8ce0-726450104e00"},"vehicle_type_id":"4","last_reported":1702321544,"current_range_meters":20000,"station_id":"chh1huq6cuj3fo74tm60","pricing_plan_id":"free"},{"bike_id":"17a77c9e-3db0-4477-a11a-2f9b41e65b45","system_id":"levelo_inurba_marseille","lat":43.295169,"lon":5.390426,"is_reserved":false,"is_disabled":false,"rental_uris":{"android":"levelo://app?vid=17a77c9e-3db0-4477-a11a-2f9b41e65b45","ios":"levelo://app?vid=17a77c9e-3db0-4477-a11a-2f9b41e65b45"},"vehicle_type_id":"4","last_reported":1702321544,"current_range_meters":5200,"station_id":"ce4bh3p2rcd13ifvqdp0","pricing_plan_id":"free"},{"bike_id":"be0cb175-d84b-4a26-8e5c-7eec8e5b365d","system_id":"levelo_inurba_marseille","lat":43.295169,"lon":5.390426,"is_reserved":false,"is_disabled":false,"rental_uris":{"android":"levelo://app?vid=be0cb175-d84b-4a26-8e5c-7eec8e5b365d","ios":"levelo://app?vid=be0cb175-d84b-4a26-8e5c-7eec8e5b365d"},"vehicle_type_id":"4","last_reported":1702321544,"current_range_meters":0,"station_id":"ce4bh3p2rcd13ifvqdp0","pricing_plan_id":"free"},{"bike_id":"1ffa6cab-2192-4490-9617-61044011c6b1","system_id":"levelo_inurba_marseille","lat":43.33736,"lon":5.37457,"is_reserved":false,"is_disabled":false,"rental_uris":{"android":"levelo://app?vid=1ffa6cab-2192-4490-9617-61044011c6b1","ios":"levelo://app?vid=1ffa6cab-2192-4490-9617-61044011c6b1"},"vehicle_type_id":"4","last_reported":1702321544,"current_range_meters":19600,"station_id":"","pricing_plan_id":"free"},{"bike_id":"1a9123ca-1ac0-4cbb-b622-534f88bcae20","system_id":"levelo_inurba_marseille","lat":43.33744,"lon":5.37471,"is_reserved":false,"is_disabled":false,"rental_uris":{"android":"levelo://app?vid=1a9123ca-1ac0-4cbb-b622-534f88bcae20","ios":"levelo://app?vid=1a9123ca-1ac0-4cbb-b622-534f88bcae20"},"vehicle_type_id":"4","last_reported":1702321544,"current_range_meters":29200,"station_id":"","pricing_plan_id":"free"},{"bike_id":"357c0342-4746-4875-8863-f1f19ff2fa1a","system_id":"levelo_inurba_marseille","lat":43.33752,"lon":5.37453,"is_reserved":false,"is_disabled":false,"rental_uris":{"android":"levelo://app?vid=357c0342-4746-4875-8863-f1f19ff2fa1a","ios":"levelo://app?vid=357c0342-4746-4875-8863-f1f19ff2fa1a"},"vehicle_type_id":"4","last_reported":1702321544,"current_range_meters":26400,"station_id":"","pricing_plan_id":"free"},{"bike_id":"60f84eb0-2206-4e1b-94df-fd8c129930f0","system_id":"levelo_inurba_marseille","lat":43.337668,"lon":5.374343,"is_reserved":false,"is_disabled":false,"rental_uris":{"android":"levelo://app?vid=60f84eb0-2206-4e1b-94df-fd8c129930f0","ios":"levelo://app?vid=60f84eb0-2206-4e1b-94df-fd8c129930f0"},"vehicle_type_id":"4","last_reported":1702321544,"current_range_meters":14400,"station_id":"","pricing_plan_id":"free"},{"bike_id":"9b8b7d14-8f57-448c-9cb4-730f43458992","system_id":"levelo_inurba_marseille","lat":43.301117,"lon":5.398795,"is_reserved":false,"is_disabled":false,"rental_uris":{"android":"levelo://app?vid=9b8b7d14-8f57-448c-9cb4-730f43458992","ios":"levelo://app?vid=9b8b7d14-8f57-448c-9cb4-730f43458992"},"vehicle_type_id":"4","last_reported":1702321544,"current_range_meters":8000,"station_id":"ce4bh0h2rcd13ifvqd40","pricing_plan_id":"free"},{"bike_id":"a2292d10-8d69-466a-988f-7921a2b3bab8","system_id":"levelo_inurba_marseille","lat":43.301117,"lon":5.398795,"is_reserved":false,"is_disabled":false,"rental_uris":{"android":"levelo://app?vid=a2292d10-8d69-466a-988f-7921a2b3bab8","ios":"levelo://app?vid=a2292d10-8d69-466a-988f-7921a2b3bab8"},"vehicle_type_id":"4","last_reported":1702321544,"current_range_meters":0,"station_id":"ce4bh0h2rcd13ifvqd40","pricing_plan_id":"free"},{"bike_id":"3f9429ce-0e2f-4adf-9908-c8a7985761c7","system_id":"levelo_inurba_marseille","lat":43.28727,"lon":5.36078,"is_reserved":false,"is_disabled":false,"rental_uris":{"android":"levelo://app?vid=3f9429ce-0e2f-4adf-9908-c8a7985761c7","ios":"levelo://app?vid=3f9429ce-0e2f-4adf-9908-c8a7985761c7"},"vehicle_type_id":"4","last_reported":1702321544,"current_range_meters":27200,"station_id":"cki0cbj6b192h4jlfktg","pricing_plan_id":"free"},{"bike_id":"5ebb90df-6d62-4489-9f33-57bcc5fbd68c","system_id":"levelo_inurba_marseille","lat":43.286591,"lon":5.363346,"is_reserved":false,"is_disabled":false,"rental_uris":{"android":"levelo://app?vid=5ebb90df-6d62-4489-9f33-57bcc5fbd68c","ios":"levelo://app?vid=5ebb90df-6d62-4489-9f33-57bcc5fbd68c"},"vehicle_type_id":"4","last_reported":1702321544,"current_range_meters":27200,"station_id":"ce4bhah2rcd13ifvqej0","pricing_plan_id":"free"},{"bike_id":"31450edb-2ecb-43d9-b88d-80ffdf2b1441","system_id":"levelo_inurba_marseille","lat":43.29874,"lon":5.39737,"is_reserved":false,"is_disabled":false,"rental_uris":{"android":"levelo://app?vid=31450edb-2ecb-43d9-b88d-80ffdf2b1441","ios":"levelo://app?vid=31450edb-2ecb-43d9-b88d-80ffdf2b1441"},"vehicle_type_id":"4","last_reported":1702321544,"current_range_meters":10800,"station_id":"ce4bh0h2rcd13ifvqd50","pricing_plan_id":"free"},{"bike_id":"42e59e76-aba9-46eb-a5aa-b675072ca720","system_id":"levelo_inurba_marseille","lat":43.298681,"lon":5.397225,"is_reserved":false,"is_disabled":false,"rental_uris":{"android":"levelo://app?vid=42e59e76-aba9-46eb-a5aa-b675072ca720","ios":"levelo://app?vid=42e59e76-aba9-46eb-a5aa-b675072ca720"},"vehicle_type_id":"4","last_reported":1702321544,"current_range_meters":21600,"station_id":"ce4bh0h2rcd13ifvqd50","pricing_plan_id":"free"},{"bike_id":"de6efe4b-5a7e-439e-9c42-354e98640db6","system_id":"levelo_inurba_marseille","lat":43.295194,"lon":5.39397,"is_reserved":false,"is_disabled":false,"rental_uris":{"android":"levelo://app?vid=de6efe4b-5a7e-439e-9c42-354e98640db6","ios":"levelo://app?vid=de6efe4b-5a7e-439e-9c42-354e98640db6"},"vehicle_type_id":"4","last_reported":1702321544,"current_range_meters":26000,"station_id":"ce4bh292rcd13ifvqdf0","pricing_plan_id":"free"},{"bike_id":"e303afea-768c-4439-a2b9-a360ccd64d2c","system_id":"levelo_inurba_marseille","lat":43.29515,"lon":5.39408,"is_reserved":false,"is_disabled":false,"rental_uris":{"android":"levelo://app?vid=e303afea-768c-4439-a2b9-a360ccd64d2c","ios":"levelo://app?vid=e303afea-768c-4439-a2b9-a360ccd64d2c"},"vehicle_type_id":"4","last_reported":1702321544,"current_range_meters":0,"station_id":"ce4bh292rcd13ifvqdf0","pricing_plan_id":"free"},{"bike_id":"71747ed8-3b5b-425d-9c83-b5a1ef3bcb7d","system_id":"levelo_inurba_marseille","lat":43.295194,"lon":5.39397,"is_reserved":false,"is_disabled":false,"rental_uris":{"android":"levelo://app?vid=71747ed8-3b5b-425d-9c83-b5a1ef3bcb7d","ios":"levelo://app?vid=71747ed8-3b5b-425d-9c83-b5a1ef3bcb7d"},"vehicle_type_id":"4","last_reported":1702321544,"current_range_meters":0,"station_id":"ce4bh292rcd13ifvqdf0","pricing_plan_id":"free"},{"bike_id":"b044cd00-dc59-43e6-ac32-12ecf28927b1","system_id":"levelo_inurba_marseille","lat":43.29029,"lon":5.38627,"is_reserved":false,"is_disabled":false,"rental_uris":{"android":"levelo://app?vid=b044cd00-dc59-43e6-ac32-12ecf28927b1","ios":"levelo://app?vid=b044cd00-dc59-43e6-ac32-12ecf28927b1"},"vehicle_type_id":"4","last_reported":1702321544,"current_range_meters":0,"station_id":"ce4bh4p2rcd13ifvqe0g","pricing_plan_id":"free"},{"bike_id":"d9aace74-7c4a-4755-92b8-57ae652a3f80","system_id":"levelo_inurba_marseille","lat":43.29034,"lon":5.38639,"is_reserved":false,"is_disabled":false,"rental_uris":{"android":"levelo://app?vid=d9aace74-7c4a-4755-92b8-57ae652a3f80","ios":"levelo://app?vid=d9aace74-7c4a-4755-92b8-57ae652a3f80"},"vehicle_type_id":"4","last_reported":1702321544,"current_range_meters":0,"station_id":"ce4bh4p2rcd13ifvqe0g","pricing_plan_id":"free"},{"bike_id":"428d9bd0-b99b-42cd-91d0-ebee179e38cf","system_id":"levelo_inurba_marseille","lat":43.286039,"lon":5.370679,"is_reserved":false,"is_disabled":false,"rental_uris":{"android":"levelo://app?vid=428d9bd0-b99b-42cd-91d0-ebee179e38cf","ios":"levelo://app?vid=428d9bd0-b99b-42cd-91d0-ebee179e38cf"},"vehicle_type_id":"4","last_reported":1702321544,"current_range_meters":22800,"station_id":"ce4bht12rcd13ifvqi60","pricing_plan_id":"free"},{"bike_id":"87ee5285-1cf2-4e16-8ac2-df1648a386ee","system_id":"levelo_inurba_marseille","lat":43.291994,"lon":5.392907,"is_reserved":false,"is_disabled":false,"rental_uris":{"android":"levelo://app?vid=87ee5285-1cf2-4e16-8ac2-df1648a386ee","ios":"levelo://app?vid=87ee5285-1cf2-4e16-8ac2-df1648a386ee"},"vehicle_type_id":"4","last_reported":1702321544,"current_range_meters":17600,"station_id":"ce4bh192rcd13ifvqdd0","pricing_plan_id":"free"},{"bike_id":"ff87e69a-80ac-4c6c-9a15-ae17ff91f198","system_id":"levelo_inurba_marseille","lat":43.28616,"lon":5.35106,"is_reserved":false,"is_disabled":false,"rental_uris":{"android":"levelo://app?vid=ff87e69a-80ac-4c6c-9a15-ae17ff91f198","ios":"levelo://app?vid=ff87e69a-80ac-4c6c-9a15-ae17ff91f198"},"vehicle_type_id":"4","last_reported":1702321544,"current_range_meters":0,"station_id":"ce4bhch2rcd13ifvqeug","pricing_plan_id":"free"},{"bike_id":"a4ec76d4-b5d2-466e-8492-64aef71406c8","system_id":"levelo_inurba_marseille","lat":43.285848,"lon":5.350787,"is_reserved":false,"is_disabled":false,"rental_uris":{"android":"levelo://app?vid=a4ec76d4-b5d2-466e-8492-64aef71406c8","ios":"levelo://app?vid=a4ec76d4-b5d2-466e-8492-64aef71406c8"},"vehicle_type_id":"4","last_reported":1702321544,"current_range_meters":21600,"station_id":"ce4bhch2rcd13ifvqeug","pricing_plan_id":"free"},{"bike_id":"6d1885bf-915b-4323-8d7f-0a1ba1e4c02e","system_id":"levelo_inurba_marseille","lat":43.28614,"lon":5.35102,"is_reserved":false,"is_disabled":false,"rental_uris":{"android":"levelo://app?vid=6d1885bf-915b-4323-8d7f-0a1ba1e4c02e","ios":"levelo://app?vid=6d1885bf-915b-4323-8d7f-0a1ba1e4c02e"},"vehicle_type_id":"4","last_reported":1702321544,"current_range_meters":7200,"station_id":"ce4bhch2rcd13ifvqeug","pricing_plan_id":"free"},{"bike_id":"5dfacb90-5b21-495b-a953-c81def2e5c8e","system_id":"levelo_inurba_marseille","lat":43.28612,"lon":5.35104,"is_reserved":false,"is_disabled":false,"rental_uris":{"android":"levelo://app?vid=5dfacb90-5b21-495b-a953-c81def2e5c8e","ios":"levelo://app?vid=5dfacb90-5b21-495b-a953-c81def2e5c8e"},"vehicle_type_id":"4","last_reported":1702321544,"current_range_meters":30400,"station_id":"ce4bhch2rcd13ifvqeug","pricing_plan_id":"free"},{"bike_id":"97d8fcc7-4aef-45da-b019-c3d5381f038e","system_id":"levelo_inurba_marseille","lat":43.28611,"lon":5.35106,"is_reserved":false,"is_disabled":false,"rental_uris":{"android":"levelo://app?vid=97d8fcc7-4aef-45da-b019-c3d5381f038e","ios":"levelo://app?vid=97d8fcc7-4aef-45da-b019-c3d5381f038e"},"vehicle_type_id":"4","last_reported":1702321544,"current_range_meters":30000,"station_id":"ce4bhch2rcd13ifvqeug","pricing_plan_id":"free"},{"bike_id":"637f8f44-4edb-4766-889d-5414b3e5b11c","system_id":"levelo_inurba_marseille","lat":43.319179,"lon":5.407725,"is_reserved":false,"is_disabled":false,"rental_uris":{"android":"levelo://app?vid=637f8f44-4edb-4766-889d-5414b3e5b11c","ios":"levelo://app?vid=637f8f44-4edb-4766-889d-5414b3e5b11c"},"vehicle_type_id":"4","last_reported":1702321544,"current_range_meters":7200,"station_id":"ce4bhq12rcd13ifvqhig","pricing_plan_id":"free"},{"bike_id":"66cba741-1221-4d29-a72f-f4e0b2ba6a22","system_id":"levelo_inurba_marseille","lat":43.337168,"lon":5.391825,"is_reserved":false,"is_disabled":false,"rental_uris":{"android":"levelo://app?vid=66cba741-1221-4d29-a72f-f4e0b2ba6a22","ios":"levelo://app?vid=66cba741-1221-4d29-a72f-f4e0b2ba6a22"},"vehicle_type_id":"4","last_reported":1702321544,"current_range_meters":27600,"station_id":"ce4bhr92rcd13ifvqhsg","pricing_plan_id":"free"},{"bike_id":"6795b5ec-b108-446b-ae78-56580a5f05eb","system_id":"levelo_inurba_marseille","lat":43.297946,"lon":5.404063,"is_reserved":false,"is_disabled":false,"rental_uris":{"android":"levelo://app?vid=6795b5ec-b108-446b-ae78-56580a5f05eb","ios":"levelo://app?vid=6795b5ec-b108-446b-ae78-56580a5f05eb"},"vehicle_type_id":"4","last_reported":1702321544,"current_range_meters":14000,"station_id":"ce4bh112rcd13ifvqd90","pricing_plan_id":"free"},{"bike_id":"78a12ff7-adc0-4aff-b815-8b8dfc2c83c7","system_id":"levelo_inurba_marseille","lat":43.283498,"lon":5.380948,"is_reserved":false,"is_disabled":false,"rental_uris":{"android":"levelo://app?vid=78a12ff7-adc0-4aff-b815-8b8dfc2c83c7","ios":"levelo://app?vid=78a12ff7-adc0-4aff-b815-8b8dfc2c83c7"},"vehicle_type_id":"4","last_reported":1702321544,"current_range_meters":15200,"station_id":"ce4bh412rcd13ifvqdr0","pricing_plan_id":"free"},{"bike_id":"ae580ee0-516c-41dd-85d9-7b4cf4de99e6","system_id":"levelo_inurba_marseille","lat":43.284275,"lon":5.349883,"is_reserved":false,"is_disabled":false,"rental_uris":{"android":"levelo://app?vid=ae580ee0-516c-41dd-85d9-7b4cf4de99e6","ios":"levelo://app?vid=ae580ee0-516c-41dd-85d9-7b4cf4de99e6"},"vehicle_type_id":"4","last_reported":1702321544,"current_range_meters":27200,"station_id":"ce4bhbh2rcd13ifvqepg","pricing_plan_id":"free"},{"bike_id":"a6293421-2f53-4d22-b3a9-1a774e17b5cb","system_id":"levelo_inurba_marseille","lat":43.282754,"lon":5.350519,"is_reserved":false,"is_disabled":false,"rental_uris":{"android":"levelo://app?vid=a6293421-2f53-4d22-b3a9-1a774e17b5cb","ios":"levelo://app?vid=a6293421-2f53-4d22-b3a9-1a774e17b5cb"},"vehicle_type_id":"4","last_reported":1702321544,"current_range_meters":30400,"station_id":"ce4bhbp2rcd13ifvqerg","pricing_plan_id":"free"},{"bike_id":"1a755c5d-9b3c-4f8b-a5a3-2cb0e2abc85a","system_id":"levelo_inurba_marseille","lat":43.282754,"lon":5.350519,"is_reserved":false,"is_disabled":false,"rental_uris":{"android":"levelo://app?vid=1a755c5d-9b3c-4f8b-a5a3-2cb0e2abc85a","ios":"levelo://app?vid=1a755c5d-9b3c-4f8b-a5a3-2cb0e2abc85a"},"vehicle_type_id":"4","last_reported":1702321544,"current_range_meters":30800,"station_id":"ce4bhbp2rcd13ifvqerg","pricing_plan_id":"free"},{"bike_id":"3761c4b2-9870-4544-aced-d720a2c79b1c","system_id":"levelo_inurba_marseille","lat":43.282744,"lon":5.350533,"is_reserved":false,"is_disabled":false,"rental_uris":{"android":"levelo://app?vid=3761c4b2-9870-4544-aced-d720a2c79b1c","ios":"levelo://app?vid=3761c4b2-9870-4544-aced-d720a2c79b1c"},"vehicle_type_id":"4","last_reported":1702321544,"current_range_meters":10000,"station_id":"ce4bhbp2rcd13ifvqerg","pricing_plan_id":"free"},{"bike_id":"a9087632-d97b-4295-ac27-f172913e6205","system_id":"levelo_inurba_marseille","lat":43.280382,"lon":5.369291,"is_reserved":false,"is_disabled":false,"rental_uris":{"android":"levelo://app?vid=a9087632-d97b-4295-ac27-f172913e6205","ios":"levelo://app?vid=a9087632-d97b-4295-ac27-f172913e6205"},"vehicle_type_id":"4","last_reported":1702321544,"current_range_meters":29200,"station_id":"ce4bha12rcd13ifvqef0","pricing_plan_id":"free"},{"bike_id":"dbb32c68-89ea-42d5-9bbd-5de5751b5866","system_id":"levelo_inurba_marseille","lat":43.280382,"lon":5.369291,"is_reserved":false,"is_disabled":false,"rental_uris":{"android":"levelo://app?vid=dbb32c68-89ea-42d5-9bbd-5de5751b5866","ios":"levelo://app?vid=dbb32c68-89ea-42d5-9bbd-5de5751b5866"},"vehicle_type_id":"4","last_reported":1702321544,"current_range_meters":31200,"station_id":"ce4bha12rcd13ifvqef0","pricing_plan_id":"free"},{"bike_id":"4ee53fc3-95fe-4ec3-ae50-b9a8cd12442e","system_id":"levelo_inurba_marseille","lat":43.280382,"lon":5.369291,"is_reserved":false,"is_disabled":false,"rental_uris":{"android":"levelo://app?vid=4ee53fc3-95fe-4ec3-ae50-b9a8cd12442e","ios":"levelo://app?vid=4ee53fc3-95fe-4ec3-ae50-b9a8cd12442e"},"vehicle_type_id":"4","last_reported":1702321544,"current_range_meters":10000,"station_id":"ce4bha12rcd13ifvqef0","pricing_plan_id":"free"},{"bike_id":"797fb2a9-c5f1-4a4e-a4f7-191eaacb882b","system_id":"levelo_inurba_marseille","lat":43.281044,"lon":5.378308,"is_reserved":false,"is_disabled":false,"rental_uris":{"android":"levelo://app?vid=797fb2a9-c5f1-4a4e-a4f7-191eaacb882b","ios":"levelo://app?vid=797fb2a9-c5f1-4a4e-a4f7-191eaacb882b"},"vehicle_type_id":"4","last_reported":1702321544,"current_range_meters":20000,"station_id":"ce4bha12rcd13ifvqee0","pricing_plan_id":"free"},{"bike_id":"f3422150-1989-431f-a145-f86cd46d32f8","system_id":"levelo_inurba_marseille","lat":43.281044,"lon":5.378308,"is_reserved":false,"is_disabled":false,"rental_uris":{"android":"levelo://app?vid=f3422150-1989-431f-a145-f86cd46d32f8","ios":"levelo://app?vid=f3422150-1989-431f-a145-f86cd46d32f8"},"vehicle_type_id":"4","last_reported":1702321544,"current_range_meters":2800,"station_id":"ce4bha12rcd13ifvqee0","pricing_plan_id":"free"},{"bike_id":"48a99b63-f7d5-4782-a8c6-fa4d78f26f3c","system_id":"levelo_inurba_marseille","lat":43.281044,"lon":5.378308,"is_reserved":false,"is_disabled":false,"rental_uris":{"android":"levelo://app?vid=48a99b63-f7d5-4782-a8c6-fa4d78f26f3c","ios":"levelo://app?vid=48a99b63-f7d5-4782-a8c6-fa4d78f26f3c"},"vehicle_type_id":"4","last_reported":1702321544,"current_range_meters":11200,"station_id":"ce4bha12rcd13ifvqee0","pricing_plan_id":"free"},{"bike_id":"aa4ac0c8-3251-4954-b70d-99187e5600ce","system_id":"levelo_inurba_marseille","lat":43.281044,"lon":5.378308,"is_reserved":false,"is_disabled":false,"rental_uris":{"android":"levelo://app?vid=aa4ac0c8-3251-4954-b70d-99187e5600ce","ios":"levelo://app?vid=aa4ac0c8-3251-4954-b70d-99187e5600ce"},"vehicle_type_id":"4","last_reported":1702321544,"current_range_meters":20000,"station_id":"ce4bha12rcd13ifvqee0","pricing_plan_id":"free"},{"bike_id":"160bd7e5-05f6-43a1-9bc7-4629c7a42466","system_id":"levelo_inurba_marseille","lat":43.31328,"lon":5.41291,"is_reserved":false,"is_disabled":false,"rental_uris":{"android":"levelo://app?vid=160bd7e5-05f6-43a1-9bc7-4629c7a42466","ios":"levelo://app?vid=160bd7e5-05f6-43a1-9bc7-4629c7a42466"},"vehicle_type_id":"4","last_reported":1702321544,"current_range_meters":0,"station_id":"","pricing_plan_id":"free"},{"bike_id":"ca0896d5-fbf9-4d04-b56b-8eaac19eaec1","system_id":"levelo_inurba_marseille","lat":43.28565,"lon":5.39507,"is_reserved":false,"is_disabled":false,"rental_uris":{"android":"levelo://app?vid=ca0896d5-fbf9-4d04-b56b-8eaac19eaec1","ios":"levelo://app?vid=ca0896d5-fbf9-4d04-b56b-8eaac19eaec1"},"vehicle_type_id":"4","last_reported":1702321544,"current_range_meters":8000,"station_id":"ce4bh292rcd13ifvqdg0","pricing_plan_id":"free"},{"bike_id":"48a8bd84-0f83-4a63-9db3-cf97350227cf","system_id":"levelo_inurba_marseille","lat":43.304188,"lon":5.412904,"is_reserved":false,"is_disabled":false,"rental_uris":{"android":"levelo://app?vid=48a8bd84-0f83-4a63-9db3-cf97350227cf","ios":"levelo://app?vid=48a8bd84-0f83-4a63-9db3-cf97350227cf"},"vehicle_type_id":"4","last_reported":1702321544,"current_range_meters":23200,"station_id":"ce4bhop2rcd13ifvqh8g","pricing_plan_id":"free"},{"bike_id":"a5ccf812-c64f-4176-b0f3-da9c5f6628cf","system_id":"levelo_inurba_marseille","lat":43.304188,"lon":5.412904,"is_reserved":false,"is_disabled":false,"rental_uris":{"android":"levelo://app?vid=a5ccf812-c64f-4176-b0f3-da9c5f6628cf","ios":"levelo://app?vid=a5ccf812-c64f-4176-b0f3-da9c5f6628cf"},"vehicle_type_id":"4","last_reported":1702321544,"current_range_meters":31200,"station_id":"ce4bhop2rcd13ifvqh8g","pricing_plan_id":"free"},{"bike_id":"565bb42b-92a3-42e2-b867-1ad0276d93f8","system_id":"levelo_inurba_marseille","lat":43.279087,"lon":5.380114,"is_reserved":false,"is_disabled":false,"rental_uris":{"android":"levelo://app?vid=565bb42b-92a3-42e2-b867-1ad0276d93f8","ios":"levelo://app?vid=565bb42b-92a3-42e2-b867-1ad0276d93f8"},"vehicle_type_id":"4","last_reported":1702321544,"current_range_meters":4400,"station_id":"ce4bhf92rcd13ifvqf50","pricing_plan_id":"free"},{"bike_id":"6fb8f4a4-cdd0-46ea-b580-25834986fb08","system_id":"levelo_inurba_marseille","lat":43.287154,"lon":5.399979,"is_reserved":false,"is_disabled":false,"rental_uris":{"android":"levelo://app?vid=6fb8f4a4-cdd0-46ea-b580-25834986fb08","ios":"levelo://app?vid=6fb8f4a4-cdd0-46ea-b580-25834986fb08"},"vehicle_type_id":"4","last_reported":1702321544,"current_range_meters":17200,"station_id":"ce4bho92rcd13ifvqh3g","pricing_plan_id":"free"},{"bike_id":"097c3e67-493b-400b-9c39-1d8a701d9efc","system_id":"levelo_inurba_marseille","lat":43.320045,"lon":5.415048,"is_reserved":false,"is_disabled":false,"rental_uris":{"android":"levelo://app?vid=097c3e67-493b-400b-9c39-1d8a701d9efc","ios":"levelo://app?vid=097c3e67-493b-400b-9c39-1d8a701d9efc"},"vehicle_type_id":"4","last_reported":1702321544,"current_range_meters":25600,"station_id":"ce4bhq92rcd13ifvqhkg","pricing_plan_id":"free"},{"bike_id":"96e313b2-29cc-4bd6-8362-cd98db3a2d00","system_id":"levelo_inurba_marseille","lat":43.320045,"lon":5.415046,"is_reserved":false,"is_disabled":false,"rental_uris":{"android":"levelo://app?vid=96e313b2-29cc-4bd6-8362-cd98db3a2d00","ios":"levelo://app?vid=96e313b2-29cc-4bd6-8362-cd98db3a2d00"},"vehicle_type_id":"4","last_reported":1702321544,"current_range_meters":23200,"station_id":"ce4bhq92rcd13ifvqhkg","pricing_plan_id":"free"},{"bike_id":"0affd34a-26a3-4b23-9979-f74eada3d752","system_id":"levelo_inurba_marseille","lat":43.276179,"lon":5.361009,"is_reserved":false,"is_disabled":false,"rental_uris":{"android":"levelo://app?vid=0affd34a-26a3-4b23-9979-f74eada3d752","ios":"levelo://app?vid=0affd34a-26a3-4b23-9979-f74eada3d752"},"vehicle_type_id":"4","last_reported":1702321544,"current_range_meters":16000,"station_id":"ce4bgj92rcd13ifvqbe0","pricing_plan_id":"free"},{"bike_id":"085b0029-6aa3-46ef-a837-c50a7a1bfff8","system_id":"levelo_inurba_marseille","lat":43.292569,"lon":5.409107,"is_reserved":false,"is_disabled":false,"rental_uris":{"android":"levelo://app?vid=085b0029-6aa3-46ef-a837-c50a7a1bfff8","ios":"levelo://app?vid=085b0029-6aa3-46ef-a837-c50a7a1bfff8"},"vehicle_type_id":"4","last_reported":1702321544,"current_range_meters":23600,"station_id":"ce4bh192rcd13ifvqdc0","pricing_plan_id":"free"},{"bike_id":"2311aaf9-3908-4009-b838-0e5f77c6048a","system_id":"levelo_inurba_marseille","lat":43.2762,"lon":5.36108,"is_reserved":false,"is_disabled":false,"rental_uris":{"android":"levelo://app?vid=2311aaf9-3908-4009-b838-0e5f77c6048a","ios":"levelo://app?vid=2311aaf9-3908-4009-b838-0e5f77c6048a"},"vehicle_type_id":"4","last_reported":1702321544,"current_range_meters":11600,"station_id":"ce4bgj92rcd13ifvqbe0","pricing_plan_id":"free"},{"bike_id":"d2d1a980-81d0-4b43-a286-ebecc7be733a","system_id":"levelo_inurba_marseille","lat":43.27618,"lon":5.36117,"is_reserved":false,"is_disabled":false,"rental_uris":{"android":"levelo://app?vid=d2d1a980-81d0-4b43-a286-ebecc7be733a","ios":"levelo://app?vid=d2d1a980-81d0-4b43-a286-ebecc7be733a"},"vehicle_type_id":"4","last_reported":1702321544,"current_range_meters":24800,"station_id":"ce4bgj92rcd13ifvqbe0","pricing_plan_id":"free"},{"bike_id":"6fb7d017-b245-43a0-8373-a842d3457d15","system_id":"levelo_inurba_marseille","lat":43.286945,"lon":5.406062,"is_reserved":false,"is_disabled":false,"rental_uris":{"android":"levelo://app?vid=6fb7d017-b245-43a0-8373-a842d3457d15","ios":"levelo://app?vid=6fb7d017-b245-43a0-8373-a842d3457d15"},"vehicle_type_id":"4","last_reported":1702321544,"current_range_meters":6400,"station_id":"","pricing_plan_id":"free"},{"bike_id":"1693a328-ca0b-4712-ba8d-cbd8735e7a7b","system_id":"levelo_inurba_marseille","lat":43.278401,"lon":5.392152,"is_reserved":false,"is_disabled":false,"rental_uris":{"android":"levelo://app?vid=1693a328-ca0b-4712-ba8d-cbd8735e7a7b","ios":"levelo://app?vid=1693a328-ca0b-4712-ba8d-cbd8735e7a7b"},"vehicle_type_id":"4","last_reported":1702321544,"current_range_meters":11600,"station_id":"ce4bhjp2rcd13ifvqga0","pricing_plan_id":"free"},{"bike_id":"c1d7cf0e-5e78-4e85-9d29-98a27f7222c2","system_id":"levelo_inurba_marseille","lat":43.278401,"lon":5.392152,"is_reserved":false,"is_disabled":false,"rental_uris":{"android":"levelo://app?vid=c1d7cf0e-5e78-4e85-9d29-98a27f7222c2","ios":"levelo://app?vid=c1d7cf0e-5e78-4e85-9d29-98a27f7222c2"},"vehicle_type_id":"4","last_reported":1702321544,"current_range_meters":2000,"station_id":"ce4bhjp2rcd13ifvqga0","pricing_plan_id":"free"},{"bike_id":"9ea10af0-3940-4224-a189-633a8d8b6409","system_id":"levelo_inurba_marseille","lat":43.273613,"lon":5.362705,"is_reserved":false,"is_disabled":false,"rental_uris":{"android":"levelo://app?vid=9ea10af0-3940-4224-a189-633a8d8b6409","ios":"levelo://app?vid=9ea10af0-3940-4224-a189-633a8d8b6409"},"vehicle_type_id":"4","last_reported":1702321544,"current_range_meters":4400,"station_id":"ce4bhbh2rcd13ifvqeo0","pricing_plan_id":"free"},{"bike_id":"f0f1d3da-4cda-4f13-8ae9-14a48d58c7f0","system_id":"levelo_inurba_marseille","lat":43.336148,"lon":5.410349,"is_reserved":false,"is_disabled":false,"rental_uris":{"android":"levelo://app?vid=f0f1d3da-4cda-4f13-8ae9-14a48d58c7f0","ios":"levelo://app?vid=f0f1d3da-4cda-4f13-8ae9-14a48d58c7f0"},"vehicle_type_id":"4","last_reported":1702321544,"current_range_meters":21200,"station_id":"ce4bhqh2rcd13ifvqhmg","pricing_plan_id":"free"},{"bike_id":"f553c66d-a2a5-46af-bc39-559aec22b601","system_id":"levelo_inurba_marseille","lat":43.336148,"lon":5.410349,"is_reserved":false,"is_disabled":false,"rental_uris":{"android":"levelo://app?vid=f553c66d-a2a5-46af-bc39-559aec22b601","ios":"levelo://app?vid=f553c66d-a2a5-46af-bc39-559aec22b601"},"vehicle_type_id":"4","last_reported":1702321544,"current_range_meters":1600,"station_id":"ce4bhqh2rcd13ifvqhmg","pricing_plan_id":"free"},{"bike_id":"b1c028eb-0fe1-4afa-b35c-b9783a0e9537","system_id":"levelo_inurba_marseille","lat":43.31723,"lon":5.42405,"is_reserved":false,"is_disabled":false,"rental_uris":{"android":"levelo://app?vid=b1c028eb-0fe1-4afa-b35c-b9783a0e9537","ios":"levelo://app?vid=b1c028eb-0fe1-4afa-b35c-b9783a0e9537"},"vehicle_type_id":"4","last_reported":1702321544,"current_range_meters":8400,"station_id":"ce4bhp92rcd13ifvqhbg","pricing_plan_id":"free"},{"bike_id":"60028bd0-d6d1-4701-b5c6-9f4db0fb3489","system_id":"levelo_inurba_marseille","lat":43.340804,"lon":5.410219,"is_reserved":false,"is_disabled":false,"rental_uris":{"android":"levelo://app?vid=60028bd0-d6d1-4701-b5c6-9f4db0fb3489","ios":"levelo://app?vid=60028bd0-d6d1-4701-b5c6-9f4db0fb3489"},"vehicle_type_id":"4","last_reported":1702321544,"current_range_meters":31200,"station_id":"ce4bhqh2rcd13ifvqhlg","pricing_plan_id":"free"},{"bike_id":"5a1ce695-458e-415a-94e9-0d5381bac3c6","system_id":"levelo_inurba_marseille","lat":43.295523,"lon":5.422926,"is_reserved":false,"is_disabled":false,"rental_uris":{"android":"levelo://app?vid=5a1ce695-458e-415a-94e9-0d5381bac3c6","ios":"levelo://app?vid=5a1ce695-458e-415a-94e9-0d5381bac3c6"},"vehicle_type_id":"4","last_reported":1702321544,"current_range_meters":11200,"station_id":"ce4bhph2rcd13ifvqhdg","pricing_plan_id":"free"},{"bike_id":"114ed9a0-f405-4e5a-8abc-a36515ad57b3","system_id":"levelo_inurba_marseille","lat":43.27214,"lon":5.39234,"is_reserved":false,"is_disabled":false,"rental_uris":{"android":"levelo://app?vid=114ed9a0-f405-4e5a-8abc-a36515ad57b3","ios":"levelo://app?vid=114ed9a0-f405-4e5a-8abc-a36515ad57b3"},"vehicle_type_id":"4","last_reported":1702321544,"current_range_meters":22800,"station_id":"ce4bhhp2rcd13ifvqfm0","pricing_plan_id":"free"},{"bike_id":"629197af-30a4-4732-afe0-3c712ab8a4ce","system_id":"levelo_inurba_marseille","lat":43.27952,"lon":5.41042,"is_reserved":false,"is_disabled":false,"rental_uris":{"android":"levelo://app?vid=629197af-30a4-4732-afe0-3c712ab8a4ce","ios":"levelo://app?vid=629197af-30a4-4732-afe0-3c712ab8a4ce"},"vehicle_type_id":"4","last_reported":1702321544,"current_range_meters":28400,"station_id":"ce4bhnp2rcd13ifvqh0g","pricing_plan_id":"free"},{"bike_id":"048a7c17-97c6-4e8b-b365-1d7721c101c5","system_id":"levelo_inurba_marseille","lat":43.27942,"lon":5.41042,"is_reserved":false,"is_disabled":false,"rental_uris":{"android":"levelo://app?vid=048a7c17-97c6-4e8b-b365-1d7721c101c5","ios":"levelo://app?vid=048a7c17-97c6-4e8b-b365-1d7721c101c5"},"vehicle_type_id":"4","last_reported":1702321544,"current_range_meters":8800,"station_id":"ce4bhnp2rcd13ifvqh0g","pricing_plan_id":"free"},{"bike_id":"0240cab8-bec4-4c9f-a23d-586451991ef9","system_id":"levelo_inurba_marseille","lat":43.261782,"lon":5.374515,"is_reserved":false,"is_disabled":false,"rental_uris":{"android":"levelo://app?vid=0240cab8-bec4-4c9f-a23d-586451991ef9","ios":"levelo://app?vid=0240cab8-bec4-4c9f-a23d-586451991ef9"},"vehicle_type_id":"4","last_reported":1702321544,"current_range_meters":21600,"station_id":"ce4bhgp2rcd13ifvqfc0","pricing_plan_id":"free"},{"bike_id":"a03e149c-2e58-4b2b-b1d1-a755b36137b9","system_id":"levelo_inurba_marseille","lat":43.265714,"lon":5.372891,"is_reserved":false,"is_disabled":false,"rental_uris":{"android":"levelo://app?vid=a03e149c-2e58-4b2b-b1d1-a755b36137b9","ios":"levelo://app?vid=a03e149c-2e58-4b2b-b1d1-a755b36137b9"},"vehicle_type_id":"4","last_reported":1702321544,"current_range_meters":20000,"station_id":"ce4bhg12rcd13ifvqf70","pricing_plan_id":"free"},{"bike_id":"774d8826-9b6b-4e36-beab-8a13dfa9a69a","system_id":"levelo_inurba_marseille","lat":43.27996,"lon":5.416624,"is_reserved":false,"is_disabled":false,"rental_uris":{"android":"levelo://app?vid=774d8826-9b6b-4e36-beab-8a13dfa9a69a","ios":"levelo://app?vid=774d8826-9b6b-4e36-beab-8a13dfa9a69a"},"vehicle_type_id":"4","last_reported":1702321544,"current_range_meters":12000,"station_id":"ce4bho12rcd13ifvqh1g","pricing_plan_id":"free"},{"bike_id":"ec5ef604-2048-4751-b1a1-3a6f0586d1d7","system_id":"levelo_inurba_marseille","lat":43.27996,"lon":5.416624,"is_reserved":false,"is_disabled":false,"rental_uris":{"android":"levelo://app?vid=ec5ef604-2048-4751-b1a1-3a6f0586d1d7","ios":"levelo://app?vid=ec5ef604-2048-4751-b1a1-3a6f0586d1d7"},"vehicle_type_id":"4","last_reported":1702321544,"current_range_meters":10000,"station_id":"ce4bho12rcd13ifvqh1g","pricing_plan_id":"free"},{"bike_id":"ae9f7a61-f7a4-4516-a1f3-b214e8f2b077","system_id":"levelo_inurba_marseille","lat":43.265569,"lon":5.390047,"is_reserved":false,"is_disabled":false,"rental_uris":{"android":"levelo://app?vid=ae9f7a61-f7a4-4516-a1f3-b214e8f2b077","ios":"levelo://app?vid=ae9f7a61-f7a4-4516-a1f3-b214e8f2b077"},"vehicle_type_id":"4","last_reported":1702321544,"current_range_meters":1200,"station_id":"ce4bhe12rcd13ifvqf30","pricing_plan_id":"free"},{"bike_id":"35e837b0-217c-443b-973d-dffcb9177aa2","system_id":"levelo_inurba_marseille","lat":43.26564,"lon":5.38996,"is_reserved":false,"is_disabled":false,"rental_uris":{"android":"levelo://app?vid=35e837b0-217c-443b-973d-dffcb9177aa2","ios":"levelo://app?vid=35e837b0-217c-443b-973d-dffcb9177aa2"},"vehicle_type_id":"4","last_reported":1702321544,"current_range_meters":0,"station_id":"ce4bhe12rcd13ifvqf30","pricing_plan_id":"free"},{"bike_id":"a4c2e866-1ad6-4353-a4f2-cb755e151f55","system_id":"levelo_inurba_marseille","lat":43.26324,"lon":5.37682,"is_reserved":false,"is_disabled":false,"rental_uris":{"android":"levelo://app?vid=a4c2e866-1ad6-4353-a4f2-cb755e151f55","ios":"levelo://app?vid=a4c2e866-1ad6-4353-a4f2-cb755e151f55"},"vehicle_type_id":"4","last_reported":1702321544,"current_range_meters":13600,"station_id":"","pricing_plan_id":"free"},{"bike_id":"cdd036f6-7ea5-4424-b6f3-3af93ebb2fa0","system_id":"levelo_inurba_marseille","lat":43.317104,"lon":5.436818,"is_reserved":false,"is_disabled":false,"rental_uris":{"android":"levelo://app?vid=cdd036f6-7ea5-4424-b6f3-3af93ebb2fa0","ios":"levelo://app?vid=cdd036f6-7ea5-4424-b6f3-3af93ebb2fa0"},"vehicle_type_id":"4","last_reported":1702321544,"current_range_meters":31600,"station_id":"ce4bhp92rcd13ifvqhcg","pricing_plan_id":"free"},{"bike_id":"4ee2ebe4-ccab-47af-b669-1b687cc9fb82","system_id":"levelo_inurba_marseille","lat":43.317104,"lon":5.436818,"is_reserved":false,"is_disabled":false,"rental_uris":{"android":"levelo://app?vid=4ee2ebe4-ccab-47af-b669-1b687cc9fb82","ios":"levelo://app?vid=4ee2ebe4-ccab-47af-b669-1b687cc9fb82"},"vehicle_type_id":"4","last_reported":1702321544,"current_range_meters":21600,"station_id":"ce4bhp92rcd13ifvqhcg","pricing_plan_id":"free"},{"bike_id":"37645cb8-5c24-41ba-b0d3-f9e32e3bff51","system_id":"levelo_inurba_marseille","lat":43.317104,"lon":5.436818,"is_reserved":false,"is_disabled":false,"rental_uris":{"android":"levelo://app?vid=37645cb8-5c24-41ba-b0d3-f9e32e3bff51","ios":"levelo://app?vid=37645cb8-5c24-41ba-b0d3-f9e32e3bff51"},"vehicle_type_id":"4","last_reported":1702321544,"current_range_meters":31600,"station_id":"ce4bhp92rcd13ifvqhcg","pricing_plan_id":"free"},{"bike_id":"b92766f5-37db-4784-a82e-6d4366a86aae","system_id":"levelo_inurba_marseille","lat":43.267959,"lon":5.402687,"is_reserved":false,"is_disabled":false,"rental_uris":{"android":"levelo://app?vid=b92766f5-37db-4784-a82e-6d4366a86aae","ios":"levelo://app?vid=b92766f5-37db-4784-a82e-6d4366a86aae"},"vehicle_type_id":"4","last_reported":1702321544,"current_range_meters":12800,"station_id":"ce501612rcd8frsf0b60","pricing_plan_id":"free"},{"bike_id":"4e6e4a4d-e00f-4453-991c-edd03f91627b","system_id":"levelo_inurba_marseille","lat":43.27701,"lon":5.41984,"is_reserved":false,"is_disabled":false,"rental_uris":{"android":"levelo://app?vid=4e6e4a4d-e00f-4453-991c-edd03f91627b","ios":"levelo://app?vid=4e6e4a4d-e00f-4453-991c-edd03f91627b"},"vehicle_type_id":"4","last_reported":1702321544,"current_range_meters":0,"station_id":"","pricing_plan_id":"free"},{"bike_id":"7ef0e874-4d14-4db6-97d3-23537a85b219","system_id":"levelo_inurba_marseille","lat":43.298768,"lon":5.43643,"is_reserved":false,"is_disabled":false,"rental_uris":{"android":"levelo://app?vid=7ef0e874-4d14-4db6-97d3-23537a85b219","ios":"levelo://app?vid=7ef0e874-4d14-4db6-97d3-23537a85b219"},"vehicle_type_id":"4","last_reported":1702321544,"current_range_meters":28000,"station_id":"ce4bhpp2rcd13ifvqhfg","pricing_plan_id":"free"},{"bike_id":"180bf347-93f7-4d14-a727-4021a2dbeb7d","system_id":"levelo_inurba_marseille","lat":43.2814,"lon":5.42998,"is_reserved":false,"is_disabled":false,"rental_uris":{"android":"levelo://app?vid=180bf347-93f7-4d14-a727-4021a2dbeb7d","ios":"levelo://app?vid=180bf347-93f7-4d14-a727-4021a2dbeb7d"},"vehicle_type_id":"4","last_reported":1702321544,"current_range_meters":13600,"station_id":"","pricing_plan_id":"free"},{"bike_id":"53819856-ede5-4fde-bd18-7e773325882d","system_id":"levelo_inurba_marseille","lat":43.2607,"lon":5.393983,"is_reserved":false,"is_disabled":false,"rental_uris":{"android":"levelo://app?vid=53819856-ede5-4fde-bd18-7e773325882d","ios":"levelo://app?vid=53819856-ede5-4fde-bd18-7e773325882d"},"vehicle_type_id":"4","last_reported":1702321544,"current_range_meters":12000,"station_id":"ce4bhh92rcd13ifvqfj0","pricing_plan_id":"free"},{"bike_id":"3f9ae87e-4631-4744-b0b7-b2163a8ee7aa","system_id":"levelo_inurba_marseille","lat":43.26068,"lon":5.39399,"is_reserved":false,"is_disabled":false,"rental_uris":{"android":"levelo://app?vid=3f9ae87e-4631-4744-b0b7-b2163a8ee7aa","ios":"levelo://app?vid=3f9ae87e-4631-4744-b0b7-b2163a8ee7aa"},"vehicle_type_id":"4","last_reported":1702321544,"current_range_meters":20000,"station_id":"ce4bhh92rcd13ifvqfj0","pricing_plan_id":"free"},{"bike_id":"f5a209d3-0717-4b22-8548-a98dcfce4bd1","system_id":"levelo_inurba_marseille","lat":43.2607,"lon":5.393983,"is_reserved":false,"is_disabled":false,"rental_uris":{"android":"levelo://app?vid=f5a209d3-0717-4b22-8548-a98dcfce4bd1","ios":"levelo://app?vid=f5a209d3-0717-4b22-8548-a98dcfce4bd1"},"vehicle_type_id":"4","last_reported":1702321544,"current_range_meters":29600,"station_id":"ce4bhh92rcd13ifvqfj0","pricing_plan_id":"free"},{"bike_id":"2904fadb-7bd9-4958-ab41-36e416d618b9","system_id":"levelo_inurba_marseille","lat":43.275028,"lon":5.424534,"is_reserved":false,"is_disabled":false,"rental_uris":{"android":"levelo://app?vid=2904fadb-7bd9-4958-ab41-36e416d618b9","ios":"levelo://app?vid=2904fadb-7bd9-4958-ab41-36e416d618b9"},"vehicle_type_id":"4","last_reported":1702321544,"current_range_meters":24000,"station_id":"ce4bhn92rcd13ifvqgrg","pricing_plan_id":"free"},{"bike_id":"e4103ba2-0ccc-42b5-89f1-8eea54ae58d2","system_id":"levelo_inurba_marseille","lat":43.255798,"lon":5.382319,"is_reserved":false,"is_disabled":false,"rental_uris":{"android":"levelo://app?vid=e4103ba2-0ccc-42b5-89f1-8eea54ae58d2","ios":"levelo://app?vid=e4103ba2-0ccc-42b5-89f1-8eea54ae58d2"},"vehicle_type_id":"4","last_reported":1702321544,"current_range_meters":13200,"station_id":"","pricing_plan_id":"free"},{"bike_id":"61034ff8-7d10-49f7-b8ca-abab78a4d81d","system_id":"levelo_inurba_marseille","lat":43.258224,"lon":5.394369,"is_reserved":false,"is_disabled":false,"rental_uris":{"android":"levelo://app?vid=61034ff8-7d10-49f7-b8ca-abab78a4d81d","ios":"levelo://app?vid=61034ff8-7d10-49f7-b8ca-abab78a4d81d"},"vehicle_type_id":"4","last_reported":1702321544,"current_range_meters":27200,"station_id":"ce4bhip2rcd13ifvqft0","pricing_plan_id":"free"},{"bike_id":"ec4216fa-4a87-43a2-beab-a562285d9489","system_id":"levelo_inurba_marseille","lat":43.255755,"lon":5.38232,"is_reserved":false,"is_disabled":false,"rental_uris":{"android":"levelo://app?vid=ec4216fa-4a87-43a2-beab-a562285d9489","ios":"levelo://app?vid=ec4216fa-4a87-43a2-beab-a562285d9489"},"vehicle_type_id":"4","last_reported":1702321544,"current_range_meters":8000,"station_id":"ce4bhih2rcd13ifvqfs0","pricing_plan_id":"free"},{"bike_id":"300a57d1-2c7a-41e5-a2f0-2a76cce5ca43","system_id":"levelo_inurba_marseille","lat":43.254947,"lon":5.376454,"is_reserved":false,"is_disabled":false,"rental_uris":{"android":"levelo://app?vid=300a57d1-2c7a-41e5-a2f0-2a76cce5ca43","ios":"levelo://app?vid=300a57d1-2c7a-41e5-a2f0-2a76cce5ca43"},"vehicle_type_id":"4","last_reported":1702321544,"current_range_meters":17200,"station_id":"ce4bhh12rcd13ifvqff0","pricing_plan_id":"free"},{"bike_id":"463668ea-b294-4421-824a-c4df85b1e87b","system_id":"levelo_inurba_marseille","lat":43.27069,"lon":5.42275,"is_reserved":false,"is_disabled":false,"rental_uris":{"android":"levelo://app?vid=463668ea-b294-4421-824a-c4df85b1e87b","ios":"levelo://app?vid=463668ea-b294-4421-824a-c4df85b1e87b"},"vehicle_type_id":"4","last_reported":1702321544,"current_range_meters":16800,"station_id":"ce4bhk92rcd13ifvqgb0","pricing_plan_id":"free"},{"bike_id":"771e4b50-7a5b-458d-be86-4a87aaf8edac","system_id":"levelo_inurba_marseille","lat":43.270721,"lon":5.422764,"is_reserved":false,"is_disabled":false,"rental_uris":{"android":"levelo://app?vid=771e4b50-7a5b-458d-be86-4a87aaf8edac","ios":"levelo://app?vid=771e4b50-7a5b-458d-be86-4a87aaf8edac"},"vehicle_type_id":"4","last_reported":1702321544,"current_range_meters":8800,"station_id":"ce4bhk92rcd13ifvqgb0","pricing_plan_id":"free"},{"bike_id":"9b2baf69-de06-4dfb-87a5-841684583b4f","system_id":"levelo_inurba_marseille","lat":43.258658,"lon":5.398935,"is_reserved":false,"is_disabled":false,"rental_uris":{"android":"levelo://app?vid=9b2baf69-de06-4dfb-87a5-841684583b4f","ios":"levelo://app?vid=9b2baf69-de06-4dfb-87a5-841684583b4f"},"vehicle_type_id":"4","last_reported":1702321544,"current_range_meters":28800,"station_id":"ce4bhl92rcd13ifvqghg","pricing_plan_id":"free"},{"bike_id":"8bfba5f0-6d02-4058-854b-b88f3097ad8f","system_id":"levelo_inurba_marseille","lat":43.25709,"lon":5.41124,"is_reserved":false,"is_disabled":false,"rental_uris":{"android":"levelo://app?vid=8bfba5f0-6d02-4058-854b-b88f3097ad8f","ios":"levelo://app?vid=8bfba5f0-6d02-4058-854b-b88f3097ad8f"},"vehicle_type_id":"4","last_reported":1702321544,"current_range_meters":9200,"station_id":"ce4bhkp2rcd13ifvqgd0","pricing_plan_id":"free"},{"bike_id":"2814f471-c9c3-4376-bd65-113afd3172d1","system_id":"levelo_inurba_marseille","lat":43.250009,"lon":5.389195,"is_reserved":false,"is_disabled":false,"rental_uris":{"android":"levelo://app?vid=2814f471-c9c3-4376-bd65-113afd3172d1","ios":"levelo://app?vid=2814f471-c9c3-4376-bd65-113afd3172d1"},"vehicle_type_id":"4","last_reported":1702321544,"current_range_meters":0,"station_id":"ce4bhgp2rcd13ifvqfd0","pricing_plan_id":"free"},{"bike_id":"35c3f807-24e7-4171-8112-6d272f635dd8","system_id":"levelo_inurba_marseille","lat":43.250966,"lon":5.395186,"is_reserved":false,"is_disabled":false,"rental_uris":{"android":"levelo://app?vid=35c3f807-24e7-4171-8112-6d272f635dd8","ios":"levelo://app?vid=35c3f807-24e7-4171-8112-6d272f635dd8"},"vehicle_type_id":"4","last_reported":1702321544,"current_range_meters":17200,"station_id":"ce4bhm12rcd13ifvqgkg","pricing_plan_id":"free"},{"bike_id":"38b4cd2c-761d-4649-bb6d-f9c768efe7ee","system_id":"levelo_inurba_marseille","lat":43.24662,"lon":5.38161,"is_reserved":false,"is_disabled":false,"rental_uris":{"android":"levelo://app?vid=38b4cd2c-761d-4649-bb6d-f9c768efe7ee","ios":"levelo://app?vid=38b4cd2c-761d-4649-bb6d-f9c768efe7ee"},"vehicle_type_id":"4","last_reported":1702321544,"current_range_meters":17200,"station_id":"ce4bhih2rcd13ifvqfr0","pricing_plan_id":"free"},{"bike_id":"69fc94e6-d1dc-4eac-bba9-0be2d0c272a6","system_id":"levelo_inurba_marseille","lat":43.24693,"lon":5.382096,"is_reserved":false,"is_disabled":false,"rental_uris":{"android":"levelo://app?vid=69fc94e6-d1dc-4eac-bba9-0be2d0c272a6","ios":"levelo://app?vid=69fc94e6-d1dc-4eac-bba9-0be2d0c272a6"},"vehicle_type_id":"4","last_reported":1702321544,"current_range_meters":29600,"station_id":"ce4bhih2rcd13ifvqfr0","pricing_plan_id":"free"},{"bike_id":"f4588111-1227-4534-b015-bccd133ee10d","system_id":"levelo_inurba_marseille","lat":43.25102,"lon":5.403214,"is_reserved":false,"is_disabled":false,"rental_uris":{"android":"levelo://app?vid=f4588111-1227-4534-b015-bccd133ee10d","ios":"levelo://app?vid=f4588111-1227-4534-b015-bccd133ee10d"},"vehicle_type_id":"4","last_reported":1702321544,"current_range_meters":12000,"station_id":"ce4bhlh2rcd13ifvqgig","pricing_plan_id":"free"},{"bike_id":"dd69e898-52c6-418e-b21e-097101f6a40a","system_id":"levelo_inurba_marseille","lat":43.246461,"lon":5.389014,"is_reserved":false,"is_disabled":false,"rental_uris":{"android":"levelo://app?vid=dd69e898-52c6-418e-b21e-097101f6a40a","ios":"levelo://app?vid=dd69e898-52c6-418e-b21e-097101f6a40a"},"vehicle_type_id":"4","last_reported":1702321544,"current_range_meters":24000,"station_id":"ce4bhg12rcd13ifvqf60","pricing_plan_id":"free"},{"bike_id":"9dfdad3c-bc13-425b-a56c-9a6d9858c019","system_id":"levelo_inurba_marseille","lat":43.246461,"lon":5.389014,"is_reserved":false,"is_disabled":false,"rental_uris":{"android":"levelo://app?vid=9dfdad3c-bc13-425b-a56c-9a6d9858c019","ios":"levelo://app?vid=9dfdad3c-bc13-425b-a56c-9a6d9858c019"},"vehicle_type_id":"4","last_reported":1702321544,"current_range_meters":10400,"station_id":"ce4bhg12rcd13ifvqf60","pricing_plan_id":"free"},{"bike_id":"9bafcb8a-3ff6-45dc-8786-56a5cc99b7fb","system_id":"levelo_inurba_marseille","lat":43.246467,"lon":5.388984,"is_reserved":false,"is_disabled":false,"rental_uris":{"android":"levelo://app?vid=9bafcb8a-3ff6-45dc-8786-56a5cc99b7fb","ios":"levelo://app?vid=9bafcb8a-3ff6-45dc-8786-56a5cc99b7fb"},"vehicle_type_id":"4","last_reported":1702321544,"current_range_meters":18000,"station_id":"ce4bhg12rcd13ifvqf60","pricing_plan_id":"free"},{"bike_id":"e86d0a4b-64dc-4fa5-9e8f-a8481a5fe76c","system_id":"levelo_inurba_marseille","lat":43.243884,"lon":5.370737,"is_reserved":false,"is_disabled":false,"rental_uris":{"android":"levelo://app?vid=e86d0a4b-64dc-4fa5-9e8f-a8481a5fe76c","ios":"levelo://app?vid=e86d0a4b-64dc-4fa5-9e8f-a8481a5fe76c"},"vehicle_type_id":"4","last_reported":1702321544,"current_range_meters":16800,"station_id":"ce4bhhh2rcd13ifvqfk0","pricing_plan_id":"free"},{"bike_id":"846961d7-979a-4ad3-956d-a81bed603614","system_id":"levelo_inurba_marseille","lat":43.2464,"lon":5.39657,"is_reserved":false,"is_disabled":false,"rental_uris":{"android":"levelo://app?vid=846961d7-979a-4ad3-956d-a81bed603614","ios":"levelo://app?vid=846961d7-979a-4ad3-956d-a81bed603614"},"vehicle_type_id":"4","last_reported":1702321544,"current_range_meters":1200,"station_id":"","pricing_plan_id":"free"},{"bike_id":"d4d19d3c-b26b-4e6d-a71b-570ff31270a7","system_id":"levelo_inurba_marseille","lat":43.245581,"lon":5.395069,"is_reserved":false,"is_disabled":false,"rental_uris":{"android":"levelo://app?vid=d4d19d3c-b26b-4e6d-a71b-570ff31270a7","ios":"levelo://app?vid=d4d19d3c-b26b-4e6d-a71b-570ff31270a7"},"vehicle_type_id":"4","last_reported":1702321544,"current_range_meters":16400,"station_id":"ce4bhlp2rcd13ifvqgjg","pricing_plan_id":"free"},{"bike_id":"3d20a4f9-fd9a-4195-9730-2efe2bc7ba8f","system_id":"levelo_inurba_marseille","lat":43.23195,"lon":5.35548,"is_reserved":false,"is_disabled":false,"rental_uris":{"android":"levelo://app?vid=3d20a4f9-fd9a-4195-9730-2efe2bc7ba8f","ios":"levelo://app?vid=3d20a4f9-fd9a-4195-9730-2efe2bc7ba8f"},"vehicle_type_id":"4","last_reported":1702321544,"current_range_meters":4800,"station_id":"ce4bhu92rcd13ifvqi70","pricing_plan_id":"free"},{"bike_id":"7efde648-b79c-43fb-b372-b364c0065a76","system_id":"levelo_inurba_marseille","lat":43.231923,"lon":5.355545,"is_reserved":false,"is_disabled":false,"rental_uris":{"android":"levelo://app?vid=7efde648-b79c-43fb-b372-b364c0065a76","ios":"levelo://app?vid=7efde648-b79c-43fb-b372-b364c0065a76"},"vehicle_type_id":"4","last_reported":1702321544,"current_range_meters":6800,"station_id":"ce4bhu92rcd13ifvqi70","pricing_plan_id":"free"},{"bike_id":"65a732be-a23e-4899-8cd3-be07a2e68d78","system_id":"levelo_inurba_marseille","lat":43.231793,"lon":5.400044,"is_reserved":false,"is_disabled":false,"rental_uris":{"android":"levelo://app?vid=65a732be-a23e-4899-8cd3-be07a2e68d78","ios":"levelo://app?vid=65a732be-a23e-4899-8cd3-be07a2e68d78"},"vehicle_type_id":"4","last_reported":1702321544,"current_range_meters":27200,"station_id":"ce4bhn12rcd13ifvqgqg","pricing_plan_id":"free"},{"bike_id":"d4216b28-6573-4e3c-9c6e-b1f827f4d9da","system_id":"levelo_inurba_marseille","lat":43.231794,"lon":5.400052,"is_reserved":false,"is_disabled":false,"rental_uris":{"android":"levelo://app?vid=d4216b28-6573-4e3c-9c6e-b1f827f4d9da","ios":"levelo://app?vid=d4216b28-6573-4e3c-9c6e-b1f827f4d9da"},"vehicle_type_id":"4","last_reported":1702321544,"current_range_meters":26000,"station_id":"ce4bhn12rcd13ifvqgqg","pricing_plan_id":"free"}]}}