{"last_updated":1729199294,"ttl":60,"version":"2.2","data":{"bikes":[{"bike_id":"ad3740dd-d1ed-4d39-a629-64e6b998150a","system_id":"levelo_inurba_marseille","lat":43.25115,"lon":5.40325,"is_reserved":false,"is_disabled":false,"rental_uris":{"android":"levelo://app?vid=ad3740dd-d1ed-4d39-a629-64e6b998150a","ios":"levelo://app?vid=ad3740dd-d1ed-4d39-a629-64e6b998150a"},"vehicle_type_id":"4","last_reported":1729199294,"current_range_meters":18800,"station_id":"ce4bhlh2rcd13ifvqgig","pricing_plan_id":"cebpf4jnsgd1na2vs0mg"},{"bike_id":"9a878f42-9b8c-4083-b673-12ab1f3990c0","system_id":"levelo_inurba_marseille","lat":43.29258,"lon":5.40912,"is_reserved":false,"is_disabled":false,"rental_uris":{"android":"levelo://app?vid=9a878f42-9b8c-4083-b673-12ab1f3990c0","ios":"levelo://app?vid=9a878f42-9b8c-4083-b673-12ab1f3990c0"},"vehicle_type_id":"4","last_reported":1729199294,"current_range_meters":28000,"station_id":"ce4bh192rcd13ifvqdc0","pricing_plan_id":"cebpf4jnsgd1na2vs0mg"},{"bike_id":"1676df87-c891-480b-8efd-76a8ca828e4a","system_id":"levelo_inurba_marseille","lat":43.2582,"lon":5.3943,"is_reserved":false,"is_disabled":false,"rental_uris":{"android":"levelo://app?vid=1676df87-c891-480b-8efd-76a8ca828e4a","ios":"levelo://app?vid=1676df87-c891-480b-8efd-76a8ca828e4a"},"vehicle_type_id":"4","last_reported":1729199294,"current_range_meters":38000,"station_id":"ce4bhip2rcd13ifvqft0","pricing_plan_id":"cebpf4jnsgd1na2vs0mg"},{"bike_id":"676ec6c4-6b42-43e0-81fe-327782965da5","system_id":"levelo_inurba_marseille","lat":43.33765,"lon":5.37484,"is_reserved":false,"is_disabled":false,"rental_uris":{"android":"levelo://app?vid=676ec6c4-6b42-43e0-81fe-327782965da5","ios":"levelo://app?vid=676ec6c4-6b42-43e0-81fe-327782965da5"},"vehicle_type_id":"4","last_reported":1729199294,"current_range_meters":20800,"station_id":"","pricing_plan_id":"cebpf4jnsgd1na2vs0mg"},{"bike_id":"93c16973-d983-4a8e-98ce-877f40c6ba7c","system_id":"levelo_inurba_marseille","lat":43.2849,"lon":5.38573,"is_reserved":false,"is_disabled":false,"rental_uris":{"android":"levelo://app?vid=93c16973-d983-4a8e-98ce-877f40c6ba7c","ios":"levelo://app?vid=93c16973-d983-4a8e-98ce-877f40c6ba7c"},"vehicle_type_id":"4","last_reported":1729199294,"current_range_meters":26800,"station_id":"ce4bh8p2rcd13ifvqeb0","pricing_plan_id":"cebpf4jnsgd1na2vs0mg"},{"bike_id":"92dc8821-c96b-4b9f-9476-1c05f305b93e","system_id":"levelo_inurba_marseille","lat":43.26213,"lon":5.37441,"is_reserved":false,"is_disabled":false,"rental_uris":{"android":"levelo://app?vid=92dc8821-c96b-4b9f-9476-1c05f305b93e","ios":"levelo://app?vid=92dc8821-c96b-4b9f-9476-1c05f305b93e"},"vehicle_type_id":"4","last_reported":1729199294,"current_range_meters":38000,"station_id":"ce4bhgp2rcd13ifvqfc0","pricing_plan_id":"cebpf4jnsgd1na2vs0mg"},{"bike_id":"6475d355-317a-4e73-a7f0-14698c7623fc","system_id":"levelo_inurba_marseille","lat":43.31164,"lon":5.38718,"is_reserved":false,"is_disabled":false,"rental_uris":{"android":"levelo://app?vid=6475d355-317a-4e73-a7f0-14698c7623fc","ios":"levelo://app?vid=6475d355-317a-4e73-a7f0-14698c7623fc"},"vehicle_type_id":"4","last_reported":1729199294,"current_range_meters":28400,"station_id":"ce4bgv12rcd13ifvqcp0","pricing_plan_id":"cebpf4jnsgd1na2vs0mg"},{"bike_id":"873b7859-b3be-4cb3-9e0e-beff71b24f5b","system_id":"levelo_inurba_marseille","lat":43.31332,"lon":5.39696,"is_reserved":false,"is_disabled":false,"rental_uris":{"android":"levelo://app?vid=873b7859-b3be-4cb3-9e0e-beff71b24f5b","ios":"levelo://app?vid=873b7859-b3be-4cb3-9e0e-beff71b24f5b"},"vehicle_type_id":"4","last_reported":1729199294,"current_range_meters":22400,"station_id":"ce4bgvp2rcd13ifvqcu0","pricing_plan_id":"cebpf4jnsgd1na2vs0mg"},{"bike_id":"27a7a7f9-e4d8-48f5-a3db-737780b9e514","system_id":"levelo_inurba_marseille","lat":43.32108,"lon":5.36774,"is_reserved":false,"is_disabled":false,"rental_uris":{"android":"levelo://app?vid=27a7a7f9-e4d8-48f5-a3db-737780b9e514","ios":"levelo://app?vid=27a7a7f9-e4d8-48f5-a3db-737780b9e514"},"vehicle_type_id":"4","last_reported":1729199294,"current_range_meters":35600,"station_id":"ce4bhrh2rcd13ifvqhug","pricing_plan_id":"cebpf4jnsgd1na2vs0mg"},{"bike_id":"a087c050-b95c-4a4a-af86-b09eec04df0c","system_id":"levelo_inurba_marseille","lat":43.28701,"lon":5.39972,"is_reserved":false,"is_disabled":false,"rental_uris":{"android":"levelo://app?vid=a087c050-b95c-4a4a-af86-b09eec04df0c","ios":"levelo://app?vid=a087c050-b95c-4a4a-af86-b09eec04df0c"},"vehicle_type_id":"4","last_reported":1729199294,"current_range_meters":24000,"station_id":"ce4bho92rcd13ifvqh3g","pricing_plan_id":"cebpf4jnsgd1na2vs0mg"},{"bike_id":"a7a9c125-54d9-440d-847f-49ac30798c25","system_id":"levelo_inurba_marseille","lat":43.311739,"lon":5.387172,"is_reserved":false,"is_disabled":false,"rental_uris":{"android":"levelo://app?vid=a7a9c125-54d9-440d-847f-49ac30798c25","ios":"levelo://app?vid=a7a9c125-54d9-440d-847f-49ac30798c25"},"vehicle_type_id":"4","last_reported":1729199294,"current_range_meters":38800,"station_id":"ce4bgv12rcd13ifvqcp0","pricing_plan_id":"cebpf4jnsgd1na2vs0mg"},{"bike_id":"3f66dd1c-9be6-4b94-886c-d04770b03feb","system_id":"levelo_inurba_marseille","lat":43.33024,"lon":5.39039,"is_reserved":false,"is_disabled":false,"rental_uris":{"android":"levelo://app?vid=3f66dd1c-9be6-4b94-886c-d04770b03feb","ios":"levelo://app?vid=3f66dd1c-9be6-4b94-886c-d04770b03feb"},"vehicle_type_id":"4","last_reported":1729199294,"current_range_meters":38800,"station_id":"ce4bhr92rcd13ifvqhrg","pricing_plan_id":"cebpf4jnsgd1na2vs0mg"},{"bike_id":"9c3612f1-7535-4092-b3c2-9687af5e3b48","system_id":"levelo_inurba_marseille","lat":43.29264,"lon":5.40905,"is_reserved":false,"is_disabled":false,"rental_uris":{"android":"levelo://app?vid=9c3612f1-7535-4092-b3c2-9687af5e3b48","ios":"levelo://app?vid=9c3612f1-7535-4092-b3c2-9687af5e3b48"},"vehicle_type_id":"4","last_reported":1729199294,"current_range_meters":28400,"station_id":"ce4bh192rcd13ifvqdc0","pricing_plan_id":"cebpf4jnsgd1na2vs0mg"},{"bike_id":"f5e22823-9b5d-41cc-827c-fae48315e341","system_id":"levelo_inurba_marseille","lat":43.29443,"lon":5.39747,"is_reserved":false,"is_disabled":false,"rental_uris":{"android":"levelo://app?vid=f5e22823-9b5d-41cc-827c-fae48315e341","ios":"levelo://app?vid=f5e22823-9b5d-41cc-827c-fae48315e341"},"vehicle_type_id":"4","last_reported":1729199294,"current_range_meters":38800,"station_id":"ce4bh3h2rcd13ifvqdo0","pricing_plan_id":"cebpf4jnsgd1na2vs0mg"},{"bike_id":"29689e71-334c-4200-aca7-1d7023ddf226","system_id":"levelo_inurba_marseille","lat":43.32291,"lon":5.38276,"is_reserved":false,"is_disabled":false,"rental_uris":{"android":"levelo://app?vid=29689e71-334c-4200-aca7-1d7023ddf226","ios":"levelo://app?vid=29689e71-334c-4200-aca7-1d7023ddf226"},"vehicle_type_id":"4","last_reported":1729199294,"current_range_meters":39200,"station_id":"ce4bhr12rcd13ifvqhqg","pricing_plan_id":"cebpf4jnsgd1na2vs0mg"},{"bike_id":"0e9ad9af-e89b-412e-a7df-344fe8f113f7","system_id":"levelo_inurba_marseille","lat":43.24998,"lon":5.38928,"is_reserved":false,"is_disabled":false,"rental_uris":{"android":"levelo://app?vid=0e9ad9af-e89b-412e-a7df-344fe8f113f7","ios":"levelo://app?vid=0e9ad9af-e89b-412e-a7df-344fe8f113f7"},"vehicle_type_id":"4","last_reported":1729199294,"current_range_meters":38800,"station_id":"ce4bhgp2rcd13ifvqfd0","pricing_plan_id":"cebpf4jnsgd1na2vs0mg"},{"bike_id":"91ac8fa7-b7c8-4143-be6d-e2ffbaedc096","system_id":"levelo_inurba_marseille","lat":43.27073,"lon":5.42286,"is_reserved":false,"is_disabled":false,"rental_uris":{"android":"levelo://app?vid=91ac8fa7-b7c8-4143-be6d-e2ffbaedc096","ios":"levelo://app?vid=91ac8fa7-b7c8-4143-be6d-e2ffbaedc096"},"vehicle_type_id":"4","last_reported":1729199294,"current_range_meters":37600,"station_id":"ce4bhk92rcd13ifvqgb0","pricing_plan_id":"cebpf4jnsgd1na2vs0mg"},{"bike_id":"191b113b-be16-492e-a876-32c12d6b048b","system_id":"levelo_inurba_marseille","lat":43.2408,"lon":5.37758,"is_reserved":false,"is_disabled":false,"rental_uris":{"android":"levelo://app?vid=191b113b-be16-492e-a876-32c12d6b048b","ios":"levelo://app?vid=191b113b-be16-492e-a876-32c12d6b048b"},"vehicle_type_id":"4","last_reported":1729199294,"current_range_meters":30000,"station_id":"ce4bhnp2rcd13ifvqgvg","pricing_plan_id":"cebpf4jnsgd1na2vs0mg"},{"bike_id":"a71414de-d2ee-4a17-94ea-50f620ba8558","system_id":"levelo_inurba_marseille","lat":43.28427,"lon":5.34995,"is_reserved":false,"is_disabled":false,"rental_uris":{"android":"levelo://app?vid=a71414de-d2ee-4a17-94ea-50f620ba8558","ios":"levelo://app?vid=a71414de-d2ee-4a17-94ea-50f620ba8558"},"vehicle_type_id":"4","last_reported":1729199294,"current_range_meters":38800,"station_id":"ce4bhbh2rcd13ifvqepg","pricing_plan_id":"cebpf4jnsgd1na2vs0mg"},{"bike_id":"7ec9ee5b-9fa9-4eeb-930c-8390bbda0907","system_id":"levelo_inurba_marseille","lat":43.25726,"lon":5.41105,"is_reserved":false,"is_disabled":false,"rental_uris":{"android":"levelo://app?vid=7ec9ee5b-9fa9-4eeb-930c-8390bbda0907","ios":"levelo://app?vid=7ec9ee5b-9fa9-4eeb-930c-8390bbda0907"},"vehicle_type_id":"4","last_reported":1729199294,"current_range_meters":22800,"station_id":"ce4bhkp2rcd13ifvqgd0","pricing_plan_id":"cebpf4jnsgd1na2vs0mg"},{"bike_id":"4ae2c184-8c50-452d-87fb-8f7bf4f540f3","system_id":"levelo_inurba_marseille","lat":43.24656,"lon":5.38899,"is_reserved":false,"is_disabled":false,"rental_uris":{"android":"levelo://app?vid=4ae2c184-8c50-452d-87fb-8f7bf4f540f3","ios":"levelo://app?vid=4ae2c184-8c50-452d-87fb-8f7bf4f540f3"},"vehicle_type_id":"4","last_reported":1729199294,"current_range_meters":38800,"station_id":"ce4bhg12rcd13ifvqf60","pricing_plan_id":"cebpf4jnsgd1na2vs0mg"},{"bike_id":"791641b8-dabe-4982-982b-c8e7fc7abd5d","system_id":"levelo_inurba_marseille","lat":43.25114,"lon":5.4031,"is_reserved":false,"is_disabled":false,"rental_uris":{"android":"levelo://app?vid=791641b8-dabe-4982-982b-c8e7fc7abd5d","ios":"levelo://app?vid=791641b8-dabe-4982-982b-c8e7fc7abd5d"},"vehicle_type_id":"4","last_reported":1729199294,"current_range_meters":13600,"station_id":"ce4bhlh2rcd13ifvqgig","pricing_plan_id":"cebpf4jnsgd1na2vs0mg"},{"bike_id":"ccb21c06-b27a-4307-9e7c-1a0e8140fade","system_id":"levelo_inurba_marseille","lat":43.28463,"lon":5.35882,"is_reserved":false,"is_disabled":false,"rental_uris":{"android":"levelo://app?vid=ccb21c06-b27a-4307-9e7c-1a0e8140fade","ios":"levelo://app?vid=ccb21c06-b27a-4307-9e7c-1a0e8140fade"},"vehicle_type_id":"4","last_reported":1729199294,"current_range_meters":31200,"station_id":"ce4bhah2rcd13ifvqei0","pricing_plan_id":"cebpf4jnsgd1na2vs0mg"},{"bike_id":"7668ac82-f874-422b-bc29-d2ba352a44eb","system_id":"levelo_inurba_marseille","lat":43.25112,"lon":5.40325,"is_reserved":false,"is_disabled":false,"rental_uris":{"android":"levelo://app?vid=7668ac82-f874-422b-bc29-d2ba352a44eb","ios":"levelo://app?vid=7668ac82-f874-422b-bc29-d2ba352a44eb"},"vehicle_type_id":"4","last_reported":1729199294,"current_range_meters":38800,"station_id":"ce4bhlh2rcd13ifvqgig","pricing_plan_id":"cebpf4jnsgd1na2vs0mg"},{"bike_id":"5a4320fd-668e-47a8-9a0f-748e783877c2","system_id":"levelo_inurba_marseille","lat":43.31714,"lon":5.43704,"is_reserved":false,"is_disabled":false,"rental_uris":{"android":"levelo://app?vid=5a4320fd-668e-47a8-9a0f-748e783877c2","ios":"levelo://app?vid=5a4320fd-668e-47a8-9a0f-748e783877c2"},"vehicle_type_id":"4","last_reported":1729199294,"current_range_meters":19200,"station_id":"ce4bhp92rcd13ifvqhcg","pricing_plan_id":"cebpf4jnsgd1na2vs0mg"},{"bike_id":"2e411cf8-fb6f-4fb1-8e34-d915fe729c6a","system_id":"levelo_inurba_marseille","lat":43.29032,"lon":5.35927,"is_reserved":false,"is_disabled":false,"rental_uris":{"android":"levelo://app?vid=2e411cf8-fb6f-4fb1-8e34-d915fe729c6a","ios":"levelo://app?vid=2e411cf8-fb6f-4fb1-8e34-d915fe729c6a"},"vehicle_type_id":"4","last_reported":1729199294,"current_range_meters":13600,"station_id":"ce4bha92rcd13ifvqeg0","pricing_plan_id":"cebpf4jnsgd1na2vs0mg"},{"bike_id":"5eef111f-7653-4bfd-820a-87207cd0591b","system_id":"levelo_inurba_marseille","lat":43.3093,"lon":5.40135,"is_reserved":false,"is_disabled":false,"rental_uris":{"android":"levelo://app?vid=5eef111f-7653-4bfd-820a-87207cd0591b","ios":"levelo://app?vid=5eef111f-7653-4bfd-820a-87207cd0591b"},"vehicle_type_id":"4","last_reported":1729199294,"current_range_meters":6800,"station_id":"ce4bgvp2rcd13ifvqct0","pricing_plan_id":"cebpf4jnsgd1na2vs0mg"},{"bike_id":"ba385696-1c00-4366-b0a7-b17da0e20789","system_id":"levelo_inurba_marseille","lat":43.3175,"lon":5.39022,"is_reserved":false,"is_disabled":false,"rental_uris":{"android":"levelo://app?vid=ba385696-1c00-4366-b0a7-b17da0e20789","ios":"levelo://app?vid=ba385696-1c00-4366-b0a7-b17da0e20789"},"vehicle_type_id":"4","last_reported":1729199294,"current_range_meters":9600,"station_id":"ce4bhqp2rcd13ifvqhng","pricing_plan_id":"cebpf4jnsgd1na2vs0mg"},{"bike_id":"d5d87b96-496a-454b-9e81-b0e5a09c72cf","system_id":"levelo_inurba_marseille","lat":43.28607,"lon":5.37072,"is_reserved":false,"is_disabled":false,"rental_uris":{"android":"levelo://app?vid=d5d87b96-496a-454b-9e81-b0e5a09c72cf","ios":"levelo://app?vid=d5d87b96-496a-454b-9e81-b0e5a09c72cf"},"vehicle_type_id":"4","last_reported":1729199294,"current_range_meters":38800,"station_id":"ce4bht12rcd13ifvqi60","pricing_plan_id":"cebpf4jnsgd1na2vs0mg"},{"bike_id":"052b3563-392a-4857-8174-027696f961ab","system_id":"levelo_inurba_marseille","lat":43.24632,"lon":5.38917,"is_reserved":false,"is_disabled":false,"rental_uris":{"android":"levelo://app?vid=052b3563-392a-4857-8174-027696f961ab","ios":"levelo://app?vid=052b3563-392a-4857-8174-027696f961ab"},"vehicle_type_id":"4","last_reported":1729199294,"current_range_meters":22400,"station_id":"ce4bhg12rcd13ifvqf60","pricing_plan_id":"cebpf4jnsgd1na2vs0mg"},{"bike_id":"aeab4a21-282f-4182-9f82-1c74ea3f15fe","system_id":"levelo_inurba_marseille","lat":43.29987,"lon":5.37181,"is_reserved":false,"is_disabled":false,"rental_uris":{"android":"levelo://app?vid=aeab4a21-282f-4182-9f82-1c74ea3f15fe","ios":"levelo://app?vid=aeab4a21-282f-4182-9f82-1c74ea3f15fe"},"vehicle_type_id":"4","last_reported":1729199294,"current_range_meters":38800,"station_id":"ce4bgr92rcd13ifvqc7g","pricing_plan_id":"cebpf4jnsgd1na2vs0mg"},{"bike_id":"0822912b-aa59-4ed3-8c68-5d699efb7d77","system_id":"levelo_inurba_marseille","lat":43.32366,"lon":5.38881,"is_reserved":false,"is_disabled":false,"rental_uris":{"android":"levelo://app?vid=0822912b-aa59-4ed3-8c68-5d699efb7d77","ios":"levelo://app?vid=0822912b-aa59-4ed3-8c68-5d699efb7d77"},"vehicle_type_id":"4","last_reported":1729199294,"current_range_meters":16800,"station_id":"ce4bhqp2rcd13ifvqhog","pricing_plan_id":"cebpf4jnsgd1na2vs0mg"},{"bike_id":"d8dbb490-aafa-49dc-8cd2-9cabed7e4f46","system_id":"levelo_inurba_marseille","lat":43.30806,"lon":5.38152,"is_reserved":false,"is_disabled":false,"rental_uris":{"android":"levelo://app?vid=d8dbb490-aafa-49dc-8cd2-9cabed7e4f46","ios":"levelo://app?vid=d8dbb490-aafa-49dc-8cd2-9cabed7e4f46"},"vehicle_type_id":"4","last_reported":1729199294,"current_range_meters":12800,"station_id":"ce4bgt12rcd13ifvqce0","pricing_plan_id":"cebpf4jnsgd1na2vs0mg"},{"bike_id":"58c69b12-7467-4279-b980-9aa21ca6358f","system_id":"levelo_inurba_marseille","lat":43.23962,"lon":5.36634,"is_reserved":false,"is_disabled":false,"rental_uris":{"android":"levelo://app?vid=58c69b12-7467-4279-b980-9aa21ca6358f","ios":"levelo://app?vid=58c69b12-7467-4279-b980-9aa21ca6358f"},"vehicle_type_id":"4","last_reported":1729199294,"current_range_meters":27200,"station_id":"ce4bhi12rcd13ifvqfp0","pricing_plan_id":"cebpf4jnsgd1na2vs0mg"},{"bike_id":"8c7df55f-13fe-40cd-8165-b5472c783a12","system_id":"levelo_inurba_marseille","lat":43.29626,"lon":5.40581,"is_reserved":false,"is_disabled":false,"rental_uris":{"android":"levelo://app?vid=8c7df55f-13fe-40cd-8165-b5472c783a12","ios":"levelo://app?vid=8c7df55f-13fe-40cd-8165-b5472c783a12"},"vehicle_type_id":"4","last_reported":1729199294,"current_range_meters":38800,"station_id":"ce4bh0h2rcd13ifvqd60","pricing_plan_id":"cebpf4jnsgd1na2vs0mg"},{"bike_id":"5fcd8f6e-ba15-45e1-94c8-9f2b14eaa9ad","system_id":"levelo_inurba_marseille","lat":43.28274,"lon":5.35071,"is_reserved":false,"is_disabled":false,"rental_uris":{"android":"levelo://app?vid=5fcd8f6e-ba15-45e1-94c8-9f2b14eaa9ad","ios":"levelo://app?vid=5fcd8f6e-ba15-45e1-94c8-9f2b14eaa9ad"},"vehicle_type_id":"4","last_reported":1729199294,"current_range_meters":38800,"station_id":"ce4bhbp2rcd13ifvqerg","pricing_plan_id":"cebpf4jnsgd1na2vs0mg"},{"bike_id":"dfb0999c-59a2-4e4f-9718-ee766ca01b0e","system_id":"levelo_inurba_marseille","lat":43.30788,"lon":5.37653,"is_reserved":false,"is_disabled":false,"rental_uris":{"android":"levelo://app?vid=dfb0999c-59a2-4e4f-9718-ee766ca01b0e","ios":"levelo://app?vid=dfb0999c-59a2-4e4f-9718-ee766ca01b0e"},"vehicle_type_id":"4","last_reported":1729199294,"current_range_meters":21600,"station_id":"ce4bgv92rcd13ifvqcq0","pricing_plan_id":"cebpf4jnsgd1na2vs0mg"},{"bike_id":"05528477-872b-4594-bb9c-05aeb34670b6","system_id":"levelo_inurba_marseille","lat":43.31535,"lon":5.38018,"is_reserved":false,"is_disabled":false,"rental_uris":{"android":"levelo://app?vid=05528477-872b-4594-bb9c-05aeb34670b6","ios":"levelo://app?vid=05528477-872b-4594-bb9c-05aeb34670b6"},"vehicle_type_id":"4","last_reported":1729199294,"current_range_meters":28400,"station_id":"ce4bhsp2rcd13ifvqi50","pricing_plan_id":"cebpf4jnsgd1na2vs0mg"},{"bike_id":"f1f54018-12f5-4b4e-9d61-fc23fa4a951a","system_id":"levelo_inurba_marseille","lat":43.32293,"lon":5.3828,"is_reserved":false,"is_disabled":false,"rental_uris":{"android":"levelo://app?vid=f1f54018-12f5-4b4e-9d61-fc23fa4a951a","ios":"levelo://app?vid=f1f54018-12f5-4b4e-9d61-fc23fa4a951a"},"vehicle_type_id":"4","last_reported":1729199294,"current_range_meters":38800,"station_id":"ce4bhr12rcd13ifvqhqg","pricing_plan_id":"cebpf4jnsgd1na2vs0mg"},{"bike_id":"5393a1bd-7e62-40e5-a51c-59eec108671a","system_id":"levelo_inurba_marseille","lat":43.3061,"lon":5.37211,"is_reserved":false,"is_disabled":false,"rental_uris":{"android":"levelo://app?vid=5393a1bd-7e62-40e5-a51c-59eec108671a","ios":"levelo://app?vid=5393a1bd-7e62-40e5-a51c-59eec108671a"},"vehicle_type_id":"4","last_reported":1729199294,"current_range_meters":36800,"station_id":"ce4bgqh2rcd13ifvqc4g","pricing_plan_id":"cebpf4jnsgd1na2vs0mg"},{"bike_id":"dcd02635-a722-43c9-94f7-989cd5fe04c6","system_id":"levelo_inurba_marseille","lat":43.24808,"lon":5.37454,"is_reserved":false,"is_disabled":false,"rental_uris":{"android":"levelo://app?vid=dcd02635-a722-43c9-94f7-989cd5fe04c6","ios":"levelo://app?vid=dcd02635-a722-43c9-94f7-989cd5fe04c6"},"vehicle_type_id":"4","last_reported":1729199294,"current_range_meters":25200,"station_id":"ce4bhgh2rcd13ifvqfb0","pricing_plan_id":"cebpf4jnsgd1na2vs0mg"},{"bike_id":"241ec68c-ac36-4501-bb5b-e6da66662d0b","system_id":"levelo_inurba_marseille","lat":43.3089,"lon":5.39633,"is_reserved":false,"is_disabled":false,"rental_uris":{"android":"levelo://app?vid=241ec68c-ac36-4501-bb5b-e6da66662d0b","ios":"levelo://app?vid=241ec68c-ac36-4501-bb5b-e6da66662d0b"},"vehicle_type_id":"4","last_reported":1729199294,"current_range_meters":16400,"station_id":"ce4bh012rcd13ifvqcv0","pricing_plan_id":"cebpf4jnsgd1na2vs0mg"},{"bike_id":"282b3d80-6821-487a-a914-810f553b0264","system_id":"levelo_inurba_marseille","lat":43.31715,"lon":5.43703,"is_reserved":false,"is_disabled":false,"rental_uris":{"android":"levelo://app?vid=282b3d80-6821-487a-a914-810f553b0264","ios":"levelo://app?vid=282b3d80-6821-487a-a914-810f553b0264"},"vehicle_type_id":"4","last_reported":1729199294,"current_range_meters":6000,"station_id":"ce4bhp92rcd13ifvqhcg","pricing_plan_id":"cebpf4jnsgd1na2vs0mg"},{"bike_id":"81839b38-4da2-4a7a-8301-49e058220568","system_id":"levelo_inurba_marseille","lat":43.32335,"lon":5.40622,"is_reserved":false,"is_disabled":false,"rental_uris":{"android":"levelo://app?vid=81839b38-4da2-4a7a-8301-49e058220568","ios":"levelo://app?vid=81839b38-4da2-4a7a-8301-49e058220568"},"vehicle_type_id":"4","last_reported":1729199294,"current_range_meters":20000,"station_id":"ce4bhq92rcd13ifvqhjg","pricing_plan_id":"cebpf4jnsgd1na2vs0mg"},{"bike_id":"95c77484-50df-4a82-8184-e237820d0942","system_id":"levelo_inurba_marseille","lat":43.28929,"lon":5.36636,"is_reserved":false,"is_disabled":false,"rental_uris":{"android":"levelo://app?vid=95c77484-50df-4a82-8184-e237820d0942","ios":"levelo://app?vid=95c77484-50df-4a82-8184-e237820d0942"},"vehicle_type_id":"4","last_reported":1729199294,"current_range_meters":8400,"station_id":"ce4bhap2rcd13ifvqek0","pricing_plan_id":"cebpf4jnsgd1na2vs0mg"},{"bike_id":"2eaadce4-679c-4e46-897d-344ade65d802","system_id":"levelo_inurba_marseille","lat":43.30605,"lon":5.37212,"is_reserved":false,"is_disabled":false,"rental_uris":{"android":"levelo://app?vid=2eaadce4-679c-4e46-897d-344ade65d802","ios":"levelo://app?vid=2eaadce4-679c-4e46-897d-344ade65d802"},"vehicle_type_id":"4","last_reported":1729199294,"current_range_meters":38000,"station_id":"ce4bgqh2rcd13ifvqc4g","pricing_plan_id":"cebpf4jnsgd1na2vs0mg"},{"bike_id":"17ee19d6-b9e8-4238-89ea-9c5b355a40b2","system_id":"levelo_inurba_marseille","lat":43.28734,"lon":5.36078,"is_reserved":false,"is_disabled":false,"rental_uris":{"android":"levelo://app?vid=17ee19d6-b9e8-4238-89ea-9c5b355a40b2","ios":"levelo://app?vid=17ee19d6-b9e8-4238-89ea-9c5b355a40b2"},"vehicle_type_id":"4","last_reported":1729199294,"current_range_meters":16800,"station_id":"cki0cbj6b192h4jlfktg","pricing_plan_id":"cebpf4jnsgd1na2vs0mg"},{"bike_id":"e92df672-1900-415b-b390-a615a46c783b","system_id":"levelo_inurba_marseille","lat":43.29046,"lon":5.35895,"is_reserved":false,"is_disabled":false,"rental_uris":{"android":"levelo://app?vid=e92df672-1900-415b-b390-a615a46c783b","ios":"levelo://app?vid=e92df672-1900-415b-b390-a615a46c783b"},"vehicle_type_id":"4","last_reported":1729199294,"current_range_meters":28000,"station_id":"ce4bha92rcd13ifvqeg0","pricing_plan_id":"cebpf4jnsgd1na2vs0mg"},{"bike_id":"b1491400-0877-4e4a-94b9-0b74303ed910","system_id":"levelo_inurba_marseille","lat":43.27814,"lon":5.40713,"is_reserved":false,"is_disabled":false,"rental_uris":{"android":"levelo://app?vid=b1491400-0877-4e4a-94b9-0b74303ed910","ios":"levelo://app?vid=b1491400-0877-4e4a-94b9-0b74303ed910"},"vehicle_type_id":"4","last_reported":1729199294,"current_range_meters":38800,"station_id":"ce4bhnh2rcd13ifvqgtg","pricing_plan_id":"cebpf4jnsgd1na2vs0mg"},{"bike_id":"f6483cbf-b6b8-436f-ac64-c39468f3bd92","system_id":"levelo_inurba_marseille","lat":43.3175,"lon":5.39015,"is_reserved":false,"is_disabled":false,"rental_uris":{"android":"levelo://app?vid=f6483cbf-b6b8-436f-ac64-c39468f3bd92","ios":"levelo://app?vid=f6483cbf-b6b8-436f-ac64-c39468f3bd92"},"vehicle_type_id":"4","last_reported":1729199294,"current_range_meters":33600,"station_id":"ce4bhqp2rcd13ifvqhng","pricing_plan_id":"cebpf4jnsgd1na2vs0mg"},{"bike_id":"c0aea6bf-9822-4eef-a7c6-ea0b29185a8d","system_id":"levelo_inurba_marseille","lat":43.2794,"lon":5.41032,"is_reserved":false,"is_disabled":false,"rental_uris":{"android":"levelo://app?vid=c0aea6bf-9822-4eef-a7c6-ea0b29185a8d","ios":"levelo://app?vid=c0aea6bf-9822-4eef-a7c6-ea0b29185a8d"},"vehicle_type_id":"4","last_reported":1729199294,"current_range_meters":26800,"station_id":"ce4bhnp2rcd13ifvqh0g","pricing_plan_id":"cebpf4jnsgd1na2vs0mg"},{"bike_id":"aa33ddc9-38b2-4034-9975-a236fa514f69","system_id":"levelo_inurba_marseille","lat":43.280988,"lon":5.378363,"is_reserved":false,"is_disabled":false,"rental_uris":{"android":"levelo://app?vid=aa33ddc9-38b2-4034-9975-a236fa514f69","ios":"levelo://app?vid=aa33ddc9-38b2-4034-9975-a236fa514f69"},"vehicle_type_id":"4","last_reported":1729199294,"current_range_meters":36000,"station_id":"ce4bha12rcd13ifvqee0","pricing_plan_id":"cebpf4jnsgd1na2vs0mg"},{"bike_id":"3d7546d0-4dba-4212-88c9-dfe9a2032237","system_id":"levelo_inurba_marseille","lat":43.2417,"lon":5.36396,"is_reserved":false,"is_disabled":false,"rental_uris":{"android":"levelo://app?vid=3d7546d0-4dba-4212-88c9-dfe9a2032237","ios":"levelo://app?vid=3d7546d0-4dba-4212-88c9-dfe9a2032237"},"vehicle_type_id":"4","last_reported":1729199294,"current_range_meters":3200,"station_id":"cpo36qri1sfpv3e86is0","pricing_plan_id":"cebpf4jnsgd1na2vs0mg"},{"bike_id":"f79ebb7e-e60a-4f98-be51-3535536798cb","system_id":"levelo_inurba_marseille","lat":43.30614,"lon":5.37216,"is_reserved":false,"is_disabled":false,"rental_uris":{"android":"levelo://app?vid=f79ebb7e-e60a-4f98-be51-3535536798cb","ios":"levelo://app?vid=f79ebb7e-e60a-4f98-be51-3535536798cb"},"vehicle_type_id":"4","last_reported":1729199294,"current_range_meters":6400,"station_id":"ce4bgqh2rcd13ifvqc4g","pricing_plan_id":"cebpf4jnsgd1na2vs0mg"},{"bike_id":"5f66d9b1-dc9b-46e4-ab6f-979d6221f9ab","system_id":"levelo_inurba_marseille","lat":43.32295,"lon":5.38263,"is_reserved":false,"is_disabled":false,"rental_uris":{"android":"levelo://app?vid=5f66d9b1-dc9b-46e4-ab6f-979d6221f9ab","ios":"levelo://app?vid=5f66d9b1-dc9b-46e4-ab6f-979d6221f9ab"},"vehicle_type_id":"4","last_reported":1729199294,"current_range_meters":14400,"station_id":"ce4bhr12rcd13ifvqhqg","pricing_plan_id":"cebpf4jnsgd1na2vs0mg"},{"bike_id":"33695307-4f89-4ba9-9258-bc7869c3c787","system_id":"levelo_inurba_marseille","lat":43.29965,"lon":5.38492,"is_reserved":false,"is_disabled":false,"rental_uris":{"android":"levelo://app?vid=33695307-4f89-4ba9-9258-bc7869c3c787","ios":"levelo://app?vid=33695307-4f89-4ba9-9258-bc7869c3c787"},"vehicle_type_id":"4","last_reported":1729199294,"current_range_meters":38800,"station_id":"ce4bgj92rcd13ifvqbd0","pricing_plan_id":"cebpf4jnsgd1na2vs0mg"},{"bike_id":"544f7afc-844d-4ea0-a2be-13dd77c8ea21","system_id":"levelo_inurba_marseille","lat":43.29558,"lon":5.42287,"is_reserved":false,"is_disabled":false,"rental_uris":{"android":"levelo://app?vid=544f7afc-844d-4ea0-a2be-13dd77c8ea21","ios":"levelo://app?vid=544f7afc-844d-4ea0-a2be-13dd77c8ea21"},"vehicle_type_id":"4","last_reported":1729199294,"current_range_meters":30800,"station_id":"ce4bhph2rcd13ifvqhdg","pricing_plan_id":"cebpf4jnsgd1na2vs0mg"},{"bike_id":"3fbd3cb7-fcc2-42c3-b4cf-ec729dd8c1b6","system_id":"levelo_inurba_marseille","lat":43.25086,"lon":5.3951,"is_reserved":false,"is_disabled":false,"rental_uris":{"android":"levelo://app?vid=3fbd3cb7-fcc2-42c3-b4cf-ec729dd8c1b6","ios":"levelo://app?vid=3fbd3cb7-fcc2-42c3-b4cf-ec729dd8c1b6"},"vehicle_type_id":"4","last_reported":1729199294,"current_range_meters":38800,"station_id":"ce4bhm12rcd13ifvqgkg","pricing_plan_id":"cebpf4jnsgd1na2vs0mg"},{"bike_id":"19085ac5-ffc2-40a3-8146-8a3a881c9fa7","system_id":"levelo_inurba_marseille","lat":43.23107,"lon":5.4048,"is_reserved":false,"is_disabled":false,"rental_uris":{"android":"levelo://app?vid=19085ac5-ffc2-40a3-8146-8a3a881c9fa7","ios":"levelo://app?vid=19085ac5-ffc2-40a3-8146-8a3a881c9fa7"},"vehicle_type_id":"4","last_reported":1729199294,"current_range_meters":33600,"station_id":"","pricing_plan_id":"cebpf4jnsgd1na2vs0mg"},{"bike_id":"90b7df2b-2805-4913-a745-07d80216980c","system_id":"levelo_inurba_marseille","lat":43.30803,"lon":5.43522,"is_reserved":false,"is_disabled":false,"rental_uris":{"android":"levelo://app?vid=90b7df2b-2805-4913-a745-07d80216980c","ios":"levelo://app?vid=90b7df2b-2805-4913-a745-07d80216980c"},"vehicle_type_id":"4","last_reported":1729199294,"current_range_meters":16400,"station_id":"ce4bhph2rcd13ifvqheg","pricing_plan_id":"cebpf4jnsgd1na2vs0mg"},{"bike_id":"32ce68a3-3fc7-4257-974f-ab657619c295","system_id":"levelo_inurba_marseille","lat":43.33751,"lon":5.37429,"is_reserved":false,"is_disabled":false,"rental_uris":{"android":"levelo://app?vid=32ce68a3-3fc7-4257-974f-ab657619c295","ios":"levelo://app?vid=32ce68a3-3fc7-4257-974f-ab657619c295"},"vehicle_type_id":"4","last_reported":1729199294,"current_range_meters":32800,"station_id":"","pricing_plan_id":"cebpf4jnsgd1na2vs0mg"},{"bike_id":"554ddb0d-d01b-4ff6-94d9-51f863b0d8b6","system_id":"levelo_inurba_marseille","lat":43.29535,"lon":5.39397,"is_reserved":false,"is_disabled":false,"rental_uris":{"android":"levelo://app?vid=554ddb0d-d01b-4ff6-94d9-51f863b0d8b6","ios":"levelo://app?vid=554ddb0d-d01b-4ff6-94d9-51f863b0d8b6"},"vehicle_type_id":"4","last_reported":1729199294,"current_range_meters":36400,"station_id":"ce4bh292rcd13ifvqdf0","pricing_plan_id":"cebpf4jnsgd1na2vs0mg"},{"bike_id":"ffe890f6-aa98-416d-afd1-2007a8d940f6","system_id":"levelo_inurba_marseille","lat":43.29531,"lon":5.38542,"is_reserved":false,"is_disabled":false,"rental_uris":{"android":"levelo://app?vid=ffe890f6-aa98-416d-afd1-2007a8d940f6","ios":"levelo://app?vid=ffe890f6-aa98-416d-afd1-2007a8d940f6"},"vehicle_type_id":"4","last_reported":1729199294,"current_range_meters":34800,"station_id":"ce4bgih2rcd13ifvqba0","pricing_plan_id":"cebpf4jnsgd1na2vs0mg"},{"bike_id":"5a1b62f7-8a9e-42be-aefa-217aca5b6f27","system_id":"levelo_inurba_marseille","lat":43.23965,"lon":5.36639,"is_reserved":false,"is_disabled":false,"rental_uris":{"android":"levelo://app?vid=5a1b62f7-8a9e-42be-aefa-217aca5b6f27","ios":"levelo://app?vid=5a1b62f7-8a9e-42be-aefa-217aca5b6f27"},"vehicle_type_id":"4","last_reported":1729199294,"current_range_meters":38800,"station_id":"ce4bhi12rcd13ifvqfp0","pricing_plan_id":"cebpf4jnsgd1na2vs0mg"},{"bike_id":"9412e4eb-7d7f-49ca-a349-7f0454ab9f04","system_id":"levelo_inurba_marseille","lat":43.26941,"lon":5.38928,"is_reserved":false,"is_disabled":false,"rental_uris":{"android":"levelo://app?vid=9412e4eb-7d7f-49ca-a349-7f0454ab9f04","ios":"levelo://app?vid=9412e4eb-7d7f-49ca-a349-7f0454ab9f04"},"vehicle_type_id":"4","last_reported":1729199294,"current_range_meters":34800,"station_id":"ce4bhhh2rcd13ifvqfl0","pricing_plan_id":"cebpf4jnsgd1na2vs0mg"},{"bike_id":"fa7bbdc9-afbe-404d-8676-647037cc76a9","system_id":"levelo_inurba_marseille","lat":43.23195,"lon":5.35546,"is_reserved":false,"is_disabled":false,"rental_uris":{"android":"levelo://app?vid=fa7bbdc9-afbe-404d-8676-647037cc76a9","ios":"levelo://app?vid=fa7bbdc9-afbe-404d-8676-647037cc76a9"},"vehicle_type_id":"4","last_reported":1729199294,"current_range_meters":32000,"station_id":"ce4bhu92rcd13ifvqi70","pricing_plan_id":"cebpf4jnsgd1na2vs0mg"},{"bike_id":"9a4b7f99-e11e-4f0b-b857-0dbeb1b8e0a6","system_id":"levelo_inurba_marseille","lat":43.33022,"lon":5.39042,"is_reserved":false,"is_disabled":false,"rental_uris":{"android":"levelo://app?vid=9a4b7f99-e11e-4f0b-b857-0dbeb1b8e0a6","ios":"levelo://app?vid=9a4b7f99-e11e-4f0b-b857-0dbeb1b8e0a6"},"vehicle_type_id":"4","last_reported":1729199294,"current_range_meters":31200,"station_id":"ce4bhr92rcd13ifvqhrg","pricing_plan_id":"cebpf4jnsgd1na2vs0mg"},{"bike_id":"752671c2-9054-492c-9263-fc5cb1c19d98","system_id":"levelo_inurba_marseille","lat":43.33021,"lon":5.39043,"is_reserved":false,"is_disabled":false,"rental_uris":{"android":"levelo://app?vid=752671c2-9054-492c-9263-fc5cb1c19d98","ios":"levelo://app?vid=752671c2-9054-492c-9263-fc5cb1c19d98"},"vehicle_type_id":"4","last_reported":1729199294,"current_range_meters":16400,"station_id":"ce4bhr92rcd13ifvqhrg","pricing_plan_id":"cebpf4jnsgd1na2vs0mg"},{"bike_id":"ff726813-2517-4302-b4b8-60455484d8f6","system_id":"levelo_inurba_marseille","lat":43.33029,"lon":5.39055,"is_reserved":false,"is_disabled":false,"rental_uris":{"android":"levelo://app?vid=ff726813-2517-4302-b4b8-60455484d8f6","ios":"levelo://app?vid=ff726813-2517-4302-b4b8-60455484d8f6"},"vehicle_type_id":"4","last_reported":1729199294,"current_range_meters":9600,"station_id":"ce4bhr92rcd13ifvqhrg","pricing_plan_id":"cebpf4jnsgd1na2vs0mg"},{"bike_id":"f8d2e239-573b-4f9d-8955-e6720aa9663e","system_id":"levelo_inurba_marseille","lat":43.24655,"lon":5.38888,"is_reserved":false,"is_disabled":false,"rental_uris":{"android":"levelo://app?vid=f8d2e239-573b-4f9d-8955-e6720aa9663e","ios":"levelo://app?vid=f8d2e239-573b-4f9d-8955-e6720aa9663e"},"vehicle_type_id":"4","last_reported":1729199294,"current_range_meters":35200,"station_id":"ce4bhg12rcd13ifvqf60","pricing_plan_id":"cebpf4jnsgd1na2vs0mg"},{"bike_id":"e6a27805-d8f8-49c1-8c9e-220ae3406e20","system_id":"levelo_inurba_marseille","lat":43.3138,"lon":5.3849,"is_reserved":false,"is_disabled":false,"rental_uris":{"android":"levelo://app?vid=e6a27805-d8f8-49c1-8c9e-220ae3406e20","ios":"levelo://app?vid=e6a27805-d8f8-49c1-8c9e-220ae3406e20"},"vehicle_type_id":"4","last_reported":1729199294,"current_range_meters":36400,"station_id":"ce4bgt92rcd13ifvqcf0","pricing_plan_id":"cebpf4jnsgd1na2vs0mg"},{"bike_id":"139c35c4-8018-4db9-ad1e-9ab572b93210","system_id":"levelo_inurba_marseille","lat":43.30876,"lon":5.37197,"is_reserved":false,"is_disabled":false,"rental_uris":{"android":"levelo://app?vid=139c35c4-8018-4db9-ad1e-9ab572b93210","ios":"levelo://app?vid=139c35c4-8018-4db9-ad1e-9ab572b93210"},"vehicle_type_id":"4","last_reported":1729199294,"current_range_meters":9200,"station_id":"ce4bguh2rcd13ifvqckg","pricing_plan_id":"cebpf4jnsgd1na2vs0mg"},{"bike_id":"9313a787-13e9-4747-aa6d-776c45943b9d","system_id":"levelo_inurba_marseille","lat":43.28079,"lon":5.39646,"is_reserved":false,"is_disabled":false,"rental_uris":{"android":"levelo://app?vid=9313a787-13e9-4747-aa6d-776c45943b9d","ios":"levelo://app?vid=9313a787-13e9-4747-aa6d-776c45943b9d"},"vehicle_type_id":"4","last_reported":1729199294,"current_range_meters":38800,"station_id":"ce4bho12rcd13ifvqh2g","pricing_plan_id":"cebpf4jnsgd1na2vs0mg"},{"bike_id":"4e82a983-4406-4fc1-9c7d-45090c1e4862","system_id":"levelo_inurba_marseille","lat":43.24545,"lon":5.39527,"is_reserved":false,"is_disabled":false,"rental_uris":{"android":"levelo://app?vid=4e82a983-4406-4fc1-9c7d-45090c1e4862","ios":"levelo://app?vid=4e82a983-4406-4fc1-9c7d-45090c1e4862"},"vehicle_type_id":"4","last_reported":1729199294,"current_range_meters":34000,"station_id":"ce4bhlp2rcd13ifvqgjg","pricing_plan_id":"cebpf4jnsgd1na2vs0mg"},{"bike_id":"8c1ec6cb-2291-4814-837b-be8625c706f3","system_id":"levelo_inurba_marseille","lat":43.23202,"lon":5.35546,"is_reserved":false,"is_disabled":false,"rental_uris":{"android":"levelo://app?vid=8c1ec6cb-2291-4814-837b-be8625c706f3","ios":"levelo://app?vid=8c1ec6cb-2291-4814-837b-be8625c706f3"},"vehicle_type_id":"4","last_reported":1729199294,"current_range_meters":36400,"station_id":"ce4bhu92rcd13ifvqi70","pricing_plan_id":"cebpf4jnsgd1na2vs0mg"},{"bike_id":"8febca0a-24f7-499b-a335-527c394647a5","system_id":"levelo_inurba_marseille","lat":43.23966,"lon":5.36629,"is_reserved":false,"is_disabled":false,"rental_uris":{"android":"levelo://app?vid=8febca0a-24f7-499b-a335-527c394647a5","ios":"levelo://app?vid=8febca0a-24f7-499b-a335-527c394647a5"},"vehicle_type_id":"4","last_reported":1729199294,"current_range_meters":36800,"station_id":"ce4bhi12rcd13ifvqfp0","pricing_plan_id":"cebpf4jnsgd1na2vs0mg"},{"bike_id":"beb72918-238e-4aaf-b7dd-16aa67ed43f5","system_id":"levelo_inurba_marseille","lat":43.28413,"lon":5.37514,"is_reserved":false,"is_disabled":false,"rental_uris":{"android":"levelo://app?vid=beb72918-238e-4aaf-b7dd-16aa67ed43f5","ios":"levelo://app?vid=beb72918-238e-4aaf-b7dd-16aa67ed43f5"},"vehicle_type_id":"4","last_reported":1729199294,"current_range_meters":34800,"station_id":"ce4bh412rcd13ifvqds0","pricing_plan_id":"cebpf4jnsgd1na2vs0mg"},{"bike_id":"1811bf72-d969-4fc5-940b-d6b24bfa6052","system_id":"levelo_inurba_marseille","lat":43.28082,"lon":5.39647,"is_reserved":false,"is_disabled":false,"rental_uris":{"android":"levelo://app?vid=1811bf72-d969-4fc5-940b-d6b24bfa6052","ios":"levelo://app?vid=1811bf72-d969-4fc5-940b-d6b24bfa6052"},"vehicle_type_id":"4","last_reported":1729199294,"current_range_meters":10800,"station_id":"ce4bho12rcd13ifvqh2g","pricing_plan_id":"cebpf4jnsgd1na2vs0mg"},{"bike_id":"24fc9e9d-31b2-473b-88ca-2727e07e009d","system_id":"levelo_inurba_marseille","lat":43.31483,"lon":5.37298,"is_reserved":false,"is_disabled":false,"rental_uris":{"android":"levelo://app?vid=24fc9e9d-31b2-473b-88ca-2727e07e009d","ios":"levelo://app?vid=24fc9e9d-31b2-473b-88ca-2727e07e009d"},"vehicle_type_id":"4","last_reported":1729199294,"current_range_meters":23200,"station_id":"ce4bgt12rcd13ifvqcd0","pricing_plan_id":"cebpf4jnsgd1na2vs0mg"},{"bike_id":"2b4c5908-6780-45d5-a361-6b611a6a93df","system_id":"levelo_inurba_marseille","lat":43.28364,"lon":5.38628,"is_reserved":false,"is_disabled":false,"rental_uris":{"android":"levelo://app?vid=2b4c5908-6780-45d5-a361-6b611a6a93df","ios":"levelo://app?vid=2b4c5908-6780-45d5-a361-6b611a6a93df"},"vehicle_type_id":"4","last_reported":1729199294,"current_range_meters":12800,"station_id":"ce4bh492rcd13ifvqdvg","pricing_plan_id":"cebpf4jnsgd1na2vs0mg"},{"bike_id":"c89c2319-61a9-47ef-9229-e31c9eaab143","system_id":"levelo_inurba_marseille","lat":43.23195,"lon":5.3555,"is_reserved":false,"is_disabled":false,"rental_uris":{"android":"levelo://app?vid=c89c2319-61a9-47ef-9229-e31c9eaab143","ios":"levelo://app?vid=c89c2319-61a9-47ef-9229-e31c9eaab143"},"vehicle_type_id":"4","last_reported":1729199294,"current_range_meters":38800,"station_id":"ce4bhu92rcd13ifvqi70","pricing_plan_id":"cebpf4jnsgd1na2vs0mg"},{"bike_id":"c1b4d58c-7d67-4800-b5de-bf664ea422e8","system_id":"levelo_inurba_marseille","lat":43.2465,"lon":5.38894,"is_reserved":false,"is_disabled":false,"rental_uris":{"android":"levelo://app?vid=c1b4d58c-7d67-4800-b5de-bf664ea422e8","ios":"levelo://app?vid=c1b4d58c-7d67-4800-b5de-bf664ea422e8"},"vehicle_type_id":"4","last_reported":1729199294,"current_range_meters":8800,"station_id":"ce4bhg12rcd13ifvqf60","pricing_plan_id":"cebpf4jnsgd1na2vs0mg"},{"bike_id":"fb6189db-93db-4c43-8e9b-6ea14d3091ed","system_id":"levelo_inurba_marseille","lat":43.29791,"lon":5.40413,"is_reserved":false,"is_disabled":false,"rental_uris":{"android":"levelo://app?vid=fb6189db-93db-4c43-8e9b-6ea14d3091ed","ios":"levelo://app?vid=fb6189db-93db-4c43-8e9b-6ea14d3091ed"},"vehicle_type_id":"4","last_reported":1729199294,"current_range_meters":38800,"station_id":"ce4bh112rcd13ifvqd90","pricing_plan_id":"cebpf4jnsgd1na2vs0mg"},{"bike_id":"1f83888a-b6f2-480c-87e7-6b07142c1dd0","system_id":"levelo_inurba_marseille","lat":43.29892,"lon":5.43677,"is_reserved":false,"is_disabled":false,"rental_uris":{"android":"levelo://app?vid=1f83888a-b6f2-480c-87e7-6b07142c1dd0","ios":"levelo://app?vid=1f83888a-b6f2-480c-87e7-6b07142c1dd0"},"vehicle_type_id":"4","last_reported":1729199294,"current_range_meters":28800,"station_id":"ce4bhpp2rcd13ifvqhfg","pricing_plan_id":"cebpf4jnsgd1na2vs0mg"},{"bike_id":"794acdc8-c17c-4149-b903-ed4baea396b4","system_id":"levelo_inurba_marseille","lat":43.23187,"lon":5.39983,"is_reserved":false,"is_disabled":false,"rental_uris":{"android":"levelo://app?vid=794acdc8-c17c-4149-b903-ed4baea396b4","ios":"levelo://app?vid=794acdc8-c17c-4149-b903-ed4baea396b4"},"vehicle_type_id":"4","last_reported":1729199294,"current_range_meters":15200,"station_id":"ce4bhn12rcd13ifvqgqg","pricing_plan_id":"cebpf4jnsgd1na2vs0mg"},{"bike_id":"a638a42f-2c86-4a47-9fce-e8d77bee8966","system_id":"levelo_inurba_marseille","lat":43.30809,"lon":5.43526,"is_reserved":false,"is_disabled":false,"rental_uris":{"android":"levelo://app?vid=a638a42f-2c86-4a47-9fce-e8d77bee8966","ios":"levelo://app?vid=a638a42f-2c86-4a47-9fce-e8d77bee8966"},"vehicle_type_id":"4","last_reported":1729199294,"current_range_meters":31200,"station_id":"ce4bhph2rcd13ifvqheg","pricing_plan_id":"cebpf4jnsgd1na2vs0mg"},{"bike_id":"a12fd2c3-b5fe-497f-a9a1-b48106f9e4f3","system_id":"levelo_inurba_marseille","lat":43.2861,"lon":5.37063,"is_reserved":false,"is_disabled":false,"rental_uris":{"android":"levelo://app?vid=a12fd2c3-b5fe-497f-a9a1-b48106f9e4f3","ios":"levelo://app?vid=a12fd2c3-b5fe-497f-a9a1-b48106f9e4f3"},"vehicle_type_id":"4","last_reported":1729199294,"current_range_meters":38800,"station_id":"ce4bht12rcd13ifvqi60","pricing_plan_id":"cebpf4jnsgd1na2vs0mg"},{"bike_id":"ba1f6672-bfde-4b46-954b-90b805fd1961","system_id":"levelo_inurba_marseille","lat":43.28942,"lon":5.3963,"is_reserved":false,"is_disabled":false,"rental_uris":{"android":"levelo://app?vid=ba1f6672-bfde-4b46-954b-90b805fd1961","ios":"levelo://app?vid=ba1f6672-bfde-4b46-954b-90b805fd1961"},"vehicle_type_id":"4","last_reported":1729199294,"current_range_meters":30400,"station_id":"ce4bh3h2rcd13ifvqdn0","pricing_plan_id":"cebpf4jnsgd1na2vs0mg"},{"bike_id":"c6ef7807-f387-424b-8ef0-0612d41c79a5","system_id":"levelo_inurba_marseille","lat":43.28412,"lon":5.37522,"is_reserved":false,"is_disabled":false,"rental_uris":{"android":"levelo://app?vid=c6ef7807-f387-424b-8ef0-0612d41c79a5","ios":"levelo://app?vid=c6ef7807-f387-424b-8ef0-0612d41c79a5"},"vehicle_type_id":"4","last_reported":1729199294,"current_range_meters":6000,"station_id":"ce4bh412rcd13ifvqds0","pricing_plan_id":"cebpf4jnsgd1na2vs0mg"},{"bike_id":"5a6e3f2c-fd31-454f-ad50-80431c5807a4","system_id":"levelo_inurba_marseille","lat":43.30543,"lon":5.38428,"is_reserved":false,"is_disabled":false,"rental_uris":{"android":"levelo://app?vid=5a6e3f2c-fd31-454f-ad50-80431c5807a4","ios":"levelo://app?vid=5a6e3f2c-fd31-454f-ad50-80431c5807a4"},"vehicle_type_id":"4","last_reported":1729199294,"current_range_meters":27600,"station_id":"ce4bgg92rcd13ifvqb30","pricing_plan_id":"cebpf4jnsgd1na2vs0mg"},{"bike_id":"874494de-7452-4f47-9fec-c5ec79478035","system_id":"levelo_inurba_marseille","lat":43.23964,"lon":5.36632,"is_reserved":false,"is_disabled":false,"rental_uris":{"android":"levelo://app?vid=874494de-7452-4f47-9fec-c5ec79478035","ios":"levelo://app?vid=874494de-7452-4f47-9fec-c5ec79478035"},"vehicle_type_id":"4","last_reported":1729199294,"current_range_meters":27200,"station_id":"ce4bhi12rcd13ifvqfp0","pricing_plan_id":"cebpf4jnsgd1na2vs0mg"},{"bike_id":"8b33911e-5d42-46bd-b00d-c1d5ce72f577","system_id":"levelo_inurba_marseille","lat":43.2319,"lon":5.39983,"is_reserved":false,"is_disabled":false,"rental_uris":{"android":"levelo://app?vid=8b33911e-5d42-46bd-b00d-c1d5ce72f577","ios":"levelo://app?vid=8b33911e-5d42-46bd-b00d-c1d5ce72f577"},"vehicle_type_id":"4","last_reported":1729199294,"current_range_meters":35200,"station_id":"ce4bhn12rcd13ifvqgqg","pricing_plan_id":"cebpf4jnsgd1na2vs0mg"},{"bike_id":"584de696-5668-4abd-989f-c68afc7b3431","system_id":"levelo_inurba_marseille","lat":43.29453,"lon":5.39756,"is_reserved":false,"is_disabled":false,"rental_uris":{"android":"levelo://app?vid=584de696-5668-4abd-989f-c68afc7b3431","ios":"levelo://app?vid=584de696-5668-4abd-989f-c68afc7b3431"},"vehicle_type_id":"4","last_reported":1729199294,"current_range_meters":35200,"station_id":"ce4bh3h2rcd13ifvqdo0","pricing_plan_id":"cebpf4jnsgd1na2vs0mg"},{"bike_id":"8ae4669a-29ba-4c2b-aa45-20d8e5cb3dbe","system_id":"levelo_inurba_marseille","lat":43.30801,"lon":5.38161,"is_reserved":false,"is_disabled":false,"rental_uris":{"android":"levelo://app?vid=8ae4669a-29ba-4c2b-aa45-20d8e5cb3dbe","ios":"levelo://app?vid=8ae4669a-29ba-4c2b-aa45-20d8e5cb3dbe"},"vehicle_type_id":"4","last_reported":1729199294,"current_range_meters":38000,"station_id":"ce4bgt12rcd13ifvqce0","pricing_plan_id":"cebpf4jnsgd1na2vs0mg"},{"bike_id":"3d4617f5-270c-4884-8857-7a9ed43ac7f4","system_id":"levelo_inurba_marseille","lat":43.3061,"lon":5.3721,"is_reserved":false,"is_disabled":false,"rental_uris":{"android":"levelo://app?vid=3d4617f5-270c-4884-8857-7a9ed43ac7f4","ios":"levelo://app?vid=3d4617f5-270c-4884-8857-7a9ed43ac7f4"},"vehicle_type_id":"4","last_reported":1729199294,"current_range_meters":16800,"station_id":"ce4bgqh2rcd13ifvqc4g","pricing_plan_id":"cebpf4jnsgd1na2vs0mg"},{"bike_id":"0994d7f0-fa2e-480f-b967-2b1e1b476b78","system_id":"levelo_inurba_marseille","lat":43.23193,"lon":5.35558,"is_reserved":false,"is_disabled":false,"rental_uris":{"android":"levelo://app?vid=0994d7f0-fa2e-480f-b967-2b1e1b476b78","ios":"levelo://app?vid=0994d7f0-fa2e-480f-b967-2b1e1b476b78"},"vehicle_type_id":"4","last_reported":1729199294,"current_range_meters":12000,"station_id":"ce4bhu92rcd13ifvqi70","pricing_plan_id":"cebpf4jnsgd1na2vs0mg"},{"bike_id":"cafacf31-3dc4-4662-b543-8a143108fe4d","system_id":"levelo_inurba_marseille","lat":43.23187,"lon":5.39979,"is_reserved":false,"is_disabled":false,"rental_uris":{"android":"levelo://app?vid=cafacf31-3dc4-4662-b543-8a143108fe4d","ios":"levelo://app?vid=cafacf31-3dc4-4662-b543-8a143108fe4d"},"vehicle_type_id":"4","last_reported":1729199294,"current_range_meters":23200,"station_id":"ce4bhn12rcd13ifvqgqg","pricing_plan_id":"cebpf4jnsgd1na2vs0mg"},{"bike_id":"ca127f3a-6871-4235-aa95-1fb757d1dc55","system_id":"levelo_inurba_marseille","lat":43.32296,"lon":5.38267,"is_reserved":false,"is_disabled":false,"rental_uris":{"android":"levelo://app?vid=ca127f3a-6871-4235-aa95-1fb757d1dc55","ios":"levelo://app?vid=ca127f3a-6871-4235-aa95-1fb757d1dc55"},"vehicle_type_id":"4","last_reported":1729199294,"current_range_meters":38800,"station_id":"ce4bhr12rcd13ifvqhqg","pricing_plan_id":"cebpf4jnsgd1na2vs0mg"},{"bike_id":"d89ec09f-fe91-4a61-9b9f-a3abe3c8f6d8","system_id":"levelo_inurba_marseille","lat":43.32373,"lon":5.38879,"is_reserved":false,"is_disabled":false,"rental_uris":{"android":"levelo://app?vid=d89ec09f-fe91-4a61-9b9f-a3abe3c8f6d8","ios":"levelo://app?vid=d89ec09f-fe91-4a61-9b9f-a3abe3c8f6d8"},"vehicle_type_id":"4","last_reported":1729199294,"current_range_meters":34000,"station_id":"ce4bhqp2rcd13ifvqhog","pricing_plan_id":"cebpf4jnsgd1na2vs0mg"},{"bike_id":"66ccc46d-618e-4760-b09c-27382152bdab","system_id":"levelo_inurba_marseille","lat":43.23193,"lon":5.35543,"is_reserved":false,"is_disabled":false,"rental_uris":{"android":"levelo://app?vid=66ccc46d-618e-4760-b09c-27382152bdab","ios":"levelo://app?vid=66ccc46d-618e-4760-b09c-27382152bdab"},"vehicle_type_id":"4","last_reported":1729199294,"current_range_meters":31200,"station_id":"ce4bhu92rcd13ifvqi70","pricing_plan_id":"cebpf4jnsgd1na2vs0mg"},{"bike_id":"66b3cb08-b978-4220-b65e-d6e352f08baa","system_id":"levelo_inurba_marseille","lat":43.29067,"lon":5.37166,"is_reserved":false,"is_disabled":false,"rental_uris":{"android":"levelo://app?vid=66b3cb08-b978-4220-b65e-d6e352f08baa","ios":"levelo://app?vid=66b3cb08-b978-4220-b65e-d6e352f08baa"},"vehicle_type_id":"4","last_reported":1729199294,"current_range_meters":34800,"station_id":"ce4bh5p2rcd13ifvqe4g","pricing_plan_id":"cebpf4jnsgd1na2vs0mg"},{"bike_id":"4b786b2b-6a90-4a1f-a17f-44f0a2c12f39","system_id":"levelo_inurba_marseille","lat":43.28073,"lon":5.39646,"is_reserved":false,"is_disabled":false,"rental_uris":{"android":"levelo://app?vid=4b786b2b-6a90-4a1f-a17f-44f0a2c12f39","ios":"levelo://app?vid=4b786b2b-6a90-4a1f-a17f-44f0a2c12f39"},"vehicle_type_id":"4","last_reported":1729199294,"current_range_meters":28000,"station_id":"ce4bho12rcd13ifvqh2g","pricing_plan_id":"cebpf4jnsgd1na2vs0mg"},{"bike_id":"1070ebfa-7575-426c-82da-2ce4dd1e2817","system_id":"levelo_inurba_marseille","lat":43.2846,"lon":5.35879,"is_reserved":false,"is_disabled":false,"rental_uris":{"android":"levelo://app?vid=1070ebfa-7575-426c-82da-2ce4dd1e2817","ios":"levelo://app?vid=1070ebfa-7575-426c-82da-2ce4dd1e2817"},"vehicle_type_id":"4","last_reported":1729199294,"current_range_meters":38800,"station_id":"ce4bhah2rcd13ifvqei0","pricing_plan_id":"cebpf4jnsgd1na2vs0mg"},{"bike_id":"ed7b5e0b-1f1a-41ec-b201-a9edb4931872","system_id":"levelo_inurba_marseille","lat":43.28709,"lon":5.39974,"is_reserved":false,"is_disabled":false,"rental_uris":{"android":"levelo://app?vid=ed7b5e0b-1f1a-41ec-b201-a9edb4931872","ios":"levelo://app?vid=ed7b5e0b-1f1a-41ec-b201-a9edb4931872"},"vehicle_type_id":"4","last_reported":1729199294,"current_range_meters":30800,"station_id":"ce4bho92rcd13ifvqh3g","pricing_plan_id":"cebpf4jnsgd1na2vs0mg"},{"bike_id":"e4931e34-e843-4fa6-bef8-69f937e96cc9","system_id":"levelo_inurba_marseille","lat":43.25119,"lon":5.40321,"is_reserved":false,"is_disabled":false,"rental_uris":{"android":"levelo://app?vid=e4931e34-e843-4fa6-bef8-69f937e96cc9","ios":"levelo://app?vid=e4931e34-e843-4fa6-bef8-69f937e96cc9"},"vehicle_type_id":"4","last_reported":1729199294,"current_range_meters":14800,"station_id":"ce4bhlh2rcd13ifvqgig","pricing_plan_id":"cebpf4jnsgd1na2vs0mg"},{"bike_id":"bbe66b0c-f948-4098-9176-25cf08229990","system_id":"levelo_inurba_marseille","lat":43.29284,"lon":5.40133,"is_reserved":false,"is_disabled":false,"rental_uris":{"android":"levelo://app?vid=bbe66b0c-f948-4098-9176-25cf08229990","ios":"levelo://app?vid=bbe66b0c-f948-4098-9176-25cf08229990"},"vehicle_type_id":"4","last_reported":1729199294,"current_range_meters":39200,"station_id":"ce4bh312rcd13ifvqdk0","pricing_plan_id":"cebpf4jnsgd1na2vs0mg"},{"bike_id":"fc262b45-2b88-4d3d-8020-e7c946d1fec3","system_id":"levelo_inurba_marseille","lat":43.32106,"lon":5.3678,"is_reserved":false,"is_disabled":false,"rental_uris":{"android":"levelo://app?vid=fc262b45-2b88-4d3d-8020-e7c946d1fec3","ios":"levelo://app?vid=fc262b45-2b88-4d3d-8020-e7c946d1fec3"},"vehicle_type_id":"4","last_reported":1729199294,"current_range_meters":38800,"station_id":"ce4bhrh2rcd13ifvqhug","pricing_plan_id":"cebpf4jnsgd1na2vs0mg"},{"bike_id":"c17cce54-a7b0-4c23-a721-fd67b04c34d7","system_id":"levelo_inurba_marseille","lat":43.31683,"lon":5.40475,"is_reserved":false,"is_disabled":false,"rental_uris":{"android":"levelo://app?vid=c17cce54-a7b0-4c23-a721-fd67b04c34d7","ios":"levelo://app?vid=c17cce54-a7b0-4c23-a721-fd67b04c34d7"},"vehicle_type_id":"4","last_reported":1729199294,"current_range_meters":9600,"station_id":"ce4bh012rcd13ifvqd00","pricing_plan_id":"cebpf4jnsgd1na2vs0mg"},{"bike_id":"217d36cc-bb89-49d9-8719-57188c40467f","system_id":"levelo_inurba_marseille","lat":43.24994,"lon":5.38935,"is_reserved":false,"is_disabled":false,"rental_uris":{"android":"levelo://app?vid=217d36cc-bb89-49d9-8719-57188c40467f","ios":"levelo://app?vid=217d36cc-bb89-49d9-8719-57188c40467f"},"vehicle_type_id":"4","last_reported":1729199294,"current_range_meters":23200,"station_id":"ce4bhgp2rcd13ifvqfd0","pricing_plan_id":"cebpf4jnsgd1na2vs0mg"},{"bike_id":"59238a0c-de64-46a6-a64a-5a5563ed932a","system_id":"levelo_inurba_marseille","lat":43.22937,"lon":5.35378,"is_reserved":false,"is_disabled":false,"rental_uris":{"android":"levelo://app?vid=59238a0c-de64-46a6-a64a-5a5563ed932a","ios":"levelo://app?vid=59238a0c-de64-46a6-a64a-5a5563ed932a"},"vehicle_type_id":"4","last_reported":1729199294,"current_range_meters":28800,"station_id":"cpo3532slgdg3j2ikp40","pricing_plan_id":"cebpf4jnsgd1na2vs0mg"},{"bike_id":"2f080820-2c2b-4bf5-9fda-1014abe5c0ec","system_id":"levelo_inurba_marseille","lat":43.29961,"lon":5.38496,"is_reserved":false,"is_disabled":false,"rental_uris":{"android":"levelo://app?vid=2f080820-2c2b-4bf5-9fda-1014abe5c0ec","ios":"levelo://app?vid=2f080820-2c2b-4bf5-9fda-1014abe5c0ec"},"vehicle_type_id":"4","last_reported":1729199294,"current_range_meters":8000,"station_id":"ce4bgj92rcd13ifvqbd0","pricing_plan_id":"cebpf4jnsgd1na2vs0mg"},{"bike_id":"c15b47ce-26c6-4fd6-ab72-248e2b851f0f","system_id":"levelo_inurba_marseille","lat":43.29958,"lon":5.37741,"is_reserved":false,"is_disabled":false,"rental_uris":{"android":"levelo://app?vid=c15b47ce-26c6-4fd6-ab72-248e2b851f0f","ios":"levelo://app?vid=c15b47ce-26c6-4fd6-ab72-248e2b851f0f"},"vehicle_type_id":"4","last_reported":1729199294,"current_range_meters":14400,"station_id":"","pricing_plan_id":"cebpf4jnsgd1na2vs0mg"},{"bike_id":"0a12077a-64ea-4f82-9cc2-6d30cd8f221d","system_id":"levelo_inurba_marseille","lat":43.25111,"lon":5.40325,"is_reserved":false,"is_disabled":false,"rental_uris":{"android":"levelo://app?vid=0a12077a-64ea-4f82-9cc2-6d30cd8f221d","ios":"levelo://app?vid=0a12077a-64ea-4f82-9cc2-6d30cd8f221d"},"vehicle_type_id":"4","last_reported":1729199294,"current_range_meters":25200,"station_id":"ce4bhlh2rcd13ifvqgig","pricing_plan_id":"cebpf4jnsgd1na2vs0mg"},{"bike_id":"4c450603-3f04-4e5c-94f9-9405560445fc","system_id":"levelo_inurba_marseille","lat":43.30414,"lon":5.41287,"is_reserved":false,"is_disabled":false,"rental_uris":{"android":"levelo://app?vid=4c450603-3f04-4e5c-94f9-9405560445fc","ios":"levelo://app?vid=4c450603-3f04-4e5c-94f9-9405560445fc"},"vehicle_type_id":"4","last_reported":1729199294,"current_range_meters":38400,"station_id":"ce4bhop2rcd13ifvqh8g","pricing_plan_id":"cebpf4jnsgd1na2vs0mg"},{"bike_id":"94dad7f8-6585-4b37-b691-74420d23ef13","system_id":"levelo_inurba_marseille","lat":43.30804,"lon":5.4352,"is_reserved":false,"is_disabled":false,"rental_uris":{"android":"levelo://app?vid=94dad7f8-6585-4b37-b691-74420d23ef13","ios":"levelo://app?vid=94dad7f8-6585-4b37-b691-74420d23ef13"},"vehicle_type_id":"4","last_reported":1729199294,"current_range_meters":38400,"station_id":"ce4bhph2rcd13ifvqheg","pricing_plan_id":"cebpf4jnsgd1na2vs0mg"},{"bike_id":"0e82c7fb-5add-407e-877f-436cc7295acb","system_id":"levelo_inurba_marseille","lat":43.28564,"lon":5.39501,"is_reserved":false,"is_disabled":false,"rental_uris":{"android":"levelo://app?vid=0e82c7fb-5add-407e-877f-436cc7295acb","ios":"levelo://app?vid=0e82c7fb-5add-407e-877f-436cc7295acb"},"vehicle_type_id":"4","last_reported":1729199294,"current_range_meters":21600,"station_id":"ce4bh292rcd13ifvqdg0","pricing_plan_id":"cebpf4jnsgd1na2vs0mg"},{"bike_id":"4562e9bb-7c1e-4e0e-95e1-858d0f8d86d1","system_id":"levelo_inurba_marseille","lat":43.23192,"lon":5.35563,"is_reserved":false,"is_disabled":false,"rental_uris":{"android":"levelo://app?vid=4562e9bb-7c1e-4e0e-95e1-858d0f8d86d1","ios":"levelo://app?vid=4562e9bb-7c1e-4e0e-95e1-858d0f8d86d1"},"vehicle_type_id":"4","last_reported":1729199294,"current_range_meters":38800,"station_id":"ce4bhu92rcd13ifvqi70","pricing_plan_id":"cebpf4jnsgd1na2vs0mg"},{"bike_id":"2cc7da9d-290a-4a28-913b-8e2efdfbe60b","system_id":"levelo_inurba_marseille","lat":43.3043,"lon":5.41286,"is_reserved":false,"is_disabled":false,"rental_uris":{"android":"levelo://app?vid=2cc7da9d-290a-4a28-913b-8e2efdfbe60b","ios":"levelo://app?vid=2cc7da9d-290a-4a28-913b-8e2efdfbe60b"},"vehicle_type_id":"4","last_reported":1729199294,"current_range_meters":16000,"station_id":"ce4bhop2rcd13ifvqh8g","pricing_plan_id":"cebpf4jnsgd1na2vs0mg"},{"bike_id":"439234c6-7189-4dab-95ff-c08c915402ac","system_id":"levelo_inurba_marseille","lat":43.30875,"lon":5.39642,"is_reserved":false,"is_disabled":false,"rental_uris":{"android":"levelo://app?vid=439234c6-7189-4dab-95ff-c08c915402ac","ios":"levelo://app?vid=439234c6-7189-4dab-95ff-c08c915402ac"},"vehicle_type_id":"4","last_reported":1729199294,"current_range_meters":38800,"station_id":"ce4bh012rcd13ifvqcv0","pricing_plan_id":"cebpf4jnsgd1na2vs0mg"},{"bike_id":"6837ac97-30a8-4145-8047-b6d6df61ac48","system_id":"levelo_inurba_marseille","lat":43.23188,"lon":5.39987,"is_reserved":false,"is_disabled":false,"rental_uris":{"android":"levelo://app?vid=6837ac97-30a8-4145-8047-b6d6df61ac48","ios":"levelo://app?vid=6837ac97-30a8-4145-8047-b6d6df61ac48"},"vehicle_type_id":"4","last_reported":1729199294,"current_range_meters":38400,"station_id":"ce4bhn12rcd13ifvqgqg","pricing_plan_id":"cebpf4jnsgd1na2vs0mg"},{"bike_id":"2140b6a3-5118-4150-823e-9225aeb56201","system_id":"levelo_inurba_marseille","lat":43.23188,"lon":5.35545,"is_reserved":false,"is_disabled":false,"rental_uris":{"android":"levelo://app?vid=2140b6a3-5118-4150-823e-9225aeb56201","ios":"levelo://app?vid=2140b6a3-5118-4150-823e-9225aeb56201"},"vehicle_type_id":"4","last_reported":1729199294,"current_range_meters":35200,"station_id":"ce4bhu92rcd13ifvqi70","pricing_plan_id":"cebpf4jnsgd1na2vs0mg"},{"bike_id":"2d26828d-d90f-4409-8e3f-2bdaa5ca0cb2","system_id":"levelo_inurba_marseille","lat":43.23186,"lon":5.39984,"is_reserved":false,"is_disabled":false,"rental_uris":{"android":"levelo://app?vid=2d26828d-d90f-4409-8e3f-2bdaa5ca0cb2","ios":"levelo://app?vid=2d26828d-d90f-4409-8e3f-2bdaa5ca0cb2"},"vehicle_type_id":"4","last_reported":1729199294,"current_range_meters":36400,"station_id":"ce4bhn12rcd13ifvqgqg","pricing_plan_id":"cebpf4jnsgd1na2vs0mg"},{"bike_id":"8015e1d7-aa1b-4e39-8862-6cac0e4f7565","system_id":"levelo_inurba_marseille","lat":43.28566,"lon":5.39494,"is_reserved":false,"is_disabled":false,"rental_uris":{"android":"levelo://app?vid=8015e1d7-aa1b-4e39-8862-6cac0e4f7565","ios":"levelo://app?vid=8015e1d7-aa1b-4e39-8862-6cac0e4f7565"},"vehicle_type_id":"4","last_reported":1729199294,"current_range_meters":22800,"station_id":"ce4bh292rcd13ifvqdg0","pricing_plan_id":"cebpf4jnsgd1na2vs0mg"},{"bike_id":"71dfedd5-3997-425f-b7df-08ed520ddc6f","system_id":"levelo_inurba_marseille","lat":43.28848,"lon":5.39331,"is_reserved":false,"is_disabled":false,"rental_uris":{"android":"levelo://app?vid=71dfedd5-3997-425f-b7df-08ed520ddc6f","ios":"levelo://app?vid=71dfedd5-3997-425f-b7df-08ed520ddc6f"},"vehicle_type_id":"4","last_reported":1729199294,"current_range_meters":35600,"station_id":"ce4bh2p2rcd13ifvqdi0","pricing_plan_id":"cebpf4jnsgd1na2vs0mg"},{"bike_id":"7180b101-6957-496b-b5e2-67f598931762","system_id":"levelo_inurba_marseille","lat":43.27995,"lon":5.40013,"is_reserved":false,"is_disabled":false,"rental_uris":{"android":"levelo://app?vid=7180b101-6957-496b-b5e2-67f598931762","ios":"levelo://app?vid=7180b101-6957-496b-b5e2-67f598931762"},"vehicle_type_id":"4","last_reported":1729199294,"current_range_meters":6000,"station_id":"ce4bho92rcd13ifvqh4g","pricing_plan_id":"cebpf4jnsgd1na2vs0mg"},{"bike_id":"274fdafa-4b9d-4114-a02f-88b1b7077b5d","system_id":"levelo_inurba_marseille","lat":43.31761,"lon":5.39008,"is_reserved":false,"is_disabled":false,"rental_uris":{"android":"levelo://app?vid=274fdafa-4b9d-4114-a02f-88b1b7077b5d","ios":"levelo://app?vid=274fdafa-4b9d-4114-a02f-88b1b7077b5d"},"vehicle_type_id":"4","last_reported":1729199294,"current_range_meters":38800,"station_id":"ce4bhqp2rcd13ifvqhng","pricing_plan_id":"cebpf4jnsgd1na2vs0mg"},{"bike_id":"ab7dd9d4-41f9-462e-8030-94f1c16fff7a","system_id":"levelo_inurba_marseille","lat":43.295349,"lon":5.385412,"is_reserved":false,"is_disabled":false,"rental_uris":{"android":"levelo://app?vid=ab7dd9d4-41f9-462e-8030-94f1c16fff7a","ios":"levelo://app?vid=ab7dd9d4-41f9-462e-8030-94f1c16fff7a"},"vehicle_type_id":"4","last_reported":1729199294,"current_range_meters":24400,"station_id":"ce4bhah2rcd13ifvqej0","pricing_plan_id":"cebpf4jnsgd1na2vs0mg"},{"bike_id":"66273aaf-4a3f-4ab1-95c9-9102359831d5","system_id":"levelo_inurba_marseille","lat":43.26028,"lon":5.37552,"is_reserved":false,"is_disabled":false,"rental_uris":{"android":"levelo://app?vid=66273aaf-4a3f-4ab1-95c9-9102359831d5","ios":"levelo://app?vid=66273aaf-4a3f-4ab1-95c9-9102359831d5"},"vehicle_type_id":"4","last_reported":1729199294,"current_range_meters":38800,"station_id":"ce4bhgh2rcd13ifvqfa0","pricing_plan_id":"cebpf4jnsgd1na2vs0mg"},{"bike_id":"3e6ec0f9-6d54-4adf-bced-cd01f00ef021","system_id":"levelo_inurba_marseille","lat":43.28941,"lon":5.39623,"is_reserved":false,"is_disabled":false,"rental_uris":{"android":"levelo://app?vid=3e6ec0f9-6d54-4adf-bced-cd01f00ef021","ios":"levelo://app?vid=3e6ec0f9-6d54-4adf-bced-cd01f00ef021"},"vehicle_type_id":"4","last_reported":1729199294,"current_range_meters":38800,"station_id":"ce4bh3h2rcd13ifvqdn0","pricing_plan_id":"cebpf4jnsgd1na2vs0mg"},{"bike_id":"974e9931-6d20-4545-9e5e-b40e518c0577","system_id":"levelo_inurba_marseille","lat":43.27818,"lon":5.4071,"is_reserved":false,"is_disabled":false,"rental_uris":{"android":"levelo://app?vid=974e9931-6d20-4545-9e5e-b40e518c0577","ios":"levelo://app?vid=974e9931-6d20-4545-9e5e-b40e518c0577"},"vehicle_type_id":"4","last_reported":1729199294,"current_range_meters":30000,"station_id":"ce4bhnh2rcd13ifvqgtg","pricing_plan_id":"cebpf4jnsgd1na2vs0mg"},{"bike_id":"8e38c3d2-b931-413b-a976-d335dbaab6fd","system_id":"levelo_inurba_marseille","lat":43.25865,"lon":5.39894,"is_reserved":false,"is_disabled":false,"rental_uris":{"android":"levelo://app?vid=8e38c3d2-b931-413b-a976-d335dbaab6fd","ios":"levelo://app?vid=8e38c3d2-b931-413b-a976-d335dbaab6fd"},"vehicle_type_id":"4","last_reported":1729199294,"current_range_meters":38800,"station_id":"ce4bhl92rcd13ifvqghg","pricing_plan_id":"cebpf4jnsgd1na2vs0mg"},{"bike_id":"71095f19-95cd-4724-a1a5-c0e9f7375980","system_id":"levelo_inurba_marseille","lat":43.2827,"lon":5.35081,"is_reserved":false,"is_disabled":false,"rental_uris":{"android":"levelo://app?vid=71095f19-95cd-4724-a1a5-c0e9f7375980","ios":"levelo://app?vid=71095f19-95cd-4724-a1a5-c0e9f7375980"},"vehicle_type_id":"4","last_reported":1729199294,"current_range_meters":38800,"station_id":"ce4bhbp2rcd13ifvqerg","pricing_plan_id":"cebpf4jnsgd1na2vs0mg"},{"bike_id":"521c673e-7033-4999-9ba4-100fe2ca5465","system_id":"levelo_inurba_marseille","lat":43.24654,"lon":5.38887,"is_reserved":false,"is_disabled":false,"rental_uris":{"android":"levelo://app?vid=521c673e-7033-4999-9ba4-100fe2ca5465","ios":"levelo://app?vid=521c673e-7033-4999-9ba4-100fe2ca5465"},"vehicle_type_id":"4","last_reported":1729199294,"current_range_meters":35200,"station_id":"ce4bhg12rcd13ifvqf60","pricing_plan_id":"cebpf4jnsgd1na2vs0mg"},{"bike_id":"83bcafb6-7740-4133-8b56-4bf302222f17","system_id":"levelo_inurba_marseille","lat":43.23968,"lon":5.3663,"is_reserved":false,"is_disabled":false,"rental_uris":{"android":"levelo://app?vid=83bcafb6-7740-4133-8b56-4bf302222f17","ios":"levelo://app?vid=83bcafb6-7740-4133-8b56-4bf302222f17"},"vehicle_type_id":"4","last_reported":1729199294,"current_range_meters":38800,"station_id":"ce4bhi12rcd13ifvqfp0","pricing_plan_id":"cebpf4jnsgd1na2vs0mg"},{"bike_id":"7772d39f-5e28-445c-af91-069b0cf63793","system_id":"levelo_inurba_marseille","lat":43.33765,"lon":5.37438,"is_reserved":false,"is_disabled":false,"rental_uris":{"android":"levelo://app?vid=7772d39f-5e28-445c-af91-069b0cf63793","ios":"levelo://app?vid=7772d39f-5e28-445c-af91-069b0cf63793"},"vehicle_type_id":"4","last_reported":1729199294,"current_range_meters":16400,"station_id":"","pricing_plan_id":"cebpf4jnsgd1na2vs0mg"},{"bike_id":"341c6749-6474-42a4-8be3-1a1a4be540a3","system_id":"levelo_inurba_marseille","lat":43.33024,"lon":5.39044,"is_reserved":false,"is_disabled":false,"rental_uris":{"android":"levelo://app?vid=341c6749-6474-42a4-8be3-1a1a4be540a3","ios":"levelo://app?vid=341c6749-6474-42a4-8be3-1a1a4be540a3"},"vehicle_type_id":"4","last_reported":1729199294,"current_range_meters":16800,"station_id":"ce4bhr92rcd13ifvqhrg","pricing_plan_id":"cebpf4jnsgd1na2vs0mg"},{"bike_id":"d8eb113e-a350-4b67-9422-42aa94d51fec","system_id":"levelo_inurba_marseille","lat":43.28105,"lon":5.37837,"is_reserved":false,"is_disabled":false,"rental_uris":{"android":"levelo://app?vid=d8eb113e-a350-4b67-9422-42aa94d51fec","ios":"levelo://app?vid=d8eb113e-a350-4b67-9422-42aa94d51fec"},"vehicle_type_id":"4","last_reported":1729199294,"current_range_meters":11200,"station_id":"ce4bha12rcd13ifvqee0","pricing_plan_id":"cebpf4jnsgd1na2vs0mg"},{"bike_id":"3213665e-989c-4d22-9f5a-31c8522597dd","system_id":"levelo_inurba_marseille","lat":43.296,"lon":5.36142,"is_reserved":false,"is_disabled":false,"rental_uris":{"android":"levelo://app?vid=3213665e-989c-4d22-9f5a-31c8522597dd","ios":"levelo://app?vid=3213665e-989c-4d22-9f5a-31c8522597dd"},"vehicle_type_id":"4","last_reported":1729199294,"current_range_meters":27200,"station_id":"","pricing_plan_id":"cebpf4jnsgd1na2vs0mg"},{"bike_id":"340668a8-406a-42a1-a4cc-3dee34ea2f60","system_id":"levelo_inurba_marseille","lat":43.317033,"lon":5.377468,"is_reserved":false,"is_disabled":false,"rental_uris":{"android":"levelo://app?vid=340668a8-406a-42a1-a4cc-3dee34ea2f60","ios":"levelo://app?vid=340668a8-406a-42a1-a4cc-3dee34ea2f60"},"vehicle_type_id":"4","last_reported":1729199294,"current_range_meters":16800,"station_id":"ce4bgth2rcd13ifvqch0","pricing_plan_id":"cebpf4jnsgd1na2vs0mg"},{"bike_id":"cddb2538-acdb-46a5-bc95-6e0a8d74ef0c","system_id":"levelo_inurba_marseille","lat":43.308,"lon":5.43523,"is_reserved":false,"is_disabled":false,"rental_uris":{"android":"levelo://app?vid=cddb2538-acdb-46a5-bc95-6e0a8d74ef0c","ios":"levelo://app?vid=cddb2538-acdb-46a5-bc95-6e0a8d74ef0c"},"vehicle_type_id":"4","last_reported":1729199294,"current_range_meters":35600,"station_id":"ce4bhph2rcd13ifvqheg","pricing_plan_id":"cebpf4jnsgd1na2vs0mg"},{"bike_id":"a8eba3d5-b3c0-4f18-b60f-aa3687e1d6de","system_id":"levelo_inurba_marseille","lat":43.2319,"lon":5.39986,"is_reserved":false,"is_disabled":false,"rental_uris":{"android":"levelo://app?vid=a8eba3d5-b3c0-4f18-b60f-aa3687e1d6de","ios":"levelo://app?vid=a8eba3d5-b3c0-4f18-b60f-aa3687e1d6de"},"vehicle_type_id":"4","last_reported":1729199294,"current_range_meters":36000,"station_id":"ce4bhn12rcd13ifvqgqg","pricing_plan_id":"cebpf4jnsgd1na2vs0mg"},{"bike_id":"232c9916-430c-4f2f-99b6-45e55a18a493","system_id":"levelo_inurba_marseille","lat":43.24073,"lon":5.37757,"is_reserved":false,"is_disabled":false,"rental_uris":{"android":"levelo://app?vid=232c9916-430c-4f2f-99b6-45e55a18a493","ios":"levelo://app?vid=232c9916-430c-4f2f-99b6-45e55a18a493"},"vehicle_type_id":"4","last_reported":1729199294,"current_range_meters":38800,"station_id":"ce4bhnp2rcd13ifvqgvg","pricing_plan_id":"cebpf4jnsgd1na2vs0mg"},{"bike_id":"5ccf9646-207d-4ec3-8750-95ff14851d06","system_id":"levelo_inurba_marseille","lat":43.3234,"lon":5.40619,"is_reserved":false,"is_disabled":false,"rental_uris":{"android":"levelo://app?vid=5ccf9646-207d-4ec3-8750-95ff14851d06","ios":"levelo://app?vid=5ccf9646-207d-4ec3-8750-95ff14851d06"},"vehicle_type_id":"4","last_reported":1729199294,"current_range_meters":24400,"station_id":"ce4bhq92rcd13ifvqhjg","pricing_plan_id":"cebpf4jnsgd1na2vs0mg"},{"bike_id":"1641b826-604a-4181-8231-dca386f637a6","system_id":"levelo_inurba_marseille","lat":43.23191,"lon":5.3556,"is_reserved":false,"is_disabled":false,"rental_uris":{"android":"levelo://app?vid=1641b826-604a-4181-8231-dca386f637a6","ios":"levelo://app?vid=1641b826-604a-4181-8231-dca386f637a6"},"vehicle_type_id":"4","last_reported":1729199294,"current_range_meters":32400,"station_id":"ce4bhu92rcd13ifvqi70","pricing_plan_id":"cebpf4jnsgd1na2vs0mg"},{"bike_id":"89211ee2-076f-4df3-92bd-cd8885f2e76d","system_id":"levelo_inurba_marseille","lat":43.23202,"lon":5.35559,"is_reserved":false,"is_disabled":false,"rental_uris":{"android":"levelo://app?vid=89211ee2-076f-4df3-92bd-cd8885f2e76d","ios":"levelo://app?vid=89211ee2-076f-4df3-92bd-cd8885f2e76d"},"vehicle_type_id":"4","last_reported":1729199294,"current_range_meters":31200,"station_id":"ce4bhu92rcd13ifvqi70","pricing_plan_id":"cebpf4jnsgd1na2vs0mg"},{"bike_id":"3006d2e9-2181-4c00-9dc2-e200a90526fb","system_id":"levelo_inurba_marseille","lat":43.2782,"lon":5.40717,"is_reserved":false,"is_disabled":false,"rental_uris":{"android":"levelo://app?vid=3006d2e9-2181-4c00-9dc2-e200a90526fb","ios":"levelo://app?vid=3006d2e9-2181-4c00-9dc2-e200a90526fb"},"vehicle_type_id":"4","last_reported":1729199294,"current_range_meters":9200,"station_id":"ce4bhnh2rcd13ifvqgtg","pricing_plan_id":"cebpf4jnsgd1na2vs0mg"},{"bike_id":"a3c5a5f4-a245-44e7-a623-76fdceeba507","system_id":"levelo_inurba_marseille","lat":43.28709,"lon":5.39984,"is_reserved":false,"is_disabled":false,"rental_uris":{"android":"levelo://app?vid=a3c5a5f4-a245-44e7-a623-76fdceeba507","ios":"levelo://app?vid=a3c5a5f4-a245-44e7-a623-76fdceeba507"},"vehicle_type_id":"4","last_reported":1729199294,"current_range_meters":15200,"station_id":"ce4bho92rcd13ifvqh3g","pricing_plan_id":"cebpf4jnsgd1na2vs0mg"},{"bike_id":"35c933d6-0efe-4363-9428-3f39de1cb728","system_id":"levelo_inurba_marseille","lat":43.25822,"lon":5.39424,"is_reserved":false,"is_disabled":false,"rental_uris":{"android":"levelo://app?vid=35c933d6-0efe-4363-9428-3f39de1cb728","ios":"levelo://app?vid=35c933d6-0efe-4363-9428-3f39de1cb728"},"vehicle_type_id":"4","last_reported":1729199294,"current_range_meters":30000,"station_id":"ce4bhip2rcd13ifvqft0","pricing_plan_id":"cebpf4jnsgd1na2vs0mg"},{"bike_id":"34877952-bb98-4531-9216-dca039194380","system_id":"levelo_inurba_marseille","lat":43.29054,"lon":5.35929,"is_reserved":false,"is_disabled":false,"rental_uris":{"android":"levelo://app?vid=34877952-bb98-4531-9216-dca039194380","ios":"levelo://app?vid=34877952-bb98-4531-9216-dca039194380"},"vehicle_type_id":"4","last_reported":1729199294,"current_range_meters":38800,"station_id":"ce4bha92rcd13ifvqeg0","pricing_plan_id":"cebpf4jnsgd1na2vs0mg"},{"bike_id":"87b80bb0-1dc5-44c1-9c7b-c0ae5bdcc6ea","system_id":"levelo_inurba_marseille","lat":43.27073,"lon":5.42271,"is_reserved":false,"is_disabled":false,"rental_uris":{"android":"levelo://app?vid=87b80bb0-1dc5-44c1-9c7b-c0ae5bdcc6ea","ios":"levelo://app?vid=87b80bb0-1dc5-44c1-9c7b-c0ae5bdcc6ea"},"vehicle_type_id":"4","last_reported":1729199294,"current_range_meters":14000,"station_id":"ce4bhk92rcd13ifvqgb0","pricing_plan_id":"cebpf4jnsgd1na2vs0mg"},{"bike_id":"7e04bfe4-5526-44cc-98f1-213aea1ceb34","system_id":"levelo_inurba_marseille","lat":43.29186,"lon":5.37151,"is_reserved":false,"is_disabled":false,"rental_uris":{"android":"levelo://app?vid=7e04bfe4-5526-44cc-98f1-213aea1ceb34","ios":"levelo://app?vid=7e04bfe4-5526-44cc-98f1-213aea1ceb34"},"vehicle_type_id":"4","last_reported":1729199294,"current_range_meters":32800,"station_id":"ce4bha92rcd13ifvqeh0","pricing_plan_id":"cebpf4jnsgd1na2vs0mg"},{"bike_id":"d4ac97fc-7a00-4682-9c17-69640517dd1c","system_id":"levelo_inurba_marseille","lat":43.2903,"lon":5.38631,"is_reserved":false,"is_disabled":false,"rental_uris":{"android":"levelo://app?vid=d4ac97fc-7a00-4682-9c17-69640517dd1c","ios":"levelo://app?vid=d4ac97fc-7a00-4682-9c17-69640517dd1c"},"vehicle_type_id":"4","last_reported":1729199294,"current_range_meters":16000,"station_id":"ce4bh4p2rcd13ifvqe0g","pricing_plan_id":"cebpf4jnsgd1na2vs0mg"},{"bike_id":"f88c7e01-bc8c-4735-8a37-e29425c30c87","system_id":"levelo_inurba_marseille","lat":43.23186,"lon":5.39986,"is_reserved":false,"is_disabled":false,"rental_uris":{"android":"levelo://app?vid=f88c7e01-bc8c-4735-8a37-e29425c30c87","ios":"levelo://app?vid=f88c7e01-bc8c-4735-8a37-e29425c30c87"},"vehicle_type_id":"4","last_reported":1729199294,"current_range_meters":10000,"station_id":"ce4bhn12rcd13ifvqgqg","pricing_plan_id":"cebpf4jnsgd1na2vs0mg"},{"bike_id":"e8fa0c67-c553-4a87-9c32-6644007fca22","system_id":"levelo_inurba_marseille","lat":43.28615,"lon":5.35102,"is_reserved":false,"is_disabled":false,"rental_uris":{"android":"levelo://app?vid=e8fa0c67-c553-4a87-9c32-6644007fca22","ios":"levelo://app?vid=e8fa0c67-c553-4a87-9c32-6644007fca22"},"vehicle_type_id":"4","last_reported":1729199294,"current_range_meters":16800,"station_id":"ce4bhch2rcd13ifvqeug","pricing_plan_id":"cebpf4jnsgd1na2vs0mg"},{"bike_id":"14deb1b1-b495-4b35-97c2-895a5ef7ad23","system_id":"levelo_inurba_marseille","lat":43.32334,"lon":5.40621,"is_reserved":false,"is_disabled":false,"rental_uris":{"android":"levelo://app?vid=14deb1b1-b495-4b35-97c2-895a5ef7ad23","ios":"levelo://app?vid=14deb1b1-b495-4b35-97c2-895a5ef7ad23"},"vehicle_type_id":"4","last_reported":1729199294,"current_range_meters":39200,"station_id":"ce4bhq92rcd13ifvqhjg","pricing_plan_id":"cebpf4jnsgd1na2vs0mg"},{"bike_id":"c99a9cdd-b5c6-4f27-8cec-99faa53b1c05","system_id":"levelo_inurba_marseille","lat":43.2904,"lon":5.39964,"is_reserved":false,"is_disabled":false,"rental_uris":{"android":"levelo://app?vid=c99a9cdd-b5c6-4f27-8cec-99faa53b1c05","ios":"levelo://app?vid=c99a9cdd-b5c6-4f27-8cec-99faa53b1c05"},"vehicle_type_id":"4","last_reported":1729199294,"current_range_meters":13600,"station_id":"ce4bh392rcd13ifvqdm0","pricing_plan_id":"cebpf4jnsgd1na2vs0mg"},{"bike_id":"87440bd7-4730-412f-b52f-03b263c3d6ba","system_id":"levelo_inurba_marseille","lat":43.232,"lon":5.35559,"is_reserved":false,"is_disabled":false,"rental_uris":{"android":"levelo://app?vid=87440bd7-4730-412f-b52f-03b263c3d6ba","ios":"levelo://app?vid=87440bd7-4730-412f-b52f-03b263c3d6ba"},"vehicle_type_id":"4","last_reported":1729199294,"current_range_meters":17200,"station_id":"ce4bhu92rcd13ifvqi70","pricing_plan_id":"cebpf4jnsgd1na2vs0mg"},{"bike_id":"853aab9d-438c-4237-b86a-b2c5d81ecaf9","system_id":"levelo_inurba_marseille","lat":43.29873,"lon":5.39727,"is_reserved":false,"is_disabled":false,"rental_uris":{"android":"levelo://app?vid=853aab9d-438c-4237-b86a-b2c5d81ecaf9","ios":"levelo://app?vid=853aab9d-438c-4237-b86a-b2c5d81ecaf9"},"vehicle_type_id":"4","last_reported":1729199294,"current_range_meters":38000,"station_id":"ce4bh0h2rcd13ifvqd50","pricing_plan_id":"cebpf4jnsgd1na2vs0mg"},{"bike_id":"417ef51f-8761-4251-ba70-12de3fd708f4","system_id":"levelo_inurba_marseille","lat":43.30622,"lon":5.37224,"is_reserved":false,"is_disabled":false,"rental_uris":{"android":"levelo://app?vid=417ef51f-8761-4251-ba70-12de3fd708f4","ios":"levelo://app?vid=417ef51f-8761-4251-ba70-12de3fd708f4"},"vehicle_type_id":"4","last_reported":1729199294,"current_range_meters":36800,"station_id":"ce4bgqh2rcd13ifvqc4g","pricing_plan_id":"cebpf4jnsgd1na2vs0mg"},{"bike_id":"51a178e5-b378-42c2-b9be-625bbe080081","system_id":"levelo_inurba_marseille","lat":43.29087,"lon":5.37172,"is_reserved":false,"is_disabled":false,"rental_uris":{"android":"levelo://app?vid=51a178e5-b378-42c2-b9be-625bbe080081","ios":"levelo://app?vid=51a178e5-b378-42c2-b9be-625bbe080081"},"vehicle_type_id":"4","last_reported":1729199294,"current_range_meters":28800,"station_id":"ce4bh5p2rcd13ifvqe4g","pricing_plan_id":"cebpf4jnsgd1na2vs0mg"},{"bike_id":"8c5293d6-35a0-4aa1-a33a-4251bf05d055","system_id":"levelo_inurba_marseille","lat":43.27178,"lon":5.40994,"is_reserved":false,"is_disabled":false,"rental_uris":{"android":"levelo://app?vid=8c5293d6-35a0-4aa1-a33a-4251bf05d055","ios":"levelo://app?vid=8c5293d6-35a0-4aa1-a33a-4251bf05d055"},"vehicle_type_id":"4","last_reported":1729199294,"current_range_meters":38800,"station_id":"ce4bhl12rcd13ifvqgf0","pricing_plan_id":"cebpf4jnsgd1na2vs0mg"},{"bike_id":"1c61c240-9d00-4c1f-b112-113ee598425d","system_id":"levelo_inurba_marseille","lat":43.33023,"lon":5.39046,"is_reserved":false,"is_disabled":false,"rental_uris":{"android":"levelo://app?vid=1c61c240-9d00-4c1f-b112-113ee598425d","ios":"levelo://app?vid=1c61c240-9d00-4c1f-b112-113ee598425d"},"vehicle_type_id":"4","last_reported":1729199294,"current_range_meters":14400,"station_id":"ce4bhr92rcd13ifvqhrg","pricing_plan_id":"cebpf4jnsgd1na2vs0mg"},{"bike_id":"eb848605-056e-4890-879f-181fc3b47d35","system_id":"levelo_inurba_marseille","lat":43.29033,"lon":5.38653,"is_reserved":false,"is_disabled":false,"rental_uris":{"android":"levelo://app?vid=eb848605-056e-4890-879f-181fc3b47d35","ios":"levelo://app?vid=eb848605-056e-4890-879f-181fc3b47d35"},"vehicle_type_id":"4","last_reported":1729199294,"current_range_meters":38800,"station_id":"ce4bh4p2rcd13ifvqe0g","pricing_plan_id":"cebpf4jnsgd1na2vs0mg"},{"bike_id":"42f264b5-ce90-44e6-8adf-ecc77c1fd4b7","system_id":"levelo_inurba_marseille","lat":43.31083,"lon":5.38344,"is_reserved":false,"is_disabled":false,"rental_uris":{"android":"levelo://app?vid=42f264b5-ce90-44e6-8adf-ecc77c1fd4b7","ios":"levelo://app?vid=42f264b5-ce90-44e6-8adf-ecc77c1fd4b7"},"vehicle_type_id":"4","last_reported":1729199294,"current_range_meters":38800,"station_id":"ce4bgv92rcd13ifvqcr0","pricing_plan_id":"cebpf4jnsgd1na2vs0mg"},{"bike_id":"4d08a006-a6ef-49b4-8051-c13297637cad","system_id":"levelo_inurba_marseille","lat":43.31176,"lon":5.38718,"is_reserved":false,"is_disabled":false,"rental_uris":{"android":"levelo://app?vid=4d08a006-a6ef-49b4-8051-c13297637cad","ios":"levelo://app?vid=4d08a006-a6ef-49b4-8051-c13297637cad"},"vehicle_type_id":"4","last_reported":1729199294,"current_range_meters":34000,"station_id":"ce4bgv12rcd13ifvqcp0","pricing_plan_id":"cebpf4jnsgd1na2vs0mg"},{"bike_id":"20f6833b-f377-42f3-b1bd-b80d30a9dde6","system_id":"levelo_inurba_marseille","lat":43.29938,"lon":5.37701,"is_reserved":false,"is_disabled":false,"rental_uris":{"android":"levelo://app?vid=20f6833b-f377-42f3-b1bd-b80d30a9dde6","ios":"levelo://app?vid=20f6833b-f377-42f3-b1bd-b80d30a9dde6"},"vehicle_type_id":"4","last_reported":1729199294,"current_range_meters":24400,"station_id":"","pricing_plan_id":"cebpf4jnsgd1na2vs0mg"},{"bike_id":"037e7d08-a78c-4974-ac0b-96c939dea0e0","system_id":"levelo_inurba_marseille","lat":43.3081,"lon":5.43522,"is_reserved":false,"is_disabled":false,"rental_uris":{"android":"levelo://app?vid=037e7d08-a78c-4974-ac0b-96c939dea0e0","ios":"levelo://app?vid=037e7d08-a78c-4974-ac0b-96c939dea0e0"},"vehicle_type_id":"4","last_reported":1729199294,"current_range_meters":15200,"station_id":"ce4bhph2rcd13ifvqheg","pricing_plan_id":"cebpf4jnsgd1na2vs0mg"},{"bike_id":"a06ac547-ffe4-433d-a1b1-a5a27205dc60","system_id":"levelo_inurba_marseille","lat":43.29038,"lon":5.39983,"is_reserved":false,"is_disabled":false,"rental_uris":{"android":"levelo://app?vid=a06ac547-ffe4-433d-a1b1-a5a27205dc60","ios":"levelo://app?vid=a06ac547-ffe4-433d-a1b1-a5a27205dc60"},"vehicle_type_id":"4","last_reported":1729199294,"current_range_meters":9200,"station_id":"ce4bh392rcd13ifvqdm0","pricing_plan_id":"cebpf4jnsgd1na2vs0mg"},{"bike_id":"6a53f35f-762f-4592-9a8f-ca1c22a37d5c","system_id":"levelo_inurba_marseille","lat":43.31723,"lon":5.42395,"is_reserved":false,"is_disabled":false,"rental_uris":{"android":"levelo://app?vid=6a53f35f-762f-4592-9a8f-ca1c22a37d5c","ios":"levelo://app?vid=6a53f35f-762f-4592-9a8f-ca1c22a37d5c"},"vehicle_type_id":"4","last_reported":1729199294,"current_range_meters":37600,"station_id":"ce4bhp92rcd13ifvqhbg","pricing_plan_id":"cebpf4jnsgd1na2vs0mg"},{"bike_id":"b2a5087f-ee0d-4b32-8a93-92715cb5d8a5","system_id":"levelo_inurba_marseille","lat":43.28615,"lon":5.35106,"is_reserved":false,"is_disabled":false,"rental_uris":{"android":"levelo://app?vid=b2a5087f-ee0d-4b32-8a93-92715cb5d8a5","ios":"levelo://app?vid=b2a5087f-ee0d-4b32-8a93-92715cb5d8a5"},"vehicle_type_id":"4","last_reported":1729199294,"current_range_meters":8000,"station_id":"ce4bhch2rcd13ifvqeug","pricing_plan_id":"cebpf4jnsgd1na2vs0mg"},{"bike_id":"ecdffe81-4124-4f3a-8ea8-000d22b7503b","system_id":"levelo_inurba_marseille","lat":43.25119,"lon":5.40326,"is_reserved":false,"is_disabled":false,"rental_uris":{"android":"levelo://app?vid=ecdffe81-4124-4f3a-8ea8-000d22b7503b","ios":"levelo://app?vid=ecdffe81-4124-4f3a-8ea8-000d22b7503b"},"vehicle_type_id":"4","last_reported":1729199294,"current_range_meters":23200,"station_id":"ce4bhlh2rcd13ifvqgig","pricing_plan_id":"cebpf4jnsgd1na2vs0mg"},{"bike_id":"5aad7362-03a1-4cb4-8b19-d1bc0a90019b","system_id":"levelo_inurba_marseille","lat":43.28723,"lon":5.36107,"is_reserved":false,"is_disabled":false,"rental_uris":{"android":"levelo://app?vid=5aad7362-03a1-4cb4-8b19-d1bc0a90019b","ios":"levelo://app?vid=5aad7362-03a1-4cb4-8b19-d1bc0a90019b"},"vehicle_type_id":"4","last_reported":1729199294,"current_range_meters":38400,"station_id":"cki0cbj6b192h4jlfktg","pricing_plan_id":"cebpf4jnsgd1na2vs0mg"},{"bike_id":"a42336f1-6fcd-4045-891e-701347f41b85","system_id":"levelo_inurba_marseille","lat":43.23184,"lon":5.39978,"is_reserved":false,"is_disabled":false,"rental_uris":{"android":"levelo://app?vid=a42336f1-6fcd-4045-891e-701347f41b85","ios":"levelo://app?vid=a42336f1-6fcd-4045-891e-701347f41b85"},"vehicle_type_id":"4","last_reported":1729199294,"current_range_meters":6800,"station_id":"ce4bhn12rcd13ifvqgqg","pricing_plan_id":"cebpf4jnsgd1na2vs0mg"},{"bike_id":"2901ff37-0119-4f7b-91fb-d7fdf0736260","system_id":"levelo_inurba_marseille","lat":43.2293,"lon":5.35374,"is_reserved":false,"is_disabled":false,"rental_uris":{"android":"levelo://app?vid=2901ff37-0119-4f7b-91fb-d7fdf0736260","ios":"levelo://app?vid=2901ff37-0119-4f7b-91fb-d7fdf0736260"},"vehicle_type_id":"4","last_reported":1729199294,"current_range_meters":30000,"station_id":"cpo3532slgdg3j2ikp40","pricing_plan_id":"cebpf4jnsgd1na2vs0mg"},{"bike_id":"cb76f825-9dab-46a9-8a65-cc589bf2be41","system_id":"levelo_inurba_marseille","lat":43.31074,"lon":5.38351,"is_reserved":false,"is_disabled":false,"rental_uris":{"android":"levelo://app?vid=cb76f825-9dab-46a9-8a65-cc589bf2be41","ios":"levelo://app?vid=cb76f825-9dab-46a9-8a65-cc589bf2be41"},"vehicle_type_id":"4","last_reported":1729199294,"current_range_meters":13600,"station_id":"ce4bgv92rcd13ifvqcr0","pricing_plan_id":"cebpf4jnsgd1na2vs0mg"},{"bike_id":"b37d02fb-217e-462c-94d2-099f9eb690a2","system_id":"levelo_inurba_marseille","lat":43.32367,"lon":5.38881,"is_reserved":false,"is_disabled":false,"rental_uris":{"android":"levelo://app?vid=b37d02fb-217e-462c-94d2-099f9eb690a2","ios":"levelo://app?vid=b37d02fb-217e-462c-94d2-099f9eb690a2"},"vehicle_type_id":"4","last_reported":1729199294,"current_range_meters":38800,"station_id":"ce4bhqp2rcd13ifvqhog","pricing_plan_id":"cebpf4jnsgd1na2vs0mg"},{"bike_id":"b76a5105-a423-43f5-aec7-bd99ea0efcb3","system_id":"levelo_inurba_marseille","lat":43.28017,"lon":5.39987,"is_reserved":false,"is_disabled":false,"rental_uris":{"android":"levelo://app?vid=b76a5105-a423-43f5-aec7-bd99ea0efcb3","ios":"levelo://app?vid=b76a5105-a423-43f5-aec7-bd99ea0efcb3"},"vehicle_type_id":"4","last_reported":1729199294,"current_range_meters":14000,"station_id":"ce4bho92rcd13ifvqh4g","pricing_plan_id":"cebpf4jnsgd1na2vs0mg"},{"bike_id":"61296efc-2989-4d06-bf1e-eb0e4d43d68e","system_id":"levelo_inurba_marseille","lat":43.29891,"lon":5.43661,"is_reserved":false,"is_disabled":false,"rental_uris":{"android":"levelo://app?vid=61296efc-2989-4d06-bf1e-eb0e4d43d68e","ios":"levelo://app?vid=61296efc-2989-4d06-bf1e-eb0e4d43d68e"},"vehicle_type_id":"4","last_reported":1729199294,"current_range_meters":20800,"station_id":"ce4bhpp2rcd13ifvqhfg","pricing_plan_id":"cebpf4jnsgd1na2vs0mg"},{"bike_id":"b942abc5-d022-4842-94bb-2945d7b46dd5","system_id":"levelo_inurba_marseille","lat":43.29256,"lon":5.40914,"is_reserved":false,"is_disabled":false,"rental_uris":{"android":"levelo://app?vid=b942abc5-d022-4842-94bb-2945d7b46dd5","ios":"levelo://app?vid=b942abc5-d022-4842-94bb-2945d7b46dd5"},"vehicle_type_id":"4","last_reported":1729199294,"current_range_meters":30400,"station_id":"ce4bh192rcd13ifvqdc0","pricing_plan_id":"cebpf4jnsgd1na2vs0mg"},{"bike_id":"915d8fda-eaef-4a60-9d36-992c88c1e042","system_id":"levelo_inurba_marseille","lat":43.25005,"lon":5.38927,"is_reserved":false,"is_disabled":false,"rental_uris":{"android":"levelo://app?vid=915d8fda-eaef-4a60-9d36-992c88c1e042","ios":"levelo://app?vid=915d8fda-eaef-4a60-9d36-992c88c1e042"},"vehicle_type_id":"4","last_reported":1729199294,"current_range_meters":38800,"station_id":"ce4bhgp2rcd13ifvqfd0","pricing_plan_id":"cebpf4jnsgd1na2vs0mg"},{"bike_id":"7a76e164-6b75-4577-a223-fcbb4c2d551b","system_id":"levelo_inurba_marseille","lat":43.28082,"lon":5.39652,"is_reserved":false,"is_disabled":false,"rental_uris":{"android":"levelo://app?vid=7a76e164-6b75-4577-a223-fcbb4c2d551b","ios":"levelo://app?vid=7a76e164-6b75-4577-a223-fcbb4c2d551b"},"vehicle_type_id":"4","last_reported":1729199294,"current_range_meters":38800,"station_id":"ce4bho12rcd13ifvqh2g","pricing_plan_id":"cebpf4jnsgd1na2vs0mg"},{"bike_id":"8a8e14d6-1b1a-4430-b1ad-c14354c56425","system_id":"levelo_inurba_marseille","lat":43.28464,"lon":5.35889,"is_reserved":false,"is_disabled":false,"rental_uris":{"android":"levelo://app?vid=8a8e14d6-1b1a-4430-b1ad-c14354c56425","ios":"levelo://app?vid=8a8e14d6-1b1a-4430-b1ad-c14354c56425"},"vehicle_type_id":"4","last_reported":1729199294,"current_range_meters":38800,"station_id":"ce4bhah2rcd13ifvqei0","pricing_plan_id":"cebpf4jnsgd1na2vs0mg"},{"bike_id":"292b9425-1372-40d4-bf0a-fe57aa779a41","system_id":"levelo_inurba_marseille","lat":43.23065,"lon":5.35492,"is_reserved":false,"is_disabled":false,"rental_uris":{"android":"levelo://app?vid=292b9425-1372-40d4-bf0a-fe57aa779a41","ios":"levelo://app?vid=292b9425-1372-40d4-bf0a-fe57aa779a41"},"vehicle_type_id":"4","last_reported":1729199294,"current_range_meters":22800,"station_id":"cpo3342slgdg3j2ifvpg","pricing_plan_id":"cebpf4jnsgd1na2vs0mg"},{"bike_id":"6221cb36-edfa-4007-9251-4e97b6e794cf","system_id":"levelo_inurba_marseille","lat":43.29231,"lon":5.39339,"is_reserved":false,"is_disabled":false,"rental_uris":{"android":"levelo://app?vid=6221cb36-edfa-4007-9251-4e97b6e794cf","ios":"levelo://app?vid=6221cb36-edfa-4007-9251-4e97b6e794cf"},"vehicle_type_id":"4","last_reported":1729199294,"current_range_meters":29600,"station_id":"","pricing_plan_id":"cebpf4jnsgd1na2vs0mg"},{"bike_id":"bd321e80-fd78-4956-9233-098dbe52cde5","system_id":"levelo_inurba_marseille","lat":43.28346,"lon":5.38094,"is_reserved":false,"is_disabled":false,"rental_uris":{"android":"levelo://app?vid=bd321e80-fd78-4956-9233-098dbe52cde5","ios":"levelo://app?vid=bd321e80-fd78-4956-9233-098dbe52cde5"},"vehicle_type_id":"4","last_reported":1729199294,"current_range_meters":38800,"station_id":"ce4bh412rcd13ifvqdr0","pricing_plan_id":"cebpf4jnsgd1na2vs0mg"},{"bike_id":"afe9ff89-1b31-492e-9dea-f8a33b0bd764","system_id":"levelo_inurba_marseille","lat":43.27823,"lon":5.40717,"is_reserved":false,"is_disabled":false,"rental_uris":{"android":"levelo://app?vid=afe9ff89-1b31-492e-9dea-f8a33b0bd764","ios":"levelo://app?vid=afe9ff89-1b31-492e-9dea-f8a33b0bd764"},"vehicle_type_id":"4","last_reported":1729199294,"current_range_meters":11600,"station_id":"ce4bhnh2rcd13ifvqgtg","pricing_plan_id":"cebpf4jnsgd1na2vs0mg"},{"bike_id":"a019f1e8-7848-405c-b673-5dfc2714b862","system_id":"levelo_inurba_marseille","lat":43.286544,"lon":5.363296,"is_reserved":false,"is_disabled":false,"rental_uris":{"android":"levelo://app?vid=a019f1e8-7848-405c-b673-5dfc2714b862","ios":"levelo://app?vid=a019f1e8-7848-405c-b673-5dfc2714b862"},"vehicle_type_id":"4","last_reported":1729199294,"current_range_meters":13600,"station_id":"ce4bhah2rcd13ifvqej0","pricing_plan_id":"cebpf4jnsgd1na2vs0mg"},{"bike_id":"43376379-841a-4ab5-a899-0c04078360e3","system_id":"levelo_inurba_marseille","lat":43.29877,"lon":5.38912,"is_reserved":false,"is_disabled":false,"rental_uris":{"android":"levelo://app?vid=43376379-841a-4ab5-a899-0c04078360e3","ios":"levelo://app?vid=43376379-841a-4ab5-a899-0c04078360e3"},"vehicle_type_id":"4","last_reported":1729199294,"current_range_meters":34000,"station_id":"ce4bh392rcd13ifvqdl0","pricing_plan_id":"cebpf4jnsgd1na2vs0mg"},{"bike_id":"ffd967cc-c450-40c7-98bb-34aa93a398a5","system_id":"levelo_inurba_marseille","lat":43.2558,"lon":5.3823,"is_reserved":false,"is_disabled":false,"rental_uris":{"android":"levelo://app?vid=ffd967cc-c450-40c7-98bb-34aa93a398a5","ios":"levelo://app?vid=ffd967cc-c450-40c7-98bb-34aa93a398a5"},"vehicle_type_id":"4","last_reported":1729199294,"current_range_meters":3600,"station_id":"ce4bhih2rcd13ifvqfs0","pricing_plan_id":"cebpf4jnsgd1na2vs0mg"},{"bike_id":"572612ea-6211-4e75-b878-624a22c01cde","system_id":"levelo_inurba_marseille","lat":43.24645,"lon":5.38893,"is_reserved":false,"is_disabled":false,"rental_uris":{"android":"levelo://app?vid=572612ea-6211-4e75-b878-624a22c01cde","ios":"levelo://app?vid=572612ea-6211-4e75-b878-624a22c01cde"},"vehicle_type_id":"4","last_reported":1729199294,"current_range_meters":38800,"station_id":"ce4bhg12rcd13ifvqf60","pricing_plan_id":"cebpf4jnsgd1na2vs0mg"},{"bike_id":"38706bf9-3b79-442f-9546-e032d556aede","system_id":"levelo_inurba_marseille","lat":43.31496,"lon":5.37299,"is_reserved":false,"is_disabled":false,"rental_uris":{"android":"levelo://app?vid=38706bf9-3b79-442f-9546-e032d556aede","ios":"levelo://app?vid=38706bf9-3b79-442f-9546-e032d556aede"},"vehicle_type_id":"4","last_reported":1729199294,"current_range_meters":33600,"station_id":"ce4bgt12rcd13ifvqcd0","pricing_plan_id":"cebpf4jnsgd1na2vs0mg"},{"bike_id":"fe36cf2f-484f-4855-beea-2190084a4047","system_id":"levelo_inurba_marseille","lat":43.28859,"lon":5.39301,"is_reserved":false,"is_disabled":false,"rental_uris":{"android":"levelo://app?vid=fe36cf2f-484f-4855-beea-2190084a4047","ios":"levelo://app?vid=fe36cf2f-484f-4855-beea-2190084a4047"},"vehicle_type_id":"4","last_reported":1729199294,"current_range_meters":38800,"station_id":"ce4bh2p2rcd13ifvqdi0","pricing_plan_id":"cebpf4jnsgd1na2vs0mg"},{"bike_id":"b633155f-92f7-4c2b-8e4d-d4d0be37cdf8","system_id":"levelo_inurba_marseille","lat":43.28935,"lon":5.39627,"is_reserved":false,"is_disabled":false,"rental_uris":{"android":"levelo://app?vid=b633155f-92f7-4c2b-8e4d-d4d0be37cdf8","ios":"levelo://app?vid=b633155f-92f7-4c2b-8e4d-d4d0be37cdf8"},"vehicle_type_id":"4","last_reported":1729199294,"current_range_meters":28000,"station_id":"ce4bh3h2rcd13ifvqdn0","pricing_plan_id":"cebpf4jnsgd1na2vs0mg"},{"bike_id":"01cbf671-4826-495e-a376-b47a0ddca874","system_id":"levelo_inurba_marseille","lat":43.32338,"lon":5.40629,"is_reserved":false,"is_disabled":false,"rental_uris":{"android":"levelo://app?vid=01cbf671-4826-495e-a376-b47a0ddca874","ios":"levelo://app?vid=01cbf671-4826-495e-a376-b47a0ddca874"},"vehicle_type_id":"4","last_reported":1729199294,"current_range_meters":11600,"station_id":"ce4bhq92rcd13ifvqhjg","pricing_plan_id":"cebpf4jnsgd1na2vs0mg"},{"bike_id":"9a2fcb28-d237-4843-ab8c-a6815b949572","system_id":"levelo_inurba_marseille","lat":43.2509,"lon":5.39509,"is_reserved":false,"is_disabled":false,"rental_uris":{"android":"levelo://app?vid=9a2fcb28-d237-4843-ab8c-a6815b949572","ios":"levelo://app?vid=9a2fcb28-d237-4843-ab8c-a6815b949572"},"vehicle_type_id":"4","last_reported":1729199294,"current_range_meters":36400,"station_id":"ce4bhm12rcd13ifvqgkg","pricing_plan_id":"cebpf4jnsgd1na2vs0mg"},{"bike_id":"c5003968-e3c8-4085-b45b-79e00df73f77","system_id":"levelo_inurba_marseille","lat":43.28001,"lon":5.4001,"is_reserved":false,"is_disabled":false,"rental_uris":{"android":"levelo://app?vid=c5003968-e3c8-4085-b45b-79e00df73f77","ios":"levelo://app?vid=c5003968-e3c8-4085-b45b-79e00df73f77"},"vehicle_type_id":"4","last_reported":1729199294,"current_range_meters":18000,"station_id":"ce4bho92rcd13ifvqh4g","pricing_plan_id":"cebpf4jnsgd1na2vs0mg"},{"bike_id":"e3ca7803-aaa7-4ddf-8937-86afb5d1cee8","system_id":"levelo_inurba_marseille","lat":43.317106,"lon":5.437075,"is_reserved":false,"is_disabled":false,"rental_uris":{"android":"levelo://app?vid=e3ca7803-aaa7-4ddf-8937-86afb5d1cee8","ios":"levelo://app?vid=e3ca7803-aaa7-4ddf-8937-86afb5d1cee8"},"vehicle_type_id":"4","last_reported":1729199294,"current_range_meters":24400,"station_id":"ce4bhp92rcd13ifvqhcg","pricing_plan_id":"cebpf4jnsgd1na2vs0mg"},{"bike_id":"be6a465b-62d9-4cf8-8170-6a0c88bce8b4","system_id":"levelo_inurba_marseille","lat":43.29552,"lon":5.42274,"is_reserved":false,"is_disabled":false,"rental_uris":{"android":"levelo://app?vid=be6a465b-62d9-4cf8-8170-6a0c88bce8b4","ios":"levelo://app?vid=be6a465b-62d9-4cf8-8170-6a0c88bce8b4"},"vehicle_type_id":"4","last_reported":1729199294,"current_range_meters":33600,"station_id":"ce4bhph2rcd13ifvqhdg","pricing_plan_id":"cebpf4jnsgd1na2vs0mg"},{"bike_id":"568ad7c3-61ab-4891-8036-e9ee4ec77a40","system_id":"levelo_inurba_marseille","lat":43.231813,"lon":5.39986,"is_reserved":false,"is_disabled":false,"rental_uris":{"android":"levelo://app?vid=568ad7c3-61ab-4891-8036-e9ee4ec77a40","ios":"levelo://app?vid=568ad7c3-61ab-4891-8036-e9ee4ec77a40"},"vehicle_type_id":"4","last_reported":1729199294,"current_range_meters":38400,"station_id":"ce4bhn12rcd13ifvqgqg","pricing_plan_id":"cebpf4jnsgd1na2vs0mg"},{"bike_id":"3664398f-378f-46f2-bd12-30042ad8db9d","system_id":"levelo_inurba_marseille","lat":43.23177,"lon":5.39989,"is_reserved":false,"is_disabled":false,"rental_uris":{"android":"levelo://app?vid=3664398f-378f-46f2-bd12-30042ad8db9d","ios":"levelo://app?vid=3664398f-378f-46f2-bd12-30042ad8db9d"},"vehicle_type_id":"4","last_reported":1729199294,"current_range_meters":33200,"station_id":"ce4bhn12rcd13ifvqgqg","pricing_plan_id":"cebpf4jnsgd1na2vs0mg"},{"bike_id":"f17779a9-5022-42b5-beb5-0ab99a26452b","system_id":"levelo_inurba_marseille","lat":43.27827,"lon":5.40716,"is_reserved":false,"is_disabled":false,"rental_uris":{"android":"levelo://app?vid=f17779a9-5022-42b5-beb5-0ab99a26452b","ios":"levelo://app?vid=f17779a9-5022-42b5-beb5-0ab99a26452b"},"vehicle_type_id":"4","last_reported":1729199294,"current_range_meters":30800,"station_id":"ce4bhnh2rcd13ifvqgtg","pricing_plan_id":"cebpf4jnsgd1na2vs0mg"},{"bike_id":"3c0b4095-688f-4a0f-88cc-dfe9db2b3c79","system_id":"levelo_inurba_marseille","lat":43.29852,"lon":5.36296,"is_reserved":false,"is_disabled":false,"rental_uris":{"android":"levelo://app?vid=3c0b4095-688f-4a0f-88cc-dfe9db2b3c79","ios":"levelo://app?vid=3c0b4095-688f-4a0f-88cc-dfe9db2b3c79"},"vehicle_type_id":"4","last_reported":1729199294,"current_range_meters":25600,"station_id":"ce4bgpp2rcd13ifvqc3g","pricing_plan_id":"cebpf4jnsgd1na2vs0mg"},{"bike_id":"a9d80141-cb04-4f88-bcc5-9763572e3517","system_id":"levelo_inurba_marseille","lat":43.23194,"lon":5.3555,"is_reserved":false,"is_disabled":false,"rental_uris":{"android":"levelo://app?vid=a9d80141-cb04-4f88-bcc5-9763572e3517","ios":"levelo://app?vid=a9d80141-cb04-4f88-bcc5-9763572e3517"},"vehicle_type_id":"4","last_reported":1729199294,"current_range_meters":31200,"station_id":"ce4bhu92rcd13ifvqi70","pricing_plan_id":"cebpf4jnsgd1na2vs0mg"},{"bike_id":"99046160-402e-48ad-8c6f-3603364fdbfd","system_id":"levelo_inurba_marseille","lat":43.2594,"lon":5.40905,"is_reserved":false,"is_disabled":false,"rental_uris":{"android":"levelo://app?vid=99046160-402e-48ad-8c6f-3603364fdbfd","ios":"levelo://app?vid=99046160-402e-48ad-8c6f-3603364fdbfd"},"vehicle_type_id":"4","last_reported":1729199294,"current_range_meters":36000,"station_id":"ce4bhm92rcd13ifvqglg","pricing_plan_id":"cebpf4jnsgd1na2vs0mg"},{"bike_id":"35a22db4-7e9d-4709-be91-f373b0a75e57","system_id":"levelo_inurba_marseille","lat":43.33746,"lon":5.37447,"is_reserved":false,"is_disabled":false,"rental_uris":{"android":"levelo://app?vid=35a22db4-7e9d-4709-be91-f373b0a75e57","ios":"levelo://app?vid=35a22db4-7e9d-4709-be91-f373b0a75e57"},"vehicle_type_id":"4","last_reported":1729199294,"current_range_meters":8400,"station_id":"","pricing_plan_id":"cebpf4jnsgd1na2vs0mg"},{"bike_id":"097c5741-cbbf-413b-afe5-fd71d63b8df6","system_id":"levelo_inurba_marseille","lat":43.28717,"lon":5.36103,"is_reserved":false,"is_disabled":false,"rental_uris":{"android":"levelo://app?vid=097c5741-cbbf-413b-afe5-fd71d63b8df6","ios":"levelo://app?vid=097c5741-cbbf-413b-afe5-fd71d63b8df6"},"vehicle_type_id":"4","last_reported":1729199294,"current_range_meters":28400,"station_id":"cki0cbj6b192h4jlfktg","pricing_plan_id":"cebpf4jnsgd1na2vs0mg"},{"bike_id":"deb1c25a-eac1-4fbc-a75c-2901f5e631f3","system_id":"levelo_inurba_marseille","lat":43.30883,"lon":5.39651,"is_reserved":false,"is_disabled":false,"rental_uris":{"android":"levelo://app?vid=deb1c25a-eac1-4fbc-a75c-2901f5e631f3","ios":"levelo://app?vid=deb1c25a-eac1-4fbc-a75c-2901f5e631f3"},"vehicle_type_id":"4","last_reported":1729199294,"current_range_meters":30400,"station_id":"ce4bh012rcd13ifvqcv0","pricing_plan_id":"cebpf4jnsgd1na2vs0mg"},{"bike_id":"232859b9-fe55-49da-8d70-54008c900b9a","system_id":"levelo_inurba_marseille","lat":43.29897,"lon":5.43661,"is_reserved":false,"is_disabled":false,"rental_uris":{"android":"levelo://app?vid=232859b9-fe55-49da-8d70-54008c900b9a","ios":"levelo://app?vid=232859b9-fe55-49da-8d70-54008c900b9a"},"vehicle_type_id":"4","last_reported":1729199294,"current_range_meters":37600,"station_id":"ce4bhpp2rcd13ifvqhfg","pricing_plan_id":"cebpf4jnsgd1na2vs0mg"},{"bike_id":"faa4ee8f-d70c-45c2-9618-f3ba2fa75b2f","system_id":"levelo_inurba_marseille","lat":43.25089,"lon":5.39519,"is_reserved":false,"is_disabled":false,"rental_uris":{"android":"levelo://app?vid=faa4ee8f-d70c-45c2-9618-f3ba2fa75b2f","ios":"levelo://app?vid=faa4ee8f-d70c-45c2-9618-f3ba2fa75b2f"},"vehicle_type_id":"4","last_reported":1729199294,"current_range_meters":28800,"station_id":"ce4bhm12rcd13ifvqgkg","pricing_plan_id":"cebpf4jnsgd1na2vs0mg"},{"bike_id":"78f98990-63b7-4d69-aa5d-950162093610","system_id":"levelo_inurba_marseille","lat":43.31326,"lon":5.39701,"is_reserved":false,"is_disabled":false,"rental_uris":{"android":"levelo://app?vid=78f98990-63b7-4d69-aa5d-950162093610","ios":"levelo://app?vid=78f98990-63b7-4d69-aa5d-950162093610"},"vehicle_type_id":"4","last_reported":1729199294,"current_range_meters":20800,"station_id":"ce4bgvp2rcd13ifvqcu0","pricing_plan_id":"cebpf4jnsgd1na2vs0mg"},{"bike_id":"15fb17a5-bc0d-4009-8884-9b183bbe30d2","system_id":"levelo_inurba_marseille","lat":43.28269,"lon":5.35076,"is_reserved":false,"is_disabled":false,"rental_uris":{"android":"levelo://app?vid=15fb17a5-bc0d-4009-8884-9b183bbe30d2","ios":"levelo://app?vid=15fb17a5-bc0d-4009-8884-9b183bbe30d2"},"vehicle_type_id":"4","last_reported":1729199294,"current_range_meters":38800,"station_id":"ce4bhbp2rcd13ifvqerg","pricing_plan_id":"cebpf4jnsgd1na2vs0mg"},{"bike_id":"4ce6a8a4-f543-406e-9b3b-bf69a485e2ff","system_id":"levelo_inurba_marseille","lat":43.2465,"lon":5.38893,"is_reserved":false,"is_disabled":false,"rental_uris":{"android":"levelo://app?vid=4ce6a8a4-f543-406e-9b3b-bf69a485e2ff","ios":"levelo://app?vid=4ce6a8a4-f543-406e-9b3b-bf69a485e2ff"},"vehicle_type_id":"4","last_reported":1729199294,"current_range_meters":32000,"station_id":"ce4bhg12rcd13ifvqf60","pricing_plan_id":"cebpf4jnsgd1na2vs0mg"},{"bike_id":"73ba8a82-da21-46a4-aa42-12f7712c2a56","system_id":"levelo_inurba_marseille","lat":43.28619,"lon":5.351,"is_reserved":false,"is_disabled":false,"rental_uris":{"android":"levelo://app?vid=73ba8a82-da21-46a4-aa42-12f7712c2a56","ios":"levelo://app?vid=73ba8a82-da21-46a4-aa42-12f7712c2a56"},"vehicle_type_id":"4","last_reported":1729199294,"current_range_meters":38800,"station_id":"ce4bhch2rcd13ifvqeug","pricing_plan_id":"cebpf4jnsgd1na2vs0mg"},{"bike_id":"c9bf4f2f-c395-4348-a61a-af22ef7e335a","system_id":"levelo_inurba_marseille","lat":43.28617,"lon":5.351,"is_reserved":false,"is_disabled":false,"rental_uris":{"android":"levelo://app?vid=c9bf4f2f-c395-4348-a61a-af22ef7e335a","ios":"levelo://app?vid=c9bf4f2f-c395-4348-a61a-af22ef7e335a"},"vehicle_type_id":"4","last_reported":1729199294,"current_range_meters":24400,"station_id":"ce4bhch2rcd13ifvqeug","pricing_plan_id":"cebpf4jnsgd1na2vs0mg"},{"bike_id":"3905b23a-744a-470a-b26a-8a4ef391c4df","system_id":"levelo_inurba_marseille","lat":43.27843,"lon":5.39207,"is_reserved":false,"is_disabled":false,"rental_uris":{"android":"levelo://app?vid=3905b23a-744a-470a-b26a-8a4ef391c4df","ios":"levelo://app?vid=3905b23a-744a-470a-b26a-8a4ef391c4df"},"vehicle_type_id":"4","last_reported":1729199294,"current_range_meters":28800,"station_id":"ce4bhjp2rcd13ifvqga0","pricing_plan_id":"cebpf4jnsgd1na2vs0mg"},{"bike_id":"d41309ab-1a1f-4395-acaa-455483c3f8e1","system_id":"levelo_inurba_marseille","lat":43.23194,"lon":5.35559,"is_reserved":false,"is_disabled":false,"rental_uris":{"android":"levelo://app?vid=d41309ab-1a1f-4395-acaa-455483c3f8e1","ios":"levelo://app?vid=d41309ab-1a1f-4395-acaa-455483c3f8e1"},"vehicle_type_id":"4","last_reported":1729199294,"current_range_meters":35200,"station_id":"ce4bhu92rcd13ifvqi70","pricing_plan_id":"cebpf4jnsgd1na2vs0mg"},{"bike_id":"426a7769-25b2-493d-9bfe-80e8e462560a","system_id":"levelo_inurba_marseille","lat":43.29045,"lon":5.3592,"is_reserved":false,"is_disabled":false,"rental_uris":{"android":"levelo://app?vid=426a7769-25b2-493d-9bfe-80e8e462560a","ios":"levelo://app?vid=426a7769-25b2-493d-9bfe-80e8e462560a"},"vehicle_type_id":"4","last_reported":1729199294,"current_range_meters":38800,"station_id":"ce4bha92rcd13ifvqeg0","pricing_plan_id":"cebpf4jnsgd1na2vs0mg"},{"bike_id":"c9c627f2-b480-4877-9905-d12e5e104683","system_id":"levelo_inurba_marseille","lat":43.29428,"lon":5.38616,"is_reserved":false,"is_disabled":false,"rental_uris":{"android":"levelo://app?vid=c9c627f2-b480-4877-9905-d12e5e104683","ios":"levelo://app?vid=c9c627f2-b480-4877-9905-d12e5e104683"},"vehicle_type_id":"4","last_reported":1729199294,"current_range_meters":14000,"station_id":"ce4bgt12rcd13ifvqce0","pricing_plan_id":"cebpf4jnsgd1na2vs0mg"},{"bike_id":"5d7fa87f-896d-4050-b095-97a49d3728a4","system_id":"levelo_inurba_marseille","lat":43.32293,"lon":5.3827,"is_reserved":false,"is_disabled":false,"rental_uris":{"android":"levelo://app?vid=5d7fa87f-896d-4050-b095-97a49d3728a4","ios":"levelo://app?vid=5d7fa87f-896d-4050-b095-97a49d3728a4"},"vehicle_type_id":"4","last_reported":1729199294,"current_range_meters":28800,"station_id":"ce4bhr12rcd13ifvqhqg","pricing_plan_id":"cebpf4jnsgd1na2vs0mg"},