{"last_updated":1744409341,"ttl":60,"version":"2.2","data":{"bikes":[{"bike_id":"d2e71e19-1b65-4e45-99b3-a3b41c210764","system_id":"levelo_inurba_marseille","lat":43.306,"lon":5.39354,"is_reserved":false,"is_disabled":false,"rental_uris":{"android":"levelo://app?vid=d2e71e19-1b65-4e45-99b3-a3b41c210764","ios":"levelo://app?vid=d2e71e19-1b65-4e45-99b3-a3b41c210764"},"vehicle_type_id":"4","last_reported":1744409341,"current_range_meters":2800,"station_id":"ce4bh0p2rcd13ifvqd80","pricing_plan_id":"cebpf4jnsgd1na2vs0mg"},{"bike_id":"a2f108d1-17f4-403a-9df9-f2d925ed8bc6","system_id":"levelo_inurba_marseille","lat":43.27844,"lon":5.39214,"is_reserved":false,"is_disabled":true,"rental_uris":{"android":"levelo://app?vid=a2f108d1-17f4-403a-9df9-f2d925ed8bc6","ios":"levelo://app?vid=a2f108d1-17f4-403a-9df9-f2d925ed8bc6"},"vehicle_type_id":"4","last_reported":1744409341,"current_range_meters":2800,"station_id":"ce4bhjp2rcd13ifvqga0","pricing_plan_id":"cebpf4jnsgd1na2vs0mg"},{"bike_id":"cf5b9f69-f62c-469a-9c4b-befe7ca438c6","system_id":"levelo_inurba_marseille","lat":43.2798,"lon":5.41681,"is_reserved":false,"is_disabled":true,"rental_uris":{"android":"levelo://app?vid=cf5b9f69-f62c-469a-9c4b-befe7ca438c6","ios":"levelo://app?vid=cf5b9f69-f62c-469a-9c4b-befe7ca438c6"},"vehicle_type_id":"4","last_reported":1744409341,"current_range_meters":2800,"station_id":"ce4bho12rcd13ifvqh1g","pricing_plan_id":"cebpf4jnsgd1na2vs0mg"},{"bike_id":"9fa1da7d-3e41-4d1d-b9e2-fed271a00817","system_id":"levelo_inurba_marseille","lat":43.24807,"lon":5.37444,"is_reserved":false,"is_disabled":false,"rental_uris":{"android":"levelo://app?vid=9fa1da7d-3e41-4d1d-b9e2-fed271a00817","ios":"levelo://app?vid=9fa1da7d-3e41-4d1d-b9e2-fed271a00817"},"vehicle_type_id":"4","last_reported":1744409341,"current_range_meters":2800,"station_id":"ce4bhgh2rcd13ifvqfb0","pricing_plan_id":"cebpf4jnsgd1na2vs0mg"},{"bike_id":"17d2b224-bfde-464c-86ae-ff2f1b0ce1bf","system_id":"levelo_inurba_marseille","lat":43.2621,"lon":5.3744,"is_reserved":false,"is_disabled":false,"rental_uris":{"android":"levelo://app?vid=17d2b224-bfde-464c-86ae-ff2f1b0ce1bf","ios":"levelo://app?vid=17d2b224-bfde-464c-86ae-ff2f1b0ce1bf"},"vehicle_type_id":"4","last_reported":1744409341,"current_range_meters":2800,"station_id":"ce4bhgp2rcd13ifvqfc0","pricing_plan_id":"cebpf4jnsgd1na2vs0mg"},{"bike_id":"c7e68575-2d3d-40e9-8b91-6a4c776ef7a6","system_id":"levelo_inurba_marseille","lat":43.25873,"lon":5.39896,"is_reserved":false,"is_disabled":false,"rental_uris":{"android":"levelo://app?vid=c7e68575-2d3d-40e9-8b91-6a4c776ef7a6","ios":"levelo://app?vid=c7e68575-2d3d-40e9-8b91-6a4c776ef7a6"},"vehicle_type_id":"4","last_reported":1744409341,"current_range_meters":2800,"station_id":"ce4bhl92rcd13ifvqghg","pricing_plan_id":"cebpf4jnsgd1na2vs0mg"},{"bike_id":"16564bc5-3bf8-4cf2-8578-c06c667d7c17","system_id":"levelo_inurba_marseille","lat":43.29422,"lon":5.38605,"is_reserved":false,"is_disabled":false,"rental_uris":{"android":"levelo://app?vid=16564bc5-3bf8-4cf2-8578-c06c667d7c17","ios":"levelo://app?vid=16564bc5-3bf8-4cf2-8578-c06c667d7c17"},"vehicle_type_id":"4","last_reported":1744409341,"current_range_meters":2800,"station_id":"ce4bh2h2rcd13ifvqdh0","pricing_plan_id":"cebpf4jnsgd1na2vs0mg"},{"bike_id":"b3d0094b-b0ec-4270-90ed-56652ba3feed","system_id":"levelo_inurba_marseille","lat":43.2333,"lon":5.36189,"is_reserved":false,"is_disabled":false,"rental_uris":{"android":"levelo://app?vid=b3d0094b-b0ec-4270-90ed-56652ba3feed","ios":"levelo://app?vid=b3d0094b-b0ec-4270-90ed-56652ba3feed"},"vehicle_type_id":"4","last_reported":1744409341,"current_range_meters":2800,"station_id":"","pricing_plan_id":"cebpf4jnsgd1na2vs0mg"},{"bike_id":"3348fd97-e68a-4408-941d-c95dbccb85d7","system_id":"levelo_inurba_marseille","lat":43.23173,"lon":5.39979,"is_reserved":false,"is_disabled":false,"rental_uris":{"android":"levelo://app?vid=3348fd97-e68a-4408-941d-c95dbccb85d7","ios":"levelo://app?vid=3348fd97-e68a-4408-941d-c95dbccb85d7"},"vehicle_type_id":"4","last_reported":1744409341,"current_range_meters":3200,"station_id":"ce4bhn12rcd13ifvqgqg","pricing_plan_id":"cebpf4jnsgd1na2vs0mg"},{"bike_id":"b7624377-6aa1-42b2-92d8-6c4027d45707","system_id":"levelo_inurba_marseille","lat":43.29268,"lon":5.38444,"is_reserved":false,"is_disabled":false,"rental_uris":{"android":"levelo://app?vid=b7624377-6aa1-42b2-92d8-6c4027d45707","ios":"levelo://app?vid=b7624377-6aa1-42b2-92d8-6c4027d45707"},"vehicle_type_id":"4","last_reported":1744409341,"current_range_meters":3200,"station_id":"ce4bh692rcd13ifvqea0","pricing_plan_id":"cebpf4jnsgd1na2vs0mg"},{"bike_id":"15a886b8-b75e-455f-9abf-bee346b9677f","system_id":"levelo_inurba_marseille","lat":43.29276,"lon":5.40127,"is_reserved":false,"is_disabled":false,"rental_uris":{"android":"levelo://app?vid=15a886b8-b75e-455f-9abf-bee346b9677f","ios":"levelo://app?vid=15a886b8-b75e-455f-9abf-bee346b9677f"},"vehicle_type_id":"4","last_reported":1744409341,"current_range_meters":3200,"station_id":"ce4bh312rcd13ifvqdk0","pricing_plan_id":"cebpf4jnsgd1na2vs0mg"},{"bike_id":"d15a550b-ef49-4a95-9324-49a84969b834","system_id":"levelo_inurba_marseille","lat":43.29492,"lon":5.39393,"is_reserved":false,"is_disabled":false,"rental_uris":{"android":"levelo://app?vid=d15a550b-ef49-4a95-9324-49a84969b834","ios":"levelo://app?vid=d15a550b-ef49-4a95-9324-49a84969b834"},"vehicle_type_id":"4","last_reported":1744409341,"current_range_meters":3200,"station_id":"ce4bh292rcd13ifvqdf0","pricing_plan_id":"cebpf4jnsgd1na2vs0mg"},{"bike_id":"392f53ad-e8dc-49ed-9f1a-c92f9bc3d277","system_id":"levelo_inurba_marseille","lat":43.29264,"lon":5.40135,"is_reserved":false,"is_disabled":false,"rental_uris":{"android":"levelo://app?vid=392f53ad-e8dc-49ed-9f1a-c92f9bc3d277","ios":"levelo://app?vid=392f53ad-e8dc-49ed-9f1a-c92f9bc3d277"},"vehicle_type_id":"4","last_reported":1744409341,"current_range_meters":3600,"station_id":"ce4bh312rcd13ifvqdk0","pricing_plan_id":"cebpf4jnsgd1na2vs0mg"},{"bike_id":"39e12ad0-a537-4d4f-b918-8ea60f8a4bb2","system_id":"levelo_inurba_marseille","lat":43.25724,"lon":5.41111,"is_reserved":false,"is_disabled":false,"rental_uris":{"android":"levelo://app?vid=39e12ad0-a537-4d4f-b918-8ea60f8a4bb2","ios":"levelo://app?vid=39e12ad0-a537-4d4f-b918-8ea60f8a4bb2"},"vehicle_type_id":"4","last_reported":1744409341,"current_range_meters":3600,"station_id":"ce4bhkp2rcd13ifvqgd0","pricing_plan_id":"cebpf4jnsgd1na2vs0mg"},{"bike_id":"651398ac-c70b-4ad0-95aa-14f7c75e7554","system_id":"levelo_inurba_marseille","lat":43.27991,"lon":5.41662,"is_reserved":false,"is_disabled":true,"rental_uris":{"android":"levelo://app?vid=651398ac-c70b-4ad0-95aa-14f7c75e7554","ios":"levelo://app?vid=651398ac-c70b-4ad0-95aa-14f7c75e7554"},"vehicle_type_id":"4","last_reported":1744409341,"current_range_meters":3600,"station_id":"ce4bho12rcd13ifvqh1g","pricing_plan_id":"cebpf4jnsgd1na2vs0mg"},{"bike_id":"23a994a2-0da4-4c53-92c0-044929c97521","system_id":"levelo_inurba_marseille","lat":43.31537,"lon":5.38038,"is_reserved":false,"is_disabled":false,"rental_uris":{"android":"levelo://app?vid=23a994a2-0da4-4c53-92c0-044929c97521","ios":"levelo://app?vid=23a994a2-0da4-4c53-92c0-044929c97521"},"vehicle_type_id":"4","last_reported":1744409341,"current_range_meters":3600,"station_id":"ce4bhsp2rcd13ifvqi50","pricing_plan_id":"cebpf4jnsgd1na2vs0mg"},{"bike_id":"9acb0c63-d119-4810-94aa-e306fdcee828","system_id":"levelo_inurba_marseille","lat":43.24174,"lon":5.36395,"is_reserved":false,"is_disabled":false,"rental_uris":{"android":"levelo://app?vid=9acb0c63-d119-4810-94aa-e306fdcee828","ios":"levelo://app?vid=9acb0c63-d119-4810-94aa-e306fdcee828"},"vehicle_type_id":"4","last_reported":1744409341,"current_range_meters":4000,"station_id":"cpo36qri1sfpv3e86is0","pricing_plan_id":"cebpf4jnsgd1na2vs0mg"},{"bike_id":"2779c37c-ba2d-4a70-8e08-2359cf7c7a38","system_id":"levelo_inurba_marseille","lat":43.27809,"lon":5.40711,"is_reserved":false,"is_disabled":false,"rental_uris":{"android":"levelo://app?vid=2779c37c-ba2d-4a70-8e08-2359cf7c7a38","ios":"levelo://app?vid=2779c37c-ba2d-4a70-8e08-2359cf7c7a38"},"vehicle_type_id":"4","last_reported":1744409341,"current_range_meters":3600,"station_id":"ce4bhnh2rcd13ifvqgtg","pricing_plan_id":"cebpf4jnsgd1na2vs0mg"},{"bike_id":"9a048efe-3f5b-45ef-bee6-80524b1147f3","system_id":"levelo_inurba_marseille","lat":43.33069,"lon":5.40824,"is_reserved":false,"is_disabled":false,"rental_uris":{"android":"levelo://app?vid=9a048efe-3f5b-45ef-bee6-80524b1147f3","ios":"levelo://app?vid=9a048efe-3f5b-45ef-bee6-80524b1147f3"},"vehicle_type_id":"4","last_reported":1744409341,"current_range_meters":4400,"station_id":"","pricing_plan_id":"cebpf4jnsgd1na2vs0mg"},{"bike_id":"809a75b7-cc16-4f8d-a153-9b8f6ac0e1cf","system_id":"levelo_inurba_marseille","lat":43.30329,"lon":5.40439,"is_reserved":false,"is_disabled":false,"rental_uris":{"android":"levelo://app?vid=809a75b7-cc16-4f8d-a153-9b8f6ac0e1cf","ios":"levelo://app?vid=809a75b7-cc16-4f8d-a153-9b8f6ac0e1cf"},"vehicle_type_id":"4","last_reported":1744409341,"current_range_meters":4400,"station_id":"ce4bh012rcd13ifvqd10","pricing_plan_id":"cebpf4jnsgd1na2vs0mg"},{"bike_id":"6d239a60-5c37-4036-b60e-d60628d139cf","system_id":"levelo_inurba_marseille","lat":43.28707,"lon":5.37388,"is_reserved":false,"is_disabled":false,"rental_uris":{"android":"levelo://app?vid=6d239a60-5c37-4036-b60e-d60628d139cf","ios":"levelo://app?vid=6d239a60-5c37-4036-b60e-d60628d139cf"},"vehicle_type_id":"4","last_reported":1744409341,"current_range_meters":4400,"station_id":"ce4bh3p2rcd13ifvqdq0","pricing_plan_id":"cebpf4jnsgd1na2vs0mg"},{"bike_id":"9641ee72-2ab5-4d85-a992-2a0d0323420b","system_id":"levelo_inurba_marseille","lat":43.321043,"lon":5.367693,"is_reserved":false,"is_disabled":false,"rental_uris":{"android":"levelo://app?vid=9641ee72-2ab5-4d85-a992-2a0d0323420b","ios":"levelo://app?vid=9641ee72-2ab5-4d85-a992-2a0d0323420b"},"vehicle_type_id":"4","last_reported":1744409341,"current_range_meters":4400,"station_id":"ce4bhrh2rcd13ifvqhug","pricing_plan_id":"cebpf4jnsgd1na2vs0mg"},{"bike_id":"9633f1f7-3f5a-43c9-8d27-a5ecf91dd66d","system_id":"levelo_inurba_marseille","lat":43.24644,"lon":5.38892,"is_reserved":false,"is_disabled":false,"rental_uris":{"android":"levelo://app?vid=9633f1f7-3f5a-43c9-8d27-a5ecf91dd66d","ios":"levelo://app?vid=9633f1f7-3f5a-43c9-8d27-a5ecf91dd66d"},"vehicle_type_id":"4","last_reported":1744409341,"current_range_meters":4400,"station_id":"ce4bhg12rcd13ifvqf60","pricing_plan_id":"cebpf4jnsgd1na2vs0mg"},{"bike_id":"5fdd3298-d376-47aa-b5b3-d838ecbf8db4","system_id":"levelo_inurba_marseille","lat":43.27994,"lon":5.40012,"is_reserved":false,"is_disabled":false,"rental_uris":{"android":"levelo://app?vid=5fdd3298-d376-47aa-b5b3-d838ecbf8db4","ios":"levelo://app?vid=5fdd3298-d376-47aa-b5b3-d838ecbf8db4"},"vehicle_type_id":"4","last_reported":1744409341,"current_range_meters":4800,"station_id":"ce4bho92rcd13ifvqh4g","pricing_plan_id":"cebpf4jnsgd1na2vs0mg"},{"bike_id":"1e74c35d-edab-46de-b30b-75592fb1e2f4","system_id":"levelo_inurba_marseille","lat":43.27419,"lon":5.39412,"is_reserved":false,"is_disabled":false,"rental_uris":{"android":"levelo://app?vid=1e74c35d-edab-46de-b30b-75592fb1e2f4","ios":"levelo://app?vid=1e74c35d-edab-46de-b30b-75592fb1e2f4"},"vehicle_type_id":"4","last_reported":1744409341,"current_range_meters":4800,"station_id":"ce4bhdp2rcd13ifvqf20","pricing_plan_id":"cebpf4jnsgd1na2vs0mg"},{"bike_id":"10d7317a-220c-4500-9539-bba6e5c8946b","system_id":"levelo_inurba_marseille","lat":43.3046,"lon":5.37922,"is_reserved":false,"is_disabled":false,"rental_uris":{"android":"levelo://app?vid=10d7317a-220c-4500-9539-bba6e5c8946b","ios":"levelo://app?vid=10d7317a-220c-4500-9539-bba6e5c8946b"},"vehicle_type_id":"4","last_reported":1744409341,"current_range_meters":4800,"station_id":"ce4bgup2rcd13ifvqcn0","pricing_plan_id":"cebpf4jnsgd1na2vs0mg"},{"bike_id":"aaf0bea2-a073-4f6c-a7b6-3956f84fd9d6","system_id":"levelo_inurba_marseille","lat":43.30142,"lon":5.36772,"is_reserved":false,"is_disabled":false,"rental_uris":{"android":"levelo://app?vid=aaf0bea2-a073-4f6c-a7b6-3956f84fd9d6","ios":"levelo://app?vid=aaf0bea2-a073-4f6c-a7b6-3956f84fd9d6"},"vehicle_type_id":"4","last_reported":1744409341,"current_range_meters":4800,"station_id":"","pricing_plan_id":"cebpf4jnsgd1na2vs0mg"},{"bike_id":"1cb849f5-4018-4c76-a075-268f516482d1","system_id":"levelo_inurba_marseille","lat":43.290073,"lon":5.399286,"is_reserved":false,"is_disabled":false,"rental_uris":{"android":"levelo://app?vid=1cb849f5-4018-4c76-a075-268f516482d1","ios":"levelo://app?vid=1cb849f5-4018-4c76-a075-268f516482d1"},"vehicle_type_id":"4","last_reported":1744409341,"current_range_meters":4800,"station_id":"ce4bh312rcd13ifvqdk0","pricing_plan_id":"cebpf4jnsgd1na2vs0mg"},{"bike_id":"1f1931dc-ca45-43df-bb99-8ca2d278bd56","system_id":"levelo_inurba_marseille","lat":43.24167,"lon":5.36408,"is_reserved":false,"is_disabled":false,"rental_uris":{"android":"levelo://app?vid=1f1931dc-ca45-43df-bb99-8ca2d278bd56","ios":"levelo://app?vid=1f1931dc-ca45-43df-bb99-8ca2d278bd56"},"vehicle_type_id":"4","last_reported":1744409341,"current_range_meters":5600,"station_id":"cpo36qri1sfpv3e86is0","pricing_plan_id":"cebpf4jnsgd1na2vs0mg"},{"bike_id":"f1a3cd49-833e-415c-a317-d39179207fba","system_id":"levelo_inurba_marseille","lat":43.292947,"lon":5.374642,"is_reserved":false,"is_disabled":false,"rental_uris":{"android":"levelo://app?vid=f1a3cd49-833e-415c-a317-d39179207fba","ios":"levelo://app?vid=f1a3cd49-833e-415c-a317-d39179207fba"},"vehicle_type_id":"4","last_reported":1744409341,"current_range_meters":4800,"station_id":"ce4bh9p2rcd13ifvqec0","pricing_plan_id":"cebpf4jnsgd1na2vs0mg"},{"bike_id":"a6dcfa75-306a-4b90-a8ff-900c590ff9ac","system_id":"levelo_inurba_marseille","lat":43.29578,"lon":5.39974,"is_reserved":false,"is_disabled":false,"rental_uris":{"android":"levelo://app?vid=a6dcfa75-306a-4b90-a8ff-900c590ff9ac","ios":"levelo://app?vid=a6dcfa75-306a-4b90-a8ff-900c590ff9ac"},"vehicle_type_id":"4","last_reported":1744409341,"current_range_meters":5600,"station_id":"","pricing_plan_id":"cebpf4jnsgd1na2vs0mg"},{"bike_id":"30e128d0-709a-4e16-809b-9b0ac8d7a0ad","system_id":"levelo_inurba_marseille","lat":43.309479,"lon":5.390323,"is_reserved":false,"is_disabled":false,"rental_uris":{"android":"levelo://app?vid=30e128d0-709a-4e16-809b-9b0ac8d7a0ad","ios":"levelo://app?vid=30e128d0-709a-4e16-809b-9b0ac8d7a0ad"},"vehicle_type_id":"4","last_reported":1744409341,"current_range_meters":5600,"station_id":"ce4bgup2rcd13ifvqco0","pricing_plan_id":"cebpf4jnsgd1na2vs0mg"},{"bike_id":"460b2ebc-000e-4ea6-86da-9cfcf42a52fd","system_id":"levelo_inurba_marseille","lat":43.24661,"lon":5.38162,"is_reserved":false,"is_disabled":false,"rental_uris":{"android":"levelo://app?vid=460b2ebc-000e-4ea6-86da-9cfcf42a52fd","ios":"levelo://app?vid=460b2ebc-000e-4ea6-86da-9cfcf42a52fd"},"vehicle_type_id":"4","last_reported":1744409341,"current_range_meters":5600,"station_id":"ce4bhih2rcd13ifvqfr0","pricing_plan_id":"cebpf4jnsgd1na2vs0mg"},{"bike_id":"746882f3-3ca4-4d59-b993-6b1f5c3920bf","system_id":"levelo_inurba_marseille","lat":43.29254,"lon":5.40905,"is_reserved":false,"is_disabled":true,"rental_uris":{"android":"levelo://app?vid=746882f3-3ca4-4d59-b993-6b1f5c3920bf","ios":"levelo://app?vid=746882f3-3ca4-4d59-b993-6b1f5c3920bf"},"vehicle_type_id":"4","last_reported":1744409341,"current_range_meters":5600,"station_id":"ce4bh192rcd13ifvqdc0","pricing_plan_id":"cebpf4jnsgd1na2vs0mg"},{"bike_id":"76624b63-c948-4621-9e44-12162d131d6e","system_id":"levelo_inurba_marseille","lat":43.29026,"lon":5.3864,"is_reserved":false,"is_disabled":false,"rental_uris":{"android":"levelo://app?vid=76624b63-c948-4621-9e44-12162d131d6e","ios":"levelo://app?vid=76624b63-c948-4621-9e44-12162d131d6e"},"vehicle_type_id":"4","last_reported":1744409341,"current_range_meters":6000,"station_id":"ce4bh4p2rcd13ifvqe0g","pricing_plan_id":"cebpf4jnsgd1na2vs0mg"},{"bike_id":"4ff1679e-bc8e-4761-91df-0343ca65d83d","system_id":"levelo_inurba_marseille","lat":43.24814,"lon":5.37457,"is_reserved":false,"is_disabled":false,"rental_uris":{"android":"levelo://app?vid=4ff1679e-bc8e-4761-91df-0343ca65d83d","ios":"levelo://app?vid=4ff1679e-bc8e-4761-91df-0343ca65d83d"},"vehicle_type_id":"4","last_reported":1744409341,"current_range_meters":6400,"station_id":"ce4bhgh2rcd13ifvqfb0","pricing_plan_id":"cebpf4jnsgd1na2vs0mg"},{"bike_id":"e99f5290-1466-47b7-987b-c1ba64057cd2","system_id":"levelo_inurba_marseille","lat":43.24695,"lon":5.41182,"is_reserved":false,"is_disabled":false,"rental_uris":{"android":"levelo://app?vid=e99f5290-1466-47b7-987b-c1ba64057cd2","ios":"levelo://app?vid=e99f5290-1466-47b7-987b-c1ba64057cd2"},"vehicle_type_id":"4","last_reported":1744409341,"current_range_meters":6000,"station_id":"","pricing_plan_id":"cebpf4jnsgd1na2vs0mg"},{"bike_id":"23259ef2-badd-48f2-a7c8-5bd7ac1c2fc8","system_id":"levelo_inurba_marseille","lat":43.302494,"lon":5.400686,"is_reserved":false,"is_disabled":false,"rental_uris":{"android":"levelo://app?vid=23259ef2-badd-48f2-a7c8-5bd7ac1c2fc8","ios":"levelo://app?vid=23259ef2-badd-48f2-a7c8-5bd7ac1c2fc8"},"vehicle_type_id":"4","last_reported":1744409341,"current_range_meters":6400,"station_id":"ce4bgvh2rcd13ifvqcs0","pricing_plan_id":"cebpf4jnsgd1na2vs0mg"},{"bike_id":"a7b22e2e-0c80-4693-ad23-d6caf4917341","system_id":"levelo_inurba_marseille","lat":43.30858,"lon":5.37313,"is_reserved":false,"is_disabled":false,"rental_uris":{"android":"levelo://app?vid=a7b22e2e-0c80-4693-ad23-d6caf4917341","ios":"levelo://app?vid=a7b22e2e-0c80-4693-ad23-d6caf4917341"},"vehicle_type_id":"4","last_reported":1744409341,"current_range_meters":6400,"station_id":"","pricing_plan_id":"cebpf4jnsgd1na2vs0mg"},{"bike_id":"1df21529-3a67-485d-80c3-044dca87a500","system_id":"levelo_inurba_marseille","lat":43.31363,"lon":5.38486,"is_reserved":false,"is_disabled":false,"rental_uris":{"android":"levelo://app?vid=1df21529-3a67-485d-80c3-044dca87a500","ios":"levelo://app?vid=1df21529-3a67-485d-80c3-044dca87a500"},"vehicle_type_id":"4","last_reported":1744409341,"current_range_meters":6400,"station_id":"ce4bgt92rcd13ifvqcf0","pricing_plan_id":"cebpf4jnsgd1na2vs0mg"},{"bike_id":"9b124832-5aac-48fc-ab26-489a32057271","system_id":"levelo_inurba_marseille","lat":43.25488,"lon":5.37644,"is_reserved":false,"is_disabled":true,"rental_uris":{"android":"levelo://app?vid=9b124832-5aac-48fc-ab26-489a32057271","ios":"levelo://app?vid=9b124832-5aac-48fc-ab26-489a32057271"},"vehicle_type_id":"4","last_reported":1744409341,"current_range_meters":6400,"station_id":"ce4bhh12rcd13ifvqff0","pricing_plan_id":"cebpf4jnsgd1na2vs0mg"},{"bike_id":"27eaf97a-c667-4a38-a652-e12edcac1818","system_id":"levelo_inurba_marseille","lat":43.255,"lon":5.3764,"is_reserved":false,"is_disabled":false,"rental_uris":{"android":"levelo://app?vid=27eaf97a-c667-4a38-a652-e12edcac1818","ios":"levelo://app?vid=27eaf97a-c667-4a38-a652-e12edcac1818"},"vehicle_type_id":"4","last_reported":1744409341,"current_range_meters":6400,"station_id":"ce4bhh12rcd13ifvqff0","pricing_plan_id":"cebpf4jnsgd1na2vs0mg"},{"bike_id":"0bf2e17b-de76-43af-a911-86674f1ad492","system_id":"levelo_inurba_marseille","lat":43.29792,"lon":5.39357,"is_reserved":false,"is_disabled":false,"rental_uris":{"android":"levelo://app?vid=0bf2e17b-de76-43af-a911-86674f1ad492","ios":"levelo://app?vid=0bf2e17b-de76-43af-a911-86674f1ad492"},"vehicle_type_id":"4","last_reported":1744409341,"current_range_meters":6800,"station_id":"chh1huq6cuj3fo74tm60","pricing_plan_id":"cebpf4jnsgd1na2vs0mg"},{"bike_id":"32726013-757e-4d24-9225-04536f20d299","system_id":"levelo_inurba_marseille","lat":43.26191,"lon":5.37454,"is_reserved":false,"is_disabled":true,"rental_uris":{"android":"levelo://app?vid=32726013-757e-4d24-9225-04536f20d299","ios":"levelo://app?vid=32726013-757e-4d24-9225-04536f20d299"},"vehicle_type_id":"4","last_reported":1744409341,"current_range_meters":6800,"station_id":"ce4bhgp2rcd13ifvqfc0","pricing_plan_id":"cebpf4jnsgd1na2vs0mg"},{"bike_id":"ee12a49a-a13c-4705-a557-10958bfc00d7","system_id":"levelo_inurba_marseille","lat":43.29253,"lon":5.38441,"is_reserved":false,"is_disabled":false,"rental_uris":{"android":"levelo://app?vid=ee12a49a-a13c-4705-a557-10958bfc00d7","ios":"levelo://app?vid=ee12a49a-a13c-4705-a557-10958bfc00d7"},"vehicle_type_id":"4","last_reported":1744409341,"current_range_meters":6800,"station_id":"ce4bh692rcd13ifvqea0","pricing_plan_id":"cebpf4jnsgd1na2vs0mg"},{"bike_id":"62c1f836-7b45-44f7-9721-a260943a8081","system_id":"levelo_inurba_marseille","lat":43.27524,"lon":5.42504,"is_reserved":false,"is_disabled":false,"rental_uris":{"android":"levelo://app?vid=62c1f836-7b45-44f7-9721-a260943a8081","ios":"levelo://app?vid=62c1f836-7b45-44f7-9721-a260943a8081"},"vehicle_type_id":"4","last_reported":1744409341,"current_range_meters":6800,"station_id":"ce4bhn92rcd13ifvqgrg","pricing_plan_id":"cebpf4jnsgd1na2vs0mg"},{"bike_id":"b3dfb2b2-c3e4-4cc3-aedd-b96d8a79bb3e","system_id":"levelo_inurba_marseille","lat":43.29281,"lon":5.38447,"is_reserved":false,"is_disabled":false,"rental_uris":{"android":"levelo://app?vid=b3dfb2b2-c3e4-4cc3-aedd-b96d8a79bb3e","ios":"levelo://app?vid=b3dfb2b2-c3e4-4cc3-aedd-b96d8a79bb3e"},"vehicle_type_id":"4","last_reported":1744409341,"current_range_meters":6800,"station_id":"ce4bh692rcd13ifvqea0","pricing_plan_id":"cebpf4jnsgd1na2vs0mg"},{"bike_id":"a8827283-5cb2-4c69-8f92-cabeabffb47c","system_id":"levelo_inurba_marseille","lat":43.241626,"lon":5.363988,"is_reserved":false,"is_disabled":false,"rental_uris":{"android":"levelo://app?vid=a8827283-5cb2-4c69-8f92-cabeabffb47c","ios":"levelo://app?vid=a8827283-5cb2-4c69-8f92-cabeabffb47c"},"vehicle_type_id":"4","last_reported":1744409341,"current_range_meters":6800,"station_id":"cpo36qri1sfpv3e86is0","pricing_plan_id":"cebpf4jnsgd1na2vs0mg"},{"bike_id":"78a71266-aa81-4412-be33-fdd2588deaf6","system_id":"levelo_inurba_marseille","lat":43.25581,"lon":5.38227,"is_reserved":false,"is_disabled":false,"rental_uris":{"android":"levelo://app?vid=78a71266-aa81-4412-be33-fdd2588deaf6","ios":"levelo://app?vid=78a71266-aa81-4412-be33-fdd2588deaf6"},"vehicle_type_id":"4","last_reported":1744409341,"current_range_meters":6800,"station_id":"ce4bhih2rcd13ifvqfs0","pricing_plan_id":"cebpf4jnsgd1na2vs0mg"},{"bike_id":"e735dfe2-1f1c-465d-bea1-41cc6d2c4259","system_id":"levelo_inurba_marseille","lat":43.29277,"lon":5.40118,"is_reserved":false,"is_disabled":false,"rental_uris":{"android":"levelo://app?vid=e735dfe2-1f1c-465d-bea1-41cc6d2c4259","ios":"levelo://app?vid=e735dfe2-1f1c-465d-bea1-41cc6d2c4259"},"vehicle_type_id":"4","last_reported":1744409341,"current_range_meters":6800,"station_id":"ce4bh312rcd13ifvqdk0","pricing_plan_id":"cebpf4jnsgd1na2vs0mg"},{"bike_id":"ba6f951d-4913-45f7-aba8-3629d77f8c25","system_id":"levelo_inurba_marseille","lat":43.28036,"lon":5.36946,"is_reserved":false,"is_disabled":false,"rental_uris":{"android":"levelo://app?vid=ba6f951d-4913-45f7-aba8-3629d77f8c25","ios":"levelo://app?vid=ba6f951d-4913-45f7-aba8-3629d77f8c25"},"vehicle_type_id":"4","last_reported":1744409341,"current_range_meters":6800,"station_id":"ce4bha12rcd13ifvqef0","pricing_plan_id":"cebpf4jnsgd1na2vs0mg"},{"bike_id":"1553226d-53dd-4d95-8c2c-83d1af1ad6b5","system_id":"levelo_inurba_marseille","lat":43.25499,"lon":5.37632,"is_reserved":false,"is_disabled":false,"rental_uris":{"android":"levelo://app?vid=1553226d-53dd-4d95-8c2c-83d1af1ad6b5","ios":"levelo://app?vid=1553226d-53dd-4d95-8c2c-83d1af1ad6b5"},"vehicle_type_id":"4","last_reported":1744409341,"current_range_meters":7200,"station_id":"ce4bhh12rcd13ifvqff0","pricing_plan_id":"cebpf4jnsgd1na2vs0mg"},{"bike_id":"eae2e4d5-9303-4790-a33d-0c0fb82ba20d","system_id":"levelo_inurba_marseille","lat":43.31488,"lon":5.373174,"is_reserved":false,"is_disabled":false,"rental_uris":{"android":"levelo://app?vid=eae2e4d5-9303-4790-a33d-0c0fb82ba20d","ios":"levelo://app?vid=eae2e4d5-9303-4790-a33d-0c0fb82ba20d"},"vehicle_type_id":"4","last_reported":1744409341,"current_range_meters":7200,"station_id":"ce4bgt92rcd13ifvqcf0","pricing_plan_id":"cebpf4jnsgd1na2vs0mg"},{"bike_id":"457be3cf-e1e1-4d11-8d7c-377dc0cb03e9","system_id":"levelo_inurba_marseille","lat":43.30869,"lon":5.36882,"is_reserved":false,"is_disabled":false,"rental_uris":{"android":"levelo://app?vid=457be3cf-e1e1-4d11-8d7c-377dc0cb03e9","ios":"levelo://app?vid=457be3cf-e1e1-4d11-8d7c-377dc0cb03e9"},"vehicle_type_id":"4","last_reported":1744409341,"current_range_meters":7200,"station_id":"","pricing_plan_id":"cebpf4jnsgd1na2vs0mg"},{"bike_id":"424918f8-5f88-4460-8130-e88891f40869","system_id":"levelo_inurba_marseille","lat":43.24819,"lon":5.37454,"is_reserved":false,"is_disabled":false,"rental_uris":{"android":"levelo://app?vid=424918f8-5f88-4460-8130-e88891f40869","ios":"levelo://app?vid=424918f8-5f88-4460-8130-e88891f40869"},"vehicle_type_id":"4","last_reported":1744409341,"current_range_meters":7200,"station_id":"ce4bhgh2rcd13ifvqfb0","pricing_plan_id":"cebpf4jnsgd1na2vs0mg"},{"bike_id":"a9f344a9-b5c4-4c6f-adc4-6177f6c8159a","system_id":"levelo_inurba_marseille","lat":43.32809,"lon":5.39756,"is_reserved":false,"is_disabled":false,"rental_uris":{"android":"levelo://app?vid=a9f344a9-b5c4-4c6f-adc4-6177f6c8159a","ios":"levelo://app?vid=a9f344a9-b5c4-4c6f-adc4-6177f6c8159a"},"vehicle_type_id":"4","last_reported":1744409341,"current_range_meters":7200,"station_id":"","pricing_plan_id":"cebpf4jnsgd1na2vs0mg"},{"bike_id":"926fb0a7-820c-4f62-bd23-584e294815aa","system_id":"levelo_inurba_marseille","lat":43.2418,"lon":5.39727,"is_reserved":false,"is_disabled":false,"rental_uris":{"android":"levelo://app?vid=926fb0a7-820c-4f62-bd23-584e294815aa","ios":"levelo://app?vid=926fb0a7-820c-4f62-bd23-584e294815aa"},"vehicle_type_id":"4","last_reported":1744409341,"current_range_meters":7200,"station_id":"ce4bhn12rcd13ifvqgpg","pricing_plan_id":"cebpf4jnsgd1na2vs0mg"},{"bike_id":"2581bd89-e9df-4d04-ae56-730cdabc7786","system_id":"levelo_inurba_marseille","lat":43.30877,"lon":5.39622,"is_reserved":false,"is_disabled":false,"rental_uris":{"android":"levelo://app?vid=2581bd89-e9df-4d04-ae56-730cdabc7786","ios":"levelo://app?vid=2581bd89-e9df-4d04-ae56-730cdabc7786"},"vehicle_type_id":"4","last_reported":1744409341,"current_range_meters":8000,"station_id":"ce4bh012rcd13ifvqcv0","pricing_plan_id":"cebpf4jnsgd1na2vs0mg"},{"bike_id":"744d9e13-4644-4443-baa0-d58aa61dc002","system_id":"levelo_inurba_marseille","lat":43.24821,"lon":5.37467,"is_reserved":false,"is_disabled":false,"rental_uris":{"android":"levelo://app?vid=744d9e13-4644-4443-baa0-d58aa61dc002","ios":"levelo://app?vid=744d9e13-4644-4443-baa0-d58aa61dc002"},"vehicle_type_id":"4","last_reported":1744409341,"current_range_meters":8000,"station_id":"ce4bhgh2rcd13ifvqfb0","pricing_plan_id":"cebpf4jnsgd1na2vs0mg"},{"bike_id":"894637b6-cbbf-409a-be28-8bd77079c54f","system_id":"levelo_inurba_marseille","lat":43.28367,"lon":5.38615,"is_reserved":false,"is_disabled":false,"rental_uris":{"android":"levelo://app?vid=894637b6-cbbf-409a-be28-8bd77079c54f","ios":"levelo://app?vid=894637b6-cbbf-409a-be28-8bd77079c54f"},"vehicle_type_id":"4","last_reported":1744409341,"current_range_meters":8000,"station_id":"ce4bh492rcd13ifvqdvg","pricing_plan_id":"cebpf4jnsgd1na2vs0mg"},{"bike_id":"48ce90a6-ad06-48b8-8a50-53394a4d9dc1","system_id":"levelo_inurba_marseille","lat":43.31484,"lon":5.37299,"is_reserved":false,"is_disabled":false,"rental_uris":{"android":"levelo://app?vid=48ce90a6-ad06-48b8-8a50-53394a4d9dc1","ios":"levelo://app?vid=48ce90a6-ad06-48b8-8a50-53394a4d9dc1"},"vehicle_type_id":"4","last_reported":1744409341,"current_range_meters":8000,"station_id":"ce4bgt12rcd13ifvqcd0","pricing_plan_id":"cebpf4jnsgd1na2vs0mg"},{"bike_id":"28d500c7-bb68-46c1-adb5-1487ae498fe7","system_id":"levelo_inurba_marseille","lat":43.29425,"lon":5.3861,"is_reserved":false,"is_disabled":false,"rental_uris":{"android":"levelo://app?vid=28d500c7-bb68-46c1-adb5-1487ae498fe7","ios":"levelo://app?vid=28d500c7-bb68-46c1-adb5-1487ae498fe7"},"vehicle_type_id":"4","last_reported":1744409341,"current_range_meters":8000,"station_id":"ce4bh2h2rcd13ifvqdh0","pricing_plan_id":"cebpf4jnsgd1na2vs0mg"},{"bike_id":"ce1b1142-9327-4d65-9036-d543a43b1fdc","system_id":"levelo_inurba_marseille","lat":43.29801,"lon":5.40394,"is_reserved":false,"is_disabled":false,"rental_uris":{"android":"levelo://app?vid=ce1b1142-9327-4d65-9036-d543a43b1fdc","ios":"levelo://app?vid=ce1b1142-9327-4d65-9036-d543a43b1fdc"},"vehicle_type_id":"4","last_reported":1744409341,"current_range_meters":8000,"station_id":"ce4bh112rcd13ifvqd90","pricing_plan_id":"cebpf4jnsgd1na2vs0mg"},{"bike_id":"820eae00-4001-4b93-98cd-bfbd5fc6ebfe","system_id":"levelo_inurba_marseille","lat":43.26809,"lon":5.40262,"is_reserved":false,"is_disabled":false,"rental_uris":{"android":"levelo://app?vid=820eae00-4001-4b93-98cd-bfbd5fc6ebfe","ios":"levelo://app?vid=820eae00-4001-4b93-98cd-bfbd5fc6ebfe"},"vehicle_type_id":"4","last_reported":1744409341,"current_range_meters":8000,"station_id":"ce501612rcd8frsf0b60","pricing_plan_id":"cebpf4jnsgd1na2vs0mg"},{"bike_id":"ae731e93-0a16-4444-85f7-f0c3ec1da14b","system_id":"levelo_inurba_marseille","lat":43.30775,"lon":5.37652,"is_reserved":false,"is_disabled":false,"rental_uris":{"android":"levelo://app?vid=ae731e93-0a16-4444-85f7-f0c3ec1da14b","ios":"levelo://app?vid=ae731e93-0a16-4444-85f7-f0c3ec1da14b"},"vehicle_type_id":"4","last_reported":1744409341,"current_range_meters":7200,"station_id":"ce4bgv92rcd13ifvqcq0","pricing_plan_id":"cebpf4jnsgd1na2vs0mg"},{"bike_id":"dee958f8-d40c-446d-a76e-03c7e8652123","system_id":"levelo_inurba_marseille","lat":43.253349,"lon":5.380594,"is_reserved":false,"is_disabled":false,"rental_uris":{"android":"levelo://app?vid=dee958f8-d40c-446d-a76e-03c7e8652123","ios":"levelo://app?vid=dee958f8-d40c-446d-a76e-03c7e8652123"},"vehicle_type_id":"4","last_reported":1744409341,"current_range_meters":8400,"station_id":"","pricing_plan_id":"cebpf4jnsgd1na2vs0mg"},{"bike_id":"3bbb74ad-d656-406a-b153-f2f275de884d","system_id":"levelo_inurba_marseille","lat":43.27572,"lon":5.38406,"is_reserved":false,"is_disabled":false,"rental_uris":{"android":"levelo://app?vid=3bbb74ad-d656-406a-b153-f2f275de884d","ios":"levelo://app?vid=3bbb74ad-d656-406a-b153-f2f275de884d"},"vehicle_type_id":"4","last_reported":1744409341,"current_range_meters":8400,"station_id":"ce4bhh92rcd13ifvqfi0","pricing_plan_id":"cebpf4jnsgd1na2vs0mg"},{"bike_id":"bc622359-0b51-4bf9-b2c7-3099bcb90351","system_id":"levelo_inurba_marseille","lat":43.30656,"lon":5.40084,"is_reserved":false,"is_disabled":false,"rental_uris":{"android":"levelo://app?vid=bc622359-0b51-4bf9-b2c7-3099bcb90351","ios":"levelo://app?vid=bc622359-0b51-4bf9-b2c7-3099bcb90351"},"vehicle_type_id":"4","last_reported":1744409341,"current_range_meters":8400,"station_id":"ce4bh112rcd13ifvqda0","pricing_plan_id":"cebpf4jnsgd1na2vs0mg"},{"bike_id":"6859b3ce-db3b-4462-a050-3bcb6b0826e0","system_id":"levelo_inurba_marseille","lat":43.30471,"lon":5.37904,"is_reserved":false,"is_disabled":false,"rental_uris":{"android":"levelo://app?vid=6859b3ce-db3b-4462-a050-3bcb6b0826e0","ios":"levelo://app?vid=6859b3ce-db3b-4462-a050-3bcb6b0826e0"},"vehicle_type_id":"4","last_reported":1744409341,"current_range_meters":8400,"station_id":"ce4bgup2rcd13ifvqcn0","pricing_plan_id":"cebpf4jnsgd1na2vs0mg"},{"bike_id":"f973a48a-93d7-4351-ac20-4f62d6298af7","system_id":"levelo_inurba_marseille","lat":43.25722,"lon":5.41086,"is_reserved":false,"is_disabled":false,"rental_uris":{"android":"levelo://app?vid=f973a48a-93d7-4351-ac20-4f62d6298af7","ios":"levelo://app?vid=f973a48a-93d7-4351-ac20-4f62d6298af7"},"vehicle_type_id":"4","last_reported":1744409341,"current_range_meters":8400,"station_id":"ce4bhkp2rcd13ifvqgd0","pricing_plan_id":"cebpf4jnsgd1na2vs0mg"},{"bike_id":"2c2370c0-9d46-49f6-a57d-fc159fe4b9b2","system_id":"levelo_inurba_marseille","lat":43.28849,"lon":5.39302,"is_reserved":false,"is_disabled":false,"rental_uris":{"android":"levelo://app?vid=2c2370c0-9d46-49f6-a57d-fc159fe4b9b2","ios":"levelo://app?vid=2c2370c0-9d46-49f6-a57d-fc159fe4b9b2"},"vehicle_type_id":"4","last_reported":1744409341,"current_range_meters":8400,"station_id":"ce4bh2p2rcd13ifvqdi0","pricing_plan_id":"cebpf4jnsgd1na2vs0mg"},{"bike_id":"284a9ff6-8515-4c01-b689-70b96ba9e05f","system_id":"levelo_inurba_marseille","lat":43.3137,"lon":5.38492,"is_reserved":false,"is_disabled":false,"rental_uris":{"android":"levelo://app?vid=284a9ff6-8515-4c01-b689-70b96ba9e05f","ios":"levelo://app?vid=284a9ff6-8515-4c01-b689-70b96ba9e05f"},"vehicle_type_id":"4","last_reported":1744409341,"current_range_meters":8400,"station_id":"ce4bgt92rcd13ifvqcf0","pricing_plan_id":"cebpf4jnsgd1na2vs0mg"},{"bike_id":"df9eab44-8db3-4cec-a9fe-5b447d72cd0b","system_id":"levelo_inurba_marseille","lat":43.2972,"lon":5.36618,"is_reserved":false,"is_disabled":false,"rental_uris":{"android":"levelo://app?vid=df9eab44-8db3-4cec-a9fe-5b447d72cd0b","ios":"levelo://app?vid=df9eab44-8db3-4cec-a9fe-5b447d72cd0b"},"vehicle_type_id":"4","last_reported":1744409341,"current_range_meters":8400,"station_id":"ce4bgn12rcd13ifvqbt0","pricing_plan_id":"cebpf4jnsgd1na2vs0mg"},{"bike_id":"eab6cbfa-cb8e-47d7-b0d6-226ab7facec7","system_id":"levelo_inurba_marseille","lat":43.31718,"lon":5.42425,"is_reserved":false,"is_disabled":true,"rental_uris":{"android":"levelo://app?vid=eab6cbfa-cb8e-47d7-b0d6-226ab7facec7","ios":"levelo://app?vid=eab6cbfa-cb8e-47d7-b0d6-226ab7facec7"},"vehicle_type_id":"4","last_reported":1744409341,"current_range_meters":8400,"station_id":"ce4bhp92rcd13ifvqhbg","pricing_plan_id":"cebpf4jnsgd1na2vs0mg"},{"bike_id":"42014425-4d51-4c28-95bd-9f7a3a1c451d","system_id":"levelo_inurba_marseille","lat":43.31078,"lon":5.3835,"is_reserved":false,"is_disabled":false,"rental_uris":{"android":"levelo://app?vid=42014425-4d51-4c28-95bd-9f7a3a1c451d","ios":"levelo://app?vid=42014425-4d51-4c28-95bd-9f7a3a1c451d"},"vehicle_type_id":"4","last_reported":1744409341,"current_range_meters":8400,"station_id":"ce4bgv92rcd13ifvqcr0","pricing_plan_id":"cebpf4jnsgd1na2vs0mg"},{"bike_id":"2185abb9-604e-413e-b649-7bcd1b8fab20","system_id":"levelo_inurba_marseille","lat":43.255,"lon":5.37647,"is_reserved":false,"is_disabled":false,"rental_uris":{"android":"levelo://app?vid=2185abb9-604e-413e-b649-7bcd1b8fab20","ios":"levelo://app?vid=2185abb9-604e-413e-b649-7bcd1b8fab20"},"vehicle_type_id":"4","last_reported":1744409341,"current_range_meters":8800,"station_id":"ce4bhh12rcd13ifvqff0","pricing_plan_id":"cebpf4jnsgd1na2vs0mg"},{"bike_id":"6af1af01-fb5c-4ed6-9eea-32ff29c4e6ad","system_id":"levelo_inurba_marseille","lat":43.29284,"lon":5.38442,"is_reserved":false,"is_disabled":false,"rental_uris":{"android":"levelo://app?vid=6af1af01-fb5c-4ed6-9eea-32ff29c4e6ad","ios":"levelo://app?vid=6af1af01-fb5c-4ed6-9eea-32ff29c4e6ad"},"vehicle_type_id":"4","last_reported":1744409341,"current_range_meters":8800,"station_id":"ce4bh692rcd13ifvqea0","pricing_plan_id":"cebpf4jnsgd1na2vs0mg"},{"bike_id":"5ebb2ac6-5b3a-4fce-a265-72912648d806","system_id":"levelo_inurba_marseille","lat":43.29276,"lon":5.38438,"is_reserved":false,"is_disabled":false,"rental_uris":{"android":"levelo://app?vid=5ebb2ac6-5b3a-4fce-a265-72912648d806","ios":"levelo://app?vid=5ebb2ac6-5b3a-4fce-a265-72912648d806"},"vehicle_type_id":"4","last_reported":1744409341,"current_range_meters":8800,"station_id":"ce4bh692rcd13ifvqea0","pricing_plan_id":"cebpf4jnsgd1na2vs0mg"},{"bike_id":"d334824f-7d21-463a-98af-4ab8281df10e","system_id":"levelo_inurba_marseille","lat":43.24168,"lon":5.36383,"is_reserved":false,"is_disabled":false,"rental_uris":{"android":"levelo://app?vid=d334824f-7d21-463a-98af-4ab8281df10e","ios":"levelo://app?vid=d334824f-7d21-463a-98af-4ab8281df10e"},"vehicle_type_id":"4","last_reported":1744409341,"current_range_meters":8800,"station_id":"cpo36qri1sfpv3e86is0","pricing_plan_id":"cebpf4jnsgd1na2vs0mg"},{"bike_id":"1dff8f07-6dd7-45ea-a444-7507ddb41759","system_id":"levelo_inurba_marseille","lat":43.29264,"lon":5.38447,"is_reserved":false,"is_disabled":false,"rental_uris":{"android":"levelo://app?vid=1dff8f07-6dd7-45ea-a444-7507ddb41759","ios":"levelo://app?vid=1dff8f07-6dd7-45ea-a444-7507ddb41759"},"vehicle_type_id":"4","last_reported":1744409341,"current_range_meters":8800,"station_id":"ce4bh692rcd13ifvqea0","pricing_plan_id":"cebpf4jnsgd1na2vs0mg"},{"bike_id":"f76d12dc-ebdf-46e3-89d0-897a377cfadf","system_id":"levelo_inurba_marseille","lat":43.29253,"lon":5.38429,"is_reserved":false,"is_disabled":true,"rental_uris":{"android":"levelo://app?vid=f76d12dc-ebdf-46e3-89d0-897a377cfadf","ios":"levelo://app?vid=f76d12dc-ebdf-46e3-89d0-897a377cfadf"},"vehicle_type_id":"4","last_reported":1744409341,"current_range_meters":8800,"station_id":"ce4bh692rcd13ifvqea0","pricing_plan_id":"cebpf4jnsgd1na2vs0mg"},{"bike_id":"8b4c8d12-5212-410c-bdd4-63122234f668","system_id":"levelo_inurba_marseille","lat":43.22963,"lon":5.35393,"is_reserved":false,"is_disabled":false,"rental_uris":{"android":"levelo://app?vid=8b4c8d12-5212-410c-bdd4-63122234f668","ios":"levelo://app?vid=8b4c8d12-5212-410c-bdd4-63122234f668"},"vehicle_type_id":"4","last_reported":1744409341,"current_range_meters":8800,"station_id":"cpo3532slgdg3j2ikp40","pricing_plan_id":"cebpf4jnsgd1na2vs0mg"},{"bike_id":"c2ea1d64-aaa5-4899-a6be-4f6fe832385c","system_id":"levelo_inurba_marseille","lat":43.278363,"lon":5.392053,"is_reserved":false,"is_disabled":false,"rental_uris":{"android":"levelo://app?vid=c2ea1d64-aaa5-4899-a6be-4f6fe832385c","ios":"levelo://app?vid=c2ea1d64-aaa5-4899-a6be-4f6fe832385c"},"vehicle_type_id":"4","last_reported":1744409341,"current_range_meters":9200,"station_id":"ce4bhjp2rcd13ifvqga0","pricing_plan_id":"cebpf4jnsgd1na2vs0mg"},{"bike_id":"beb91320-a0db-44de-9b8a-20a46790e92e","system_id":"levelo_inurba_marseille","lat":43.32109,"lon":5.3677,"is_reserved":false,"is_disabled":false,"rental_uris":{"android":"levelo://app?vid=beb91320-a0db-44de-9b8a-20a46790e92e","ios":"levelo://app?vid=beb91320-a0db-44de-9b8a-20a46790e92e"},"vehicle_type_id":"4","last_reported":1744409341,"current_range_meters":9200,"station_id":"ce4bhrh2rcd13ifvqhug","pricing_plan_id":"cebpf4jnsgd1na2vs0mg"},{"bike_id":"9b8881c4-144a-4a43-8359-4343f9129181","system_id":"levelo_inurba_marseille","lat":43.27196,"lon":5.39186,"is_reserved":false,"is_disabled":false,"rental_uris":{"android":"levelo://app?vid=9b8881c4-144a-4a43-8359-4343f9129181","ios":"levelo://app?vid=9b8881c4-144a-4a43-8359-4343f9129181"},"vehicle_type_id":"4","last_reported":1744409341,"current_range_meters":9200,"station_id":"ce4bhhp2rcd13ifvqfm0","pricing_plan_id":"cebpf4jnsgd1na2vs0mg"},{"bike_id":"eb113507-1b5d-4d7a-b91c-d596662895e6","system_id":"levelo_inurba_marseille","lat":43.295432,"lon":5.393844,"is_reserved":false,"is_disabled":false,"rental_uris":{"android":"levelo://app?vid=eb113507-1b5d-4d7a-b91c-d596662895e6","ios":"levelo://app?vid=eb113507-1b5d-4d7a-b91c-d596662895e6"},"vehicle_type_id":"4","last_reported":1744409341,"current_range_meters":9200,"station_id":"ce4bh292rcd13ifvqdf0","pricing_plan_id":"cebpf4jnsgd1na2vs0mg"},{"bike_id":"de6ecc39-1534-4d0a-9a75-8bc5077ae536","system_id":"levelo_inurba_marseille","lat":43.25495,"lon":5.3766,"is_reserved":false,"is_disabled":false,"rental_uris":{"android":"levelo://app?vid=de6ecc39-1534-4d0a-9a75-8bc5077ae536","ios":"levelo://app?vid=de6ecc39-1534-4d0a-9a75-8bc5077ae536"},"vehicle_type_id":"4","last_reported":1744409341,"current_range_meters":9200,"station_id":"ce4bhh12rcd13ifvqff0","pricing_plan_id":"cebpf4jnsgd1na2vs0mg"},{"bike_id":"8591c829-11f9-4b19-8387-137aee3120c2","system_id":"levelo_inurba_marseille","lat":43.2784,"lon":5.39207,"is_reserved":false,"is_disabled":false,"rental_uris":{"android":"levelo://app?vid=8591c829-11f9-4b19-8387-137aee3120c2","ios":"levelo://app?vid=8591c829-11f9-4b19-8387-137aee3120c2"},"vehicle_type_id":"4","last_reported":1744409341,"current_range_meters":9600,"station_id":"ce4bhjp2rcd13ifvqga0","pricing_plan_id":"cebpf4jnsgd1na2vs0mg"},{"bike_id":"f720b779-dab6-490b-ba7a-4f99672e7781","system_id":"levelo_inurba_marseille","lat":43.29279,"lon":5.38447,"is_reserved":false,"is_disabled":false,"rental_uris":{"android":"levelo://app?vid=f720b779-dab6-490b-ba7a-4f99672e7781","ios":"levelo://app?vid=f720b779-dab6-490b-ba7a-4f99672e7781"},"vehicle_type_id":"4","last_reported":1744409341,"current_range_meters":9600,"station_id":"ce4bh692rcd13ifvqea0","pricing_plan_id":"cebpf4jnsgd1na2vs0mg"},{"bike_id":"ff66026a-95c7-4911-ae8a-4658b6feadb1","system_id":"levelo_inurba_marseille","lat":43.31167,"lon":5.38719,"is_reserved":false,"is_disabled":false,"rental_uris":{"android":"levelo://app?vid=ff66026a-95c7-4911-ae8a-4658b6feadb1","ios":"levelo://app?vid=ff66026a-95c7-4911-ae8a-4658b6feadb1"},"vehicle_type_id":"4","last_reported":1744409341,"current_range_meters":9600,"station_id":"ce4bgv12rcd13ifvqcp0","pricing_plan_id":"cebpf4jnsgd1na2vs0mg"},{"bike_id":"19821af2-d5fc-460f-a428-57a8dae13e59","system_id":"levelo_inurba_marseille","lat":43.30648,"lon":5.40066,"is_reserved":false,"is_disabled":false,"rental_uris":{"android":"levelo://app?vid=19821af2-d5fc-460f-a428-57a8dae13e59","ios":"levelo://app?vid=19821af2-d5fc-460f-a428-57a8dae13e59"},"vehicle_type_id":"4","last_reported":1744409341,"current_range_meters":9600,"station_id":"ce4bh112rcd13ifvqda0","pricing_plan_id":"cebpf4jnsgd1na2vs0mg"},{"bike_id":"20eb53d5-dc7b-4fbe-a6da-7e0a348438c0","system_id":"levelo_inurba_marseille","lat":43.27915,"lon":5.395985,"is_reserved":false,"is_disabled":true,"rental_uris":{"android":"levelo://app?vid=20eb53d5-dc7b-4fbe-a6da-7e0a348438c0","ios":"levelo://app?vid=20eb53d5-dc7b-4fbe-a6da-7e0a348438c0"},"vehicle_type_id":"4","last_reported":1744409341,"current_range_meters":9600,"station_id":"ce4bhf92rcd13ifvqf40","pricing_plan_id":"cebpf4jnsgd1na2vs0mg"},{"bike_id":"3a857f2f-58ff-4261-8250-bfdb1d655252","system_id":"levelo_inurba_marseille","lat":43.29259,"lon":5.38452,"is_reserved":false,"is_disabled":false,"rental_uris":{"android":"levelo://app?vid=3a857f2f-58ff-4261-8250-bfdb1d655252","ios":"levelo://app?vid=3a857f2f-58ff-4261-8250-bfdb1d655252"},"vehicle_type_id":"4","last_reported":1744409341,"current_range_meters":9600,"station_id":"ce4bh692rcd13ifvqea0","pricing_plan_id":"cebpf4jnsgd1na2vs0mg"},{"bike_id":"94455896-0f19-4fae-bd72-9879f01fcd6e","system_id":"levelo_inurba_marseille","lat":43.29538,"lon":5.42269,"is_reserved":false,"is_disabled":true,"rental_uris":{"android":"levelo://app?vid=94455896-0f19-4fae-bd72-9879f01fcd6e","ios":"levelo://app?vid=94455896-0f19-4fae-bd72-9879f01fcd6e"},"vehicle_type_id":"4","last_reported":1744409341,"current_range_meters":9600,"station_id":"ce4bhph2rcd13ifvqhdg","pricing_plan_id":"cebpf4jnsgd1na2vs0mg"},{"bike_id":"bf7062c9-cd94-49e5-b892-1eb836669974","system_id":"levelo_inurba_marseille","lat":43.29365,"lon":5.37844,"is_reserved":false,"is_disabled":false,"rental_uris":{"android":"levelo://app?vid=bf7062c9-cd94-49e5-b892-1eb836669974","ios":"levelo://app?vid=bf7062c9-cd94-49e5-b892-1eb836669974"},"vehicle_type_id":"4","last_reported":1744409341,"current_range_meters":9600,"station_id":"ce4bgjh2rcd13ifvqbf0","pricing_plan_id":"cebpf4jnsgd1na2vs0mg"},{"bike_id":"e0487cbb-6aa7-4fe8-9aa7-7b771d7aec2a","system_id":"levelo_inurba_marseille","lat":43.26233,"lon":5.40444,"is_reserved":false,"is_disabled":false,"rental_uris":{"android":"levelo://app?vid=e0487cbb-6aa7-4fe8-9aa7-7b771d7aec2a","ios":"levelo://app?vid=e0487cbb-6aa7-4fe8-9aa7-7b771d7aec2a"},"vehicle_type_id":"4","last_reported":1744409341,"current_range_meters":9600,"station_id":"ce4bhmh2rcd13ifvqgmg","pricing_plan_id":"cebpf4jnsgd1na2vs0mg"},{"bike_id":"cc83a7aa-57a1-4769-9137-8531613b4691","system_id":"levelo_inurba_marseille","lat":43.31235,"lon":5.373,"is_reserved":false,"is_disabled":false,"rental_uris":{"android":"levelo://app?vid=cc83a7aa-57a1-4769-9137-8531613b4691","ios":"levelo://app?vid=cc83a7aa-57a1-4769-9137-8531613b4691"},"vehicle_type_id":"4","last_reported":1744409341,"current_range_meters":10000,"station_id":"","pricing_plan_id":"cebpf4jnsgd1na2vs0mg"},{"bike_id":"173bc9a4-de98-43a8-b692-4fbb90439da0","system_id":"levelo_inurba_marseille","lat":43.31977,"lon":5.3807,"is_reserved":false,"is_disabled":false,"rental_uris":{"android":"levelo://app?vid=173bc9a4-de98-43a8-b692-4fbb90439da0","ios":"levelo://app?vid=173bc9a4-de98-43a8-b692-4fbb90439da0"},"vehicle_type_id":"4","last_reported":1744409341,"current_range_meters":10000,"station_id":"","pricing_plan_id":"cebpf4jnsgd1na2vs0mg"},{"bike_id":"50a3c25c-509a-40c0-8008-243d7f290e1e","system_id":"levelo_inurba_marseille","lat":43.2641,"lon":5.38994,"is_reserved":false,"is_disabled":false,"rental_uris":{"android":"levelo://app?vid=50a3c25c-509a-40c0-8008-243d7f290e1e","ios":"levelo://app?vid=50a3c25c-509a-40c0-8008-243d7f290e1e"},"vehicle_type_id":"4","last_reported":1744409341,"current_range_meters":10000,"station_id":"ce4bhih2rcd13ifvqfs0","pricing_plan_id":"cebpf4jnsgd1na2vs0mg"},{"bike_id":"9c71c874-83f9-4b38-bb42-4224f04b12ed","system_id":"levelo_inurba_marseille","lat":43.30109,"lon":5.39068,"is_reserved":false,"is_disabled":false,"rental_uris":{"android":"levelo://app?vid=9c71c874-83f9-4b38-bb42-4224f04b12ed","ios":"levelo://app?vid=9c71c874-83f9-4b38-bb42-4224f04b12ed"},"vehicle_type_id":"4","last_reported":1744409341,"current_range_meters":10000,"station_id":"ce4bh192rcd13ifvqdb0","pricing_plan_id":"cebpf4jnsgd1na2vs0mg"},{"bike_id":"895d25e6-f40a-4cdd-9146-0936ab5e03f9","system_id":"levelo_inurba_marseille","lat":43.254997,"lon":5.37673,"is_reserved":false,"is_disabled":false,"rental_uris":{"android":"levelo://app?vid=895d25e6-f40a-4cdd-9146-0936ab5e03f9","ios":"levelo://app?vid=895d25e6-f40a-4cdd-9146-0936ab5e03f9"},"vehicle_type_id":"4","last_reported":1744409341,"current_range_meters":10000,"station_id":"ce4bhh12rcd13ifvqff0","pricing_plan_id":"cebpf4jnsgd1na2vs0mg"},{"bike_id":"67b6e210-fc1d-4f60-bfed-dd88e8dba9f1","system_id":"levelo_inurba_marseille","lat":43.25826,"lon":5.3944,"is_reserved":false,"is_disabled":false,"rental_uris":{"android":"levelo://app?vid=67b6e210-fc1d-4f60-bfed-dd88e8dba9f1","ios":"levelo://app?vid=67b6e210-fc1d-4f60-bfed-dd88e8dba9f1"},"vehicle_type_id":"4","last_reported":1744409341,"current_range_meters":10000,"station_id":"ce4bhip2rcd13ifvqft0","pricing_plan_id":"cebpf4jnsgd1na2vs0mg"},{"bike_id":"8f7b9a5c-d862-4371-a997-9c586fbe209c","system_id":"levelo_inurba_marseille","lat":43.28033,"lon":5.36951,"is_reserved":false,"is_disabled":false,"rental_uris":{"android":"levelo://app?vid=8f7b9a5c-d862-4371-a997-9c586fbe209c","ios":"levelo://app?vid=8f7b9a5c-d862-4371-a997-9c586fbe209c"},"vehicle_type_id":"4","last_reported":1744409341,"current_range_meters":10000,"station_id":"ce4bha12rcd13ifvqef0","pricing_plan_id":"cebpf4jnsgd1na2vs0mg"},{"bike_id":"61d05422-38c9-4401-a1fc-453cfa3ee1f7","system_id":"levelo_inurba_marseille","lat":43.24809,"lon":5.37457,"is_reserved":false,"is_disabled":false,"rental_uris":{"android":"levelo://app?vid=61d05422-38c9-4401-a1fc-453cfa3ee1f7","ios":"levelo://app?vid=61d05422-38c9-4401-a1fc-453cfa3ee1f7"},"vehicle_type_id":"4","last_reported":1744409341,"current_range_meters":10000,"station_id":"ce4bhgh2rcd13ifvqfb0","pricing_plan_id":"cebpf4jnsgd1na2vs0mg"},{"bike_id":"5cbd6920-e86e-449a-9470-bc78d120719f","system_id":"levelo_inurba_marseille","lat":43.29273,"lon":5.38442,"is_reserved":false,"is_disabled":false,"rental_uris":{"android":"levelo://app?vid=5cbd6920-e86e-449a-9470-bc78d120719f","ios":"levelo://app?vid=5cbd6920-e86e-449a-9470-bc78d120719f"},"vehicle_type_id":"4","last_reported":1744409341,"current_range_meters":10000,"station_id":"ce4bh692rcd13ifvqea0","pricing_plan_id":"cebpf4jnsgd1na2vs0mg"},{"bike_id":"4614ddd5-5aac-42b1-b3d4-905343369df1","system_id":"levelo_inurba_marseille","lat":43.27948,"lon":5.41046,"is_reserved":false,"is_disabled":false,"rental_uris":{"android":"levelo://app?vid=4614ddd5-5aac-42b1-b3d4-905343369df1","ios":"levelo://app?vid=4614ddd5-5aac-42b1-b3d4-905343369df1"},"vehicle_type_id":"4","last_reported":1744409341,"current_range_meters":10000,"station_id":"ce4bhnp2rcd13ifvqh0g","pricing_plan_id":"cebpf4jnsgd1na2vs0mg"},{"bike_id":"463b41fd-37bb-48c0-a6e4-12f737a3d7cf","system_id":"levelo_inurba_marseille","lat":43.26935,"lon":5.40263,"is_reserved":false,"is_disabled":true,"rental_uris":{"android":"levelo://app?vid=463b41fd-37bb-48c0-a6e4-12f737a3d7cf","ios":"levelo://app?vid=463b41fd-37bb-48c0-a6e4-12f737a3d7cf"},"vehicle_type_id":"4","last_reported":1744409341,"current_range_meters":10800,"station_id":"cjm6bp8fraef2m0cb0m0","pricing_plan_id":"cebpf4jnsgd1na2vs0mg"},{"bike_id":"8862917b-7516-454b-9eb8-b658f0f3663d","system_id":"levelo_inurba_marseille","lat":43.29284,"lon":5.38437,"is_reserved":false,"is_disabled":false,"rental_uris":{"android":"levelo://app?vid=8862917b-7516-454b-9eb8-b658f0f3663d","ios":"levelo://app?vid=8862917b-7516-454b-9eb8-b658f0f3663d"},"vehicle_type_id":"4","last_reported":1744409341,"current_range_meters":10800,"station_id":"ce4bh692rcd13ifvqea0","pricing_plan_id":"cebpf4jnsgd1na2vs0mg"},{"bike_id":"b105010c-b749-48b7-8743-e65c5024e2fe","system_id":"levelo_inurba_marseille","lat":43.25124,"lon":5.40319,"is_reserved":false,"is_disabled":false,"rental_uris":{"android":"levelo://app?vid=b105010c-b749-48b7-8743-e65c5024e2fe","ios":"levelo://app?vid=b105010c-b749-48b7-8743-e65c5024e2fe"},"vehicle_type_id":"4","last_reported":1744409341,"current_range_meters":10800,"station_id":"ce4bhlh2rcd13ifvqgig","pricing_plan_id":"cebpf4jnsgd1na2vs0mg"},{"bike_id":"76f6ae46-bcbb-427e-8cee-b48737d41b2b","system_id":"levelo_inurba_marseille","lat":43.2997,"lon":5.38499,"is_reserved":false,"is_disabled":false,"rental_uris":{"android":"levelo://app?vid=76f6ae46-bcbb-427e-8cee-b48737d41b2b","ios":"levelo://app?vid=76f6ae46-bcbb-427e-8cee-b48737d41b2b"},"vehicle_type_id":"4","last_reported":1744409341,"current_range_meters":10800,"station_id":"ce4bgj92rcd13ifvqbd0","pricing_plan_id":"cebpf4jnsgd1na2vs0mg"},{"bike_id":"72adaa87-94dc-4774-aca0-5147bc57bd16","system_id":"levelo_inurba_marseille","lat":43.26024,"lon":5.41738,"is_reserved":false,"is_disabled":false,"rental_uris":{"android":"levelo://app?vid=72adaa87-94dc-4774-aca0-5147bc57bd16","ios":"levelo://app?vid=72adaa87-94dc-4774-aca0-5147bc57bd16"},"vehicle_type_id":"4","last_reported":1744409341,"current_range_meters":10800,"station_id":"","pricing_plan_id":"cebpf4jnsgd1na2vs0mg"},{"bike_id":"3f08cc69-711e-4264-b923-68891203ffa4","system_id":"levelo_inurba_marseille","lat":43.32285,"lon":5.38243,"is_reserved":false,"is_disabled":false,"rental_uris":{"android":"levelo://app?vid=3f08cc69-711e-4264-b923-68891203ffa4","ios":"levelo://app?vid=3f08cc69-711e-4264-b923-68891203ffa4"},"vehicle_type_id":"4","last_reported":1744409341,"current_range_meters":10800,"station_id":"ce4bhr12rcd13ifvqhqg","pricing_plan_id":"cebpf4jnsgd1na2vs0mg"},{"bike_id":"d3cadb94-97bd-4127-a122-1546f6783d12","system_id":"levelo_inurba_marseille","lat":43.27051,"lon":5.40257,"is_reserved":false,"is_disabled":false,"rental_uris":{"android":"levelo://app?vid=d3cadb94-97bd-4127-a122-1546f6783d12","ios":"levelo://app?vid=d3cadb94-97bd-4127-a122-1546f6783d12"},"vehicle_type_id":"4","last_reported":1744409341,"current_range_meters":10800,"station_id":"ce4bhk92rcd13ifvqgc0","pricing_plan_id":"cebpf4jnsgd1na2vs0mg"},{"bike_id":"9b0093a9-79e0-4880-82c2-96b353b4de72","system_id":"levelo_inurba_marseille","lat":43.30335,"lon":5.40421,"is_reserved":false,"is_disabled":true,"rental_uris":{"android":"levelo://app?vid=9b0093a9-79e0-4880-82c2-96b353b4de72","ios":"levelo://app?vid=9b0093a9-79e0-4880-82c2-96b353b4de72"},"vehicle_type_id":"4","last_reported":1744409341,"current_range_meters":10800,"station_id":"ce4bh012rcd13ifvqd10","pricing_plan_id":"cebpf4jnsgd1na2vs0mg"},{"bike_id":"49187ea3-d777-461d-9d76-0a343326d075","system_id":"levelo_inurba_marseille","lat":43.29539,"lon":5.38539,"is_reserved":false,"is_disabled":false,"rental_uris":{"android":"levelo://app?vid=49187ea3-d777-461d-9d76-0a343326d075","ios":"levelo://app?vid=49187ea3-d777-461d-9d76-0a343326d075"},"vehicle_type_id":"4","last_reported":1744409341,"current_range_meters":11200,"station_id":"ce4bgih2rcd13ifvqba0","pricing_plan_id":"cebpf4jnsgd1na2vs0mg"},{"bike_id":"71bd3aea-93aa-445d-8ea9-76aa49e7f271","system_id":"levelo_inurba_marseille","lat":43.28457,"lon":5.35896,"is_reserved":false,"is_disabled":false,"rental_uris":{"android":"levelo://app?vid=71bd3aea-93aa-445d-8ea9-76aa49e7f271","ios":"levelo://app?vid=71bd3aea-93aa-445d-8ea9-76aa49e7f271"},"vehicle_type_id":"4","last_reported":1744409341,"current_range_meters":11200,"station_id":"ce4bhah2rcd13ifvqei0","pricing_plan_id":"cebpf4jnsgd1na2vs0mg"},{"bike_id":"dd53e328-218b-45e2-952f-c1636d498367","system_id":"levelo_inurba_marseille","lat":43.3095,"lon":5.39043,"is_reserved":false,"is_disabled":false,"rental_uris":{"android":"levelo://app?vid=dd53e328-218b-45e2-952f-c1636d498367","ios":"levelo://app?vid=dd53e328-218b-45e2-952f-c1636d498367"},"vehicle_type_id":"4","last_reported":1744409341,"current_range_meters":11200,"station_id":"ce4bgup2rcd13ifvqco0","pricing_plan_id":"cebpf4jnsgd1na2vs0mg"},{"bike_id":"caadf29e-ff59-41b8-ac9d-8182ebf80a44","system_id":"levelo_inurba_marseille","lat":43.27422,"lon":5.39412,"is_reserved":false,"is_disabled":false,"rental_uris":{"android":"levelo://app?vid=caadf29e-ff59-41b8-ac9d-8182ebf80a44","ios":"levelo://app?vid=caadf29e-ff59-41b8-ac9d-8182ebf80a44"},"vehicle_type_id":"4","last_reported":1744409341,"current_range_meters":10800,"station_id":"ce4bhdp2rcd13ifvqf20","pricing_plan_id":"cebpf4jnsgd1na2vs0mg"},{"bike_id":"a91984a3-a6ce-4421-8b70-93389255e88f","system_id":"levelo_inurba_marseille","lat":43.33009,"lon":5.43864,"is_reserved":false,"is_disabled":false,"rental_uris":{"android":"levelo://app?vid=a91984a3-a6ce-4421-8b70-93389255e88f","ios":"levelo://app?vid=a91984a3-a6ce-4421-8b70-93389255e88f"},"vehicle_type_id":"4","last_reported":1744409341,"current_range_meters":11600,"station_id":"","pricing_plan_id":"cebpf4jnsgd1na2vs0mg"},{"bike_id":"36bfc026-b641-4b92-b329-4db9b129a5e9","system_id":"levelo_inurba_marseille","lat":43.29403,"lon":5.38628,"is_reserved":false,"is_disabled":false,"rental_uris":{"android":"levelo://app?vid=36bfc026-b641-4b92-b329-4db9b129a5e9","ios":"levelo://app?vid=36bfc026-b641-4b92-b329-4db9b129a5e9"},"vehicle_type_id":"4","last_reported":1744409341,"current_range_meters":11600,"station_id":"ce4bh2h2rcd13ifvqdh0","pricing_plan_id":"cebpf4jnsgd1na2vs0mg"},{"bike_id":"d6c423ad-693a-42e8-bcad-89087df9e68f","system_id":"levelo_inurba_marseille","lat":43.24182,"lon":5.39729,"is_reserved":false,"is_disabled":false,"rental_uris":{"android":"levelo://app?vid=d6c423ad-693a-42e8-bcad-89087df9e68f","ios":"levelo://app?vid=d6c423ad-693a-42e8-bcad-89087df9e68f"},"vehicle_type_id":"4","last_reported":1744409341,"current_range_meters":11600,"station_id":"ce4bhn12rcd13ifvqgpg","pricing_plan_id":"cebpf4jnsgd1na2vs0mg"},{"bike_id":"e731be2c-11e9-47e9-8d2b-48cf0aa36622","system_id":"levelo_inurba_marseille","lat":43.2928,"lon":5.38447,"is_reserved":false,"is_disabled":false,"rental_uris":{"android":"levelo://app?vid=e731be2c-11e9-47e9-8d2b-48cf0aa36622","ios":"levelo://app?vid=e731be2c-11e9-47e9-8d2b-48cf0aa36622"},"vehicle_type_id":"4","last_reported":1744409341,"current_range_meters":11600,"station_id":"ce4bh692rcd13ifvqea0","pricing_plan_id":"cebpf4jnsgd1na2vs0mg"},{"bike_id":"5cd11f78-30e5-4350-a00c-3f350eaebc07","system_id":"levelo_inurba_marseille","lat":43.30535,"lon":5.38424,"is_reserved":false,"is_disabled":false,"rental_uris":{"android":"levelo://app?vid=5cd11f78-30e5-4350-a00c-3f350eaebc07","ios":"levelo://app?vid=5cd11f78-30e5-4350-a00c-3f350eaebc07"},"vehicle_type_id":"4","last_reported":1744409341,"current_range_meters":11600,"station_id":"ce4bgg92rcd13ifvqb30","pricing_plan_id":"cebpf4jnsgd1na2vs0mg"},{"bike_id":"e8c34787-0854-4fa2-b1fd-f090468ec89d","system_id":"levelo_inurba_marseille","lat":43.28338,"lon":5.38102,"is_reserved":false,"is_disabled":false,"rental_uris":{"android":"levelo://app?vid=e8c34787-0854-4fa2-b1fd-f090468ec89d","ios":"levelo://app?vid=e8c34787-0854-4fa2-b1fd-f090468ec89d"},"vehicle_type_id":"4","last_reported":1744409341,"current_range_meters":11600,"station_id":"ce4bh412rcd13ifvqdr0","pricing_plan_id":"cebpf4jnsgd1na2vs0mg"},{"bike_id":"5e248bd2-735b-44f2-b2c9-4ac7b2a6860a","system_id":"levelo_inurba_marseille","lat":43.27893,"lon":5.38032,"is_reserved":false,"is_disabled":false,"rental_uris":{"android":"levelo://app?vid=5e248bd2-735b-44f2-b2c9-4ac7b2a6860a","ios":"levelo://app?vid=5e248bd2-735b-44f2-b2c9-4ac7b2a6860a"},"vehicle_type_id":"4","last_reported":1744409341,"current_range_meters":12000,"station_id":"ce4bhf92rcd13ifvqf50","pricing_plan_id":"cebpf4jnsgd1na2vs0mg"},{"bike_id":"f21cce43-7e86-42c4-8a4d-3c922080ab5c","system_id":"levelo_inurba_marseille","lat":43.28955,"lon":5.36632,"is_reserved":false,"is_disabled":true,"rental_uris":{"android":"levelo://app?vid=f21cce43-7e86-42c4-8a4d-3c922080ab5c","ios":"levelo://app?vid=f21cce43-7e86-42c4-8a4d-3c922080ab5c"},"vehicle_type_id":"4","last_reported":1744409341,"current_range_meters":12000,"station_id":"ce4bhap2rcd13ifvqek0","pricing_plan_id":"cebpf4jnsgd1na2vs0mg"},{"bike_id":"e9be64e1-c306-4882-8e3a-b2dd51dd6277","system_id":"levelo_inurba_marseille","lat":43.30125,"lon":5.39867,"is_reserved":false,"is_disabled":false,"rental_uris":{"android":"levelo://app?vid=e9be64e1-c306-4882-8e3a-b2dd51dd6277","ios":"levelo://app?vid=e9be64e1-c306-4882-8e3a-b2dd51dd6277"},"vehicle_type_id":"4","last_reported":1744409341,"current_range_meters":12000,"station_id":"ce4bh0h2rcd13ifvqd40","pricing_plan_id":"cebpf4jnsgd1na2vs0mg"},{"bike_id":"b0d20e5b-a632-4c51-ae53-3354600a01df","system_id":"levelo_inurba_marseille","lat":43.28721,"lon":5.36087,"is_reserved":false,"is_disabled":false,"rental_uris":{"android":"levelo://app?vid=b0d20e5b-a632-4c51-ae53-3354600a01df","ios":"levelo://app?vid=b0d20e5b-a632-4c51-ae53-3354600a01df"},"vehicle_type_id":"4","last_reported":1744409341,"current_range_meters":12000,"station_id":"cki0cbj6b192h4jlfktg","pricing_plan_id":"cebpf4jnsgd1na2vs0mg"},{"bike_id":"4bcdcc82-d58d-4172-b626-a8c82408681c","system_id":"levelo_inurba_marseille","lat":43.31283,"lon":5.36866,"is_reserved":false,"is_disabled":true,"rental_uris":{"android":"levelo://app?vid=4bcdcc82-d58d-4172-b626-a8c82408681c","ios":"levelo://app?vid=4bcdcc82-d58d-4172-b626-a8c82408681c"},"vehicle_type_id":"4","last_reported":1744409341,"current_range_meters":12000,"station_id":"ce4bgl92rcd13ifvqbq0","pricing_plan_id":"cebpf4jnsgd1na2vs0mg"},{"bike_id":"411f282c-b696-41a4-888f-752e1134c529","system_id":"levelo_inurba_marseille","lat":43.26205,"lon":5.37451,"is_reserved":false,"is_disabled":true,"rental_uris":{"android":"levelo://app?vid=411f282c-b696-41a4-888f-752e1134c529","ios":"levelo://app?vid=411f282c-b696-41a4-888f-752e1134c529"},"vehicle_type_id":"4","last_reported":1744409341,"current_range_meters":12000,"station_id":"ce4bhgp2rcd13ifvqfc0","pricing_plan_id":"cebpf4jnsgd1na2vs0mg"},{"bike_id":"63b2abdd-a631-45bd-abe6-aaf101ee4d15","system_id":"levelo_inurba_marseille","lat":43.28843,"lon":5.39302,"is_reserved":false,"is_disabled":false,"rental_uris":{"android":"levelo://app?vid=63b2abdd-a631-45bd-abe6-aaf101ee4d15","ios":"levelo://app?vid=63b2abdd-a631-45bd-abe6-aaf101ee4d15"},"vehicle_type_id":"4","last_reported":1744409341,"current_range_meters":12000,"station_id":"ce4bh2p2rcd13ifvqdi0","pricing_plan_id":"cebpf4jnsgd1na2vs0mg"},{"bike_id":"750597eb-e194-44cb-8c79-1ffe82614dbc","system_id":"levelo_inurba_marseille","lat":43.28606,"lon":5.37056,"is_reserved":false,"is_disabled":false,"rental_uris":{"android":"levelo://app?vid=750597eb-e194-44cb-8c79-1ffe82614dbc","ios":"levelo://app?vid=750597eb-e194-44cb-8c79-1ffe82614dbc"},"vehicle_type_id":"4","last_reported":1744409341,"current_range_meters":12000,"station_id":"ce4bht12rcd13ifvqi60","pricing_plan_id":"cebpf4jnsgd1na2vs0mg"},{"bike_id":"ff4c4eda-fba5-48e0-a454-681d1935dae0","system_id":"levelo_inurba_marseille","lat":43.30805,"lon":5.3814,"is_reserved":false,"is_disabled":false,"rental_uris":{"android":"levelo://app?vid=ff4c4eda-fba5-48e0-a454-681d1935dae0","ios":"levelo://app?vid=ff4c4eda-fba5-48e0-a454-681d1935dae0"},"vehicle_type_id":"4","last_reported":1744409341,"current_range_meters":12400,"station_id":"ce4bgt12rcd13ifvqce0","pricing_plan_id":"cebpf4jnsgd1na2vs0mg"},{"bike_id":"3ac73e63-1619-4c1b-a7d0-7311424e94ef","system_id":"levelo_inurba_marseille","lat":43.28989,"lon":5.37666,"is_reserved":false,"is_disabled":false,"rental_uris":{"android":"levelo://app?vid=3ac73e63-1619-4c1b-a7d0-7311424e94ef","ios":"levelo://app?vid=3ac73e63-1619-4c1b-a7d0-7311424e94ef"},"vehicle_type_id":"4","last_reported":1744409341,"current_range_meters":12400,"station_id":"","pricing_plan_id":"cebpf4jnsgd1na2vs0mg"},{"bike_id":"fafcb012-009e-41ce-8903-9f7671685dd4","system_id":"levelo_inurba_marseille","lat":43.30132,"lon":5.39864,"is_reserved":false,"is_disabled":false,"rental_uris":{"android":"levelo://app?vid=fafcb012-009e-41ce-8903-9f7671685dd4","ios":"levelo://app?vid=fafcb012-009e-41ce-8903-9f7671685dd4"},"vehicle_type_id":"4","last_reported":1744409341,"current_range_meters":12400,"station_id":"ce4bh0h2rcd13ifvqd40","pricing_plan_id":"cebpf4jnsgd1na2vs0mg"},{"bike_id":"a52d5a87-be36-468b-a219-b655dcd479c9","system_id":"levelo_inurba_marseille","lat":43.29539,"lon":5.38534,"is_reserved":false,"is_disabled":false,"rental_uris":{"android":"levelo://app?vid=a52d5a87-be36-468b-a219-b655dcd479c9","ios":"levelo://app?vid=a52d5a87-be36-468b-a219-b655dcd479c9"},"vehicle_type_id":"4","last_reported":1744409341,"current_range_meters":12400,"station_id":"ce4bgih2rcd13ifvqba0","pricing_plan_id":"cebpf4jnsgd1na2vs0mg"},{"bike_id":"baa94301-2739-4a37-a3ac-e89976729731","system_id":"levelo_inurba_marseille","lat":43.29534,"lon":5.38546,"is_reserved":false,"is_disabled":false,"rental_uris":{"android":"levelo://app?vid=baa94301-2739-4a37-a3ac-e89976729731","ios":"levelo://app?vid=baa94301-2739-4a37-a3ac-e89976729731"},"vehicle_type_id":"4","last_reported":1744409341,"current_range_meters":12400,"station_id":"ce4bgih2rcd13ifvqba0","pricing_plan_id":"cebpf4jnsgd1na2vs0mg"},{"bike_id":"fdf0c959-920f-454c-a18e-376100b9d38b","system_id":"levelo_inurba_marseille","lat":43.27841,"lon":5.39211,"is_reserved":false,"is_disabled":false,"rental_uris":{"android":"levelo://app?vid=fdf0c959-920f-454c-a18e-376100b9d38b","ios":"levelo://app?vid=fdf0c959-920f-454c-a18e-376100b9d38b"},"vehicle_type_id":"4","last_reported":1744409341,"current_range_meters":12400,"station_id":"ce4bhjp2rcd13ifvqga0","pricing_plan_id":"cebpf4jnsgd1na2vs0mg"},{"bike_id":"0c00ca95-3429-45f6-a550-7818d229058c","system_id":"levelo_inurba_marseille","lat":43.24653,"lon":5.38165,"is_reserved":false,"is_disabled":false,"rental_uris":{"android":"levelo://app?vid=0c00ca95-3429-45f6-a550-7818d229058c","ios":"levelo://app?vid=0c00ca95-3429-45f6-a550-7818d229058c"},"vehicle_type_id":"4","last_reported":1744409341,"current_range_meters":12400,"station_id":"ce4bhih2rcd13ifvqfr0","pricing_plan_id":"cebpf4jnsgd1na2vs0mg"},{"bike_id":"8c58f2fa-99e1-41f8-bf90-9c1648b679b1","system_id":"levelo_inurba_marseille","lat":43.27305,"lon":5.41426,"is_reserved":false,"is_disabled":false,"rental_uris":{"android":"levelo://app?vid=8c58f2fa-99e1-41f8-bf90-9c1648b679b1","ios":"levelo://app?vid=8c58f2fa-99e1-41f8-bf90-9c1648b679b1"},"vehicle_type_id":"4","last_reported":1744409341,"current_range_meters":12400,"station_id":"","pricing_plan_id":"cebpf4jnsgd1na2vs0mg"},{"bike_id":"df7dcc93-da1a-4854-9050-cdf37f9f7fc2","system_id":"levelo_inurba_marseille","lat":43.29265,"lon":5.38459,"is_reserved":false,"is_disabled":false,"rental_uris":{"android":"levelo://app?vid=df7dcc93-da1a-4854-9050-cdf37f9f7fc2","ios":"levelo://app?vid=df7dcc93-da1a-4854-9050-cdf37f9f7fc2"},"vehicle_type_id":"4","last_reported":1744409341,"current_range_meters":12400,"station_id":"ce4bh692rcd13ifvqea0","pricing_plan_id":"cebpf4jnsgd1na2vs0mg"},{"bike_id":"6d84871f-5127-410f-8ca9-f6f860b7f571","system_id":"levelo_inurba_marseille","lat":43.27375,"lon":5.36265,"is_reserved":false,"is_disabled":false,"rental_uris":{"android":"levelo://app?vid=6d84871f-5127-410f-8ca9-f6f860b7f571","ios":"levelo://app?vid=6d84871f-5127-410f-8ca9-f6f860b7f571"},"vehicle_type_id":"4","last_reported":1744409341,"current_range_meters":12400,"station_id":"ce4bhbh2rcd13ifvqeo0","pricing_plan_id":"cebpf4jnsgd1na2vs0mg"},{"bike_id":"024220f2-a761-4680-8879-7ca1b967d725","system_id":"levelo_inurba_marseille","lat":43.27989,"lon":5.41663,"is_reserved":false,"is_disabled":false,"rental_uris":{"android":"levelo://app?vid=024220f2-a761-4680-8879-7ca1b967d725","ios":"levelo://app?vid=024220f2-a761-4680-8879-7ca1b967d725"},"vehicle_type_id":"4","last_reported":1744409341,"current_range_meters":12400,"station_id":"ce4bho12rcd13ifvqh1g","pricing_plan_id":"cebpf4jnsgd1na2vs0mg"},{"bike_id":"4bfe69a6-d68b-4e37-ac82-6ebde5d6d355","system_id":"levelo_inurba_marseille","lat":43.29037,"lon":5.38658,"is_reserved":false,"is_disabled":false,"rental_uris":{"android":"levelo://app?vid=4bfe69a6-d68b-4e37-ac82-6ebde5d6d355","ios":"levelo://app?vid=4bfe69a6-d68b-4e37-ac82-6ebde5d6d355"},"vehicle_type_id":"4","last_reported":1744409341,"current_range_meters":12800,"station_id":"ce4bh4p2rcd13ifvqe0g","pricing_plan_id":"cebpf4jnsgd1na2vs0mg"},{"bike_id":"8c589fbc-16d9-4990-99c3-550d52ee46a2","system_id":"levelo_inurba_marseille","lat":43.30591,"lon":5.39353,"is_reserved":false,"is_disabled":false,"rental_uris":{"android":"levelo://app?vid=8c589fbc-16d9-4990-99c3-550d52ee46a2","ios":"levelo://app?vid=8c589fbc-16d9-4990-99c3-550d52ee46a2"},"vehicle_type_id":"4","last_reported":1744409341,"current_range_meters":12800,"station_id":"ce4bh0p2rcd13ifvqd80","pricing_plan_id":"cebpf4jnsgd1na2vs0mg"},{"bike_id":"dfb31c04-ff3d-47ef-b05f-57996dafe20c","system_id":"levelo_inurba_marseille","lat":43.2846,"lon":5.35879,"is_reserved":false,"is_disabled":false,"rental_uris":{"android":"levelo://app?vid=dfb31c04-ff3d-47ef-b05f-57996dafe20c","ios":"levelo://app?vid=dfb31c04-ff3d-47ef-b05f-57996dafe20c"},"vehicle_type_id":"4","last_reported":1744409341,"current_range_meters":12800,"station_id":"ce4bhah2rcd13ifvqei0","pricing_plan_id":"cebpf4jnsgd1na2vs0mg"},{"bike_id":"27ff8eb1-93c8-4212-9921-c5a1b937bf88","system_id":"levelo_inurba_marseille","lat":43.3025,"lon":5.40035,"is_reserved":false,"is_disabled":false,"rental_uris":{"android":"levelo://app?vid=27ff8eb1-93c8-4212-9921-c5a1b937bf88","ios":"levelo://app?vid=27ff8eb1-93c8-4212-9921-c5a1b937bf88"},"vehicle_type_id":"4","last_reported":1744409341,"current_range_meters":12400,"station_id":"ce4bgvh2rcd13ifvqcs0","pricing_plan_id":"cebpf4jnsgd1na2vs0mg"},{"bike_id":"1db3f027-3907-4a6a-880b-45e50db5828b","system_id":"levelo_inurba_marseille","lat":43.25514,"lon":5.37655,"is_reserved":false,"is_disabled":false,"rental_uris":{"android":"levelo://app?vid=1db3f027-3907-4a6a-880b-45e50db5828b","ios":"levelo://app?vid=1db3f027-3907-4a6a-880b-45e50db5828b"},"vehicle_type_id":"4","last_reported":1744409341,"current_range_meters":12800,"station_id":"ce4bhh12rcd13ifvqff0","pricing_plan_id":"cebpf4jnsgd1na2vs0mg"},{"bike_id":"4c893399-b4ed-40ed-a49f-713da320f269","system_id":"levelo_inurba_marseille","lat":43.29861,"lon":5.37841,"is_reserved":false,"is_disabled":false,"rental_uris":{"android":"levelo://app?vid=4c893399-b4ed-40ed-a49f-713da320f269","ios":"levelo://app?vid=4c893399-b4ed-40ed-a49f-713da320f269"},"vehicle_type_id":"4","last_reported":1744409341,"current_range_meters":12800,"station_id":"","pricing_plan_id":"cebpf4jnsgd1na2vs0mg"},{"bike_id":"4a0973b0-92a0-41e8-9b0d-a99e944bafe0","system_id":"levelo_inurba_marseille","lat":43.344817,"lon":5.412823,"is_reserved":false,"is_disabled":false,"rental_uris":{"android":"levelo://app?vid=4a0973b0-92a0-41e8-9b0d-a99e944bafe0","ios":"levelo://app?vid=4a0973b0-92a0-41e8-9b0d-a99e944bafe0"},"vehicle_type_id":"4","last_reported":1744409341,"current_range_meters":12800,"station_id":"","pricing_plan_id":"cebpf4jnsgd1na2vs0mg"},{"bike_id":"4651fc10-fe57-460e-89c6-9ba891098581","system_id":"levelo_inurba_marseille","lat":43.24161,"lon":5.36391,"is_reserved":false,"is_disabled":false,"rental_uris":{"android":"levelo://app?vid=4651fc10-fe57-460e-89c6-9ba891098581","ios":"levelo://app?vid=4651fc10-fe57-460e-89c6-9ba891098581"},"vehicle_type_id":"4","last_reported":1744409341,"current_range_meters":12800,"station_id":"cpo36qri1sfpv3e86is0","pricing_plan_id":"cebpf4jnsgd1na2vs0mg"},{"bike_id":"e1433b0a-8e5d-4cc6-a777-af1576df4faf","system_id":"levelo_inurba_marseille","lat":43.28721,"lon":5.3998,"is_reserved":false,"is_disabled":false,"rental_uris":{"android":"levelo://app?vid=e1433b0a-8e5d-4cc6-a777-af1576df4faf","ios":"levelo://app?vid=e1433b0a-8e5d-4cc6-a777-af1576df4faf"},"vehicle_type_id":"4","last_reported":1744409341,"current_range_meters":12800,"station_id":"ce4bho92rcd13ifvqh3g","pricing_plan_id":"cebpf4jnsgd1na2vs0mg"},{"bike_id":"78a195b7-36a5-4abd-bea6-bbfbf31409a4","system_id":"levelo_inurba_marseille","lat":43.28461,"lon":5.3588,"is_reserved":false,"is_disabled":false,"rental_uris":{"android":"levelo://app?vid=78a195b7-36a5-4abd-bea6-bbfbf31409a4","ios":"levelo://app?vid=78a195b7-36a5-4abd-bea6-bbfbf31409a4"},"vehicle_type_id":"4","last_reported":1744409341,"current_range_meters":12800,"station_id":"ce4bhah2rcd13ifvqei0","pricing_plan_id":"cebpf4jnsgd1na2vs0mg"},{"bike_id":"6678e618-88e6-4af0-a351-d6104ef33e9c","system_id":"levelo_inurba_marseille","lat":43.31241,"lon":5.36889,"is_reserved":false,"is_disabled":false,"rental_uris":{"android":"levelo://app?vid=6678e618-88e6-4af0-a351-d6104ef33e9c","ios":"levelo://app?vid=6678e618-88e6-4af0-a351-d6104ef33e9c"},"vehicle_type_id":"4","last_reported":1744409341,"current_range_meters":12800,"station_id":"ce4bgl92rcd13ifvqbq0","pricing_plan_id":"cebpf4jnsgd1na2vs0mg"},{"bike_id":"16fd30b1-cad6-4fc5-9de5-c7170be035f0","system_id":"levelo_inurba_marseille","lat":43.25718,"lon":5.41112,"is_reserved":false,"is_disabled":false,"rental_uris":{"android":"levelo://app?vid=16fd30b1-cad6-4fc5-9de5-c7170be035f0","ios":"levelo://app?vid=16fd30b1-cad6-4fc5-9de5-c7170be035f0"},"vehicle_type_id":"4","last_reported":1744409341,"current_range_meters":12800,"station_id":"ce4bhkp2rcd13ifvqgd0","pricing_plan_id":"cebpf4jnsgd1na2vs0mg"},{"bike_id":"1d9f8ae7-f0dc-4cce-9457-b473145084e7","system_id":"levelo_inurba_marseille","lat":43.29529,"lon":5.38529,"is_reserved":false,"is_disabled":false,"rental_uris":{"android":"levelo://app?vid=1d9f8ae7-f0dc-4cce-9457-b473145084e7","ios":"levelo://app?vid=1d9f8ae7-f0dc-4cce-9457-b473145084e7"},"vehicle_type_id":"4","last_reported":1744409341,"current_range_meters":13600,"station_id":"ce4bgih2rcd13ifvqba0","pricing_plan_id":"cebpf4jnsgd1na2vs0mg"},{"bike_id":"410850f2-1428-4146-a9ea-774d4a6e4e85","system_id":"levelo_inurba_marseille","lat":43.32367,"lon":5.38882,"is_reserved":false,"is_disabled":false,"rental_uris":{"android":"levelo://app?vid=410850f2-1428-4146-a9ea-774d4a6e4e85","ios":"levelo://app?vid=410850f2-1428-4146-a9ea-774d4a6e4e85"},"vehicle_type_id":"4","last_reported":1744409341,"current_range_meters":13600,"station_id":"ce4bhqp2rcd13ifvqhog","pricing_plan_id":"cebpf4jnsgd1na2vs0mg"},{"bike_id":"d38e0e5e-1441-423a-9774-3196b1a1cb17","system_id":"levelo_inurba_marseille","lat":43.3002,"lon":5.40002,"is_reserved":false,"is_disabled":false,"rental_uris":{"android":"levelo://app?vid=d38e0e5e-1441-423a-9774-3196b1a1cb17","ios":"levelo://app?vid=d38e0e5e-1441-423a-9774-3196b1a1cb17"},"vehicle_type_id":"4","last_reported":1744409341,"current_range_meters":13600,"station_id":"","pricing_plan_id":"cebpf4jnsgd1na2vs0mg"},{"bike_id":"18606129-1f46-4387-94fd-b9b77f87f6a9","system_id":"levelo_inurba_marseille","lat":43.23198,"lon":5.39973,"is_reserved":false,"is_disabled":false,"rental_uris":{"android":"levelo://app?vid=18606129-1f46-4387-94fd-b9b77f87f6a9","ios":"levelo://app?vid=18606129-1f46-4387-94fd-b9b77f87f6a9"},"vehicle_type_id":"4","last_reported":1744409341,"current_range_meters":13600,"station_id":"ce4bhn12rcd13ifvqgqg","pricing_plan_id":"cebpf4jnsgd1na2vs0mg"},{"bike_id":"e854defc-8e33-40ed-a4f3-45bab2707a87","system_id":"levelo_inurba_marseille","lat":43.30917,"lon":5.40138,"is_reserved":false,"is_disabled":false,"rental_uris":{"android":"levelo://app?vid=e854defc-8e33-40ed-a4f3-45bab2707a87","ios":"levelo://app?vid=e854defc-8e33-40ed-a4f3-45bab2707a87"},"vehicle_type_id":"4","last_reported":1744409341,"current_range_meters":14000,"station_id":"ce4bgvp2rcd13ifvqct0","pricing_plan_id":"cebpf4jnsgd1na2vs0mg"},{"bike_id":"11ed7673-3f24-4a3c-9fcd-190be8b0e0f2","system_id":"levelo_inurba_marseille","lat":43.29523,"lon":5.38551,"is_reserved":false,"is_disabled":false,"rental_uris":{"android":"levelo://app?vid=11ed7673-3f24-4a3c-9fcd-190be8b0e0f2","ios":"levelo://app?vid=11ed7673-3f24-4a3c-9fcd-190be8b0e0f2"},"vehicle_type_id":"4","last_reported":1744409341,"current_range_meters":14000,"station_id":"ce4bgih2rcd13ifvqba0","pricing_plan_id":"cebpf4jnsgd1na2vs0mg"},{"bike_id":"ef291804-1477-432e-b153-82ea15725418","system_id":"levelo_inurba_marseille","lat":43.33742,"lon":5.37454,"is_reserved":false,"is_disabled":false,"rental_uris":{"android":"levelo://app?vid=ef291804-1477-432e-b153-82ea15725418","ios":"levelo://app?vid=ef291804-1477-432e-b153-82ea15725418"},"vehicle_type_id":"4","last_reported":1744409341,"current_range_meters":14000,"station_id":"","pricing_plan_id":"cebpf4jnsgd1na2vs0mg"},{"bike_id":"030557c9-ced9-4a18-acec-4eff8c4972ce","system_id":"levelo_inurba_marseille","lat":43.29428,"lon":5.38906,"is_reserved":false,"is_disabled":false,"rental_uris":{"android":"levelo://app?vid=030557c9-ced9-4a18-acec-4eff8c4972ce","ios":"levelo://app?vid=030557c9-ced9-4a18-acec-4eff8c4972ce"},"vehicle_type_id":"4","last_reported":1744409341,"current_range_meters":14000,"station_id":"","pricing_plan_id":"cebpf4jnsgd1na2vs0mg"},{"bike_id":"fada94ee-4770-424e-ae84-99e0a30f0067","system_id":"levelo_inurba_marseille","lat":43.2482,"lon":5.37453,"is_reserved":false,"is_disabled":false,"rental_uris":{"android":"levelo://app?vid=fada94ee-4770-424e-ae84-99e0a30f0067","ios":"levelo://app?vid=fada94ee-4770-424e-ae84-99e0a30f0067"},"vehicle_type_id":"4","last_reported":1744409341,"current_range_meters":14000,"station_id":"ce4bhgh2rcd13ifvqfb0","pricing_plan_id":"cebpf4jnsgd1na2vs0mg"},{"bike_id":"275105d5-fc78-47da-8cbd-06869c2e36d2","system_id":"levelo_inurba_marseille","lat":43.25497,"lon":5.37643,"is_reserved":false,"is_disabled":false,"rental_uris":{"android":"levelo://app?vid=275105d5-fc78-47da-8cbd-06869c2e36d2","ios":"levelo://app?vid=275105d5-fc78-47da-8cbd-06869c2e36d2"},"vehicle_type_id":"4","last_reported":1744409341,"current_range_meters":14400,"station_id":"ce4bhh12rcd13ifvqff0","pricing_plan_id":"cebpf4jnsgd1na2vs0mg"},{"bike_id":"b1e7f30f-0e98-4045-ab31-a659ab637c18","system_id":"levelo_inurba_marseille","lat":43.32361,"lon":5.36748,"is_reserved":false,"is_disabled":false,"rental_uris":{"android":"levelo://app?vid=b1e7f30f-0e98-4045-ab31-a659ab637c18","ios":"levelo://app?vid=b1e7f30f-0e98-4045-ab31-a659ab637c18"},"vehicle_type_id":"4","last_reported":1744409341,"current_range_meters":14400,"station_id":"ce4bhsh2rcd13ifvqi2g","pricing_plan_id":"cebpf4jnsgd1na2vs0mg"},{"bike_id":"b787a13f-7452-4e43-8aaa-d73fdb97c798","system_id":"levelo_inurba_marseille","lat":43.321457,"lon":5.367918,"is_reserved":false,"is_disabled":false,"rental_uris":{"android":"levelo://app?vid=b787a13f-7452-4e43-8aaa-d73fdb97c798","ios":"levelo://app?vid=b787a13f-7452-4e43-8aaa-d73fdb97c798"},"vehicle_type_id":"4","last_reported":1744409341,"current_range_meters":14800,"station_id":"ce4bhrh2rcd13ifvqhug","pricing_plan_id":"cebpf4jnsgd1na2vs0mg"},{"bike_id":"c9aa49b6-dfff-45a5-aada-a9b66a79c5ac","system_id":"levelo_inurba_marseille","lat":43.24682,"lon":5.38149,"is_reserved":false,"is_disabled":false,"rental_uris":{"android":"levelo://app?vid=c9aa49b6-dfff-45a5-aada-a9b66a79c5ac","ios":"levelo://app?vid=c9aa49b6-dfff-45a5-aada-a9b66a79c5ac"},"vehicle_type_id":"4","last_reported":1744409341,"current_range_meters":14800,"station_id":"ce4bhih2rcd13ifvqfr0","pricing_plan_id":"cebpf4jnsgd1na2vs0mg"},{"bike_id":"1a4fc914-2089-4262-880a-77a0477933a7","system_id":"levelo_inurba_marseille","lat":43.29087,"lon":5.38156,"is_reserved":false,"is_disabled":false,"rental_uris":{"android":"levelo://app?vid=1a4fc914-2089-4262-880a-77a0477933a7","ios":"levelo://app?vid=1a4fc914-2089-4262-880a-77a0477933a7"},"vehicle_type_id":"4","last_reported":1744409341,"current_range_meters":14800,"station_id":"ce4bh512rcd13ifvqe2g","pricing_plan_id":"cebpf4jnsgd1na2vs0mg"},{"bike_id":"dd64c0e7-64e0-4f92-a620-7a2c964a0050","system_id":"levelo_inurba_marseille","lat":43.32121,"lon":5.36751,"is_reserved":false,"is_disabled":false,"rental_uris":{"android":"levelo://app?vid=dd64c0e7-64e0-4f92-a620-7a2c964a0050","ios":"levelo://app?vid=dd64c0e7-64e0-4f92-a620-7a2c964a0050"},"vehicle_type_id":"4","last_reported":1744409341,"current_range_meters":14800,"station_id":"ce4bhrh2rcd13ifvqhug","pricing_plan_id":"cebpf4jnsgd1na2vs0mg"},{"bike_id":"5b77a833-8185-45c2-9fe3-07eb40df54ca","system_id":"levelo_inurba_marseille","lat":43.33995,"lon":5.38057,"is_reserved":false,"is_disabled":false,"rental_uris":{"android":"levelo://app?vid=5b77a833-8185-45c2-9fe3-07eb40df54ca","ios":"levelo://app?vid=5b77a833-8185-45c2-9fe3-07eb40df54ca"},"vehicle_type_id":"4","last_reported":1744409341,"current_range_meters":14800,"station_id":"","pricing_plan_id":"cebpf4jnsgd1na2vs0mg"},{"bike_id":"cfa05593-02c0-4361-b7cb-d147d92b27a4","system_id":"levelo_inurba_marseille","lat":43.24172,"lon":5.36401,"is_reserved":false,"is_disabled":false,"rental_uris":{"android":"levelo://app?vid=cfa05593-02c0-4361-b7cb-d147d92b27a4","ios":"levelo://app?vid=cfa05593-02c0-4361-b7cb-d147d92b27a4"},"vehicle_type_id":"4","last_reported":1744409341,"current_range_meters":15200,"station_id":"cpo36qri1sfpv3e86is0","pricing_plan_id":"cebpf4jnsgd1na2vs0mg"},{"bike_id":"503203d3-1e0d-41e7-9876-10c94ae677ff","system_id":"levelo_inurba_marseille","lat":43.321,"lon":5.36783,"is_reserved":false,"is_disabled":false,"rental_uris":{"android":"levelo://app?vid=503203d3-1e0d-41e7-9876-10c94ae677ff","ios":"levelo://app?vid=503203d3-1e0d-41e7-9876-10c94ae677ff"},"vehicle_type_id":"4","last_reported":1744409341,"current_range_meters":15200,"station_id":"ce4bhrh2rcd13ifvqhug","pricing_plan_id":"cebpf4jnsgd1na2vs0mg"},{"bike_id":"1f04d8c4-77fa-4110-8fdf-19a5a6398f2c","system_id":"levelo_inurba_marseille","lat":43.264954,"lon":5.395382,"is_reserved":false,"is_disabled":false,"rental_uris":{"android":"levelo://app?vid=1f04d8c4-77fa-4110-8fdf-19a5a6398f2c","ios":"levelo://app?vid=1f04d8c4-77fa-4110-8fdf-19a5a6398f2c"},"vehicle_type_id":"4","last_reported":1744409341,"current_range_meters":14800,"station_id":"ce4bhh12rcd13ifvqff0","pricing_plan_id":"cebpf4jnsgd1na2vs0mg"},{"bike_id":"c61507c5-8284-4dbf-a17e-1093a8929f87","system_id":"levelo_inurba_marseille","lat":43.30957,"lon":5.39046,"is_reserved":false,"is_disabled":false,"rental_uris":{"android":"levelo://app?vid=c61507c5-8284-4dbf-a17e-1093a8929f87","ios":"levelo://app?vid=c61507c5-8284-4dbf-a17e-1093a8929f87"},"vehicle_type_id":"4","last_reported":1744409341,"current_range_meters":15200,"station_id":"ce4bgup2rcd13ifvqco0","pricing_plan_id":"cebpf4jnsgd1na2vs0mg"},{"bike_id":"ddd6eb39-d19a-4719-8437-1b074ab94493","system_id":"levelo_inurba_marseille","lat":43.29309,"lon":5.37173,"is_reserved":false,"is_disabled":false,"rental_uris":{"android":"levelo://app?vid=ddd6eb39-d19a-4719-8437-1b074ab94493","ios":"levelo://app?vid=ddd6eb39-d19a-4719-8437-1b074ab94493"},"vehicle_type_id":"4","last_reported":1744409341,"current_range_meters":15200,"station_id":"ce4bgh92rcd13ifvqb40","pricing_plan_id":"cebpf4jnsgd1na2vs0mg"},{"bike_id":"777b227c-7abb-4d62-9994-ac7b6072751a","system_id":"levelo_inurba_marseille","lat":43.31121,"lon":5.37769,"is_reserved":false,"is_disabled":false,"rental_uris":{"android":"levelo://app?vid=777b227c-7abb-4d62-9994-ac7b6072751a","ios":"levelo://app?vid=777b227c-7abb-4d62-9994-ac7b6072751a"},"vehicle_type_id":"4","last_reported":1744409341,"current_range_meters":15200,"station_id":"ce4bgt92rcd13ifvqcg0","pricing_plan_id":"cebpf4jnsgd1na2vs0mg"},{"bike_id":"0ef69511-be6d-4e13-bc78-ea11f280825a","system_id":"levelo_inurba_marseille","lat":43.31222,"lon":5.36857,"is_reserved":false,"is_disabled":false,"rental_uris":{"android":"levelo://app?vid=0ef69511-be6d-4e13-bc78-ea11f280825a","ios":"levelo://app?vid=0ef69511-be6d-4e13-bc78-ea11f280825a"},"vehicle_type_id":"4","last_reported":1744409341,"current_range_meters":16000,"station_id":"ce4bgl92rcd13ifvqbq0","pricing_plan_id":"cebpf4jnsgd1na2vs0mg"},{"bike_id":"f7d1eee0-1715-419d-beac-1b98ec9e62ed","system_id":"levelo_inurba_marseille","lat":43.30954,"lon":5.39031,"is_reserved":false,"is_disabled":true,"rental_uris":{"android":"levelo://app?vid=f7d1eee0-1715-419d-beac-1b98ec9e62ed","ios":"levelo://app?vid=f7d1eee0-1715-419d-beac-1b98ec9e62ed"},"vehicle_type_id":"4","last_reported":1744409341,"current_range_meters":16000,"station_id":"ce4bgup2rcd13ifvqco0","pricing_plan_id":"cebpf4jnsgd1na2vs0mg"},{"bike_id":"d3b516d0-9e57-4e18-bb1a-43a8b8c5f750","system_id":"levelo_inurba_marseille","lat":43.26685,"lon":5.38271,"is_reserved":false,"is_disabled":false,"rental_uris":{"android":"levelo://app?vid=d3b516d0-9e57-4e18-bb1a-43a8b8c5f750","ios":"levelo://app?vid=d3b516d0-9e57-4e18-bb1a-43a8b8c5f750"},"vehicle_type_id":"4","last_reported":1744409341,"current_range_meters":16000,"station_id":"ce4bhg92rcd13ifvqf90","pricing_plan_id":"cebpf4jnsgd1na2vs0mg"},{"bike_id":"da42d415-bd3a-4d7e-8ba8-ec0cf4fb2f13","system_id":"levelo_inurba_marseille","lat":43.30959,"lon":5.39029,"is_reserved":false,"is_disabled":false,"rental_uris":{"android":"levelo://app?vid=da42d415-bd3a-4d7e-8ba8-ec0cf4fb2f13","ios":"levelo://app?vid=da42d415-bd3a-4d7e-8ba8-ec0cf4fb2f13"},"vehicle_type_id":"4","last_reported":1744409341,"current_range_meters":16000,"station_id":"ce4bgup2rcd13ifvqco0","pricing_plan_id":"cebpf4jnsgd1na2vs0mg"},{"bike_id":"8b2782bb-d0c9-4ea4-a075-841213e692f9","system_id":"levelo_inurba_marseille","lat":43.24833,"lon":5.37451,"is_reserved":false,"is_disabled":false,"rental_uris":{"android":"levelo://app?vid=8b2782bb-d0c9-4ea4-a075-841213e692f9","ios":"levelo://app?vid=8b2782bb-d0c9-4ea4-a075-841213e692f9"},"vehicle_type_id":"4","last_reported":1744409341,"current_range_meters":16000,"station_id":"ce4bhgh2rcd13ifvqfb0","pricing_plan_id":"cebpf4jnsgd1na2vs0mg"},{"bike_id":"b10efb6c-63de-4673-9ba6-ecc63a29dc73","system_id":"levelo_inurba_marseille","lat":43.25503,"lon":5.37654,"is_reserved":false,"is_disabled":false,"rental_uris":{"android":"levelo://app?vid=b10efb6c-63de-4673-9ba6-ecc63a29dc73","ios":"levelo://app?vid=b10efb6c-63de-4673-9ba6-ecc63a29dc73"},"vehicle_type_id":"4","last_reported":1744409341,"current_range_meters":16000,"station_id":"ce4bhh12rcd13ifvqff0","pricing_plan_id":"cebpf4jnsgd1na2vs0mg"},{"bike_id":"3383469d-bf04-4b83-befe-8d91b97ef6f7","system_id":"levelo_inurba_marseille","lat":43.32149,"lon":5.37948,"is_reserved":false,"is_disabled":false,"rental_uris":{"android":"levelo://app?vid=3383469d-bf04-4b83-befe-8d91b97ef6f7","ios":"levelo://app?vid=3383469d-bf04-4b83-befe-8d91b97ef6f7"},"vehicle_type_id":"4","last_reported":1744409341,"current_range_meters":16000,"station_id":"","pricing_plan_id":"cebpf4jnsgd1na2vs0mg"},{"bike_id":"1ff35ec3-e03a-4055-a113-3466efca224c","system_id":"levelo_inurba_marseille","lat":43.29913,"lon":5.37469,"is_reserved":false,"is_disabled":false,"rental_uris":{"android":"levelo://app?vid=1ff35ec3-e03a-4055-a113-3466efca224c","ios":"levelo://app?vid=1ff35ec3-e03a-4055-a113-3466efca224c"},"vehicle_type_id":"4","last_reported":1744409341,"current_range_meters":16000,"station_id":"ce4bgjh2rcd13ifvqbg0","pricing_plan_id":"cebpf4jnsgd1na2vs0mg"},{"bike_id":"e4d1c51c-8723-4a72-b9c2-12a19e50c87a","system_id":"levelo_inurba_marseille","lat":43.23151,"lon":5.43705,"is_reserved":false,"is_disabled":false,"rental_uris":{"android":"levelo://app?vid=e4d1c51c-8723-4a72-b9c2-12a19e50c87a","ios":"levelo://app?vid=e4d1c51c-8723-4a72-b9c2-12a19e50c87a"},"vehicle_type_id":"4","last_reported":1744409341,"current_range_meters":16000,"station_id":"ce4bhmp2rcd13ifvqgog","pricing_plan_id":"cebpf4jnsgd1na2vs0mg"},{"bike_id":"0e7bf4ae-5aed-4055-a1f8-96debbb9847e","system_id":"levelo_inurba_marseille","lat":43.241685,"lon":5.363986,"is_reserved":false,"is_disabled":false,"rental_uris":{"android":"levelo://app?vid=0e7bf4ae-5aed-4055-a1f8-96debbb9847e","ios":"levelo://app?vid=0e7bf4ae-5aed-4055-a1f8-96debbb9847e"},"vehicle_type_id":"4","last_reported":1744409341,"current_range_meters":16000,"station_id":"cpo36qri1sfpv3e86is0","pricing_plan_id":"cebpf4jnsgd1na2vs0mg"},{"bike_id":"fa0290ae-4845-42fd-8ae9-57ffb7ee0ce9","system_id":"levelo_inurba_marseille","lat":43.29537,"lon":5.38536,"is_reserved":false,"is_disabled":false,"rental_uris":{"android":"levelo://app?vid=fa0290ae-4845-42fd-8ae9-57ffb7ee0ce9","ios":"levelo://app?vid=fa0290ae-4845-42fd-8ae9-57ffb7ee0ce9"},"vehicle_type_id":"4","last_reported":1744409341,"current_range_meters":16000,"station_id":"ce4bgih2rcd13ifvqba0","pricing_plan_id":"cebpf4jnsgd1na2vs0mg"},{"bike_id":"307464e0-8242-4c5d-a5da-332321773e49","system_id":"levelo_inurba_marseille","lat":43.31114,"lon":5.37789,"is_reserved":false,"is_disabled":false,"rental_uris":{"android":"levelo://app?vid=307464e0-8242-4c5d-a5da-332321773e49","ios":"levelo://app?vid=307464e0-8242-4c5d-a5da-332321773e49"},"vehicle_type_id":"4","last_reported":1744409341,"current_range_meters":16400,"station_id":"ce4bgth2rcd13ifvqch0","pricing_plan_id":"cebpf4jnsgd1na2vs0mg"},{"bike_id":"f92d45a8-daba-4cd1-a6af-79dc7e8cb1f0","system_id":"levelo_inurba_marseille","lat":43.30222,"lon":5.3947,"is_reserved":false,"is_disabled":false,"rental_uris":{"android":"levelo://app?vid=f92d45a8-daba-4cd1-a6af-79dc7e8cb1f0","ios":"levelo://app?vid=f92d45a8-daba-4cd1-a6af-79dc7e8cb1f0"},"vehicle_type_id":"4","last_reported":1744409341,"current_range_meters":16400,"station_id":"ce4bh0p2rcd13ifvqd70","pricing_plan_id":"cebpf4jnsgd1na2vs0mg"},{"bike_id":"d8f603cd-3b83-4148-bab8-3a185ad2a59f","system_id":"levelo_inurba_marseille","lat":43.3235,"lon":5.38882,"is_reserved":false,"is_disabled":false,"rental_uris":{"android":"levelo://app?vid=d8f603cd-3b83-4148-bab8-3a185ad2a59f","ios":"levelo://app?vid=d8f603cd-3b83-4148-bab8-3a185ad2a59f"},"vehicle_type_id":"4","last_reported":1744409341,"current_range_meters":16400,"station_id":"ce4bhqp2rcd13ifvqhog","pricing_plan_id":"cebpf4jnsgd1na2vs0mg"},{"bike_id":"24d73de8-9b9d-45d5-befa-88e089d9173b","system_id":"levelo_inurba_marseille","lat":43.2988,"lon":5.38912,"is_reserved":false,"is_disabled":false,"rental_uris":{"android":"levelo://app?vid=24d73de8-9b9d-45d5-befa-88e089d9173b","ios":"levelo://app?vid=24d73de8-9b9d-45d5-befa-88e089d9173b"},"vehicle_type_id":"4","last_reported":1744409341,"current_range_meters":16400,"station_id":"ce4bh392rcd13ifvqdl0","pricing_plan_id":"cebpf4jnsgd1na2vs0mg"},{"bike_id":"3df40a36-1bce-4ef4-a0f1-05a7c216c9be","system_id":"levelo_inurba_marseille","lat":43.27376,"lon":5.36261,"is_reserved":false,"is_disabled":false,"rental_uris":{"android":"levelo://app?vid=3df40a36-1bce-4ef4-a0f1-05a7c216c9be","ios":"levelo://app?vid=3df40a36-1bce-4ef4-a0f1-05a7c216c9be"},"vehicle_type_id":"4","last_reported":1744409341,"current_range_meters":16400,"station_id":"ce4bhbh2rcd13ifvqeo0","pricing_plan_id":"cebpf4jnsgd1na2vs0mg"},{"bike_id":"227d1263-5ba3-4b1b-b6d0-edb4ebf05e58","system_id":"levelo_inurba_marseille","lat":43.2941,"lon":5.38639,"is_reserved":false,"is_disabled":false,"rental_uris":{"android":"levelo://app?vid=227d1263-5ba3-4b1b-b6d0-edb4ebf05e58","ios":"levelo://app?vid=227d1263-5ba3-4b1b-b6d0-edb4ebf05e58"},"vehicle_type_id":"4","last_reported":1744409341,"current_range_meters":16400,"station_id":"ce4bh2h2rcd13ifvqdh0","pricing_plan_id":"cebpf4jnsgd1na2vs0mg"},{"bike_id":"faa47fa3-4737-426d-a021-4b787008aea9","system_id":"levelo_inurba_marseille","lat":43.31274,"lon":5.40174,"is_reserved":false,"is_disabled":false,"rental_uris":{"android":"levelo://app?vid=faa47fa3-4737-426d-a021-4b787008aea9","ios":"levelo://app?vid=faa47fa3-4737-426d-a021-4b787008aea9"},"vehicle_type_id":"4","last_reported":1744409341,"current_range_meters":16400,"station_id":"ce4bh092rcd13ifvqd30","pricing_plan_id":"cebpf4jnsgd1na2vs0mg"},{"bike_id":"c09876cd-28e6-462c-99fd-41d0b43e1f46","system_id":"levelo_inurba_marseille","lat":43.3137,"lon":5.38497,"is_reserved":false,"is_disabled":false,"rental_uris":{"android":"levelo://app?vid=c09876cd-28e6-462c-99fd-41d0b43e1f46","ios":"levelo://app?vid=c09876cd-28e6-462c-99fd-41d0b43e1f46"},"vehicle_type_id":"4","last_reported":1744409341,"current_range_meters":16400,"station_id":"ce4bgt92rcd13ifvqcf0","pricing_plan_id":"cebpf4jnsgd1na2vs0mg"},{"bike_id":"c8c5f05d-e654-4c6f-a2bb-a63089f71a26","system_id":"levelo_inurba_marseille","lat":43.2808,"lon":5.3966,"is_reserved":false,"is_disabled":false,"rental_uris":{"android":"levelo://app?vid=c8c5f05d-e654-4c6f-a2bb-a63089f71a26","ios":"levelo://app?vid=c8c5f05d-e654-4c6f-a2bb-a63089f71a26"},"vehicle_type_id":"4","last_reported":1744409341,"current_range_meters":16400,"station_id":"ce4bho12rcd13ifvqh2g","pricing_plan_id":"cebpf4jnsgd1na2vs0mg"},{"bike_id":"a8d99482-a057-469f-bd2e-b289d8ded2a5","system_id":"levelo_inurba_marseille","lat":43.29802,"lon":5.40388,"is_reserved":false,"is_disabled":false,"rental_uris":{"android":"levelo://app?vid=a8d99482-a057-469f-bd2e-b289d8ded2a5","ios":"levelo://app?vid=a8d99482-a057-469f-bd2e-b289d8ded2a5"},"vehicle_type_id":"4","last_reported":1744409341,"current_range_meters":16400,"station_id":"ce4bh112rcd13ifvqd90","pricing_plan_id":"cebpf4jnsgd1na2vs0mg"},{"bike_id":"2f5bc015-0a98-4a0d-a50f-f7181e1d6abe","system_id":"levelo_inurba_marseille","lat":43.23392,"lon":5.41235,"is_reserved":false,"is_disabled":false,"rental_uris":{"android":"levelo://app?vid=2f5bc015-0a98-4a0d-a50f-f7181e1d6abe","ios":"levelo://app?vid=2f5bc015-0a98-4a0d-a50f-f7181e1d6abe"},"vehicle_type_id":"4","last_reported":1744409341,"current_range_meters":16800,"station_id":"","pricing_plan_id":"cebpf4jnsgd1na2vs0mg"},{"bike_id":"fa2c78af-7442-435a-b59d-ecb3191bfe19","system_id":"levelo_inurba_marseille","lat":43.26575,"lon":5.37292,"is_reserved":false,"is_disabled":false,"rental_uris":{"android":"levelo://app?vid=fa2c78af-7442-435a-b59d-ecb3191bfe19","ios":"levelo://app?vid=fa2c78af-7442-435a-b59d-ecb3191bfe19"},"vehicle_type_id":"4","last_reported":1744409341,"current_range_meters":16800,"station_id":"ce4bhg12rcd13ifvqf70","pricing_plan_id":"cebpf4jnsgd1na2vs0mg"},{"bike_id":"8ac746a2-2143-4e34-af60-10c85dd51feb","system_id":"levelo_inurba_marseille","lat":43.26493,"lon":5.39544,"is_reserved":false,"is_disabled":false,"rental_uris":{"android":"levelo://app?vid=8ac746a2-2143-4e34-af60-10c85dd51feb","ios":"levelo://app?vid=8ac746a2-2143-4e34-af60-10c85dd51feb"},"vehicle_type_id":"4","last_reported":1744409341,"current_range_meters":16800,"station_id":"ce4bhi12rcd13ifvqfq0","pricing_plan_id":"cebpf4jnsgd1na2vs0mg"},{"bike_id":"877d5528-2b79-495b-b6f0-bff1dc60a0df","system_id":"levelo_inurba_marseille","lat":43.269415,"lon":5.40246,"is_reserved":false,"is_disabled":false,"rental_uris":{"android":"levelo://app?vid=877d5528-2b79-495b-b6f0-bff1dc60a0df","ios":"levelo://app?vid=877d5528-2b79-495b-b6f0-bff1dc60a0df"},"vehicle_type_id":"4","last_reported":1744409341,"current_range_meters":16800,"station_id":"cjm6bp8fraef2m0cb0m0","pricing_plan_id":"cebpf4jnsgd1na2vs0mg"},{"bike_id":"13422442-ef39-496d-a289-cb4c3a76811c","system_id":"levelo_inurba_marseille","lat":43.2783,"lon":5.39217,"is_reserved":false,"is_disabled":false,"rental_uris":{"android":"levelo://app?vid=13422442-ef39-496d-a289-cb4c3a76811c","ios":"levelo://app?vid=13422442-ef39-496d-a289-cb4c3a76811c"},"vehicle_type_id":"4","last_reported":1744409341,"current_range_meters":16800,"station_id":"ce4bhjp2rcd13ifvqga0","pricing_plan_id":"cebpf4jnsgd1na2vs0mg"},{"bike_id":"90cddebc-2506-42ee-9df1-36a6154dff75","system_id":"levelo_inurba_marseille","lat":43.24189,"lon":5.36386,"is_reserved":false,"is_disabled":false,"rental_uris":{"android":"levelo://app?vid=90cddebc-2506-42ee-9df1-36a6154dff75","ios":"levelo://app?vid=90cddebc-2506-42ee-9df1-36a6154dff75"},"vehicle_type_id":"4","last_reported":1744409341,"current_range_meters":16800,"station_id":"cpo36qri1sfpv3e86is0","pricing_plan_id":"cebpf4jnsgd1na2vs0mg"},{"bike_id":"8c96e097-3dfc-459e-bb25-cfcbec7fc248","system_id":"levelo_inurba_marseille","lat":43.29262,"lon":5.38447,"is_reserved":false,"is_disabled":false,"rental_uris":{"android":"levelo://app?vid=8c96e097-3dfc-459e-bb25-cfcbec7fc248","ios":"levelo://app?vid=8c96e097-3dfc-459e-bb25-cfcbec7fc248"},"vehicle_type_id":"4","last_reported":1744409341,"current_range_meters":16800,"station_id":"ce4bh692rcd13ifvqea0","pricing_plan_id":"cebpf4jnsgd1na2vs0mg"},{"bike_id":"a78df197-c453-466a-a6fd-fd6ae60a68ac","system_id":"levelo_inurba_marseille","lat":43.24664,"lon":5.38163,"is_reserved":false,"is_disabled":false,"rental_uris":{"android":"levelo://app?vid=a78df197-c453-466a-a6fd-fd6ae60a68ac","ios":"levelo://app?vid=a78df197-c453-466a-a6fd-fd6ae60a68ac"},"vehicle_type_id":"4","last_reported":1744409341,"current_range_meters":17200,"station_id":"ce4bhih2rcd13ifvqfr0","pricing_plan_id":"cebpf4jnsgd1na2vs0mg"},{"bike_id":"d55b55b6-2cee-40be-9a97-8f39ec4d3068","system_id":"levelo_inurba_marseille","lat":43.29271,"lon":5.38452,"is_reserved":false,"is_disabled":false,"rental_uris":{"android":"levelo://app?vid=d55b55b6-2cee-40be-9a97-8f39ec4d3068","ios":"levelo://app?vid=d55b55b6-2cee-40be-9a97-8f39ec4d3068"},"vehicle_type_id":"4","last_reported":1744409341,"current_range_meters":17200,"station_id":"ce4bh692rcd13ifvqea0","pricing_plan_id":"cebpf4jnsgd1na2vs0mg"},{"bike_id":"04697f1c-f402-4cec-ad92-d8e40094fc77","system_id":"levelo_inurba_marseille","lat":43.31277,"lon":5.40163,"is_reserved":false,"is_disabled":false,"rental_uris":{"android":"levelo://app?vid=04697f1c-f402-4cec-ad92-d8e40094fc77","ios":"levelo://app?vid=04697f1c-f402-4cec-ad92-d8e40094fc77"},"vehicle_type_id":"4","last_reported":1744409341,"current_range_meters":17200,"station_id":"ce4bh092rcd13ifvqd30","pricing_plan_id":"cebpf4jnsgd1na2vs0mg"},{"bike_id":"9a5f60a9-9060-4d85-8f6b-efb90811e658","system_id":"levelo_inurba_marseille","lat":43.25499,"lon":5.37644,"is_reserved":false,"is_disabled":false,"rental_uris":{"android":"levelo://app?vid=9a5f60a9-9060-4d85-8f6b-efb90811e658","ios":"levelo://app?vid=9a5f60a9-9060-4d85-8f6b-efb90811e658"},"vehicle_type_id":"4","last_reported":1744409341,"current_range_meters":17200,"station_id":"ce4bhh12rcd13ifvqff0","pricing_plan_id":"cebpf4jnsgd1na2vs0mg"},{"bike_id":"2c4948ed-2521-4cb9-8a6a-0591f4f9a06a","system_id":"levelo_inurba_marseille","lat":43.31078,"lon":5.38347,"is_reserved":false,"is_disabled":false,"rental_uris":{"android":"levelo://app?vid=2c4948ed-2521-4cb9-8a6a-0591f4f9a06a","ios":"levelo://app?vid=2c4948ed-2521-4cb9-8a6a-0591f4f9a06a"},"vehicle_type_id":"4","last_reported":1744409341,"current_range_meters":17200,"station_id":"ce4bgv92rcd13ifvqcr0","pricing_plan_id":"cebpf4jnsgd1na2vs0mg"},{"bike_id":"7c7fa82a-7c9f-458c-a89e-577845bdbe80","system_id":"levelo_inurba_marseille","lat":43.29264,"lon":5.38453,"is_reserved":false,"is_disabled":false,"rental_uris":{"android":"levelo://app?vid=7c7fa82a-7c9f-458c-a89e-577845bdbe80","ios":"levelo://app?vid=7c7fa82a-7c9f-458c-a89e-577845bdbe80"},"vehicle_type_id":"4","last_reported":1744409341,"current_range_meters":17200,"station_id":"ce4bh692rcd13ifvqea0","pricing_plan_id":"cebpf4jnsgd1na2vs0mg"},{"bike_id":"ac1ac4ab-01e9-4593-93dd-dcb7b2f34489","system_id":"levelo_inurba_marseille","lat":43.29264,"lon":5.38448,"is_reserved":false,"is_disabled":false,"rental_uris":{"android":"levelo://app?vid=ac1ac4ab-01e9-4593-93dd-dcb7b2f34489","ios":"levelo://app?vid=ac1ac4ab-01e9-4593-93dd-dcb7b2f34489"},"vehicle_type_id":"4","last_reported":1744409341,"current_range_meters":17200,"station_id":"ce4bh692rcd13ifvqea0","pricing_plan_id":"cebpf4jnsgd1na2vs0mg"},{"bike_id":"2a768501-9320-4bc9-a417-15b58706b922","system_id":"levelo_inurba_marseille","lat":43.27574,"lon":5.38397,"is_reserved":false,"is_disabled":false,"rental_uris":{"android":"levelo://app?vid=2a768501-9320-4bc9-a417-15b58706b922","ios":"levelo://app?vid=2a768501-9320-4bc9-a417-15b58706b922"},"vehicle_type_id":"4","last_reported":1744409341,"current_range_meters":17200,"station_id":"ce4bhh92rcd13ifvqfi0","pricing_plan_id":"cebpf4jnsgd1na2vs0mg"},{"bike_id":"baff7022-fcf2-4dbf-bfd5-4a6b4fe97855","system_id":"levelo_inurba_marseille","lat":43.31169,"lon":5.38712,"is_reserved":false,"is_disabled":false,"rental_uris":{"android":"levelo://app?vid=baff7022-fcf2-4dbf-bfd5-4a6b4fe97855","ios":"levelo://app?vid=baff7022-fcf2-4dbf-bfd5-4a6b4fe97855"},"vehicle_type_id":"4","last_reported":1744409341,"current_range_meters":17600,"station_id":"ce4bgv12rcd13ifvqcp0","pricing_plan_id":"cebpf4jnsgd1na2vs0mg"},{"bike_id":"13da2750-fb61-4f6a-bbe6-a2c1d1b68f38","system_id":"levelo_inurba_marseille","lat":43.25506,"lon":5.3765,"is_reserved":false,"is_disabled":false,"rental_uris":{"android":"levelo://app?vid=13da2750-fb61-4f6a-bbe6-a2c1d1b68f38","ios":"levelo://app?vid=13da2750-fb61-4f6a-bbe6-a2c1d1b68f38"},"vehicle_type_id":"4","last_reported":1744409341,"current_range_meters":17600,"station_id":"ce4bhh12rcd13ifvqff0","pricing_plan_id":"cebpf4jnsgd1na2vs0mg"},{"bike_id":"0663e361-5ecb-4ca0-bfaa-c01a2f66fe21","system_id":"levelo_inurba_marseille","lat":43.31999,"lon":5.38164,"is_reserved":false,"is_disabled":false,"rental_uris":{"android":"levelo://app?vid=0663e361-5ecb-4ca0-bfaa-c01a2f66fe21","ios":"levelo://app?vid=0663e361-5ecb-4ca0-bfaa-c01a2f66fe21"},"vehicle_type_id":"4","last_reported":1744409341,"current_range_meters":17600,"station_id":"ce4bhr12rcd13ifvqhpg","pricing_plan_id":"cebpf4jnsgd1na2vs0mg"},{"bike_id":"96b23522-000c-40e6-adc6-3eb838a0a125","system_id":"levelo_inurba_marseille","lat":43.240695,"lon":5.377637,"is_reserved":false,"is_disabled":false,"rental_uris":{"android":"levelo://app?vid=96b23522-000c-40e6-adc6-3eb838a0a125","ios":"levelo://app?vid=96b23522-000c-40e6-adc6-3eb838a0a125"},"vehicle_type_id":"4","last_reported":1744409341,"current_range_meters":17600,"station_id":"ce4bhnp2rcd13ifvqgvg","pricing_plan_id":"cebpf4jnsgd1na2vs0mg"},{"bike_id":"03e60ad2-482f-4db6-ad4b-e0c44a248f9d","system_id":"levelo_inurba_marseille","lat":43.29524,"lon":5.38539,"is_reserved":false,"is_disabled":false,"rental_uris":{"android":"levelo://app?vid=03e60ad2-482f-4db6-ad4b-e0c44a248f9d","ios":"levelo://app?vid=03e60ad2-482f-4db6-ad4b-e0c44a248f9d"},"vehicle_type_id":"4","last_reported":1744409341,"current_range_meters":17600,"station_id":"ce4bgih2rcd13ifvqba0","pricing_plan_id":"cebpf4jnsgd1na2vs0mg"},{"bike_id":"67d4fc9a-f036-467a-adf8-5c7ea4952f7d","system_id":"levelo_inurba_marseille","lat":43.246475,"lon":5.388871,"is_reserved":false,"is_disabled":false,"rental_uris":{"android":"levelo://app?vid=67d4fc9a-f036-467a-adf8-5c7ea4952f7d","ios":"levelo://app?vid=67d4fc9a-f036-467a-adf8-5c7ea4952f7d"},"vehicle_type_id":"4","last_reported":1744409341,"current_range_meters":17600,"station_id":"ce4bhg12rcd13ifvqf60","pricing_plan_id":"cebpf4jnsgd1na2vs0mg"},{"bike_id":"493cde9e-7859-4c26-a2e6-f744ee5d8553","system_id":"levelo_inurba_marseille","lat":43.31819,"lon":5.36826,"is_reserved":false,"is_disabled":false,"rental_uris":{"android":"levelo://app?vid=493cde9e-7859-4c26-a2e6-f744ee5d8553","ios":"levelo://app?vid=493cde9e-7859-4c26-a2e6-f744ee5d8553"},