{"last_updated":1706893614,"ttl":30,"version":"2.2","data":{"bikes":[{"bike_id":"192d9547-7a3c-4c6a-b5ee-5942a685a954","system_id":"levelo_inurba_marseille","lat":43.31341,"lon":5.367098,"is_reserved":false,"is_disabled":false,"rental_uris":{"android":"levelo://app?vid=192d9547-7a3c-4c6a-b5ee-5942a685a954","ios":"levelo://app?vid=192d9547-7a3c-4c6a-b5ee-5942a685a954"},"vehicle_type_id":"4","last_reported":1706893614,"current_range_meters":0,"station_id":"ce4bgr92rcd13ifvqc6g","pricing_plan_id":"free"},{"bike_id":"8075556e-9c83-4ece-b92f-e5e90a5fd8a2","system_id":"levelo_inurba_marseille","lat":43.31306,"lon":5.37258,"is_reserved":false,"is_disabled":false,"rental_uris":{"android":"levelo://app?vid=8075556e-9c83-4ece-b92f-e5e90a5fd8a2","ios":"levelo://app?vid=8075556e-9c83-4ece-b92f-e5e90a5fd8a2"},"vehicle_type_id":"4","last_reported":1706893614,"current_range_meters":9600,"station_id":"","pricing_plan_id":"free"},{"bike_id":"305d9d73-4fea-4cb7-b02f-0ae39d5eaa69","system_id":"levelo_inurba_marseille","lat":43.309034,"lon":5.371783,"is_reserved":false,"is_disabled":false,"rental_uris":{"android":"levelo://app?vid=305d9d73-4fea-4cb7-b02f-0ae39d5eaa69","ios":"levelo://app?vid=305d9d73-4fea-4cb7-b02f-0ae39d5eaa69"},"vehicle_type_id":"4","last_reported":1706893614,"current_range_meters":400,"station_id":"ce4bguh2rcd13ifvqckg","pricing_plan_id":"free"},{"bike_id":"2520bf8c-259b-482f-8ef5-eeac46f676d5","system_id":"levelo_inurba_marseille","lat":43.308919,"lon":5.371906,"is_reserved":false,"is_disabled":false,"rental_uris":{"android":"levelo://app?vid=2520bf8c-259b-482f-8ef5-eeac46f676d5","ios":"levelo://app?vid=2520bf8c-259b-482f-8ef5-eeac46f676d5"},"vehicle_type_id":"4","last_reported":1706893614,"current_range_meters":18400,"station_id":"ce4bguh2rcd13ifvqckg","pricing_plan_id":"free"},{"bike_id":"1b82d577-6702-4bd1-9de6-e4899f29e69e","system_id":"levelo_inurba_marseille","lat":43.30888,"lon":5.37189,"is_reserved":false,"is_disabled":false,"rental_uris":{"android":"levelo://app?vid=1b82d577-6702-4bd1-9de6-e4899f29e69e","ios":"levelo://app?vid=1b82d577-6702-4bd1-9de6-e4899f29e69e"},"vehicle_type_id":"4","last_reported":1706893614,"current_range_meters":30000,"station_id":"ce4bguh2rcd13ifvqckg","pricing_plan_id":"free"},{"bike_id":"113368e9-1515-4dec-a8f8-d904a6c4cec6","system_id":"levelo_inurba_marseille","lat":43.309034,"lon":5.371783,"is_reserved":false,"is_disabled":false,"rental_uris":{"android":"levelo://app?vid=113368e9-1515-4dec-a8f8-d904a6c4cec6","ios":"levelo://app?vid=113368e9-1515-4dec-a8f8-d904a6c4cec6"},"vehicle_type_id":"4","last_reported":1706893614,"current_range_meters":6400,"station_id":"ce4bguh2rcd13ifvqckg","pricing_plan_id":"free"},{"bike_id":"4935c2bb-fa9e-412b-9ac1-51d8f5e7ba5e","system_id":"levelo_inurba_marseille","lat":43.30863,"lon":5.37155,"is_reserved":false,"is_disabled":false,"rental_uris":{"android":"levelo://app?vid=4935c2bb-fa9e-412b-9ac1-51d8f5e7ba5e","ios":"levelo://app?vid=4935c2bb-fa9e-412b-9ac1-51d8f5e7ba5e"},"vehicle_type_id":"4","last_reported":1706893614,"current_range_meters":0,"station_id":"","pricing_plan_id":"free"},{"bike_id":"a4777f63-4e88-4702-818c-e156ec1630c7","system_id":"levelo_inurba_marseille","lat":43.3089,"lon":5.37201,"is_reserved":false,"is_disabled":false,"rental_uris":{"android":"levelo://app?vid=a4777f63-4e88-4702-818c-e156ec1630c7","ios":"levelo://app?vid=a4777f63-4e88-4702-818c-e156ec1630c7"},"vehicle_type_id":"4","last_reported":1706893614,"current_range_meters":800,"station_id":"ce4bguh2rcd13ifvqckg","pricing_plan_id":"free"},{"bike_id":"bc94375c-653f-47c2-98cb-bdbab390c07c","system_id":"levelo_inurba_marseille","lat":43.309039,"lon":5.371797,"is_reserved":false,"is_disabled":false,"rental_uris":{"android":"levelo://app?vid=bc94375c-653f-47c2-98cb-bdbab390c07c","ios":"levelo://app?vid=bc94375c-653f-47c2-98cb-bdbab390c07c"},"vehicle_type_id":"4","last_reported":1706893614,"current_range_meters":18400,"station_id":"ce4bguh2rcd13ifvqckg","pricing_plan_id":"free"},{"bike_id":"27623319-97a7-43d1-8c90-e6030f69be19","system_id":"levelo_inurba_marseille","lat":43.305567,"lon":5.366969,"is_reserved":false,"is_disabled":false,"rental_uris":{"android":"levelo://app?vid=27623319-97a7-43d1-8c90-e6030f69be19","ios":"levelo://app?vid=27623319-97a7-43d1-8c90-e6030f69be19"},"vehicle_type_id":"4","last_reported":1706893614,"current_range_meters":17200,"station_id":"ce4bgrp2rcd13ifvqc9g","pricing_plan_id":"free"},{"bike_id":"234dbe3a-6a4d-4648-b398-5dd14c431801","system_id":"levelo_inurba_marseille","lat":43.305714,"lon":5.365633,"is_reserved":false,"is_disabled":false,"rental_uris":{"android":"levelo://app?vid=234dbe3a-6a4d-4648-b398-5dd14c431801","ios":"levelo://app?vid=234dbe3a-6a4d-4648-b398-5dd14c431801"},"vehicle_type_id":"4","last_reported":1706893614,"current_range_meters":800,"station_id":"ce4bgs12rcd13ifvqcag","pricing_plan_id":"free"},{"bike_id":"3c2146cf-b030-43f0-8d13-310d6f210e11","system_id":"levelo_inurba_marseille","lat":43.305714,"lon":5.365633,"is_reserved":false,"is_disabled":false,"rental_uris":{"android":"levelo://app?vid=3c2146cf-b030-43f0-8d13-310d6f210e11","ios":"levelo://app?vid=3c2146cf-b030-43f0-8d13-310d6f210e11"},"vehicle_type_id":"4","last_reported":1706893614,"current_range_meters":0,"station_id":"ce4bgs12rcd13ifvqcag","pricing_plan_id":"free"},{"bike_id":"39c3d2b2-4c2c-4f8a-a3d7-9cffbd068e93","system_id":"levelo_inurba_marseille","lat":43.305714,"lon":5.365633,"is_reserved":false,"is_disabled":false,"rental_uris":{"android":"levelo://app?vid=39c3d2b2-4c2c-4f8a-a3d7-9cffbd068e93","ios":"levelo://app?vid=39c3d2b2-4c2c-4f8a-a3d7-9cffbd068e93"},"vehicle_type_id":"4","last_reported":1706893614,"current_range_meters":0,"station_id":"ce4bgs12rcd13ifvqcag","pricing_plan_id":"free"},{"bike_id":"3d428506-c95f-41f8-987f-c58ab53874b5","system_id":"levelo_inurba_marseille","lat":43.305987,"lon":5.37227,"is_reserved":false,"is_disabled":false,"rental_uris":{"android":"levelo://app?vid=3d428506-c95f-41f8-987f-c58ab53874b5","ios":"levelo://app?vid=3d428506-c95f-41f8-987f-c58ab53874b5"},"vehicle_type_id":"4","last_reported":1706893614,"current_range_meters":3200,"station_id":"","pricing_plan_id":"free"},{"bike_id":"0cdb4716-ce8a-4ad7-ab04-b7408b5c3f43","system_id":"levelo_inurba_marseille","lat":43.305989,"lon":5.37225,"is_reserved":false,"is_disabled":false,"rental_uris":{"android":"levelo://app?vid=0cdb4716-ce8a-4ad7-ab04-b7408b5c3f43","ios":"levelo://app?vid=0cdb4716-ce8a-4ad7-ab04-b7408b5c3f43"},"vehicle_type_id":"4","last_reported":1706893614,"current_range_meters":30800,"station_id":"ce4bgqh2rcd13ifvqc4g","pricing_plan_id":"free"},{"bike_id":"c8a23292-7574-4195-bd50-f65f59d66a53","system_id":"levelo_inurba_marseille","lat":43.31108,"lon":5.37766,"is_reserved":false,"is_disabled":false,"rental_uris":{"android":"levelo://app?vid=c8a23292-7574-4195-bd50-f65f59d66a53","ios":"levelo://app?vid=c8a23292-7574-4195-bd50-f65f59d66a53"},"vehicle_type_id":"4","last_reported":1706893614,"current_range_meters":0,"station_id":"ce4bgt92rcd13ifvqcg0","pricing_plan_id":"free"},{"bike_id":"f53e3e3b-a4a7-471b-9c72-696219205a57","system_id":"levelo_inurba_marseille","lat":43.311131,"lon":5.377651,"is_reserved":false,"is_disabled":false,"rental_uris":{"android":"levelo://app?vid=f53e3e3b-a4a7-471b-9c72-696219205a57","ios":"levelo://app?vid=f53e3e3b-a4a7-471b-9c72-696219205a57"},"vehicle_type_id":"4","last_reported":1706893614,"current_range_meters":26800,"station_id":"ce4bgt92rcd13ifvqcg0","pricing_plan_id":"free"},{"bike_id":"7619253a-8e05-459c-8770-596c9599a3c7","system_id":"levelo_inurba_marseille","lat":43.311131,"lon":5.377651,"is_reserved":false,"is_disabled":false,"rental_uris":{"android":"levelo://app?vid=7619253a-8e05-459c-8770-596c9599a3c7","ios":"levelo://app?vid=7619253a-8e05-459c-8770-596c9599a3c7"},"vehicle_type_id":"4","last_reported":1706893614,"current_range_meters":12800,"station_id":"ce4bgt92rcd13ifvqcg0","pricing_plan_id":"free"},{"bike_id":"27139c55-c30e-41b3-8bdc-7c6e1c4393c2","system_id":"levelo_inurba_marseille","lat":43.307945,"lon":5.376487,"is_reserved":false,"is_disabled":false,"rental_uris":{"android":"levelo://app?vid=27139c55-c30e-41b3-8bdc-7c6e1c4393c2","ios":"levelo://app?vid=27139c55-c30e-41b3-8bdc-7c6e1c4393c2"},"vehicle_type_id":"4","last_reported":1706893614,"current_range_meters":3600,"station_id":"ce4bgv92rcd13ifvqcq0","pricing_plan_id":"free"},{"bike_id":"4515dff0-f7a8-4c4a-a0cf-f3f6b12cb0a6","system_id":"levelo_inurba_marseille","lat":43.307945,"lon":5.376487,"is_reserved":false,"is_disabled":false,"rental_uris":{"android":"levelo://app?vid=4515dff0-f7a8-4c4a-a0cf-f3f6b12cb0a6","ios":"levelo://app?vid=4515dff0-f7a8-4c4a-a0cf-f3f6b12cb0a6"},"vehicle_type_id":"4","last_reported":1706893614,"current_range_meters":18800,"station_id":"ce4bgv92rcd13ifvqcq0","pricing_plan_id":"free"},{"bike_id":"dba8a457-b91c-4757-8021-ae2e7939072d","system_id":"levelo_inurba_marseille","lat":43.30785,"lon":5.37655,"is_reserved":false,"is_disabled":false,"rental_uris":{"android":"levelo://app?vid=dba8a457-b91c-4757-8021-ae2e7939072d","ios":"levelo://app?vid=dba8a457-b91c-4757-8021-ae2e7939072d"},"vehicle_type_id":"4","last_reported":1706893614,"current_range_meters":16400,"station_id":"ce4bgv92rcd13ifvqcq0","pricing_plan_id":"free"},{"bike_id":"7961702b-27a7-45e2-a645-7fcbd1b71e38","system_id":"levelo_inurba_marseille","lat":43.307945,"lon":5.376487,"is_reserved":false,"is_disabled":false,"rental_uris":{"android":"levelo://app?vid=7961702b-27a7-45e2-a645-7fcbd1b71e38","ios":"levelo://app?vid=7961702b-27a7-45e2-a645-7fcbd1b71e38"},"vehicle_type_id":"4","last_reported":1706893614,"current_range_meters":25600,"station_id":"ce4bgv92rcd13ifvqcq0","pricing_plan_id":"free"},{"bike_id":"63565569-7503-4d4b-8aac-bfc64cff8b2d","system_id":"levelo_inurba_marseille","lat":43.317075,"lon":5.377367,"is_reserved":false,"is_disabled":false,"rental_uris":{"android":"levelo://app?vid=63565569-7503-4d4b-8aac-bfc64cff8b2d","ios":"levelo://app?vid=63565569-7503-4d4b-8aac-bfc64cff8b2d"},"vehicle_type_id":"4","last_reported":1706893614,"current_range_meters":6800,"station_id":"ce4bgth2rcd13ifvqch0","pricing_plan_id":"free"},{"bike_id":"fecb14f6-59b5-4d52-99dd-80c6a67fedd3","system_id":"levelo_inurba_marseille","lat":43.31702,"lon":5.377504,"is_reserved":false,"is_disabled":false,"rental_uris":{"android":"levelo://app?vid=fecb14f6-59b5-4d52-99dd-80c6a67fedd3","ios":"levelo://app?vid=fecb14f6-59b5-4d52-99dd-80c6a67fedd3"},"vehicle_type_id":"4","last_reported":1706893614,"current_range_meters":19200,"station_id":"ce4bgth2rcd13ifvqch0","pricing_plan_id":"free"},{"bike_id":"2903f219-2a57-4958-bb20-79c422faf981","system_id":"levelo_inurba_marseille","lat":43.317075,"lon":5.377367,"is_reserved":false,"is_disabled":false,"rental_uris":{"android":"levelo://app?vid=2903f219-2a57-4958-bb20-79c422faf981","ios":"levelo://app?vid=2903f219-2a57-4958-bb20-79c422faf981"},"vehicle_type_id":"4","last_reported":1706893614,"current_range_meters":26800,"station_id":"ce4bgth2rcd13ifvqch0","pricing_plan_id":"free"},{"bike_id":"a94bde46-42ed-49d8-bf89-8de1b2b7f499","system_id":"levelo_inurba_marseille","lat":43.317075,"lon":5.377367,"is_reserved":false,"is_disabled":false,"rental_uris":{"android":"levelo://app?vid=a94bde46-42ed-49d8-bf89-8de1b2b7f499","ios":"levelo://app?vid=a94bde46-42ed-49d8-bf89-8de1b2b7f499"},"vehicle_type_id":"4","last_reported":1706893614,"current_range_meters":0,"station_id":"ce4bgth2rcd13ifvqch0","pricing_plan_id":"free"},{"bike_id":"2ea63f5e-58d4-416f-ba11-3026c35fe126","system_id":"levelo_inurba_marseille","lat":43.31717,"lon":5.37755,"is_reserved":false,"is_disabled":false,"rental_uris":{"android":"levelo://app?vid=2ea63f5e-58d4-416f-ba11-3026c35fe126","ios":"levelo://app?vid=2ea63f5e-58d4-416f-ba11-3026c35fe126"},"vehicle_type_id":"4","last_reported":1706893614,"current_range_meters":0,"station_id":"ce4bgth2rcd13ifvqch0","pricing_plan_id":"free"},{"bike_id":"b7800239-c569-4209-8f40-7db8808302f5","system_id":"levelo_inurba_marseille","lat":43.303046,"lon":5.368981,"is_reserved":false,"is_disabled":false,"rental_uris":{"android":"levelo://app?vid=b7800239-c569-4209-8f40-7db8808302f5","ios":"levelo://app?vid=b7800239-c569-4209-8f40-7db8808302f5"},"vehicle_type_id":"4","last_reported":1706893614,"current_range_meters":16000,"station_id":"ce4bgqh2rcd13ifvqc5g","pricing_plan_id":"free"},{"bike_id":"f75dbc65-8be7-4beb-b765-f66a9efa8ae9","system_id":"levelo_inurba_marseille","lat":43.303046,"lon":5.368981,"is_reserved":false,"is_disabled":false,"rental_uris":{"android":"levelo://app?vid=f75dbc65-8be7-4beb-b765-f66a9efa8ae9","ios":"levelo://app?vid=f75dbc65-8be7-4beb-b765-f66a9efa8ae9"},"vehicle_type_id":"4","last_reported":1706893614,"current_range_meters":22400,"station_id":"ce4bgqh2rcd13ifvqc5g","pricing_plan_id":"free"},{"bike_id":"60e96b21-41a6-4898-9d67-132db9ee8b0c","system_id":"levelo_inurba_marseille","lat":43.303046,"lon":5.368981,"is_reserved":false,"is_disabled":false,"rental_uris":{"android":"levelo://app?vid=60e96b21-41a6-4898-9d67-132db9ee8b0c","ios":"levelo://app?vid=60e96b21-41a6-4898-9d67-132db9ee8b0c"},"vehicle_type_id":"4","last_reported":1706893614,"current_range_meters":22000,"station_id":"ce4bgqh2rcd13ifvqc5g","pricing_plan_id":"free"},{"bike_id":"11c65d0e-c552-4956-b0e1-c25d7e2de4c3","system_id":"levelo_inurba_marseille","lat":43.301828,"lon":5.366172,"is_reserved":false,"is_disabled":false,"rental_uris":{"android":"levelo://app?vid=11c65d0e-c552-4956-b0e1-c25d7e2de4c3","ios":"levelo://app?vid=11c65d0e-c552-4956-b0e1-c25d7e2de4c3"},"vehicle_type_id":"4","last_reported":1706893614,"current_range_meters":6400,"station_id":"ce4bgrh2rcd13ifvqc8g","pricing_plan_id":"free"},{"bike_id":"1c71e19e-e319-4f19-ba3f-fded54a8ec84","system_id":"levelo_inurba_marseille","lat":43.308012,"lon":5.381511,"is_reserved":false,"is_disabled":false,"rental_uris":{"android":"levelo://app?vid=1c71e19e-e319-4f19-ba3f-fded54a8ec84","ios":"levelo://app?vid=1c71e19e-e319-4f19-ba3f-fded54a8ec84"},"vehicle_type_id":"4","last_reported":1706893614,"current_range_meters":22800,"station_id":"ce4bgt12rcd13ifvqce0","pricing_plan_id":"free"},{"bike_id":"edbc1139-3699-461b-865e-e60e6b9b1bd3","system_id":"levelo_inurba_marseille","lat":43.308012,"lon":5.381511,"is_reserved":false,"is_disabled":false,"rental_uris":{"android":"levelo://app?vid=edbc1139-3699-461b-865e-e60e6b9b1bd3","ios":"levelo://app?vid=edbc1139-3699-461b-865e-e60e6b9b1bd3"},"vehicle_type_id":"4","last_reported":1706893614,"current_range_meters":17600,"station_id":"ce4bgt12rcd13ifvqce0","pricing_plan_id":"free"},{"bike_id":"03a75f4a-c96e-42ee-a38b-493230eb8ae3","system_id":"levelo_inurba_marseille","lat":43.308012,"lon":5.381511,"is_reserved":false,"is_disabled":false,"rental_uris":{"android":"levelo://app?vid=03a75f4a-c96e-42ee-a38b-493230eb8ae3","ios":"levelo://app?vid=03a75f4a-c96e-42ee-a38b-493230eb8ae3"},"vehicle_type_id":"4","last_reported":1706893614,"current_range_meters":0,"station_id":"ce4bgt12rcd13ifvqce0","pricing_plan_id":"free"},{"bike_id":"3a919b84-b3a4-4e93-b7a1-175aca3d8684","system_id":"levelo_inurba_marseille","lat":43.304606,"lon":5.379026,"is_reserved":false,"is_disabled":false,"rental_uris":{"android":"levelo://app?vid=3a919b84-b3a4-4e93-b7a1-175aca3d8684","ios":"levelo://app?vid=3a919b84-b3a4-4e93-b7a1-175aca3d8684"},"vehicle_type_id":"4","last_reported":1706893614,"current_range_meters":6800,"station_id":"ce4bgup2rcd13ifvqcn0","pricing_plan_id":"free"},{"bike_id":"cbda4845-c84b-4f1d-a103-73e6257fa989","system_id":"levelo_inurba_marseille","lat":43.3046,"lon":5.37898,"is_reserved":false,"is_disabled":false,"rental_uris":{"android":"levelo://app?vid=cbda4845-c84b-4f1d-a103-73e6257fa989","ios":"levelo://app?vid=cbda4845-c84b-4f1d-a103-73e6257fa989"},"vehicle_type_id":"4","last_reported":1706893614,"current_range_meters":0,"station_id":"ce4bgup2rcd13ifvqcn0","pricing_plan_id":"free"},{"bike_id":"db8229a4-3ee7-4541-a0d7-877758f1746c","system_id":"levelo_inurba_marseille","lat":43.304606,"lon":5.379026,"is_reserved":false,"is_disabled":false,"rental_uris":{"android":"levelo://app?vid=db8229a4-3ee7-4541-a0d7-877758f1746c","ios":"levelo://app?vid=db8229a4-3ee7-4541-a0d7-877758f1746c"},"vehicle_type_id":"4","last_reported":1706893614,"current_range_meters":20800,"station_id":"ce4bgup2rcd13ifvqcn0","pricing_plan_id":"free"},{"bike_id":"e6aada45-c572-4abc-bcba-001f14e31ce6","system_id":"levelo_inurba_marseille","lat":43.302784,"lon":5.377158,"is_reserved":false,"is_disabled":false,"rental_uris":{"android":"levelo://app?vid=e6aada45-c572-4abc-bcba-001f14e31ce6","ios":"levelo://app?vid=e6aada45-c572-4abc-bcba-001f14e31ce6"},"vehicle_type_id":"4","last_reported":1706893614,"current_range_meters":5200,"station_id":"ce4bguh2rcd13ifvqcj0","pricing_plan_id":"free"},{"bike_id":"caf6234c-5dd0-45dd-8d0f-ab10af976892","system_id":"levelo_inurba_marseille","lat":43.301429,"lon":5.37413,"is_reserved":false,"is_disabled":false,"rental_uris":{"android":"levelo://app?vid=caf6234c-5dd0-45dd-8d0f-ab10af976892","ios":"levelo://app?vid=caf6234c-5dd0-45dd-8d0f-ab10af976892"},"vehicle_type_id":"4","last_reported":1706893614,"current_range_meters":18800,"station_id":"ce4bgs92rcd13ifvqcc0","pricing_plan_id":"free"},{"bike_id":"943b2e18-3608-4a08-8657-dfbb4585ba93","system_id":"levelo_inurba_marseille","lat":43.310804,"lon":5.38359,"is_reserved":false,"is_disabled":false,"rental_uris":{"android":"levelo://app?vid=943b2e18-3608-4a08-8657-dfbb4585ba93","ios":"levelo://app?vid=943b2e18-3608-4a08-8657-dfbb4585ba93"},"vehicle_type_id":"4","last_reported":1706893614,"current_range_meters":14800,"station_id":"ce4bgv92rcd13ifvqcr0","pricing_plan_id":"free"},{"bike_id":"646a35da-1ad0-499c-b549-f98a13286d55","system_id":"levelo_inurba_marseille","lat":43.302784,"lon":5.377158,"is_reserved":false,"is_disabled":false,"rental_uris":{"android":"levelo://app?vid=646a35da-1ad0-499c-b549-f98a13286d55","ios":"levelo://app?vid=646a35da-1ad0-499c-b549-f98a13286d55"},"vehicle_type_id":"4","last_reported":1706893614,"current_range_meters":12400,"station_id":"ce4bguh2rcd13ifvqcj0","pricing_plan_id":"free"},{"bike_id":"3aa87368-d152-4b3f-96e0-8bbb574d9a10","system_id":"levelo_inurba_marseille","lat":43.31983,"lon":5.38143,"is_reserved":false,"is_disabled":false,"rental_uris":{"android":"levelo://app?vid=3aa87368-d152-4b3f-96e0-8bbb574d9a10","ios":"levelo://app?vid=3aa87368-d152-4b3f-96e0-8bbb574d9a10"},"vehicle_type_id":"4","last_reported":1706893614,"current_range_meters":22000,"station_id":"ce4bhr12rcd13ifvqhpg","pricing_plan_id":"free"},{"bike_id":"d6c6117f-570d-4943-9f4e-85244eb92b89","system_id":"levelo_inurba_marseille","lat":43.31987,"lon":5.3815,"is_reserved":false,"is_disabled":false,"rental_uris":{"android":"levelo://app?vid=d6c6117f-570d-4943-9f4e-85244eb92b89","ios":"levelo://app?vid=d6c6117f-570d-4943-9f4e-85244eb92b89"},"vehicle_type_id":"4","last_reported":1706893614,"current_range_meters":12800,"station_id":"ce4bhr12rcd13ifvqhpg","pricing_plan_id":"free"},{"bike_id":"c9d20637-007d-4ae7-a1c0-955cbae62dde","system_id":"levelo_inurba_marseille","lat":43.313571,"lon":5.384829,"is_reserved":false,"is_disabled":false,"rental_uris":{"android":"levelo://app?vid=c9d20637-007d-4ae7-a1c0-955cbae62dde","ios":"levelo://app?vid=c9d20637-007d-4ae7-a1c0-955cbae62dde"},"vehicle_type_id":"4","last_reported":1706893614,"current_range_meters":28000,"station_id":"ce4bgt92rcd13ifvqcf0","pricing_plan_id":"free"},{"bike_id":"e6b97678-ff4b-4939-b378-896bb5fe55dd","system_id":"levelo_inurba_marseille","lat":43.313571,"lon":5.384829,"is_reserved":false,"is_disabled":false,"rental_uris":{"android":"levelo://app?vid=e6b97678-ff4b-4939-b378-896bb5fe55dd","ios":"levelo://app?vid=e6b97678-ff4b-4939-b378-896bb5fe55dd"},"vehicle_type_id":"4","last_reported":1706893614,"current_range_meters":2400,"station_id":"ce4bgt92rcd13ifvqcf0","pricing_plan_id":"free"},{"bike_id":"d124bdcc-0d92-451a-ba48-5b957de8f7f8","system_id":"levelo_inurba_marseille","lat":43.2994,"lon":5.36552,"is_reserved":false,"is_disabled":false,"rental_uris":{"android":"levelo://app?vid=d124bdcc-0d92-451a-ba48-5b957de8f7f8","ios":"levelo://app?vid=d124bdcc-0d92-451a-ba48-5b957de8f7f8"},"vehicle_type_id":"4","last_reported":1706893614,"current_range_meters":1600,"station_id":"","pricing_plan_id":"free"},{"bike_id":"9a7f3c41-7287-4dd7-8a3e-a109bbdf504c","system_id":"levelo_inurba_marseille","lat":43.299209,"lon":5.365547,"is_reserved":false,"is_disabled":false,"rental_uris":{"android":"levelo://app?vid=9a7f3c41-7287-4dd7-8a3e-a109bbdf504c","ios":"levelo://app?vid=9a7f3c41-7287-4dd7-8a3e-a109bbdf504c"},"vehicle_type_id":"4","last_reported":1706893614,"current_range_meters":24400,"station_id":"ce4bgm92rcd13ifvqbr0","pricing_plan_id":"free"},{"bike_id":"28da2e73-7cb2-49fa-abc1-e77eaaa6668d","system_id":"levelo_inurba_marseille","lat":43.299209,"lon":5.365547,"is_reserved":false,"is_disabled":false,"rental_uris":{"android":"levelo://app?vid=28da2e73-7cb2-49fa-abc1-e77eaaa6668d","ios":"levelo://app?vid=28da2e73-7cb2-49fa-abc1-e77eaaa6668d"},"vehicle_type_id":"4","last_reported":1706893614,"current_range_meters":25200,"station_id":"ce4bgm92rcd13ifvqbr0","pricing_plan_id":"free"},{"bike_id":"4a18a1bd-06cb-4267-bf68-9fac96294276","system_id":"levelo_inurba_marseille","lat":43.27618,"lon":5.361009,"is_reserved":false,"is_disabled":false,"rental_uris":{"android":"levelo://app?vid=4a18a1bd-06cb-4267-bf68-9fac96294276","ios":"levelo://app?vid=4a18a1bd-06cb-4267-bf68-9fac96294276"},"vehicle_type_id":"4","last_reported":1706893614,"current_range_meters":10000,"station_id":"ce4bgj92rcd13ifvqbe0","pricing_plan_id":"free"},{"bike_id":"75f5c59c-ead8-49dc-8a41-b2612dde6052","system_id":"levelo_inurba_marseille","lat":43.304278,"lon":5.388868,"is_reserved":false,"is_disabled":false,"rental_uris":{"android":"levelo://app?vid=75f5c59c-ead8-49dc-8a41-b2612dde6052","ios":"levelo://app?vid=75f5c59c-ead8-49dc-8a41-b2612dde6052"},"vehicle_type_id":"4","last_reported":1706893614,"current_range_meters":14000,"station_id":"ce4bgk12rcd13ifvqbi0","pricing_plan_id":"free"},{"bike_id":"9f96fcd5-11b3-4ee8-98e5-9c1dde74c8d0","system_id":"levelo_inurba_marseille","lat":43.298433,"lon":5.362774,"is_reserved":false,"is_disabled":false,"rental_uris":{"android":"levelo://app?vid=9f96fcd5-11b3-4ee8-98e5-9c1dde74c8d0","ios":"levelo://app?vid=9f96fcd5-11b3-4ee8-98e5-9c1dde74c8d0"},"vehicle_type_id":"4","last_reported":1706893614,"current_range_meters":23200,"station_id":"ce4bgpp2rcd13ifvqc3g","pricing_plan_id":"free"},{"bike_id":"f18b70b4-e1bc-4420-9ab4-485eb2108dab","system_id":"levelo_inurba_marseille","lat":43.298433,"lon":5.362774,"is_reserved":false,"is_disabled":false,"rental_uris":{"android":"levelo://app?vid=f18b70b4-e1bc-4420-9ab4-485eb2108dab","ios":"levelo://app?vid=f18b70b4-e1bc-4420-9ab4-485eb2108dab"},"vehicle_type_id":"4","last_reported":1706893614,"current_range_meters":10000,"station_id":"ce4bgpp2rcd13ifvqc3g","pricing_plan_id":"free"},{"bike_id":"29a5aa2b-c564-4fad-b84d-6016ebda38cc","system_id":"levelo_inurba_marseille","lat":43.298433,"lon":5.362774,"is_reserved":false,"is_disabled":false,"rental_uris":{"android":"levelo://app?vid=29a5aa2b-c564-4fad-b84d-6016ebda38cc","ios":"levelo://app?vid=29a5aa2b-c564-4fad-b84d-6016ebda38cc"},"vehicle_type_id":"4","last_reported":1706893614,"current_range_meters":2000,"station_id":"ce4bgpp2rcd13ifvqc3g","pricing_plan_id":"free"},{"bike_id":"fa932f8f-fcac-420c-8595-9eaed6f9528b","system_id":"levelo_inurba_marseille","lat":43.311722,"lon":5.387247,"is_reserved":false,"is_disabled":false,"rental_uris":{"android":"levelo://app?vid=fa932f8f-fcac-420c-8595-9eaed6f9528b","ios":"levelo://app?vid=fa932f8f-fcac-420c-8595-9eaed6f9528b"},"vehicle_type_id":"4","last_reported":1706893614,"current_range_meters":4400,"station_id":"ce4bgv12rcd13ifvqcp0","pricing_plan_id":"free"},{"bike_id":"65cdfc14-d57a-452e-8dc5-c02b0bdb56dd","system_id":"levelo_inurba_marseille","lat":43.322872,"lon":5.382756,"is_reserved":false,"is_disabled":false,"rental_uris":{"android":"levelo://app?vid=65cdfc14-d57a-452e-8dc5-c02b0bdb56dd","ios":"levelo://app?vid=65cdfc14-d57a-452e-8dc5-c02b0bdb56dd"},"vehicle_type_id":"4","last_reported":1706893614,"current_range_meters":30400,"station_id":"ce4bhr12rcd13ifvqhqg","pricing_plan_id":"free"},{"bike_id":"bde7abc7-a189-40fe-8be3-229230a2a20f","system_id":"levelo_inurba_marseille","lat":43.322872,"lon":5.382756,"is_reserved":false,"is_disabled":false,"rental_uris":{"android":"levelo://app?vid=bde7abc7-a189-40fe-8be3-229230a2a20f","ios":"levelo://app?vid=bde7abc7-a189-40fe-8be3-229230a2a20f"},"vehicle_type_id":"4","last_reported":1706893614,"current_range_meters":31600,"station_id":"ce4bhr12rcd13ifvqhqg","pricing_plan_id":"free"},{"bike_id":"b5d7b2cb-266e-4133-b32f-f491e5a88e3f","system_id":"levelo_inurba_marseille","lat":43.322872,"lon":5.382756,"is_reserved":false,"is_disabled":false,"rental_uris":{"android":"levelo://app?vid=b5d7b2cb-266e-4133-b32f-f491e5a88e3f","ios":"levelo://app?vid=b5d7b2cb-266e-4133-b32f-f491e5a88e3f"},"vehicle_type_id":"4","last_reported":1706893614,"current_range_meters":15600,"station_id":"ce4bhr12rcd13ifvqhqg","pricing_plan_id":"free"},{"bike_id":"1900e2ea-9239-49b1-933e-57903fa99707","system_id":"levelo_inurba_marseille","lat":43.32826,"lon":5.36695,"is_reserved":false,"is_disabled":false,"rental_uris":{"android":"levelo://app?vid=1900e2ea-9239-49b1-933e-57903fa99707","ios":"levelo://app?vid=1900e2ea-9239-49b1-933e-57903fa99707"},"vehicle_type_id":"4","last_reported":1706893614,"current_range_meters":18000,"station_id":"ce4bhs92rcd13ifvqi0g","pricing_plan_id":"free"},{"bike_id":"21a73062-e877-4bfd-b202-c9682ff6cca2","system_id":"levelo_inurba_marseille","lat":43.29622,"lon":5.37153,"is_reserved":false,"is_disabled":false,"rental_uris":{"android":"levelo://app?vid=21a73062-e877-4bfd-b202-c9682ff6cca2","ios":"levelo://app?vid=21a73062-e877-4bfd-b202-c9682ff6cca2"},"vehicle_type_id":"4","last_reported":1706893614,"current_range_meters":17600,"station_id":"ce4bgk12rcd13ifvqbj0","pricing_plan_id":"free"},{"bike_id":"514d1849-fca8-4b1f-92ea-5e789cde4603","system_id":"levelo_inurba_marseille","lat":43.299028,"lon":5.381509,"is_reserved":false,"is_disabled":false,"rental_uris":{"android":"levelo://app?vid=514d1849-fca8-4b1f-92ea-5e789cde4603","ios":"levelo://app?vid=514d1849-fca8-4b1f-92ea-5e789cde4603"},"vehicle_type_id":"4","last_reported":1706893614,"current_range_meters":17600,"station_id":"ce4bgj12rcd13ifvqbc0","pricing_plan_id":"free"},{"bike_id":"dd6ea4d7-573e-4f64-aaa5-7dcc462832bc","system_id":"levelo_inurba_marseille","lat":43.309589,"lon":5.390258,"is_reserved":false,"is_disabled":false,"rental_uris":{"android":"levelo://app?vid=dd6ea4d7-573e-4f64-aaa5-7dcc462832bc","ios":"levelo://app?vid=dd6ea4d7-573e-4f64-aaa5-7dcc462832bc"},"vehicle_type_id":"4","last_reported":1706893614,"current_range_meters":5200,"station_id":"ce4bgup2rcd13ifvqco0","pricing_plan_id":"free"},{"bike_id":"0fa630cc-fe16-4d7b-8d96-612ecd0da548","system_id":"levelo_inurba_marseille","lat":43.299028,"lon":5.381509,"is_reserved":false,"is_disabled":false,"rental_uris":{"android":"levelo://app?vid=0fa630cc-fe16-4d7b-8d96-612ecd0da548","ios":"levelo://app?vid=0fa630cc-fe16-4d7b-8d96-612ecd0da548"},"vehicle_type_id":"4","last_reported":1706893614,"current_range_meters":24800,"station_id":"ce4bgj12rcd13ifvqbc0","pricing_plan_id":"free"},{"bike_id":"47057c78-3ac1-411f-8e84-96dabe2902a0","system_id":"levelo_inurba_marseille","lat":43.30957,"lon":5.3903,"is_reserved":false,"is_disabled":false,"rental_uris":{"android":"levelo://app?vid=47057c78-3ac1-411f-8e84-96dabe2902a0","ios":"levelo://app?vid=47057c78-3ac1-411f-8e84-96dabe2902a0"},"vehicle_type_id":"4","last_reported":1706893614,"current_range_meters":1600,"station_id":"ce4bgup2rcd13ifvqco0","pricing_plan_id":"free"},{"bike_id":"6bd28e52-985f-4426-b7a5-dd3644503d35","system_id":"levelo_inurba_marseille","lat":43.309513,"lon":5.390289,"is_reserved":false,"is_disabled":false,"rental_uris":{"android":"levelo://app?vid=6bd28e52-985f-4426-b7a5-dd3644503d35","ios":"levelo://app?vid=6bd28e52-985f-4426-b7a5-dd3644503d35"},"vehicle_type_id":"4","last_reported":1706893614,"current_range_meters":15200,"station_id":"ce4bgup2rcd13ifvqco0","pricing_plan_id":"free"},{"bike_id":"91a1332d-274f-4f7e-a39c-f2dc5680778f","system_id":"levelo_inurba_marseille","lat":43.30947,"lon":5.39028,"is_reserved":false,"is_disabled":false,"rental_uris":{"android":"levelo://app?vid=91a1332d-274f-4f7e-a39c-f2dc5680778f","ios":"levelo://app?vid=91a1332d-274f-4f7e-a39c-f2dc5680778f"},"vehicle_type_id":"4","last_reported":1706893614,"current_range_meters":6400,"station_id":"ce4bgup2rcd13ifvqco0","pricing_plan_id":"free"},{"bike_id":"8bd3cdca-fdc0-4dc5-8a3f-cb438be6a3e8","system_id":"levelo_inurba_marseille","lat":43.309589,"lon":5.390258,"is_reserved":false,"is_disabled":false,"rental_uris":{"android":"levelo://app?vid=8bd3cdca-fdc0-4dc5-8a3f-cb438be6a3e8","ios":"levelo://app?vid=8bd3cdca-fdc0-4dc5-8a3f-cb438be6a3e8"},"vehicle_type_id":"4","last_reported":1706893614,"current_range_meters":26800,"station_id":"ce4bgup2rcd13ifvqco0","pricing_plan_id":"free"},{"bike_id":"f0a2fd89-8fa4-4a8a-a839-11b55c24f211","system_id":"levelo_inurba_marseille","lat":43.30954,"lon":5.39038,"is_reserved":false,"is_disabled":false,"rental_uris":{"android":"levelo://app?vid=f0a2fd89-8fa4-4a8a-a839-11b55c24f211","ios":"levelo://app?vid=f0a2fd89-8fa4-4a8a-a839-11b55c24f211"},"vehicle_type_id":"4","last_reported":1706893614,"current_range_meters":25200,"station_id":"ce4bgup2rcd13ifvqco0","pricing_plan_id":"free"},{"bike_id":"7a32d36a-fd31-4867-ab05-dd00664e50af","system_id":"levelo_inurba_marseille","lat":43.309428,"lon":5.390374,"is_reserved":false,"is_disabled":false,"rental_uris":{"android":"levelo://app?vid=7a32d36a-fd31-4867-ab05-dd00664e50af","ios":"levelo://app?vid=7a32d36a-fd31-4867-ab05-dd00664e50af"},"vehicle_type_id":"4","last_reported":1706893614,"current_range_meters":4000,"station_id":"ce4bgup2rcd13ifvqco0","pricing_plan_id":"free"},{"bike_id":"b38b78ab-9fac-4f6a-b646-66f24b30ad13","system_id":"levelo_inurba_marseille","lat":43.30949,"lon":5.39053,"is_reserved":false,"is_disabled":false,"rental_uris":{"android":"levelo://app?vid=b38b78ab-9fac-4f6a-b646-66f24b30ad13","ios":"levelo://app?vid=b38b78ab-9fac-4f6a-b646-66f24b30ad13"},"vehicle_type_id":"4","last_reported":1706893614,"current_range_meters":27600,"station_id":"ce4bgup2rcd13ifvqco0","pricing_plan_id":"free"},{"bike_id":"6a7c553e-ebd1-4bc3-8a2a-4b3a3268d060","system_id":"levelo_inurba_marseille","lat":43.317557,"lon":5.390173,"is_reserved":false,"is_disabled":false,"rental_uris":{"android":"levelo://app?vid=6a7c553e-ebd1-4bc3-8a2a-4b3a3268d060","ios":"levelo://app?vid=6a7c553e-ebd1-4bc3-8a2a-4b3a3268d060"},"vehicle_type_id":"4","last_reported":1706893614,"current_range_meters":20000,"station_id":"ce4bhqp2rcd13ifvqhng","pricing_plan_id":"free"},{"bike_id":"41aded28-ba1a-4cb9-96c4-2ad89dc2879a","system_id":"levelo_inurba_marseille","lat":43.317557,"lon":5.390173,"is_reserved":false,"is_disabled":false,"rental_uris":{"android":"levelo://app?vid=41aded28-ba1a-4cb9-96c4-2ad89dc2879a","ios":"levelo://app?vid=41aded28-ba1a-4cb9-96c4-2ad89dc2879a"},"vehicle_type_id":"4","last_reported":1706893614,"current_range_meters":1600,"station_id":"ce4bhqp2rcd13ifvqhng","pricing_plan_id":"free"},{"bike_id":"6717cb07-a2bf-46d1-ba83-09e9386dc5e6","system_id":"levelo_inurba_marseille","lat":43.317557,"lon":5.390173,"is_reserved":false,"is_disabled":false,"rental_uris":{"android":"levelo://app?vid=6717cb07-a2bf-46d1-ba83-09e9386dc5e6","ios":"levelo://app?vid=6717cb07-a2bf-46d1-ba83-09e9386dc5e6"},"vehicle_type_id":"4","last_reported":1706893614,"current_range_meters":24000,"station_id":"ce4bhqp2rcd13ifvqhng","pricing_plan_id":"free"},{"bike_id":"aaee9df6-2bd3-419f-9a0a-fb04ee96325a","system_id":"levelo_inurba_marseille","lat":43.317557,"lon":5.390173,"is_reserved":false,"is_disabled":false,"rental_uris":{"android":"levelo://app?vid=aaee9df6-2bd3-419f-9a0a-fb04ee96325a","ios":"levelo://app?vid=aaee9df6-2bd3-419f-9a0a-fb04ee96325a"},"vehicle_type_id":"4","last_reported":1706893614,"current_range_meters":31600,"station_id":"ce4bhqp2rcd13ifvqhng","pricing_plan_id":"free"},{"bike_id":"a58d93ca-bdc9-4969-ad76-287ea92adedb","system_id":"levelo_inurba_marseille","lat":43.317557,"lon":5.390173,"is_reserved":false,"is_disabled":false,"rental_uris":{"android":"levelo://app?vid=a58d93ca-bdc9-4969-ad76-287ea92adedb","ios":"levelo://app?vid=a58d93ca-bdc9-4969-ad76-287ea92adedb"},"vehicle_type_id":"4","last_reported":1706893614,"current_range_meters":23600,"station_id":"ce4bhqp2rcd13ifvqhng","pricing_plan_id":"free"},{"bike_id":"106fe314-0813-4817-8722-724f217949ab","system_id":"levelo_inurba_marseille","lat":43.317557,"lon":5.390173,"is_reserved":false,"is_disabled":false,"rental_uris":{"android":"levelo://app?vid=106fe314-0813-4817-8722-724f217949ab","ios":"levelo://app?vid=106fe314-0813-4817-8722-724f217949ab"},"vehicle_type_id":"4","last_reported":1706893614,"current_range_meters":27600,"station_id":"ce4bhqp2rcd13ifvqhng","pricing_plan_id":"free"},{"bike_id":"86eba5ee-3f3e-465e-879d-a26eca611b6f","system_id":"levelo_inurba_marseille","lat":43.319007,"lon":5.38988,"is_reserved":false,"is_disabled":false,"rental_uris":{"android":"levelo://app?vid=86eba5ee-3f3e-465e-879d-a26eca611b6f","ios":"levelo://app?vid=86eba5ee-3f3e-465e-879d-a26eca611b6f"},"vehicle_type_id":"4","last_reported":1706893614,"current_range_meters":25200,"station_id":"","pricing_plan_id":"free"},{"bike_id":"7d41256b-b0c7-469d-b465-999746dc5f1a","system_id":"levelo_inurba_marseille","lat":43.308944,"lon":5.390903,"is_reserved":false,"is_disabled":false,"rental_uris":{"android":"levelo://app?vid=7d41256b-b0c7-469d-b465-999746dc5f1a","ios":"levelo://app?vid=7d41256b-b0c7-469d-b465-999746dc5f1a"},"vehicle_type_id":"4","last_reported":1706893614,"current_range_meters":6400,"station_id":"ce4bgup2rcd13ifvqco0","pricing_plan_id":"free"},{"bike_id":"d3ea0375-1b49-4b2d-a79b-4d27f33ba980","system_id":"levelo_inurba_marseille","lat":43.309589,"lon":5.390258,"is_reserved":false,"is_disabled":false,"rental_uris":{"android":"levelo://app?vid=d3ea0375-1b49-4b2d-a79b-4d27f33ba980","ios":"levelo://app?vid=d3ea0375-1b49-4b2d-a79b-4d27f33ba980"},"vehicle_type_id":"4","last_reported":1706893614,"current_range_meters":19600,"station_id":"ce4bgup2rcd13ifvqco0","pricing_plan_id":"free"},{"bike_id":"93f3b9d9-31a5-4925-b35a-75cfe517650b","system_id":"levelo_inurba_marseille","lat":43.298,"lon":5.38086,"is_reserved":false,"is_disabled":false,"rental_uris":{"android":"levelo://app?vid=93f3b9d9-31a5-4925-b35a-75cfe517650b","ios":"levelo://app?vid=93f3b9d9-31a5-4925-b35a-75cfe517650b"},"vehicle_type_id":"4","last_reported":1706893614,"current_range_meters":16400,"station_id":"ce4bgip2rcd13ifvqbb0","pricing_plan_id":"free"},{"bike_id":"2fd6dd5a-4bbb-49ea-b8cb-e4268eb29849","system_id":"levelo_inurba_marseille","lat":43.304278,"lon":5.388868,"is_reserved":false,"is_disabled":false,"rental_uris":{"android":"levelo://app?vid=2fd6dd5a-4bbb-49ea-b8cb-e4268eb29849","ios":"levelo://app?vid=2fd6dd5a-4bbb-49ea-b8cb-e4268eb29849"},"vehicle_type_id":"4","last_reported":1706893614,"current_range_meters":22000,"station_id":"ce4bgk12rcd13ifvqbi0","pricing_plan_id":"free"},{"bike_id":"587fd234-7b4e-4ef5-a9f3-21aedce97b64","system_id":"levelo_inurba_marseille","lat":43.295804,"lon":5.375424,"is_reserved":false,"is_disabled":false,"rental_uris":{"android":"levelo://app?vid=587fd234-7b4e-4ef5-a9f3-21aedce97b64","ios":"levelo://app?vid=587fd234-7b4e-4ef5-a9f3-21aedce97b64"},"vehicle_type_id":"4","last_reported":1706893614,"current_range_meters":0,"station_id":"ce4bgh92rcd13ifvqb50","pricing_plan_id":"free"},{"bike_id":"3c9a1119-e92e-4daf-958d-63f1f79c81da","system_id":"levelo_inurba_marseille","lat":43.304274,"lon":5.388873,"is_reserved":false,"is_disabled":false,"rental_uris":{"android":"levelo://app?vid=3c9a1119-e92e-4daf-958d-63f1f79c81da","ios":"levelo://app?vid=3c9a1119-e92e-4daf-958d-63f1f79c81da"},"vehicle_type_id":"4","last_reported":1706893614,"current_range_meters":21200,"station_id":"ce4bgk12rcd13ifvqbi0","pricing_plan_id":"free"},{"bike_id":"e483a932-dd1f-4d63-a82a-df95175feffb","system_id":"levelo_inurba_marseille","lat":43.296277,"lon":5.377108,"is_reserved":false,"is_disabled":false,"rental_uris":{"android":"levelo://app?vid=e483a932-dd1f-4d63-a82a-df95175feffb","ios":"levelo://app?vid=e483a932-dd1f-4d63-a82a-df95175feffb"},"vehicle_type_id":"4","last_reported":1706893614,"current_range_meters":23200,"station_id":"ce4bgi92rcd13ifvqb90","pricing_plan_id":"free"},{"bike_id":"b09949b4-99a7-4bc5-a764-4393abcf6df9","system_id":"levelo_inurba_marseille","lat":43.3044,"lon":5.38895,"is_reserved":false,"is_disabled":false,"rental_uris":{"android":"levelo://app?vid=b09949b4-99a7-4bc5-a764-4393abcf6df9","ios":"levelo://app?vid=b09949b4-99a7-4bc5-a764-4393abcf6df9"},"vehicle_type_id":"4","last_reported":1706893614,"current_range_meters":21200,"station_id":"ce4bgk12rcd13ifvqbi0","pricing_plan_id":"free"},{"bike_id":"f8920267-3750-4873-b439-8a2e07c2e03c","system_id":"levelo_inurba_marseille","lat":43.29547,"lon":5.37423,"is_reserved":false,"is_disabled":false,"rental_uris":{"android":"levelo://app?vid=f8920267-3750-4873-b439-8a2e07c2e03c","ios":"levelo://app?vid=f8920267-3750-4873-b439-8a2e07c2e03c"},"vehicle_type_id":"4","last_reported":1706893614,"current_range_meters":2400,"station_id":"","pricing_plan_id":"free"},{"bike_id":"6b7e5037-0b6a-4fbe-ae8b-ffd2a579a343","system_id":"levelo_inurba_marseille","lat":43.295748,"lon":5.37522,"is_reserved":false,"is_disabled":false,"rental_uris":{"android":"levelo://app?vid=6b7e5037-0b6a-4fbe-ae8b-ffd2a579a343","ios":"levelo://app?vid=6b7e5037-0b6a-4fbe-ae8b-ffd2a579a343"},"vehicle_type_id":"4","last_reported":1706893614,"current_range_meters":0,"station_id":"ce4bgh92rcd13ifvqb50","pricing_plan_id":"free"},{"bike_id":"b528c623-3452-4e75-b634-d8d73f880a88","system_id":"levelo_inurba_marseille","lat":43.304274,"lon":5.388873,"is_reserved":false,"is_disabled":false,"rental_uris":{"android":"levelo://app?vid=b528c623-3452-4e75-b634-d8d73f880a88","ios":"levelo://app?vid=b528c623-3452-4e75-b634-d8d73f880a88"},"vehicle_type_id":"4","last_reported":1706893614,"current_range_meters":8400,"station_id":"ce4bgk12rcd13ifvqbi0","pricing_plan_id":"free"},{"bike_id":"ba36f5a4-846c-4326-a8dc-4584a6c04778","system_id":"levelo_inurba_marseille","lat":43.304274,"lon":5.388873,"is_reserved":false,"is_disabled":false,"rental_uris":{"android":"levelo://app?vid=ba36f5a4-846c-4326-a8dc-4584a6c04778","ios":"levelo://app?vid=ba36f5a4-846c-4326-a8dc-4584a6c04778"},"vehicle_type_id":"4","last_reported":1706893614,"current_range_meters":31200,"station_id":"ce4bgk12rcd13ifvqbi0","pricing_plan_id":"free"},{"bike_id":"6c4e5992-ee55-42ff-832b-247ea40fa4ba","system_id":"levelo_inurba_marseille","lat":43.304274,"lon":5.388873,"is_reserved":false,"is_disabled":false,"rental_uris":{"android":"levelo://app?vid=6c4e5992-ee55-42ff-832b-247ea40fa4ba","ios":"levelo://app?vid=6c4e5992-ee55-42ff-832b-247ea40fa4ba"},"vehicle_type_id":"4","last_reported":1706893614,"current_range_meters":29600,"station_id":"ce4bgk12rcd13ifvqbi0","pricing_plan_id":"free"},{"bike_id":"2f639903-b097-46b0-8494-0017af56b0e6","system_id":"levelo_inurba_marseille","lat":43.32364,"lon":5.38874,"is_reserved":false,"is_disabled":false,"rental_uris":{"android":"levelo://app?vid=2f639903-b097-46b0-8494-0017af56b0e6","ios":"levelo://app?vid=2f639903-b097-46b0-8494-0017af56b0e6"},"vehicle_type_id":"4","last_reported":1706893614,"current_range_meters":21600,"station_id":"ce4bhqp2rcd13ifvqhog","pricing_plan_id":"free"},{"bike_id":"67d49ac5-1f02-4459-b787-ad82d964cdfa","system_id":"levelo_inurba_marseille","lat":43.32361,"lon":5.38877,"is_reserved":false,"is_disabled":false,"rental_uris":{"android":"levelo://app?vid=67d49ac5-1f02-4459-b787-ad82d964cdfa","ios":"levelo://app?vid=67d49ac5-1f02-4459-b787-ad82d964cdfa"},"vehicle_type_id":"4","last_reported":1706893614,"current_range_meters":0,"station_id":"ce4bhqp2rcd13ifvqhog","pricing_plan_id":"free"},{"bike_id":"f0c7a271-34e7-485e-b3da-5e19394fe417","system_id":"levelo_inurba_marseille","lat":43.32364,"lon":5.38876,"is_reserved":false,"is_disabled":false,"rental_uris":{"android":"levelo://app?vid=f0c7a271-34e7-485e-b3da-5e19394fe417","ios":"levelo://app?vid=f0c7a271-34e7-485e-b3da-5e19394fe417"},"vehicle_type_id":"4","last_reported":1706893614,"current_range_meters":5200,"station_id":"ce4bhqp2rcd13ifvqhog","pricing_plan_id":"free"},{"bike_id":"a763ba73-be1b-47fe-b1b9-a14bd81f3a01","system_id":"levelo_inurba_marseille","lat":43.32367,"lon":5.388836,"is_reserved":false,"is_disabled":false,"rental_uris":{"android":"levelo://app?vid=a763ba73-be1b-47fe-b1b9-a14bd81f3a01","ios":"levelo://app?vid=a763ba73-be1b-47fe-b1b9-a14bd81f3a01"},"vehicle_type_id":"4","last_reported":1706893614,"current_range_meters":23600,"station_id":"ce4bhqp2rcd13ifvqhog","pricing_plan_id":"free"},{"bike_id":"e3ee28ba-cab5-40e7-ba5c-728151521cef","system_id":"levelo_inurba_marseille","lat":43.32363,"lon":5.38879,"is_reserved":false,"is_disabled":false,"rental_uris":{"android":"levelo://app?vid=e3ee28ba-cab5-40e7-ba5c-728151521cef","ios":"levelo://app?vid=e3ee28ba-cab5-40e7-ba5c-728151521cef"},"vehicle_type_id":"4","last_reported":1706893614,"current_range_meters":11600,"station_id":"ce4bhqp2rcd13ifvqhog","pricing_plan_id":"free"},{"bike_id":"2867005b-b9b0-4312-8b91-edb88d7a8842","system_id":"levelo_inurba_marseille","lat":43.32367,"lon":5.38876,"is_reserved":false,"is_disabled":false,"rental_uris":{"android":"levelo://app?vid=2867005b-b9b0-4312-8b91-edb88d7a8842","ios":"levelo://app?vid=2867005b-b9b0-4312-8b91-edb88d7a8842"},"vehicle_type_id":"4","last_reported":1706893614,"current_range_meters":800,"station_id":"ce4bhqp2rcd13ifvqhog","pricing_plan_id":"free"},{"bike_id":"1aca591f-66c1-4cab-8b35-fdb227e8bbbc","system_id":"levelo_inurba_marseille","lat":43.32367,"lon":5.388836,"is_reserved":false,"is_disabled":false,"rental_uris":{"android":"levelo://app?vid=1aca591f-66c1-4cab-8b35-fdb227e8bbbc","ios":"levelo://app?vid=1aca591f-66c1-4cab-8b35-fdb227e8bbbc"},"vehicle_type_id":"4","last_reported":1706893614,"current_range_meters":2000,"station_id":"ce4bhqp2rcd13ifvqhog","pricing_plan_id":"free"},{"bike_id":"80aebc65-9276-4106-9147-2143e4c2833e","system_id":"levelo_inurba_marseille","lat":43.32367,"lon":5.38877,"is_reserved":false,"is_disabled":false,"rental_uris":{"android":"levelo://app?vid=80aebc65-9276-4106-9147-2143e4c2833e","ios":"levelo://app?vid=80aebc65-9276-4106-9147-2143e4c2833e"},"vehicle_type_id":"4","last_reported":1706893614,"current_range_meters":11200,"station_id":"ce4bhqp2rcd13ifvqhog","pricing_plan_id":"free"},{"bike_id":"e512050a-6529-4225-a927-b67d6c06029f","system_id":"levelo_inurba_marseille","lat":43.32372,"lon":5.38873,"is_reserved":false,"is_disabled":false,"rental_uris":{"android":"levelo://app?vid=e512050a-6529-4225-a927-b67d6c06029f","ios":"levelo://app?vid=e512050a-6529-4225-a927-b67d6c06029f"},"vehicle_type_id":"4","last_reported":1706893614,"current_range_meters":0,"station_id":"ce4bhqp2rcd13ifvqhog","pricing_plan_id":"free"},{"bike_id":"81b0db2a-d7d3-47f0-a95d-ba7da6ca0e0e","system_id":"levelo_inurba_marseille","lat":43.32367,"lon":5.388836,"is_reserved":false,"is_disabled":false,"rental_uris":{"android":"levelo://app?vid=81b0db2a-d7d3-47f0-a95d-ba7da6ca0e0e","ios":"levelo://app?vid=81b0db2a-d7d3-47f0-a95d-ba7da6ca0e0e"},"vehicle_type_id":"4","last_reported":1706893614,"current_range_meters":1200,"station_id":"ce4bhqp2rcd13ifvqhog","pricing_plan_id":"free"},{"bike_id":"56f3b6df-cede-44fd-a0c1-6ccbe3836656","system_id":"levelo_inurba_marseille","lat":43.32366,"lon":5.38883,"is_reserved":false,"is_disabled":false,"rental_uris":{"android":"levelo://app?vid=56f3b6df-cede-44fd-a0c1-6ccbe3836656","ios":"levelo://app?vid=56f3b6df-cede-44fd-a0c1-6ccbe3836656"},"vehicle_type_id":"4","last_reported":1706893614,"current_range_meters":5200,"station_id":"ce4bhqp2rcd13ifvqhog","pricing_plan_id":"free"},{"bike_id":"cabe25cb-ec0b-4dc3-8feb-44741e6dd484","system_id":"levelo_inurba_marseille","lat":43.32364,"lon":5.38886,"is_reserved":false,"is_disabled":false,"rental_uris":{"android":"levelo://app?vid=cabe25cb-ec0b-4dc3-8feb-44741e6dd484","ios":"levelo://app?vid=cabe25cb-ec0b-4dc3-8feb-44741e6dd484"},"vehicle_type_id":"4","last_reported":1706893614,"current_range_meters":7200,"station_id":"ce4bhqp2rcd13ifvqhog","pricing_plan_id":"free"},{"bike_id":"13b9c551-9d4a-4e3d-8b94-3ec930896106","system_id":"levelo_inurba_marseille","lat":43.32367,"lon":5.38886,"is_reserved":false,"is_disabled":false,"rental_uris":{"android":"levelo://app?vid=13b9c551-9d4a-4e3d-8b94-3ec930896106","ios":"levelo://app?vid=13b9c551-9d4a-4e3d-8b94-3ec930896106"},"vehicle_type_id":"4","last_reported":1706893614,"current_range_meters":3600,"station_id":"ce4bhqp2rcd13ifvqhog","pricing_plan_id":"free"},{"bike_id":"522745f2-6505-4a93-9a55-5c66eaece61d","system_id":"levelo_inurba_marseille","lat":43.323647,"lon":5.388887,"is_reserved":false,"is_disabled":false,"rental_uris":{"android":"levelo://app?vid=522745f2-6505-4a93-9a55-5c66eaece61d","ios":"levelo://app?vid=522745f2-6505-4a93-9a55-5c66eaece61d"},"vehicle_type_id":"4","last_reported":1706893614,"current_range_meters":10400,"station_id":"ce4bhqp2rcd13ifvqhog","pricing_plan_id":"free"},{"bike_id":"0d9d03cb-b82b-4fa1-9a0b-889f1309a386","system_id":"levelo_inurba_marseille","lat":43.29601,"lon":5.381084,"is_reserved":false,"is_disabled":false,"rental_uris":{"android":"levelo://app?vid=0d9d03cb-b82b-4fa1-9a0b-889f1309a386","ios":"levelo://app?vid=0d9d03cb-b82b-4fa1-9a0b-889f1309a386"},"vehicle_type_id":"4","last_reported":1706893614,"current_range_meters":22400,"station_id":"ce4bgl12rcd13ifvqbo0","pricing_plan_id":"free"},{"bike_id":"44ad5624-66eb-4608-93ec-a7d4ade90558","system_id":"levelo_inurba_marseille","lat":43.29598,"lon":5.38094,"is_reserved":false,"is_disabled":false,"rental_uris":{"android":"levelo://app?vid=44ad5624-66eb-4608-93ec-a7d4ade90558","ios":"levelo://app?vid=44ad5624-66eb-4608-93ec-a7d4ade90558"},"vehicle_type_id":"4","last_reported":1706893614,"current_range_meters":6000,"station_id":"ce4bgl12rcd13ifvqbo0","pricing_plan_id":"free"},{"bike_id":"3f4fb3b7-f0eb-4d43-878f-36a04c2abb19","system_id":"levelo_inurba_marseille","lat":43.29601,"lon":5.381084,"is_reserved":false,"is_disabled":false,"rental_uris":{"android":"levelo://app?vid=3f4fb3b7-f0eb-4d43-878f-36a04c2abb19","ios":"levelo://app?vid=3f4fb3b7-f0eb-4d43-878f-36a04c2abb19"},"vehicle_type_id":"4","last_reported":1706893614,"current_range_meters":0,"station_id":"ce4bgl12rcd13ifvqbo0","pricing_plan_id":"free"},{"bike_id":"dfab5186-1922-46f9-ad0c-6f1a8f8e05da","system_id":"levelo_inurba_marseille","lat":43.292749,"lon":5.368402,"is_reserved":false,"is_disabled":false,"rental_uris":{"android":"levelo://app?vid=dfab5186-1922-46f9-ad0c-6f1a8f8e05da","ios":"levelo://app?vid=dfab5186-1922-46f9-ad0c-6f1a8f8e05da"},"vehicle_type_id":"4","last_reported":1706893614,"current_range_meters":16400,"station_id":"ce4bhbp2rcd13ifvqesg","pricing_plan_id":"free"},{"bike_id":"0d83fe8c-9c00-4740-ac37-2b7ecb0ff121","system_id":"levelo_inurba_marseille","lat":43.29303,"lon":5.37178,"is_reserved":false,"is_disabled":false,"rental_uris":{"android":"levelo://app?vid=0d83fe8c-9c00-4740-ac37-2b7ecb0ff121","ios":"levelo://app?vid=0d83fe8c-9c00-4740-ac37-2b7ecb0ff121"},"vehicle_type_id":"4","last_reported":1706893614,"current_range_meters":2800,"station_id":"ce4bgh92rcd13ifvqb40","pricing_plan_id":"free"},{"bike_id":"d2a2bc21-1806-4bea-a382-26e83a48cb02","system_id":"levelo_inurba_marseille","lat":43.29302,"lon":5.37171,"is_reserved":false,"is_disabled":false,"rental_uris":{"android":"levelo://app?vid=d2a2bc21-1806-4bea-a382-26e83a48cb02","ios":"levelo://app?vid=d2a2bc21-1806-4bea-a382-26e83a48cb02"},"vehicle_type_id":"4","last_reported":1706893614,"current_range_meters":0,"station_id":"ce4bgh92rcd13ifvqb40","pricing_plan_id":"free"},{"bike_id":"4f230c2e-a28c-41ac-ae32-33c8391c5013","system_id":"levelo_inurba_marseille","lat":43.293013,"lon":5.37169,"is_reserved":false,"is_disabled":false,"rental_uris":{"android":"levelo://app?vid=4f230c2e-a28c-41ac-ae32-33c8391c5013","ios":"levelo://app?vid=4f230c2e-a28c-41ac-ae32-33c8391c5013"},"vehicle_type_id":"4","last_reported":1706893614,"current_range_meters":2800,"station_id":"ce4bgh92rcd13ifvqb40","pricing_plan_id":"free"},{"bike_id":"b8c83c5a-47f1-4dd3-b3b9-84b7a061e36b","system_id":"levelo_inurba_marseille","lat":43.293259,"lon":5.371586,"is_reserved":false,"is_disabled":false,"rental_uris":{"android":"levelo://app?vid=b8c83c5a-47f1-4dd3-b3b9-84b7a061e36b","ios":"levelo://app?vid=b8c83c5a-47f1-4dd3-b3b9-84b7a061e36b"},"vehicle_type_id":"4","last_reported":1706893614,"current_range_meters":28400,"station_id":"ce4bgh92rcd13ifvqb40","pricing_plan_id":"free"},{"bike_id":"ad197a5a-fcca-4c02-921f-9e53df7a8fdf","system_id":"levelo_inurba_marseille","lat":43.293259,"lon":5.371586,"is_reserved":false,"is_disabled":false,"rental_uris":{"android":"levelo://app?vid=ad197a5a-fcca-4c02-921f-9e53df7a8fdf","ios":"levelo://app?vid=ad197a5a-fcca-4c02-921f-9e53df7a8fdf"},"vehicle_type_id":"4","last_reported":1706893614,"current_range_meters":13600,"station_id":"ce4bgh92rcd13ifvqb40","pricing_plan_id":"free"},{"bike_id":"ea171c16-e9de-4628-ad97-c7fe67f35776","system_id":"levelo_inurba_marseille","lat":43.29299,"lon":5.37178,"is_reserved":false,"is_disabled":false,"rental_uris":{"android":"levelo://app?vid=ea171c16-e9de-4628-ad97-c7fe67f35776","ios":"levelo://app?vid=ea171c16-e9de-4628-ad97-c7fe67f35776"},"vehicle_type_id":"4","last_reported":1706893614,"current_range_meters":12400,"station_id":"ce4bgh92rcd13ifvqb40","pricing_plan_id":"free"},{"bike_id":"9ffa8d96-0e7f-4588-b025-6311387f91b4","system_id":"levelo_inurba_marseille","lat":43.29264,"lon":5.36842,"is_reserved":false,"is_disabled":false,"rental_uris":{"android":"levelo://app?vid=9ffa8d96-0e7f-4588-b025-6311387f91b4","ios":"levelo://app?vid=9ffa8d96-0e7f-4588-b025-6311387f91b4"},"vehicle_type_id":"4","last_reported":1706893614,"current_range_meters":0,"station_id":"ce4bhbp2rcd13ifvqesg","pricing_plan_id":"free"},{"bike_id":"1432f6ee-d6b9-4158-b66d-376cee8e777a","system_id":"levelo_inurba_marseille","lat":43.300197,"lon":5.388857,"is_reserved":false,"is_disabled":false,"rental_uris":{"android":"levelo://app?vid=1432f6ee-d6b9-4158-b66d-376cee8e777a","ios":"levelo://app?vid=1432f6ee-d6b9-4158-b66d-376cee8e777a"},"vehicle_type_id":"4","last_reported":1706893614,"current_range_meters":11600,"station_id":"","pricing_plan_id":"free"},{"bike_id":"c8c8e4fe-0d5e-42ba-8ff2-46bcb33b504b","system_id":"levelo_inurba_marseille","lat":43.29234,"lon":5.36504,"is_reserved":false,"is_disabled":false,"rental_uris":{"android":"levelo://app?vid=c8c8e4fe-0d5e-42ba-8ff2-46bcb33b504b","ios":"levelo://app?vid=c8c8e4fe-0d5e-42ba-8ff2-46bcb33b504b"},"vehicle_type_id":"4","last_reported":1706893614,"current_range_meters":16400,"station_id":"","pricing_plan_id":"free"},{"bike_id":"f17dc7a3-b52d-48a6-b853-d8932b95094b","system_id":"levelo_inurba_marseille","lat":43.293009,"lon":5.374584,"is_reserved":false,"is_disabled":false,"rental_uris":{"android":"levelo://app?vid=f17dc7a3-b52d-48a6-b853-d8932b95094b","ios":"levelo://app?vid=f17dc7a3-b52d-48a6-b853-d8932b95094b"},"vehicle_type_id":"4","last_reported":1706893614,"current_range_meters":8800,"station_id":"ce4bgi12rcd13ifvqb70","pricing_plan_id":"free"},{"bike_id":"e661c2f4-3e19-4e69-af0b-76b14e791dfc","system_id":"levelo_inurba_marseille","lat":43.293009,"lon":5.374584,"is_reserved":false,"is_disabled":false,"rental_uris":{"android":"levelo://app?vid=e661c2f4-3e19-4e69-af0b-76b14e791dfc","ios":"levelo://app?vid=e661c2f4-3e19-4e69-af0b-76b14e791dfc"},"vehicle_type_id":"4","last_reported":1706893614,"current_range_meters":3200,"station_id":"ce4bgi12rcd13ifvqb70","pricing_plan_id":"free"},{"bike_id":"9bc6a453-3505-411a-9284-806739c21f75","system_id":"levelo_inurba_marseille","lat":43.305994,"lon":5.393687,"is_reserved":false,"is_disabled":false,"rental_uris":{"android":"levelo://app?vid=9bc6a453-3505-411a-9284-806739c21f75","ios":"levelo://app?vid=9bc6a453-3505-411a-9284-806739c21f75"},"vehicle_type_id":"4","last_reported":1706893614,"current_range_meters":24000,"station_id":"ce4bh0p2rcd13ifvqd80","pricing_plan_id":"free"},{"bike_id":"01e60b6f-47e2-4a24-91a7-4312ba880ce1","system_id":"levelo_inurba_marseille","lat":43.30569,"lon":5.39347,"is_reserved":false,"is_disabled":false,"rental_uris":{"android":"levelo://app?vid=01e60b6f-47e2-4a24-91a7-4312ba880ce1","ios":"levelo://app?vid=01e60b6f-47e2-4a24-91a7-4312ba880ce1"},"vehicle_type_id":"4","last_reported":1706893614,"current_range_meters":22000,"station_id":"ce4bh0p2rcd13ifvqd80","pricing_plan_id":"free"},{"bike_id":"82ff2578-3c8d-499e-a081-e09d34d12158","system_id":"levelo_inurba_marseille","lat":43.293009,"lon":5.374584,"is_reserved":false,"is_disabled":false,"rental_uris":{"android":"levelo://app?vid=82ff2578-3c8d-499e-a081-e09d34d12158","ios":"levelo://app?vid=82ff2578-3c8d-499e-a081-e09d34d12158"},"vehicle_type_id":"4","last_reported":1706893614,"current_range_meters":7200,"station_id":"ce4bgi12rcd13ifvqb70","pricing_plan_id":"free"},{"bike_id":"8bfbbaa0-6dd4-4fea-b7ff-ef250d2b28e3","system_id":"levelo_inurba_marseille","lat":43.30554,"lon":5.39342,"is_reserved":false,"is_disabled":false,"rental_uris":{"android":"levelo://app?vid=8bfbbaa0-6dd4-4fea-b7ff-ef250d2b28e3","ios":"levelo://app?vid=8bfbbaa0-6dd4-4fea-b7ff-ef250d2b28e3"},"vehicle_type_id":"4","last_reported":1706893614,"current_range_meters":8800,"station_id":"","pricing_plan_id":"free"},{"bike_id":"2e33dc87-2c4f-4a8b-8098-b6c426cf16ee","system_id":"levelo_inurba_marseille","lat":43.303002,"lon":5.392142,"is_reserved":false,"is_disabled":false,"rental_uris":{"android":"levelo://app?vid=2e33dc87-2c4f-4a8b-8098-b6c426cf16ee","ios":"levelo://app?vid=2e33dc87-2c4f-4a8b-8098-b6c426cf16ee"},"vehicle_type_id":"4","last_reported":1706893614,"current_range_meters":400,"station_id":"ce4bgkh2rcd13ifvqbk0","pricing_plan_id":"free"},{"bike_id":"10b36309-fc91-4d86-92e8-8483b46c8d7c","system_id":"levelo_inurba_marseille","lat":43.292311,"lon":5.360731,"is_reserved":false,"is_disabled":false,"rental_uris":{"android":"levelo://app?vid=10b36309-fc91-4d86-92e8-8483b46c8d7c","ios":"levelo://app?vid=10b36309-fc91-4d86-92e8-8483b46c8d7c"},"vehicle_type_id":"4","last_reported":1706893614,"current_range_meters":11600,"station_id":"ce4bhbh2rcd13ifvqeqg","pricing_plan_id":"free"},{"bike_id":"520e899d-9789-4e31-b809-a4126c3b0d41","system_id":"levelo_inurba_marseille","lat":43.30085,"lon":5.390856,"is_reserved":false,"is_disabled":false,"rental_uris":{"android":"levelo://app?vid=520e899d-9789-4e31-b809-a4126c3b0d41","ios":"levelo://app?vid=520e899d-9789-4e31-b809-a4126c3b0d41"},"vehicle_type_id":"4","last_reported":1706893614,"current_range_meters":27200,"station_id":"ce4bh192rcd13ifvqdb0","pricing_plan_id":"free"},{"bike_id":"520b29f8-cb2a-40f6-bdd8-22de7e7cddde","system_id":"levelo_inurba_marseille","lat":43.30085,"lon":5.390856,"is_reserved":false,"is_disabled":false,"rental_uris":{"android":"levelo://app?vid=520b29f8-cb2a-40f6-bdd8-22de7e7cddde","ios":"levelo://app?vid=520b29f8-cb2a-40f6-bdd8-22de7e7cddde"},"vehicle_type_id":"4","last_reported":1706893614,"current_range_meters":3600,"station_id":"ce4bh192rcd13ifvqdb0","pricing_plan_id":"free"},{"bike_id":"13e1aa7c-d757-48d0-819c-849407b6d1f0","system_id":"levelo_inurba_marseille","lat":43.300852,"lon":5.390859,"is_reserved":false,"is_disabled":false,"rental_uris":{"android":"levelo://app?vid=13e1aa7c-d757-48d0-819c-849407b6d1f0","ios":"levelo://app?vid=13e1aa7c-d757-48d0-819c-849407b6d1f0"},"vehicle_type_id":"4","last_reported":1706893614,"current_range_meters":20400,"station_id":"ce4bh192rcd13ifvqdb0","pricing_plan_id":"free"},{"bike_id":"b94a9c4f-e0d3-4210-9254-d9a29f8a9999","system_id":"levelo_inurba_marseille","lat":43.300852,"lon":5.390859,"is_reserved":false,"is_disabled":false,"rental_uris":{"android":"levelo://app?vid=b94a9c4f-e0d3-4210-9254-d9a29f8a9999","ios":"levelo://app?vid=b94a9c4f-e0d3-4210-9254-d9a29f8a9999"},"vehicle_type_id":"4","last_reported":1706893614,"current_range_meters":31600,"station_id":"ce4bh192rcd13ifvqdb0","pricing_plan_id":"free"},{"bike_id":"6198b884-2219-490a-b4e3-2ac45cf75bed","system_id":"levelo_inurba_marseille","lat":43.292311,"lon":5.360731,"is_reserved":false,"is_disabled":false,"rental_uris":{"android":"levelo://app?vid=6198b884-2219-490a-b4e3-2ac45cf75bed","ios":"levelo://app?vid=6198b884-2219-490a-b4e3-2ac45cf75bed"},"vehicle_type_id":"4","last_reported":1706893614,"current_range_meters":28400,"station_id":"ce4bhbh2rcd13ifvqeqg","pricing_plan_id":"free"},{"bike_id":"5a139696-1256-4730-aa80-615ee1410042","system_id":"levelo_inurba_marseille","lat":43.298764,"lon":5.388973,"is_reserved":false,"is_disabled":false,"rental_uris":{"android":"levelo://app?vid=5a139696-1256-4730-aa80-615ee1410042","ios":"levelo://app?vid=5a139696-1256-4730-aa80-615ee1410042"},"vehicle_type_id":"4","last_reported":1706893614,"current_range_meters":19600,"station_id":"ce4bh392rcd13ifvqdl0","pricing_plan_id":"free"},{"bike_id":"c3985c41-cbc1-4523-b86e-60740bb8ba34","system_id":"levelo_inurba_marseille","lat":43.291671,"lon":5.371575,"is_reserved":false,"is_disabled":false,"rental_uris":{"android":"levelo://app?vid=c3985c41-cbc1-4523-b86e-60740bb8ba34","ios":"levelo://app?vid=c3985c41-cbc1-4523-b86e-60740bb8ba34"},"vehicle_type_id":"4","last_reported":1706893614,"current_range_meters":31600,"station_id":"ce4bha92rcd13ifvqeh0","pricing_plan_id":"free"},{"bike_id":"d08cf2ab-27a6-4924-a5e7-60bcc468bb6c","system_id":"levelo_inurba_marseille","lat":43.298764,"lon":5.388973,"is_reserved":false,"is_disabled":false,"rental_uris":{"android":"levelo://app?vid=d08cf2ab-27a6-4924-a5e7-60bcc468bb6c","ios":"levelo://app?vid=d08cf2ab-27a6-4924-a5e7-60bcc468bb6c"},"vehicle_type_id":"4","last_reported":1706893614,"current_range_meters":17600,"station_id":"ce4bh392rcd13ifvqdl0","pricing_plan_id":"free"},{"bike_id":"6e9953d0-f33f-44a2-a118-73705cc468ab","system_id":"levelo_inurba_marseille","lat":43.291671,"lon":5.371575,"is_reserved":false,"is_disabled":false,"rental_uris":{"android":"levelo://app?vid=6e9953d0-f33f-44a2-a118-73705cc468ab","ios":"levelo://app?vid=6e9953d0-f33f-44a2-a118-73705cc468ab"},"vehicle_type_id":"4","last_reported":1706893614,"current_range_meters":22800,"station_id":"ce4bha92rcd13ifvqeh0","pricing_plan_id":"free"},{"bike_id":"09a42708-2ef4-46fb-a87b-4fab36304993","system_id":"levelo_inurba_marseille","lat":43.298495,"lon":5.388898,"is_reserved":false,"is_disabled":false,"rental_uris":{"android":"levelo://app?vid=09a42708-2ef4-46fb-a87b-4fab36304993","ios":"levelo://app?vid=09a42708-2ef4-46fb-a87b-4fab36304993"},"vehicle_type_id":"4","last_reported":1706893614,"current_range_meters":1600,"station_id":"","pricing_plan_id":"free"},{"bike_id":"5be467b9-1b75-4cce-b131-0236160a4f56","system_id":"levelo_inurba_marseille","lat":43.313685,"lon":5.396918,"is_reserved":false,"is_disabled":false,"rental_uris":{"android":"levelo://app?vid=5be467b9-1b75-4cce-b131-0236160a4f56","ios":"levelo://app?vid=5be467b9-1b75-4cce-b131-0236160a4f56"},"vehicle_type_id":"4","last_reported":1706893614,"current_range_meters":400,"station_id":"ce4bgvp2rcd13ifvqcu0","pricing_plan_id":"free"},{"bike_id":"f4be600f-88f6-4f08-80d4-0656353b9686","system_id":"levelo_inurba_marseille","lat":43.309589,"lon":5.390258,"is_reserved":false,"is_disabled":false,"rental_uris":{"android":"levelo://app?vid=f4be600f-88f6-4f08-80d4-0656353b9686","ios":"levelo://app?vid=f4be600f-88f6-4f08-80d4-0656353b9686"},"vehicle_type_id":"4","last_reported":1706893614,"current_range_meters":8400,"station_id":"ce4bgup2rcd13ifvqco0","pricing_plan_id":"free"},{"bike_id":"c9b1a39a-dfd9-4360-88a7-a17fcef3ffed","system_id":"levelo_inurba_marseille","lat":43.290779,"lon":5.371482,"is_reserved":false,"is_disabled":false,"rental_uris":{"android":"levelo://app?vid=c9b1a39a-dfd9-4360-88a7-a17fcef3ffed","ios":"levelo://app?vid=c9b1a39a-dfd9-4360-88a7-a17fcef3ffed"},"vehicle_type_id":"4","last_reported":1706893614,"current_range_meters":24400,"station_id":"ce4bh5p2rcd13ifvqe4g","pricing_plan_id":"free"},{"bike_id":"bc36dfcf-a9a0-4b21-ab74-95a5ba5107df","system_id":"levelo_inurba_marseille","lat":43.29529,"lon":5.385581,"is_reserved":false,"is_disabled":false,"rental_uris":{"android":"levelo://app?vid=bc36dfcf-a9a0-4b21-ab74-95a5ba5107df","ios":"levelo://app?vid=bc36dfcf-a9a0-4b21-ab74-95a5ba5107df"},"vehicle_type_id":"4","last_reported":1706893614,"current_range_meters":17600,"station_id":"ce4bgih2rcd13ifvqba0","pricing_plan_id":"free"},{"bike_id":"dae402dd-25d3-4e8d-a865-ac425ff63e73","system_id":"levelo_inurba_marseille","lat":43.29529,"lon":5.385581,"is_reserved":false,"is_disabled":false,"rental_uris":{"android":"levelo://app?vid=dae402dd-25d3-4e8d-a865-ac425ff63e73","ios":"levelo://app?vid=dae402dd-25d3-4e8d-a865-ac425ff63e73"},"vehicle_type_id":"4","last_reported":1706893614,"current_range_meters":20400,"station_id":"ce4bgih2rcd13ifvqba0","pricing_plan_id":"free"},{"bike_id":"5aa55b60-bdf3-46d0-9b8b-7bf0fd76bed6","system_id":"levelo_inurba_marseille","lat":43.29529,"lon":5.385581,"is_reserved":false,"is_disabled":false,"rental_uris":{"android":"levelo://app?vid=5aa55b60-bdf3-46d0-9b8b-7bf0fd76bed6","ios":"levelo://app?vid=5aa55b60-bdf3-46d0-9b8b-7bf0fd76bed6"},"vehicle_type_id":"4","last_reported":1706893614,"current_range_meters":18400,"station_id":"ce4bgih2rcd13ifvqba0","pricing_plan_id":"free"},{"bike_id":"33d193e4-73f9-4090-a240-08c67150f28a","system_id":"levelo_inurba_marseille","lat":43.29529,"lon":5.385581,"is_reserved":false,"is_disabled":false,"rental_uris":{"android":"levelo://app?vid=33d193e4-73f9-4090-a240-08c67150f28a","ios":"levelo://app?vid=33d193e4-73f9-4090-a240-08c67150f28a"},"vehicle_type_id":"4","last_reported":1706893614,"current_range_meters":18800,"station_id":"ce4bgih2rcd13ifvqba0","pricing_plan_id":"free"},{"bike_id":"a0f4c0b0-3322-4357-b9af-0f68545b8f5e","system_id":"levelo_inurba_marseille","lat":43.29529,"lon":5.385581,"is_reserved":false,"is_disabled":false,"rental_uris":{"android":"levelo://app?vid=a0f4c0b0-3322-4357-b9af-0f68545b8f5e","ios":"levelo://app?vid=a0f4c0b0-3322-4357-b9af-0f68545b8f5e"},"vehicle_type_id":"4","last_reported":1706893614,"current_range_meters":22800,"station_id":"ce4bgih2rcd13ifvqba0","pricing_plan_id":"free"},{"bike_id":"ad4060f4-d91e-4084-99e7-50fb5e68381b","system_id":"levelo_inurba_marseille","lat":43.294162,"lon":5.386292,"is_reserved":false,"is_disabled":false,"rental_uris":{"android":"levelo://app?vid=ad4060f4-d91e-4084-99e7-50fb5e68381b","ios":"levelo://app?vid=ad4060f4-d91e-4084-99e7-50fb5e68381b"},"vehicle_type_id":"4","last_reported":1706893614,"current_range_meters":14800,"station_id":"ce4bh2h2rcd13ifvqdh0","pricing_plan_id":"free"},{"bike_id":"d573becd-ea7b-4200-a6d5-345953204246","system_id":"levelo_inurba_marseille","lat":43.29529,"lon":5.385581,"is_reserved":false,"is_disabled":false,"rental_uris":{"android":"levelo://app?vid=d573becd-ea7b-4200-a6d5-345953204246","ios":"levelo://app?vid=d573becd-ea7b-4200-a6d5-345953204246"},"vehicle_type_id":"4","last_reported":1706893614,"current_range_meters":6000,"station_id":"ce4bgih2rcd13ifvqba0","pricing_plan_id":"free"},{"bike_id":"45e571da-038f-48e5-8c05-86a2fcb36a9f","system_id":"levelo_inurba_marseille","lat":43.29797,"lon":5.38943,"is_reserved":false,"is_disabled":false,"rental_uris":{"android":"levelo://app?vid=45e571da-038f-48e5-8c05-86a2fcb36a9f","ios":"levelo://app?vid=45e571da-038f-48e5-8c05-86a2fcb36a9f"},"vehicle_type_id":"4","last_reported":1706893614,"current_range_meters":26400,"station_id":"","pricing_plan_id":"free"},{"bike_id":"0c4af853-c0e7-4640-9a9d-7b4595df0a25","system_id":"levelo_inurba_marseille","lat":43.29532,"lon":5.38553,"is_reserved":false,"is_disabled":false,"rental_uris":{"android":"levelo://app?vid=0c4af853-c0e7-4640-9a9d-7b4595df0a25","ios":"levelo://app?vid=0c4af853-c0e7-4640-9a9d-7b4595df0a25"},"vehicle_type_id":"4","last_reported":1706893614,"current_range_meters":9200,"station_id":"ce4bgih2rcd13ifvqba0","pricing_plan_id":"free"},{"bike_id":"7e4ac5bd-1b9f-4870-9745-f6849effd91d","system_id":"levelo_inurba_marseille","lat":43.29529,"lon":5.385581,"is_reserved":false,"is_disabled":false,"rental_uris":{"android":"levelo://app?vid=7e4ac5bd-1b9f-4870-9745-f6849effd91d","ios":"levelo://app?vid=7e4ac5bd-1b9f-4870-9745-f6849effd91d"},"vehicle_type_id":"4","last_reported":1706893614,"current_range_meters":3600,"station_id":"ce4bgih2rcd13ifvqba0","pricing_plan_id":"free"},{"bike_id":"d7c2b837-1952-473d-8082-5624768c0236","system_id":"levelo_inurba_marseille","lat":43.290779,"lon":5.371482,"is_reserved":false,"is_disabled":false,"rental_uris":{"android":"levelo://app?vid=d7c2b837-1952-473d-8082-5624768c0236","ios":"levelo://app?vid=d7c2b837-1952-473d-8082-5624768c0236"},"vehicle_type_id":"4","last_reported":1706893614,"current_range_meters":24800,"station_id":"ce4bh5p2rcd13ifvqe4g","pricing_plan_id":"free"},{"bike_id":"94e8ea41-e5c0-4669-a40b-550b6a607d9c","system_id":"levelo_inurba_marseille","lat":43.2923,"lon":5.37925,"is_reserved":false,"is_disabled":false,"rental_uris":{"android":"levelo://app?vid=94e8ea41-e5c0-4669-a40b-550b6a607d9c","ios":"levelo://app?vid=94e8ea41-e5c0-4669-a40b-550b6a607d9c"},"vehicle_type_id":"4","last_reported":1706893614,"current_range_meters":16000,"station_id":"","pricing_plan_id":"free"},{"bike_id":"6a20d14e-64e3-454a-b697-10cf1a3a0785","system_id":"levelo_inurba_marseille","lat":43.302008,"lon":5.394694,"is_reserved":false,"is_disabled":false,"rental_uris":{"android":"levelo://app?vid=6a20d14e-64e3-454a-b697-10cf1a3a0785","ios":"levelo://app?vid=6a20d14e-64e3-454a-b697-10cf1a3a0785"},"vehicle_type_id":"4","last_reported":1706893614,"current_range_meters":25200,"station_id":"ce4bh0p2rcd13ifvqd70","pricing_plan_id":"free"},{"bike_id":"1d809345-eacc-4765-9d41-15d9441274ea","system_id":"levelo_inurba_marseille","lat":43.289184,"lon":5.366408,"is_reserved":false,"is_disabled":false,"rental_uris":{"android":"levelo://app?vid=1d809345-eacc-4765-9d41-15d9441274ea","ios":"levelo://app?vid=1d809345-eacc-4765-9d41-15d9441274ea"},"vehicle_type_id":"4","last_reported":1706893614,"current_range_meters":11600,"station_id":"ce4bhap2rcd13ifvqek0","pricing_plan_id":"free"},{"bike_id":"7c755874-04f4-49a7-881c-3dccfea2f0df","system_id":"levelo_inurba_marseille","lat":43.290441,"lon":5.359123,"is_reserved":false,"is_disabled":false,"rental_uris":{"android":"levelo://app?vid=7c755874-04f4-49a7-881c-3dccfea2f0df","ios":"levelo://app?vid=7c755874-04f4-49a7-881c-3dccfea2f0df"},"vehicle_type_id":"4","last_reported":1706893614,"current_range_meters":5600,"station_id":"","pricing_plan_id":"free"},{"bike_id":"edae82f4-d92b-462a-9e13-f43c2af3334a","system_id":"levelo_inurba_marseille","lat":43.290624,"lon":5.359245,"is_reserved":false,"is_disabled":false,"rental_uris":{"android":"levelo://app?vid=edae82f4-d92b-462a-9e13-f43c2af3334a","ios":"levelo://app?vid=edae82f4-d92b-462a-9e13-f43c2af3334a"},"vehicle_type_id":"4","last_reported":1706893614,"current_range_meters":12800,"station_id":"ce4bha92rcd13ifvqeg0","pricing_plan_id":"free"},{"bike_id":"cea01420-214f-426c-814d-0f7c5a7f5f19","system_id":"levelo_inurba_marseille","lat":43.294162,"lon":5.386292,"is_reserved":false,"is_disabled":false,"rental_uris":{"android":"levelo://app?vid=cea01420-214f-426c-814d-0f7c5a7f5f19","ios":"levelo://app?vid=cea01420-214f-426c-814d-0f7c5a7f5f19"},"vehicle_type_id":"4","last_reported":1706893614,"current_range_meters":4400,"station_id":"ce4bh2h2rcd13ifvqdh0","pricing_plan_id":"free"},{"bike_id":"cd47f3d3-b33e-4c25-a1c4-b23b057fabc4","system_id":"levelo_inurba_marseille","lat":43.294153,"lon":5.386305,"is_reserved":false,"is_disabled":false,"rental_uris":{"android":"levelo://app?vid=cd47f3d3-b33e-4c25-a1c4-b23b057fabc4","ios":"levelo://app?vid=cd47f3d3-b33e-4c25-a1c4-b23b057fabc4"},"vehicle_type_id":"4","last_reported":1706893614,"current_range_meters":29600,"station_id":"ce4bh2h2rcd13ifvqdh0","pricing_plan_id":"free"},{"bike_id":"df6d665c-ffa0-4739-a83e-6c1e3b01a0d8","system_id":"levelo_inurba_marseille","lat":43.29422,"lon":5.38631,"is_reserved":false,"is_disabled":false,"rental_uris":{"android":"levelo://app?vid=df6d665c-ffa0-4739-a83e-6c1e3b01a0d8","ios":"levelo://app?vid=df6d665c-ffa0-4739-a83e-6c1e3b01a0d8"},"vehicle_type_id":"4","last_reported":1706893614,"current_range_meters":0,"station_id":"ce4bh2h2rcd13ifvqdh0","pricing_plan_id":"free"},{"bike_id":"1bfcbf95-689a-4d03-b4a6-d2c1eba454e9","system_id":"levelo_inurba_marseille","lat":43.294162,"lon":5.386292,"is_reserved":false,"is_disabled":false,"rental_uris":{"android":"levelo://app?vid=1bfcbf95-689a-4d03-b4a6-d2c1eba454e9","ios":"levelo://app?vid=1bfcbf95-689a-4d03-b4a6-d2c1eba454e9"},"vehicle_type_id":"4","last_reported":1706893614,"current_range_meters":20800,"station_id":"ce4bh2h2rcd13ifvqdh0","pricing_plan_id":"free"},{"bike_id":"d22a6fc1-9b2b-4f56-a002-fab84e309d8f","system_id":"levelo_inurba_marseille","lat":43.294162,"lon":5.386292,"is_reserved":false,"is_disabled":false,"rental_uris":{"android":"levelo://app?vid=d22a6fc1-9b2b-4f56-a002-fab84e309d8f","ios":"levelo://app?vid=d22a6fc1-9b2b-4f56-a002-fab84e309d8f"},"vehicle_type_id":"4","last_reported":1706893614,"current_range_meters":18400,"station_id":"ce4bh2h2rcd13ifvqdh0","pricing_plan_id":"free"},{"bike_id":"9ad91837-7c6e-4d7a-bd0e-286e5a4d8e05","system_id":"levelo_inurba_marseille","lat":43.2942,"lon":5.38632,"is_reserved":false,"is_disabled":false,"rental_uris":{"android":"levelo://app?vid=9ad91837-7c6e-4d7a-bd0e-286e5a4d8e05","ios":"levelo://app?vid=9ad91837-7c6e-4d7a-bd0e-286e5a4d8e05"},"vehicle_type_id":"4","last_reported":1706893614,"current_range_meters":0,"station_id":"ce4bh2h2rcd13ifvqdh0","pricing_plan_id":"free"},{"bike_id":"a94b5f2f-224e-4a10-85a3-8be575060c27","system_id":"levelo_inurba_marseille","lat":43.289184,"lon":5.366408,"is_reserved":false,"is_disabled":false,"rental_uris":{"android":"levelo://app?vid=a94b5f2f-224e-4a10-85a3-8be575060c27","ios":"levelo://app?vid=a94b5f2f-224e-4a10-85a3-8be575060c27"},"vehicle_type_id":"4","last_reported":1706893614,"current_range_meters":4000,"station_id":"ce4bhap2rcd13ifvqek0","pricing_plan_id":"free"},{"bike_id":"5678b09b-f7ab-4385-846a-af1cdb5c969a","system_id":"levelo_inurba_marseille","lat":43.29039,"lon":5.37605,"is_reserved":false,"is_disabled":false,"rental_uris":{"android":"levelo://app?vid=5678b09b-f7ab-4385-846a-af1cdb5c969a","ios":"levelo://app?vid=5678b09b-f7ab-4385-846a-af1cdb5c969a"},"vehicle_type_id":"4","last_reported":1706893614,"current_range_meters":0,"station_id":"","pricing_plan_id":"free"},{"bike_id":"9c036199-e101-4729-a654-a608f8399e4d","system_id":"levelo_inurba_marseille","lat":43.29414,"lon":5.3863,"is_reserved":false,"is_disabled":false,"rental_uris":{"android":"levelo://app?vid=9c036199-e101-4729-a654-a608f8399e4d","ios":"levelo://app?vid=9c036199-e101-4729-a654-a608f8399e4d"},"vehicle_type_id":"4","last_reported":1706893614,"current_range_meters":21200,"station_id":"ce4bh2h2rcd13ifvqdh0","pricing_plan_id":"free"},{"bike_id":"3dc0ce17-8c01-47ed-a47f-8cb985b38532","system_id":"levelo_inurba_marseille","lat":43.289184,"lon":5.366408,"is_reserved":false,"is_disabled":false,"rental_uris":{"android":"levelo://app?vid=3dc0ce17-8c01-47ed-a47f-8cb985b38532","ios":"levelo://app?vid=3dc0ce17-8c01-47ed-a47f-8cb985b38532"},"vehicle_type_id":"4","last_reported":1706893614,"current_range_meters":8800,"station_id":"ce4bhap2rcd13ifvqek0","pricing_plan_id":"free"},{"bike_id":"d33d965c-e4d7-41df-bd79-66efcbd88f09","system_id":"levelo_inurba_marseille","lat":43.290327,"lon":5.375711,"is_reserved":false,"is_disabled":false,"rental_uris":{"android":"levelo://app?vid=d33d965c-e4d7-41df-bd79-66efcbd88f09","ios":"levelo://app?vid=d33d965c-e4d7-41df-bd79-66efcbd88f09"},"vehicle_type_id":"4","last_reported":1706893614,"current_range_meters":10000,"station_id":"ce4bh692rcd13ifvqe90","pricing_plan_id":"free"},{"bike_id":"f7cedc1b-79e4-4c3b-82c4-3bb3e06230d4","system_id":"levelo_inurba_marseille","lat":43.28939,"lon":5.36628,"is_reserved":false,"is_disabled":false,"rental_uris":{"android":"levelo://app?vid=f7cedc1b-79e4-4c3b-82c4-3bb3e06230d4","ios":"levelo://app?vid=f7cedc1b-79e4-4c3b-82c4-3bb3e06230d4"},"vehicle_type_id":"4","last_reported":1706893614,"current_range_meters":0,"station_id":"ce4bhap2rcd13ifvqek0","pricing_plan_id":"free"},{"bike_id":"5ed88cc8-2e28-427a-9501-12a40d65b888","system_id":"levelo_inurba_marseille","lat":43.282744,"lon":5.350533,"is_reserved":false,"is_disabled":false,"rental_uris":{"android":"levelo://app?vid=5ed88cc8-2e28-427a-9501-12a40d65b888","ios":"levelo://app?vid=5ed88cc8-2e28-427a-9501-12a40d65b888"},"vehicle_type_id":"4","last_reported":1706893614,"current_range_meters":22800,"station_id":"ce4bhbp2rcd13ifvqerg","pricing_plan_id":"free"},{"bike_id":"da5e789a-5c6f-407e-a1b7-31132a79f038","system_id":"levelo_inurba_marseille","lat":43.289184,"lon":5.366408,"is_reserved":false,"is_disabled":false,"rental_uris":{"android":"levelo://app?vid=da5e789a-5c6f-407e-a1b7-31132a79f038","ios":"levelo://app?vid=da5e789a-5c6f-407e-a1b7-31132a79f038"},"vehicle_type_id":"4","last_reported":1706893614,"current_range_meters":4400,"station_id":"ce4bhap2rcd13ifvqek0","pricing_plan_id":"free"},{"bike_id":"6a585da8-db42-47b1-86c2-73793fcbf580","system_id":"levelo_inurba_marseille","lat":43.289184,"lon":5.366408,"is_reserved":false,"is_disabled":false,"rental_uris":{"android":"levelo://app?vid=6a585da8-db42-47b1-86c2-73793fcbf580","ios":"levelo://app?vid=6a585da8-db42-47b1-86c2-73793fcbf580"},"vehicle_type_id":"4","last_reported":1706893614,"current_range_meters":14400,"station_id":"ce4bhap2rcd13ifvqek0","pricing_plan_id":"free"},{"bike_id":"c74ada3f-dafd-4c9e-9310-fd6deb121ac0","system_id":"levelo_inurba_marseille","lat":43.292644,"lon":5.384257,"is_reserved":false,"is_disabled":false,"rental_uris":{"android":"levelo://app?vid=c74ada3f-dafd-4c9e-9310-fd6deb121ac0","ios":"levelo://app?vid=c74ada3f-dafd-4c9e-9310-fd6deb121ac0"},"vehicle_type_id":"4","last_reported":1706893614,"current_range_meters":1200,"station_id":"ce4bh692rcd13ifvqea0","pricing_plan_id":"free"},{"bike_id":"95c2cd5a-a949-4c45-bc7e-a6374adfd690","system_id":"levelo_inurba_marseille","lat":43.292642,"lon":5.384254,"is_reserved":false,"is_disabled":false,"rental_uris":{"android":"levelo://app?vid=95c2cd5a-a949-4c45-bc7e-a6374adfd690","ios":"levelo://app?vid=95c2cd5a-a949-4c45-bc7e-a6374adfd690"},"vehicle_type_id":"4","last_reported":1706893614,"current_range_meters":2800,"station_id":"ce4bh692rcd13ifvqea0","pricing_plan_id":"free"},{"bike_id":"225e8c8e-47bd-4028-bcf4-52349812c06d","system_id":"levelo_inurba_marseille","lat":43.292644,"lon":5.384257,"is_reserved":false,"is_disabled":false,"rental_uris":{"android":"levelo://app?vid=225e8c8e-47bd-4028-bcf4-52349812c06d","ios":"levelo://app?vid=225e8c8e-47bd-4028-bcf4-52349812c06d"},"vehicle_type_id":"4","last_reported":1706893614,"current_range_meters":400,"station_id":"ce4bh692rcd13ifvqea0","pricing_plan_id":"free"},{"bike_id":"3820b4ca-fb8e-414b-abce-b70e7bf92dfa","system_id":"levelo_inurba_marseille","lat":43.292642,"lon":5.384254,"is_reserved":false,"is_disabled":false,"rental_uris":{"android":"levelo://app?vid=3820b4ca-fb8e-414b-abce-b70e7bf92dfa","ios":"levelo://app?vid=3820b4ca-fb8e-414b-abce-b70e7bf92dfa"},"vehicle_type_id":"4","last_reported":1706893614,"current_range_meters":18400,"station_id":"ce4bh692rcd13ifvqea0","pricing_plan_id":"free"},{"bike_id":"c65b986d-3be7-4526-b5cb-daaf60578bf7","system_id":"levelo_inurba_marseille","lat":43.292644,"lon":5.384257,"is_reserved":false,"is_disabled":false,"rental_uris":{"android":"levelo://app?vid=c65b986d-3be7-4526-b5cb-daaf60578bf7","ios":"levelo://app?vid=c65b986d-3be7-4526-b5cb-daaf60578bf7"},"vehicle_type_id":"4","last_reported":1706893614,"current_range_meters":20800,"station_id":"ce4bh692rcd13ifvqea0","pricing_plan_id":"free"},{"bike_id":"b5443da0-f6dc-4bf3-9eb3-72ae214252bd","system_id":"levelo_inurba_marseille","lat":43.304274,"lon":5.397513,"is_reserved":false,"is_disabled":false,"rental_uris":{"android":"levelo://app?vid=b5443da0-f6dc-4bf3-9eb3-72ae214252bd","ios":"levelo://app?vid=b5443da0-f6dc-4bf3-9eb3-72ae214252bd"},"vehicle_type_id":"4","last_reported":1706893614,"current_range_meters":30800,"station_id":"ce4bh092rcd13ifvqd20","pricing_plan_id":"free"},{"bike_id":"1dfa31fe-c167-435e-a49a-f98a7e143232","system_id":"levelo_inurba_marseille","lat":43.292644,"lon":5.384257,"is_reserved":false,"is_disabled":false,"rental_uris":{"android":"levelo://app?vid=1dfa31fe-c167-435e-a49a-f98a7e143232","ios":"levelo://app?vid=1dfa31fe-c167-435e-a49a-f98a7e143232"},"vehicle_type_id":"4","last_reported":1706893614,"current_range_meters":0,"station_id":"ce4bh692rcd13ifvqea0","pricing_plan_id":"free"},{"bike_id":"f2f930b2-cb14-4c08-a209-4ab29416c1d8","system_id":"levelo_inurba_marseille","lat":43.29004,"lon":5.3562,"is_reserved":false,"is_disabled":false,"rental_uris":{"android":"levelo://app?vid=f2f930b2-cb14-4c08-a209-4ab29416c1d8","ios":"levelo://app?vid=f2f930b2-cb14-4c08-a209-4ab29416c1d8"},"vehicle_type_id":"4","last_reported":1706893614,"current_range_meters":19600,"station_id":"ce4bhb92rcd13ifvqen0","pricing_plan_id":"free"},{"bike_id":"afeac3eb-e61f-49a4-a619-158f36eaead8","system_id":"levelo_inurba_marseille","lat":43.29002,"lon":5.35614,"is_reserved":false,"is_disabled":false,"rental_uris":{"android":"levelo://app?vid=afeac3eb-e61f-49a4-a619-158f36eaead8","ios":"levelo://app?vid=afeac3eb-e61f-49a4-a619-158f36eaead8"},"vehicle_type_id":"4","last_reported":1706893614,"current_range_meters":0,"station_id":"ce4bhb92rcd13ifvqen0","pricing_plan_id":"free"},{"bike_id":"85960a85-afd6-4d67-9859-0474da495e7b","system_id":"levelo_inurba_marseille","lat":43.29233,"lon":5.38457,"is_reserved":false,"is_disabled":false,"rental_uris":{"android":"levelo://app?vid=85960a85-afd6-4d67-9859-0474da495e7b","ios":"levelo://app?vid=85960a85-afd6-4d67-9859-0474da495e7b"},"vehicle_type_id":"4","last_reported":1706893614,"current_range_meters":12800,"station_id":"ce4bh692rcd13ifvqea0","pricing_plan_id":"free"},{"bike_id":"89d313f3-be45-4493-9b94-a4b49fc0f68a","system_id":"levelo_inurba_marseille","lat":43.29101,"lon":5.3813,"is_reserved":false,"is_disabled":false,"rental_uris":{"android":"levelo://app?vid=89d313f3-be45-4493-9b94-a4b49fc0f68a","ios":"levelo://app?vid=89d313f3-be45-4493-9b94-a4b49fc0f68a"},"vehicle_type_id":"4","last_reported":1706893614,"current_range_meters":0,"station_id":"ce4bh512rcd13ifvqe2g","pricing_plan_id":"free"},{"bike_id":"be703cd0-e97e-46b1-9032-f26bd2402fcf","system_id":"levelo_inurba_marseille","lat":43.295169,"lon":5.390426,"is_reserved":false,"is_disabled":false,"rental_uris":{"android":"levelo://app?vid=be703cd0-e97e-46b1-9032-f26bd2402fcf","ios":"levelo://app?vid=be703cd0-e97e-46b1-9032-f26bd2402fcf"},"vehicle_type_id":"4","last_reported":1706893614,"current_range_meters":10800,"station_id":"ce4bh3p2rcd13ifvqdp0","pricing_plan_id":"free"},{"bike_id":"1623bc1b-23a5-4a7b-bb7a-55f3e2375e31","system_id":"levelo_inurba_marseille","lat":43.295169,"lon":5.390426,"is_reserved":false,"is_disabled":false,"rental_uris":{"android":"levelo://app?vid=1623bc1b-23a5-4a7b-bb7a-55f3e2375e31","ios":"levelo://app?vid=1623bc1b-23a5-4a7b-bb7a-55f3e2375e31"},"vehicle_type_id":"4","last_reported":1706893614,"current_range_meters":30000,"station_id":"ce4bh3p2rcd13ifvqdp0","pricing_plan_id":"free"},{"bike_id":"068bbf21-da2c-4350-9c08-f68afc724708","system_id":"levelo_inurba_marseille","lat":43.289743,"lon":5.378304,"is_reserved":false,"is_disabled":false,"rental_uris":{"android":"levelo://app?vid=068bbf21-da2c-4350-9c08-f68afc724708","ios":"levelo://app?vid=068bbf21-da2c-4350-9c08-f68afc724708"},"vehicle_type_id":"4","last_reported":1706893614,"current_range_meters":0,"station_id":"ce4bh9p2rcd13ifvqed0","pricing_plan_id":"free"},{"bike_id":"37d5312b-48ce-463b-8a79-12ca0134a456","system_id":"levelo_inurba_marseille","lat":43.33024,"lon":5.39039,"is_reserved":false,"is_disabled":false,"rental_uris":{"android":"levelo://app?vid=37d5312b-48ce-463b-8a79-12ca0134a456","ios":"levelo://app?vid=37d5312b-48ce-463b-8a79-12ca0134a456"},"vehicle_type_id":"4","last_reported":1706893614,"current_range_meters":31200,"station_id":"ce4bhr92rcd13ifvqhrg","pricing_plan_id":"free"},{"bike_id":"4e664993-0bad-45d9-b552-7c79a994df52","system_id":"levelo_inurba_marseille","lat":43.330442,"lon":5.389148,"is_reserved":false,"is_disabled":false,"rental_uris":{"android":"levelo://app?vid=4e664993-0bad-45d9-b552-7c79a994df52","ios":"levelo://app?vid=4e664993-0bad-45d9-b552-7c79a994df52"},"vehicle_type_id":"4","last_reported":1706893614,"current_range_meters":28400,"station_id":"ce4bhr92rcd13ifvqhrg","pricing_plan_id":"free"},{"bike_id":"8076ca9f-27b2-41aa-ba0d-1fde78a02105","system_id":"levelo_inurba_marseille","lat":43.295169,"lon":5.390426,"is_reserved":false,"is_disabled":false,"rental_uris":{"android":"levelo://app?vid=8076ca9f-27b2-41aa-ba0d-1fde78a02105","ios":"levelo://app?vid=8076ca9f-27b2-41aa-ba0d-1fde78a02105"},"vehicle_type_id":"4","last_reported":1706893614,"current_range_meters":800,"station_id":"ce4bh3p2rcd13ifvqdp0","pricing_plan_id":"free"},{"bike_id":"9e7521bf-f515-4db8-9b46-310313905c76","system_id":"levelo_inurba_marseille","lat":43.297815,"lon":5.393548,"is_reserved":false,"is_disabled":false,"rental_uris":{"android":"levelo://app?vid=9e7521bf-f515-4db8-9b46-310313905c76","ios":"levelo://app?vid=9e7521bf-f515-4db8-9b46-310313905c76"},"vehicle_type_id":"4","last_reported":1706893614,"current_range_meters":19200,"station_id":"chh1huq6cuj3fo74tm60","pricing_plan_id":"free"},{"bike_id":"3d6b6f68-de54-43e8-85e4-183785416e5a","system_id":"levelo_inurba_marseille","lat":43.295169,"lon":5.390426,"is_reserved":false,"is_disabled":false,"rental_uris":{"android":"levelo://app?vid=3d6b6f68-de54-43e8-85e4-183785416e5a","ios":"levelo://app?vid=3d6b6f68-de54-43e8-85e4-183785416e5a"},"vehicle_type_id":"4","last_reported":1706893614,"current_range_meters":10000,"station_id":"ce4bh3p2rcd13ifvqdp0","pricing_plan_id":"free"},{"bike_id":"c4c3e147-802f-41bc-83b6-586ecd62353c","system_id":"levelo_inurba_marseille","lat":43.297548,"lon":5.393424,"is_reserved":false,"is_disabled":false,"rental_uris":{"android":"levelo://app?vid=c4c3e147-802f-41bc-83b6-586ecd62353c","ios":"levelo://app?vid=c4c3e147-802f-41bc-83b6-586ecd62353c"},"vehicle_type_id":"4","last_reported":1706893614,"current_range_meters":19600,"station_id":"ce4bgip2rcd13ifvqbb0","pricing_plan_id":"free"},{"bike_id":"60619f01-d613-4796-9382-64bf15b3216d","system_id":"levelo_inurba_marseille","lat":43.295169,"lon":5.390426,"is_reserved":false,"is_disabled":false,"rental_uris":{"android":"levelo://app?vid=60619f01-d613-4796-9382-64bf15b3216d","ios":"levelo://app?vid=60619f01-d613-4796-9382-64bf15b3216d"},"vehicle_type_id":"4","last_reported":1706893614,"current_range_meters":24000,"station_id":"ce4bh3p2rcd13ifvqdp0","pricing_plan_id":"free"},{"bike_id":"5cd68196-1328-4d8c-8241-e73a5604e640","system_id":"levelo_inurba_marseille","lat":43.29529,"lon":5.3908,"is_reserved":false,"is_disabled":false,"rental_uris":{"android":"levelo://app?vid=5cd68196-1328-4d8c-8241-e73a5604e640","ios":"levelo://app?vid=5cd68196-1328-4d8c-8241-e73a5604e640"},"vehicle_type_id":"4","last_reported":1706893614,"current_range_meters":3600,"station_id":"ce4bh3p2rcd13ifvqdp0","pricing_plan_id":"free"},{"bike_id":"ab915b1d-f85e-4a72-9789-c475c578c397","system_id":"levelo_inurba_marseille","lat":43.28856,"lon":5.358371,"is_reserved":false,"is_disabled":false,"rental_uris":{"android":"levelo://app?vid=ab915b1d-f85e-4a72-9789-c475c578c397","ios":"levelo://app?vid=ab915b1d-f85e-4a72-9789-c475c578c397"},"vehicle_type_id":"4","last_reported":1706893614,"current_range_meters":22400,"station_id":"ce4bhb12rcd13ifvqem0","pricing_plan_id":"free"},{"bike_id":"9cb6dd07-43ce-4655-ba85-f2afacb20398","system_id":"levelo_inurba_marseille","lat":43.29157,"lon":5.38485,"is_reserved":false,"is_disabled":false,"rental_uris":{"android":"levelo://app?vid=9cb6dd07-43ce-4655-ba85-f2afacb20398","ios":"levelo://app?vid=9cb6dd07-43ce-4655-ba85-f2afacb20398"},"vehicle_type_id":"4","last_reported":1706893614,"current_range_meters":15200,"station_id":"","pricing_plan_id":"free"},{"bike_id":"80a30914-6e78-4daf-8215-4aaf7a504411","system_id":"levelo_inurba_marseille","lat":43.301117,"lon":5.398795,"is_reserved":false,"is_disabled":false,"rental_uris":{"android":"levelo://app?vid=80a30914-6e78-4daf-8215-4aaf7a504411","ios":"levelo://app?vid=80a30914-6e78-4daf-8215-4aaf7a504411"},"vehicle_type_id":"4","last_reported":1706893614,"current_range_meters":27600,"station_id":"ce4bh0h2rcd13ifvqd40","pricing_plan_id":"free"},{"bike_id":"a693be26-d51d-4635-bbd8-1f98ddaeba30","system_id":"levelo_inurba_marseille","lat":43.337389,"lon":5.374614,"is_reserved":false,"is_disabled":false,"rental_uris":{"android":"levelo://app?vid=a693be26-d51d-4635-bbd8-1f98ddaeba30","ios":"levelo://app?vid=a693be26-d51d-4635-bbd8-1f98ddaeba30"},"vehicle_type_id":"4","last_reported":1706893614,"current_range_meters":29600,"station_id":"","pricing_plan_id":"free"},{"bike_id":"6250c11d-b522-4d48-9eda-d25f7c73c407","system_id":"levelo_inurba_marseille","lat":43.312609,"lon":5.401662,"is_reserved":false,"is_disabled":false,"rental_uris":{"android":"levelo://app?vid=6250c11d-b522-4d48-9eda-d25f7c73c407","ios":"levelo://app?vid=6250c11d-b522-4d48-9eda-d25f7c73c407"},"vehicle_type_id":"4","last_reported":1706893614,"current_range_meters":0,"station_id":"ce4bh092rcd13ifvqd30","pricing_plan_id":"free"},{"bike_id":"6b4dc34e-3f5c-47c0-bd01-bcef851f3e16","system_id":"levelo_inurba_marseille","lat":43.312609,"lon":5.401662,"is_reserved":false,"is_disabled":false,"rental_uris":{"android":"levelo://app?vid=6b4dc34e-3f5c-47c0-bd01-bcef851f3e16","ios":"levelo://app?vid=6b4dc34e-3f5c-47c0-bd01-bcef851f3e16"},"vehicle_type_id":"4","last_reported":1706893614,"current_range_meters":14800,"station_id":"ce4bh092rcd13ifvqd30","pricing_plan_id":"free"},{"bike_id":"3a4684ab-ee62-461d-9a94-50bf2f958012","system_id":"levelo_inurba_marseille","lat":43.312609,"lon":5.401662,"is_reserved":false,"is_disabled":false,"rental_uris":{"android":"levelo://app?vid=3a4684ab-ee62-461d-9a94-50bf2f958012","ios":"levelo://app?vid=3a4684ab-ee62-461d-9a94-50bf2f958012"},"vehicle_type_id":"4","last_reported":1706893614,"current_range_meters":13600,"station_id":"ce4bh092rcd13ifvqd30","pricing_plan_id":"free"},{"bike_id":"3667af2b-387d-4593-8241-f3cb1e2c402b","system_id":"levelo_inurba_marseille","lat":43.31282,"lon":5.40172,"is_reserved":false,"is_disabled":false,"rental_uris":{"android":"levelo://app?vid=3667af2b-387d-4593-8241-f3cb1e2c402b","ios":"levelo://app?vid=3667af2b-387d-4593-8241-f3cb1e2c402b"},"vehicle_type_id":"4","last_reported":1706893614,"current_range_meters":2400,"station_id":"ce4bh092rcd13ifvqd30","pricing_plan_id":"free"},{"bike_id":"e2d4d079-cc66-4f38-adc8-060273bea7e7","system_id":"levelo_inurba_marseille","lat":43.33749,"lon":5.37446,"is_reserved":false,"is_disabled":false,"rental_uris":{"android":"levelo://app?vid=e2d4d079-cc66-4f38-adc8-060273bea7e7","ios":"levelo://app?vid=e2d4d079-cc66-4f38-adc8-060273bea7e7"},"vehicle_type_id":"4","last_reported":1706893614,"current_range_meters":800,"station_id":"","pricing_plan_id":"free"},{"bike_id":"cd672a3e-266e-4c2b-845a-e3817f4093ec","system_id":"levelo_inurba_marseille","lat":43.33751,"lon":5.37454,"is_reserved":false,"is_disabled":false,"rental_uris":{"android":"levelo://app?vid=cd672a3e-266e-4c2b-845a-e3817f4093ec","ios":"levelo://app?vid=cd672a3e-266e-4c2b-845a-e3817f4093ec"},"vehicle_type_id":"4","last_reported":1706893614,"current_range_meters":8400,"station_id":"","pricing_plan_id":"free"},{"bike_id":"0aca2214-6738-4ad0-ba13-439e119f904d","system_id":"levelo_inurba_marseille","lat":43.33754,"lon":5.37445,"is_reserved":false,"is_disabled":false,"rental_uris":{"android":"levelo://app?vid=0aca2214-6738-4ad0-ba13-439e119f904d","ios":"levelo://app?vid=0aca2214-6738-4ad0-ba13-439e119f904d"},"vehicle_type_id":"4","last_reported":1706893614,"current_range_meters":28000,"station_id":"","pricing_plan_id":"free"},{"bike_id":"ed81199d-a52c-48d5-94a1-6ba32c179aa9","system_id":"levelo_inurba_marseille","lat":43.30667,"lon":5.40083,"is_reserved":false,"is_disabled":false,"rental_uris":{"android":"levelo://app?vid=ed81199d-a52c-48d5-94a1-6ba32c179aa9","ios":"levelo://app?vid=ed81199d-a52c-48d5-94a1-6ba32c179aa9"},"vehicle_type_id":"4","last_reported":1706893614,"current_range_meters":31200,"station_id":"ce4bh112rcd13ifvqda0","pricing_plan_id":"free"},{"bike_id":"fbd79014-8443-4fa8-a575-118d08a47cbc","system_id":"levelo_inurba_marseille","lat":43.33762,"lon":5.37432,"is_reserved":false,"is_disabled":false,"rental_uris":{"android":"levelo://app?vid=fbd79014-8443-4fa8-a575-118d08a47cbc","ios":"levelo://app?vid=fbd79014-8443-4fa8-a575-118d08a47cbc"},"vehicle_type_id":"4","last_reported":1706893614,"current_range_meters":25600,"station_id":"","pricing_plan_id":"free"},{"bike_id":"9fe0f38d-623a-43db-80fb-0c11833c0ac1","system_id":"levelo_inurba_marseille","lat":43.301117,"lon":5.398795,"is_reserved":false,"is_disabled":false,"rental_uris":{"android":"levelo://app?vid=9fe0f38d-623a-43db-80fb-0c11833c0ac1","ios":"levelo://app?vid=9fe0f38d-623a-43db-80fb-0c11833c0ac1"},"vehicle_type_id":"4","last_reported":1706893614,"current_range_meters":3200,"station_id":"ce4bh0h2rcd13ifvqd40","pricing_plan_id":"free"},{"bike_id":"6938d868-4aa0-4133-963a-53151e594341","system_id":"levelo_inurba_marseille","lat":43.28727,"lon":5.36078,"is_reserved":false,"is_disabled":false,"rental_uris":{"android":"levelo://app?vid=6938d868-4aa0-4133-963a-53151e594341","ios":"levelo://app?vid=6938d868-4aa0-4133-963a-53151e594341"},"vehicle_type_id":"4","last_reported":1706893614,"current_range_meters":22400,"station_id":"cki0cbj6b192h4jlfktg","pricing_plan_id":"free"},{"bike_id":"c5149856-b3ef-4349-8d13-e6853944959c","system_id":"levelo_inurba_marseille","lat":43.302355,"lon":5.399887,"is_reserved":false,"is_disabled":false,"rental_uris":{"android":"levelo://app?vid=c5149856-b3ef-4349-8d13-e6853944959c","ios":"levelo://app?vid=c5149856-b3ef-4349-8d13-e6853944959c"},"vehicle_type_id":"4","last_reported":1706893614,"current_range_meters":400,"station_id":"","pricing_plan_id":"free"},{"bike_id":"4f411edc-c9e8-4392-b4be-bd2cafd8f99a","system_id":"levelo_inurba_marseille","lat":43.286591,"lon":5.363346,"is_reserved":false,"is_disabled":false,"rental_uris":{"android":"levelo://app?vid=4f411edc-c9e8-4392-b4be-bd2cafd8f99a","ios":"levelo://app?vid=4f411edc-c9e8-4392-b4be-bd2cafd8f99a"},"vehicle_type_id":"4","last_reported":1706893614,"current_range_meters":18000,"station_id":"ce4bhah2rcd13ifvqej0","pricing_plan_id":"free"},{"bike_id":"ee689c46-001b-4a34-b538-2689eb8b41b2","system_id":"levelo_inurba_marseille","lat":43.295196,"lon":5.39397,"is_reserved":false,"is_disabled":false,"rental_uris":{"android":"levelo://app?vid=ee689c46-001b-4a34-b538-2689eb8b41b2","ios":"levelo://app?vid=ee689c46-001b-4a34-b538-2689eb8b41b2"},"vehicle_type_id":"4","last_reported":1706893614,"current_range_meters":400,"station_id":"ce4bh292rcd13ifvqdf0","pricing_plan_id":"free"},{"bike_id":"94d5630f-a819-4c9e-a9a5-bb13c18d5bac","system_id":"levelo_inurba_marseille","lat":43.286961,"lon":5.373785,"is_reserved":false,"is_disabled":false,"rental_uris":{"android":"levelo://app?vid=94d5630f-a819-4c9e-a9a5-bb13c18d5bac","ios":"levelo://app?vid=94d5630f-a819-4c9e-a9a5-bb13c18d5bac"},"vehicle_type_id":"4","last_reported":1706893614,"current_range_meters":8000,"station_id":"ce4bh3p2rcd13ifvqdq0","pricing_plan_id":"free"},{"bike_id":"d8e58c9d-e151-41ce-97ed-876021d641b3","system_id":"levelo_inurba_marseille","lat":43.295196,"lon":5.39397,"is_reserved":false,"is_disabled":false,"rental_uris":{"android":"levelo://app?vid=d8e58c9d-e151-41ce-97ed-876021d641b3","ios":"levelo://app?vid=d8e58c9d-e151-41ce-97ed-876021d641b3"},"vehicle_type_id":"4","last_reported":1706893614,"current_range_meters":8800,"station_id":"ce4bh292rcd13ifvqdf0","pricing_plan_id":"free"},{"bike_id":"6c32bb8b-309d-4269-a3af-77b9781bd871","system_id":"levelo_inurba_marseille","lat":43.295194,"lon":5.39397,"is_reserved":false,"is_disabled":false,"rental_uris":{"android":"levelo://app?vid=6c32bb8b-309d-4269-a3af-77b9781bd871","ios":"levelo://app?vid=6c32bb8b-309d-4269-a3af-77b9781bd871"},"vehicle_type_id":"4","last_reported":1706893614,"current_range_meters":26000,"station_id":"ce4bh292rcd13ifvqdf0","pricing_plan_id":"free"},{"bike_id":"7f8ecdd2-4145-4bc1-a123-aaa8d55a7dc9","system_id":"levelo_inurba_marseille","lat":43.295196,"lon":5.39397,"is_reserved":false,"is_disabled":false,"rental_uris":{"android":"levelo://app?vid=7f8ecdd2-4145-4bc1-a123-aaa8d55a7dc9","ios":"levelo://app?vid=7f8ecdd2-4145-4bc1-a123-aaa8d55a7dc9"},"vehicle_type_id":"4","last_reported":1706893614,"current_range_meters":2800,"station_id":"ce4bh292rcd13ifvqdf0","pricing_plan_id":"free"},{"bike_id":"d8572ffe-c6ba-4be8-8c6d-1cd8d00bc69d","system_id":"levelo_inurba_marseille","lat":43.289307,"lon":5.38406,"is_reserved":false,"is_disabled":false,"rental_uris":{"android":"levelo://app?vid=d8572ffe-c6ba-4be8-8c6d-1cd8d00bc69d","ios":"levelo://app?vid=d8572ffe-c6ba-4be8-8c6d-1cd8d00bc69d"},"vehicle_type_id":"4","last_reported":1706893614,"current_range_meters":4000,"station_id":"ce4bh612rcd13ifvqe6g","pricing_plan_id":"free"},{"bike_id":"dd7ceca3-72e5-4d0f-a578-042cb6cef005","system_id":"levelo_inurba_marseille","lat":43.290336,"lon":5.386425,"is_reserved":false,"is_disabled":false,"rental_uris":{"android":"levelo://app?vid=dd7ceca3-72e5-4d0f-a578-042cb6cef005","ios":"levelo://app?vid=dd7ceca3-72e5-4d0f-a578-042cb6cef005"},"vehicle_type_id":"4","last_reported":1706893614,"current_range_meters":8000,"station_id":"ce4bh4p2rcd13ifvqe0g","pricing_plan_id":"free"},{"bike_id":"c854d447-f584-40d3-8d94-229e5041d60c","system_id":"levelo_inurba_marseille","lat":43.289307,"lon":5.38406,"is_reserved":false,"is_disabled":false,"rental_uris":{"android":"levelo://app?vid=c854d447-f584-40d3-8d94-229e5041d60c","ios":"levelo://app?vid=c854d447-f584-40d3-8d94-229e5041d60c"},"vehicle_type_id":"4","last_reported":1706893614,"current_range_meters":3200,"station_id":"ce4bh612rcd13ifvqe6g","pricing_plan_id":"free"},{"bike_id":"5fbfff3b-a395-426d-8318-696f6b41ccdd","system_id":"levelo_inurba_marseille","lat":43.287184,"lon":5.37937,"is_reserved":false,"is_disabled":false,"rental_uris":{"android":"levelo://app?vid=5fbfff3b-a395-426d-8318-696f6b41ccdd","ios":"levelo://app?vid=5fbfff3b-a395-426d-8318-696f6b41ccdd"},"vehicle_type_id":"4","last_reported":1706893614,"current_range_meters":9600,"station_id":"ce4bh9p2rcd13ifvqec0","pricing_plan_id":"free"},{"bike_id":"79cadbe4-ed40-4ccc-b8eb-7dc11b96043b","system_id":"levelo_inurba_marseille","lat":43.316186,"lon":5.404063,"is_reserved":false,"is_disabled":false,"rental_uris":{"android":"levelo://app?vid=79cadbe4-ed40-4ccc-b8eb-7dc11b96043b","ios":"levelo://app?vid=79cadbe4-ed40-4ccc-b8eb-7dc11b96043b"},"vehicle_type_id":"4","last_reported":1706893614,"current_range_meters":12000,"station_id":"ce4bh012rcd13ifvqcv0","pricing_plan_id":"free"},{"bike_id":"a93eec3e-c0ab-417a-b26d-9bf769432897","system_id":"levelo_inurba_marseille","lat":43.324771,"lon":5.36557,"is_reserved":false,"is_disabled":false,"rental_uris":{"android":"levelo://app?vid=a93eec3e-c0ab-417a-b26d-9bf769432897","ios":"levelo://app?vid=a93eec3e-c0ab-417a-b26d-9bf769432897"},"vehicle_type_id":"4","last_reported":1706893614,"current_range_meters":10800,"station_id":"ce4bhs12rcd13ifvqhvg","pricing_plan_id":"free"},{"bike_id":"eec10a30-545d-4b8e-9767-7416b164717c","system_id":"levelo_inurba_marseille","lat":43.316828,"lon":5.404723,"is_reserved":false,"is_disabled":false,"rental_uris":{"android":"levelo://app?vid=eec10a30-545d-4b8e-9767-7416b164717c","ios":"levelo://app?vid=eec10a30-545d-4b8e-9767-7416b164717c"},"vehicle_type_id":"4","last_reported":1706893614,"current_range_meters":22400,"station_id":"ce4bh012rcd13ifvqd00","pricing_plan_id":"free"},{"bike_id":"bb668f0f-312f-404c-ad12-a1fed9464ac3","system_id":"levelo_inurba_marseille","lat":43.316828,"lon":5.404723,"is_reserved":false,"is_disabled":false,"rental_uris":{"android":"levelo://app?vid=bb668f0f-312f-404c-ad12-a1fed9464ac3","ios":"levelo://app?vid=bb668f0f-312f-404c-ad12-a1fed9464ac3"},"vehicle_type_id":"4","last_reported":1706893614,"current_range_meters":0,"station_id":"ce4bh012rcd13ifvqd00","pricing_plan_id":"free"},{"bike_id":"acb36871-eb43-46b5-9680-7c9a3791e638","system_id":"levelo_inurba_marseille","lat":43.31687,"lon":5.40475,"is_reserved":false,"is_disabled":false,"rental_uris":{"android":"levelo://app?vid=acb36871-eb43-46b5-9680-7c9a3791e638","ios":"levelo://app?vid=acb36871-eb43-46b5-9680-7c9a3791e638"},"vehicle_type_id":"4","last_reported":1706893614,"current_range_meters":22000,"station_id":"ce4bh012rcd13ifvqd00","pricing_plan_id":"free"},{"bike_id":"3088a2f1-6505-4cc3-88fc-a19628fdc962","system_id":"levelo_inurba_marseille","lat":43.31684,"lon":5.40476,"is_reserved":false,"is_disabled":false,"rental_uris":{"android":"levelo://app?vid=3088a2f1-6505-4cc3-88fc-a19628fdc962","ios":"levelo://app?vid=3088a2f1-6505-4cc3-88fc-a19628fdc962"},"vehicle_type_id":"4","last_reported":1706893614,"current_range_meters":30000,"station_id":"ce4bh012rcd13ifvqd00","pricing_plan_id":"free"},{"bike_id":"b6c86a2f-d3cc-4349-8d61-c11ee14e4192","system_id":"levelo_inurba_marseille","lat":43.29564,"lon":5.39728,"is_reserved":false,"is_disabled":false,"rental_uris":{"android":"levelo://app?vid=b6c86a2f-d3cc-4349-8d61-c11ee14e4192","ios":"levelo://app?vid=b6c86a2f-d3cc-4349-8d61-c11ee14e4192"},"vehicle_type_id":"4","last_reported":1706893614,"current_range_meters":22400,"station_id":"","pricing_plan_id":"free"},{"bike_id":"7f43f55c-1eca-4cbe-9b5e-54333848360f","system_id":"levelo_inurba_marseille","lat":43.291994,"lon":5.392907,"is_reserved":false,"is_disabled":false,"rental_uris":{"android":"levelo://app?vid=7f43f55c-1eca-4cbe-9b5e-54333848360f","ios":"levelo://app?vid=7f43f55c-1eca-4cbe-9b5e-54333848360f"},"vehicle_type_id":"4","last_reported":1706893614,"current_range_meters":12400,"station_id":"ce4bh192rcd13ifvqdd0","pricing_plan_id":"free"},{"bike_id":"7e7acc83-0d12-47ec-bb9a-f4a6d8392790","system_id":"levelo_inurba_marseille","lat":43.291994,"lon":5.392907,"is_reserved":false,"is_disabled":false,"rental_uris":{"android":"levelo://app?vid=7e7acc83-0d12-47ec-bb9a-f4a6d8392790","ios":"levelo://app?vid=7e7acc83-0d12-47ec-bb9a-f4a6d8392790"},"vehicle_type_id":"4","last_reported":1706893614,"current_range_meters":8400,"station_id":"ce4bh192rcd13ifvqdd0","pricing_plan_id":"free"},{"bike_id":"fabd8f30-ad18-4d38-b165-8b5585b7bd1f","system_id":"levelo_inurba_marseille","lat":43.291994,"lon":5.392907,"is_reserved":false,"is_disabled":false,"rental_uris":{"android":"levelo://app?vid=fabd8f30-ad18-4d38-b165-8b5585b7bd1f","ios":"levelo://app?vid=fabd8f30-ad18-4d38-b165-8b5585b7bd1f"},"vehicle_type_id":"4","last_reported":1706893614,"current_range_meters":19600,"station_id":"ce4bh192rcd13ifvqdd0","pricing_plan_id":"free"},{"bike_id":"a6d6b651-1a00-4230-82fc-8717e5bcdb61","system_id":"levelo_inurba_marseille","lat":43.284534,"lon":5.358662,"is_reserved":false,"is_disabled":false,"rental_uris":{"android":"levelo://app?vid=a6d6b651-1a00-4230-82fc-8717e5bcdb61","ios":"levelo://app?vid=a6d6b651-1a00-4230-82fc-8717e5bcdb61"},"vehicle_type_id":"4","last_reported":1706893614,"current_range_meters":20000,"station_id":"ce4bhah2rcd13ifvqei0","pricing_plan_id":"free"},