{"last_updated":1773951929,"ttl":60,"version":"2.2","data":{"bikes":[{"bike_id":"c539bd65-0e65-469f-b4ed-962f8c4aff1f","system_id":"levelo_inurba_marseille","lat":43.28665,"lon":5.36354,"is_reserved":false,"is_disabled":false,"rental_uris":{"android":"levelo://app?vid=c539bd65-0e65-469f-b4ed-962f8c4aff1f","ios":"levelo://app?vid=c539bd65-0e65-469f-b4ed-962f8c4aff1f"},"vehicle_type_id":"4","last_reported":1773951930,"current_range_meters":2800,"station_id":"ce4bhah2rcd13ifvqej0","pricing_plan_id":"cebpf4jnsgd1na2vs0mg"},{"bike_id":"082a3b51-46fc-436c-a690-c458349e2b78","system_id":"levelo_inurba_marseille","lat":43.29271,"lon":5.38433,"is_reserved":false,"is_disabled":false,"rental_uris":{"android":"levelo://app?vid=082a3b51-46fc-436c-a690-c458349e2b78","ios":"levelo://app?vid=082a3b51-46fc-436c-a690-c458349e2b78"},"vehicle_type_id":"4","last_reported":1773951930,"current_range_meters":2800,"station_id":"ce4bh692rcd13ifvqea0","pricing_plan_id":"cebpf4jnsgd1na2vs0mg"},{"bike_id":"a456198f-3b15-417f-a5a2-f7fb7f4bd937","system_id":"levelo_inurba_marseille","lat":43.32437,"lon":5.37399,"is_reserved":false,"is_disabled":false,"rental_uris":{"android":"levelo://app?vid=a456198f-3b15-417f-a5a2-f7fb7f4bd937","ios":"levelo://app?vid=a456198f-3b15-417f-a5a2-f7fb7f4bd937"},"vehicle_type_id":"4","last_reported":1773951930,"current_range_meters":2800,"station_id":"","pricing_plan_id":"cebpf4jnsgd1na2vs0mg"},{"bike_id":"e2cc4b12-6d16-48d1-9098-5d8871dab6d4","system_id":"levelo_inurba_marseille","lat":43.29522,"lon":5.39029,"is_reserved":false,"is_disabled":false,"rental_uris":{"android":"levelo://app?vid=e2cc4b12-6d16-48d1-9098-5d8871dab6d4","ios":"levelo://app?vid=e2cc4b12-6d16-48d1-9098-5d8871dab6d4"},"vehicle_type_id":"4","last_reported":1773951930,"current_range_meters":2800,"station_id":"ce4bh3p2rcd13ifvqdp0","pricing_plan_id":"cebpf4jnsgd1na2vs0mg"},{"bike_id":"1835d134-aa60-491b-98ba-9ebfed3004cb","system_id":"levelo_inurba_marseille","lat":43.27992,"lon":5.40021,"is_reserved":false,"is_disabled":false,"rental_uris":{"android":"levelo://app?vid=1835d134-aa60-491b-98ba-9ebfed3004cb","ios":"levelo://app?vid=1835d134-aa60-491b-98ba-9ebfed3004cb"},"vehicle_type_id":"4","last_reported":1773951930,"current_range_meters":2800,"station_id":"ce4bho92rcd13ifvqh4g","pricing_plan_id":"cebpf4jnsgd1na2vs0mg"},{"bike_id":"7eef0b8b-8b88-41d8-89b3-c7d44733b5ad","system_id":"levelo_inurba_marseille","lat":43.30161,"lon":5.3812,"is_reserved":false,"is_disabled":true,"rental_uris":{"android":"levelo://app?vid=7eef0b8b-8b88-41d8-89b3-c7d44733b5ad","ios":"levelo://app?vid=7eef0b8b-8b88-41d8-89b3-c7d44733b5ad"},"vehicle_type_id":"4","last_reported":1773951930,"current_range_meters":2800,"station_id":"ce4bgjp2rcd13ifvqbh0","pricing_plan_id":"cebpf4jnsgd1na2vs0mg"},{"bike_id":"fba488f1-9397-49d4-9e0a-afbcae468949","system_id":"levelo_inurba_marseille","lat":43.30801,"lon":5.41347,"is_reserved":false,"is_disabled":false,"rental_uris":{"android":"levelo://app?vid=fba488f1-9397-49d4-9e0a-afbcae468949","ios":"levelo://app?vid=fba488f1-9397-49d4-9e0a-afbcae468949"},"vehicle_type_id":"4","last_reported":1773951930,"current_range_meters":2800,"station_id":"","pricing_plan_id":"cebpf4jnsgd1na2vs0mg"},{"bike_id":"09e10eda-5428-4eef-bc71-8eaa49fd754f","system_id":"levelo_inurba_marseille","lat":43.286,"lon":5.35091,"is_reserved":false,"is_disabled":false,"rental_uris":{"android":"levelo://app?vid=09e10eda-5428-4eef-bc71-8eaa49fd754f","ios":"levelo://app?vid=09e10eda-5428-4eef-bc71-8eaa49fd754f"},"vehicle_type_id":"4","last_reported":1773951930,"current_range_meters":2800,"station_id":"ce4bhch2rcd13ifvqeug","pricing_plan_id":"cebpf4jnsgd1na2vs0mg"},{"bike_id":"37688e3c-3133-492b-b2fc-6272ecb0ea8d","system_id":"levelo_inurba_marseille","lat":43.2935,"lon":5.37406,"is_reserved":false,"is_disabled":false,"rental_uris":{"android":"levelo://app?vid=37688e3c-3133-492b-b2fc-6272ecb0ea8d","ios":"levelo://app?vid=37688e3c-3133-492b-b2fc-6272ecb0ea8d"},"vehicle_type_id":"4","last_reported":1773951930,"current_range_meters":2800,"station_id":"","pricing_plan_id":"cebpf4jnsgd1na2vs0mg"},{"bike_id":"21dc2f8a-000d-4e1f-a512-8c7951c87de3","system_id":"levelo_inurba_marseille","lat":43.29531,"lon":5.38544,"is_reserved":false,"is_disabled":false,"rental_uris":{"android":"levelo://app?vid=21dc2f8a-000d-4e1f-a512-8c7951c87de3","ios":"levelo://app?vid=21dc2f8a-000d-4e1f-a512-8c7951c87de3"},"vehicle_type_id":"4","last_reported":1773951930,"current_range_meters":2800,"station_id":"ce4bgih2rcd13ifvqba0","pricing_plan_id":"cebpf4jnsgd1na2vs0mg"},{"bike_id":"66f73c39-0850-4881-9298-daf780603d05","system_id":"levelo_inurba_marseille","lat":43.30156,"lon":5.38075,"is_reserved":false,"is_disabled":false,"rental_uris":{"android":"levelo://app?vid=66f73c39-0850-4881-9298-daf780603d05","ios":"levelo://app?vid=66f73c39-0850-4881-9298-daf780603d05"},"vehicle_type_id":"4","last_reported":1773951930,"current_range_meters":2800,"station_id":"ce4bgjp2rcd13ifvqbh0","pricing_plan_id":"cebpf4jnsgd1na2vs0mg"},{"bike_id":"e3bb0bf1-4261-472e-8a7f-2e9efae74773","system_id":"levelo_inurba_marseille","lat":43.2928,"lon":5.40098,"is_reserved":false,"is_disabled":false,"rental_uris":{"android":"levelo://app?vid=e3bb0bf1-4261-472e-8a7f-2e9efae74773","ios":"levelo://app?vid=e3bb0bf1-4261-472e-8a7f-2e9efae74773"},"vehicle_type_id":"4","last_reported":1773951930,"current_range_meters":2800,"station_id":"ce4bh312rcd13ifvqdk0","pricing_plan_id":"cebpf4jnsgd1na2vs0mg"},{"bike_id":"78091c84-79e3-435f-8ee3-e135a643baae","system_id":"levelo_inurba_marseille","lat":43.31241,"lon":5.38444,"is_reserved":false,"is_disabled":false,"rental_uris":{"android":"levelo://app?vid=78091c84-79e3-435f-8ee3-e135a643baae","ios":"levelo://app?vid=78091c84-79e3-435f-8ee3-e135a643baae"},"vehicle_type_id":"4","last_reported":1773951930,"current_range_meters":2800,"station_id":"","pricing_plan_id":"cebpf4jnsgd1na2vs0mg"},{"bike_id":"bca27263-a4e7-44ac-90e3-d0a09aa0e436","system_id":"levelo_inurba_marseille","lat":43.28687,"lon":5.38676,"is_reserved":false,"is_disabled":false,"rental_uris":{"android":"levelo://app?vid=bca27263-a4e7-44ac-90e3-d0a09aa0e436","ios":"levelo://app?vid=bca27263-a4e7-44ac-90e3-d0a09aa0e436"},"vehicle_type_id":"4","last_reported":1773951930,"current_range_meters":2800,"station_id":"ce4bh492rcd13ifvqdug","pricing_plan_id":"cebpf4jnsgd1na2vs0mg"},{"bike_id":"e107cb22-a13d-4c03-93ce-8114e06b9a0f","system_id":"levelo_inurba_marseille","lat":43.28495,"lon":5.48373,"is_reserved":false,"is_disabled":false,"rental_uris":{"android":"levelo://app?vid=e107cb22-a13d-4c03-93ce-8114e06b9a0f","ios":"levelo://app?vid=e107cb22-a13d-4c03-93ce-8114e06b9a0f"},"vehicle_type_id":"4","last_reported":1773951930,"current_range_meters":2800,"station_id":"","pricing_plan_id":"cebpf4jnsgd1na2vs0mg"},{"bike_id":"02b775a4-9cf6-4890-9683-92e3f7881c47","system_id":"levelo_inurba_marseille","lat":43.2988,"lon":5.38905,"is_reserved":false,"is_disabled":false,"rental_uris":{"android":"levelo://app?vid=02b775a4-9cf6-4890-9683-92e3f7881c47","ios":"levelo://app?vid=02b775a4-9cf6-4890-9683-92e3f7881c47"},"vehicle_type_id":"4","last_reported":1773951930,"current_range_meters":2800,"station_id":"ce4bh392rcd13ifvqdl0","pricing_plan_id":"cebpf4jnsgd1na2vs0mg"},{"bike_id":"3af244c2-f7dd-423e-9089-38e656165684","system_id":"levelo_inurba_marseille","lat":43.30161,"lon":5.38806,"is_reserved":false,"is_disabled":false,"rental_uris":{"android":"levelo://app?vid=3af244c2-f7dd-423e-9089-38e656165684","ios":"levelo://app?vid=3af244c2-f7dd-423e-9089-38e656165684"},"vehicle_type_id":"4","last_reported":1773951930,"current_range_meters":2800,"station_id":"ce4bghh2rcd13ifvqb60","pricing_plan_id":"cebpf4jnsgd1na2vs0mg"},{"bike_id":"8e2e7106-1900-4ab7-9d6a-b62727ac0c3c","system_id":"levelo_inurba_marseille","lat":43.29272,"lon":5.38435,"is_reserved":false,"is_disabled":false,"rental_uris":{"android":"levelo://app?vid=8e2e7106-1900-4ab7-9d6a-b62727ac0c3c","ios":"levelo://app?vid=8e2e7106-1900-4ab7-9d6a-b62727ac0c3c"},"vehicle_type_id":"4","last_reported":1773951930,"current_range_meters":2800,"station_id":"ce4bh692rcd13ifvqea0","pricing_plan_id":"cebpf4jnsgd1na2vs0mg"},{"bike_id":"488022cf-ae8c-4b5a-bfe4-ba5db4a587f4","system_id":"levelo_inurba_marseille","lat":43.31934,"lon":5.36787,"is_reserved":false,"is_disabled":false,"rental_uris":{"android":"levelo://app?vid=488022cf-ae8c-4b5a-bfe4-ba5db4a587f4","ios":"levelo://app?vid=488022cf-ae8c-4b5a-bfe4-ba5db4a587f4"},"vehicle_type_id":"4","last_reported":1773951930,"current_range_meters":2800,"station_id":"ce4bguh2rcd13ifvqcj0","pricing_plan_id":"cebpf4jnsgd1na2vs0mg"},{"bike_id":"8643fa0e-f884-49e4-b313-406227ebf5ab","system_id":"levelo_inurba_marseille","lat":43.29233,"lon":5.38463,"is_reserved":false,"is_disabled":false,"rental_uris":{"android":"levelo://app?vid=8643fa0e-f884-49e4-b313-406227ebf5ab","ios":"levelo://app?vid=8643fa0e-f884-49e4-b313-406227ebf5ab"},"vehicle_type_id":"4","last_reported":1773951930,"current_range_meters":2800,"station_id":"ce4bh692rcd13ifvqea0","pricing_plan_id":"cebpf4jnsgd1na2vs0mg"},{"bike_id":"ef1bb9bf-832c-4e98-94c1-63238ed58d7c","system_id":"levelo_inurba_marseille","lat":43.28725,"lon":5.36078,"is_reserved":false,"is_disabled":false,"rental_uris":{"android":"levelo://app?vid=ef1bb9bf-832c-4e98-94c1-63238ed58d7c","ios":"levelo://app?vid=ef1bb9bf-832c-4e98-94c1-63238ed58d7c"},"vehicle_type_id":"4","last_reported":1773951930,"current_range_meters":2800,"station_id":"cki0cbj6b192h4jlfktg","pricing_plan_id":"cebpf4jnsgd1na2vs0mg"},{"bike_id":"bb00ed0a-8e61-43a6-bd23-df0a78b13d0d","system_id":"levelo_inurba_marseille","lat":43.29193,"lon":5.39326,"is_reserved":false,"is_disabled":false,"rental_uris":{"android":"levelo://app?vid=bb00ed0a-8e61-43a6-bd23-df0a78b13d0d","ios":"levelo://app?vid=bb00ed0a-8e61-43a6-bd23-df0a78b13d0d"},"vehicle_type_id":"4","last_reported":1773951930,"current_range_meters":2800,"station_id":"ce4bh192rcd13ifvqdd0","pricing_plan_id":"cebpf4jnsgd1na2vs0mg"},{"bike_id":"ec622c6c-2b8e-40d8-a29b-0183a7e49719","system_id":"levelo_inurba_marseille","lat":43.28558,"lon":5.44069,"is_reserved":false,"is_disabled":false,"rental_uris":{"android":"levelo://app?vid=ec622c6c-2b8e-40d8-a29b-0183a7e49719","ios":"levelo://app?vid=ec622c6c-2b8e-40d8-a29b-0183a7e49719"},"vehicle_type_id":"4","last_reported":1773951930,"current_range_meters":2800,"station_id":"st_d3j3df2ikq2c7380ej80","pricing_plan_id":"cebpf4jnsgd1na2vs0mg"},{"bike_id":"f98880e8-d6eb-4305-8992-618bd4c5e621","system_id":"levelo_inurba_marseille","lat":43.29995,"lon":5.37162,"is_reserved":false,"is_disabled":false,"rental_uris":{"android":"levelo://app?vid=f98880e8-d6eb-4305-8992-618bd4c5e621","ios":"levelo://app?vid=f98880e8-d6eb-4305-8992-618bd4c5e621"},"vehicle_type_id":"4","last_reported":1773951930,"current_range_meters":2800,"station_id":"ce4bgr92rcd13ifvqc7g","pricing_plan_id":"cebpf4jnsgd1na2vs0mg"},{"bike_id":"f5633142-06b4-41a8-9523-f83ce443c69f","system_id":"levelo_inurba_marseille","lat":43.286096,"lon":5.35101,"is_reserved":false,"is_disabled":false,"rental_uris":{"android":"levelo://app?vid=f5633142-06b4-41a8-9523-f83ce443c69f","ios":"levelo://app?vid=f5633142-06b4-41a8-9523-f83ce443c69f"},"vehicle_type_id":"4","last_reported":1773951930,"current_range_meters":3200,"station_id":"","pricing_plan_id":"cebpf4jnsgd1na2vs0mg"},{"bike_id":"7e13f0af-e4ca-4594-9ce2-d54c2ffd641d","system_id":"levelo_inurba_marseille","lat":43.29036,"lon":5.38764,"is_reserved":false,"is_disabled":false,"rental_uris":{"android":"levelo://app?vid=7e13f0af-e4ca-4594-9ce2-d54c2ffd641d","ios":"levelo://app?vid=7e13f0af-e4ca-4594-9ce2-d54c2ffd641d"},"vehicle_type_id":"4","last_reported":1773951930,"current_range_meters":3200,"station_id":"","pricing_plan_id":"cebpf4jnsgd1na2vs0mg"},{"bike_id":"402a4d19-a3be-4348-9659-ffdbcd086d54","system_id":"levelo_inurba_marseille","lat":43.3112,"lon":5.37761,"is_reserved":false,"is_disabled":false,"rental_uris":{"android":"levelo://app?vid=402a4d19-a3be-4348-9659-ffdbcd086d54","ios":"levelo://app?vid=402a4d19-a3be-4348-9659-ffdbcd086d54"},"vehicle_type_id":"4","last_reported":1773951930,"current_range_meters":3200,"station_id":"ce4bgt92rcd13ifvqcg0","pricing_plan_id":"cebpf4jnsgd1na2vs0mg"},{"bike_id":"d0da5e0b-f428-4a06-9ee2-3f970652bcb5","system_id":"levelo_inurba_marseille","lat":43.290304,"lon":5.386524,"is_reserved":false,"is_disabled":false,"rental_uris":{"android":"levelo://app?vid=d0da5e0b-f428-4a06-9ee2-3f970652bcb5","ios":"levelo://app?vid=d0da5e0b-f428-4a06-9ee2-3f970652bcb5"},"vehicle_type_id":"4","last_reported":1773951930,"current_range_meters":3200,"station_id":"ce4bh4p2rcd13ifvqe0g","pricing_plan_id":"cebpf4jnsgd1na2vs0mg"},{"bike_id":"2cd6d2c4-9839-4b08-8d75-805c4c2214dc","system_id":"levelo_inurba_marseille","lat":43.23047,"lon":5.35497,"is_reserved":false,"is_disabled":false,"rental_uris":{"android":"levelo://app?vid=2cd6d2c4-9839-4b08-8d75-805c4c2214dc","ios":"levelo://app?vid=2cd6d2c4-9839-4b08-8d75-805c4c2214dc"},"vehicle_type_id":"4","last_reported":1773951930,"current_range_meters":3200,"station_id":"cpo3342slgdg3j2ifvpg","pricing_plan_id":"cebpf4jnsgd1na2vs0mg"},{"bike_id":"8a854e0a-3b9f-471d-80f2-bfadb0595e6b","system_id":"levelo_inurba_marseille","lat":43.31586,"lon":5.38329,"is_reserved":false,"is_disabled":false,"rental_uris":{"android":"levelo://app?vid=8a854e0a-3b9f-471d-80f2-bfadb0595e6b","ios":"levelo://app?vid=8a854e0a-3b9f-471d-80f2-bfadb0595e6b"},"vehicle_type_id":"4","last_reported":1773951930,"current_range_meters":3200,"station_id":"","pricing_plan_id":"cebpf4jnsgd1na2vs0mg"},{"bike_id":"cd0ad1b8-13a6-4a77-b504-90d8244cd83a","system_id":"levelo_inurba_marseille","lat":43.2707,"lon":5.42274,"is_reserved":false,"is_disabled":true,"rental_uris":{"android":"levelo://app?vid=cd0ad1b8-13a6-4a77-b504-90d8244cd83a","ios":"levelo://app?vid=cd0ad1b8-13a6-4a77-b504-90d8244cd83a"},"vehicle_type_id":"4","last_reported":1773951930,"current_range_meters":3200,"station_id":"ce4bhk92rcd13ifvqgb0","pricing_plan_id":"cebpf4jnsgd1na2vs0mg"},{"bike_id":"56b97f63-7d68-4f2e-ba6e-3ac28ff4ee85","system_id":"levelo_inurba_marseille","lat":43.29014,"lon":5.38142,"is_reserved":false,"is_disabled":false,"rental_uris":{"android":"levelo://app?vid=56b97f63-7d68-4f2e-ba6e-3ac28ff4ee85","ios":"levelo://app?vid=56b97f63-7d68-4f2e-ba6e-3ac28ff4ee85"},"vehicle_type_id":"4","last_reported":1773951930,"current_range_meters":3200,"station_id":"ce4bh4p2rcd13ifvqe1g","pricing_plan_id":"cebpf4jnsgd1na2vs0mg"},{"bike_id":"f6eef633-bed7-4c4d-bcfd-52d77fe3a5c1","system_id":"levelo_inurba_marseille","lat":43.25334,"lon":5.42166,"is_reserved":false,"is_disabled":false,"rental_uris":{"android":"levelo://app?vid=f6eef633-bed7-4c4d-bcfd-52d77fe3a5c1","ios":"levelo://app?vid=f6eef633-bed7-4c4d-bcfd-52d77fe3a5c1"},"vehicle_type_id":"4","last_reported":1773951930,"current_range_meters":3200,"station_id":"st_d2m65c5bi1j21697t3ng","pricing_plan_id":"cebpf4jnsgd1na2vs0mg"},{"bike_id":"010ebf0d-ed5f-4df3-b063-0b3608df7583","system_id":"levelo_inurba_marseille","lat":43.29717,"lon":5.36624,"is_reserved":false,"is_disabled":false,"rental_uris":{"android":"levelo://app?vid=010ebf0d-ed5f-4df3-b063-0b3608df7583","ios":"levelo://app?vid=010ebf0d-ed5f-4df3-b063-0b3608df7583"},"vehicle_type_id":"4","last_reported":1773951930,"current_range_meters":3200,"station_id":"ce4bgn12rcd13ifvqbt0","pricing_plan_id":"cebpf4jnsgd1na2vs0mg"},{"bike_id":"50c589ba-1ee7-42e5-b2e8-270213ce2a50","system_id":"levelo_inurba_marseille","lat":43.28703,"lon":5.37378,"is_reserved":false,"is_disabled":false,"rental_uris":{"android":"levelo://app?vid=50c589ba-1ee7-42e5-b2e8-270213ce2a50","ios":"levelo://app?vid=50c589ba-1ee7-42e5-b2e8-270213ce2a50"},"vehicle_type_id":"4","last_reported":1773951930,"current_range_meters":3200,"station_id":"ce4bh3p2rcd13ifvqdq0","pricing_plan_id":"cebpf4jnsgd1na2vs0mg"},{"bike_id":"a9d31829-7e0d-482f-af05-97ddd320ae16","system_id":"levelo_inurba_marseille","lat":43.29764,"lon":5.42768,"is_reserved":false,"is_disabled":true,"rental_uris":{"android":"levelo://app?vid=a9d31829-7e0d-482f-af05-97ddd320ae16","ios":"levelo://app?vid=a9d31829-7e0d-482f-af05-97ddd320ae16"},"vehicle_type_id":"4","last_reported":1773951930,"current_range_meters":3200,"station_id":"st_d3md5207bmas73dh9klg","pricing_plan_id":"cebpf4jnsgd1na2vs0mg"},{"bike_id":"46749662-f55a-4294-be4b-39665f1f367d","system_id":"levelo_inurba_marseille","lat":43.2293,"lon":5.35373,"is_reserved":false,"is_disabled":false,"rental_uris":{"android":"levelo://app?vid=46749662-f55a-4294-be4b-39665f1f367d","ios":"levelo://app?vid=46749662-f55a-4294-be4b-39665f1f367d"},"vehicle_type_id":"4","last_reported":1773951930,"current_range_meters":3200,"station_id":"cpo3532slgdg3j2ikp40","pricing_plan_id":"cebpf4jnsgd1na2vs0mg"},{"bike_id":"90df2976-00f1-427e-bc04-5655664bfcea","system_id":"levelo_inurba_marseille","lat":43.29606,"lon":5.36763,"is_reserved":false,"is_disabled":false,"rental_uris":{"android":"levelo://app?vid=90df2976-00f1-427e-bc04-5655664bfcea","ios":"levelo://app?vid=90df2976-00f1-427e-bc04-5655664bfcea"},"vehicle_type_id":"4","last_reported":1773951930,"current_range_meters":3200,"station_id":"ce4bgph2rcd13ifvqc2g","pricing_plan_id":"cebpf4jnsgd1na2vs0mg"},{"bike_id":"db70575a-a163-4a5a-9f82-ee3ceb33c40e","system_id":"levelo_inurba_marseille","lat":43.29913,"lon":5.37469,"is_reserved":false,"is_disabled":false,"rental_uris":{"android":"levelo://app?vid=db70575a-a163-4a5a-9f82-ee3ceb33c40e","ios":"levelo://app?vid=db70575a-a163-4a5a-9f82-ee3ceb33c40e"},"vehicle_type_id":"4","last_reported":1773951930,"current_range_meters":3200,"station_id":"ce4bgjh2rcd13ifvqbg0","pricing_plan_id":"cebpf4jnsgd1na2vs0mg"},{"bike_id":"fad8e96d-acb2-4874-9608-7180f6b034b8","system_id":"levelo_inurba_marseille","lat":43.29104,"lon":5.40828,"is_reserved":false,"is_disabled":false,"rental_uris":{"android":"levelo://app?vid=fad8e96d-acb2-4874-9608-7180f6b034b8","ios":"levelo://app?vid=fad8e96d-acb2-4874-9608-7180f6b034b8"},"vehicle_type_id":"4","last_reported":1773951930,"current_range_meters":3200,"station_id":"","pricing_plan_id":"cebpf4jnsgd1na2vs0mg"},{"bike_id":"24e3771f-e706-48ce-9711-2331d480393c","system_id":"levelo_inurba_marseille","lat":43.24827,"lon":5.37437,"is_reserved":false,"is_disabled":false,"rental_uris":{"android":"levelo://app?vid=24e3771f-e706-48ce-9711-2331d480393c","ios":"levelo://app?vid=24e3771f-e706-48ce-9711-2331d480393c"},"vehicle_type_id":"4","last_reported":1773951930,"current_range_meters":3200,"station_id":"ce4bhgh2rcd13ifvqfb0","pricing_plan_id":"cebpf4jnsgd1na2vs0mg"},{"bike_id":"c9cfc67c-4e42-4833-b4ab-11ad690d27f6","system_id":"levelo_inurba_marseille","lat":43.33099,"lon":5.39355,"is_reserved":false,"is_disabled":false,"rental_uris":{"android":"levelo://app?vid=c9cfc67c-4e42-4833-b4ab-11ad690d27f6","ios":"levelo://app?vid=c9cfc67c-4e42-4833-b4ab-11ad690d27f6"},"vehicle_type_id":"4","last_reported":1773951930,"current_range_meters":3200,"station_id":"","pricing_plan_id":"cebpf4jnsgd1na2vs0mg"},{"bike_id":"f11c3308-36cb-41d9-9775-f36c4dd3ac39","system_id":"levelo_inurba_marseille","lat":43.29272,"lon":5.38439,"is_reserved":false,"is_disabled":false,"rental_uris":{"android":"levelo://app?vid=f11c3308-36cb-41d9-9775-f36c4dd3ac39","ios":"levelo://app?vid=f11c3308-36cb-41d9-9775-f36c4dd3ac39"},"vehicle_type_id":"4","last_reported":1773951930,"current_range_meters":3200,"station_id":"ce4bh692rcd13ifvqea0","pricing_plan_id":"cebpf4jnsgd1na2vs0mg"},{"bike_id":"1687210f-77cf-49e1-8e10-4f940eb67ab9","system_id":"levelo_inurba_marseille","lat":43.25291,"lon":5.37981,"is_reserved":false,"is_disabled":false,"rental_uris":{"android":"levelo://app?vid=1687210f-77cf-49e1-8e10-4f940eb67ab9","ios":"levelo://app?vid=1687210f-77cf-49e1-8e10-4f940eb67ab9"},"vehicle_type_id":"4","last_reported":1773951930,"current_range_meters":3200,"station_id":"","pricing_plan_id":"cebpf4jnsgd1na2vs0mg"},{"bike_id":"bd76c094-5344-424d-b7c4-60f8801fbb04","system_id":"levelo_inurba_marseille","lat":43.299,"lon":5.40244,"is_reserved":false,"is_disabled":false,"rental_uris":{"android":"levelo://app?vid=bd76c094-5344-424d-b7c4-60f8801fbb04","ios":"levelo://app?vid=bd76c094-5344-424d-b7c4-60f8801fbb04"},"vehicle_type_id":"4","last_reported":1773951930,"current_range_meters":3200,"station_id":"","pricing_plan_id":"cebpf4jnsgd1na2vs0mg"},{"bike_id":"6bd3d7c2-e831-4806-9bf1-a82e57954d25","system_id":"levelo_inurba_marseille","lat":43.29031,"lon":5.39993,"is_reserved":false,"is_disabled":false,"rental_uris":{"android":"levelo://app?vid=6bd3d7c2-e831-4806-9bf1-a82e57954d25","ios":"levelo://app?vid=6bd3d7c2-e831-4806-9bf1-a82e57954d25"},"vehicle_type_id":"4","last_reported":1773951930,"current_range_meters":3200,"station_id":"ce4bh392rcd13ifvqdm0","pricing_plan_id":"cebpf4jnsgd1na2vs0mg"},{"bike_id":"9d6017c4-d825-482b-ae2d-df3192f76cb6","system_id":"levelo_inurba_marseille","lat":43.28383,"lon":5.37565,"is_reserved":false,"is_disabled":false,"rental_uris":{"android":"levelo://app?vid=9d6017c4-d825-482b-ae2d-df3192f76cb6","ios":"levelo://app?vid=9d6017c4-d825-482b-ae2d-df3192f76cb6"},"vehicle_type_id":"4","last_reported":1773951930,"current_range_meters":3200,"station_id":"","pricing_plan_id":"cebpf4jnsgd1na2vs0mg"},{"bike_id":"d3a8c26b-e6d8-4ab1-8565-05ff448114c7","system_id":"levelo_inurba_marseille","lat":43.31723,"lon":5.40505,"is_reserved":false,"is_disabled":false,"rental_uris":{"android":"levelo://app?vid=d3a8c26b-e6d8-4ab1-8565-05ff448114c7","ios":"levelo://app?vid=d3a8c26b-e6d8-4ab1-8565-05ff448114c7"},"vehicle_type_id":"4","last_reported":1773951930,"current_range_meters":3200,"station_id":"","pricing_plan_id":"cebpf4jnsgd1na2vs0mg"},{"bike_id":"5a4a814d-09e4-4da5-813b-9c60c7102781","system_id":"levelo_inurba_marseille","lat":43.29619,"lon":5.37713,"is_reserved":false,"is_disabled":false,"rental_uris":{"android":"levelo://app?vid=5a4a814d-09e4-4da5-813b-9c60c7102781","ios":"levelo://app?vid=5a4a814d-09e4-4da5-813b-9c60c7102781"},"vehicle_type_id":"4","last_reported":1773951930,"current_range_meters":3600,"station_id":"ce4bgi92rcd13ifvqb90","pricing_plan_id":"cebpf4jnsgd1na2vs0mg"},{"bike_id":"13f88d23-8297-4587-839a-a3ec92f34aa6","system_id":"levelo_inurba_marseille","lat":43.29601,"lon":5.38116,"is_reserved":false,"is_disabled":false,"rental_uris":{"android":"levelo://app?vid=13f88d23-8297-4587-839a-a3ec92f34aa6","ios":"levelo://app?vid=13f88d23-8297-4587-839a-a3ec92f34aa6"},"vehicle_type_id":"4","last_reported":1773951930,"current_range_meters":3600,"station_id":"ce4bgl12rcd13ifvqbo0","pricing_plan_id":"cebpf4jnsgd1na2vs0mg"},{"bike_id":"9da49d4a-30d7-4a40-98f4-49bb529a7739","system_id":"levelo_inurba_marseille","lat":43.29267,"lon":5.3842,"is_reserved":false,"is_disabled":false,"rental_uris":{"android":"levelo://app?vid=9da49d4a-30d7-4a40-98f4-49bb529a7739","ios":"levelo://app?vid=9da49d4a-30d7-4a40-98f4-49bb529a7739"},"vehicle_type_id":"4","last_reported":1773951930,"current_range_meters":3600,"station_id":"ce4bh692rcd13ifvqea0","pricing_plan_id":"cebpf4jnsgd1na2vs0mg"},{"bike_id":"91c0217d-c192-4781-b94f-6dde740ba6c5","system_id":"levelo_inurba_marseille","lat":43.30297,"lon":5.392,"is_reserved":false,"is_disabled":false,"rental_uris":{"android":"levelo://app?vid=91c0217d-c192-4781-b94f-6dde740ba6c5","ios":"levelo://app?vid=91c0217d-c192-4781-b94f-6dde740ba6c5"},"vehicle_type_id":"4","last_reported":1773951930,"current_range_meters":3600,"station_id":"ce4bgkh2rcd13ifvqbk0","pricing_plan_id":"cebpf4jnsgd1na2vs0mg"},{"bike_id":"bc8d4909-7df2-4328-940f-132ae8fb5a27","system_id":"levelo_inurba_marseille","lat":43.25571,"lon":5.38267,"is_reserved":false,"is_disabled":false,"rental_uris":{"android":"levelo://app?vid=bc8d4909-7df2-4328-940f-132ae8fb5a27","ios":"levelo://app?vid=bc8d4909-7df2-4328-940f-132ae8fb5a27"},"vehicle_type_id":"4","last_reported":1773951930,"current_range_meters":3600,"station_id":"ce4bhih2rcd13ifvqfs0","pricing_plan_id":"cebpf4jnsgd1na2vs0mg"},{"bike_id":"c5ead182-cff2-4988-825e-a19ac854dc0d","system_id":"levelo_inurba_marseille","lat":43.29602,"lon":5.38098,"is_reserved":false,"is_disabled":false,"rental_uris":{"android":"levelo://app?vid=c5ead182-cff2-4988-825e-a19ac854dc0d","ios":"levelo://app?vid=c5ead182-cff2-4988-825e-a19ac854dc0d"},"vehicle_type_id":"4","last_reported":1773951930,"current_range_meters":3600,"station_id":"ce4bgl12rcd13ifvqbo0","pricing_plan_id":"cebpf4jnsgd1na2vs0mg"},{"bike_id":"d0b1f448-6af4-4ef1-a755-e03baf4488aa","system_id":"levelo_inurba_marseille","lat":43.29246,"lon":5.35752,"is_reserved":false,"is_disabled":false,"rental_uris":{"android":"levelo://app?vid=d0b1f448-6af4-4ef1-a755-e03baf4488aa","ios":"levelo://app?vid=d0b1f448-6af4-4ef1-a755-e03baf4488aa"},"vehicle_type_id":"4","last_reported":1773951930,"current_range_meters":3600,"station_id":"","pricing_plan_id":"cebpf4jnsgd1na2vs0mg"},{"bike_id":"4c5d836e-ad01-47da-97a0-e883f94cfeb1","system_id":"levelo_inurba_marseille","lat":43.29595,"lon":5.38109,"is_reserved":false,"is_disabled":false,"rental_uris":{"android":"levelo://app?vid=4c5d836e-ad01-47da-97a0-e883f94cfeb1","ios":"levelo://app?vid=4c5d836e-ad01-47da-97a0-e883f94cfeb1"},"vehicle_type_id":"4","last_reported":1773951930,"current_range_meters":3600,"station_id":"ce4bgl12rcd13ifvqbo0","pricing_plan_id":"cebpf4jnsgd1na2vs0mg"},{"bike_id":"96974149-9676-48de-8ed7-c7817557f145","system_id":"levelo_inurba_marseille","lat":43.30776,"lon":5.37658,"is_reserved":false,"is_disabled":false,"rental_uris":{"android":"levelo://app?vid=96974149-9676-48de-8ed7-c7817557f145","ios":"levelo://app?vid=96974149-9676-48de-8ed7-c7817557f145"},"vehicle_type_id":"4","last_reported":1773951930,"current_range_meters":3600,"station_id":"ce4bgv92rcd13ifvqcq0","pricing_plan_id":"cebpf4jnsgd1na2vs0mg"},{"bike_id":"c6b4ba83-d211-421f-82a7-0a8a0abe04b2","system_id":"levelo_inurba_marseille","lat":43.28947,"lon":5.36632,"is_reserved":false,"is_disabled":false,"rental_uris":{"android":"levelo://app?vid=c6b4ba83-d211-421f-82a7-0a8a0abe04b2","ios":"levelo://app?vid=c6b4ba83-d211-421f-82a7-0a8a0abe04b2"},"vehicle_type_id":"4","last_reported":1773951930,"current_range_meters":3600,"station_id":"ce4bhap2rcd13ifvqek0","pricing_plan_id":"cebpf4jnsgd1na2vs0mg"},{"bike_id":"9890c2ef-7a96-4fd1-bb86-648aef8f4806","system_id":"levelo_inurba_marseille","lat":43.29924,"lon":5.37459,"is_reserved":false,"is_disabled":false,"rental_uris":{"android":"levelo://app?vid=9890c2ef-7a96-4fd1-bb86-648aef8f4806","ios":"levelo://app?vid=9890c2ef-7a96-4fd1-bb86-648aef8f4806"},"vehicle_type_id":"4","last_reported":1773951930,"current_range_meters":3600,"station_id":"ce4bgjh2rcd13ifvqbg0","pricing_plan_id":"cebpf4jnsgd1na2vs0mg"},{"bike_id":"669d6a91-c2c1-4c55-b934-265e6b7bebd6","system_id":"levelo_inurba_marseille","lat":43.29263,"lon":5.3844,"is_reserved":false,"is_disabled":false,"rental_uris":{"android":"levelo://app?vid=669d6a91-c2c1-4c55-b934-265e6b7bebd6","ios":"levelo://app?vid=669d6a91-c2c1-4c55-b934-265e6b7bebd6"},"vehicle_type_id":"4","last_reported":1773951930,"current_range_meters":3600,"station_id":"ce4bh692rcd13ifvqea0","pricing_plan_id":"cebpf4jnsgd1na2vs0mg"},{"bike_id":"447b11a1-21b5-4523-80dc-ebe593853403","system_id":"levelo_inurba_marseille","lat":43.29132,"lon":5.42614,"is_reserved":false,"is_disabled":false,"rental_uris":{"android":"levelo://app?vid=447b11a1-21b5-4523-80dc-ebe593853403","ios":"levelo://app?vid=447b11a1-21b5-4523-80dc-ebe593853403"},"vehicle_type_id":"4","last_reported":1773951930,"current_range_meters":3600,"station_id":"","pricing_plan_id":"cebpf4jnsgd1na2vs0mg"},{"bike_id":"a15529e2-dad5-4ece-a060-3e7f5185c086","system_id":"levelo_inurba_marseille","lat":43.31348,"lon":5.38514,"is_reserved":false,"is_disabled":false,"rental_uris":{"android":"levelo://app?vid=a15529e2-dad5-4ece-a060-3e7f5185c086","ios":"levelo://app?vid=a15529e2-dad5-4ece-a060-3e7f5185c086"},"vehicle_type_id":"4","last_reported":1773951930,"current_range_meters":3600,"station_id":"ce4bgt92rcd13ifvqcf0","pricing_plan_id":"cebpf4jnsgd1na2vs0mg"},{"bike_id":"7e61a2db-94f1-4c12-a4d0-55e2f120a0b6","system_id":"levelo_inurba_marseille","lat":43.30143,"lon":5.38074,"is_reserved":false,"is_disabled":false,"rental_uris":{"android":"levelo://app?vid=7e61a2db-94f1-4c12-a4d0-55e2f120a0b6","ios":"levelo://app?vid=7e61a2db-94f1-4c12-a4d0-55e2f120a0b6"},"vehicle_type_id":"4","last_reported":1773951930,"current_range_meters":3600,"station_id":"ce4bgjp2rcd13ifvqbh0","pricing_plan_id":"cebpf4jnsgd1na2vs0mg"},{"bike_id":"e193a20b-450a-4386-b80c-7f4426970f73","system_id":"levelo_inurba_marseille","lat":43.29587,"lon":5.36739,"is_reserved":false,"is_disabled":false,"rental_uris":{"android":"levelo://app?vid=e193a20b-450a-4386-b80c-7f4426970f73","ios":"levelo://app?vid=e193a20b-450a-4386-b80c-7f4426970f73"},"vehicle_type_id":"4","last_reported":1773951930,"current_range_meters":3600,"station_id":"ce4bgph2rcd13ifvqc2g","pricing_plan_id":"cebpf4jnsgd1na2vs0mg"},{"bike_id":"1c51670a-46e5-4a0c-9d9c-3c2806d077a8","system_id":"levelo_inurba_marseille","lat":43.29038,"lon":5.38134,"is_reserved":false,"is_disabled":true,"rental_uris":{"android":"levelo://app?vid=1c51670a-46e5-4a0c-9d9c-3c2806d077a8","ios":"levelo://app?vid=1c51670a-46e5-4a0c-9d9c-3c2806d077a8"},"vehicle_type_id":"4","last_reported":1773951930,"current_range_meters":4000,"station_id":"ce4bh4p2rcd13ifvqe1g","pricing_plan_id":"cebpf4jnsgd1na2vs0mg"},{"bike_id":"ad0cd57e-33a0-41b1-9838-4bb8121cf1c7","system_id":"levelo_inurba_marseille","lat":43.31188,"lon":5.38721,"is_reserved":false,"is_disabled":false,"rental_uris":{"android":"levelo://app?vid=ad0cd57e-33a0-41b1-9838-4bb8121cf1c7","ios":"levelo://app?vid=ad0cd57e-33a0-41b1-9838-4bb8121cf1c7"},"vehicle_type_id":"4","last_reported":1773951930,"current_range_meters":4000,"station_id":"ce4bgv12rcd13ifvqcp0","pricing_plan_id":"cebpf4jnsgd1na2vs0mg"},{"bike_id":"392fcf9a-86d3-4e46-a438-cc6b3eecb0e3","system_id":"levelo_inurba_marseille","lat":43.28658,"lon":5.36341,"is_reserved":false,"is_disabled":false,"rental_uris":{"android":"levelo://app?vid=392fcf9a-86d3-4e46-a438-cc6b3eecb0e3","ios":"levelo://app?vid=392fcf9a-86d3-4e46-a438-cc6b3eecb0e3"},"vehicle_type_id":"4","last_reported":1773951930,"current_range_meters":4000,"station_id":"ce4bhah2rcd13ifvqej0","pricing_plan_id":"cebpf4jnsgd1na2vs0mg"},{"bike_id":"13ad50bf-7f2f-4ad1-a82f-209db682ff58","system_id":"levelo_inurba_marseille","lat":43.26558,"lon":5.3905,"is_reserved":false,"is_disabled":true,"rental_uris":{"android":"levelo://app?vid=13ad50bf-7f2f-4ad1-a82f-209db682ff58","ios":"levelo://app?vid=13ad50bf-7f2f-4ad1-a82f-209db682ff58"},"vehicle_type_id":"4","last_reported":1773951930,"current_range_meters":4000,"station_id":"ce4bhe12rcd13ifvqf30","pricing_plan_id":"cebpf4jnsgd1na2vs0mg"},{"bike_id":"cbc8599d-0f53-4276-b29f-85b323d36cb9","system_id":"levelo_inurba_marseille","lat":43.25518,"lon":5.3765,"is_reserved":false,"is_disabled":false,"rental_uris":{"android":"levelo://app?vid=cbc8599d-0f53-4276-b29f-85b323d36cb9","ios":"levelo://app?vid=cbc8599d-0f53-4276-b29f-85b323d36cb9"},"vehicle_type_id":"4","last_reported":1773951930,"current_range_meters":4000,"station_id":"ce4bhh12rcd13ifvqff0","pricing_plan_id":"cebpf4jnsgd1na2vs0mg"},{"bike_id":"4962d21e-cde3-4527-bd5b-917c2eb4bb67","system_id":"levelo_inurba_marseille","lat":43.2558,"lon":5.38247,"is_reserved":false,"is_disabled":false,"rental_uris":{"android":"levelo://app?vid=4962d21e-cde3-4527-bd5b-917c2eb4bb67","ios":"levelo://app?vid=4962d21e-cde3-4527-bd5b-917c2eb4bb67"},"vehicle_type_id":"4","last_reported":1773951930,"current_range_meters":4000,"station_id":"ce4bhih2rcd13ifvqfs0","pricing_plan_id":"cebpf4jnsgd1na2vs0mg"},{"bike_id":"95d31319-d36d-403e-adf6-0b51cdaa5b1b","system_id":"levelo_inurba_marseille","lat":43.31419,"lon":5.39272,"is_reserved":false,"is_disabled":true,"rental_uris":{"android":"levelo://app?vid=95d31319-d36d-403e-adf6-0b51cdaa5b1b","ios":"levelo://app?vid=95d31319-d36d-403e-adf6-0b51cdaa5b1b"},"vehicle_type_id":"4","last_reported":1773951930,"current_range_meters":4000,"station_id":"","pricing_plan_id":"cebpf4jnsgd1na2vs0mg"},{"bike_id":"27ae9050-6afd-477c-93c4-6db54e399336","system_id":"levelo_inurba_marseille","lat":43.29595,"lon":5.38102,"is_reserved":false,"is_disabled":false,"rental_uris":{"android":"levelo://app?vid=27ae9050-6afd-477c-93c4-6db54e399336","ios":"levelo://app?vid=27ae9050-6afd-477c-93c4-6db54e399336"},"vehicle_type_id":"4","last_reported":1773951930,"current_range_meters":4000,"station_id":"ce4bgl12rcd13ifvqbo0","pricing_plan_id":"cebpf4jnsgd1na2vs0mg"},{"bike_id":"29a5de51-9a4a-4c7a-a787-24321c966006","system_id":"levelo_inurba_marseille","lat":43.31223,"lon":5.36862,"is_reserved":false,"is_disabled":false,"rental_uris":{"android":"levelo://app?vid=29a5de51-9a4a-4c7a-a787-24321c966006","ios":"levelo://app?vid=29a5de51-9a4a-4c7a-a787-24321c966006"},"vehicle_type_id":"4","last_reported":1773951930,"current_range_meters":4000,"station_id":"ce4bgl92rcd13ifvqbq0","pricing_plan_id":"cebpf4jnsgd1na2vs0mg"},{"bike_id":"b540ff6b-9338-43e2-93e5-fd42f02236aa","system_id":"levelo_inurba_marseille","lat":43.29534,"lon":5.39033,"is_reserved":false,"is_disabled":false,"rental_uris":{"android":"levelo://app?vid=b540ff6b-9338-43e2-93e5-fd42f02236aa","ios":"levelo://app?vid=b540ff6b-9338-43e2-93e5-fd42f02236aa"},"vehicle_type_id":"4","last_reported":1773951930,"current_range_meters":4000,"station_id":"ce4bh3p2rcd13ifvqdp0","pricing_plan_id":"cebpf4jnsgd1na2vs0mg"},{"bike_id":"506661fa-d7d4-473c-8038-c16d45410fe8","system_id":"levelo_inurba_marseille","lat":43.28875,"lon":5.42512,"is_reserved":false,"is_disabled":false,"rental_uris":{"android":"levelo://app?vid=506661fa-d7d4-473c-8038-c16d45410fe8","ios":"levelo://app?vid=506661fa-d7d4-473c-8038-c16d45410fe8"},"vehicle_type_id":"4","last_reported":1773951930,"current_range_meters":4000,"station_id":"","pricing_plan_id":"cebpf4jnsgd1na2vs0mg"},{"bike_id":"d29c05f8-d760-43ef-be8f-e483abd8aa24","system_id":"levelo_inurba_marseille","lat":43.2764,"lon":5.36078,"is_reserved":false,"is_disabled":false,"rental_uris":{"android":"levelo://app?vid=d29c05f8-d760-43ef-be8f-e483abd8aa24","ios":"levelo://app?vid=d29c05f8-d760-43ef-be8f-e483abd8aa24"},"vehicle_type_id":"4","last_reported":1773951930,"current_range_meters":4000,"station_id":"ce4bgj92rcd13ifvqbe0","pricing_plan_id":"cebpf4jnsgd1na2vs0mg"},{"bike_id":"8bd5fd69-5551-4977-8094-9b73bd678347","system_id":"levelo_inurba_marseille","lat":43.27212,"lon":5.39176,"is_reserved":false,"is_disabled":false,"rental_uris":{"android":"levelo://app?vid=8bd5fd69-5551-4977-8094-9b73bd678347","ios":"levelo://app?vid=8bd5fd69-5551-4977-8094-9b73bd678347"},"vehicle_type_id":"4","last_reported":1773951930,"current_range_meters":4000,"station_id":"ce4bhhp2rcd13ifvqfm0","pricing_plan_id":"cebpf4jnsgd1na2vs0mg"},{"bike_id":"ab8e59d7-35b3-41e1-95f9-9d78741bc131","system_id":"levelo_inurba_marseille","lat":43.21737,"lon":5.34601,"is_reserved":false,"is_disabled":false,"rental_uris":{"android":"levelo://app?vid=ab8e59d7-35b3-41e1-95f9-9d78741bc131","ios":"levelo://app?vid=ab8e59d7-35b3-41e1-95f9-9d78741bc131"},"vehicle_type_id":"4","last_reported":1773951930,"current_range_meters":4000,"station_id":"","pricing_plan_id":"cebpf4jnsgd1na2vs0mg"},{"bike_id":"70044f2b-120e-4c14-a232-703988fba61b","system_id":"levelo_inurba_marseille","lat":43.29295,"lon":5.37463,"is_reserved":false,"is_disabled":false,"rental_uris":{"android":"levelo://app?vid=70044f2b-120e-4c14-a232-703988fba61b","ios":"levelo://app?vid=70044f2b-120e-4c14-a232-703988fba61b"},"vehicle_type_id":"4","last_reported":1773951930,"current_range_meters":4000,"station_id":"ce4bgi12rcd13ifvqb70","pricing_plan_id":"cebpf4jnsgd1na2vs0mg"},{"bike_id":"9538695e-3459-4d19-bebe-9b4ae08bd94e","system_id":"levelo_inurba_marseille","lat":43.28576,"lon":5.39496,"is_reserved":false,"is_disabled":false,"rental_uris":{"android":"levelo://app?vid=9538695e-3459-4d19-bebe-9b4ae08bd94e","ios":"levelo://app?vid=9538695e-3459-4d19-bebe-9b4ae08bd94e"},"vehicle_type_id":"4","last_reported":1773951930,"current_range_meters":4000,"station_id":"ce4bh292rcd13ifvqdg0","pricing_plan_id":"cebpf4jnsgd1na2vs0mg"},{"bike_id":"54ed283d-06a3-4f4f-abe5-71364fb2e2c2","system_id":"levelo_inurba_marseille","lat":43.28572,"lon":5.39501,"is_reserved":false,"is_disabled":false,"rental_uris":{"android":"levelo://app?vid=54ed283d-06a3-4f4f-abe5-71364fb2e2c2","ios":"levelo://app?vid=54ed283d-06a3-4f4f-abe5-71364fb2e2c2"},"vehicle_type_id":"4","last_reported":1773951930,"current_range_meters":4000,"station_id":"ce4bh292rcd13ifvqdg0","pricing_plan_id":"cebpf4jnsgd1na2vs0mg"},{"bike_id":"cf025143-bb1e-4736-aae2-f535301f1e5e","system_id":"levelo_inurba_marseille","lat":43.30329,"lon":5.40412,"is_reserved":false,"is_disabled":false,"rental_uris":{"android":"levelo://app?vid=cf025143-bb1e-4736-aae2-f535301f1e5e","ios":"levelo://app?vid=cf025143-bb1e-4736-aae2-f535301f1e5e"},"vehicle_type_id":"4","last_reported":1773951930,"current_range_meters":4000,"station_id":"ce4bh012rcd13ifvqd10","pricing_plan_id":"cebpf4jnsgd1na2vs0mg"},{"bike_id":"4e8f095f-bf17-4030-b8eb-c73b9f1c3a7a","system_id":"levelo_inurba_marseille","lat":43.28443,"lon":5.39206,"is_reserved":false,"is_disabled":false,"rental_uris":{"android":"levelo://app?vid=4e8f095f-bf17-4030-b8eb-c73b9f1c3a7a","ios":"levelo://app?vid=4e8f095f-bf17-4030-b8eb-c73b9f1c3a7a"},"vehicle_type_id":"4","last_reported":1773951930,"current_range_meters":4000,"station_id":"ce4bhoh2rcd13ifvqh5g","pricing_plan_id":"cebpf4jnsgd1na2vs0mg"},{"bike_id":"f268f2fe-467e-40c0-b855-6883c59cb486","system_id":"levelo_inurba_marseille","lat":43.29258,"lon":5.3844,"is_reserved":false,"is_disabled":false,"rental_uris":{"android":"levelo://app?vid=f268f2fe-467e-40c0-b855-6883c59cb486","ios":"levelo://app?vid=f268f2fe-467e-40c0-b855-6883c59cb486"},"vehicle_type_id":"4","last_reported":1773951930,"current_range_meters":4000,"station_id":"ce4bh692rcd13ifvqea0","pricing_plan_id":"cebpf4jnsgd1na2vs0mg"},{"bike_id":"10b485a5-c585-4b5f-8ead-aba90cb54525","system_id":"levelo_inurba_marseille","lat":43.30161,"lon":5.38764,"is_reserved":false,"is_disabled":false,"rental_uris":{"android":"levelo://app?vid=10b485a5-c585-4b5f-8ead-aba90cb54525","ios":"levelo://app?vid=10b485a5-c585-4b5f-8ead-aba90cb54525"},"vehicle_type_id":"4","last_reported":1773951930,"current_range_meters":4000,"station_id":"ce4bghh2rcd13ifvqb60","pricing_plan_id":"cebpf4jnsgd1na2vs0mg"},{"bike_id":"dd8390c9-eed9-4b5d-95df-1b40250bc11f","system_id":"levelo_inurba_marseille","lat":43.21605,"lon":5.34541,"is_reserved":false,"is_disabled":false,"rental_uris":{"android":"levelo://app?vid=dd8390c9-eed9-4b5d-95df-1b40250bc11f","ios":"levelo://app?vid=dd8390c9-eed9-4b5d-95df-1b40250bc11f"},"vehicle_type_id":"4","last_reported":1773951930,"current_range_meters":4000,"station_id":"","pricing_plan_id":"cebpf4jnsgd1na2vs0mg"},{"bike_id":"68910bfb-a210-476a-89da-8f5be2ce11af","system_id":"levelo_inurba_marseille","lat":43.30217,"lon":5.39468,"is_reserved":false,"is_disabled":false,"rental_uris":{"android":"levelo://app?vid=68910bfb-a210-476a-89da-8f5be2ce11af","ios":"levelo://app?vid=68910bfb-a210-476a-89da-8f5be2ce11af"},"vehicle_type_id":"4","last_reported":1773951930,"current_range_meters":4000,"station_id":"ce4bh0p2rcd13ifvqd70","pricing_plan_id":"cebpf4jnsgd1na2vs0mg"},{"bike_id":"d154e39b-bb17-44a2-b44f-05209b2a5131","system_id":"levelo_inurba_marseille","lat":43.21745,"lon":5.3462,"is_reserved":false,"is_disabled":false,"rental_uris":{"android":"levelo://app?vid=d154e39b-bb17-44a2-b44f-05209b2a5131","ios":"levelo://app?vid=d154e39b-bb17-44a2-b44f-05209b2a5131"},"vehicle_type_id":"4","last_reported":1773951930,"current_range_meters":4400,"station_id":"","pricing_plan_id":"cebpf4jnsgd1na2vs0mg"},{"bike_id":"a244dbb4-0f4e-4feb-860e-324fc6945b7a","system_id":"levelo_inurba_marseille","lat":43.29533,"lon":5.39034,"is_reserved":false,"is_disabled":false,"rental_uris":{"android":"levelo://app?vid=a244dbb4-0f4e-4feb-860e-324fc6945b7a","ios":"levelo://app?vid=a244dbb4-0f4e-4feb-860e-324fc6945b7a"},"vehicle_type_id":"4","last_reported":1773951930,"current_range_meters":4400,"station_id":"ce4bh3p2rcd13ifvqdp0","pricing_plan_id":"cebpf4jnsgd1na2vs0mg"},{"bike_id":"1fdbd032-af28-4158-a02e-01bb107fd2a7","system_id":"levelo_inurba_marseille","lat":43.337444,"lon":5.374475,"is_reserved":false,"is_disabled":false,"rental_uris":{"android":"levelo://app?vid=1fdbd032-af28-4158-a02e-01bb107fd2a7","ios":"levelo://app?vid=1fdbd032-af28-4158-a02e-01bb107fd2a7"},"vehicle_type_id":"4","last_reported":1773951930,"current_range_meters":4400,"station_id":"","pricing_plan_id":"cebpf4jnsgd1na2vs0mg"},{"bike_id":"07f521f2-168c-437f-9ee7-8d100cdbdf6d","system_id":"levelo_inurba_marseille","lat":43.25565,"lon":5.38236,"is_reserved":false,"is_disabled":false,"rental_uris":{"android":"levelo://app?vid=07f521f2-168c-437f-9ee7-8d100cdbdf6d","ios":"levelo://app?vid=07f521f2-168c-437f-9ee7-8d100cdbdf6d"},"vehicle_type_id":"4","last_reported":1773951930,"current_range_meters":4400,"station_id":"ce4bhih2rcd13ifvqfs0","pricing_plan_id":"cebpf4jnsgd1na2vs0mg"},{"bike_id":"4e3195b9-dd9e-464c-a049-e82a7bc62b10","system_id":"levelo_inurba_marseille","lat":43.2988,"lon":5.3974,"is_reserved":false,"is_disabled":false,"rental_uris":{"android":"levelo://app?vid=4e3195b9-dd9e-464c-a049-e82a7bc62b10","ios":"levelo://app?vid=4e3195b9-dd9e-464c-a049-e82a7bc62b10"},"vehicle_type_id":"4","last_reported":1773951930,"current_range_meters":4400,"station_id":"ce4bh0h2rcd13ifvqd50","pricing_plan_id":"cebpf4jnsgd1na2vs0mg"},{"bike_id":"dc0f9891-d222-4b5b-a342-dcb03c4b8dfa","system_id":"levelo_inurba_marseille","lat":43.31708,"lon":5.37777,"is_reserved":false,"is_disabled":false,"rental_uris":{"android":"levelo://app?vid=dc0f9891-d222-4b5b-a342-dcb03c4b8dfa","ios":"levelo://app?vid=dc0f9891-d222-4b5b-a342-dcb03c4b8dfa"},"vehicle_type_id":"4","last_reported":1773951930,"current_range_meters":4400,"station_id":"ce4bgth2rcd13ifvqch0","pricing_plan_id":"cebpf4jnsgd1na2vs0mg"},{"bike_id":"ebce1705-dc84-4260-a102-fbf1a62d110b","system_id":"levelo_inurba_marseille","lat":43.290439,"lon":5.359229,"is_reserved":false,"is_disabled":false,"rental_uris":{"android":"levelo://app?vid=ebce1705-dc84-4260-a102-fbf1a62d110b","ios":"levelo://app?vid=ebce1705-dc84-4260-a102-fbf1a62d110b"},"vehicle_type_id":"4","last_reported":1773951930,"current_range_meters":4400,"station_id":"ce4bha92rcd13ifvqeg0","pricing_plan_id":"cebpf4jnsgd1na2vs0mg"},{"bike_id":"947ee46f-d15e-4552-8f50-d365a5993717","system_id":"levelo_inurba_marseille","lat":43.29528,"lon":5.38542,"is_reserved":false,"is_disabled":false,"rental_uris":{"android":"levelo://app?vid=947ee46f-d15e-4552-8f50-d365a5993717","ios":"levelo://app?vid=947ee46f-d15e-4552-8f50-d365a5993717"},"vehicle_type_id":"4","last_reported":1773951930,"current_range_meters":4400,"station_id":"ce4bgih2rcd13ifvqba0","pricing_plan_id":"cebpf4jnsgd1na2vs0mg"},{"bike_id":"0ee4ce16-829f-49ee-9a2a-4b4670dfbc6f","system_id":"levelo_inurba_marseille","lat":43.28469,"lon":5.48395,"is_reserved":false,"is_disabled":false,"rental_uris":{"android":"levelo://app?vid=0ee4ce16-829f-49ee-9a2a-4b4670dfbc6f","ios":"levelo://app?vid=0ee4ce16-829f-49ee-9a2a-4b4670dfbc6f"},"vehicle_type_id":"4","last_reported":1773951930,"current_range_meters":4400,"station_id":"st_d3svhcjqgbts73a3dn0g","pricing_plan_id":"cebpf4jnsgd1na2vs0mg"},{"bike_id":"7e8b6cb5-137a-41fc-a670-68cf90671688","system_id":"levelo_inurba_marseille","lat":43.29262,"lon":5.38441,"is_reserved":false,"is_disabled":false,"rental_uris":{"android":"levelo://app?vid=7e8b6cb5-137a-41fc-a670-68cf90671688","ios":"levelo://app?vid=7e8b6cb5-137a-41fc-a670-68cf90671688"},"vehicle_type_id":"4","last_reported":1773951930,"current_range_meters":4400,"station_id":"ce4bh692rcd13ifvqea0","pricing_plan_id":"cebpf4jnsgd1na2vs0mg"},{"bike_id":"22ba403d-ff98-4cfe-a033-3be640b214e2","system_id":"levelo_inurba_marseille","lat":43.25355,"lon":5.42166,"is_reserved":false,"is_disabled":false,"rental_uris":{"android":"levelo://app?vid=22ba403d-ff98-4cfe-a033-3be640b214e2","ios":"levelo://app?vid=22ba403d-ff98-4cfe-a033-3be640b214e2"},"vehicle_type_id":"4","last_reported":1773951930,"current_range_meters":4400,"station_id":"st_d2m65c5bi1j21697t3ng","pricing_plan_id":"cebpf4jnsgd1na2vs0mg"},{"bike_id":"0d09afbc-649c-4f09-a32f-b827696c53cc","system_id":"levelo_inurba_marseille","lat":43.26815,"lon":5.40272,"is_reserved":false,"is_disabled":false,"rental_uris":{"android":"levelo://app?vid=0d09afbc-649c-4f09-a32f-b827696c53cc","ios":"levelo://app?vid=0d09afbc-649c-4f09-a32f-b827696c53cc"},"vehicle_type_id":"4","last_reported":1773951930,"current_range_meters":4400,"station_id":"ce501612rcd8frsf0b60","pricing_plan_id":"cebpf4jnsgd1na2vs0mg"},{"bike_id":"4618ac98-db45-4371-ac35-88bf2b1ea860","system_id":"levelo_inurba_marseille","lat":43.303199,"lon":5.404365,"is_reserved":false,"is_disabled":false,"rental_uris":{"android":"levelo://app?vid=4618ac98-db45-4371-ac35-88bf2b1ea860","ios":"levelo://app?vid=4618ac98-db45-4371-ac35-88bf2b1ea860"},"vehicle_type_id":"4","last_reported":1773951930,"current_range_meters":4400,"station_id":"ce4bh012rcd13ifvqd10","pricing_plan_id":"cebpf4jnsgd1na2vs0mg"},{"bike_id":"fe45cf9d-67ad-42eb-8e72-b0429130b6b3","system_id":"levelo_inurba_marseille","lat":43.26552,"lon":5.3728,"is_reserved":false,"is_disabled":false,"rental_uris":{"android":"levelo://app?vid=fe45cf9d-67ad-42eb-8e72-b0429130b6b3","ios":"levelo://app?vid=fe45cf9d-67ad-42eb-8e72-b0429130b6b3"},"vehicle_type_id":"4","last_reported":1773951930,"current_range_meters":4400,"station_id":"ce4bhg12rcd13ifvqf70","pricing_plan_id":"cebpf4jnsgd1na2vs0mg"},{"bike_id":"4fb83e48-9ddd-4a06-962f-2206a9a52063","system_id":"levelo_inurba_marseille","lat":43.2989,"lon":5.39745,"is_reserved":false,"is_disabled":false,"rental_uris":{"android":"levelo://app?vid=4fb83e48-9ddd-4a06-962f-2206a9a52063","ios":"levelo://app?vid=4fb83e48-9ddd-4a06-962f-2206a9a52063"},"vehicle_type_id":"4","last_reported":1773951930,"current_range_meters":4400,"station_id":"ce4bh0h2rcd13ifvqd50","pricing_plan_id":"cebpf4jnsgd1na2vs0mg"},{"bike_id":"93089ce5-ce0f-4667-86e6-ff58647cdab6","system_id":"levelo_inurba_marseille","lat":43.28682,"lon":5.38663,"is_reserved":false,"is_disabled":false,"rental_uris":{"android":"levelo://app?vid=93089ce5-ce0f-4667-86e6-ff58647cdab6","ios":"levelo://app?vid=93089ce5-ce0f-4667-86e6-ff58647cdab6"},"vehicle_type_id":"4","last_reported":1773951930,"current_range_meters":4400,"station_id":"ce4bh492rcd13ifvqdug","pricing_plan_id":"cebpf4jnsgd1na2vs0mg"},{"bike_id":"f49780d1-dd39-4a71-878f-279a989ee749","system_id":"levelo_inurba_marseille","lat":43.29514,"lon":5.39415,"is_reserved":false,"is_disabled":false,"rental_uris":{"android":"levelo://app?vid=f49780d1-dd39-4a71-878f-279a989ee749","ios":"levelo://app?vid=f49780d1-dd39-4a71-878f-279a989ee749"},"vehicle_type_id":"4","last_reported":1773951930,"current_range_meters":4800,"station_id":"ce4bh292rcd13ifvqdf0","pricing_plan_id":"cebpf4jnsgd1na2vs0mg"},{"bike_id":"69eb8448-c0e0-496f-831c-8ada77fd31e2","system_id":"levelo_inurba_marseille","lat":43.2306,"lon":5.35487,"is_reserved":false,"is_disabled":false,"rental_uris":{"android":"levelo://app?vid=69eb8448-c0e0-496f-831c-8ada77fd31e2","ios":"levelo://app?vid=69eb8448-c0e0-496f-831c-8ada77fd31e2"},"vehicle_type_id":"4","last_reported":1773951930,"current_range_meters":4800,"station_id":"cpo3342slgdg3j2ifvpg","pricing_plan_id":"cebpf4jnsgd1na2vs0mg"},{"bike_id":"174d3974-c735-4f47-926b-87dba695db90","system_id":"levelo_inurba_marseille","lat":43.23897,"lon":5.37456,"is_reserved":false,"is_disabled":false,"rental_uris":{"android":"levelo://app?vid=174d3974-c735-4f47-926b-87dba695db90","ios":"levelo://app?vid=174d3974-c735-4f47-926b-87dba695db90"},"vehicle_type_id":"4","last_reported":1773951930,"current_range_meters":4800,"station_id":"st_d6sm7csbq4hs73f8fpjg","pricing_plan_id":"cebpf4jnsgd1na2vs0mg"},{"bike_id":"caf5e45c-f3f2-43eb-99a6-b11ec33451e8","system_id":"levelo_inurba_marseille","lat":43.23999,"lon":5.36534,"is_reserved":false,"is_disabled":false,"rental_uris":{"android":"levelo://app?vid=caf5e45c-f3f2-43eb-99a6-b11ec33451e8","ios":"levelo://app?vid=caf5e45c-f3f2-43eb-99a6-b11ec33451e8"},"vehicle_type_id":"4","last_reported":1773951930,"current_range_meters":4800,"station_id":"","pricing_plan_id":"cebpf4jnsgd1na2vs0mg"},{"bike_id":"bb7bd987-7ab9-4519-a618-3506eacffb15","system_id":"levelo_inurba_marseille","lat":43.32107,"lon":5.36759,"is_reserved":false,"is_disabled":false,"rental_uris":{"android":"levelo://app?vid=bb7bd987-7ab9-4519-a618-3506eacffb15","ios":"levelo://app?vid=bb7bd987-7ab9-4519-a618-3506eacffb15"},"vehicle_type_id":"4","last_reported":1773951930,"current_range_meters":4800,"station_id":"ce4bhrh2rcd13ifvqhug","pricing_plan_id":"cebpf4jnsgd1na2vs0mg"},{"bike_id":"b331dd98-71c2-4fc2-be3e-b871ca401f4a","system_id":"levelo_inurba_marseille","lat":43.2854,"lon":5.39505,"is_reserved":false,"is_disabled":false,"rental_uris":{"android":"levelo://app?vid=b331dd98-71c2-4fc2-be3e-b871ca401f4a","ios":"levelo://app?vid=b331dd98-71c2-4fc2-be3e-b871ca401f4a"},"vehicle_type_id":"4","last_reported":1773951930,"current_range_meters":4800,"station_id":"ce4bh292rcd13ifvqdg0","pricing_plan_id":"cebpf4jnsgd1na2vs0mg"},{"bike_id":"6f0da953-2adc-429d-bb7c-360d8a3447c9","system_id":"levelo_inurba_marseille","lat":43.27492,"lon":5.41598,"is_reserved":false,"is_disabled":false,"rental_uris":{"android":"levelo://app?vid=6f0da953-2adc-429d-bb7c-360d8a3447c9","ios":"levelo://app?vid=6f0da953-2adc-429d-bb7c-360d8a3447c9"},"vehicle_type_id":"4","last_reported":1773951930,"current_range_meters":4800,"station_id":"st_d6im8g6chgec73a5pndg","pricing_plan_id":"cebpf4jnsgd1na2vs0mg"},{"bike_id":"28025302-46d2-4169-9ce9-8e064c7a81fd","system_id":"levelo_inurba_marseille","lat":43.26372,"lon":5.41084,"is_reserved":false,"is_disabled":false,"rental_uris":{"android":"levelo://app?vid=28025302-46d2-4169-9ce9-8e064c7a81fd","ios":"levelo://app?vid=28025302-46d2-4169-9ce9-8e064c7a81fd"},"vehicle_type_id":"4","last_reported":1773951930,"current_range_meters":4800,"station_id":"","pricing_plan_id":"cebpf4jnsgd1na2vs0mg"},{"bike_id":"ee9d83ea-4edf-4b1f-8714-2525a5649daf","system_id":"levelo_inurba_marseille","lat":43.24487,"lon":5.42537,"is_reserved":false,"is_disabled":false,"rental_uris":{"android":"levelo://app?vid=ee9d83ea-4edf-4b1f-8714-2525a5649daf","ios":"levelo://app?vid=ee9d83ea-4edf-4b1f-8714-2525a5649daf"},"vehicle_type_id":"4","last_reported":1773951930,"current_range_meters":4800,"station_id":"st_d4a3vfp97mjs738cd8kg","pricing_plan_id":"cebpf4jnsgd1na2vs0mg"},{"bike_id":"46d5a887-e69e-4b92-9937-af16138c60d7","system_id":"levelo_inurba_marseille","lat":43.25565,"lon":5.38246,"is_reserved":false,"is_disabled":false,"rental_uris":{"android":"levelo://app?vid=46d5a887-e69e-4b92-9937-af16138c60d7","ios":"levelo://app?vid=46d5a887-e69e-4b92-9937-af16138c60d7"},"vehicle_type_id":"4","last_reported":1773951930,"current_range_meters":4800,"station_id":"ce4bhih2rcd13ifvqfs0","pricing_plan_id":"cebpf4jnsgd1na2vs0mg"},{"bike_id":"eb7afcba-7c80-4884-8e3c-ac3aabffdf6d","system_id":"levelo_inurba_marseille","lat":43.30604,"lon":5.39336,"is_reserved":false,"is_disabled":false,"rental_uris":{"android":"levelo://app?vid=eb7afcba-7c80-4884-8e3c-ac3aabffdf6d","ios":"levelo://app?vid=eb7afcba-7c80-4884-8e3c-ac3aabffdf6d"},"vehicle_type_id":"4","last_reported":1773951930,"current_range_meters":4800,"station_id":"ce4bh0p2rcd13ifvqd80","pricing_plan_id":"cebpf4jnsgd1na2vs0mg"},{"bike_id":"73e44213-1cd8-4593-a09e-a9c4a914a5d2","system_id":"levelo_inurba_marseille","lat":43.2848,"lon":5.48392,"is_reserved":false,"is_disabled":false,"rental_uris":{"android":"levelo://app?vid=73e44213-1cd8-4593-a09e-a9c4a914a5d2","ios":"levelo://app?vid=73e44213-1cd8-4593-a09e-a9c4a914a5d2"},"vehicle_type_id":"4","last_reported":1773951930,"current_range_meters":4800,"station_id":"","pricing_plan_id":"cebpf4jnsgd1na2vs0mg"},{"bike_id":"78c86868-a79f-4f2a-bb9a-961b0f22d36b","system_id":"levelo_inurba_marseille","lat":43.29983,"lon":5.38643,"is_reserved":false,"is_disabled":false,"rental_uris":{"android":"levelo://app?vid=78c86868-a79f-4f2a-bb9a-961b0f22d36b","ios":"levelo://app?vid=78c86868-a79f-4f2a-bb9a-961b0f22d36b"},"vehicle_type_id":"4","last_reported":1773951930,"current_range_meters":4800,"station_id":"","pricing_plan_id":"cebpf4jnsgd1na2vs0mg"},{"bike_id":"acc9b515-ff57-4801-92b0-d753c371dee5","system_id":"levelo_inurba_marseille","lat":43.29258,"lon":5.37634,"is_reserved":false,"is_disabled":false,"rental_uris":{"android":"levelo://app?vid=acc9b515-ff57-4801-92b0-d753c371dee5","ios":"levelo://app?vid=acc9b515-ff57-4801-92b0-d753c371dee5"},"vehicle_type_id":"4","last_reported":1773951930,"current_range_meters":4800,"station_id":"ce4bgi12rcd13ifvqb80","pricing_plan_id":"cebpf4jnsgd1na2vs0mg"},{"bike_id":"6249ed29-5517-4270-9859-be5c6de8ecdf","system_id":"levelo_inurba_marseille","lat":43.29523,"lon":5.38539,"is_reserved":false,"is_disabled":false,"rental_uris":{"android":"levelo://app?vid=6249ed29-5517-4270-9859-be5c6de8ecdf","ios":"levelo://app?vid=6249ed29-5517-4270-9859-be5c6de8ecdf"},"vehicle_type_id":"4","last_reported":1773951930,"current_range_meters":4800,"station_id":"ce4bgih2rcd13ifvqba0","pricing_plan_id":"cebpf4jnsgd1na2vs0mg"},{"bike_id":"65518791-09ea-49fa-8ba6-d86c214c69fb","system_id":"levelo_inurba_marseille","lat":43.29266,"lon":5.38436,"is_reserved":false,"is_disabled":false,"rental_uris":{"android":"levelo://app?vid=65518791-09ea-49fa-8ba6-d86c214c69fb","ios":"levelo://app?vid=65518791-09ea-49fa-8ba6-d86c214c69fb"},"vehicle_type_id":"4","last_reported":1773951930,"current_range_meters":4800,"station_id":"ce4bh692rcd13ifvqea0","pricing_plan_id":"cebpf4jnsgd1na2vs0mg"},{"bike_id":"5bc67195-e16c-4b10-b12b-8d9faac3bfd3","system_id":"levelo_inurba_marseille","lat":43.21743,"lon":5.34606,"is_reserved":false,"is_disabled":false,"rental_uris":{"android":"levelo://app?vid=5bc67195-e16c-4b10-b12b-8d9faac3bfd3","ios":"levelo://app?vid=5bc67195-e16c-4b10-b12b-8d9faac3bfd3"},"vehicle_type_id":"4","last_reported":1773951930,"current_range_meters":4800,"station_id":"","pricing_plan_id":"cebpf4jnsgd1na2vs0mg"},{"bike_id":"4951f87b-9f8e-446a-ac91-f566f98cb3ac","system_id":"levelo_inurba_marseille","lat":43.29532,"lon":5.38546,"is_reserved":false,"is_disabled":false,"rental_uris":{"android":"levelo://app?vid=4951f87b-9f8e-446a-ac91-f566f98cb3ac","ios":"levelo://app?vid=4951f87b-9f8e-446a-ac91-f566f98cb3ac"},"vehicle_type_id":"4","last_reported":1773951930,"current_range_meters":5600,"station_id":"ce4bgih2rcd13ifvqba0","pricing_plan_id":"cebpf4jnsgd1na2vs0mg"},{"bike_id":"61abe7b6-a1d5-4fb1-8e97-6efff73823a7","system_id":"levelo_inurba_marseille","lat":43.23798,"lon":5.36626,"is_reserved":false,"is_disabled":true,"rental_uris":{"android":"levelo://app?vid=61abe7b6-a1d5-4fb1-8e97-6efff73823a7","ios":"levelo://app?vid=61abe7b6-a1d5-4fb1-8e97-6efff73823a7"},"vehicle_type_id":"4","last_reported":1773951930,"current_range_meters":5600,"station_id":"st_d3nk18o9ro0c73en2l3g","pricing_plan_id":"cebpf4jnsgd1na2vs0mg"},{"bike_id":"2f0354fc-31aa-4398-9c3e-f0f50b7b2184","system_id":"levelo_inurba_marseille","lat":43.24147,"lon":5.39724,"is_reserved":false,"is_disabled":false,"rental_uris":{"android":"levelo://app?vid=2f0354fc-31aa-4398-9c3e-f0f50b7b2184","ios":"levelo://app?vid=2f0354fc-31aa-4398-9c3e-f0f50b7b2184"},"vehicle_type_id":"4","last_reported":1773951930,"current_range_meters":5600,"station_id":"ce4bhn12rcd13ifvqgpg","pricing_plan_id":"cebpf4jnsgd1na2vs0mg"},{"bike_id":"719e9861-af82-4022-a2ea-bd7d6f00ff5f","system_id":"levelo_inurba_marseille","lat":43.28749,"lon":5.42513,"is_reserved":false,"is_disabled":true,"rental_uris":{"android":"levelo://app?vid=719e9861-af82-4022-a2ea-bd7d6f00ff5f","ios":"levelo://app?vid=719e9861-af82-4022-a2ea-bd7d6f00ff5f"},"vehicle_type_id":"4","last_reported":1773951930,"current_range_meters":5600,"station_id":"","pricing_plan_id":"cebpf4jnsgd1na2vs0mg"},{"bike_id":"8c29270d-5d11-446e-a3f0-f5c56ae9c816","system_id":"levelo_inurba_marseille","lat":43.27586,"lon":5.433,"is_reserved":false,"is_disabled":false,"rental_uris":{"android":"levelo://app?vid=8c29270d-5d11-446e-a3f0-f5c56ae9c816","ios":"levelo://app?vid=8c29270d-5d11-446e-a3f0-f5c56ae9c816"},"vehicle_type_id":"4","last_reported":1773951930,"current_range_meters":5600,"station_id":"","pricing_plan_id":"cebpf4jnsgd1na2vs0mg"},{"bike_id":"8905dc55-d61b-4ac9-a8c3-db72b3f855c5","system_id":"levelo_inurba_marseille","lat":43.29031,"lon":5.38647,"is_reserved":false,"is_disabled":false,"rental_uris":{"android":"levelo://app?vid=8905dc55-d61b-4ac9-a8c3-db72b3f855c5","ios":"levelo://app?vid=8905dc55-d61b-4ac9-a8c3-db72b3f855c5"},"vehicle_type_id":"4","last_reported":1773951930,"current_range_meters":5600,"station_id":"ce4bh4p2rcd13ifvqe0g","pricing_plan_id":"cebpf4jnsgd1na2vs0mg"},{"bike_id":"3bce7349-273d-425c-a811-ae0340ff499c","system_id":"levelo_inurba_marseille","lat":43.29262,"lon":5.3846,"is_reserved":false,"is_disabled":false,"rental_uris":{"android":"levelo://app?vid=3bce7349-273d-425c-a811-ae0340ff499c","ios":"levelo://app?vid=3bce7349-273d-425c-a811-ae0340ff499c"},"vehicle_type_id":"4","last_reported":1773951930,"current_range_meters":5600,"station_id":"ce4bh692rcd13ifvqea0","pricing_plan_id":"cebpf4jnsgd1na2vs0mg"},{"bike_id":"d31f30f9-c644-42a8-ba33-167d11dae2f7","system_id":"levelo_inurba_marseille","lat":43.29592,"lon":5.38108,"is_reserved":false,"is_disabled":false,"rental_uris":{"android":"levelo://app?vid=d31f30f9-c644-42a8-ba33-167d11dae2f7","ios":"levelo://app?vid=d31f30f9-c644-42a8-ba33-167d11dae2f7"},"vehicle_type_id":"4","last_reported":1773951930,"current_range_meters":5600,"station_id":"ce4bgl12rcd13ifvqbo0","pricing_plan_id":"cebpf4jnsgd1na2vs0mg"},{"bike_id":"fe822749-3e07-48ca-96de-5c389e9fc6ff","system_id":"levelo_inurba_marseille","lat":43.29271,"lon":5.3843,"is_reserved":false,"is_disabled":false,"rental_uris":{"android":"levelo://app?vid=fe822749-3e07-48ca-96de-5c389e9fc6ff","ios":"levelo://app?vid=fe822749-3e07-48ca-96de-5c389e9fc6ff"},"vehicle_type_id":"4","last_reported":1773951930,"current_range_meters":5600,"station_id":"ce4bh692rcd13ifvqea0","pricing_plan_id":"cebpf4jnsgd1na2vs0mg"},{"bike_id":"1b5b0898-d892-4ddf-93cf-27cce0d0c2e7","system_id":"levelo_inurba_marseille","lat":43.24073,"lon":5.37753,"is_reserved":false,"is_disabled":false,"rental_uris":{"android":"levelo://app?vid=1b5b0898-d892-4ddf-93cf-27cce0d0c2e7","ios":"levelo://app?vid=1b5b0898-d892-4ddf-93cf-27cce0d0c2e7"},"vehicle_type_id":"4","last_reported":1773951930,"current_range_meters":5600,"station_id":"ce4bhnp2rcd13ifvqgvg","pricing_plan_id":"cebpf4jnsgd1na2vs0mg"},{"bike_id":"82dac7dc-baf9-49dd-ae7e-c9092db1fe4a","system_id":"levelo_inurba_marseille","lat":43.29526,"lon":5.38542,"is_reserved":false,"is_disabled":false,"rental_uris":{"android":"levelo://app?vid=82dac7dc-baf9-49dd-ae7e-c9092db1fe4a","ios":"levelo://app?vid=82dac7dc-baf9-49dd-ae7e-c9092db1fe4a"},"vehicle_type_id":"4","last_reported":1773951930,"current_range_meters":5600,"station_id":"ce4bgih2rcd13ifvqba0","pricing_plan_id":"cebpf4jnsgd1na2vs0mg"},{"bike_id":"5f744b7f-d9ac-4940-9d12-c0e19756661f","system_id":"levelo_inurba_marseille","lat":43.29408,"lon":5.41315,"is_reserved":false,"is_disabled":false,"rental_uris":{"android":"levelo://app?vid=5f744b7f-d9ac-4940-9d12-c0e19756661f","ios":"levelo://app?vid=5f744b7f-d9ac-4940-9d12-c0e19756661f"},"vehicle_type_id":"4","last_reported":1773951930,"current_range_meters":5600,"station_id":"","pricing_plan_id":"cebpf4jnsgd1na2vs0mg"},{"bike_id":"7770b857-d46b-4610-b63e-d127c9a6b1b6","system_id":"levelo_inurba_marseille","lat":43.22927,"lon":5.35373,"is_reserved":false,"is_disabled":false,"rental_uris":{"android":"levelo://app?vid=7770b857-d46b-4610-b63e-d127c9a6b1b6","ios":"levelo://app?vid=7770b857-d46b-4610-b63e-d127c9a6b1b6"},"vehicle_type_id":"4","last_reported":1773951930,"current_range_meters":5600,"station_id":"cpo3532slgdg3j2ikp40","pricing_plan_id":"cebpf4jnsgd1na2vs0mg"},{"bike_id":"f8002e32-7d40-48f8-99b3-a631b985eba5","system_id":"levelo_inurba_marseille","lat":43.337566,"lon":5.374557,"is_reserved":false,"is_disabled":false,"rental_uris":{"android":"levelo://app?vid=f8002e32-7d40-48f8-99b3-a631b985eba5","ios":"levelo://app?vid=f8002e32-7d40-48f8-99b3-a631b985eba5"},"vehicle_type_id":"4","last_reported":1773951930,"current_range_meters":6000,"station_id":"","pricing_plan_id":"cebpf4jnsgd1na2vs0mg"},{"bike_id":"f7e79517-161a-451a-8a95-bb710b1b4d21","system_id":"levelo_inurba_marseille","lat":43.2985,"lon":5.37898,"is_reserved":false,"is_disabled":false,"rental_uris":{"android":"levelo://app?vid=f7e79517-161a-451a-8a95-bb710b1b4d21","ios":"levelo://app?vid=f7e79517-161a-451a-8a95-bb710b1b4d21"},"vehicle_type_id":"4","last_reported":1773951930,"current_range_meters":6000,"station_id":"","pricing_plan_id":"cebpf4jnsgd1na2vs0mg"},{"bike_id":"25a235b7-3b5d-4bbd-9b7e-7bd77524d1e3","system_id":"levelo_inurba_marseille","lat":43.2418,"lon":5.39725,"is_reserved":false,"is_disabled":false,"rental_uris":{"android":"levelo://app?vid=25a235b7-3b5d-4bbd-9b7e-7bd77524d1e3","ios":"levelo://app?vid=25a235b7-3b5d-4bbd-9b7e-7bd77524d1e3"},"vehicle_type_id":"4","last_reported":1773951930,"current_range_meters":6000,"station_id":"ce4bhn12rcd13ifvqgpg","pricing_plan_id":"cebpf4jnsgd1na2vs0mg"},{"bike_id":"d971a7ed-b4ca-4799-a49e-54fb4eda212c","system_id":"levelo_inurba_marseille","lat":43.28921,"lon":5.38403,"is_reserved":false,"is_disabled":false,"rental_uris":{"android":"levelo://app?vid=d971a7ed-b4ca-4799-a49e-54fb4eda212c","ios":"levelo://app?vid=d971a7ed-b4ca-4799-a49e-54fb4eda212c"},"vehicle_type_id":"4","last_reported":1773951930,"current_range_meters":6000,"station_id":"ce4bh612rcd13ifvqe6g","pricing_plan_id":"cebpf4jnsgd1na2vs0mg"},{"bike_id":"3ead39a4-807a-44fa-84fd-662cbd412bef","system_id":"levelo_inurba_marseille","lat":43.32111,"lon":5.36762,"is_reserved":false,"is_disabled":false,"rental_uris":{"android":"levelo://app?vid=3ead39a4-807a-44fa-84fd-662cbd412bef","ios":"levelo://app?vid=3ead39a4-807a-44fa-84fd-662cbd412bef"},"vehicle_type_id":"4","last_reported":1773951930,"current_range_meters":6000,"station_id":"ce4bhrh2rcd13ifvqhug","pricing_plan_id":"cebpf4jnsgd1na2vs0mg"},{"bike_id":"80b7eb86-d44d-4945-8f3c-c36c8aeeddf5","system_id":"levelo_inurba_marseille","lat":43.28228,"lon":5.3906,"is_reserved":false,"is_disabled":false,"rental_uris":{"android":"levelo://app?vid=80b7eb86-d44d-4945-8f3c-c36c8aeeddf5","ios":"levelo://app?vid=80b7eb86-d44d-4945-8f3c-c36c8aeeddf5"},"vehicle_type_id":"4","last_reported":1773951930,"current_range_meters":6000,"station_id":"ce4bhn92rcd13ifvqgsg","pricing_plan_id":"cebpf4jnsgd1na2vs0mg"},{"bike_id":"5a26d48e-3c28-4615-9551-75c26a860c9f","system_id":"levelo_inurba_marseille","lat":43.29265,"lon":5.40896,"is_reserved":false,"is_disabled":false,"rental_uris":{"android":"levelo://app?vid=5a26d48e-3c28-4615-9551-75c26a860c9f","ios":"levelo://app?vid=5a26d48e-3c28-4615-9551-75c26a860c9f"},"vehicle_type_id":"4","last_reported":1773951930,"current_range_meters":6000,"station_id":"ce4bh192rcd13ifvqdc0","pricing_plan_id":"cebpf4jnsgd1na2vs0mg"},{"bike_id":"6758c5b1-42aa-479e-9750-b0e19de057e9","system_id":"levelo_inurba_marseille","lat":43.29272,"lon":5.38433,"is_reserved":false,"is_disabled":false,"rental_uris":{"android":"levelo://app?vid=6758c5b1-42aa-479e-9750-b0e19de057e9","ios":"levelo://app?vid=6758c5b1-42aa-479e-9750-b0e19de057e9"},"vehicle_type_id":"4","last_reported":1773951930,"current_range_meters":6000,"station_id":"ce4bh692rcd13ifvqea0","pricing_plan_id":"cebpf4jnsgd1na2vs0mg"},{"bike_id":"b6582774-366a-4011-8e66-88320bffa176","system_id":"levelo_inurba_marseille","lat":43.24384,"lon":5.37069,"is_reserved":false,"is_disabled":false,"rental_uris":{"android":"levelo://app?vid=b6582774-366a-4011-8e66-88320bffa176","ios":"levelo://app?vid=b6582774-366a-4011-8e66-88320bffa176"},"vehicle_type_id":"4","last_reported":1773951930,"current_range_meters":6000,"station_id":"ce4bhhh2rcd13ifvqfk0","pricing_plan_id":"cebpf4jnsgd1na2vs0mg"},{"bike_id":"13f22504-41ee-4c06-bb43-b22067e22b34","system_id":"levelo_inurba_marseille","lat":43.27446,"lon":5.39425,"is_reserved":false,"is_disabled":false,"rental_uris":{"android":"levelo://app?vid=13f22504-41ee-4c06-bb43-b22067e22b34","ios":"levelo://app?vid=13f22504-41ee-4c06-bb43-b22067e22b34"},"vehicle_type_id":"4","last_reported":1773951930,"current_range_meters":6000,"station_id":"ce4bhdp2rcd13ifvqf20","pricing_plan_id":"cebpf4jnsgd1na2vs0mg"},{"bike_id":"fe05c8a8-d4a3-48d4-8f32-905762f11cf6","system_id":"levelo_inurba_marseille","lat":43.27323,"lon":5.3909,"is_reserved":false,"is_disabled":false,"rental_uris":{"android":"levelo://app?vid=fe05c8a8-d4a3-48d4-8f32-905762f11cf6","ios":"levelo://app?vid=fe05c8a8-d4a3-48d4-8f32-905762f11cf6"},"vehicle_type_id":"4","last_reported":1773951930,"current_range_meters":6000,"station_id":"ce4bhgp2rcd13ifvqfe0","pricing_plan_id":"cebpf4jnsgd1na2vs0mg"},{"bike_id":"69dc0199-53d1-4a6e-ade3-580f2c888e49","system_id":"levelo_inurba_marseille","lat":43.24649,"lon":5.38885,"is_reserved":false,"is_disabled":false,"rental_uris":{"android":"levelo://app?vid=69dc0199-53d1-4a6e-ade3-580f2c888e49","ios":"levelo://app?vid=69dc0199-53d1-4a6e-ade3-580f2c888e49"},"vehicle_type_id":"4","last_reported":1773951930,"current_range_meters":6000,"station_id":"ce4bhg12rcd13ifvqf60","pricing_plan_id":"cebpf4jnsgd1na2vs0mg"},{"bike_id":"3cdb9282-92ea-46a0-a841-f2dd988ecc68","system_id":"levelo_inurba_marseille","lat":43.22956,"lon":5.35396,"is_reserved":false,"is_disabled":false,"rental_uris":{"android":"levelo://app?vid=3cdb9282-92ea-46a0-a841-f2dd988ecc68","ios":"levelo://app?vid=3cdb9282-92ea-46a0-a841-f2dd988ecc68"},"vehicle_type_id":"4","last_reported":1773951930,"current_range_meters":6000,"station_id":"cpo3532slgdg3j2ikp40","pricing_plan_id":"cebpf4jnsgd1na2vs0mg"},{"bike_id":"fb01ab28-4ac9-476b-a47a-c55a6ae6de76","system_id":"levelo_inurba_marseille","lat":43.28005,"lon":5.40013,"is_reserved":false,"is_disabled":false,"rental_uris":{"android":"levelo://app?vid=fb01ab28-4ac9-476b-a47a-c55a6ae6de76","ios":"levelo://app?vid=fb01ab28-4ac9-476b-a47a-c55a6ae6de76"},"vehicle_type_id":"4","last_reported":1773951930,"current_range_meters":6400,"station_id":"ce4bho92rcd13ifvqh4g","pricing_plan_id":"cebpf4jnsgd1na2vs0mg"},{"bike_id":"9b8ea49c-a36b-4ee9-b2be-f57b309f6f27","system_id":"levelo_inurba_marseille","lat":43.30326,"lon":5.40441,"is_reserved":false,"is_disabled":false,"rental_uris":{"android":"levelo://app?vid=9b8ea49c-a36b-4ee9-b2be-f57b309f6f27","ios":"levelo://app?vid=9b8ea49c-a36b-4ee9-b2be-f57b309f6f27"},"vehicle_type_id":"4","last_reported":1773951930,"current_range_meters":6400,"station_id":"ce4bh012rcd13ifvqd10","pricing_plan_id":"cebpf4jnsgd1na2vs0mg"},{"bike_id":"24dc1ce5-2db6-421b-869a-69d6f082b300","system_id":"levelo_inurba_marseille","lat":43.29802,"lon":5.36256,"is_reserved":false,"is_disabled":false,"rental_uris":{"android":"levelo://app?vid=24dc1ce5-2db6-421b-869a-69d6f082b300","ios":"levelo://app?vid=24dc1ce5-2db6-421b-869a-69d6f082b300"},"vehicle_type_id":"4","last_reported":1773951930,"current_range_meters":6400,"station_id":"ce4bgpp2rcd13ifvqc3g","pricing_plan_id":"cebpf4jnsgd1na2vs0mg"},{"bike_id":"730ffb5d-408c-403f-ac8c-aeaf0b8ab37d","system_id":"levelo_inurba_marseille","lat":43.28111,"lon":5.37855,"is_reserved":false,"is_disabled":false,"rental_uris":{"android":"levelo://app?vid=730ffb5d-408c-403f-ac8c-aeaf0b8ab37d","ios":"levelo://app?vid=730ffb5d-408c-403f-ac8c-aeaf0b8ab37d"},"vehicle_type_id":"4","last_reported":1773951930,"current_range_meters":6400,"station_id":"ce4bha12rcd13ifvqee0","pricing_plan_id":"cebpf4jnsgd1na2vs0mg"},{"bike_id":"413d347b-04e3-4ee4-a48e-d84b46247dd8","system_id":"levelo_inurba_marseille","lat":43.30135,"lon":5.39879,"is_reserved":false,"is_disabled":false,"rental_uris":{"android":"levelo://app?vid=413d347b-04e3-4ee4-a48e-d84b46247dd8","ios":"levelo://app?vid=413d347b-04e3-4ee4-a48e-d84b46247dd8"},"vehicle_type_id":"4","last_reported":1773951930,"current_range_meters":6400,"station_id":"ce4bh0h2rcd13ifvqd40","pricing_plan_id":"cebpf4jnsgd1na2vs0mg"},{"bike_id":"aa912512-782f-43ea-879d-41a967be0aa2","system_id":"levelo_inurba_marseille","lat":43.2953,"lon":5.38522,"is_reserved":false,"is_disabled":false,"rental_uris":{"android":"levelo://app?vid=aa912512-782f-43ea-879d-41a967be0aa2","ios":"levelo://app?vid=aa912512-782f-43ea-879d-41a967be0aa2"},"vehicle_type_id":"4","last_reported":1773951930,"current_range_meters":6400,"station_id":"ce4bgih2rcd13ifvqba0","pricing_plan_id":"cebpf4jnsgd1na2vs0mg"},{"bike_id":"e71aee5c-105a-4327-9048-67909c29ab24","system_id":"levelo_inurba_marseille","lat":43.28918,"lon":5.38388,"is_reserved":false,"is_disabled":false,"rental_uris":{"android":"levelo://app?vid=e71aee5c-105a-4327-9048-67909c29ab24","ios":"levelo://app?vid=e71aee5c-105a-4327-9048-67909c29ab24"},"vehicle_type_id":"4","last_reported":1773951930,"current_range_meters":6400,"station_id":"ce4bh612rcd13ifvqe6g","pricing_plan_id":"cebpf4jnsgd1na2vs0mg"},{"bike_id":"e5050212-96b3-4ec8-9687-7353c47765bc","system_id":"levelo_inurba_marseille","lat":43.29333,"lon":5.37375,"is_reserved":false,"is_disabled":false,"rental_uris":{"android":"levelo://app?vid=e5050212-96b3-4ec8-9687-7353c47765bc","ios":"levelo://app?vid=e5050212-96b3-4ec8-9687-7353c47765bc"},"vehicle_type_id":"4","last_reported":1773951930,"current_range_meters":6400,"station_id":"","pricing_plan_id":"cebpf4jnsgd1na2vs0mg"},{"bike_id":"cefc32aa-143a-4e19-a972-4a13bf6f56d5","system_id":"levelo_inurba_marseille","lat":43.2934,"lon":5.38355,"is_reserved":false,"is_disabled":false,"rental_uris":{"android":"levelo://app?vid=cefc32aa-143a-4e19-a972-4a13bf6f56d5","ios":"levelo://app?vid=cefc32aa-143a-4e19-a972-4a13bf6f56d5"},"vehicle_type_id":"4","last_reported":1773951930,"current_range_meters":6400,"station_id":"","pricing_plan_id":"cebpf4jnsgd1na2vs0mg"},{"bike_id":"d587c369-7b5a-4f48-88cf-962803ec71ba","system_id":"levelo_inurba_marseille","lat":43.24807,"lon":5.37467,"is_reserved":false,"is_disabled":false,"rental_uris":{"android":"levelo://app?vid=d587c369-7b5a-4f48-88cf-962803ec71ba","ios":"levelo://app?vid=d587c369-7b5a-4f48-88cf-962803ec71ba"},"vehicle_type_id":"4","last_reported":1773951930,"current_range_meters":6400,"station_id":"ce4bhgh2rcd13ifvqfb0","pricing_plan_id":"cebpf4jnsgd1na2vs0mg"},{"bike_id":"1b46e97a-a675-49ab-8e23-f308e5ef7260","system_id":"levelo_inurba_marseille","lat":43.32957,"lon":5.39026,"is_reserved":false,"is_disabled":false,"rental_uris":{"android":"levelo://app?vid=1b46e97a-a675-49ab-8e23-f308e5ef7260","ios":"levelo://app?vid=1b46e97a-a675-49ab-8e23-f308e5ef7260"},"vehicle_type_id":"4","last_reported":1773951930,"current_range_meters":6400,"station_id":"","pricing_plan_id":"cebpf4jnsgd1na2vs0mg"},{"bike_id":"6cda15e7-fe2d-4eca-9a9a-008e31fbee7c","system_id":"levelo_inurba_marseille","lat":43.24678,"lon":5.38166,"is_reserved":false,"is_disabled":true,"rental_uris":{"android":"levelo://app?vid=6cda15e7-fe2d-4eca-9a9a-008e31fbee7c","ios":"levelo://app?vid=6cda15e7-fe2d-4eca-9a9a-008e31fbee7c"},"vehicle_type_id":"4","last_reported":1773951930,"current_range_meters":6400,"station_id":"ce4bhih2rcd13ifvqfr0","pricing_plan_id":"cebpf4jnsgd1na2vs0mg"},{"bike_id":"ae43c1fd-cb37-4504-b9f4-a86d051e70db","system_id":"levelo_inurba_marseille","lat":43.29261,"lon":5.38426,"is_reserved":false,"is_disabled":false,"rental_uris":{"android":"levelo://app?vid=ae43c1fd-cb37-4504-b9f4-a86d051e70db","ios":"levelo://app?vid=ae43c1fd-cb37-4504-b9f4-a86d051e70db"},"vehicle_type_id":"4","last_reported":1773951930,"current_range_meters":6400,"station_id":"ce4bh692rcd13ifvqea0","pricing_plan_id":"cebpf4jnsgd1na2vs0mg"},{"bike_id":"1a35434d-c9e2-448e-ab11-b763a506a6ff","system_id":"levelo_inurba_marseille","lat":43.29928,"lon":5.38091,"is_reserved":false,"is_disabled":true,"rental_uris":{"android":"levelo://app?vid=1a35434d-c9e2-448e-ab11-b763a506a6ff","ios":"levelo://app?vid=1a35434d-c9e2-448e-ab11-b763a506a6ff"},"vehicle_type_id":"4","last_reported":1773951930,"current_range_meters":6400,"station_id":"","pricing_plan_id":"cebpf4jnsgd1na2vs0mg"},{"bike_id":"c39752ab-c51d-425c-ac87-ff7476209bd0","system_id":"levelo_inurba_marseille","lat":43.29906,"lon":5.39732,"is_reserved":false,"is_disabled":false,"rental_uris":{"android":"levelo://app?vid=c39752ab-c51d-425c-ac87-ff7476209bd0","ios":"levelo://app?vid=c39752ab-c51d-425c-ac87-ff7476209bd0"},"vehicle_type_id":"4","last_reported":1773951930,"current_range_meters":6400,"station_id":"ce4bh0h2rcd13ifvqd50","pricing_plan_id":"cebpf4jnsgd1na2vs0mg"},{"bike_id":"cf21a704-d1d6-45ac-b508-b7d48f023c9f","system_id":"levelo_inurba_marseille","lat":43.32118,"lon":5.36747,"is_reserved":false,"is_disabled":false,"rental_uris":{"android":"levelo://app?vid=cf21a704-d1d6-45ac-b508-b7d48f023c9f","ios":"levelo://app?vid=cf21a704-d1d6-45ac-b508-b7d48f023c9f"},"vehicle_type_id":"4","last_reported":1773951930,"current_range_meters":6800,"station_id":"ce4bhrh2rcd13ifvqhug","pricing_plan_id":"cebpf4jnsgd1na2vs0mg"},{"bike_id":"864f588c-6c9a-47f2-bf8a-559a5ddb02ea","system_id":"levelo_inurba_marseille","lat":43.32107,"lon":5.368,"is_reserved":false,"is_disabled":false,"rental_uris":{"android":"levelo://app?vid=864f588c-6c9a-47f2-bf8a-559a5ddb02ea","ios":"levelo://app?vid=864f588c-6c9a-47f2-bf8a-559a5ddb02ea"},"vehicle_type_id":"4","last_reported":1773951930,"current_range_meters":6800,"station_id":"ce4bhrh2rcd13ifvqhug","pricing_plan_id":"cebpf4jnsgd1na2vs0mg"},{"bike_id":"479a3019-4d75-4064-8072-4f0933c8d486","system_id":"levelo_inurba_marseille","lat":43.31688,"lon":5.40473,"is_reserved":false,"is_disabled":false,"rental_uris":{"android":"levelo://app?vid=479a3019-4d75-4064-8072-4f0933c8d486","ios":"levelo://app?vid=479a3019-4d75-4064-8072-4f0933c8d486"},"vehicle_type_id":"4","last_reported":1773951930,"current_range_meters":6800,"station_id":"ce4bh012rcd13ifvqd00","pricing_plan_id":"cebpf4jnsgd1na2vs0mg"},{"bike_id":"081a0881-89b6-4aec-8d87-38fd39de8439","system_id":"levelo_inurba_marseille","lat":43.28541,"lon":5.44112,"is_reserved":false,"is_disabled":false,"rental_uris":{"android":"levelo://app?vid=081a0881-89b6-4aec-8d87-38fd39de8439","ios":"levelo://app?vid=081a0881-89b6-4aec-8d87-38fd39de8439"},"vehicle_type_id":"4","last_reported":1773951930,"current_range_meters":6800,"station_id":"st_d3j3df2ikq2c7380ej80","pricing_plan_id":"cebpf4jnsgd1na2vs0mg"},{"bike_id":"e6ffe277-3c3a-4102-896e-1b87fa5566c3","system_id":"levelo_inurba_marseille","lat":43.26543,"lon":5.37305,"is_reserved":false,"is_disabled":false,"rental_uris":{"android":"levelo://app?vid=e6ffe277-3c3a-4102-896e-1b87fa5566c3","ios":"levelo://app?vid=e6ffe277-3c3a-4102-896e-1b87fa5566c3"},"vehicle_type_id":"4","last_reported":1773951930,"current_range_meters":6800,"station_id":"ce4bhg12rcd13ifvqf70","pricing_plan_id":"cebpf4jnsgd1na2vs0mg"},{"bike_id":"35c136a0-4cf8-4adb-a04e-0756c87c041a","system_id":"levelo_inurba_marseille","lat":43.29569,"lon":5.39973,"is_reserved":false,"is_disabled":false,"rental_uris":{"android":"levelo://app?vid=35c136a0-4cf8-4adb-a04e-0756c87c041a","ios":"levelo://app?vid=35c136a0-4cf8-4adb-a04e-0756c87c041a"},"vehicle_type_id":"4","last_reported":1773951930,"current_range_meters":6800,"station_id":"ce4bh312rcd13ifvqdj0","pricing_plan_id":"cebpf4jnsgd1na2vs0mg"},{"bike_id":"3dcfba69-0432-4dc6-9064-f4c0dafe939f","system_id":"levelo_inurba_marseille","lat":43.24387,"lon":5.3705,"is_reserved":false,"is_disabled":false,"rental_uris":{"android":"levelo://app?vid=3dcfba69-0432-4dc6-9064-f4c0dafe939f","ios":"levelo://app?vid=3dcfba69-0432-4dc6-9064-f4c0dafe939f"},"vehicle_type_id":"4","last_reported":1773951930,"current_range_meters":6800,"station_id":"ce4bhhh2rcd13ifvqfk0","pricing_plan_id":"cebpf4jnsgd1na2vs0mg"},{"bike_id":"2a7615a8-4de5-4c5e-932a-4d0c6bccbd93","system_id":"levelo_inurba_marseille","lat":43.29635,"lon":5.40594,"is_reserved":false,"is_disabled":false,"rental_uris":{"android":"levelo://app?vid=2a7615a8-4de5-4c5e-932a-4d0c6bccbd93","ios":"levelo://app?vid=2a7615a8-4de5-4c5e-932a-4d0c6bccbd93"},"vehicle_type_id":"4","last_reported":1773951930,"current_range_meters":6800,"station_id":"ce4bh0h2rcd13ifvqd60","pricing_plan_id":"cebpf4jnsgd1na2vs0mg"},{"bike_id":"bc7b59c0-9131-4927-8aba-07d26e63b0ed","system_id":"levelo_inurba_marseille","lat":43.29266,"lon":5.38443,"is_reserved":false,"is_disabled":false,"rental_uris":{"android":"levelo://app?vid=bc7b59c0-9131-4927-8aba-07d26e63b0ed","ios":"levelo://app?vid=bc7b59c0-9131-4927-8aba-07d26e63b0ed"},"vehicle_type_id":"4","last_reported":1773951930,"current_range_meters":6800,"station_id":"ce4bh692rcd13ifvqea0","pricing_plan_id":"cebpf4jnsgd1na2vs0mg"},{"bike_id":"95157e4d-2707-499b-a312-630dad09c2f1","system_id":"levelo_inurba_marseille","lat":43.30202,"lon":5.36642,"is_reserved":false,"is_disabled":false,"rental_uris":{"android":"levelo://app?vid=95157e4d-2707-499b-a312-630dad09c2f1","ios":"levelo://app?vid=95157e4d-2707-499b-a312-630dad09c2f1"},"vehicle_type_id":"4","last_reported":1773951930,"current_range_meters":6800,"station_id":"ce4bgrh2rcd13ifvqc8g","pricing_plan_id":"cebpf4jnsgd1na2vs0mg"},{"bike_id":"d03a2022-6922-4b85-aada-659333694e5e","system_id":"levelo_inurba_marseille","lat":43.31179,"lon":5.38728,"is_reserved":false,"is_disabled":true,"rental_uris":{"android":"levelo://app?vid=d03a2022-6922-4b85-aada-659333694e5e","ios":"levelo://app?vid=d03a2022-6922-4b85-aada-659333694e5e"},"vehicle_type_id":"4","last_reported":1773951930,"current_range_meters":6800,"station_id":"ce4bgv12rcd13ifvqcp0","pricing_plan_id":"cebpf4jnsgd1na2vs0mg"},{"bike_id":"78beea6e-fd38-45c1-919e-297e7a3c4aab","system_id":"levelo_inurba_marseille","lat":43.28612,"lon":5.37064,"is_reserved":false,"is_disabled":false,"rental_uris":{"android":"levelo://app?vid=78beea6e-fd38-45c1-919e-297e7a3c4aab","ios":"levelo://app?vid=78beea6e-fd38-45c1-919e-297e7a3c4aab"},"vehicle_type_id":"4","last_reported":1773951930,"current_range_meters":6800,"station_id":"ce4bht12rcd13ifvqi60","pricing_plan_id":"cebpf4jnsgd1na2vs0mg"},{"bike_id":"dd10efc5-28b9-436a-be78-8011941e89fc","system_id":"levelo_inurba_marseille","lat":43.28463,"lon":5.48405,"is_reserved":false,"is_disabled":false,"rental_uris":{"android":"levelo://app?vid=dd10efc5-28b9-436a-be78-8011941e89fc","ios":"levelo://app?vid=dd10efc5-28b9-436a-be78-8011941e89fc"},"vehicle_type_id":"4","last_reported":1773951930,"current_range_meters":6800,"station_id":"st_d3svhcjqgbts73a3dn0g","pricing_plan_id":"cebpf4jnsgd1na2vs0mg"},{"bike_id":"a7589a93-7e92-46e3-9adb-33c382fc7b2d","system_id":"levelo_inurba_marseille","lat":43.23952,"lon":5.36628,"is_reserved":false,"is_disabled":false,"rental_uris":{"android":"levelo://app?vid=a7589a93-7e92-46e3-9adb-33c382fc7b2d","ios":"levelo://app?vid=a7589a93-7e92-46e3-9adb-33c382fc7b2d"},"vehicle_type_id":"4","last_reported":1773951930,"current_range_meters":6800,"station_id":"ce4bhi12rcd13ifvqfp0","pricing_plan_id":"cebpf4jnsgd1na2vs0mg"},{"bike_id":"d05a0db8-44b3-4090-864e-a694f87f29e7","system_id":"levelo_inurba_marseille","lat":43.28038,"lon":5.36946,"is_reserved":false,"is_disabled":false,"rental_uris":{"android":"levelo://app?vid=d05a0db8-44b3-4090-864e-a694f87f29e7","ios":"levelo://app?vid=d05a0db8-44b3-4090-864e-a694f87f29e7"},"vehicle_type_id":"4","last_reported":1773951930,"current_range_meters":6800,"station_id":"ce4bha12rcd13ifvqef0","pricing_plan_id":"cebpf4jnsgd1na2vs0mg"},{"bike_id":"93b0d60c-2cda-4aa2-a33a-45da567ae34a","system_id":"levelo_inurba_marseille","lat":43.24649,"lon":5.38895,"is_reserved":false,"is_disabled":false,"rental_uris":{"android":"levelo://app?vid=93b0d60c-2cda-4aa2-a33a-45da567ae34a","ios":"levelo://app?vid=93b0d60c-2cda-4aa2-a33a-45da567ae34a"},"vehicle_type_id":"4","last_reported":1773951930,"current_range_meters":6800,"station_id":"ce4bhg12rcd13ifvqf60","pricing_plan_id":"cebpf4jnsgd1na2vs0mg"},{"bike_id":"e84409cd-ab11-47ab-92ac-0bad50daf5c3","system_id":"levelo_inurba_marseille","lat":43.31929,"lon":5.36808,"is_reserved":false,"is_disabled":false,"rental_uris":{"android":"levelo://app?vid=e84409cd-ab11-47ab-92ac-0bad50daf5c3","ios":"levelo://app?vid=e84409cd-ab11-47ab-92ac-0bad50daf5c3"},"vehicle_type_id":"4","last_reported":1773951930,"current_range_meters":6800,"station_id":"st_d6o2h0d0559c73evc1b0","pricing_plan_id":"cebpf4jnsgd1na2vs0mg"},{"bike_id":"17a139df-17a2-4cb5-8cdc-aa40d036a00a","system_id":"levelo_inurba_marseille","lat":43.23802,"lon":5.36631,"is_reserved":false,"is_disabled":false,"rental_uris":{"android":"levelo://app?vid=17a139df-17a2-4cb5-8cdc-aa40d036a00a","ios":"levelo://app?vid=17a139df-17a2-4cb5-8cdc-aa40d036a00a"},"vehicle_type_id":"4","last_reported":1773951930,"current_range_meters":6800,"station_id":"st_d3nk18o9ro0c73en2l3g","pricing_plan_id":"cebpf4jnsgd1na2vs0mg"},{"bike_id":"600469f9-bda4-4951-a61e-12b2370882e2","system_id":"levelo_inurba_marseille","lat":43.28867,"lon":5.42532,"is_reserved":false,"is_disabled":false,"rental_uris":{"android":"levelo://app?vid=600469f9-bda4-4951-a61e-12b2370882e2","ios":"levelo://app?vid=600469f9-bda4-4951-a61e-12b2370882e2"},"vehicle_type_id":"4","last_reported":1773951930,"current_range_meters":6800,"station_id":"","pricing_plan_id":"cebpf4jnsgd1na2vs0mg"},{"bike_id":"2042b168-377d-44b9-86a1-a8003ce7916b","system_id":"levelo_inurba_marseille","lat":43.31341,"lon":5.38828,"is_reserved":false,"is_disabled":false,"rental_uris":{"android":"levelo://app?vid=2042b168-377d-44b9-86a1-a8003ce7916b","ios":"levelo://app?vid=2042b168-377d-44b9-86a1-a8003ce7916b"},"vehicle_type_id":"4","last_reported":1773951930,"current_range_meters":6800,"station_id":"","pricing_plan_id":"cebpf4jnsgd1na2vs0mg"},{"bike_id":"b26badbd-8536-49ab-8218-28fa760818b2","system_id":"levelo_inurba_marseille","lat":43.28944,"lon":5.36636,"is_reserved":false,"is_disabled":false,"rental_uris":{"android":"levelo://app?vid=b26badbd-8536-49ab-8218-28fa760818b2","ios":"levelo://app?vid=b26badbd-8536-49ab-8218-28fa760818b2"},"vehicle_type_id":"4","last_reported":1773951930,"current_range_meters":6800,"station_id":"ce4bhap2rcd13ifvqek0","pricing_plan_id":"cebpf4jnsgd1na2vs0mg"},{"bike_id":"6fc72c7e-a4af-4996-a31d-94c2cb3dc596","system_id":"levelo_inurba_marseille","lat":43.2954,"lon":5.38534,"is_reserved":false,"is_disabled":false,"rental_uris":{"android":"levelo://app?vid=6fc72c7e-a4af-4996-a31d-94c2cb3dc596","ios":"levelo://app?vid=6fc72c7e-a4af-4996-a31d-94c2cb3dc596"},"vehicle_type_id":"4","last_reported":1773951930,"current_range_meters":6800,"station_id":"ce4bgih2rcd13ifvqba0","pricing_plan_id":"cebpf4jnsgd1na2vs0mg"},{"bike_id":"a8172de3-ed46-4d2f-a1b9-a67ea150a7f6","system_id":"levelo_inurba_marseille","lat":43.2549,"lon":5.37652,"is_reserved":false,"is_disabled":false,"rental_uris":{"android":"levelo://app?vid=a8172de3-ed46-4d2f-a1b9-a67ea150a7f6","ios":"levelo://app?vid=a8172de3-ed46-4d2f-a1b9-a67ea150a7f6"},"vehicle_type_id":"4","last_reported":1773951930,"current_range_meters":6800,"station_id":"ce4bhh12rcd13ifvqff0","pricing_plan_id":"cebpf4jnsgd1na2vs0mg"},{"bike_id":"1ed14975-ffc4-4856-bb43-9428d8562a11","system_id":"levelo_inurba_marseille","lat":43.28329,"lon":5.38125,"is_reserved":false,"is_disabled":false,"rental_uris":{"android":"levelo://app?vid=1ed14975-ffc4-4856-bb43-9428d8562a11","ios":"levelo://app?vid=1ed14975-ffc4-4856-bb43-9428d8562a11"},"vehicle_type_id":"4","last_reported":1773951930,"current_range_meters":6800,"station_id":"ce4bh412rcd13ifvqdr0","pricing_plan_id":"cebpf4jnsgd1na2vs0mg"},{"bike_id":"c508563b-ff9e-44c5-bf19-b54fb26e0630","system_id":"levelo_inurba_marseille","lat":43.26557,"lon":5.39053,"is_reserved":false,"is_disabled":false,"rental_uris":{"android":"levelo://app?vid=c508563b-ff9e-44c5-bf19-b54fb26e0630","ios":"levelo://app?vid=c508563b-ff9e-44c5-bf19-b54fb26e0630"},"vehicle_type_id":"4","last_reported":1773951930,"current_range_meters":6800,"station_id":"ce4bhe12rcd13ifvqf30","pricing_plan_id":"cebpf4jnsgd1na2vs0mg"},{"bike_id":"8f252525-35c5-4f44-ae60-aef6d2603d29","system_id":"levelo_inurba_marseille","lat":43.26393,"lon":5.41026,"is_reserved":false,"is_disabled":false,"rental_uris":{"android":"levelo://app?vid=8f252525-35c5-4f44-ae60-aef6d2603d29","ios":"levelo://app?vid=8f252525-35c5-4f44-ae60-aef6d2603d29"},"vehicle_type_id":"4","last_reported":1773951930,"current_range_meters":6800,"station_id":"st_d4e5ca6na9uc73bfl5fg","pricing_plan_id":"cebpf4jnsgd1na2vs0mg"},{"bike_id":"a11c8cfa-453a-4892-a974-6a22bafa8290","system_id":"levelo_inurba_marseille","lat":43.23194,"lon":5.35552,"is_reserved":false,"is_disabled":false,"rental_uris":{"android":"levelo://app?vid=a11c8cfa-453a-4892-a974-6a22bafa8290","ios":"levelo://app?vid=a11c8cfa-453a-4892-a974-6a22bafa8290"},"vehicle_type_id":"4","last_reported":1773951930,"current_range_meters":7200,"station_id":"ce4bhu92rcd13ifvqi70","pricing_plan_id":"cebpf4jnsgd1na2vs0mg"},{"bike_id":"13ece891-29b9-4ae9-a4c4-ae3da55ec954","system_id":"levelo_inurba_marseille","lat":43.23219,"lon":5.35567,"is_reserved":false,"is_disabled":false,"rental_uris":{"android":"levelo://app?vid=13ece891-29b9-4ae9-a4c4-ae3da55ec954","ios":"levelo://app?vid=13ece891-29b9-4ae9-a4c4-ae3da55ec954"},"vehicle_type_id":"4","last_reported":1773951930,"current_range_meters":7200,"station_id":"ce4bhu92rcd13ifvqi70","pricing_plan_id":"cebpf4jnsgd1na2vs0mg"},{"bike_id":"a9b7ca13-2660-4df5-ac7e-17daa08bbb3e","system_id":"levelo_inurba_marseille","lat":43.28958,"lon":5.38407,"is_reserved":false,"is_disabled":false,"rental_uris":{"android":"levelo://app?vid=a9b7ca13-2660-4df5-ac7e-17daa08bbb3e","ios":"levelo://app?vid=a9b7ca13-2660-4df5-ac7e-17daa08bbb3e"},"vehicle_type_id":"4","last_reported":1773951930,"current_range_meters":7200,"station_id":"ce4bh612rcd13ifvqe6g","pricing_plan_id":"cebpf4jnsgd1na2vs0mg"},{"bike_id":"6018d565-5c8a-4bab-ba5d-0061fbbaec08","system_id":"levelo_inurba_marseille","lat":43.22913,"lon":5.35414,"is_reserved":false,"is_disabled":false,"rental_uris":{"android":"levelo://app?vid=6018d565-5c8a-4bab-ba5d-0061fbbaec08","ios":"levelo://app?vid=6018d565-5c8a-4bab-ba5d-0061fbbaec08"},"vehicle_type_id":"4","last_reported":1773951930,"current_range_meters":7200,"station_id":"cpo3532slgdg3j2ikp40","pricing_plan_id":"cebpf4jnsgd1na2vs0mg"},{"bike_id":"347a0133-45d3-4213-ae48-606f4453bbf3","system_id":"levelo_inurba_marseille","lat":43.23052,"lon":5.35494,"is_reserved":false,"is_disabled":false,"rental_uris":{"android":"levelo://app?vid=347a0133-45d3-4213-ae48-606f4453bbf3","ios":"levelo://app?vid=347a0133-45d3-4213-ae48-606f4453bbf3"},"vehicle_type_id":"4","last_reported":1773951930,"current_range_meters":7200,"station_id":"cpo3342slgdg3j2ifvpg","pricing_plan_id":"cebpf4jnsgd1na2vs0mg"},{"bike_id":"831c1cdd-11ed-43ca-94d8-82852979c074","system_id":"levelo_inurba_marseille","lat":43.29523,"lon":5.38526,"is_reserved":false,"is_disabled":false,"rental_uris":{"android":"levelo://app?vid=831c1cdd-11ed-43ca-94d8-82852979c074","ios":"levelo://app?vid=831c1cdd-11ed-43ca-94d8-82852979c074"},"vehicle_type_id":"4","last_reported":1773951930,"current_range_meters":7200,"station_id":"ce4bgih2rcd13ifvqba0","pricing_plan_id":"cebpf4jnsgd1na2vs0mg"},{"bike_id":"dd2f7881-755c-4593-bb3a-7ba359f1b823","system_id":"levelo_inurba_marseille","lat":43.29102,"lon":5.38135,"is_reserved":false,"is_disabled":true,"rental_uris":{"android":"levelo://app?vid=dd2f7881-755c-4593-bb3a-7ba359f1b823","ios":"levelo://app?vid=dd2f7881-755c-4593-bb3a-7ba359f1b823"},"vehicle_type_id":"4","last_reported":1773951930,"current_range_meters":7200,"station_id":"ce4bh512rcd13ifvqe2g","pricing_plan_id":"cebpf4jnsgd1na2vs0mg"},{"bike_id":"d5f7f0bf-c4f5-45e1-bf7d-f4959ca7505e","system_id":"levelo_inurba_marseille","lat":43.24397,"lon":5.37077,"is_reserved":false,"is_disabled":false,"rental_uris":{"android":"levelo://app?vid=d5f7f0bf-c4f5-45e1-bf7d-f4959ca7505e","ios":"levelo://app?vid=d5f7f0bf-c4f5-45e1-bf7d-f4959ca7505e"},"vehicle_type_id":"4","last_reported":1773951930,"current_range_meters":7200,"station_id":"ce4bhhh2rcd13ifvqfk0","pricing_plan_id":"cebpf4jnsgd1na2vs0mg"},{"bike_id":"8c1bb7e1-fc52-410e-bc8b-57e5a8629823","system_id":"levelo_inurba_marseille","lat":43.29228,"lon":5.37716,"is_reserved":false,"is_disabled":false,"rental_uris":{"android":"levelo://app?vid=8c1bb7e1-fc52-410e-bc8b-57e5a8629823","ios":"levelo://app?vid=8c1bb7e1-fc52-410e-bc8b-57e5a8629823"},"vehicle_type_id":"4","last_reported":1773951930,"current_range_meters":7200,"station_id":"","pricing_plan_id":"cebpf4jnsgd1na2vs0mg"},{"bike_id":"f303a6e5-78cb-4abf-bd42-94234a12a981","system_id":"levelo_inurba_marseille","lat":43.28155,"lon":5.42665,"is_reserved":false,"is_disabled":false,"rental_uris":{"android":"levelo://app?vid=f303a6e5-78cb-4abf-bd42-94234a12a981","ios":"levelo://app?vid=f303a6e5-78cb-4abf-bd42-94234a12a981"},"vehicle_type_id":"4","last_reported":1773951930,"current_range_meters":7200,"station_id":"ce4bhnh2rcd13ifvqgug","pricing_plan_id":"cebpf4jnsgd1na2vs0mg"},{"bike_id":"6fdb7e93-8c99-48d4-94e2-6ff3a97f0195","system_id":"levelo_inurba_marseille","lat":43.23963,"lon":5.36642,"is_reserved":false,"is_disabled":false,"rental_uris":{"android":"levelo://app?vid=6fdb7e93-8c99-48d4-94e2-6ff3a97f0195","ios":"levelo://app?vid=6fdb7e93-8c99-48d4-94e2-6ff3a97f0195"},"vehicle_type_id":"4","last_reported":1773951930,"current_range_meters":7200,"station_id":"ce4bhi12rcd13ifvqfp0","pricing_plan_id":"cebpf4jnsgd1na2vs0mg"},{"bike_id":"1a23d79e-99ba-48f7-8387-8af02e4f654f","system_id":"levelo_inurba_marseille","lat":43.31718,"lon":5.37749,"is_reserved":false,"is_disabled":false,"rental_uris":{"android":"levelo://app?vid=1a23d79e-99ba-48f7-8387-8af02e4f654f","ios":"levelo://app?vid=1a23d79e-99ba-48f7-8387-8af02e4f654f"},"vehicle_type_id":"4","last_reported":1773951930,"current_range_meters":7200,"station_id":"ce4bgth2rcd13ifvqch0","pricing_plan_id":"cebpf4jnsgd1na2vs0mg"},{"bike_id":"47b958a5-a9e9-4494-8472-abb0f760256b","system_id":"levelo_inurba_marseille","lat":43.23785,"lon":5.36626,"is_reserved":false,"is_disabled":false,"rental_uris":{"android":"levelo://app?vid=47b958a5-a9e9-4494-8472-abb0f760256b","ios":"levelo://app?vid=47b958a5-a9e9-4494-8472-abb0f760256b"},"vehicle_type_id":"4","last_reported":1773951930,"current_range_meters":7200,"station_id":"st_d3nk18o9ro0c73en2l3g","pricing_plan_id":"cebpf4jnsgd1na2vs0mg"},{"bike_id":"d51fe815-5335-4e1f-8e42-efe91c7e85aa","system_id":"levelo_inurba_marseille","lat":43.22938,"lon":5.35373,"is_reserved":false,"is_disabled":false,"rental_uris":{"android":"levelo://app?vid=d51fe815-5335-4e1f-8e42-efe91c7e85aa","ios":"levelo://app?vid=d51fe815-5335-4e1f-8e42-efe91c7e85aa"},"vehicle_type_id":"4","last_reported":1773951930,"current_range_meters":7200,"station_id":"cpo3532slgdg3j2ikp40","pricing_plan_id":"cebpf4jnsgd1na2vs0mg"},{"bike_id":"8c34b7c1-77dc-43df-92bf-62c8c2a27ed2","system_id":"levelo_inurba_marseille","lat":43.29546,"lon":5.38545,"is_reserved":false,"is_disabled":false,"rental_uris":{"android":"levelo://app?vid=8c34b7c1-77dc-43df-92bf-62c8c2a27ed2","ios":"levelo://app?vid=8c34b7c1-77dc-43df-92bf-62c8c2a27ed2"},"vehicle_type_id":"4","last_reported":1773951930,"current_range_meters":7200,"station_id":"ce4bgih2rcd13ifvqba0","pricing_plan_id":"cebpf4jnsgd1na2vs0mg"},{"bike_id":"b7e87515-c3ea-478e-bf01-a70f86b2f092","system_id":"levelo_inurba_marseille","lat":43.24172,"lon":5.364,"is_reserved":false,"is_disabled":false,"rental_uris":{"android":"levelo://app?vid=b7e87515-c3ea-478e-bf01-a70f86b2f092","ios":"levelo://app?vid=b7e87515-c3ea-478e-bf01-a70f86b2f092"},"vehicle_type_id":"4","last_reported":1773951930,"current_range_meters":7200,"station_id":"cpo36qri1sfpv3e86is0","pricing_plan_id":"cebpf4jnsgd1na2vs0mg"},{"bike_id":"9b15e990-a964-42e6-86de-69c5dc0befde","system_id":"levelo_inurba_marseille","lat":43.29191,"lon":5.39327,"is_reserved":false,"is_disabled":false,"rental_uris":{"android":"levelo://app?vid=9b15e990-a964-42e6-86de-69c5dc0befde","ios":"levelo://app?vid=9b15e990-a964-42e6-86de-69c5dc0befde"},"vehicle_type_id":"4","last_reported":1773951930,"current_range_meters":7200,"station_id":"ce4bh192rcd13ifvqdd0","pricing_plan_id":"cebpf4jnsgd1na2vs0mg"},{"bike_id":"9244b4c8-fd54-434e-a175-b038738024f9","system_id":"levelo_inurba_marseille","lat":43.29568,"lon":5.39976,"is_reserved":false,"is_disabled":false,"rental_uris":{"android":"levelo://app?vid=9244b4c8-fd54-434e-a175-b038738024f9","ios":"levelo://app?vid=9244b4c8-fd54-434e-a175-b038738024f9"},"vehicle_type_id":"4","last_reported":1773951930,"current_range_meters":7200,"station_id":"ce4bh312rcd13ifvqdj0","pricing_plan_id":"cebpf4jnsgd1na2vs0mg"},{"bike_id":"e1fcda96-10f8-4416-a2de-b3c0381d6f12","system_id":"levelo_inurba_marseille","lat":43.27377,"lon":5.36252,"is_reserved":false,"is_disabled":true,"rental_uris":{"android":"levelo://app?vid=e1fcda96-10f8-4416-a2de-b3c0381d6f12","ios":"levelo://app?vid=e1fcda96-10f8-4416-a2de-b3c0381d6f12"},"vehicle_type_id":"4","last_reported":1773951930,"current_range_meters":7200,"station_id":"ce4bhbh2rcd13ifvqeo0","pricing_plan_id":"cebpf4jnsgd1na2vs0mg"},{"bike_id":"e18e4416-50b2-48fa-8004-6bc6a321d702","system_id":"levelo_inurba_marseille","lat":43.32054,"lon":5.41533,"is_reserved":false,"is_disabled":false,"rental_uris":{"android":"levelo://app?vid=e18e4416-50b2-48fa-8004-6bc6a321d702","ios":"levelo://app?vid=e18e4416-50b2-48fa-8004-6bc6a321d702"},"vehicle_type_id":"4","last_reported":1773951930,"current_range_meters":7200,"station_id":"ce4bhq92rcd13ifvqhkg","pricing_plan_id":"cebpf4jnsgd1na2vs0mg"},{"bike_id":"be523ae7-f0fc-4e2a-970b-30a3029fa717","system_id":"levelo_inurba_marseille","lat":43.28442,"lon":5.48418,"is_reserved":false,"is_disabled":false,"rental_uris":{"android":"levelo://app?vid=be523ae7-f0fc-4e2a-970b-30a3029fa717","ios":"levelo://app?vid=be523ae7-f0fc-4e2a-970b-30a3029fa717"},"vehicle_type_id":"4","last_reported":1773951930,"current_range_meters":7200,"station_id":"","pricing_plan_id":"cebpf4jnsgd1na2vs0mg"},{"bike_id":"15bf2f59-06a6-41bd-a43b-489e0ce4442c","system_id":"levelo_inurba_marseille","lat":43.31915,"lon":5.367342,"is_reserved":false,"is_disabled":false,"rental_uris":{"android":"levelo://app?vid=15bf2f59-06a6-41bd-a43b-489e0ce4442c","ios":"levelo://app?vid=15bf2f59-06a6-41bd-a43b-489e0ce4442c"},"vehicle_type_id":"4","last_reported":1773951930,"current_range_meters":7200,"station_id":"ce4bhrh2rcd13ifvqhug","pricing_plan_id":"cebpf4jnsgd1na2vs0mg"},{"bike_id":"d3ec5979-54e8-4a74-8bb1-cf1bbb5dec0a","system_id":"levelo_inurba_marseille","lat":43.25088,"lon":5.39514,"is_reserved":false,"is_disabled":false,"rental_uris":{"android":"levelo://app?vid=d3ec5979-54e8-4a74-8bb1-cf1bbb5dec0a","ios":"levelo://app?vid=d3ec5979-54e8-4a74-8bb1-cf1bbb5dec0a"},"vehicle_type_id":"4","last_reported":1773951930,"current_range_meters":7200,"station_id":"ce4bhm12rcd13ifvqgkg","pricing_plan_id":"cebpf4jnsgd1na2vs0mg"},{"bike_id":"27cfd7f2-48c6-4fe4-9d82-e5b76120df75","system_id":"levelo_inurba_marseille","lat":43.29818,"lon":5.44055,"is_reserved":false,"is_disabled":false,"rental_uris":{"android":"levelo://app?vid=27cfd7f2-48c6-4fe4-9d82-e5b76120df75","ios":"levelo://app?vid=27cfd7f2-48c6-4fe4-9d82-e5b76120df75"},"vehicle_type_id":"4","last_reported":1773951930,"current_range_meters":8000,"station_id":"st_d3jp68qikq2c7381ktn0","pricing_plan_id":"cebpf4jnsgd1na2vs0mg"},{"bike_id":"92fded19-de99-42e5-8e2b-38526f48eef0","system_id":"levelo_inurba_marseille","lat":43.28452,"lon":5.35892,"is_reserved":false,"is_disabled":false,"rental_uris":{"android":"levelo://app?vid=92fded19-de99-42e5-8e2b-38526f48eef0","ios":"levelo://app?vid=92fded19-de99-42e5-8e2b-38526f48eef0"},"vehicle_type_id":"4","last_reported":1773951930,"current_range_meters":8000,"station_id":"ce4bhah2rcd13ifvqei0","pricing_plan_id":"cebpf4jnsgd1na2vs0mg"},{"bike_id":"addd9e53-bfde-4c2f-8c89-4a891b6a7add","system_id":"levelo_inurba_marseille","lat":43.31334,"lon":5.37919,"is_reserved":false,"is_disabled":false,"rental_uris":{"android":"levelo://app?vid=addd9e53-bfde-4c2f-8c89-4a891b6a7add","ios":"levelo://app?vid=addd9e53-bfde-4c2f-8c89-4a891b6a7add"},"vehicle_type_id":"4","last_reported":1773951930,"current_range_meters":8000,"station_id":"","pricing_plan_id":"cebpf4jnsgd1na2vs0mg"},{"bike_id":"9d868666-eaf2-4621-b905-f4e5ec720517","system_id":"levelo_inurba_marseille","lat":43.30336,"lon":5.40442,"is_reserved":false,"is_disabled":false,"rental_uris":{"android":"levelo://app?vid=9d868666-eaf2-4621-b905-f4e5ec720517","ios":"levelo://app?vid=9d868666-eaf2-4621-b905-f4e5ec720517"},"vehicle_type_id":"4","last_reported":1773951930,"current_range_meters":8000,"station_id":"ce4bh012rcd13ifvqd10","pricing_plan_id":"cebpf4jnsgd1na2vs0mg"},{"bike_id":"bd60a6ec-18d4-4476-ab1b-f354043c4b72","system_id":"levelo_inurba_marseille","lat":43.29806,"lon":5.42579,"is_reserved":false,"is_disabled":false,"rental_uris":{"android":"levelo://app?vid=bd60a6ec-18d4-4476-ab1b-f354043c4b72","ios":"levelo://app?vid=bd60a6ec-18d4-4476-ab1b-f354043c4b72"},"vehicle_type_id":"4","last_reported":1773951930,"current_range_meters":8000,"station_id":"","pricing_plan_id":"cebpf4jnsgd1na2vs0mg"},{"bike_id":"52f6a6b9-7af9-4956-b458-baf5061e66bf","system_id":"levelo_inurba_marseille","lat":43.23334,"lon":5.44465,"is_reserved":false,"is_disabled":false,"rental_uris":{"android":"levelo://app?vid=52f6a6b9-7af9-4956-b458-baf5061e66bf","ios":"levelo://app?vid=52f6a6b9-7af9-4956-b458-baf5061e66bf"},"vehicle_type_id":"4","last_reported":1773951930,"current_range_meters":8000,"station_id":"","pricing_plan_id":"cebpf4jnsgd1na2vs0mg"},{"bike_id":"3bad86a2-ea42-49e4-970d-a97daeccc53d","system_id":"levelo_inurba_marseille","lat":43.30814,"lon":5.38181,"is_reserved":false,"is_disabled":false,"rental_uris":{"android":"levelo://app?vid=3bad86a2-ea42-49e4-970d-a97daeccc53d","ios":"levelo://app?vid=3bad86a2-ea42-49e4-970d-a97daeccc53d"},"vehicle_type_id":"4","last_reported":1773951930,"current_range_meters":8000,"station_id":"ce4bgt12rcd13ifvqce0","pricing_plan_id":"cebpf4jnsgd1na2vs0mg"},{"bike_id":"5b633a99-6e6c-40eb-b51a-c5e14db697a0","system_id":"levelo_inurba_marseille","lat":43.2705,"lon":5.42266,"is_reserved":false,"is_disabled":false,"rental_uris":{"android":"levelo://app?vid=5b633a99-6e6c-40eb-b51a-c5e14db697a0","ios":"levelo://app?vid=5b633a99-6e6c-40eb-b51a-c5e14db697a0"},"vehicle_type_id":"4","last_reported":1773951930,"current_range_meters":8000,"station_id":"ce4bhk92rcd13ifvqgb0","pricing_plan_id":"cebpf4jnsgd1na2vs0mg"},{"bike_id":"f05896e3-edbb-49dd-83fe-dc60521a4574","system_id":"levelo_inurba_marseille","lat":43.28339,"lon":5.38112,"is_reserved":false,"is_disabled":false,"rental_uris":{"android":"levelo://app?vid=f05896e3-edbb-49dd-83fe-dc60521a4574","ios":"levelo://app?vid=f05896e3-edbb-49dd-83fe-dc60521a4574"},"vehicle_type_id":"4","last_reported":1773951930,"current_range_meters":8000,"station_id":"ce4bh412rcd13ifvqdr0","pricing_plan_id":"cebpf4jnsgd1na2vs0mg"},{"bike_id":"425983bc-83c2-4cea-8df4-3c8f5bb514c1","system_id":"levelo_inurba_marseille","lat":43.2891,"lon":5.38402,"is_reserved":false,"is_disabled":false,"rental_uris":{"android":"levelo://app?vid=425983bc-83c2-4cea-8df4-3c8f5bb514c1","ios":"levelo://app?vid=425983bc-83c2-4cea-8df4-3c8f5bb514c1"},"vehicle_type_id":"4","last_reported":1773951930,"current_range_meters":8000,"station_id":"ce4bh612rcd13ifvqe6g","pricing_plan_id":"cebpf4jnsgd1na2vs0mg"},{"bike_id":"31de91b8-2554-4f66-8bc6-9dfb581be216","system_id":"levelo_inurba_marseille","lat":43.28854,"lon":5.39328,"is_reserved":false,"is_disabled":false,"rental_uris":{"android":"levelo://app?vid=31de91b8-2554-4f66-8bc6-9dfb581be216","ios":"levelo://app?vid=31de91b8-2554-4f66-8bc6-9dfb581be216"},"vehicle_type_id":"4","last_reported":1773951930,"current_range_meters":8000,"station_id":"ce4bh2p2rcd13ifvqdi0","pricing_plan_id":"cebpf4jnsgd1na2vs0mg"},