{"last_updated":1732615860,"ttl":60,"version":"2.2","data":{"bikes":[{"bike_id":"d9c28aa4-81a4-4d13-8fc9-100bb4e3d7e2","system_id":"levelo_inurba_marseille","lat":43.27412,"lon":5.38954,"is_reserved":false,"is_disabled":true,"rental_uris":{"android":"levelo://app?vid=d9c28aa4-81a4-4d13-8fc9-100bb4e3d7e2","ios":"levelo://app?vid=d9c28aa4-81a4-4d13-8fc9-100bb4e3d7e2"},"vehicle_type_id":"4","last_reported":1732615860,"current_range_meters":400,"station_id":"","pricing_plan_id":"cebpf4jnsgd1na2vs0mg"},{"bike_id":"7482f337-6887-4b70-8200-8908c0d51e36","system_id":"levelo_inurba_marseille","lat":43.29869,"lon":5.39725,"is_reserved":false,"is_disabled":false,"rental_uris":{"android":"levelo://app?vid=7482f337-6887-4b70-8200-8908c0d51e36","ios":"levelo://app?vid=7482f337-6887-4b70-8200-8908c0d51e36"},"vehicle_type_id":"4","last_reported":1732615860,"current_range_meters":30000,"station_id":"ce4bh0h2rcd13ifvqd50","pricing_plan_id":"cebpf4jnsgd1na2vs0mg"},{"bike_id":"73882917-df48-449f-88f7-e6917c4dd6f9","system_id":"levelo_inurba_marseille","lat":43.31361,"lon":5.36703,"is_reserved":false,"is_disabled":false,"rental_uris":{"android":"levelo://app?vid=73882917-df48-449f-88f7-e6917c4dd6f9","ios":"levelo://app?vid=73882917-df48-449f-88f7-e6917c4dd6f9"},"vehicle_type_id":"4","last_reported":1732615860,"current_range_meters":26000,"station_id":"ce4bgr92rcd13ifvqc6g","pricing_plan_id":"cebpf4jnsgd1na2vs0mg"},{"bike_id":"b5c101e1-e4fd-4456-bc79-a51d756a2bc9","system_id":"levelo_inurba_marseille","lat":43.28441,"lon":5.39172,"is_reserved":false,"is_disabled":true,"rental_uris":{"android":"levelo://app?vid=b5c101e1-e4fd-4456-bc79-a51d756a2bc9","ios":"levelo://app?vid=b5c101e1-e4fd-4456-bc79-a51d756a2bc9"},"vehicle_type_id":"4","last_reported":1732615860,"current_range_meters":28400,"station_id":"ce4bhoh2rcd13ifvqh5g","pricing_plan_id":"cebpf4jnsgd1na2vs0mg"},{"bike_id":"2b48f9a1-245c-4b52-a2eb-7174d2d85e5e","system_id":"levelo_inurba_marseille","lat":43.30951,"lon":5.39036,"is_reserved":false,"is_disabled":true,"rental_uris":{"android":"levelo://app?vid=2b48f9a1-245c-4b52-a2eb-7174d2d85e5e","ios":"levelo://app?vid=2b48f9a1-245c-4b52-a2eb-7174d2d85e5e"},"vehicle_type_id":"4","last_reported":1732615860,"current_range_meters":0,"station_id":"ce4bgup2rcd13ifvqco0","pricing_plan_id":"cebpf4jnsgd1na2vs0mg"},{"bike_id":"eac73a78-d1ff-4392-b370-690860f36b9b","system_id":"levelo_inurba_marseille","lat":43.32367,"lon":5.38882,"is_reserved":false,"is_disabled":false,"rental_uris":{"android":"levelo://app?vid=eac73a78-d1ff-4392-b370-690860f36b9b","ios":"levelo://app?vid=eac73a78-d1ff-4392-b370-690860f36b9b"},"vehicle_type_id":"4","last_reported":1732615860,"current_range_meters":20400,"station_id":"ce4bhqp2rcd13ifvqhog","pricing_plan_id":"cebpf4jnsgd1na2vs0mg"},{"bike_id":"6d5f4fae-cf02-451a-8d6f-89849b98eec3","system_id":"levelo_inurba_marseille","lat":43.3136,"lon":5.36761,"is_reserved":false,"is_disabled":false,"rental_uris":{"android":"levelo://app?vid=6d5f4fae-cf02-451a-8d6f-89849b98eec3","ios":"levelo://app?vid=6d5f4fae-cf02-451a-8d6f-89849b98eec3"},"vehicle_type_id":"4","last_reported":1732615860,"current_range_meters":10000,"station_id":"ce4bgr92rcd13ifvqc6g","pricing_plan_id":"cebpf4jnsgd1na2vs0mg"},{"bike_id":"3fe96115-e722-4e5a-9d4b-67417f09fabe","system_id":"levelo_inurba_marseille","lat":43.26949,"lon":5.38619,"is_reserved":false,"is_disabled":false,"rental_uris":{"android":"levelo://app?vid=3fe96115-e722-4e5a-9d4b-67417f09fabe","ios":"levelo://app?vid=3fe96115-e722-4e5a-9d4b-67417f09fabe"},"vehicle_type_id":"4","last_reported":1732615860,"current_range_meters":38800,"station_id":"ce4bhh92rcd13ifvqfh0","pricing_plan_id":"cebpf4jnsgd1na2vs0mg"},{"bike_id":"24be7068-a66e-46bc-9f96-e0cdbfd135fc","system_id":"levelo_inurba_marseille","lat":43.265,"lon":5.39535,"is_reserved":false,"is_disabled":false,"rental_uris":{"android":"levelo://app?vid=24be7068-a66e-46bc-9f96-e0cdbfd135fc","ios":"levelo://app?vid=24be7068-a66e-46bc-9f96-e0cdbfd135fc"},"vehicle_type_id":"4","last_reported":1732615860,"current_range_meters":6000,"station_id":"ce4bhi12rcd13ifvqfq0","pricing_plan_id":"cebpf4jnsgd1na2vs0mg"},{"bike_id":"f04824cb-3df1-426e-9df0-6ea22b35ffb7","system_id":"levelo_inurba_marseille","lat":43.23187,"lon":5.39978,"is_reserved":false,"is_disabled":false,"rental_uris":{"android":"levelo://app?vid=f04824cb-3df1-426e-9df0-6ea22b35ffb7","ios":"levelo://app?vid=f04824cb-3df1-426e-9df0-6ea22b35ffb7"},"vehicle_type_id":"4","last_reported":1732615860,"current_range_meters":38800,"station_id":"ce4bhn12rcd13ifvqgqg","pricing_plan_id":"cebpf4jnsgd1na2vs0mg"},{"bike_id":"117a2e50-51a9-48b6-ab8e-6d947c0452b8","system_id":"levelo_inurba_marseille","lat":43.27075,"lon":5.42279,"is_reserved":false,"is_disabled":false,"rental_uris":{"android":"levelo://app?vid=117a2e50-51a9-48b6-ab8e-6d947c0452b8","ios":"levelo://app?vid=117a2e50-51a9-48b6-ab8e-6d947c0452b8"},"vehicle_type_id":"4","last_reported":1732615860,"current_range_meters":38000,"station_id":"ce4bhk92rcd13ifvqgb0","pricing_plan_id":"cebpf4jnsgd1na2vs0mg"},{"bike_id":"38e5dd59-c780-4856-8550-b20273f4e496","system_id":"levelo_inurba_marseille","lat":43.30426,"lon":5.38907,"is_reserved":false,"is_disabled":true,"rental_uris":{"android":"levelo://app?vid=38e5dd59-c780-4856-8550-b20273f4e496","ios":"levelo://app?vid=38e5dd59-c780-4856-8550-b20273f4e496"},"vehicle_type_id":"4","last_reported":1732615860,"current_range_meters":26000,"station_id":"ce4bgk12rcd13ifvqbi0","pricing_plan_id":"cebpf4jnsgd1na2vs0mg"},{"bike_id":"2231c890-82b1-4fb4-b0d7-5edbe090c957","system_id":"levelo_inurba_marseille","lat":43.25003,"lon":5.38938,"is_reserved":false,"is_disabled":true,"rental_uris":{"android":"levelo://app?vid=2231c890-82b1-4fb4-b0d7-5edbe090c957","ios":"levelo://app?vid=2231c890-82b1-4fb4-b0d7-5edbe090c957"},"vehicle_type_id":"4","last_reported":1732615860,"current_range_meters":24000,"station_id":"ce4bhgp2rcd13ifvqfd0","pricing_plan_id":"cebpf4jnsgd1na2vs0mg"},{"bike_id":"aed7c061-603f-4b29-8231-b37516d48f15","system_id":"levelo_inurba_marseille","lat":43.25927,"lon":5.40904,"is_reserved":false,"is_disabled":true,"rental_uris":{"android":"levelo://app?vid=aed7c061-603f-4b29-8231-b37516d48f15","ios":"levelo://app?vid=aed7c061-603f-4b29-8231-b37516d48f15"},"vehicle_type_id":"4","last_reported":1732615860,"current_range_meters":29600,"station_id":"ce4bhm92rcd13ifvqglg","pricing_plan_id":"cebpf4jnsgd1na2vs0mg"},{"bike_id":"c72b84e9-71c6-4e8d-9f63-fa4a39603f52","system_id":"levelo_inurba_marseille","lat":43.29516,"lon":5.375,"is_reserved":false,"is_disabled":false,"rental_uris":{"android":"levelo://app?vid=c72b84e9-71c6-4e8d-9f63-fa4a39603f52","ios":"levelo://app?vid=c72b84e9-71c6-4e8d-9f63-fa4a39603f52"},"vehicle_type_id":"4","last_reported":1732615860,"current_range_meters":36000,"station_id":"ce4bgkp2rcd13ifvqbmg","pricing_plan_id":"cebpf4jnsgd1na2vs0mg"},{"bike_id":"eaf4e965-affa-4310-a30d-226336391251","system_id":"levelo_inurba_marseille","lat":43.31999,"lon":5.38154,"is_reserved":false,"is_disabled":false,"rental_uris":{"android":"levelo://app?vid=eaf4e965-affa-4310-a30d-226336391251","ios":"levelo://app?vid=eaf4e965-affa-4310-a30d-226336391251"},"vehicle_type_id":"4","last_reported":1732615860,"current_range_meters":28000,"station_id":"ce4bhr12rcd13ifvqhpg","pricing_plan_id":"cebpf4jnsgd1na2vs0mg"},{"bike_id":"632a5034-6c44-4f35-baf9-5e4192764222","system_id":"levelo_inurba_marseille","lat":43.26065,"lon":5.39393,"is_reserved":false,"is_disabled":false,"rental_uris":{"android":"levelo://app?vid=632a5034-6c44-4f35-baf9-5e4192764222","ios":"levelo://app?vid=632a5034-6c44-4f35-baf9-5e4192764222"},"vehicle_type_id":"4","last_reported":1732615860,"current_range_meters":19200,"station_id":"ce4bhh92rcd13ifvqfj0","pricing_plan_id":"cebpf4jnsgd1na2vs0mg"},{"bike_id":"436dd976-416d-469e-afba-0c5538b79c29","system_id":"levelo_inurba_marseille","lat":43.25197,"lon":5.39133,"is_reserved":false,"is_disabled":true,"rental_uris":{"android":"levelo://app?vid=436dd976-416d-469e-afba-0c5538b79c29","ios":"levelo://app?vid=436dd976-416d-469e-afba-0c5538b79c29"},"vehicle_type_id":"4","last_reported":1732615860,"current_range_meters":0,"station_id":"","pricing_plan_id":"cebpf4jnsgd1na2vs0mg"},{"bike_id":"50675353-73d1-4b47-b4fa-e7f0275cf72e","system_id":"levelo_inurba_marseille","lat":43.30909,"lon":5.3685,"is_reserved":false,"is_disabled":false,"rental_uris":{"android":"levelo://app?vid=50675353-73d1-4b47-b4fa-e7f0275cf72e","ios":"levelo://app?vid=50675353-73d1-4b47-b4fa-e7f0275cf72e"},"vehicle_type_id":"4","last_reported":1732615860,"current_range_meters":35600,"station_id":"ce4bgn92rcd13ifvqbvg","pricing_plan_id":"cebpf4jnsgd1na2vs0mg"},{"bike_id":"26ec1a22-5020-45e4-ab45-512c7f67d5dd","system_id":"levelo_inurba_marseille","lat":43.32061,"lon":5.41534,"is_reserved":false,"is_disabled":true,"rental_uris":{"android":"levelo://app?vid=26ec1a22-5020-45e4-ab45-512c7f67d5dd","ios":"levelo://app?vid=26ec1a22-5020-45e4-ab45-512c7f67d5dd"},"vehicle_type_id":"4","last_reported":1732615860,"current_range_meters":38800,"station_id":"ce4bhq92rcd13ifvqhkg","pricing_plan_id":"cebpf4jnsgd1na2vs0mg"},{"bike_id":"5d95998b-17b9-491d-af92-448605152fe8","system_id":"levelo_inurba_marseille","lat":43.2795,"lon":5.41034,"is_reserved":false,"is_disabled":false,"rental_uris":{"android":"levelo://app?vid=5d95998b-17b9-491d-af92-448605152fe8","ios":"levelo://app?vid=5d95998b-17b9-491d-af92-448605152fe8"},"vehicle_type_id":"4","last_reported":1732615860,"current_range_meters":14400,"station_id":"ce4bhnp2rcd13ifvqh0g","pricing_plan_id":"cebpf4jnsgd1na2vs0mg"},{"bike_id":"008df394-a4fc-4070-833b-4b8ca3581b96","system_id":"levelo_inurba_marseille","lat":43.3123,"lon":5.36853,"is_reserved":false,"is_disabled":false,"rental_uris":{"android":"levelo://app?vid=008df394-a4fc-4070-833b-4b8ca3581b96","ios":"levelo://app?vid=008df394-a4fc-4070-833b-4b8ca3581b96"},"vehicle_type_id":"4","last_reported":1732615860,"current_range_meters":9200,"station_id":"ce4bgl92rcd13ifvqbq0","pricing_plan_id":"cebpf4jnsgd1na2vs0mg"},{"bike_id":"9f8aea45-6317-46b2-bfdf-12486e5e39e0","system_id":"levelo_inurba_marseille","lat":43.31267,"lon":5.36756,"is_reserved":false,"is_disabled":true,"rental_uris":{"android":"levelo://app?vid=9f8aea45-6317-46b2-bfdf-12486e5e39e0","ios":"levelo://app?vid=9f8aea45-6317-46b2-bfdf-12486e5e39e0"},"vehicle_type_id":"4","last_reported":1732615860,"current_range_meters":0,"station_id":"","pricing_plan_id":"cebpf4jnsgd1na2vs0mg"},{"bike_id":"0957a422-753b-4b81-be11-d080ad7c9e18","system_id":"levelo_inurba_marseille","lat":43.30526,"lon":5.36716,"is_reserved":false,"is_disabled":false,"rental_uris":{"android":"levelo://app?vid=0957a422-753b-4b81-be11-d080ad7c9e18","ios":"levelo://app?vid=0957a422-753b-4b81-be11-d080ad7c9e18"},"vehicle_type_id":"4","last_reported":1732615860,"current_range_meters":36800,"station_id":"ce4bgrp2rcd13ifvqc9g","pricing_plan_id":"cebpf4jnsgd1na2vs0mg"},{"bike_id":"4de3f7a9-dede-421a-9310-d6c21fee1591","system_id":"levelo_inurba_marseille","lat":43.25934,"lon":5.40901,"is_reserved":false,"is_disabled":false,"rental_uris":{"android":"levelo://app?vid=4de3f7a9-dede-421a-9310-d6c21fee1591","ios":"levelo://app?vid=4de3f7a9-dede-421a-9310-d6c21fee1591"},"vehicle_type_id":"4","last_reported":1732615860,"current_range_meters":31200,"station_id":"ce4bhm92rcd13ifvqglg","pricing_plan_id":"cebpf4jnsgd1na2vs0mg"},{"bike_id":"5bd354c9-f8eb-440c-951a-6ed81a04e9eb","system_id":"levelo_inurba_marseille","lat":43.24087,"lon":5.37734,"is_reserved":false,"is_disabled":false,"rental_uris":{"android":"levelo://app?vid=5bd354c9-f8eb-440c-951a-6ed81a04e9eb","ios":"levelo://app?vid=5bd354c9-f8eb-440c-951a-6ed81a04e9eb"},"vehicle_type_id":"4","last_reported":1732615860,"current_range_meters":32400,"station_id":"ce4bhnp2rcd13ifvqgvg","pricing_plan_id":"cebpf4jnsgd1na2vs0mg"},{"bike_id":"7e628593-6ac0-4cde-b4d8-020d2cbb7be0","system_id":"levelo_inurba_marseille","lat":43.2695,"lon":5.3863,"is_reserved":false,"is_disabled":false,"rental_uris":{"android":"levelo://app?vid=7e628593-6ac0-4cde-b4d8-020d2cbb7be0","ios":"levelo://app?vid=7e628593-6ac0-4cde-b4d8-020d2cbb7be0"},"vehicle_type_id":"4","last_reported":1732615860,"current_range_meters":24000,"station_id":"ce4bhh92rcd13ifvqfh0","pricing_plan_id":"cebpf4jnsgd1na2vs0mg"},{"bike_id":"fde6956b-7a7d-4b27-bc3e-818b1889e013","system_id":"levelo_inurba_marseille","lat":43.28267,"lon":5.35053,"is_reserved":false,"is_disabled":false,"rental_uris":{"android":"levelo://app?vid=fde6956b-7a7d-4b27-bc3e-818b1889e013","ios":"levelo://app?vid=fde6956b-7a7d-4b27-bc3e-818b1889e013"},"vehicle_type_id":"4","last_reported":1732615860,"current_range_meters":26800,"station_id":"ce4bhbp2rcd13ifvqerg","pricing_plan_id":"cebpf4jnsgd1na2vs0mg"},{"bike_id":"07373730-ba45-4ca8-b6a6-6db65250f6a1","system_id":"levelo_inurba_marseille","lat":43.29856,"lon":5.36294,"is_reserved":false,"is_disabled":true,"rental_uris":{"android":"levelo://app?vid=07373730-ba45-4ca8-b6a6-6db65250f6a1","ios":"levelo://app?vid=07373730-ba45-4ca8-b6a6-6db65250f6a1"},"vehicle_type_id":"4","last_reported":1732615860,"current_range_meters":17200,"station_id":"ce4bgpp2rcd13ifvqc3g","pricing_plan_id":"cebpf4jnsgd1na2vs0mg"},{"bike_id":"ada80377-2c40-423f-ae84-f1b5bb359719","system_id":"levelo_inurba_marseille","lat":43.29039,"lon":5.35585,"is_reserved":false,"is_disabled":false,"rental_uris":{"android":"levelo://app?vid=ada80377-2c40-423f-ae84-f1b5bb359719","ios":"levelo://app?vid=ada80377-2c40-423f-ae84-f1b5bb359719"},"vehicle_type_id":"4","last_reported":1732615860,"current_range_meters":38800,"station_id":"ce4bhb92rcd13ifvqen0","pricing_plan_id":"cebpf4jnsgd1na2vs0mg"},{"bike_id":"8bfd2db3-9c30-4ac4-82ab-dc0a88c4e9a9","system_id":"levelo_inurba_marseille","lat":43.23153,"lon":5.43715,"is_reserved":false,"is_disabled":false,"rental_uris":{"android":"levelo://app?vid=8bfd2db3-9c30-4ac4-82ab-dc0a88c4e9a9","ios":"levelo://app?vid=8bfd2db3-9c30-4ac4-82ab-dc0a88c4e9a9"},"vehicle_type_id":"4","last_reported":1732615860,"current_range_meters":23200,"station_id":"ce4bhmp2rcd13ifvqgog","pricing_plan_id":"cebpf4jnsgd1na2vs0mg"},{"bike_id":"67143d8e-e66e-42c7-ac82-4a20541642d4","system_id":"levelo_inurba_marseille","lat":43.29618,"lon":5.3715,"is_reserved":false,"is_disabled":true,"rental_uris":{"android":"levelo://app?vid=67143d8e-e66e-42c7-ac82-4a20541642d4","ios":"levelo://app?vid=67143d8e-e66e-42c7-ac82-4a20541642d4"},"vehicle_type_id":"4","last_reported":1732615860,"current_range_meters":38000,"station_id":"ce4bgnh2rcd13ifvqc0g","pricing_plan_id":"cebpf4jnsgd1na2vs0mg"},{"bike_id":"dd08285a-8132-430d-a8bf-2aee58c7534b","system_id":"levelo_inurba_marseille","lat":43.24065,"lon":5.37742,"is_reserved":false,"is_disabled":true,"rental_uris":{"android":"levelo://app?vid=dd08285a-8132-430d-a8bf-2aee58c7534b","ios":"levelo://app?vid=dd08285a-8132-430d-a8bf-2aee58c7534b"},"vehicle_type_id":"4","last_reported":1732615860,"current_range_meters":25200,"station_id":"ce4bhnp2rcd13ifvqgvg","pricing_plan_id":"cebpf4jnsgd1na2vs0mg"},{"bike_id":"5e7f93fd-a445-45c9-a08f-604ae6549b93","system_id":"levelo_inurba_marseille","lat":43.3004,"lon":5.40141,"is_reserved":false,"is_disabled":false,"rental_uris":{"android":"levelo://app?vid=5e7f93fd-a445-45c9-a08f-604ae6549b93","ios":"levelo://app?vid=5e7f93fd-a445-45c9-a08f-604ae6549b93"},"vehicle_type_id":"4","last_reported":1732615860,"current_range_meters":17200,"station_id":"","pricing_plan_id":"cebpf4jnsgd1na2vs0mg"},{"bike_id":"f7f7fd06-4983-4658-b605-e86318567bab","system_id":"levelo_inurba_marseille","lat":43.27556,"lon":5.38403,"is_reserved":false,"is_disabled":false,"rental_uris":{"android":"levelo://app?vid=f7f7fd06-4983-4658-b605-e86318567bab","ios":"levelo://app?vid=f7f7fd06-4983-4658-b605-e86318567bab"},"vehicle_type_id":"4","last_reported":1732615860,"current_range_meters":38800,"station_id":"ce4bhh92rcd13ifvqfi0","pricing_plan_id":"cebpf4jnsgd1na2vs0mg"},{"bike_id":"83f442cf-579e-46be-91e9-63bdc8bc05b6","system_id":"levelo_inurba_marseille","lat":43.25929,"lon":5.40901,"is_reserved":false,"is_disabled":false,"rental_uris":{"android":"levelo://app?vid=83f442cf-579e-46be-91e9-63bdc8bc05b6","ios":"levelo://app?vid=83f442cf-579e-46be-91e9-63bdc8bc05b6"},"vehicle_type_id":"4","last_reported":1732615860,"current_range_meters":36800,"station_id":"ce4bhm92rcd13ifvqglg","pricing_plan_id":"cebpf4jnsgd1na2vs0mg"},{"bike_id":"0a2d70bc-b761-4725-9e3d-6717bfcaa6cc","system_id":"levelo_inurba_marseille","lat":43.337444,"lon":5.374475,"is_reserved":false,"is_disabled":false,"rental_uris":{"android":"levelo://app?vid=0a2d70bc-b761-4725-9e3d-6717bfcaa6cc","ios":"levelo://app?vid=0a2d70bc-b761-4725-9e3d-6717bfcaa6cc"},"vehicle_type_id":"4","last_reported":1732615860,"current_range_meters":38400,"station_id":"","pricing_plan_id":"cebpf4jnsgd1na2vs0mg"},{"bike_id":"1e3d2aed-a3f4-4aef-8605-9a4732190938","system_id":"levelo_inurba_marseille","lat":43.26056,"lon":5.39385,"is_reserved":false,"is_disabled":false,"rental_uris":{"android":"levelo://app?vid=1e3d2aed-a3f4-4aef-8605-9a4732190938","ios":"levelo://app?vid=1e3d2aed-a3f4-4aef-8605-9a4732190938"},"vehicle_type_id":"4","last_reported":1732615860,"current_range_meters":35200,"station_id":"ce4bhh92rcd13ifvqfj0","pricing_plan_id":"cebpf4jnsgd1na2vs0mg"},{"bike_id":"c29462b2-6f03-4354-a0a3-f395b21c5128","system_id":"levelo_inurba_marseille","lat":43.27495,"lon":5.42449,"is_reserved":false,"is_disabled":true,"rental_uris":{"android":"levelo://app?vid=c29462b2-6f03-4354-a0a3-f395b21c5128","ios":"levelo://app?vid=c29462b2-6f03-4354-a0a3-f395b21c5128"},"vehicle_type_id":"4","last_reported":1732615860,"current_range_meters":0,"station_id":"ce4bhn92rcd13ifvqgrg","pricing_plan_id":"cebpf4jnsgd1na2vs0mg"},{"bike_id":"820f12a0-cf28-488c-8a74-3f1b9d2e4db5","system_id":"levelo_inurba_marseille","lat":43.23056,"lon":5.35491,"is_reserved":false,"is_disabled":false,"rental_uris":{"android":"levelo://app?vid=820f12a0-cf28-488c-8a74-3f1b9d2e4db5","ios":"levelo://app?vid=820f12a0-cf28-488c-8a74-3f1b9d2e4db5"},"vehicle_type_id":"4","last_reported":1732615860,"current_range_meters":24800,"station_id":"cpo3342slgdg3j2ifvpg","pricing_plan_id":"cebpf4jnsgd1na2vs0mg"},{"bike_id":"72e9e29e-0f87-403e-ad68-6da953f02c80","system_id":"levelo_inurba_marseille","lat":43.23154,"lon":5.43719,"is_reserved":false,"is_disabled":false,"rental_uris":{"android":"levelo://app?vid=72e9e29e-0f87-403e-ad68-6da953f02c80","ios":"levelo://app?vid=72e9e29e-0f87-403e-ad68-6da953f02c80"},"vehicle_type_id":"4","last_reported":1732615860,"current_range_meters":6800,"station_id":"ce4bhmp2rcd13ifvqgog","pricing_plan_id":"cebpf4jnsgd1na2vs0mg"},{"bike_id":"35167227-8161-44bf-8a51-6a18b725000e","system_id":"levelo_inurba_marseille","lat":43.24805,"lon":5.37455,"is_reserved":false,"is_disabled":false,"rental_uris":{"android":"levelo://app?vid=35167227-8161-44bf-8a51-6a18b725000e","ios":"levelo://app?vid=35167227-8161-44bf-8a51-6a18b725000e"},"vehicle_type_id":"4","last_reported":1732615860,"current_range_meters":22800,"station_id":"ce4bhgh2rcd13ifvqfb0","pricing_plan_id":"cebpf4jnsgd1na2vs0mg"},{"bike_id":"3da03964-a173-4b60-b3e9-70105d7845b3","system_id":"levelo_inurba_marseille","lat":43.29568,"lon":5.37518,"is_reserved":false,"is_disabled":false,"rental_uris":{"android":"levelo://app?vid=3da03964-a173-4b60-b3e9-70105d7845b3","ios":"levelo://app?vid=3da03964-a173-4b60-b3e9-70105d7845b3"},"vehicle_type_id":"4","last_reported":1732615860,"current_range_meters":19200,"station_id":"ce4bgh92rcd13ifvqb50","pricing_plan_id":"cebpf4jnsgd1na2vs0mg"},{"bike_id":"7cfc7d24-05ea-4d3c-86fb-767d1bef412c","system_id":"levelo_inurba_marseille","lat":43.25118,"lon":5.40317,"is_reserved":false,"is_disabled":false,"rental_uris":{"android":"levelo://app?vid=7cfc7d24-05ea-4d3c-86fb-767d1bef412c","ios":"levelo://app?vid=7cfc7d24-05ea-4d3c-86fb-767d1bef412c"},"vehicle_type_id":"4","last_reported":1732615860,"current_range_meters":15200,"station_id":"ce4bhlh2rcd13ifvqgig","pricing_plan_id":"cebpf4jnsgd1na2vs0mg"},{"bike_id":"971709de-8ee6-4e0a-b7cf-6230ef952a2e","system_id":"levelo_inurba_marseille","lat":43.23193,"lon":5.35553,"is_reserved":false,"is_disabled":false,"rental_uris":{"android":"levelo://app?vid=971709de-8ee6-4e0a-b7cf-6230ef952a2e","ios":"levelo://app?vid=971709de-8ee6-4e0a-b7cf-6230ef952a2e"},"vehicle_type_id":"4","last_reported":1732615860,"current_range_meters":9200,"station_id":"ce4bhu92rcd13ifvqi70","pricing_plan_id":"cebpf4jnsgd1na2vs0mg"},{"bike_id":"d1df6e53-000d-467b-8749-a391521578f1","system_id":"levelo_inurba_marseille","lat":43.337444,"lon":5.374475,"is_reserved":false,"is_disabled":false,"rental_uris":{"android":"levelo://app?vid=d1df6e53-000d-467b-8749-a391521578f1","ios":"levelo://app?vid=d1df6e53-000d-467b-8749-a391521578f1"},"vehicle_type_id":"4","last_reported":1732615860,"current_range_meters":38800,"station_id":"","pricing_plan_id":"cebpf4jnsgd1na2vs0mg"},{"bike_id":"89e5a5a8-337b-465c-a66b-634319bb7346","system_id":"levelo_inurba_marseille","lat":43.30271,"lon":5.3764,"is_reserved":false,"is_disabled":false,"rental_uris":{"android":"levelo://app?vid=89e5a5a8-337b-465c-a66b-634319bb7346","ios":"levelo://app?vid=89e5a5a8-337b-465c-a66b-634319bb7346"},"vehicle_type_id":"4","last_reported":1732615860,"current_range_meters":38800,"station_id":"","pricing_plan_id":"cebpf4jnsgd1na2vs0mg"},{"bike_id":"e4b23d84-8526-47df-b96f-9ab5d47003eb","system_id":"levelo_inurba_marseille","lat":43.28855,"lon":5.35858,"is_reserved":false,"is_disabled":false,"rental_uris":{"android":"levelo://app?vid=e4b23d84-8526-47df-b96f-9ab5d47003eb","ios":"levelo://app?vid=e4b23d84-8526-47df-b96f-9ab5d47003eb"},"vehicle_type_id":"4","last_reported":1732615860,"current_range_meters":38800,"station_id":"ce4bhb12rcd13ifvqem0","pricing_plan_id":"cebpf4jnsgd1na2vs0mg"},{"bike_id":"835b00c2-64c0-4cbe-82bb-c78dd70919e3","system_id":"levelo_inurba_marseille","lat":43.27965,"lon":5.40794,"is_reserved":false,"is_disabled":false,"rental_uris":{"android":"levelo://app?vid=835b00c2-64c0-4cbe-82bb-c78dd70919e3","ios":"levelo://app?vid=835b00c2-64c0-4cbe-82bb-c78dd70919e3"},"vehicle_type_id":"4","last_reported":1732615860,"current_range_meters":3200,"station_id":"","pricing_plan_id":"cebpf4jnsgd1na2vs0mg"},{"bike_id":"62965e1e-ade4-47c8-a5ff-f8c8cd07ca98","system_id":"levelo_inurba_marseille","lat":43.2762,"lon":5.36098,"is_reserved":false,"is_disabled":true,"rental_uris":{"android":"levelo://app?vid=62965e1e-ade4-47c8-a5ff-f8c8cd07ca98","ios":"levelo://app?vid=62965e1e-ade4-47c8-a5ff-f8c8cd07ca98"},"vehicle_type_id":"4","last_reported":1732615860,"current_range_meters":36000,"station_id":"ce4bgj92rcd13ifvqbe0","pricing_plan_id":"cebpf4jnsgd1na2vs0mg"},{"bike_id":"0277ccf8-4608-466c-b39d-252fd13e3744","system_id":"levelo_inurba_marseille","lat":43.26061,"lon":5.39395,"is_reserved":false,"is_disabled":false,"rental_uris":{"android":"levelo://app?vid=0277ccf8-4608-466c-b39d-252fd13e3744","ios":"levelo://app?vid=0277ccf8-4608-466c-b39d-252fd13e3744"},"vehicle_type_id":"4","last_reported":1732615860,"current_range_meters":3600,"station_id":"ce4bhh92rcd13ifvqfj0","pricing_plan_id":"cebpf4jnsgd1na2vs0mg"},{"bike_id":"9a257a8c-d7f0-4fb2-a6e2-8e081a7ccbd3","system_id":"levelo_inurba_marseille","lat":43.2925,"lon":5.40917,"is_reserved":false,"is_disabled":false,"rental_uris":{"android":"levelo://app?vid=9a257a8c-d7f0-4fb2-a6e2-8e081a7ccbd3","ios":"levelo://app?vid=9a257a8c-d7f0-4fb2-a6e2-8e081a7ccbd3"},"vehicle_type_id":"4","last_reported":1732615860,"current_range_meters":37600,"station_id":"ce4bh192rcd13ifvqdc0","pricing_plan_id":"cebpf4jnsgd1na2vs0mg"},{"bike_id":"0066d397-91dd-4fdc-9024-c7984bc9388a","system_id":"levelo_inurba_marseille","lat":43.31359,"lon":5.36706,"is_reserved":false,"is_disabled":false,"rental_uris":{"android":"levelo://app?vid=0066d397-91dd-4fdc-9024-c7984bc9388a","ios":"levelo://app?vid=0066d397-91dd-4fdc-9024-c7984bc9388a"},"vehicle_type_id":"4","last_reported":1732615860,"current_range_meters":18000,"station_id":"ce4bgr92rcd13ifvqc6g","pricing_plan_id":"cebpf4jnsgd1na2vs0mg"},{"bike_id":"0385b96b-54ee-4d9e-93b3-7a3f03d74ff0","system_id":"levelo_inurba_marseille","lat":43.30959,"lon":5.3904,"is_reserved":false,"is_disabled":false,"rental_uris":{"android":"levelo://app?vid=0385b96b-54ee-4d9e-93b3-7a3f03d74ff0","ios":"levelo://app?vid=0385b96b-54ee-4d9e-93b3-7a3f03d74ff0"},"vehicle_type_id":"4","last_reported":1732615860,"current_range_meters":12800,"station_id":"ce4bgup2rcd13ifvqco0","pricing_plan_id":"cebpf4jnsgd1na2vs0mg"},{"bike_id":"2e378355-1edf-4eff-bb5f-4f201ab9e6f9","system_id":"levelo_inurba_marseille","lat":43.28006,"lon":5.40004,"is_reserved":false,"is_disabled":false,"rental_uris":{"android":"levelo://app?vid=2e378355-1edf-4eff-bb5f-4f201ab9e6f9","ios":"levelo://app?vid=2e378355-1edf-4eff-bb5f-4f201ab9e6f9"},"vehicle_type_id":"4","last_reported":1732615860,"current_range_meters":38000,"station_id":"ce4bho92rcd13ifvqh4g","pricing_plan_id":"cebpf4jnsgd1na2vs0mg"},{"bike_id":"996eaa45-b0c7-46cb-8925-64784aabecef","system_id":"levelo_inurba_marseille","lat":43.25579,"lon":5.382432,"is_reserved":false,"is_disabled":false,"rental_uris":{"android":"levelo://app?vid=996eaa45-b0c7-46cb-8925-64784aabecef","ios":"levelo://app?vid=996eaa45-b0c7-46cb-8925-64784aabecef"},"vehicle_type_id":"4","last_reported":1732615860,"current_range_meters":38000,"station_id":"ce4bhih2rcd13ifvqfs0","pricing_plan_id":"cebpf4jnsgd1na2vs0mg"},{"bike_id":"5b8cd3b4-e243-4fba-aaf5-11d686fcd3e4","system_id":"levelo_inurba_marseille","lat":43.29007,"lon":5.3561,"is_reserved":false,"is_disabled":true,"rental_uris":{"android":"levelo://app?vid=5b8cd3b4-e243-4fba-aaf5-11d686fcd3e4","ios":"levelo://app?vid=5b8cd3b4-e243-4fba-aaf5-11d686fcd3e4"},"vehicle_type_id":"4","last_reported":1732615860,"current_range_meters":24800,"station_id":"ce4bhb92rcd13ifvqen0","pricing_plan_id":"cebpf4jnsgd1na2vs0mg"},{"bike_id":"7a528987-9c62-4282-ae57-31b94412b3b2","system_id":"levelo_inurba_marseille","lat":43.25003,"lon":5.38933,"is_reserved":false,"is_disabled":false,"rental_uris":{"android":"levelo://app?vid=7a528987-9c62-4282-ae57-31b94412b3b2","ios":"levelo://app?vid=7a528987-9c62-4282-ae57-31b94412b3b2"},"vehicle_type_id":"4","last_reported":1732615860,"current_range_meters":4400,"station_id":"ce4bhgp2rcd13ifvqfd0","pricing_plan_id":"cebpf4jnsgd1na2vs0mg"},{"bike_id":"cf7c9153-0dc8-430f-83bc-b3f293869575","system_id":"levelo_inurba_marseille","lat":43.33726,"lon":5.39185,"is_reserved":false,"is_disabled":false,"rental_uris":{"android":"levelo://app?vid=cf7c9153-0dc8-430f-83bc-b3f293869575","ios":"levelo://app?vid=cf7c9153-0dc8-430f-83bc-b3f293869575"},"vehicle_type_id":"4","last_reported":1732615860,"current_range_meters":10000,"station_id":"ce4bhr92rcd13ifvqhsg","pricing_plan_id":"cebpf4jnsgd1na2vs0mg"},{"bike_id":"2a5481cd-ff53-4043-8ffe-7e6ecd7906ca","system_id":"levelo_inurba_marseille","lat":43.30532,"lon":5.36535,"is_reserved":false,"is_disabled":false,"rental_uris":{"android":"levelo://app?vid=2a5481cd-ff53-4043-8ffe-7e6ecd7906ca","ios":"levelo://app?vid=2a5481cd-ff53-4043-8ffe-7e6ecd7906ca"},"vehicle_type_id":"4","last_reported":1732615860,"current_range_meters":27200,"station_id":"ce4bgs12rcd13ifvqcag","pricing_plan_id":"cebpf4jnsgd1na2vs0mg"},{"bike_id":"a77cb44d-0121-4f6b-8074-c00263f89896","system_id":"levelo_inurba_marseille","lat":43.29016,"lon":5.38126,"is_reserved":false,"is_disabled":false,"rental_uris":{"android":"levelo://app?vid=a77cb44d-0121-4f6b-8074-c00263f89896","ios":"levelo://app?vid=a77cb44d-0121-4f6b-8074-c00263f89896"},"vehicle_type_id":"4","last_reported":1732615860,"current_range_meters":38400,"station_id":"ce4bh4p2rcd13ifvqe1g","pricing_plan_id":"cebpf4jnsgd1na2vs0mg"},{"bike_id":"1997cc20-6bd0-43f5-85fc-0754c9a8b2e4","system_id":"levelo_inurba_marseille","lat":43.28619,"lon":5.35103,"is_reserved":false,"is_disabled":false,"rental_uris":{"android":"levelo://app?vid=1997cc20-6bd0-43f5-85fc-0754c9a8b2e4","ios":"levelo://app?vid=1997cc20-6bd0-43f5-85fc-0754c9a8b2e4"},"vehicle_type_id":"4","last_reported":1732615860,"current_range_meters":37600,"station_id":"ce4bhch2rcd13ifvqeug","pricing_plan_id":"cebpf4jnsgd1na2vs0mg"},{"bike_id":"1727785f-b8e7-4951-be6f-cc832b160a14","system_id":"levelo_inurba_marseille","lat":43.27494,"lon":5.4245,"is_reserved":false,"is_disabled":false,"rental_uris":{"android":"levelo://app?vid=1727785f-b8e7-4951-be6f-cc832b160a14","ios":"levelo://app?vid=1727785f-b8e7-4951-be6f-cc832b160a14"},"vehicle_type_id":"4","last_reported":1732615860,"current_range_meters":32800,"station_id":"ce4bhn92rcd13ifvqgrg","pricing_plan_id":"cebpf4jnsgd1na2vs0mg"},{"bike_id":"4d809776-4d2b-4bf5-8aa6-666b5b1fd18f","system_id":"levelo_inurba_marseille","lat":43.33731,"lon":5.3918,"is_reserved":false,"is_disabled":false,"rental_uris":{"android":"levelo://app?vid=4d809776-4d2b-4bf5-8aa6-666b5b1fd18f","ios":"levelo://app?vid=4d809776-4d2b-4bf5-8aa6-666b5b1fd18f"},"vehicle_type_id":"4","last_reported":1732615860,"current_range_meters":38800,"station_id":"ce4bhr92rcd13ifvqhsg","pricing_plan_id":"cebpf4jnsgd1na2vs0mg"},{"bike_id":"48463c71-0fc5-44bc-ab80-e71f5219ce7d","system_id":"levelo_inurba_marseille","lat":43.27493,"lon":5.42455,"is_reserved":false,"is_disabled":false,"rental_uris":{"android":"levelo://app?vid=48463c71-0fc5-44bc-ab80-e71f5219ce7d","ios":"levelo://app?vid=48463c71-0fc5-44bc-ab80-e71f5219ce7d"},"vehicle_type_id":"4","last_reported":1732615860,"current_range_meters":28000,"station_id":"ce4bhn92rcd13ifvqgrg","pricing_plan_id":"cebpf4jnsgd1na2vs0mg"},{"bike_id":"27fcdf1f-b56c-49c7-9263-e18f869f80c8","system_id":"levelo_inurba_marseille","lat":43.25495,"lon":5.37653,"is_reserved":false,"is_disabled":false,"rental_uris":{"android":"levelo://app?vid=27fcdf1f-b56c-49c7-9263-e18f869f80c8","ios":"levelo://app?vid=27fcdf1f-b56c-49c7-9263-e18f869f80c8"},"vehicle_type_id":"4","last_reported":1732615860,"current_range_meters":38000,"station_id":"ce4bhh12rcd13ifvqff0","pricing_plan_id":"cebpf4jnsgd1na2vs0mg"},{"bike_id":"5b7ff943-bb53-489a-9e60-429fbc4f5a26","system_id":"levelo_inurba_marseille","lat":43.3059,"lon":5.39356,"is_reserved":false,"is_disabled":false,"rental_uris":{"android":"levelo://app?vid=5b7ff943-bb53-489a-9e60-429fbc4f5a26","ios":"levelo://app?vid=5b7ff943-bb53-489a-9e60-429fbc4f5a26"},"vehicle_type_id":"4","last_reported":1732615860,"current_range_meters":14400,"station_id":"ce4bh0p2rcd13ifvqd80","pricing_plan_id":"cebpf4jnsgd1na2vs0mg"},{"bike_id":"e80c77b7-df4c-42f1-b71d-bce618ebfe41","system_id":"levelo_inurba_marseille","lat":43.23194,"lon":5.35551,"is_reserved":false,"is_disabled":false,"rental_uris":{"android":"levelo://app?vid=e80c77b7-df4c-42f1-b71d-bce618ebfe41","ios":"levelo://app?vid=e80c77b7-df4c-42f1-b71d-bce618ebfe41"},"vehicle_type_id":"4","last_reported":1732615860,"current_range_meters":16000,"station_id":"ce4bhu92rcd13ifvqi70","pricing_plan_id":"cebpf4jnsgd1na2vs0mg"},{"bike_id":"16d1da16-0006-471b-bea0-d468322d1893","system_id":"levelo_inurba_marseille","lat":43.29024,"lon":5.38135,"is_reserved":false,"is_disabled":true,"rental_uris":{"android":"levelo://app?vid=16d1da16-0006-471b-bea0-d468322d1893","ios":"levelo://app?vid=16d1da16-0006-471b-bea0-d468322d1893"},"vehicle_type_id":"4","last_reported":1732615860,"current_range_meters":23200,"station_id":"ce4bh4p2rcd13ifvqe1g","pricing_plan_id":"cebpf4jnsgd1na2vs0mg"},{"bike_id":"ea94669e-1402-4144-b9c9-64418fa2ce05","system_id":"levelo_inurba_marseille","lat":43.29602,"lon":5.38102,"is_reserved":false,"is_disabled":false,"rental_uris":{"android":"levelo://app?vid=ea94669e-1402-4144-b9c9-64418fa2ce05","ios":"levelo://app?vid=ea94669e-1402-4144-b9c9-64418fa2ce05"},"vehicle_type_id":"4","last_reported":1732615860,"current_range_meters":38800,"station_id":"ce4bgl12rcd13ifvqbo0","pricing_plan_id":"cebpf4jnsgd1na2vs0mg"},{"bike_id":"f31775bf-e9c8-4af9-9e8f-edb4ee19b63e","system_id":"levelo_inurba_marseille","lat":43.28264,"lon":5.35054,"is_reserved":false,"is_disabled":false,"rental_uris":{"android":"levelo://app?vid=f31775bf-e9c8-4af9-9e8f-edb4ee19b63e","ios":"levelo://app?vid=f31775bf-e9c8-4af9-9e8f-edb4ee19b63e"},"vehicle_type_id":"4","last_reported":1732615860,"current_range_meters":17200,"station_id":"ce4bhbp2rcd13ifvqerg","pricing_plan_id":"cebpf4jnsgd1na2vs0mg"},{"bike_id":"b1932841-d591-4eab-82cd-523ada09d5e0","system_id":"levelo_inurba_marseille","lat":43.24668,"lon":5.38158,"is_reserved":false,"is_disabled":false,"rental_uris":{"android":"levelo://app?vid=b1932841-d591-4eab-82cd-523ada09d5e0","ios":"levelo://app?vid=b1932841-d591-4eab-82cd-523ada09d5e0"},"vehicle_type_id":"4","last_reported":1732615860,"current_range_meters":17600,"station_id":"ce4bhih2rcd13ifvqfr0","pricing_plan_id":"cebpf4jnsgd1na2vs0mg"},{"bike_id":"41a60ac2-52fb-4c7a-96cd-c0a4f4ef0943","system_id":"levelo_inurba_marseille","lat":43.29623,"lon":5.3773,"is_reserved":false,"is_disabled":false,"rental_uris":{"android":"levelo://app?vid=41a60ac2-52fb-4c7a-96cd-c0a4f4ef0943","ios":"levelo://app?vid=41a60ac2-52fb-4c7a-96cd-c0a4f4ef0943"},"vehicle_type_id":"4","last_reported":1732615860,"current_range_meters":12000,"station_id":"ce4bgi92rcd13ifvqb90","pricing_plan_id":"cebpf4jnsgd1na2vs0mg"},{"bike_id":"30e856e7-53f5-4729-a77e-238fa992e2d2","system_id":"levelo_inurba_marseille","lat":43.3053,"lon":5.36706,"is_reserved":false,"is_disabled":false,"rental_uris":{"android":"levelo://app?vid=30e856e7-53f5-4729-a77e-238fa992e2d2","ios":"levelo://app?vid=30e856e7-53f5-4729-a77e-238fa992e2d2"},"vehicle_type_id":"4","last_reported":1732615860,"current_range_meters":39200,"station_id":"ce4bgrp2rcd13ifvqc9g","pricing_plan_id":"cebpf4jnsgd1na2vs0mg"},{"bike_id":"2a09209b-9e53-4e93-a4c9-9ab475d29893","system_id":"levelo_inurba_marseille","lat":43.3024,"lon":5.37453,"is_reserved":false,"is_disabled":false,"rental_uris":{"android":"levelo://app?vid=2a09209b-9e53-4e93-a4c9-9ab475d29893","ios":"levelo://app?vid=2a09209b-9e53-4e93-a4c9-9ab475d29893"},"vehicle_type_id":"4","last_reported":1732615860,"current_range_meters":17200,"station_id":"","pricing_plan_id":"cebpf4jnsgd1na2vs0mg"},{"bike_id":"8090acc5-5f25-473d-b014-6c417537be88","system_id":"levelo_inurba_marseille","lat":43.31357,"lon":5.3672,"is_reserved":false,"is_disabled":false,"rental_uris":{"android":"levelo://app?vid=8090acc5-5f25-473d-b014-6c417537be88","ios":"levelo://app?vid=8090acc5-5f25-473d-b014-6c417537be88"},"vehicle_type_id":"4","last_reported":1732615860,"current_range_meters":8800,"station_id":"ce4bgr92rcd13ifvqc6g","pricing_plan_id":"cebpf4jnsgd1na2vs0mg"},{"bike_id":"fc1e2ebb-eecf-4c7e-b287-c2c71d0aa5cf","system_id":"levelo_inurba_marseille","lat":43.29624,"lon":5.37152,"is_reserved":false,"is_disabled":false,"rental_uris":{"android":"levelo://app?vid=fc1e2ebb-eecf-4c7e-b287-c2c71d0aa5cf","ios":"levelo://app?vid=fc1e2ebb-eecf-4c7e-b287-c2c71d0aa5cf"},"vehicle_type_id":"4","last_reported":1732615860,"current_range_meters":38800,"station_id":"ce4bgnh2rcd13ifvqc0g","pricing_plan_id":"cebpf4jnsgd1na2vs0mg"},{"bike_id":"145542e8-c4f2-4c57-acd0-2e754476b5e3","system_id":"levelo_inurba_marseille","lat":43.30193,"lon":5.36595,"is_reserved":false,"is_disabled":false,"rental_uris":{"android":"levelo://app?vid=145542e8-c4f2-4c57-acd0-2e754476b5e3","ios":"levelo://app?vid=145542e8-c4f2-4c57-acd0-2e754476b5e3"},"vehicle_type_id":"4","last_reported":1732615860,"current_range_meters":24800,"station_id":"ce4bgrh2rcd13ifvqc8g","pricing_plan_id":"cebpf4jnsgd1na2vs0mg"},{"bike_id":"0cd7fb1f-f090-4e80-a2fb-03510d2b2219","system_id":"levelo_inurba_marseille","lat":43.29573,"lon":5.37503,"is_reserved":false,"is_disabled":true,"rental_uris":{"android":"levelo://app?vid=0cd7fb1f-f090-4e80-a2fb-03510d2b2219","ios":"levelo://app?vid=0cd7fb1f-f090-4e80-a2fb-03510d2b2219"},"vehicle_type_id":"4","last_reported":1732615860,"current_range_meters":36800,"station_id":"ce4bgh92rcd13ifvqb50","pricing_plan_id":"cebpf4jnsgd1na2vs0mg"},{"bike_id":"8a8e15b2-8ce3-4304-8abb-4dfd70b62859","system_id":"levelo_inurba_marseille","lat":43.24076,"lon":5.37748,"is_reserved":false,"is_disabled":true,"rental_uris":{"android":"levelo://app?vid=8a8e15b2-8ce3-4304-8abb-4dfd70b62859","ios":"levelo://app?vid=8a8e15b2-8ce3-4304-8abb-4dfd70b62859"},"vehicle_type_id":"4","last_reported":1732615860,"current_range_meters":38800,"station_id":"ce4bhnp2rcd13ifvqgvg","pricing_plan_id":"cebpf4jnsgd1na2vs0mg"},{"bike_id":"d33a5273-2943-4fa7-881b-94fa64c3bbe9","system_id":"levelo_inurba_marseille","lat":43.2396,"lon":5.36642,"is_reserved":false,"is_disabled":false,"rental_uris":{"android":"levelo://app?vid=d33a5273-2943-4fa7-881b-94fa64c3bbe9","ios":"levelo://app?vid=d33a5273-2943-4fa7-881b-94fa64c3bbe9"},"vehicle_type_id":"4","last_reported":1732615860,"current_range_meters":22800,"station_id":"ce4bhi12rcd13ifvqfp0","pricing_plan_id":"cebpf4jnsgd1na2vs0mg"},{"bike_id":"f6a6ddf5-3623-4303-b4dd-56a6aeb905d9","system_id":"levelo_inurba_marseille","lat":43.26951,"lon":5.38632,"is_reserved":false,"is_disabled":false,"rental_uris":{"android":"levelo://app?vid=f6a6ddf5-3623-4303-b4dd-56a6aeb905d9","ios":"levelo://app?vid=f6a6ddf5-3623-4303-b4dd-56a6aeb905d9"},"vehicle_type_id":"4","last_reported":1732615860,"current_range_meters":39200,"station_id":"ce4bhh92rcd13ifvqfh0","pricing_plan_id":"cebpf4jnsgd1na2vs0mg"},{"bike_id":"cd78312a-142a-42d0-92e1-dbc654bf8bb4","system_id":"levelo_inurba_marseille","lat":43.24184,"lon":5.39723,"is_reserved":false,"is_disabled":true,"rental_uris":{"android":"levelo://app?vid=cd78312a-142a-42d0-92e1-dbc654bf8bb4","ios":"levelo://app?vid=cd78312a-142a-42d0-92e1-dbc654bf8bb4"},"vehicle_type_id":"4","last_reported":1732615860,"current_range_meters":0,"station_id":"ce4bhn12rcd13ifvqgpg","pricing_plan_id":"cebpf4jnsgd1na2vs0mg"},{"bike_id":"41249b53-42aa-45f7-a470-76761e0f7179","system_id":"levelo_inurba_marseille","lat":43.27497,"lon":5.42454,"is_reserved":false,"is_disabled":false,"rental_uris":{"android":"levelo://app?vid=41249b53-42aa-45f7-a470-76761e0f7179","ios":"levelo://app?vid=41249b53-42aa-45f7-a470-76761e0f7179"},"vehicle_type_id":"4","last_reported":1732615860,"current_range_meters":34800,"station_id":"ce4bhn92rcd13ifvqgrg","pricing_plan_id":"cebpf4jnsgd1na2vs0mg"},{"bike_id":"f06f3555-cfeb-4dfd-93c0-faeaa75a9ad2","system_id":"levelo_inurba_marseille","lat":43.29227,"lon":5.3607,"is_reserved":false,"is_disabled":false,"rental_uris":{"android":"levelo://app?vid=f06f3555-cfeb-4dfd-93c0-faeaa75a9ad2","ios":"levelo://app?vid=f06f3555-cfeb-4dfd-93c0-faeaa75a9ad2"},"vehicle_type_id":"4","last_reported":1732615860,"current_range_meters":28800,"station_id":"ce4bhbh2rcd13ifvqeqg","pricing_plan_id":"cebpf4jnsgd1na2vs0mg"},{"bike_id":"6a243988-d267-4e1e-bafc-c091870de6a8","system_id":"levelo_inurba_marseille","lat":43.24168,"lon":5.36401,"is_reserved":false,"is_disabled":false,"rental_uris":{"android":"levelo://app?vid=6a243988-d267-4e1e-bafc-c091870de6a8","ios":"levelo://app?vid=6a243988-d267-4e1e-bafc-c091870de6a8"},"vehicle_type_id":"4","last_reported":1732615860,"current_range_meters":38800,"station_id":"cpo36qri1sfpv3e86is0","pricing_plan_id":"cebpf4jnsgd1na2vs0mg"},{"bike_id":"0f9d1f7f-98af-4312-ad7a-38fd5ba9e430","system_id":"levelo_inurba_marseille","lat":43.31228,"lon":5.36861,"is_reserved":false,"is_disabled":false,"rental_uris":{"android":"levelo://app?vid=0f9d1f7f-98af-4312-ad7a-38fd5ba9e430","ios":"levelo://app?vid=0f9d1f7f-98af-4312-ad7a-38fd5ba9e430"},"vehicle_type_id":"4","last_reported":1732615860,"current_range_meters":35600,"station_id":"ce4bgl92rcd13ifvqbq0","pricing_plan_id":"cebpf4jnsgd1na2vs0mg"},{"bike_id":"46254029-485c-43c3-b392-fd7884ff0c2f","system_id":"levelo_inurba_marseille","lat":43.25573,"lon":5.38238,"is_reserved":false,"is_disabled":false,"rental_uris":{"android":"levelo://app?vid=46254029-485c-43c3-b392-fd7884ff0c2f","ios":"levelo://app?vid=46254029-485c-43c3-b392-fd7884ff0c2f"},"vehicle_type_id":"4","last_reported":1732615860,"current_range_meters":39200,"station_id":"ce4bhih2rcd13ifvqfs0","pricing_plan_id":"cebpf4jnsgd1na2vs0mg"},{"bike_id":"1623f31b-ef7d-4d91-aad1-db70330d01ae","system_id":"levelo_inurba_marseille","lat":43.30277,"lon":5.37698,"is_reserved":false,"is_disabled":false,"rental_uris":{"android":"levelo://app?vid=1623f31b-ef7d-4d91-aad1-db70330d01ae","ios":"levelo://app?vid=1623f31b-ef7d-4d91-aad1-db70330d01ae"},"vehicle_type_id":"4","last_reported":1732615860,"current_range_meters":27600,"station_id":"ce4bguh2rcd13ifvqcj0","pricing_plan_id":"cebpf4jnsgd1na2vs0mg"},{"bike_id":"39b04c21-6a6a-40a7-a489-741c2b67c9bd","system_id":"levelo_inurba_marseille","lat":43.33729,"lon":5.39189,"is_reserved":false,"is_disabled":false,"rental_uris":{"android":"levelo://app?vid=39b04c21-6a6a-40a7-a489-741c2b67c9bd","ios":"levelo://app?vid=39b04c21-6a6a-40a7-a489-741c2b67c9bd"},"vehicle_type_id":"4","last_reported":1732615860,"current_range_meters":17200,"station_id":"ce4bhr92rcd13ifvqhsg","pricing_plan_id":"cebpf4jnsgd1na2vs0mg"},{"bike_id":"9833ea73-5b45-4d9e-a2ed-9ece627a548d","system_id":"levelo_inurba_marseille","lat":43.31494,"lon":5.37304,"is_reserved":false,"is_disabled":false,"rental_uris":{"android":"levelo://app?vid=9833ea73-5b45-4d9e-a2ed-9ece627a548d","ios":"levelo://app?vid=9833ea73-5b45-4d9e-a2ed-9ece627a548d"},"vehicle_type_id":"4","last_reported":1732615860,"current_range_meters":36000,"station_id":"ce4bgt12rcd13ifvqcd0","pricing_plan_id":"cebpf4jnsgd1na2vs0mg"},{"bike_id":"10add33f-4195-400b-a925-26d7fb4aa689","system_id":"levelo_inurba_marseille","lat":43.269483,"lon":5.402468,"is_reserved":false,"is_disabled":true,"rental_uris":{"android":"levelo://app?vid=10add33f-4195-400b-a925-26d7fb4aa689","ios":"levelo://app?vid=10add33f-4195-400b-a925-26d7fb4aa689"},"vehicle_type_id":"4","last_reported":1732615860,"current_range_meters":35200,"station_id":"cjm6bp8fraef2m0cb0m0","pricing_plan_id":"cebpf4jnsgd1na2vs0mg"},{"bike_id":"56819057-0ae2-4e8c-8e23-57ffdd73558a","system_id":"levelo_inurba_marseille","lat":43.30605,"lon":5.37235,"is_reserved":false,"is_disabled":false,"rental_uris":{"android":"levelo://app?vid=56819057-0ae2-4e8c-8e23-57ffdd73558a","ios":"levelo://app?vid=56819057-0ae2-4e8c-8e23-57ffdd73558a"},"vehicle_type_id":"4","last_reported":1732615860,"current_range_meters":38800,"station_id":"ce4bgqh2rcd13ifvqc4g","pricing_plan_id":"cebpf4jnsgd1na2vs0mg"},{"bike_id":"df6dfede-364c-4a0e-8f22-cb21db50a29f","system_id":"levelo_inurba_marseille","lat":43.23196,"lon":5.39986,"is_reserved":false,"is_disabled":false,"rental_uris":{"android":"levelo://app?vid=df6dfede-364c-4a0e-8f22-cb21db50a29f","ios":"levelo://app?vid=df6dfede-364c-4a0e-8f22-cb21db50a29f"},"vehicle_type_id":"4","last_reported":1732615860,"current_range_meters":38800,"station_id":"ce4bhn12rcd13ifvqgqg","pricing_plan_id":"cebpf4jnsgd1na2vs0mg"},{"bike_id":"f322df79-0242-4db0-ac2e-452d61c9528e","system_id":"levelo_inurba_marseille","lat":43.25576,"lon":5.38238,"is_reserved":false,"is_disabled":true,"rental_uris":{"android":"levelo://app?vid=f322df79-0242-4db0-ac2e-452d61c9528e","ios":"levelo://app?vid=f322df79-0242-4db0-ac2e-452d61c9528e"},"vehicle_type_id":"4","last_reported":1732615860,"current_range_meters":38800,"station_id":"ce4bhih2rcd13ifvqfs0","pricing_plan_id":"cebpf4jnsgd1na2vs0mg"},{"bike_id":"120383cf-2453-4786-bbb8-39853ee211c7","system_id":"levelo_inurba_marseille","lat":43.2407,"lon":5.37766,"is_reserved":false,"is_disabled":false,"rental_uris":{"android":"levelo://app?vid=120383cf-2453-4786-bbb8-39853ee211c7","ios":"levelo://app?vid=120383cf-2453-4786-bbb8-39853ee211c7"},"vehicle_type_id":"4","last_reported":1732615860,"current_range_meters":38000,"station_id":"ce4bhnp2rcd13ifvqgvg","pricing_plan_id":"cebpf4jnsgd1na2vs0mg"},{"bike_id":"aaa8e7a5-5e83-4222-95ce-696acb19e407","system_id":"levelo_inurba_marseille","lat":43.28427,"lon":5.39184,"is_reserved":false,"is_disabled":false,"rental_uris":{"android":"levelo://app?vid=aaa8e7a5-5e83-4222-95ce-696acb19e407","ios":"levelo://app?vid=aaa8e7a5-5e83-4222-95ce-696acb19e407"},"vehicle_type_id":"4","last_reported":1732615860,"current_range_meters":31200,"station_id":"ce4bhoh2rcd13ifvqh5g","pricing_plan_id":"cebpf4jnsgd1na2vs0mg"},{"bike_id":"edbd8428-ff62-4829-8b57-b4d67dcbdc93","system_id":"levelo_inurba_marseille","lat":43.28606,"lon":5.37066,"is_reserved":false,"is_disabled":false,"rental_uris":{"android":"levelo://app?vid=edbd8428-ff62-4829-8b57-b4d67dcbdc93","ios":"levelo://app?vid=edbd8428-ff62-4829-8b57-b4d67dcbdc93"},"vehicle_type_id":"4","last_reported":1732615860,"current_range_meters":38800,"station_id":"ce4bht12rcd13ifvqi60","pricing_plan_id":"cebpf4jnsgd1na2vs0mg"},{"bike_id":"c19695df-7813-42f4-9997-18b37f3a69df","system_id":"levelo_inurba_marseille","lat":43.27225,"lon":5.39152,"is_reserved":false,"is_disabled":false,"rental_uris":{"android":"levelo://app?vid=c19695df-7813-42f4-9997-18b37f3a69df","ios":"levelo://app?vid=c19695df-7813-42f4-9997-18b37f3a69df"},"vehicle_type_id":"4","last_reported":1732615860,"current_range_meters":17600,"station_id":"ce4bhhp2rcd13ifvqfm0","pricing_plan_id":"cebpf4jnsgd1na2vs0mg"},{"bike_id":"2eac4057-9ce2-44e0-a14e-c9b3a1bde624","system_id":"levelo_inurba_marseille","lat":43.231997,"lon":5.35546,"is_reserved":false,"is_disabled":false,"rental_uris":{"android":"levelo://app?vid=2eac4057-9ce2-44e0-a14e-c9b3a1bde624","ios":"levelo://app?vid=2eac4057-9ce2-44e0-a14e-c9b3a1bde624"},"vehicle_type_id":"4","last_reported":1732615860,"current_range_meters":9600,"station_id":"ce4bhu92rcd13ifvqi70","pricing_plan_id":"cebpf4jnsgd1na2vs0mg"},{"bike_id":"36296f5c-0176-4be0-97c8-7930cda9c369","system_id":"levelo_inurba_marseille","lat":43.32106,"lon":5.36783,"is_reserved":false,"is_disabled":false,"rental_uris":{"android":"levelo://app?vid=36296f5c-0176-4be0-97c8-7930cda9c369","ios":"levelo://app?vid=36296f5c-0176-4be0-97c8-7930cda9c369"},"vehicle_type_id":"4","last_reported":1732615860,"current_range_meters":23200,"station_id":"ce4bhrh2rcd13ifvqhug","pricing_plan_id":"cebpf4jnsgd1na2vs0mg"},{"bike_id":"7099a10e-0d90-410d-a793-88ccdf1f41ca","system_id":"levelo_inurba_marseille","lat":43.28934,"lon":5.36632,"is_reserved":false,"is_disabled":false,"rental_uris":{"android":"levelo://app?vid=7099a10e-0d90-410d-a793-88ccdf1f41ca","ios":"levelo://app?vid=7099a10e-0d90-410d-a793-88ccdf1f41ca"},"vehicle_type_id":"4","last_reported":1732615860,"current_range_meters":19200,"station_id":"ce4bhap2rcd13ifvqek0","pricing_plan_id":"cebpf4jnsgd1na2vs0mg"},{"bike_id":"911f867a-00bb-4ac5-911e-12e41134a81b","system_id":"levelo_inurba_marseille","lat":43.32003,"lon":5.3816,"is_reserved":false,"is_disabled":false,"rental_uris":{"android":"levelo://app?vid=911f867a-00bb-4ac5-911e-12e41134a81b","ios":"levelo://app?vid=911f867a-00bb-4ac5-911e-12e41134a81b"},"vehicle_type_id":"4","last_reported":1732615860,"current_range_meters":38400,"station_id":"ce4bhr12rcd13ifvqhpg","pricing_plan_id":"cebpf4jnsgd1na2vs0mg"},{"bike_id":"a79df96c-4f5c-4637-9e53-02675e29f46c","system_id":"levelo_inurba_marseille","lat":43.33604,"lon":5.41039,"is_reserved":false,"is_disabled":false,"rental_uris":{"android":"levelo://app?vid=a79df96c-4f5c-4637-9e53-02675e29f46c","ios":"levelo://app?vid=a79df96c-4f5c-4637-9e53-02675e29f46c"},"vehicle_type_id":"4","last_reported":1732615860,"current_range_meters":14400,"station_id":"ce4bhqh2rcd13ifvqhmg","pricing_plan_id":"cebpf4jnsgd1na2vs0mg"},{"bike_id":"b343861f-1589-4a40-afae-f909ffb05b2f","system_id":"levelo_inurba_marseille","lat":43.28001,"lon":5.41664,"is_reserved":false,"is_disabled":false,"rental_uris":{"android":"levelo://app?vid=b343861f-1589-4a40-afae-f909ffb05b2f","ios":"levelo://app?vid=b343861f-1589-4a40-afae-f909ffb05b2f"},"vehicle_type_id":"4","last_reported":1732615860,"current_range_meters":21600,"station_id":"ce4bho12rcd13ifvqh1g","pricing_plan_id":"cebpf4jnsgd1na2vs0mg"},{"bike_id":"ae97de34-d8c8-434e-85ec-003bf1023a27","system_id":"levelo_inurba_marseille","lat":43.27068,"lon":5.42275,"is_reserved":false,"is_disabled":false,"rental_uris":{"android":"levelo://app?vid=ae97de34-d8c8-434e-85ec-003bf1023a27","ios":"levelo://app?vid=ae97de34-d8c8-434e-85ec-003bf1023a27"},"vehicle_type_id":"4","last_reported":1732615860,"current_range_meters":16400,"station_id":"ce4bhk92rcd13ifvqgb0","pricing_plan_id":"cebpf4jnsgd1na2vs0mg"},{"bike_id":"1ebc2642-599e-41e5-89df-308a45bbfcfb","system_id":"levelo_inurba_marseille","lat":43.32106,"lon":5.36767,"is_reserved":false,"is_disabled":false,"rental_uris":{"android":"levelo://app?vid=1ebc2642-599e-41e5-89df-308a45bbfcfb","ios":"levelo://app?vid=1ebc2642-599e-41e5-89df-308a45bbfcfb"},"vehicle_type_id":"4","last_reported":1732615860,"current_range_meters":16000,"station_id":"ce4bhrh2rcd13ifvqhug","pricing_plan_id":"cebpf4jnsgd1na2vs0mg"},{"bike_id":"7185ef41-3a2b-447d-b041-2ae1094f59ec","system_id":"levelo_inurba_marseille","lat":43.30535,"lon":5.36684,"is_reserved":false,"is_disabled":false,"rental_uris":{"android":"levelo://app?vid=7185ef41-3a2b-447d-b041-2ae1094f59ec","ios":"levelo://app?vid=7185ef41-3a2b-447d-b041-2ae1094f59ec"},"vehicle_type_id":"4","last_reported":1732615860,"current_range_meters":27600,"station_id":"ce4bgrp2rcd13ifvqc9g","pricing_plan_id":"cebpf4jnsgd1na2vs0mg"},{"bike_id":"96ab67d7-31f8-416d-ac69-0c1c3ef969ce","system_id":"levelo_inurba_marseille","lat":43.31352,"lon":5.36707,"is_reserved":false,"is_disabled":false,"rental_uris":{"android":"levelo://app?vid=96ab67d7-31f8-416d-ac69-0c1c3ef969ce","ios":"levelo://app?vid=96ab67d7-31f8-416d-ac69-0c1c3ef969ce"},"vehicle_type_id":"4","last_reported":1732615860,"current_range_meters":36800,"station_id":"ce4bgr92rcd13ifvqc6g","pricing_plan_id":"cebpf4jnsgd1na2vs0mg"},{"bike_id":"baa6b116-33e8-4eeb-949d-8ad46185256a","system_id":"levelo_inurba_marseille","lat":43.32546,"lon":5.41436,"is_reserved":false,"is_disabled":false,"rental_uris":{"android":"levelo://app?vid=baa6b116-33e8-4eeb-949d-8ad46185256a","ios":"levelo://app?vid=baa6b116-33e8-4eeb-949d-8ad46185256a"},"vehicle_type_id":"4","last_reported":1732615860,"current_range_meters":38800,"station_id":"ce4bhq12rcd13ifvqhhg","pricing_plan_id":"cebpf4jnsgd1na2vs0mg"},{"bike_id":"e8a12a11-eb94-43a1-89dc-1a990d2d11f4","system_id":"levelo_inurba_marseille","lat":43.23146,"lon":5.4372,"is_reserved":false,"is_disabled":false,"rental_uris":{"android":"levelo://app?vid=e8a12a11-eb94-43a1-89dc-1a990d2d11f4","ios":"levelo://app?vid=e8a12a11-eb94-43a1-89dc-1a990d2d11f4"},"vehicle_type_id":"4","last_reported":1732615860,"current_range_meters":38800,"station_id":"ce4bhmp2rcd13ifvqgog","pricing_plan_id":"cebpf4jnsgd1na2vs0mg"},{"bike_id":"540ed4bd-433a-4bb9-9280-90e3d3ab1b5e","system_id":"levelo_inurba_marseille","lat":43.24169,"lon":5.36398,"is_reserved":false,"is_disabled":false,"rental_uris":{"android":"levelo://app?vid=540ed4bd-433a-4bb9-9280-90e3d3ab1b5e","ios":"levelo://app?vid=540ed4bd-433a-4bb9-9280-90e3d3ab1b5e"},"vehicle_type_id":"4","last_reported":1732615860,"current_range_meters":38800,"station_id":"cpo36qri1sfpv3e86is0","pricing_plan_id":"cebpf4jnsgd1na2vs0mg"},{"bike_id":"5bf346f8-0c23-43e3-8c6e-17a07ddf3fee","system_id":"levelo_inurba_marseille","lat":43.26953,"lon":5.38657,"is_reserved":false,"is_disabled":false,"rental_uris":{"android":"levelo://app?vid=5bf346f8-0c23-43e3-8c6e-17a07ddf3fee","ios":"levelo://app?vid=5bf346f8-0c23-43e3-8c6e-17a07ddf3fee"},"vehicle_type_id":"4","last_reported":1732615860,"current_range_meters":6400,"station_id":"ce4bhh92rcd13ifvqfh0","pricing_plan_id":"cebpf4jnsgd1na2vs0mg"},{"bike_id":"a0671414-075f-4c51-afa3-8a0544e0da0e","system_id":"levelo_inurba_marseille","lat":43.2407,"lon":5.3776,"is_reserved":false,"is_disabled":false,"rental_uris":{"android":"levelo://app?vid=a0671414-075f-4c51-afa3-8a0544e0da0e","ios":"levelo://app?vid=a0671414-075f-4c51-afa3-8a0544e0da0e"},"vehicle_type_id":"4","last_reported":1732615860,"current_range_meters":14000,"station_id":"ce4bhnp2rcd13ifvqgvg","pricing_plan_id":"cebpf4jnsgd1na2vs0mg"},{"bike_id":"5bf94cec-5d70-4fe6-850b-65fe88c67777","system_id":"levelo_inurba_marseille","lat":43.30546,"lon":5.36528,"is_reserved":false,"is_disabled":true,"rental_uris":{"android":"levelo://app?vid=5bf94cec-5d70-4fe6-850b-65fe88c67777","ios":"levelo://app?vid=5bf94cec-5d70-4fe6-850b-65fe88c67777"},"vehicle_type_id":"4","last_reported":1732615860,"current_range_meters":3200,"station_id":"ce4bgs12rcd13ifvqcag","pricing_plan_id":"cebpf4jnsgd1na2vs0mg"},{"bike_id":"4ac59aee-47e2-48b1-a8f3-9a3cea01b632","system_id":"levelo_inurba_marseille","lat":43.26199,"lon":5.37922,"is_reserved":false,"is_disabled":false,"rental_uris":{"android":"levelo://app?vid=4ac59aee-47e2-48b1-a8f3-9a3cea01b632","ios":"levelo://app?vid=4ac59aee-47e2-48b1-a8f3-9a3cea01b632"},"vehicle_type_id":"4","last_reported":1732615860,"current_range_meters":6000,"station_id":"ce4bhjp2rcd13ifvqg90","pricing_plan_id":"cebpf4jnsgd1na2vs0mg"},{"bike_id":"5e501ae5-644b-45f2-8a81-073cc9474b71","system_id":"levelo_inurba_marseille","lat":43.23191,"lon":5.39979,"is_reserved":false,"is_disabled":false,"rental_uris":{"android":"levelo://app?vid=5e501ae5-644b-45f2-8a81-073cc9474b71","ios":"levelo://app?vid=5e501ae5-644b-45f2-8a81-073cc9474b71"},"vehicle_type_id":"4","last_reported":1732615860,"current_range_meters":6400,"station_id":"ce4bhn12rcd13ifvqgqg","pricing_plan_id":"cebpf4jnsgd1na2vs0mg"},{"bike_id":"ecafbf04-e97c-486f-8502-ae4081837df7","system_id":"levelo_inurba_marseille","lat":43.25002,"lon":5.38927,"is_reserved":false,"is_disabled":false,"rental_uris":{"android":"levelo://app?vid=ecafbf04-e97c-486f-8502-ae4081837df7","ios":"levelo://app?vid=ecafbf04-e97c-486f-8502-ae4081837df7"},"vehicle_type_id":"4","last_reported":1732615860,"current_range_meters":38800,"station_id":"ce4bhgp2rcd13ifvqfd0","pricing_plan_id":"cebpf4jnsgd1na2vs0mg"},{"bike_id":"da587ae6-9a09-4f1f-9801-49ebadd9eaba","system_id":"levelo_inurba_marseille","lat":43.27496,"lon":5.42455,"is_reserved":false,"is_disabled":true,"rental_uris":{"android":"levelo://app?vid=da587ae6-9a09-4f1f-9801-49ebadd9eaba","ios":"levelo://app?vid=da587ae6-9a09-4f1f-9801-49ebadd9eaba"},"vehicle_type_id":"4","last_reported":1732615860,"current_range_meters":8000,"station_id":"ce4bhn92rcd13ifvqgrg","pricing_plan_id":"cebpf4jnsgd1na2vs0mg"},{"bike_id":"64d99805-5c2f-4296-94ac-5ea41a4650e3","system_id":"levelo_inurba_marseille","lat":43.2815,"lon":5.42649,"is_reserved":false,"is_disabled":true,"rental_uris":{"android":"levelo://app?vid=64d99805-5c2f-4296-94ac-5ea41a4650e3","ios":"levelo://app?vid=64d99805-5c2f-4296-94ac-5ea41a4650e3"},"vehicle_type_id":"4","last_reported":1732615860,"current_range_meters":16800,"station_id":"ce4bhnh2rcd13ifvqgug","pricing_plan_id":"cebpf4jnsgd1na2vs0mg"},{"bike_id":"572435f9-42b4-4ff9-bb3e-bd7d048670e4","system_id":"levelo_inurba_marseille","lat":43.29003,"lon":5.35607,"is_reserved":false,"is_disabled":false,"rental_uris":{"android":"levelo://app?vid=572435f9-42b4-4ff9-bb3e-bd7d048670e4","ios":"levelo://app?vid=572435f9-42b4-4ff9-bb3e-bd7d048670e4"},"vehicle_type_id":"4","last_reported":1732615860,"current_range_meters":38400,"station_id":"ce4bhb92rcd13ifvqen0","pricing_plan_id":"cebpf4jnsgd1na2vs0mg"},{"bike_id":"ac3c6b0d-c4b9-4ff1-b1a2-8adea9f368fc","system_id":"levelo_inurba_marseille","lat":43.30202,"lon":5.36606,"is_reserved":false,"is_disabled":false,"rental_uris":{"android":"levelo://app?vid=ac3c6b0d-c4b9-4ff1-b1a2-8adea9f368fc","ios":"levelo://app?vid=ac3c6b0d-c4b9-4ff1-b1a2-8adea9f368fc"},"vehicle_type_id":"4","last_reported":1732615860,"current_range_meters":36800,"station_id":"ce4bgrh2rcd13ifvqc8g","pricing_plan_id":"cebpf4jnsgd1na2vs0mg"},{"bike_id":"45428428-28ee-4c01-962d-c496d5de7e7b","system_id":"levelo_inurba_marseille","lat":43.29789,"lon":5.38096,"is_reserved":false,"is_disabled":false,"rental_uris":{"android":"levelo://app?vid=45428428-28ee-4c01-962d-c496d5de7e7b","ios":"levelo://app?vid=45428428-28ee-4c01-962d-c496d5de7e7b"},"vehicle_type_id":"4","last_reported":1732615860,"current_range_meters":34000,"station_id":"ce4bgip2rcd13ifvqbb0","pricing_plan_id":"cebpf4jnsgd1na2vs0mg"},{"bike_id":"002a8abb-fad3-4a02-a04c-ed4e75a95139","system_id":"levelo_inurba_marseille","lat":43.27985,"lon":5.41661,"is_reserved":false,"is_disabled":false,"rental_uris":{"android":"levelo://app?vid=002a8abb-fad3-4a02-a04c-ed4e75a95139","ios":"levelo://app?vid=002a8abb-fad3-4a02-a04c-ed4e75a95139"},"vehicle_type_id":"4","last_reported":1732615860,"current_range_meters":16000,"station_id":"ce4bho12rcd13ifvqh1g","pricing_plan_id":"cebpf4jnsgd1na2vs0mg"},{"bike_id":"eb2b1f53-4d57-499c-94f2-ec541a2a4bf4","system_id":"levelo_inurba_marseille","lat":43.27063,"lon":5.42277,"is_reserved":false,"is_disabled":false,"rental_uris":{"android":"levelo://app?vid=eb2b1f53-4d57-499c-94f2-ec541a2a4bf4","ios":"levelo://app?vid=eb2b1f53-4d57-499c-94f2-ec541a2a4bf4"},"vehicle_type_id":"4","last_reported":1732615860,"current_range_meters":28000,"station_id":"ce4bhk92rcd13ifvqgb0","pricing_plan_id":"cebpf4jnsgd1na2vs0mg"},{"bike_id":"edc4ec26-9586-43e2-8071-e01c01aa0cd4","system_id":"levelo_inurba_marseille","lat":43.24381,"lon":5.37043,"is_reserved":false,"is_disabled":false,"rental_uris":{"android":"levelo://app?vid=edc4ec26-9586-43e2-8071-e01c01aa0cd4","ios":"levelo://app?vid=edc4ec26-9586-43e2-8071-e01c01aa0cd4"},"vehicle_type_id":"4","last_reported":1732615860,"current_range_meters":26800,"station_id":"ce4bhhh2rcd13ifvqfk0","pricing_plan_id":"cebpf4jnsgd1na2vs0mg"},{"bike_id":"548ef624-6be8-4d1b-8570-89d6dd7d18ce","system_id":"levelo_inurba_marseille","lat":43.28003,"lon":5.41676,"is_reserved":false,"is_disabled":false,"rental_uris":{"android":"levelo://app?vid=548ef624-6be8-4d1b-8570-89d6dd7d18ce","ios":"levelo://app?vid=548ef624-6be8-4d1b-8570-89d6dd7d18ce"},"vehicle_type_id":"4","last_reported":1732615860,"current_range_meters":39200,"station_id":"ce4bho12rcd13ifvqh1g","pricing_plan_id":"cebpf4jnsgd1na2vs0mg"},{"bike_id":"6f9f143d-72cf-4e60-b943-de8bff17efa2","system_id":"levelo_inurba_marseille","lat":43.29773,"lon":5.37107,"is_reserved":false,"is_disabled":false,"rental_uris":{"android":"levelo://app?vid=6f9f143d-72cf-4e60-b943-de8bff17efa2","ios":"levelo://app?vid=6f9f143d-72cf-4e60-b943-de8bff17efa2"},"vehicle_type_id":"4","last_reported":1732615860,"current_range_meters":28800,"station_id":"ce4bgop2rcd13ifvqc1g","pricing_plan_id":"cebpf4jnsgd1na2vs0mg"},{"bike_id":"1d8b322c-ae19-40b9-b7e5-352391e1e3c7","system_id":"levelo_inurba_marseille","lat":43.28365,"lon":5.38639,"is_reserved":false,"is_disabled":false,"rental_uris":{"android":"levelo://app?vid=1d8b322c-ae19-40b9-b7e5-352391e1e3c7","ios":"levelo://app?vid=1d8b322c-ae19-40b9-b7e5-352391e1e3c7"},"vehicle_type_id":"4","last_reported":1732615860,"current_range_meters":39200,"station_id":"ce4bh492rcd13ifvqdvg","pricing_plan_id":"cebpf4jnsgd1na2vs0mg"},{"bike_id":"ed00ff1c-a428-4ce5-a455-260378e65da7","system_id":"levelo_inurba_marseille","lat":43.28804,"lon":5.40025,"is_reserved":false,"is_disabled":true,"rental_uris":{"android":"levelo://app?vid=ed00ff1c-a428-4ce5-a455-260378e65da7","ios":"levelo://app?vid=ed00ff1c-a428-4ce5-a455-260378e65da7"},"vehicle_type_id":"4","last_reported":1732615860,"current_range_meters":0,"station_id":"","pricing_plan_id":"cebpf4jnsgd1na2vs0mg"},{"bike_id":"9c9cda8c-65de-41ec-a6f6-ab7be57b8d59","system_id":"levelo_inurba_marseille","lat":43.27551,"lon":5.38401,"is_reserved":false,"is_disabled":false,"rental_uris":{"android":"levelo://app?vid=9c9cda8c-65de-41ec-a6f6-ab7be57b8d59","ios":"levelo://app?vid=9c9cda8c-65de-41ec-a6f6-ab7be57b8d59"},"vehicle_type_id":"4","last_reported":1732615860,"current_range_meters":20400,"station_id":"ce4bhh92rcd13ifvqfi0","pricing_plan_id":"cebpf4jnsgd1na2vs0mg"},{"bike_id":"54c61d95-32ee-4012-ba3b-4181bda4227d","system_id":"levelo_inurba_marseille","lat":43.30639,"lon":5.40072,"is_reserved":false,"is_disabled":false,"rental_uris":{"android":"levelo://app?vid=54c61d95-32ee-4012-ba3b-4181bda4227d","ios":"levelo://app?vid=54c61d95-32ee-4012-ba3b-4181bda4227d"},"vehicle_type_id":"4","last_reported":1732615860,"current_range_meters":27600,"station_id":"ce4bh112rcd13ifvqda0","pricing_plan_id":"cebpf4jnsgd1na2vs0mg"},{"bike_id":"858b65e1-94fc-4151-a71e-8b168cb19dcb","system_id":"levelo_inurba_marseille","lat":43.32249,"lon":5.39241,"is_reserved":false,"is_disabled":true,"rental_uris":{"android":"levelo://app?vid=858b65e1-94fc-4151-a71e-8b168cb19dcb","ios":"levelo://app?vid=858b65e1-94fc-4151-a71e-8b168cb19dcb"},"vehicle_type_id":"4","last_reported":1732615860,"current_range_meters":0,"station_id":"","pricing_plan_id":"cebpf4jnsgd1na2vs0mg"},{"bike_id":"2b5c534c-0551-4b66-b4eb-522aabd25a4c","system_id":"levelo_inurba_marseille","lat":43.27427,"lon":5.39424,"is_reserved":false,"is_disabled":false,"rental_uris":{"android":"levelo://app?vid=2b5c534c-0551-4b66-b4eb-522aabd25a4c","ios":"levelo://app?vid=2b5c534c-0551-4b66-b4eb-522aabd25a4c"},"vehicle_type_id":"4","last_reported":1732615860,"current_range_meters":8400,"station_id":"ce4bhdp2rcd13ifvqf20","pricing_plan_id":"cebpf4jnsgd1na2vs0mg"},{"bike_id":"9b363232-8f76-4870-a7c9-49c00e02e754","system_id":"levelo_inurba_marseille","lat":43.27948,"lon":5.41031,"is_reserved":false,"is_disabled":false,"rental_uris":{"android":"levelo://app?vid=9b363232-8f76-4870-a7c9-49c00e02e754","ios":"levelo://app?vid=9b363232-8f76-4870-a7c9-49c00e02e754"},"vehicle_type_id":"4","last_reported":1732615860,"current_range_meters":19200,"station_id":"ce4bhnp2rcd13ifvqh0g","pricing_plan_id":"cebpf4jnsgd1na2vs0mg"},{"bike_id":"fb6f267e-8f2f-4000-94c2-2899cf721536","system_id":"levelo_inurba_marseille","lat":43.30973,"lon":5.40558,"is_reserved":false,"is_disabled":false,"rental_uris":{"android":"levelo://app?vid=fb6f267e-8f2f-4000-94c2-2899cf721536","ios":"levelo://app?vid=fb6f267e-8f2f-4000-94c2-2899cf721536"},"vehicle_type_id":"4","last_reported":1732615860,"current_range_meters":8000,"station_id":"","pricing_plan_id":"cebpf4jnsgd1na2vs0mg"},{"bike_id":"2b076fd7-7460-4f2e-836d-531982b1a050","system_id":"levelo_inurba_marseille","lat":43.2963,"lon":5.37149,"is_reserved":false,"is_disabled":false,"rental_uris":{"android":"levelo://app?vid=2b076fd7-7460-4f2e-836d-531982b1a050","ios":"levelo://app?vid=2b076fd7-7460-4f2e-836d-531982b1a050"},"vehicle_type_id":"4","last_reported":1732615860,"current_range_meters":38400,"station_id":"ce4bgnh2rcd13ifvqc0g","pricing_plan_id":"cebpf4jnsgd1na2vs0mg"},{"bike_id":"8502e5d3-2cf2-4d77-a0aa-ed07e8d5e472","system_id":"levelo_inurba_marseille","lat":43.27215,"lon":5.39196,"is_reserved":false,"is_disabled":false,"rental_uris":{"android":"levelo://app?vid=8502e5d3-2cf2-4d77-a0aa-ed07e8d5e472","ios":"levelo://app?vid=8502e5d3-2cf2-4d77-a0aa-ed07e8d5e472"},"vehicle_type_id":"4","last_reported":1732615860,"current_range_meters":38000,"station_id":"ce4bhhp2rcd13ifvqfm0","pricing_plan_id":"cebpf4jnsgd1na2vs0mg"},{"bike_id":"0a933461-0d26-400f-ad9c-61e1b14bc8fe","system_id":"levelo_inurba_marseille","lat":43.23195,"lon":5.3555,"is_reserved":false,"is_disabled":true,"rental_uris":{"android":"levelo://app?vid=0a933461-0d26-400f-ad9c-61e1b14bc8fe","ios":"levelo://app?vid=0a933461-0d26-400f-ad9c-61e1b14bc8fe"},"vehicle_type_id":"4","last_reported":1732615860,"current_range_meters":0,"station_id":"ce4bhu92rcd13ifvqi70","pricing_plan_id":"cebpf4jnsgd1na2vs0mg"},{"bike_id":"3bd4e758-1aa1-43e4-bf3f-c7c2dd799e60","system_id":"levelo_inurba_marseille","lat":43.23144,"lon":5.4371,"is_reserved":false,"is_disabled":false,"rental_uris":{"android":"levelo://app?vid=3bd4e758-1aa1-43e4-bf3f-c7c2dd799e60","ios":"levelo://app?vid=3bd4e758-1aa1-43e4-bf3f-c7c2dd799e60"},"vehicle_type_id":"4","last_reported":1732615860,"current_range_meters":38800,"station_id":"ce4bhmp2rcd13ifvqgog","pricing_plan_id":"cebpf4jnsgd1na2vs0mg"},{"bike_id":"8ebb8631-c5f7-4e0e-a2fa-19149d081503","system_id":"levelo_inurba_marseille","lat":43.33762,"lon":5.37439,"is_reserved":false,"is_disabled":false,"rental_uris":{"android":"levelo://app?vid=8ebb8631-c5f7-4e0e-a2fa-19149d081503","ios":"levelo://app?vid=8ebb8631-c5f7-4e0e-a2fa-19149d081503"},"vehicle_type_id":"4","last_reported":1732615860,"current_range_meters":38000,"station_id":"","pricing_plan_id":"cebpf4jnsgd1na2vs0mg"},{"bike_id":"bc0c529a-a8e3-4d1e-b42d-04fd73268cf8","system_id":"levelo_inurba_marseille","lat":43.31699,"lon":5.37763,"is_reserved":false,"is_disabled":true,"rental_uris":{"android":"levelo://app?vid=bc0c529a-a8e3-4d1e-b42d-04fd73268cf8","ios":"levelo://app?vid=bc0c529a-a8e3-4d1e-b42d-04fd73268cf8"},"vehicle_type_id":"4","last_reported":1732615860,"current_range_meters":36000,"station_id":"ce4bgth2rcd13ifvqch0","pricing_plan_id":"cebpf4jnsgd1na2vs0mg"},{"bike_id":"19f546bc-503f-42bc-a2b9-f1b6a11194b2","system_id":"levelo_inurba_marseille","lat":43.29792,"lon":5.38112,"is_reserved":false,"is_disabled":true,"rental_uris":{"android":"levelo://app?vid=19f546bc-503f-42bc-a2b9-f1b6a11194b2","ios":"levelo://app?vid=19f546bc-503f-42bc-a2b9-f1b6a11194b2"},"vehicle_type_id":"4","last_reported":1732615860,"current_range_meters":23200,"station_id":"","pricing_plan_id":"cebpf4jnsgd1na2vs0mg"},{"bike_id":"ee8e9d94-a7b7-4009-8e30-c7193a0a4415","system_id":"levelo_inurba_marseille","lat":43.26684,"lon":5.38266,"is_reserved":false,"is_disabled":false,"rental_uris":{"android":"levelo://app?vid=ee8e9d94-a7b7-4009-8e30-c7193a0a4415","ios":"levelo://app?vid=ee8e9d94-a7b7-4009-8e30-c7193a0a4415"},"vehicle_type_id":"4","last_reported":1732615860,"current_range_meters":32000,"station_id":"ce4bhg92rcd13ifvqf90","pricing_plan_id":"cebpf4jnsgd1na2vs0mg"},{"bike_id":"f7f3756c-1ec7-4782-9c87-6273f87b6774","system_id":"levelo_inurba_marseille","lat":43.337444,"lon":5.374475,"is_reserved":false,"is_disabled":true,"rental_uris":{"android":"levelo://app?vid=f7f3756c-1ec7-4782-9c87-6273f87b6774","ios":"levelo://app?vid=f7f3756c-1ec7-4782-9c87-6273f87b6774"},"vehicle_type_id":"4","last_reported":1732615860,"current_range_meters":20000,"station_id":"","pricing_plan_id":"cebpf4jnsgd1na2vs0mg"},{"bike_id":"3dc5bf7e-bd0a-4ca2-8f57-2971cc9e48f9","system_id":"levelo_inurba_marseille","lat":43.30903,"lon":5.36855,"is_reserved":false,"is_disabled":false,"rental_uris":{"android":"levelo://app?vid=3dc5bf7e-bd0a-4ca2-8f57-2971cc9e48f9","ios":"levelo://app?vid=3dc5bf7e-bd0a-4ca2-8f57-2971cc9e48f9"},"vehicle_type_id":"4","last_reported":1732615860,"current_range_meters":26000,"station_id":"ce4bgn92rcd13ifvqbvg","pricing_plan_id":"cebpf4jnsgd1na2vs0mg"},{"bike_id":"32ea487f-a49c-4d56-87a9-ea141e6ee8d0","system_id":"levelo_inurba_marseille","lat":43.337444,"lon":5.374475,"is_reserved":false,"is_disabled":false,"rental_uris":{"android":"levelo://app?vid=32ea487f-a49c-4d56-87a9-ea141e6ee8d0","ios":"levelo://app?vid=32ea487f-a49c-4d56-87a9-ea141e6ee8d0"},"vehicle_type_id":"4","last_reported":1732615860,"current_range_meters":32000,"station_id":"ce4bh0h2rcd13ifvqd40","pricing_plan_id":"cebpf4jnsgd1na2vs0mg"},{"bike_id":"ae78cd95-0524-4346-8c3e-35a78db9a346","system_id":"levelo_inurba_marseille","lat":43.26064,"lon":5.39396,"is_reserved":false,"is_disabled":false,"rental_uris":{"android":"levelo://app?vid=ae78cd95-0524-4346-8c3e-35a78db9a346","ios":"levelo://app?vid=ae78cd95-0524-4346-8c3e-35a78db9a346"},"vehicle_type_id":"4","last_reported":1732615860,"current_range_meters":16000,"station_id":"ce4bhh92rcd13ifvqfj0","pricing_plan_id":"cebpf4jnsgd1na2vs0mg"},{"bike_id":"b05d700b-4c12-4902-9f13-1883424392b5","system_id":"levelo_inurba_marseille","lat":43.29415,"lon":5.38619,"is_reserved":false,"is_disabled":false,"rental_uris":{"android":"levelo://app?vid=b05d700b-4c12-4902-9f13-1883424392b5","ios":"levelo://app?vid=b05d700b-4c12-4902-9f13-1883424392b5"},"vehicle_type_id":"4","last_reported":1732615860,"current_range_meters":29600,"station_id":"ce4bh2h2rcd13ifvqdh0","pricing_plan_id":"cebpf4jnsgd1na2vs0mg"},{"bike_id":"e46d83c8-bfb3-4318-90b6-eadb2c6da6da","system_id":"levelo_inurba_marseille","lat":43.3123,"lon":5.36857,"is_reserved":false,"is_disabled":false,"rental_uris":{"android":"levelo://app?vid=e46d83c8-bfb3-4318-90b6-eadb2c6da6da","ios":"levelo://app?vid=e46d83c8-bfb3-4318-90b6-eadb2c6da6da"},"vehicle_type_id":"4","last_reported":1732615860,"current_range_meters":39200,"station_id":"ce4bgl92rcd13ifvqbq0","pricing_plan_id":"cebpf4jnsgd1na2vs0mg"},{"bike_id":"d0b59f68-7696-47e2-bfd5-bd18a1c02818","system_id":"levelo_inurba_marseille","lat":43.26957,"lon":5.386319,"is_reserved":false,"is_disabled":false,"rental_uris":{"android":"levelo://app?vid=d0b59f68-7696-47e2-bfd5-bd18a1c02818","ios":"levelo://app?vid=d0b59f68-7696-47e2-bfd5-bd18a1c02818"},"vehicle_type_id":"4","last_reported":1732615860,"current_range_meters":8800,"station_id":"ce4bhh92rcd13ifvqfh0","pricing_plan_id":"cebpf4jnsgd1na2vs0mg"},{"bike_id":"14f3c269-ea7b-4aeb-9a6e-2af7df033998","system_id":"levelo_inurba_marseille","lat":43.26059,"lon":5.39391,"is_reserved":false,"is_disabled":true,"rental_uris":{"android":"levelo://app?vid=14f3c269-ea7b-4aeb-9a6e-2af7df033998","ios":"levelo://app?vid=14f3c269-ea7b-4aeb-9a6e-2af7df033998"},"vehicle_type_id":"4","last_reported":1732615860,"current_range_meters":38800,"station_id":"ce4bhh92rcd13ifvqfj0","pricing_plan_id":"cebpf4jnsgd1na2vs0mg"},{"bike_id":"510aec66-5ea6-4646-af78-9fe50d92940f","system_id":"levelo_inurba_marseille","lat":43.31354,"lon":5.38493,"is_reserved":false,"is_disabled":true,"rental_uris":{"android":"levelo://app?vid=510aec66-5ea6-4646-af78-9fe50d92940f","ios":"levelo://app?vid=510aec66-5ea6-4646-af78-9fe50d92940f"},"vehicle_type_id":"4","last_reported":1732615860,"current_range_meters":30000,"station_id":"ce4bgt92rcd13ifvqcf0","pricing_plan_id":"cebpf4jnsgd1na2vs0mg"},{"bike_id":"f5658b6b-05db-4270-b5a2-b12a283db2c3","system_id":"levelo_inurba_marseille","lat":43.32291,"lon":5.38265,"is_reserved":false,"is_disabled":false,"rental_uris":{"android":"levelo://app?vid=f5658b6b-05db-4270-b5a2-b12a283db2c3","ios":"levelo://app?vid=f5658b6b-05db-4270-b5a2-b12a283db2c3"},"vehicle_type_id":"4","last_reported":1732615860,"current_range_meters":38400,"station_id":"ce4bhr12rcd13ifvqhqg","pricing_plan_id":"cebpf4jnsgd1na2vs0mg"},{"bike_id":"4ec0cf9e-acec-42dc-a4d1-2aeda856a839","system_id":"levelo_inurba_marseille","lat":43.309116,"lon":5.368546,"is_reserved":false,"is_disabled":false,"rental_uris":{"android":"levelo://app?vid=4ec0cf9e-acec-42dc-a4d1-2aeda856a839","ios":"levelo://app?vid=4ec0cf9e-acec-42dc-a4d1-2aeda856a839"},"vehicle_type_id":"4","last_reported":1732615860,"current_range_meters":32400,"station_id":"ce4bgn92rcd13ifvqbvg","pricing_plan_id":"cebpf4jnsgd1na2vs0mg"},{"bike_id":"a5909545-3e09-4859-9fda-9ffe4e6e4883","system_id":"levelo_inurba_marseille","lat":43.23065,"lon":5.35491,"is_reserved":false,"is_disabled":false,"rental_uris":{"android":"levelo://app?vid=a5909545-3e09-4859-9fda-9ffe4e6e4883","ios":"levelo://app?vid=a5909545-3e09-4859-9fda-9ffe4e6e4883"},"vehicle_type_id":"4","last_reported":1732615860,"current_range_meters":32400,"station_id":"cpo3342slgdg3j2ifvpg","pricing_plan_id":"cebpf4jnsgd1na2vs0mg"},{"bike_id":"c6ebf3d4-bfbc-463a-84d1-84e4a5f78ee1","system_id":"levelo_inurba_marseille","lat":43.30191,"lon":5.366,"is_reserved":false,"is_disabled":false,"rental_uris":{"android":"levelo://app?vid=c6ebf3d4-bfbc-463a-84d1-84e4a5f78ee1","ios":"levelo://app?vid=c6ebf3d4-bfbc-463a-84d1-84e4a5f78ee1"},"vehicle_type_id":"4","last_reported":1732615860,"current_range_meters":38800,"station_id":"ce4bgrh2rcd13ifvqc8g","pricing_plan_id":"cebpf4jnsgd1na2vs0mg"},{"bike_id":"8b855d86-2674-4484-ad52-bb485bad7ee1","system_id":"levelo_inurba_marseille","lat":43.30542,"lon":5.36532,"is_reserved":false,"is_disabled":false,"rental_uris":{"android":"levelo://app?vid=8b855d86-2674-4484-ad52-bb485bad7ee1","ios":"levelo://app?vid=8b855d86-2674-4484-ad52-bb485bad7ee1"},"vehicle_type_id":"4","last_reported":1732615860,"current_range_meters":31200,"station_id":"ce4bgs12rcd13ifvqcag","pricing_plan_id":"cebpf4jnsgd1na2vs0mg"},{"bike_id":"d32e419a-46a3-4050-be6a-d2a299ac411f","system_id":"levelo_inurba_marseille","lat":43.29309,"lon":5.37176,"is_reserved":false,"is_disabled":true,"rental_uris":{"android":"levelo://app?vid=d32e419a-46a3-4050-be6a-d2a299ac411f","ios":"levelo://app?vid=d32e419a-46a3-4050-be6a-d2a299ac411f"},"vehicle_type_id":"4","last_reported":1732615860,"current_range_meters":22000,"station_id":"","pricing_plan_id":"cebpf4jnsgd1na2vs0mg"},{"bike_id":"e55cb847-ae27-4fbd-b24c-f65df0e27256","system_id":"levelo_inurba_marseille","lat":43.2804,"lon":5.36933,"is_reserved":false,"is_disabled":true,"rental_uris":{"android":"levelo://app?vid=e55cb847-ae27-4fbd-b24c-f65df0e27256","ios":"levelo://app?vid=e55cb847-ae27-4fbd-b24c-f65df0e27256"},"vehicle_type_id":"4","last_reported":1732615860,"current_range_meters":26000,"station_id":"ce4bha12rcd13ifvqef0","pricing_plan_id":"cebpf4jnsgd1na2vs0mg"},{"bike_id":"bdcaac5a-04e1-44a7-a5fc-d9663817d6de","system_id":"levelo_inurba_marseille","lat":43.29786,"lon":5.37093,"is_reserved":false,"is_disabled":false,"rental_uris":{"android":"levelo://app?vid=bdcaac5a-04e1-44a7-a5fc-d9663817d6de","ios":"levelo://app?vid=bdcaac5a-04e1-44a7-a5fc-d9663817d6de"},"vehicle_type_id":"4","last_reported":1732615860,"current_range_meters":37600,"station_id":"ce4bgop2rcd13ifvqc1g","pricing_plan_id":"cebpf4jnsgd1na2vs0mg"},{"bike_id":"e5951ee3-4a5a-4ebb-b469-096c5188dfa3","system_id":"levelo_inurba_marseille","lat":43.23176,"lon":5.35543,"is_reserved":false,"is_disabled":false,"rental_uris":{"android":"levelo://app?vid=e5951ee3-4a5a-4ebb-b469-096c5188dfa3","ios":"levelo://app?vid=e5951ee3-4a5a-4ebb-b469-096c5188dfa3"},"vehicle_type_id":"4","last_reported":1732615860,"current_range_meters":36800,"station_id":"ce4bhu92rcd13ifvqi70","pricing_plan_id":"cebpf4jnsgd1na2vs0mg"},{"bike_id":"2c725aef-6050-4109-b151-3716b3868444","system_id":"levelo_inurba_marseille","lat":43.29229,"lon":5.36057,"is_reserved":false,"is_disabled":true,"rental_uris":{"android":"levelo://app?vid=2c725aef-6050-4109-b151-3716b3868444","ios":"levelo://app?vid=2c725aef-6050-4109-b151-3716b3868444"},"vehicle_type_id":"4","last_reported":1732615860,"current_range_meters":35600,"station_id":"ce4bhbh2rcd13ifvqeqg","pricing_plan_id":"cebpf4jnsgd1na2vs0mg"},{"bike_id":"e2104004-821b-4cd5-97bb-7c88e986d710","system_id":"levelo_inurba_marseille","lat":43.25111,"lon":5.40324,"is_reserved":false,"is_disabled":true,"rental_uris":{"android":"levelo://app?vid=e2104004-821b-4cd5-97bb-7c88e986d710","ios":"levelo://app?vid=e2104004-821b-4cd5-97bb-7c88e986d710"},"vehicle_type_id":"4","last_reported":1732615860,"current_range_meters":8800,"station_id":"ce4bhlh2rcd13ifvqgig","pricing_plan_id":"cebpf4jnsgd1na2vs0mg"},{"bike_id":"f960203b-2812-45ea-87dc-fdcf497b1e15","system_id":"levelo_inurba_marseille","lat":43.28149,"lon":5.42645,"is_reserved":false,"is_disabled":true,"rental_uris":{"android":"levelo://app?vid=f960203b-2812-45ea-87dc-fdcf497b1e15","ios":"levelo://app?vid=f960203b-2812-45ea-87dc-fdcf497b1e15"},"vehicle_type_id":"4","last_reported":1732615860,"current_range_meters":26800,"station_id":"ce4bhnh2rcd13ifvqgug","pricing_plan_id":"cebpf4jnsgd1na2vs0mg"},{"bike_id":"66aad5d7-efa9-4543-8e11-bbf0af584fcf","system_id":"levelo_inurba_marseille","lat":43.27815,"lon":5.40669,"is_reserved":false,"is_disabled":true,"rental_uris":{"android":"levelo://app?vid=66aad5d7-efa9-4543-8e11-bbf0af584fcf","ios":"levelo://app?vid=66aad5d7-efa9-4543-8e11-bbf0af584fcf"},"vehicle_type_id":"4","last_reported":1732615860,"current_range_meters":38800,"station_id":"ce4bhnh2rcd13ifvqgtg","pricing_plan_id":"cebpf4jnsgd1na2vs0mg"},{"bike_id":"b390ab89-d25f-4885-b860-741b05d01f79","system_id":"levelo_inurba_marseille","lat":43.30353,"lon":5.41877,"is_reserved":false,"is_disabled":false,"rental_uris":{"android":"levelo://app?vid=b390ab89-d25f-4885-b860-741b05d01f79","ios":"levelo://app?vid=b390ab89-d25f-4885-b860-741b05d01f79"},"vehicle_type_id":"4","last_reported":1732615860,"current_range_meters":32400,"station_id":"ce4bhop2rcd13ifvqh7g","pricing_plan_id":"cebpf4jnsgd1na2vs0mg"},{"bike_id":"6c948e9c-d5b3-4fe5-a918-1bd2f7c83b02","system_id":"levelo_inurba_marseille","lat":43.32106,"lon":5.36787,"is_reserved":false,"is_disabled":false,"rental_uris":{"android":"levelo://app?vid=6c948e9c-d5b3-4fe5-a918-1bd2f7c83b02","ios":"levelo://app?vid=6c948e9c-d5b3-4fe5-a918-1bd2f7c83b02"},"vehicle_type_id":"4","last_reported":1732615860,"current_range_meters":19200,"station_id":"ce4bhrh2rcd13ifvqhug","pricing_plan_id":"cebpf4jnsgd1na2vs0mg"},{"bike_id":"9e620abf-d324-4f99-84fc-d67e71109f2a","system_id":"levelo_inurba_marseille","lat":43.31077,"lon":5.42435,"is_reserved":false,"is_disabled":true,"rental_uris":{"android":"levelo://app?vid=9e620abf-d324-4f99-84fc-d67e71109f2a","ios":"levelo://app?vid=9e620abf-d324-4f99-84fc-d67e71109f2a"},"vehicle_type_id":"4","last_reported":1732615860,"current_range_meters":0,"station_id":"ce4bhp92rcd13ifvqhag","pricing_plan_id":"cebpf4jnsgd1na2vs0mg"},{"bike_id":"de7004a3-b7db-49aa-9067-0b6ed2338314","system_id":"levelo_inurba_marseille","lat":43.31224,"lon":5.36864,"is_reserved":false,"is_disabled":false,"rental_uris":{"android":"levelo://app?vid=de7004a3-b7db-49aa-9067-0b6ed2338314","ios":"levelo://app?vid=de7004a3-b7db-49aa-9067-0b6ed2338314"},"vehicle_type_id":"4","last_reported":1732615860,"current_range_meters":27200,"station_id":"ce4bgl92rcd13ifvqbq0","pricing_plan_id":"cebpf4jnsgd1na2vs0mg"},{"bike_id":"a2b2c2c2-db1d-460e-8ade-0dcef89c02ea","system_id":"levelo_inurba_marseille","lat":43.26685,"lon":5.38277,"is_reserved":false,"is_disabled":false,"rental_uris":{"android":"levelo://app?vid=a2b2c2c2-db1d-460e-8ade-0dcef89c02ea","ios":"levelo://app?vid=a2b2c2c2-db1d-460e-8ade-0dcef89c02ea"},"vehicle_type_id":"4","last_reported":1732615860,"current_range_meters":8400,"station_id":"ce4bhg92rcd13ifvqf90","pricing_plan_id":"cebpf4jnsgd1na2vs0mg"},{"bike_id":"e17d15ca-10bf-42d1-8bbe-8f3dd9f2a2c6","system_id":"levelo_inurba_marseille","lat":43.31374,"lon":5.36681,"is_reserved":false,"is_disabled":false,"rental_uris":{"android":"levelo://app?vid=e17d15ca-10bf-42d1-8bbe-8f3dd9f2a2c6","ios":"levelo://app?vid=e17d15ca-10bf-42d1-8bbe-8f3dd9f2a2c6"},"vehicle_type_id":"4","last_reported":1732615860,"current_range_meters":37600,"station_id":"ce4bgr92rcd13ifvqc6g","pricing_plan_id":"cebpf4jnsgd1na2vs0mg"},{"bike_id":"5c53cfbd-2547-413a-b79a-f8cc3b1ca992","system_id":"levelo_inurba_marseille","lat":43.32108,"lon":5.36783,"is_reserved":false,"is_disabled":false,"rental_uris":{"android":"levelo://app?vid=5c53cfbd-2547-413a-b79a-f8cc3b1ca992","ios":"levelo://app?vid=5c53cfbd-2547-413a-b79a-f8cc3b1ca992"},"vehicle_type_id":"4","last_reported":1732615860,"current_range_meters":32800,"station_id":"ce4bhrh2rcd13ifvqhug","pricing_plan_id":"cebpf4jnsgd1na2vs0mg"},{"bike_id":"a42c015d-bce2-41fd-948d-86d77adaeb82","system_id":"levelo_inurba_marseille","lat":43.24682,"lon":5.38163,"is_reserved":false,"is_disabled":false,"rental_uris":{"android":"levelo://app?vid=a42c015d-bce2-41fd-948d-86d77adaeb82","ios":"levelo://app?vid=a42c015d-bce2-41fd-948d-86d77adaeb82"},"vehicle_type_id":"4","last_reported":1732615860,"current_range_meters":17600,"station_id":"ce4bhih2rcd13ifvqfr0","pricing_plan_id":"cebpf4jnsgd1na2vs0mg"},{"bike_id":"a533c993-8405-4b3a-938b-da087b2c2ce0","system_id":"levelo_inurba_marseille","lat":43.31491,"lon":5.37305,"is_reserved":false,"is_disabled":false,"rental_uris":{"android":"levelo://app?vid=a533c993-8405-4b3a-938b-da087b2c2ce0","ios":"levelo://app?vid=a533c993-8405-4b3a-938b-da087b2c2ce0"},"vehicle_type_id":"4","last_reported":1732615860,"current_range_meters":9200,"station_id":"ce4bgt12rcd13ifvqcd0","pricing_plan_id":"cebpf4jnsgd1na2vs0mg"},{"bike_id":"055ef52f-d4ea-4295-a3aa-4c1f0deccd17","system_id":"levelo_inurba_marseille","lat":43.30599,"lon":5.37205,"is_reserved":false,"is_disabled":false,"rental_uris":{"android":"levelo://app?vid=055ef52f-d4ea-4295-a3aa-4c1f0deccd17","ios":"levelo://app?vid=055ef52f-d4ea-4295-a3aa-4c1f0deccd17"},"vehicle_type_id":"4","last_reported":1732615860,"current_range_meters":38800,"station_id":"ce4bgqh2rcd13ifvqc4g","pricing_plan_id":"cebpf4jnsgd1na2vs0mg"},{"bike_id":"df773dc5-a184-4ebc-8085-dd9989ab64f4","system_id":"levelo_inurba_marseille","lat":43.23965,"lon":5.36631,"is_reserved":false,"is_disabled":false,"rental_uris":{"android":"levelo://app?vid=df773dc5-a184-4ebc-8085-dd9989ab64f4","ios":"levelo://app?vid=df773dc5-a184-4ebc-8085-dd9989ab64f4"},"vehicle_type_id":"4","last_reported":1732615860,"current_range_meters":6000,"station_id":"ce4bhi12rcd13ifvqfp0","pricing_plan_id":"cebpf4jnsgd1na2vs0mg"},{"bike_id":"e9ecf9f5-1e07-4dd5-a0ed-971e59ddf795","system_id":"levelo_inurba_marseille","lat":43.31361,"lon":5.36712,"is_reserved":false,"is_disabled":false,"rental_uris":{"android":"levelo://app?vid=e9ecf9f5-1e07-4dd5-a0ed-971e59ddf795","ios":"levelo://app?vid=e9ecf9f5-1e07-4dd5-a0ed-971e59ddf795"},"vehicle_type_id":"4","last_reported":1732615860,"current_range_meters":27200,"station_id":"ce4bgr92rcd13ifvqc6g","pricing_plan_id":"cebpf4jnsgd1na2vs0mg"},{"bike_id":"afa8ef84-db7b-4458-a4c0-8b534f8c293c","system_id":"levelo_inurba_marseille","lat":43.30594,"lon":5.37237,"is_reserved":false,"is_disabled":false,"rental_uris":{"android":"levelo://app?vid=afa8ef84-db7b-4458-a4c0-8b534f8c293c","ios":"levelo://app?vid=afa8ef84-db7b-4458-a4c0-8b534f8c293c"},"vehicle_type_id":"4","last_reported":1732615860,"current_range_meters":34000,"station_id":"ce4bgqh2rcd13ifvqc4g","pricing_plan_id":"cebpf4jnsgd1na2vs0mg"},{"bike_id":"40c7ddb8-0e1a-4eb1-9e2f-d3bf1a0f9d1e","system_id":"levelo_inurba_marseille","lat":43.28273,"lon":5.35063,"is_reserved":false,"is_disabled":true,"rental_uris":{"android":"levelo://app?vid=40c7ddb8-0e1a-4eb1-9e2f-d3bf1a0f9d1e","ios":"levelo://app?vid=40c7ddb8-0e1a-4eb1-9e2f-d3bf1a0f9d1e"},"vehicle_type_id":"4","last_reported":1732615860,"current_range_meters":21600,"station_id":"ce4bhbp2rcd13ifvqerg","pricing_plan_id":"cebpf4jnsgd1na2vs0mg"},{"bike_id":"46ac22a8-6f10-4221-98a6-34eba5c97bfb","system_id":"levelo_inurba_marseille","lat":43.29188,"lon":5.37308,"is_reserved":false,"is_disabled":true,"rental_uris":{"android":"levelo://app?vid=46ac22a8-6f10-4221-98a6-34eba5c97bfb","ios":"levelo://app?vid=46ac22a8-6f10-4221-98a6-34eba5c97bfb"},"vehicle_type_id":"4","last_reported":1732615860,"current_range_meters":0,"station_id":"","pricing_plan_id":"cebpf4jnsgd1na2vs0mg"},{"bike_id":"5846e7ee-045c-466d-b02c-9cd3eadc9db6","system_id":"levelo_inurba_marseille","lat":43.29195,"lon":5.35782,"is_reserved":false,"is_disabled":true,"rental_uris":{"android":"levelo://app?vid=5846e7ee-045c-466d-b02c-9cd3eadc9db6","ios":"levelo://app?vid=5846e7ee-045c-466d-b02c-9cd3eadc9db6"},"vehicle_type_id":"4","last_reported":1732615860,"current_range_meters":36000,"station_id":"ce4bhb12rcd13ifvqel0","pricing_plan_id":"cebpf4jnsgd1na2vs0mg"},{"bike_id":"46f94f69-1e8f-4b76-a2f8-42d24786b408","system_id":"levelo_inurba_marseille","lat":43.3065,"lon":5.40073,"is_reserved":false,"is_disabled":false,"rental_uris":{"android":"levelo://app?vid=46f94f69-1e8f-4b76-a2f8-42d24786b408","ios":"levelo://app?vid=46f94f69-1e8f-4b76-a2f8-42d24786b408"},"vehicle_type_id":"4","last_reported":1732615860,"current_range_meters":28000,"station_id":"ce4bh112rcd13ifvqda0","pricing_plan_id":"cebpf4jnsgd1na2vs0mg"},{"bike_id":"f7b5f6a9-d7ce-4048-a920-d885e72c1177","system_id":"levelo_inurba_marseille","lat":43.30136,"lon":5.38781,"is_reserved":false,"is_disabled":false,"rental_uris":{"android":"levelo://app?vid=f7b5f6a9-d7ce-4048-a920-d885e72c1177","ios":"levelo://app?vid=f7b5f6a9-d7ce-4048-a920-d885e72c1177"},"vehicle_type_id":"4","last_reported":1732615860,"current_range_meters":30800,"station_id":"ce4bghh2rcd13ifvqb60","pricing_plan_id":"cebpf4jnsgd1na2vs0mg"},{"bike_id":"43746d86-8a13-4845-9faf-ae69b548d714","system_id":"levelo_inurba_marseille","lat":43.29459,"lon":5.37917,"is_reserved":false,"is_disabled":true,"rental_uris":{"android":"levelo://app?vid=43746d86-8a13-4845-9faf-ae69b548d714","ios":"levelo://app?vid=43746d86-8a13-4845-9faf-ae69b548d714"},"vehicle_type_id":"4","last_reported":1732615860,"current_range_meters":0,"station_id":"","pricing_plan_id":"cebpf4jnsgd1na2vs0mg"},{"bike_id":"5678d3fa-7c1a-427d-86a2-7fa164fffbf3","system_id":"levelo_inurba_marseille","lat":43.26054,"lon":5.39392,"is_reserved":false,"is_disabled":false,"rental_uris":{"android":"levelo://app?vid=5678d3fa-7c1a-427d-86a2-7fa164fffbf3","ios":"levelo://app?vid=5678d3fa-7c1a-427d-86a2-7fa164fffbf3"},"vehicle_type_id":"4","last_reported":1732615860,"current_range_meters":11200,"station_id":"ce4bhh92rcd13ifvqfj0","pricing_plan_id":"cebpf4jnsgd1na2vs0mg"},{"bike_id":"62d529a0-ddfe-44a9-b886-03acfe31750b","system_id":"levelo_inurba_marseille","lat":43.28561,"lon":5.39493,"is_reserved":false,"is_disabled":false,"rental_uris":{"android":"levelo://app?vid=62d529a0-ddfe-44a9-b886-03acfe31750b","ios":"levelo://app?vid=62d529a0-ddfe-44a9-b886-03acfe31750b"},"vehicle_type_id":"4","last_reported":1732615860,"current_range_meters":30800,"station_id":"ce4bh292rcd13ifvqdg0","pricing_plan_id":"cebpf4jnsgd1na2vs0mg"},{"bike_id":"a84a4189-cba2-4398-9024-c84117f81978","system_id":"levelo_inurba_marseille","lat":43.30253,"lon":5.40072,"is_reserved":false,"is_disabled":false,"rental_uris":{"android":"levelo://app?vid=a84a4189-cba2-4398-9024-c84117f81978","ios":"levelo://app?vid=a84a4189-cba2-4398-9024-c84117f81978"},"vehicle_type_id":"4","last_reported":1732615860,"current_range_meters":5600,"station_id":"ce4bgvh2rcd13ifvqcs0","pricing_plan_id":"cebpf4jnsgd1na2vs0mg"},{"bike_id":"9df117ac-7f63-49f5-90cb-f011a374e7eb","system_id":"levelo_inurba_marseille","lat":43.30541,"lon":5.36689,"is_reserved":false,"is_disabled":false,"rental_uris":{"android":"levelo://app?vid=9df117ac-7f63-49f5-90cb-f011a374e7eb","ios":"levelo://app?vid=9df117ac-7f63-49f5-90cb-f011a374e7eb"},"vehicle_type_id":"4","last_reported":1732615860,"current_range_meters":6800,"station_id":"ce4bgrp2rcd13ifvqc9g","pricing_plan_id":"cebpf4jnsgd1na2vs0mg"},{"bike_id":"f971abee-70f8-43dc-afe4-4050ccc8c3f7","system_id":"levelo_inurba_marseille","lat":43.25864,"lon":5.39883,"is_reserved":false,"is_disabled":true,"rental_uris":{"android":"levelo://app?vid=f971abee-70f8-43dc-afe4-4050ccc8c3f7","ios":"levelo://app?vid=f971abee-70f8-43dc-afe4-4050ccc8c3f7"},"vehicle_type_id":"4","last_reported":1732615860,"current_range_meters":36800,"station_id":"ce4bhl92rcd13ifvqghg","pricing_plan_id":"cebpf4jnsgd1na2vs0mg"},{"bike_id":"e9077ff7-d50f-4185-b35f-09d20b4a6995","system_id":"levelo_inurba_marseille","lat":43.29194,"lon":5.39313,"is_reserved":false,"is_disabled":false,"rental_uris":{"android":"levelo://app?vid=e9077ff7-d50f-4185-b35f-09d20b4a6995","ios":"levelo://app?vid=e9077ff7-d50f-4185-b35f-09d20b4a6995"},"vehicle_type_id":"4","last_reported":1732615860,"current_range_meters":35200,"station_id":"","pricing_plan_id":"cebpf4jnsgd1na2vs0mg"},{"bike_id":"14bd5244-1d0a-44fa-b41c-c8b57d73ed9d","system_id":"levelo_inurba_marseille","lat":43.30919,"lon":5.36844,"is_reserved":false,"is_disabled":false,"rental_uris":{"android":"levelo://app?vid=14bd5244-1d0a-44fa-b41c-c8b57d73ed9d","ios":"levelo://app?vid=14bd5244-1d0a-44fa-b41c-c8b57d73ed9d"},"vehicle_type_id":"4","last_reported":1732615860,"current_range_meters":38800,"station_id":"ce4bgn92rcd13ifvqbvg","pricing_plan_id":"cebpf4jnsgd1na2vs0mg"},{"bike_id":"cc4a9ec2-c9be-4619-8e72-7bba5632de49","system_id":"levelo_inurba_marseille","lat":43.29936,"lon":5.36537,"is_reserved":false,"is_disabled":false,"rental_uris":{"android":"levelo://app?vid=cc4a9ec2-c9be-4619-8e72-7bba5632de49","ios":"levelo://app?vid=cc4a9ec2-c9be-4619-8e72-7bba5632de49"},"vehicle_type_id":"4","last_reported":1732615860,"current_range_meters":19600,"station_id":"ce4bgm92rcd13ifvqbr0","pricing_plan_id":"cebpf4jnsgd1na2vs0mg"},{"bike_id":"d924f497-d38e-4636-9cb9-ed9c562d6d48","system_id":"levelo_inurba_marseille","lat":43.24072,"lon":5.37751,"is_reserved":false,"is_disabled":false,"rental_uris":{"android":"levelo://app?vid=d924f497-d38e-4636-9cb9-ed9c562d6d48","ios":"levelo://app?vid=d924f497-d38e-4636-9cb9-ed9c562d6d48"},"vehicle_type_id":"4","last_reported":1732615860,"current_range_meters":38800,"station_id":"ce4bhnp2rcd13ifvqgvg","pricing_plan_id":"cebpf4jnsgd1na2vs0mg"},{"bike_id":"f064bd35-94a9-49e5-b0dc-94066ec8800a","system_id":"levelo_inurba_marseille","lat":43.24388,"lon":5.37055,"is_reserved":false,"is_disabled":false,"rental_uris":{"android":"levelo://app?vid=f064bd35-94a9-49e5-b0dc-94066ec8800a","ios":"levelo://app?vid=f064bd35-94a9-49e5-b0dc-94066ec8800a"},"vehicle_type_id":"4","last_reported":1732615860,"current_range_meters":38000,"station_id":"ce4bhhh2rcd13ifvqfk0","pricing_plan_id":"cebpf4jnsgd1na2vs0mg"},{"bike_id":"54420803-63af-4eb9-ae42-09fc71ac3b71","system_id":"levelo_inurba_marseille","lat":43.24179,"lon":5.39729,"is_reserved":false,"is_disabled":false,"rental_uris":{"android":"levelo://app?vid=54420803-63af-4eb9-ae42-09fc71ac3b71","ios":"levelo://app?vid=54420803-63af-4eb9-ae42-09fc71ac3b71"},"vehicle_type_id":"4","last_reported":1732615860,"current_range_meters":20000,"station_id":"ce4bhn12rcd13ifvqgpg","pricing_plan_id":"cebpf4jnsgd1na2vs0mg"},{"bike_id":"b9c2695d-397d-42b8-9037-6ec935848cb0","system_id":"levelo_inurba_marseille","lat":43.29278,"lon":5.4013,"is_reserved":false,"is_disabled":true,"rental_uris":{"android":"levelo://app?vid=b9c2695d-397d-42b8-9037-6ec935848cb0","ios":"levelo://app?vid=b9c2695d-397d-42b8-9037-6ec935848cb0"},"vehicle_type_id":"4","last_reported":1732615860,"current_range_meters":0,"station_id":"ce4bh312rcd13ifvqdk0","pricing_plan_id":"cebpf4jnsgd1na2vs0mg"},{"bike_id":"78922ddc-8c95-470c-86c3-cc659680d91d","system_id":"levelo_inurba_marseille","lat":43.23186,"lon":5.35565,"is_reserved":false,"is_disabled":true,"rental_uris":{"android":"levelo://app?vid=78922ddc-8c95-470c-86c3-cc659680d91d","ios":"levelo://app?vid=78922ddc-8c95-470c-86c3-cc659680d91d"},"vehicle_type_id":"4","last_reported":1732615860,"current_range_meters":25200,"station_id":"ce4bhu92rcd13ifvqi70","pricing_plan_id":"cebpf4jnsgd1na2vs0mg"},{"bike_id":"a79097a6-c6c2-442a-9a18-50505a15e6cc","system_id":"levelo_inurba_marseille","lat":43.32485,"lon":5.36567,"is_reserved":false,"is_disabled":false,"rental_uris":{"android":"levelo://app?vid=a79097a6-c6c2-442a-9a18-50505a15e6cc","ios":"levelo://app?vid=a79097a6-c6c2-442a-9a18-50505a15e6cc"},"vehicle_type_id":"4","last_reported":1732615860,"current_range_meters":33200,"station_id":"ce4bhs12rcd13ifvqhvg","pricing_plan_id":"cebpf4jnsgd1na2vs0mg"},{"bike_id":"9666ce30-5f2f-4332-a708-df17ba16a1d5","system_id":"levelo_inurba_marseille","lat":43.32482,"lon":5.3656,"is_reserved":false,"is_disabled":false,"rental_uris":{"android":"levelo://app?vid=9666ce30-5f2f-4332-a708-df17ba16a1d5","ios":"levelo://app?vid=9666ce30-5f2f-4332-a708-df17ba16a1d5"},"vehicle_type_id":"4","last_reported":1732615860,"current_range_meters":24000,"station_id":"ce4bhs12rcd13ifvqhvg","pricing_plan_id":"cebpf4jnsgd1na2vs0mg"},{"bike_id":"821bf144-3e04-433b-8fdc-df913ad0749b","system_id":"levelo_inurba_marseille","lat":43.31708,"lon":5.37759,"is_reserved":false,"is_disabled":false,"rental_uris":{"android":"levelo://app?vid=821bf144-3e04-433b-8fdc-df913ad0749b","ios":"levelo://app?vid=821bf144-3e04-433b-8fdc-df913ad0749b"},"vehicle_type_id":"4","last_reported":1732615860,"current_range_meters":30000,"station_id":"ce4bgth2rcd13ifvqch0","pricing_plan_id":"cebpf4jnsgd1na2vs0mg"},{"bike_id":"cf5ac559-543d-4771-9daf-20d793ce8192","system_id":"levelo_inurba_marseille","lat":43.26684,"lon":5.38271,"is_reserved":false,"is_disabled":false,"rental_uris":{"android":"levelo://app?vid=cf5ac559-543d-4771-9daf-20d793ce8192","ios":"levelo://app?vid=cf5ac559-543d-4771-9daf-20d793ce8192"},"vehicle_type_id":"4","last_reported":1732615860,"current_range_meters":30400,"station_id":"ce4bhg92rcd13ifvqf90","pricing_plan_id":"cebpf4jnsgd1na2vs0mg"},{"bike_id":"7e9061cd-5627-407a-8c6f-fcf878e75a40","system_id":"levelo_inurba_marseille","lat":43.27956,"lon":5.41052,"is_reserved":false,"is_disabled":true,"rental_uris":{"android":"levelo://app?vid=7e9061cd-5627-407a-8c6f-fcf878e75a40","ios":"levelo://app?vid=7e9061cd-5627-407a-8c6f-fcf878e75a40"},"vehicle_type_id":"4","last_reported":1732615860,"current_range_meters":0,"station_id":"ce4bhnp2rcd13ifvqh0g","pricing_plan_id":"cebpf4jnsgd1na2vs0mg"},{"bike_id":"009fe169-0c00-4962-9a5d-68dc5d216a87","system_id":"levelo_inurba_marseille","lat":43.32487,"lon":5.3658,"is_reserved":false,"is_disabled":false,"rental_uris":{"android":"levelo://app?vid=009fe169-0c00-4962-9a5d-68dc5d216a87","ios":"levelo://app?vid=009fe169-0c00-4962-9a5d-68dc5d216a87"},"vehicle_type_id":"4","last_reported":1732615860,"current_range_meters":27600,"station_id":"ce4bhs12rcd13ifvqhvg","pricing_plan_id":"cebpf4jnsgd1na2vs0mg"},{"bike_id":"92bccf47-6e8f-443d-a2f6-d46a22d9a799","system_id":"levelo_inurba_marseille","lat":43.31372,"lon":5.36711,"is_reserved":false,"is_disabled":false,"rental_uris":{"android":"levelo://app?vid=92bccf47-6e8f-443d-a2f6-d46a22d9a799","ios":"levelo://app?vid=92bccf47-6e8f-443d-a2f6-d46a22d9a799"},"vehicle_type_id":"4","last_reported":1732615860,"current_range_meters":10800,"station_id":"ce4bgr92rcd13ifvqc6g","pricing_plan_id":"cebpf4jnsgd1na2vs0mg"},{"bike_id":"7d70f7b2-04d5-468d-b148-ffbfb844d509","system_id":"levelo_inurba_marseille","lat":43.25113,"lon":5.40353,"is_reserved":false,"is_disabled":false,"rental_uris":{"android":"levelo://app?vid=7d70f7b2-04d5-468d-b148-ffbfb844d509","ios":"levelo://app?vid=7d70f7b2-04d5-468d-b148-ffbfb844d509"},"vehicle_type_id":"4","last_reported":1732615860,"current_range_meters":6400,"station_id":"ce4bhlh2rcd13ifvqgig","pricing_plan_id":"cebpf4jnsgd1na2vs0mg"},{"bike_id":"4039ea2a-36c3-48e9-84a9-1bd6dc4b83b9","system_id":"levelo_inurba_marseille","lat":43.31699,"lon":5.4046,"is_reserved":false,"is_disabled":true,"rental_uris":{"android":"levelo://app?vid=4039ea2a-36c3-48e9-84a9-1bd6dc4b83b9","ios":"levelo://app?vid=4039ea2a-36c3-48e9-84a9-1bd6dc4b83b9"},"vehicle_type_id":"4","last_reported":1732615860,"current_range_meters":18800,"station_id":"ce4bh012rcd13ifvqd00","pricing_plan_id":"cebpf4jnsgd1na2vs0mg"},{"bike_id":"786baa4d-e646-45dd-afd1-b349bc0267a6","system_id":"levelo_inurba_marseille","lat":43.29615,"lon":5.3773,"is_reserved":false,"is_disabled":false,"rental_uris":{"android":"levelo://app?vid=786baa4d-e646-45dd-afd1-b349bc0267a6","ios":"levelo://app?vid=786baa4d-e646-45dd-afd1-b349bc0267a6"},"vehicle_type_id":"4","last_reported":1732615860,"current_range_meters":38800,"station_id":"ce4bgi92rcd13ifvqb90","pricing_plan_id":"cebpf4jnsgd1na2vs0mg"},{"bike_id":"3a19d45d-a757-417c-b54e-92314bcfae61","system_id":"levelo_inurba_marseille","lat":43.2695,"lon":5.38626,"is_reserved":false,"is_disabled":true,"rental_uris":{"android":"levelo://app?vid=3a19d45d-a757-417c-b54e-92314bcfae61","ios":"levelo://app?vid=3a19d45d-a757-417c-b54e-92314bcfae61"},"vehicle_type_id":"4","last_reported":1732615860,"current_range_meters":1200,"station_id":"ce4bhh92rcd13ifvqfh0","pricing_plan_id":"cebpf4jnsgd1na2vs0mg"},{"bike_id":"fa4656dd-7d96-4243-9fcc-df2b79b223a1","system_id":"levelo_inurba_marseille","lat":43.30555,"lon":5.36712,"is_reserved":false,"is_disabled":false,"rental_uris":{"android":"levelo://app?vid=fa4656dd-7d96-4243-9fcc-df2b79b223a1","ios":"levelo://app?vid=fa4656dd-7d96-4243-9fcc-df2b79b223a1"},"vehicle_type_id":"4","last_reported":1732615860,"current_range_meters":38800,"station_id":"ce4bgrp2rcd13ifvqc9g","pricing_plan_id":"cebpf4jnsgd1na2vs0mg"},{"bike_id":"24bf6bdf-4e91-4743-8260-29fb497ab273","system_id":"levelo_inurba_marseille","lat":43.30153,"lon":5.38091,"is_reserved":false,"is_disabled":true,"rental_uris":{"android":"levelo://app?vid=24bf6bdf-4e91-4743-8260-29fb497ab273","ios":"levelo://app?vid=24bf6bdf-4e91-4743-8260-29fb497ab273"},"vehicle_type_id":"4","last_reported":1732615860,"current_range_meters":30000,"station_id":"ce4bgjp2rcd13ifvqbh0","pricing_plan_id":"cebpf4jnsgd1na2vs0mg"},{"bike_id":"a9063411-af81-45fb-9d2c-0bf6300803cf","system_id":"levelo_inurba_marseille","lat":43.26676,"lon":5.38256,"is_reserved":false,"is_disabled":true,"rental_uris":{"android":"levelo://app?vid=a9063411-af81-45fb-9d2c-0bf6300803cf","ios":"levelo://app?vid=a9063411-af81-45fb-9d2c-0bf6300803cf"},"vehicle_type_id":"4","last_reported":1732615860,"current_range_meters":0,"station_id":"ce4bhg92rcd13ifvqf90","pricing_plan_id":"cebpf4jnsgd1na2vs0mg"},{"bike_id":"fbc03729-5797-46a5-856d-f749b4828262","system_id":"levelo_inurba_marseille","lat":43.28259,"lon":5.35069,"is_reserved":false,"is_disabled":true,"rental_uris":{"android":"levelo://app?vid=fbc03729-5797-46a5-856d-f749b4828262","ios":"levelo://app?vid=fbc03729-5797-46a5-856d-f749b4828262"},"vehicle_type_id":"4","last_reported":1732615860,"current_range_meters":0,"station_id":"ce4bhbp2rcd13ifvqerg","pricing_plan_id":"cebpf4jnsgd1na2vs0mg"},{"bike_id":"28d5c87d-a3e9-4d74-afc5-6010bccd4737","system_id":"levelo_inurba_marseille","lat":43.31343,"lon":5.36709,"is_reserved":false,"is_disabled":false,"rental_uris":{"android":"levelo://app?vid=28d5c87d-a3e9-4d74-afc5-6010bccd4737","ios":"levelo://app?vid=28d5c87d-a3e9-4d74-afc5-6010bccd4737"},"vehicle_type_id":"4","last_reported":1732615860,"current_range_meters":32000,"station_id":"ce4bgr92rcd13ifvqc6g","pricing_plan_id":"cebpf4jnsgd1na2vs0mg"},{"bike_id":"a9fd4b96-a498-46c6-83ec-e1ebff54124d","system_id":"levelo_inurba_marseille","lat":43.312246,"lon":5.368928,"is_reserved":false,"is_disabled":false,"rental_uris":{"android":"levelo://app?vid=a9fd4b96-a498-46c6-83ec-e1ebff54124d","ios":"levelo://app?vid=a9fd4b96-a498-46c6-83ec-e1ebff54124d"},"vehicle_type_id":"4","last_reported":1732615860,"current_range_meters":36000,"station_id":"ce4bgl92rcd13ifvqbq0","pricing_plan_id":"cebpf4jnsgd1na2vs0mg"},{"bike_id":"b4ee12e8-0cc9-447e-bd89-a2046873d986","system_id":"levelo_inurba_marseille","lat":43.3021,"lon":5.39466,"is_reserved":false,"is_disabled":false,"rental_uris":{"android":"levelo://app?vid=b4ee12e8-0cc9-447e-bd89-a2046873d986","ios":"levelo://app?vid=b4ee12e8-0cc9-447e-bd89-a2046873d986"},"vehicle_type_id":"4","last_reported":1732615860,"current_range_meters":19600,"station_id":"ce4bh0p2rcd13ifvqd70","pricing_plan_id":"cebpf4jnsgd1na2vs0mg"},{"bike_id":"b7253de9-6ec1-4db5-9737-385abac9855c","system_id":"levelo_inurba_marseille","lat":43.26673,"lon":5.39527,"is_reserved":false,"is_disabled":true,"rental_uris":{"android":"levelo://app?vid=b7253de9-6ec1-4db5-9737-385abac9855c","ios":"levelo://app?vid=b7253de9-6ec1-4db5-9737-385abac9855c"},"vehicle_type_id":"4","last_reported":1732615860,"current_range_meters":0,"station_id":"","pricing_plan_id":"cebpf4jnsgd1na2vs0mg"},{"bike_id":"35721010-0501-4d23-9637-688c6912beae","system_id":"levelo_inurba_marseille","lat":43.26208,"lon":5.37442,"is_reserved":false,"is_disabled":false,"rental_uris":{"android":"levelo://app?vid=35721010-0501-4d23-9637-688c6912beae","ios":"levelo://app?vid=35721010-0501-4d23-9637-688c6912beae"},"vehicle_type_id":"4","last_reported":1732615860,"current_range_meters":37600,"station_id":"ce4bhgp2rcd13ifvqfc0","pricing_plan_id":"cebpf4jnsgd1na2vs0mg"},{"bike_id":"7e04bb67-c24d-44da-93e9-2e0567bf10fa","system_id":"levelo_inurba_marseille","lat":43.23152,"lon":5.43713,"is_reserved":false,"is_disabled":true,"rental_uris":{"android":"levelo://app?vid=7e04bb67-c24d-44da-93e9-2e0567bf10fa","ios":"levelo://app?vid=7e04bb67-c24d-44da-93e9-2e0567bf10fa"},"vehicle_type_id":"4","last_reported":1732615860,"current_range_meters":0,"station_id":"ce4bhmp2rcd13ifvqgog","pricing_plan_id":"cebpf4jnsgd1na2vs0mg"},{"bike_id":"d134d118-2b17-43b4-8110-141ed3d15b95","system_id":"levelo_inurba_marseille","lat":43.31231,"lon":5.36853,"is_reserved":false,"is_disabled":false,"rental_uris":{"android":"levelo://app?vid=d134d118-2b17-43b4-8110-141ed3d15b95","ios":"levelo://app?vid=d134d118-2b17-43b4-8110-141ed3d15b95"},