{"last_updated":1730372870,"ttl":60,"version":"2.2","data":{"bikes":[{"bike_id":"e4bbc832-436f-482e-8a94-66135373f59d","system_id":"levelo_inurba_marseille","lat":43.30517,"lon":5.36532,"is_reserved":false,"is_disabled":false,"rental_uris":{"android":"levelo://app?vid=e4bbc832-436f-482e-8a94-66135373f59d","ios":"levelo://app?vid=e4bbc832-436f-482e-8a94-66135373f59d"},"vehicle_type_id":"4","last_reported":1730372870,"current_range_meters":38800,"station_id":"","pricing_plan_id":"cebpf4jnsgd1na2vs0mg"},{"bike_id":"f28e5a33-2cb2-44cc-8db6-6ca0c4da5ec5","system_id":"levelo_inurba_marseille","lat":43.2557,"lon":5.38238,"is_reserved":false,"is_disabled":false,"rental_uris":{"android":"levelo://app?vid=f28e5a33-2cb2-44cc-8db6-6ca0c4da5ec5","ios":"levelo://app?vid=f28e5a33-2cb2-44cc-8db6-6ca0c4da5ec5"},"vehicle_type_id":"4","last_reported":1730372870,"current_range_meters":38800,"station_id":"ce4bhih2rcd13ifvqfs0","pricing_plan_id":"cebpf4jnsgd1na2vs0mg"},{"bike_id":"218d9ba5-1a09-42e3-b46f-8cad71245761","system_id":"levelo_inurba_marseille","lat":43.30134,"lon":5.39872,"is_reserved":false,"is_disabled":false,"rental_uris":{"android":"levelo://app?vid=218d9ba5-1a09-42e3-b46f-8cad71245761","ios":"levelo://app?vid=218d9ba5-1a09-42e3-b46f-8cad71245761"},"vehicle_type_id":"4","last_reported":1730372870,"current_range_meters":24400,"station_id":"ce4bh0h2rcd13ifvqd40","pricing_plan_id":"cebpf4jnsgd1na2vs0mg"},{"bike_id":"14717462-cd6c-40a4-ac94-3dfca082f264","system_id":"levelo_inurba_marseille","lat":43.30797,"lon":5.38148,"is_reserved":false,"is_disabled":false,"rental_uris":{"android":"levelo://app?vid=14717462-cd6c-40a4-ac94-3dfca082f264","ios":"levelo://app?vid=14717462-cd6c-40a4-ac94-3dfca082f264"},"vehicle_type_id":"4","last_reported":1730372870,"current_range_meters":38800,"station_id":"ce4bgt12rcd13ifvqce0","pricing_plan_id":"cebpf4jnsgd1na2vs0mg"},{"bike_id":"f64c1e7d-3ae9-4dfc-8ec2-0a90d036364f","system_id":"levelo_inurba_marseille","lat":43.32113,"lon":5.36771,"is_reserved":false,"is_disabled":false,"rental_uris":{"android":"levelo://app?vid=f64c1e7d-3ae9-4dfc-8ec2-0a90d036364f","ios":"levelo://app?vid=f64c1e7d-3ae9-4dfc-8ec2-0a90d036364f"},"vehicle_type_id":"4","last_reported":1730372870,"current_range_meters":22000,"station_id":"ce4bhrh2rcd13ifvqhug","pricing_plan_id":"cebpf4jnsgd1na2vs0mg"},{"bike_id":"430e42e9-a2a1-4992-b65b-60bd33570fc5","system_id":"levelo_inurba_marseille","lat":43.3302,"lon":5.3904,"is_reserved":false,"is_disabled":false,"rental_uris":{"android":"levelo://app?vid=430e42e9-a2a1-4992-b65b-60bd33570fc5","ios":"levelo://app?vid=430e42e9-a2a1-4992-b65b-60bd33570fc5"},"vehicle_type_id":"4","last_reported":1730372870,"current_range_meters":38800,"station_id":"ce4bhr92rcd13ifvqhrg","pricing_plan_id":"cebpf4jnsgd1na2vs0mg"},{"bike_id":"aa38b02f-1ea8-469c-af20-8a4c966b5182","system_id":"levelo_inurba_marseille","lat":43.29608,"lon":5.377175,"is_reserved":false,"is_disabled":false,"rental_uris":{"android":"levelo://app?vid=aa38b02f-1ea8-469c-af20-8a4c966b5182","ios":"levelo://app?vid=aa38b02f-1ea8-469c-af20-8a4c966b5182"},"vehicle_type_id":"4","last_reported":1730372870,"current_range_meters":38000,"station_id":"ce4bgi92rcd13ifvqb90","pricing_plan_id":"cebpf4jnsgd1na2vs0mg"},{"bike_id":"b955984b-2ee2-4934-82b1-c87e9831c23a","system_id":"levelo_inurba_marseille","lat":43.30185,"lon":5.36618,"is_reserved":false,"is_disabled":false,"rental_uris":{"android":"levelo://app?vid=b955984b-2ee2-4934-82b1-c87e9831c23a","ios":"levelo://app?vid=b955984b-2ee2-4934-82b1-c87e9831c23a"},"vehicle_type_id":"4","last_reported":1730372870,"current_range_meters":37600,"station_id":"ce4bgrh2rcd13ifvqc8g","pricing_plan_id":"cebpf4jnsgd1na2vs0mg"},{"bike_id":"ca2f059d-7816-418e-8ea8-e4f148bc3c85","system_id":"levelo_inurba_marseille","lat":43.29532,"lon":5.37506,"is_reserved":false,"is_disabled":false,"rental_uris":{"android":"levelo://app?vid=ca2f059d-7816-418e-8ea8-e4f148bc3c85","ios":"levelo://app?vid=ca2f059d-7816-418e-8ea8-e4f148bc3c85"},"vehicle_type_id":"4","last_reported":1730372870,"current_range_meters":38800,"station_id":"ce4bgkp2rcd13ifvqbmg","pricing_plan_id":"cebpf4jnsgd1na2vs0mg"},{"bike_id":"4f1bdc8e-42fd-4081-9479-b0ca740d7c91","system_id":"levelo_inurba_marseille","lat":43.29017,"lon":5.38132,"is_reserved":false,"is_disabled":false,"rental_uris":{"android":"levelo://app?vid=4f1bdc8e-42fd-4081-9479-b0ca740d7c91","ios":"levelo://app?vid=4f1bdc8e-42fd-4081-9479-b0ca740d7c91"},"vehicle_type_id":"4","last_reported":1730372870,"current_range_meters":38800,"station_id":"ce4bh4p2rcd13ifvqe1g","pricing_plan_id":"cebpf4jnsgd1na2vs0mg"},{"bike_id":"b0f30ef3-ea67-4389-a085-e59072977056","system_id":"levelo_inurba_marseille","lat":43.267777,"lon":5.394224,"is_reserved":false,"is_disabled":false,"rental_uris":{"android":"levelo://app?vid=b0f30ef3-ea67-4389-a085-e59072977056","ios":"levelo://app?vid=b0f30ef3-ea67-4389-a085-e59072977056"},"vehicle_type_id":"4","last_reported":1730372870,"current_range_meters":16800,"station_id":"ce4bhh12rcd13ifvqfg0","pricing_plan_id":"cebpf4jnsgd1na2vs0mg"},{"bike_id":"bceb470c-5961-46ca-8bf8-39aceec2ee89","system_id":"levelo_inurba_marseille","lat":43.30542,"lon":5.365366,"is_reserved":false,"is_disabled":false,"rental_uris":{"android":"levelo://app?vid=bceb470c-5961-46ca-8bf8-39aceec2ee89","ios":"levelo://app?vid=bceb470c-5961-46ca-8bf8-39aceec2ee89"},"vehicle_type_id":"4","last_reported":1730372870,"current_range_meters":32800,"station_id":"ce4bgs12rcd13ifvqcag","pricing_plan_id":"cebpf4jnsgd1na2vs0mg"},{"bike_id":"c6375ae7-0e5c-430a-9d37-6db7f96776f3","system_id":"levelo_inurba_marseille","lat":43.27205,"lon":5.39176,"is_reserved":false,"is_disabled":false,"rental_uris":{"android":"levelo://app?vid=c6375ae7-0e5c-430a-9d37-6db7f96776f3","ios":"levelo://app?vid=c6375ae7-0e5c-430a-9d37-6db7f96776f3"},"vehicle_type_id":"4","last_reported":1730372870,"current_range_meters":28400,"station_id":"ce4bhhp2rcd13ifvqfm0","pricing_plan_id":"cebpf4jnsgd1na2vs0mg"},{"bike_id":"a4627486-a087-47d1-bdea-e9476cd49986","system_id":"levelo_inurba_marseille","lat":43.23193,"lon":5.35553,"is_reserved":false,"is_disabled":false,"rental_uris":{"android":"levelo://app?vid=a4627486-a087-47d1-bdea-e9476cd49986","ios":"levelo://app?vid=a4627486-a087-47d1-bdea-e9476cd49986"},"vehicle_type_id":"4","last_reported":1730372870,"current_range_meters":4800,"station_id":"ce4bhu92rcd13ifvqi70","pricing_plan_id":"cebpf4jnsgd1na2vs0mg"},{"bike_id":"b5beb8be-724a-4713-95e9-911c76389d06","system_id":"levelo_inurba_marseille","lat":43.30148,"lon":5.38079,"is_reserved":false,"is_disabled":false,"rental_uris":{"android":"levelo://app?vid=b5beb8be-724a-4713-95e9-911c76389d06","ios":"levelo://app?vid=b5beb8be-724a-4713-95e9-911c76389d06"},"vehicle_type_id":"4","last_reported":1730372870,"current_range_meters":36400,"station_id":"ce4bgjp2rcd13ifvqbh0","pricing_plan_id":"cebpf4jnsgd1na2vs0mg"},{"bike_id":"e35a8ca0-a448-45a9-9f0c-b3ec619fcd4b","system_id":"levelo_inurba_marseille","lat":43.30525,"lon":5.36535,"is_reserved":false,"is_disabled":false,"rental_uris":{"android":"levelo://app?vid=e35a8ca0-a448-45a9-9f0c-b3ec619fcd4b","ios":"levelo://app?vid=e35a8ca0-a448-45a9-9f0c-b3ec619fcd4b"},"vehicle_type_id":"4","last_reported":1730372870,"current_range_meters":38800,"station_id":"ce4bgs12rcd13ifvqcag","pricing_plan_id":"cebpf4jnsgd1na2vs0mg"},{"bike_id":"4075e605-7e2d-4335-883e-4292dc011012","system_id":"levelo_inurba_marseille","lat":43.23962,"lon":5.36629,"is_reserved":false,"is_disabled":false,"rental_uris":{"android":"levelo://app?vid=4075e605-7e2d-4335-883e-4292dc011012","ios":"levelo://app?vid=4075e605-7e2d-4335-883e-4292dc011012"},"vehicle_type_id":"4","last_reported":1730372870,"current_range_meters":6000,"station_id":"ce4bhi12rcd13ifvqfp0","pricing_plan_id":"cebpf4jnsgd1na2vs0mg"},{"bike_id":"604871c7-01b3-4e91-ad66-3472f5cb2bd9","system_id":"levelo_inurba_marseille","lat":43.24166,"lon":5.36395,"is_reserved":false,"is_disabled":false,"rental_uris":{"android":"levelo://app?vid=604871c7-01b3-4e91-ad66-3472f5cb2bd9","ios":"levelo://app?vid=604871c7-01b3-4e91-ad66-3472f5cb2bd9"},"vehicle_type_id":"4","last_reported":1730372870,"current_range_meters":32800,"station_id":"cpo36qri1sfpv3e86is0","pricing_plan_id":"cebpf4jnsgd1na2vs0mg"},{"bike_id":"66f87c05-90dc-43a7-acd2-2870fbee0cc8","system_id":"levelo_inurba_marseille","lat":43.23151,"lon":5.43715,"is_reserved":false,"is_disabled":false,"rental_uris":{"android":"levelo://app?vid=66f87c05-90dc-43a7-acd2-2870fbee0cc8","ios":"levelo://app?vid=66f87c05-90dc-43a7-acd2-2870fbee0cc8"},"vehicle_type_id":"4","last_reported":1730372870,"current_range_meters":38000,"station_id":"ce4bhmp2rcd13ifvqgog","pricing_plan_id":"cebpf4jnsgd1na2vs0mg"},{"bike_id":"ddf81c1b-c006-4566-9050-e7d0867872d6","system_id":"levelo_inurba_marseille","lat":43.30161,"lon":5.36624,"is_reserved":false,"is_disabled":false,"rental_uris":{"android":"levelo://app?vid=ddf81c1b-c006-4566-9050-e7d0867872d6","ios":"levelo://app?vid=ddf81c1b-c006-4566-9050-e7d0867872d6"},"vehicle_type_id":"4","last_reported":1730372870,"current_range_meters":19600,"station_id":"ce4bgrh2rcd13ifvqc8g","pricing_plan_id":"cebpf4jnsgd1na2vs0mg"},{"bike_id":"6e68dc19-dedc-495b-9422-66bbfa8cbb0a","system_id":"levelo_inurba_marseille","lat":43.24379,"lon":5.37053,"is_reserved":false,"is_disabled":false,"rental_uris":{"android":"levelo://app?vid=6e68dc19-dedc-495b-9422-66bbfa8cbb0a","ios":"levelo://app?vid=6e68dc19-dedc-495b-9422-66bbfa8cbb0a"},"vehicle_type_id":"4","last_reported":1730372870,"current_range_meters":3200,"station_id":"ce4bhhh2rcd13ifvqfk0","pricing_plan_id":"cebpf4jnsgd1na2vs0mg"},{"bike_id":"872be173-f5bd-4a3a-8a5f-bb19c3cb5c3f","system_id":"levelo_inurba_marseille","lat":43.3122,"lon":5.36848,"is_reserved":false,"is_disabled":false,"rental_uris":{"android":"levelo://app?vid=872be173-f5bd-4a3a-8a5f-bb19c3cb5c3f","ios":"levelo://app?vid=872be173-f5bd-4a3a-8a5f-bb19c3cb5c3f"},"vehicle_type_id":"4","last_reported":1730372870,"current_range_meters":30000,"station_id":"ce4bgl92rcd13ifvqbq0","pricing_plan_id":"cebpf4jnsgd1na2vs0mg"},{"bike_id":"8b049b91-cb4b-4f38-bffb-00ce29c795e2","system_id":"levelo_inurba_marseille","lat":43.27939,"lon":5.41042,"is_reserved":false,"is_disabled":false,"rental_uris":{"android":"levelo://app?vid=8b049b91-cb4b-4f38-bffb-00ce29c795e2","ios":"levelo://app?vid=8b049b91-cb4b-4f38-bffb-00ce29c795e2"},"vehicle_type_id":"4","last_reported":1730372870,"current_range_meters":35600,"station_id":"ce4bhnp2rcd13ifvqh0g","pricing_plan_id":"cebpf4jnsgd1na2vs0mg"},{"bike_id":"327a54a1-6731-42d1-84d8-1ec906b0ebe8","system_id":"levelo_inurba_marseille","lat":43.25936,"lon":5.40907,"is_reserved":false,"is_disabled":false,"rental_uris":{"android":"levelo://app?vid=327a54a1-6731-42d1-84d8-1ec906b0ebe8","ios":"levelo://app?vid=327a54a1-6731-42d1-84d8-1ec906b0ebe8"},"vehicle_type_id":"4","last_reported":1730372870,"current_range_meters":26000,"station_id":"ce4bhm92rcd13ifvqglg","pricing_plan_id":"cebpf4jnsgd1na2vs0mg"},{"bike_id":"f09dd087-0c1e-4239-b346-a34b91e26a4e","system_id":"levelo_inurba_marseille","lat":43.28268,"lon":5.35059,"is_reserved":false,"is_disabled":false,"rental_uris":{"android":"levelo://app?vid=f09dd087-0c1e-4239-b346-a34b91e26a4e","ios":"levelo://app?vid=f09dd087-0c1e-4239-b346-a34b91e26a4e"},"vehicle_type_id":"4","last_reported":1730372870,"current_range_meters":5600,"station_id":"ce4bhbp2rcd13ifvqerg","pricing_plan_id":"cebpf4jnsgd1na2vs0mg"},{"bike_id":"4ae298a1-ae7b-4650-a48e-948be9f237d7","system_id":"levelo_inurba_marseille","lat":43.29567,"lon":5.37497,"is_reserved":false,"is_disabled":false,"rental_uris":{"android":"levelo://app?vid=4ae298a1-ae7b-4650-a48e-948be9f237d7","ios":"levelo://app?vid=4ae298a1-ae7b-4650-a48e-948be9f237d7"},"vehicle_type_id":"4","last_reported":1730372870,"current_range_meters":38000,"station_id":"ce4bgh92rcd13ifvqb50","pricing_plan_id":"cebpf4jnsgd1na2vs0mg"},{"bike_id":"3087097d-c424-4efc-b1de-ac5e7e6b63e6","system_id":"levelo_inurba_marseille","lat":43.28039,"lon":5.36945,"is_reserved":false,"is_disabled":false,"rental_uris":{"android":"levelo://app?vid=3087097d-c424-4efc-b1de-ac5e7e6b63e6","ios":"levelo://app?vid=3087097d-c424-4efc-b1de-ac5e7e6b63e6"},"vehicle_type_id":"4","last_reported":1730372870,"current_range_meters":36800,"station_id":"ce4bha12rcd13ifvqef0","pricing_plan_id":"cebpf4jnsgd1na2vs0mg"},{"bike_id":"62d8ddd4-a047-4a4f-882e-002543bb8851","system_id":"levelo_inurba_marseille","lat":43.24383,"lon":5.37059,"is_reserved":false,"is_disabled":false,"rental_uris":{"android":"levelo://app?vid=62d8ddd4-a047-4a4f-882e-002543bb8851","ios":"levelo://app?vid=62d8ddd4-a047-4a4f-882e-002543bb8851"},"vehicle_type_id":"4","last_reported":1730372870,"current_range_meters":26800,"station_id":"ce4bhhh2rcd13ifvqfk0","pricing_plan_id":"cebpf4jnsgd1na2vs0mg"},{"bike_id":"7ab2f1bd-7151-4559-9622-b212f0480b3f","system_id":"levelo_inurba_marseille","lat":43.25726,"lon":5.41105,"is_reserved":false,"is_disabled":false,"rental_uris":{"android":"levelo://app?vid=7ab2f1bd-7151-4559-9622-b212f0480b3f","ios":"levelo://app?vid=7ab2f1bd-7151-4559-9622-b212f0480b3f"},"vehicle_type_id":"4","last_reported":1730372870,"current_range_meters":29600,"station_id":"ce4bhkp2rcd13ifvqgd0","pricing_plan_id":"cebpf4jnsgd1na2vs0mg"},{"bike_id":"ac2eccd0-69ff-4ddb-ac24-7558056fa7be","system_id":"levelo_inurba_marseille","lat":43.24166,"lon":5.36392,"is_reserved":false,"is_disabled":false,"rental_uris":{"android":"levelo://app?vid=ac2eccd0-69ff-4ddb-ac24-7558056fa7be","ios":"levelo://app?vid=ac2eccd0-69ff-4ddb-ac24-7558056fa7be"},"vehicle_type_id":"4","last_reported":1730372870,"current_range_meters":22000,"station_id":"cpo36qri1sfpv3e86is0","pricing_plan_id":"cebpf4jnsgd1na2vs0mg"},{"bike_id":"c0a8e293-1660-4f21-87e9-c6ff061294ff","system_id":"levelo_inurba_marseille","lat":43.29617,"lon":5.3772,"is_reserved":false,"is_disabled":false,"rental_uris":{"android":"levelo://app?vid=c0a8e293-1660-4f21-87e9-c6ff061294ff","ios":"levelo://app?vid=c0a8e293-1660-4f21-87e9-c6ff061294ff"},"vehicle_type_id":"4","last_reported":1730372870,"current_range_meters":38800,"station_id":"ce4bgi92rcd13ifvqb90","pricing_plan_id":"cebpf4jnsgd1na2vs0mg"},{"bike_id":"ca42fafc-ec68-46ec-b376-f0ffa70f6fe6","system_id":"levelo_inurba_marseille","lat":43.3264,"lon":5.40975,"is_reserved":false,"is_disabled":false,"rental_uris":{"android":"levelo://app?vid=ca42fafc-ec68-46ec-b376-f0ffa70f6fe6","ios":"levelo://app?vid=ca42fafc-ec68-46ec-b376-f0ffa70f6fe6"},"vehicle_type_id":"4","last_reported":1730372870,"current_range_meters":38800,"station_id":"ce4bhpp2rcd13ifvqhgg","pricing_plan_id":"cebpf4jnsgd1na2vs0mg"},{"bike_id":"42e61598-64ce-4f84-97eb-90c09ebd9abe","system_id":"levelo_inurba_marseille","lat":43.2319,"lon":5.39993,"is_reserved":false,"is_disabled":false,"rental_uris":{"android":"levelo://app?vid=42e61598-64ce-4f84-97eb-90c09ebd9abe","ios":"levelo://app?vid=42e61598-64ce-4f84-97eb-90c09ebd9abe"},"vehicle_type_id":"4","last_reported":1730372870,"current_range_meters":10000,"station_id":"ce4bhn12rcd13ifvqgqg","pricing_plan_id":"cebpf4jnsgd1na2vs0mg"},{"bike_id":"3b66f217-2aba-4fc1-8dcb-0a9f05051932","system_id":"levelo_inurba_marseille","lat":43.30187,"lon":5.38151,"is_reserved":false,"is_disabled":false,"rental_uris":{"android":"levelo://app?vid=3b66f217-2aba-4fc1-8dcb-0a9f05051932","ios":"levelo://app?vid=3b66f217-2aba-4fc1-8dcb-0a9f05051932"},"vehicle_type_id":"4","last_reported":1730372870,"current_range_meters":25200,"station_id":"","pricing_plan_id":"cebpf4jnsgd1na2vs0mg"},{"bike_id":"64dab1a2-9a19-4671-8d0b-fe98cb5d329f","system_id":"levelo_inurba_marseille","lat":43.28004,"lon":5.40009,"is_reserved":false,"is_disabled":false,"rental_uris":{"android":"levelo://app?vid=64dab1a2-9a19-4671-8d0b-fe98cb5d329f","ios":"levelo://app?vid=64dab1a2-9a19-4671-8d0b-fe98cb5d329f"},"vehicle_type_id":"4","last_reported":1730372870,"current_range_meters":37600,"station_id":"ce4bho92rcd13ifvqh4g","pricing_plan_id":"cebpf4jnsgd1na2vs0mg"},{"bike_id":"c2bc8856-54aa-4b94-ae08-cd0ab01ff56d","system_id":"levelo_inurba_marseille","lat":43.27666,"lon":5.38874,"is_reserved":false,"is_disabled":false,"rental_uris":{"android":"levelo://app?vid=c2bc8856-54aa-4b94-ae08-cd0ab01ff56d","ios":"levelo://app?vid=c2bc8856-54aa-4b94-ae08-cd0ab01ff56d"},"vehicle_type_id":"4","last_reported":1730372870,"current_range_meters":9200,"station_id":"ce4bhi12rcd13ifvqfo0","pricing_plan_id":"cebpf4jnsgd1na2vs0mg"},{"bike_id":"c573c73f-75e4-475a-bcd6-666ce297695e","system_id":"levelo_inurba_marseille","lat":43.23183,"lon":5.39977,"is_reserved":false,"is_disabled":false,"rental_uris":{"android":"levelo://app?vid=c573c73f-75e4-475a-bcd6-666ce297695e","ios":"levelo://app?vid=c573c73f-75e4-475a-bcd6-666ce297695e"},"vehicle_type_id":"4","last_reported":1730372870,"current_range_meters":26800,"station_id":"ce4bhn12rcd13ifvqgqg","pricing_plan_id":"cebpf4jnsgd1na2vs0mg"},{"bike_id":"a65b7600-bc14-4cb1-bd98-91e0257743b9","system_id":"levelo_inurba_marseille","lat":43.24071,"lon":5.37753,"is_reserved":false,"is_disabled":false,"rental_uris":{"android":"levelo://app?vid=a65b7600-bc14-4cb1-bd98-91e0257743b9","ios":"levelo://app?vid=a65b7600-bc14-4cb1-bd98-91e0257743b9"},"vehicle_type_id":"4","last_reported":1730372870,"current_range_meters":6400,"station_id":"ce4bhnp2rcd13ifvqgvg","pricing_plan_id":"cebpf4jnsgd1na2vs0mg"},{"bike_id":"6dbf7563-9d99-4206-bda1-5710ec3459e4","system_id":"levelo_inurba_marseille","lat":43.27996,"lon":5.41659,"is_reserved":false,"is_disabled":false,"rental_uris":{"android":"levelo://app?vid=6dbf7563-9d99-4206-bda1-5710ec3459e4","ios":"levelo://app?vid=6dbf7563-9d99-4206-bda1-5710ec3459e4"},"vehicle_type_id":"4","last_reported":1730372870,"current_range_meters":34800,"station_id":"ce4bho12rcd13ifvqh1g","pricing_plan_id":"cebpf4jnsgd1na2vs0mg"},{"bike_id":"b03dfabb-7f3f-4176-96ea-4ddf0a08b1e0","system_id":"levelo_inurba_marseille","lat":43.28397,"lon":5.34991,"is_reserved":false,"is_disabled":false,"rental_uris":{"android":"levelo://app?vid=b03dfabb-7f3f-4176-96ea-4ddf0a08b1e0","ios":"levelo://app?vid=b03dfabb-7f3f-4176-96ea-4ddf0a08b1e0"},"vehicle_type_id":"4","last_reported":1730372870,"current_range_meters":38800,"station_id":"ce4bhbh2rcd13ifvqepg","pricing_plan_id":"cebpf4jnsgd1na2vs0mg"},{"bike_id":"1549777b-33eb-4a32-9567-d6c31d0710f5","system_id":"levelo_inurba_marseille","lat":43.3247,"lon":5.36571,"is_reserved":false,"is_disabled":false,"rental_uris":{"android":"levelo://app?vid=1549777b-33eb-4a32-9567-d6c31d0710f5","ios":"levelo://app?vid=1549777b-33eb-4a32-9567-d6c31d0710f5"},"vehicle_type_id":"4","last_reported":1730372870,"current_range_meters":36400,"station_id":"ce4bhs12rcd13ifvqhvg","pricing_plan_id":"cebpf4jnsgd1na2vs0mg"},{"bike_id":"60b71c7c-4918-47ba-8287-329d23746782","system_id":"levelo_inurba_marseille","lat":43.29897,"lon":5.43665,"is_reserved":false,"is_disabled":false,"rental_uris":{"android":"levelo://app?vid=60b71c7c-4918-47ba-8287-329d23746782","ios":"levelo://app?vid=60b71c7c-4918-47ba-8287-329d23746782"},"vehicle_type_id":"4","last_reported":1730372870,"current_range_meters":38400,"station_id":"ce4bhpp2rcd13ifvqhfg","pricing_plan_id":"cebpf4jnsgd1na2vs0mg"},{"bike_id":"69b6d9a0-2d6e-4f1e-9bfe-50a3a9c501ed","system_id":"levelo_inurba_marseille","lat":43.30143,"lon":5.38082,"is_reserved":false,"is_disabled":false,"rental_uris":{"android":"levelo://app?vid=69b6d9a0-2d6e-4f1e-9bfe-50a3a9c501ed","ios":"levelo://app?vid=69b6d9a0-2d6e-4f1e-9bfe-50a3a9c501ed"},"vehicle_type_id":"4","last_reported":1730372870,"current_range_meters":14400,"station_id":"ce4bgjp2rcd13ifvqbh0","pricing_plan_id":"cebpf4jnsgd1na2vs0mg"},{"bike_id":"7402b7e8-b1f4-4735-bca8-18b131717534","system_id":"levelo_inurba_marseille","lat":43.24388,"lon":5.3705,"is_reserved":false,"is_disabled":false,"rental_uris":{"android":"levelo://app?vid=7402b7e8-b1f4-4735-bca8-18b131717534","ios":"levelo://app?vid=7402b7e8-b1f4-4735-bca8-18b131717534"},"vehicle_type_id":"4","last_reported":1730372870,"current_range_meters":38800,"station_id":"ce4bhhh2rcd13ifvqfk0","pricing_plan_id":"cebpf4jnsgd1na2vs0mg"},{"bike_id":"546030c5-9942-4ee1-9987-77a5127f7fbe","system_id":"levelo_inurba_marseille","lat":43.30144,"lon":5.38083,"is_reserved":false,"is_disabled":false,"rental_uris":{"android":"levelo://app?vid=546030c5-9942-4ee1-9987-77a5127f7fbe","ios":"levelo://app?vid=546030c5-9942-4ee1-9987-77a5127f7fbe"},"vehicle_type_id":"4","last_reported":1730372870,"current_range_meters":35200,"station_id":"ce4bgjp2rcd13ifvqbh0","pricing_plan_id":"cebpf4jnsgd1na2vs0mg"},{"bike_id":"550465fe-c51d-4dd9-8bbb-651266e27a65","system_id":"levelo_inurba_marseille","lat":43.29562,"lon":5.37513,"is_reserved":false,"is_disabled":false,"rental_uris":{"android":"levelo://app?vid=550465fe-c51d-4dd9-8bbb-651266e27a65","ios":"levelo://app?vid=550465fe-c51d-4dd9-8bbb-651266e27a65"},"vehicle_type_id":"4","last_reported":1730372870,"current_range_meters":38000,"station_id":"ce4bgh92rcd13ifvqb50","pricing_plan_id":"cebpf4jnsgd1na2vs0mg"},{"bike_id":"597ae939-1c96-4a94-8fd0-4af1997ab575","system_id":"levelo_inurba_marseille","lat":43.29172,"lon":5.37159,"is_reserved":false,"is_disabled":false,"rental_uris":{"android":"levelo://app?vid=597ae939-1c96-4a94-8fd0-4af1997ab575","ios":"levelo://app?vid=597ae939-1c96-4a94-8fd0-4af1997ab575"},"vehicle_type_id":"4","last_reported":1730372870,"current_range_meters":38400,"station_id":"ce4bha92rcd13ifvqeh0","pricing_plan_id":"cebpf4jnsgd1na2vs0mg"},{"bike_id":"7d1fe817-f784-45b3-a7f6-2e79abcfa29c","system_id":"levelo_inurba_marseille","lat":43.33748,"lon":5.37441,"is_reserved":false,"is_disabled":false,"rental_uris":{"android":"levelo://app?vid=7d1fe817-f784-45b3-a7f6-2e79abcfa29c","ios":"levelo://app?vid=7d1fe817-f784-45b3-a7f6-2e79abcfa29c"},"vehicle_type_id":"4","last_reported":1730372870,"current_range_meters":38000,"station_id":"","pricing_plan_id":"cebpf4jnsgd1na2vs0mg"},{"bike_id":"e097a33c-2c22-46ab-8ca7-78ef23f95842","system_id":"levelo_inurba_marseille","lat":43.30587,"lon":5.36547,"is_reserved":false,"is_disabled":false,"rental_uris":{"android":"levelo://app?vid=e097a33c-2c22-46ab-8ca7-78ef23f95842","ios":"levelo://app?vid=e097a33c-2c22-46ab-8ca7-78ef23f95842"},"vehicle_type_id":"4","last_reported":1730372870,"current_range_meters":17600,"station_id":"","pricing_plan_id":"cebpf4jnsgd1na2vs0mg"},{"bike_id":"c504c526-aff4-43d6-85d5-2999c38fa352","system_id":"levelo_inurba_marseille","lat":43.3014,"lon":5.37414,"is_reserved":false,"is_disabled":false,"rental_uris":{"android":"levelo://app?vid=c504c526-aff4-43d6-85d5-2999c38fa352","ios":"levelo://app?vid=c504c526-aff4-43d6-85d5-2999c38fa352"},"vehicle_type_id":"4","last_reported":1730372870,"current_range_meters":18000,"station_id":"ce4bgs92rcd13ifvqcc0","pricing_plan_id":"cebpf4jnsgd1na2vs0mg"},{"bike_id":"4d2d258e-03a5-4b40-92c4-e12dd58549ef","system_id":"levelo_inurba_marseille","lat":43.24543,"lon":5.39521,"is_reserved":false,"is_disabled":false,"rental_uris":{"android":"levelo://app?vid=4d2d258e-03a5-4b40-92c4-e12dd58549ef","ios":"levelo://app?vid=4d2d258e-03a5-4b40-92c4-e12dd58549ef"},"vehicle_type_id":"4","last_reported":1730372870,"current_range_meters":27200,"station_id":"ce4bhlp2rcd13ifvqgjg","pricing_plan_id":"cebpf4jnsgd1na2vs0mg"},{"bike_id":"16109a4a-a123-4ede-9789-4c04b78e94d1","system_id":"levelo_inurba_marseille","lat":43.3148,"lon":5.37307,"is_reserved":false,"is_disabled":false,"rental_uris":{"android":"levelo://app?vid=16109a4a-a123-4ede-9789-4c04b78e94d1","ios":"levelo://app?vid=16109a4a-a123-4ede-9789-4c04b78e94d1"},"vehicle_type_id":"4","last_reported":1730372870,"current_range_meters":26000,"station_id":"ce4bgt12rcd13ifvqcd0","pricing_plan_id":"cebpf4jnsgd1na2vs0mg"},{"bike_id":"f20bb080-86fd-4279-a428-d955bc912fe9","system_id":"levelo_inurba_marseille","lat":43.30547,"lon":5.36528,"is_reserved":false,"is_disabled":false,"rental_uris":{"android":"levelo://app?vid=f20bb080-86fd-4279-a428-d955bc912fe9","ios":"levelo://app?vid=f20bb080-86fd-4279-a428-d955bc912fe9"},"vehicle_type_id":"4","last_reported":1730372870,"current_range_meters":36800,"station_id":"ce4bgs12rcd13ifvqcag","pricing_plan_id":"cebpf4jnsgd1na2vs0mg"},{"bike_id":"74c361a0-45fd-42bd-b611-d83229b81e8a","system_id":"levelo_inurba_marseille","lat":43.30385,"lon":5.37855,"is_reserved":false,"is_disabled":false,"rental_uris":{"android":"levelo://app?vid=74c361a0-45fd-42bd-b611-d83229b81e8a","ios":"levelo://app?vid=74c361a0-45fd-42bd-b611-d83229b81e8a"},"vehicle_type_id":"4","last_reported":1730372870,"current_range_meters":34000,"station_id":"ce4bgup2rcd13ifvqcn0","pricing_plan_id":"cebpf4jnsgd1na2vs0mg"},{"bike_id":"1291beeb-4229-4e3b-aa73-3f42057c8964","system_id":"levelo_inurba_marseille","lat":43.30426,"lon":5.39742,"is_reserved":false,"is_disabled":false,"rental_uris":{"android":"levelo://app?vid=1291beeb-4229-4e3b-aa73-3f42057c8964","ios":"levelo://app?vid=1291beeb-4229-4e3b-aa73-3f42057c8964"},"vehicle_type_id":"4","last_reported":1730372870,"current_range_meters":35600,"station_id":"ce4bh092rcd13ifvqd20","pricing_plan_id":"cebpf4jnsgd1na2vs0mg"},{"bike_id":"92adf987-4779-4b78-ad9c-8e29ab9175f3","system_id":"levelo_inurba_marseille","lat":43.23199,"lon":5.35556,"is_reserved":false,"is_disabled":false,"rental_uris":{"android":"levelo://app?vid=92adf987-4779-4b78-ad9c-8e29ab9175f3","ios":"levelo://app?vid=92adf987-4779-4b78-ad9c-8e29ab9175f3"},"vehicle_type_id":"4","last_reported":1730372870,"current_range_meters":8000,"station_id":"ce4bhu92rcd13ifvqi70","pricing_plan_id":"cebpf4jnsgd1na2vs0mg"},{"bike_id":"626bef01-e86f-401e-bbad-9febf724dedf","system_id":"levelo_inurba_marseille","lat":43.31484,"lon":5.37304,"is_reserved":false,"is_disabled":false,"rental_uris":{"android":"levelo://app?vid=626bef01-e86f-401e-bbad-9febf724dedf","ios":"levelo://app?vid=626bef01-e86f-401e-bbad-9febf724dedf"},"vehicle_type_id":"4","last_reported":1730372870,"current_range_meters":30000,"station_id":"ce4bgt12rcd13ifvqcd0","pricing_plan_id":"cebpf4jnsgd1na2vs0mg"},{"bike_id":"0d9e2dc0-7e48-44a4-9d02-16fb20798af5","system_id":"levelo_inurba_marseille","lat":43.23174,"lon":5.39974,"is_reserved":false,"is_disabled":false,"rental_uris":{"android":"levelo://app?vid=0d9e2dc0-7e48-44a4-9d02-16fb20798af5","ios":"levelo://app?vid=0d9e2dc0-7e48-44a4-9d02-16fb20798af5"},"vehicle_type_id":"4","last_reported":1730372870,"current_range_meters":38800,"station_id":"ce4bhn12rcd13ifvqgqg","pricing_plan_id":"cebpf4jnsgd1na2vs0mg"},{"bike_id":"09cb6800-2f3b-4d5b-bb19-9286a8569287","system_id":"levelo_inurba_marseille","lat":43.2978,"lon":5.37101,"is_reserved":false,"is_disabled":false,"rental_uris":{"android":"levelo://app?vid=09cb6800-2f3b-4d5b-bb19-9286a8569287","ios":"levelo://app?vid=09cb6800-2f3b-4d5b-bb19-9286a8569287"},"vehicle_type_id":"4","last_reported":1730372870,"current_range_meters":38000,"station_id":"ce4bgop2rcd13ifvqc1g","pricing_plan_id":"cebpf4jnsgd1na2vs0mg"},{"bike_id":"33dcbf4e-a94a-4818-8c5e-bb837f8de796","system_id":"levelo_inurba_marseille","lat":43.28487,"lon":5.38421,"is_reserved":false,"is_disabled":false,"rental_uris":{"android":"levelo://app?vid=33dcbf4e-a94a-4818-8c5e-bb837f8de796","ios":"levelo://app?vid=33dcbf4e-a94a-4818-8c5e-bb837f8de796"},"vehicle_type_id":"4","last_reported":1730372870,"current_range_meters":36800,"station_id":"ce4bh512rcd13ifvqe3g","pricing_plan_id":"cebpf4jnsgd1na2vs0mg"},{"bike_id":"477b829c-3026-4de0-abea-8e1292e36033","system_id":"levelo_inurba_marseille","lat":43.30147,"lon":5.38077,"is_reserved":false,"is_disabled":false,"rental_uris":{"android":"levelo://app?vid=477b829c-3026-4de0-abea-8e1292e36033","ios":"levelo://app?vid=477b829c-3026-4de0-abea-8e1292e36033"},"vehicle_type_id":"4","last_reported":1730372870,"current_range_meters":38800,"station_id":"ce4bgjp2rcd13ifvqbh0","pricing_plan_id":"cebpf4jnsgd1na2vs0mg"},{"bike_id":"7dfaf496-2e50-463a-a103-b8570a0c6a9a","system_id":"levelo_inurba_marseille","lat":43.24389,"lon":5.37053,"is_reserved":false,"is_disabled":false,"rental_uris":{"android":"levelo://app?vid=7dfaf496-2e50-463a-a103-b8570a0c6a9a","ios":"levelo://app?vid=7dfaf496-2e50-463a-a103-b8570a0c6a9a"},"vehicle_type_id":"4","last_reported":1730372870,"current_range_meters":38800,"station_id":"ce4bhhh2rcd13ifvqfk0","pricing_plan_id":"cebpf4jnsgd1na2vs0mg"},{"bike_id":"9ef76483-9606-429b-a12f-0f637db791aa","system_id":"levelo_inurba_marseille","lat":43.29518,"lon":5.39034,"is_reserved":false,"is_disabled":false,"rental_uris":{"android":"levelo://app?vid=9ef76483-9606-429b-a12f-0f637db791aa","ios":"levelo://app?vid=9ef76483-9606-429b-a12f-0f637db791aa"},"vehicle_type_id":"4","last_reported":1730372870,"current_range_meters":22400,"station_id":"ce4bh3p2rcd13ifvqdp0","pricing_plan_id":"cebpf4jnsgd1na2vs0mg"},{"bike_id":"82e11099-2574-4582-8464-56750e90191c","system_id":"levelo_inurba_marseille","lat":43.3249,"lon":5.36569,"is_reserved":false,"is_disabled":false,"rental_uris":{"android":"levelo://app?vid=82e11099-2574-4582-8464-56750e90191c","ios":"levelo://app?vid=82e11099-2574-4582-8464-56750e90191c"},"vehicle_type_id":"4","last_reported":1730372870,"current_range_meters":12800,"station_id":"ce4bhs12rcd13ifvqhvg","pricing_plan_id":"cebpf4jnsgd1na2vs0mg"},{"bike_id":"db237969-9f53-4e3a-b57a-d33b5010a9d0","system_id":"levelo_inurba_marseille","lat":43.24542,"lon":5.39521,"is_reserved":false,"is_disabled":false,"rental_uris":{"android":"levelo://app?vid=db237969-9f53-4e3a-b57a-d33b5010a9d0","ios":"levelo://app?vid=db237969-9f53-4e3a-b57a-d33b5010a9d0"},"vehicle_type_id":"4","last_reported":1730372870,"current_range_meters":22400,"station_id":"ce4bhlp2rcd13ifvqgjg","pricing_plan_id":"cebpf4jnsgd1na2vs0mg"},{"bike_id":"8fd5d636-ed49-4edf-9397-e558ad471740","system_id":"levelo_inurba_marseille","lat":43.27316,"lon":5.39072,"is_reserved":false,"is_disabled":false,"rental_uris":{"android":"levelo://app?vid=8fd5d636-ed49-4edf-9397-e558ad471740","ios":"levelo://app?vid=8fd5d636-ed49-4edf-9397-e558ad471740"},"vehicle_type_id":"4","last_reported":1730372870,"current_range_meters":24800,"station_id":"ce4bhgp2rcd13ifvqfe0","pricing_plan_id":"cebpf4jnsgd1na2vs0mg"},{"bike_id":"4d31aeae-be6f-4ef4-a8e3-093e71ae2765","system_id":"levelo_inurba_marseille","lat":43.28701,"lon":5.37402,"is_reserved":false,"is_disabled":false,"rental_uris":{"android":"levelo://app?vid=4d31aeae-be6f-4ef4-a8e3-093e71ae2765","ios":"levelo://app?vid=4d31aeae-be6f-4ef4-a8e3-093e71ae2765"},"vehicle_type_id":"4","last_reported":1730372870,"current_range_meters":8000,"station_id":"ce4bh3p2rcd13ifvqdq0","pricing_plan_id":"cebpf4jnsgd1na2vs0mg"},{"bike_id":"d67c2a8c-5175-4ec6-a54b-8e643d3e99bf","system_id":"levelo_inurba_marseille","lat":43.27495,"lon":5.42451,"is_reserved":false,"is_disabled":false,"rental_uris":{"android":"levelo://app?vid=d67c2a8c-5175-4ec6-a54b-8e643d3e99bf","ios":"levelo://app?vid=d67c2a8c-5175-4ec6-a54b-8e643d3e99bf"},"vehicle_type_id":"4","last_reported":1730372870,"current_range_meters":38000,"station_id":"ce4bhn92rcd13ifvqgrg","pricing_plan_id":"cebpf4jnsgd1na2vs0mg"},{"bike_id":"6eb7bd44-f33d-4e96-95f4-f3994a575e68","system_id":"levelo_inurba_marseille","lat":43.27176,"lon":5.40992,"is_reserved":false,"is_disabled":false,"rental_uris":{"android":"levelo://app?vid=6eb7bd44-f33d-4e96-95f4-f3994a575e68","ios":"levelo://app?vid=6eb7bd44-f33d-4e96-95f4-f3994a575e68"},"vehicle_type_id":"4","last_reported":1730372870,"current_range_meters":6800,"station_id":"ce4bhl12rcd13ifvqgf0","pricing_plan_id":"cebpf4jnsgd1na2vs0mg"},{"bike_id":"ea167c01-6113-4dc8-be0a-0b280cd8055a","system_id":"levelo_inurba_marseille","lat":43.23958,"lon":5.36621,"is_reserved":false,"is_disabled":false,"rental_uris":{"android":"levelo://app?vid=ea167c01-6113-4dc8-be0a-0b280cd8055a","ios":"levelo://app?vid=ea167c01-6113-4dc8-be0a-0b280cd8055a"},"vehicle_type_id":"4","last_reported":1730372870,"current_range_meters":12800,"station_id":"ce4bhi12rcd13ifvqfp0","pricing_plan_id":"cebpf4jnsgd1na2vs0mg"},{"bike_id":"85ee8271-6692-4e42-af07-ed2f453a384b","system_id":"levelo_inurba_marseille","lat":43.29028,"lon":5.37558,"is_reserved":false,"is_disabled":false,"rental_uris":{"android":"levelo://app?vid=85ee8271-6692-4e42-af07-ed2f453a384b","ios":"levelo://app?vid=85ee8271-6692-4e42-af07-ed2f453a384b"},"vehicle_type_id":"4","last_reported":1730372870,"current_range_meters":15200,"station_id":"ce4bh692rcd13ifvqe90","pricing_plan_id":"cebpf4jnsgd1na2vs0mg"},{"bike_id":"c9a49a0a-1d50-453b-833d-4f68ee000596","system_id":"levelo_inurba_marseille","lat":43.26951,"lon":5.38639,"is_reserved":false,"is_disabled":false,"rental_uris":{"android":"levelo://app?vid=c9a49a0a-1d50-453b-833d-4f68ee000596","ios":"levelo://app?vid=c9a49a0a-1d50-453b-833d-4f68ee000596"},"vehicle_type_id":"4","last_reported":1730372870,"current_range_meters":19600,"station_id":"ce4bhh92rcd13ifvqfh0","pricing_plan_id":"cebpf4jnsgd1na2vs0mg"},{"bike_id":"e70d1ff7-57f5-4435-a214-fc85f55f87d1","system_id":"levelo_inurba_marseille","lat":43.3013,"lon":5.38777,"is_reserved":false,"is_disabled":false,"rental_uris":{"android":"levelo://app?vid=e70d1ff7-57f5-4435-a214-fc85f55f87d1","ios":"levelo://app?vid=e70d1ff7-57f5-4435-a214-fc85f55f87d1"},"vehicle_type_id":"4","last_reported":1730372870,"current_range_meters":37600,"station_id":"ce4bghh2rcd13ifvqb60","pricing_plan_id":"cebpf4jnsgd1na2vs0mg"},{"bike_id":"2ed4af4c-9843-4d29-96cf-d1a6cfb07712","system_id":"levelo_inurba_marseille","lat":43.28334,"lon":5.38114,"is_reserved":false,"is_disabled":false,"rental_uris":{"android":"levelo://app?vid=2ed4af4c-9843-4d29-96cf-d1a6cfb07712","ios":"levelo://app?vid=2ed4af4c-9843-4d29-96cf-d1a6cfb07712"},"vehicle_type_id":"4","last_reported":1730372870,"current_range_meters":34800,"station_id":"ce4bh412rcd13ifvqdr0","pricing_plan_id":"cebpf4jnsgd1na2vs0mg"},{"bike_id":"4fc0e11f-3d78-44c0-9f8b-618d31d6312b","system_id":"levelo_inurba_marseille","lat":43.29711,"lon":5.37688,"is_reserved":false,"is_disabled":false,"rental_uris":{"android":"levelo://app?vid=4fc0e11f-3d78-44c0-9f8b-618d31d6312b","ios":"levelo://app?vid=4fc0e11f-3d78-44c0-9f8b-618d31d6312b"},"vehicle_type_id":"4","last_reported":1730372870,"current_range_meters":12800,"station_id":"ce4bgkh2rcd13ifvqbl0","pricing_plan_id":"cebpf4jnsgd1na2vs0mg"},{"bike_id":"cc6217b1-a54f-4c01-b0f8-1ae9e75a5121","system_id":"levelo_inurba_marseille","lat":43.29784,"lon":5.37095,"is_reserved":false,"is_disabled":false,"rental_uris":{"android":"levelo://app?vid=cc6217b1-a54f-4c01-b0f8-1ae9e75a5121","ios":"levelo://app?vid=cc6217b1-a54f-4c01-b0f8-1ae9e75a5121"},"vehicle_type_id":"4","last_reported":1730372870,"current_range_meters":38800,"station_id":"ce4bgop2rcd13ifvqc1g","pricing_plan_id":"cebpf4jnsgd1na2vs0mg"},{"bike_id":"2370a04e-d358-4a29-b67a-890bf50b34fd","system_id":"levelo_inurba_marseille","lat":43.24168,"lon":5.364,"is_reserved":false,"is_disabled":false,"rental_uris":{"android":"levelo://app?vid=2370a04e-d358-4a29-b67a-890bf50b34fd","ios":"levelo://app?vid=2370a04e-d358-4a29-b67a-890bf50b34fd"},"vehicle_type_id":"4","last_reported":1730372870,"current_range_meters":37600,"station_id":"cpo36qri1sfpv3e86is0","pricing_plan_id":"cebpf4jnsgd1na2vs0mg"},{"bike_id":"29f61283-c63b-4d9d-a269-c9f516e858ce","system_id":"levelo_inurba_marseille","lat":43.30544,"lon":5.36532,"is_reserved":false,"is_disabled":false,"rental_uris":{"android":"levelo://app?vid=29f61283-c63b-4d9d-a269-c9f516e858ce","ios":"levelo://app?vid=29f61283-c63b-4d9d-a269-c9f516e858ce"},"vehicle_type_id":"4","last_reported":1730372870,"current_range_meters":36800,"station_id":"ce4bgs12rcd13ifvqcag","pricing_plan_id":"cebpf4jnsgd1na2vs0mg"},{"bike_id":"6cfc4f8d-c411-4439-b454-6734fe7d88c3","system_id":"levelo_inurba_marseille","lat":43.33022,"lon":5.39041,"is_reserved":false,"is_disabled":false,"rental_uris":{"android":"levelo://app?vid=6cfc4f8d-c411-4439-b454-6734fe7d88c3","ios":"levelo://app?vid=6cfc4f8d-c411-4439-b454-6734fe7d88c3"},"vehicle_type_id":"4","last_reported":1730372870,"current_range_meters":29600,"station_id":"ce4bhr92rcd13ifvqhrg","pricing_plan_id":"cebpf4jnsgd1na2vs0mg"},{"bike_id":"dae91eeb-9b42-4212-8f6c-fb2f4dbc955a","system_id":"levelo_inurba_marseille","lat":43.31328,"lon":5.36702,"is_reserved":false,"is_disabled":false,"rental_uris":{"android":"levelo://app?vid=dae91eeb-9b42-4212-8f6c-fb2f4dbc955a","ios":"levelo://app?vid=dae91eeb-9b42-4212-8f6c-fb2f4dbc955a"},"vehicle_type_id":"4","last_reported":1730372870,"current_range_meters":30400,"station_id":"ce4bgr92rcd13ifvqc6g","pricing_plan_id":"cebpf4jnsgd1na2vs0mg"},{"bike_id":"0847a2c2-75e6-46a8-bad8-a5fd3268569c","system_id":"levelo_inurba_marseille","lat":43.30542,"lon":5.36531,"is_reserved":false,"is_disabled":false,"rental_uris":{"android":"levelo://app?vid=0847a2c2-75e6-46a8-bad8-a5fd3268569c","ios":"levelo://app?vid=0847a2c2-75e6-46a8-bad8-a5fd3268569c"},"vehicle_type_id":"4","last_reported":1730372870,"current_range_meters":32800,"station_id":"ce4bgs12rcd13ifvqcag","pricing_plan_id":"cebpf4jnsgd1na2vs0mg"},{"bike_id":"68d70b7d-ad7d-4f85-bf3d-e60a9bdb5234","system_id":"levelo_inurba_marseille","lat":43.23153,"lon":5.43705,"is_reserved":false,"is_disabled":false,"rental_uris":{"android":"levelo://app?vid=68d70b7d-ad7d-4f85-bf3d-e60a9bdb5234","ios":"levelo://app?vid=68d70b7d-ad7d-4f85-bf3d-e60a9bdb5234"},"vehicle_type_id":"4","last_reported":1730372870,"current_range_meters":12000,"station_id":"ce4bhmp2rcd13ifvqgog","pricing_plan_id":"cebpf4jnsgd1na2vs0mg"},{"bike_id":"2074bf2c-abe6-416b-8ac6-0453ab94f8bf","system_id":"levelo_inurba_marseille","lat":43.31343,"lon":5.36711,"is_reserved":false,"is_disabled":false,"rental_uris":{"android":"levelo://app?vid=2074bf2c-abe6-416b-8ac6-0453ab94f8bf","ios":"levelo://app?vid=2074bf2c-abe6-416b-8ac6-0453ab94f8bf"},"vehicle_type_id":"4","last_reported":1730372870,"current_range_meters":33600,"station_id":"ce4bgr92rcd13ifvqc6g","pricing_plan_id":"cebpf4jnsgd1na2vs0mg"},{"bike_id":"37069e8b-4451-4121-b3bf-4614fb7136a7","system_id":"levelo_inurba_marseille","lat":43.32291,"lon":5.38264,"is_reserved":false,"is_disabled":false,"rental_uris":{"android":"levelo://app?vid=37069e8b-4451-4121-b3bf-4614fb7136a7","ios":"levelo://app?vid=37069e8b-4451-4121-b3bf-4614fb7136a7"},"vehicle_type_id":"4","last_reported":1730372870,"current_range_meters":24800,"station_id":"ce4bhr12rcd13ifvqhqg","pricing_plan_id":"cebpf4jnsgd1na2vs0mg"},{"bike_id":"8f187250-044c-4a41-90ea-c9ecea0b6581","system_id":"levelo_inurba_marseille","lat":43.26942,"lon":5.40247,"is_reserved":false,"is_disabled":false,"rental_uris":{"android":"levelo://app?vid=8f187250-044c-4a41-90ea-c9ecea0b6581","ios":"levelo://app?vid=8f187250-044c-4a41-90ea-c9ecea0b6581"},"vehicle_type_id":"4","last_reported":1730372870,"current_range_meters":10000,"station_id":"cjm6bp8fraef2m0cb0m0","pricing_plan_id":"cebpf4jnsgd1na2vs0mg"},{"bike_id":"36b17234-da14-45f3-9b84-c51c36b6222f","system_id":"levelo_inurba_marseille","lat":43.29296,"lon":5.37167,"is_reserved":false,"is_disabled":false,"rental_uris":{"android":"levelo://app?vid=36b17234-da14-45f3-9b84-c51c36b6222f","ios":"levelo://app?vid=36b17234-da14-45f3-9b84-c51c36b6222f"},"vehicle_type_id":"4","last_reported":1730372870,"current_range_meters":22400,"station_id":"ce4bgh92rcd13ifvqb40","pricing_plan_id":"cebpf4jnsgd1na2vs0mg"},{"bike_id":"d80d72e7-ab81-40bb-9e97-6cbae82e2e87","system_id":"levelo_inurba_marseille","lat":43.284851,"lon":5.350077,"is_reserved":false,"is_disabled":false,"rental_uris":{"android":"levelo://app?vid=d80d72e7-ab81-40bb-9e97-6cbae82e2e87","ios":"levelo://app?vid=d80d72e7-ab81-40bb-9e97-6cbae82e2e87"},"vehicle_type_id":"4","last_reported":1730372870,"current_range_meters":17200,"station_id":"ce4bh0p2rcd13ifvqd70","pricing_plan_id":"cebpf4jnsgd1na2vs0mg"},{"bike_id":"5266335c-fb51-4166-a0ab-8099a4c09e4b","system_id":"levelo_inurba_marseille","lat":43.3229,"lon":5.38299,"is_reserved":false,"is_disabled":false,"rental_uris":{"android":"levelo://app?vid=5266335c-fb51-4166-a0ab-8099a4c09e4b","ios":"levelo://app?vid=5266335c-fb51-4166-a0ab-8099a4c09e4b"},"vehicle_type_id":"4","last_reported":1730372870,"current_range_meters":37600,"station_id":"ce4bhr12rcd13ifvqhqg","pricing_plan_id":"cebpf4jnsgd1na2vs0mg"},{"bike_id":"b749bffa-7016-4f52-b1c1-550111d2cb6f","system_id":"levelo_inurba_marseille","lat":43.29595,"lon":5.38095,"is_reserved":false,"is_disabled":false,"rental_uris":{"android":"levelo://app?vid=b749bffa-7016-4f52-b1c1-550111d2cb6f","ios":"levelo://app?vid=b749bffa-7016-4f52-b1c1-550111d2cb6f"},"vehicle_type_id":"4","last_reported":1730372870,"current_range_meters":20000,"station_id":"ce4bgl12rcd13ifvqbo0","pricing_plan_id":"cebpf4jnsgd1na2vs0mg"},{"bike_id":"ff3bcf76-bdf2-4e2a-ac35-d044e097e73b","system_id":"levelo_inurba_marseille","lat":43.30533,"lon":5.36696,"is_reserved":false,"is_disabled":false,"rental_uris":{"android":"levelo://app?vid=ff3bcf76-bdf2-4e2a-ac35-d044e097e73b","ios":"levelo://app?vid=ff3bcf76-bdf2-4e2a-ac35-d044e097e73b"},"vehicle_type_id":"4","last_reported":1730372870,"current_range_meters":34000,"station_id":"ce4bgrp2rcd13ifvqc9g","pricing_plan_id":"cebpf4jnsgd1na2vs0mg"},{"bike_id":"a0a5299b-33e0-43a9-ba95-113a594509a5","system_id":"levelo_inurba_marseille","lat":43.25495,"lon":5.37648,"is_reserved":false,"is_disabled":false,"rental_uris":{"android":"levelo://app?vid=a0a5299b-33e0-43a9-ba95-113a594509a5","ios":"levelo://app?vid=a0a5299b-33e0-43a9-ba95-113a594509a5"},"vehicle_type_id":"4","last_reported":1730372870,"current_range_meters":32400,"station_id":"ce4bhh12rcd13ifvqff0","pricing_plan_id":"cebpf4jnsgd1na2vs0mg"},{"bike_id":"8547d5b8-6846-4db8-a0d1-41af48fdc868","system_id":"levelo_inurba_marseille","lat":43.26944,"lon":5.3863,"is_reserved":false,"is_disabled":false,"rental_uris":{"android":"levelo://app?vid=8547d5b8-6846-4db8-a0d1-41af48fdc868","ios":"levelo://app?vid=8547d5b8-6846-4db8-a0d1-41af48fdc868"},"vehicle_type_id":"4","last_reported":1730372870,"current_range_meters":38000,"station_id":"ce4bhh92rcd13ifvqfh0","pricing_plan_id":"cebpf4jnsgd1na2vs0mg"},{"bike_id":"0ec57fad-bd3e-4aa3-b0ee-5b01d21c57d0","system_id":"levelo_inurba_marseille","lat":43.27683,"lon":5.38887,"is_reserved":false,"is_disabled":false,"rental_uris":{"android":"levelo://app?vid=0ec57fad-bd3e-4aa3-b0ee-5b01d21c57d0","ios":"levelo://app?vid=0ec57fad-bd3e-4aa3-b0ee-5b01d21c57d0"},"vehicle_type_id":"4","last_reported":1730372870,"current_range_meters":28000,"station_id":"ce4bhi12rcd13ifvqfo0","pricing_plan_id":"cebpf4jnsgd1na2vs0mg"},{"bike_id":"45691519-2476-44cb-b6ae-238e7eeb6856","system_id":"levelo_inurba_marseille","lat":43.32479,"lon":5.36575,"is_reserved":false,"is_disabled":false,"rental_uris":{"android":"levelo://app?vid=45691519-2476-44cb-b6ae-238e7eeb6856","ios":"levelo://app?vid=45691519-2476-44cb-b6ae-238e7eeb6856"},"vehicle_type_id":"4","last_reported":1730372870,"current_range_meters":36400,"station_id":"ce4bhs12rcd13ifvqhvg","pricing_plan_id":"cebpf4jnsgd1na2vs0mg"},{"bike_id":"9fa4cf25-874e-4cc1-8548-3e97bed351b1","system_id":"levelo_inurba_marseille","lat":43.30538,"lon":5.38425,"is_reserved":false,"is_disabled":false,"rental_uris":{"android":"levelo://app?vid=9fa4cf25-874e-4cc1-8548-3e97bed351b1","ios":"levelo://app?vid=9fa4cf25-874e-4cc1-8548-3e97bed351b1"},"vehicle_type_id":"4","last_reported":1730372870,"current_range_meters":16000,"station_id":"ce4bgg92rcd13ifvqb30","pricing_plan_id":"cebpf4jnsgd1na2vs0mg"},{"bike_id":"53facf4a-a53f-4009-81d5-6390ac637137","system_id":"levelo_inurba_marseille","lat":43.32487,"lon":5.3656,"is_reserved":false,"is_disabled":false,"rental_uris":{"android":"levelo://app?vid=53facf4a-a53f-4009-81d5-6390ac637137","ios":"levelo://app?vid=53facf4a-a53f-4009-81d5-6390ac637137"},"vehicle_type_id":"4","last_reported":1730372870,"current_range_meters":38400,"station_id":"ce4bhs12rcd13ifvqhvg","pricing_plan_id":"cebpf4jnsgd1na2vs0mg"},{"bike_id":"bb5e11b9-de90-4ada-a4c5-63111ecbb490","system_id":"levelo_inurba_marseille","lat":43.29829,"lon":5.36259,"is_reserved":false,"is_disabled":false,"rental_uris":{"android":"levelo://app?vid=bb5e11b9-de90-4ada-a4c5-63111ecbb490","ios":"levelo://app?vid=bb5e11b9-de90-4ada-a4c5-63111ecbb490"},"vehicle_type_id":"4","last_reported":1730372870,"current_range_meters":38800,"station_id":"ce4bgpp2rcd13ifvqc3g","pricing_plan_id":"cebpf4jnsgd1na2vs0mg"},{"bike_id":"2f986fee-bfda-40ad-85c3-d385265561cf","system_id":"levelo_inurba_marseille","lat":43.24179,"lon":5.39737,"is_reserved":false,"is_disabled":false,"rental_uris":{"android":"levelo://app?vid=2f986fee-bfda-40ad-85c3-d385265561cf","ios":"levelo://app?vid=2f986fee-bfda-40ad-85c3-d385265561cf"},"vehicle_type_id":"4","last_reported":1730372870,"current_range_meters":39200,"station_id":"ce4bhn12rcd13ifvqgpg","pricing_plan_id":"cebpf4jnsgd1na2vs0mg"},{"bike_id":"67b75dc5-76e9-47e8-9f50-b697c520c036","system_id":"levelo_inurba_marseille","lat":43.24667,"lon":5.38155,"is_reserved":false,"is_disabled":false,"rental_uris":{"android":"levelo://app?vid=67b75dc5-76e9-47e8-9f50-b697c520c036","ios":"levelo://app?vid=67b75dc5-76e9-47e8-9f50-b697c520c036"},"vehicle_type_id":"4","last_reported":1730372870,"current_range_meters":34800,"station_id":"ce4bhih2rcd13ifvqfr0","pricing_plan_id":"cebpf4jnsgd1na2vs0mg"},{"bike_id":"0fbf715d-61f3-45e7-9ef4-edd8318318a2","system_id":"levelo_inurba_marseille","lat":43.30146,"lon":5.38079,"is_reserved":false,"is_disabled":false,"rental_uris":{"android":"levelo://app?vid=0fbf715d-61f3-45e7-9ef4-edd8318318a2","ios":"levelo://app?vid=0fbf715d-61f3-45e7-9ef4-edd8318318a2"},"vehicle_type_id":"4","last_reported":1730372870,"current_range_meters":33600,"station_id":"ce4bgjp2rcd13ifvqbh0","pricing_plan_id":"cebpf4jnsgd1na2vs0mg"},{"bike_id":"67172156-3efc-4c78-8f3d-1e217ae56df8","system_id":"levelo_inurba_marseille","lat":43.30123,"lon":5.39854,"is_reserved":false,"is_disabled":false,"rental_uris":{"android":"levelo://app?vid=67172156-3efc-4c78-8f3d-1e217ae56df8","ios":"levelo://app?vid=67172156-3efc-4c78-8f3d-1e217ae56df8"},"vehicle_type_id":"4","last_reported":1730372870,"current_range_meters":33600,"station_id":"ce4bh0h2rcd13ifvqd40","pricing_plan_id":"cebpf4jnsgd1na2vs0mg"},{"bike_id":"d7e28ab2-4595-4b68-928a-11a52f22d0a7","system_id":"levelo_inurba_marseille","lat":43.29973,"lon":5.38487,"is_reserved":false,"is_disabled":false,"rental_uris":{"android":"levelo://app?vid=d7e28ab2-4595-4b68-928a-11a52f22d0a7","ios":"levelo://app?vid=d7e28ab2-4595-4b68-928a-11a52f22d0a7"},"vehicle_type_id":"4","last_reported":1730372870,"current_range_meters":24400,"station_id":"ce4bgj92rcd13ifvqbd0","pricing_plan_id":"cebpf4jnsgd1na2vs0mg"},{"bike_id":"f4bc23dd-56e4-458e-bb59-7a061d35ab05","system_id":"levelo_inurba_marseille","lat":43.27812,"lon":5.40716,"is_reserved":false,"is_disabled":false,"rental_uris":{"android":"levelo://app?vid=f4bc23dd-56e4-458e-bb59-7a061d35ab05","ios":"levelo://app?vid=f4bc23dd-56e4-458e-bb59-7a061d35ab05"},"vehicle_type_id":"4","last_reported":1730372870,"current_range_meters":37600,"station_id":"ce4bhnh2rcd13ifvqgtg","pricing_plan_id":"cebpf4jnsgd1na2vs0mg"},{"bike_id":"5a991495-bfc0-4411-a2d7-97dec39ff12f","system_id":"levelo_inurba_marseille","lat":43.29782,"lon":5.40404,"is_reserved":false,"is_disabled":false,"rental_uris":{"android":"levelo://app?vid=5a991495-bfc0-4411-a2d7-97dec39ff12f","ios":"levelo://app?vid=5a991495-bfc0-4411-a2d7-97dec39ff12f"},"vehicle_type_id":"4","last_reported":1730372870,"current_range_meters":27600,"station_id":"ce4bh112rcd13ifvqd90","pricing_plan_id":"cebpf4jnsgd1na2vs0mg"},{"bike_id":"58588f98-d979-4a89-a14d-d0d4a329cc8e","system_id":"levelo_inurba_marseille","lat":43.268,"lon":5.40259,"is_reserved":false,"is_disabled":false,"rental_uris":{"android":"levelo://app?vid=58588f98-d979-4a89-a14d-d0d4a329cc8e","ios":"levelo://app?vid=58588f98-d979-4a89-a14d-d0d4a329cc8e"},"vehicle_type_id":"4","last_reported":1730372870,"current_range_meters":38800,"station_id":"ce501612rcd8frsf0b60","pricing_plan_id":"cebpf4jnsgd1na2vs0mg"},{"bike_id":"3a1b91f1-7c9b-4ea6-b16b-510a11c89b8e","system_id":"levelo_inurba_marseille","lat":43.29102,"lon":5.38125,"is_reserved":false,"is_disabled":false,"rental_uris":{"android":"levelo://app?vid=3a1b91f1-7c9b-4ea6-b16b-510a11c89b8e","ios":"levelo://app?vid=3a1b91f1-7c9b-4ea6-b16b-510a11c89b8e"},"vehicle_type_id":"4","last_reported":1730372870,"current_range_meters":22400,"station_id":"cjm6bp8fraef2m0cb0m0","pricing_plan_id":"cebpf4jnsgd1na2vs0mg"},{"bike_id":"5ff74640-5d39-40f8-808a-e5695df59fd4","system_id":"levelo_inurba_marseille","lat":43.27185,"lon":5.41018,"is_reserved":false,"is_disabled":false,"rental_uris":{"android":"levelo://app?vid=5ff74640-5d39-40f8-808a-e5695df59fd4","ios":"levelo://app?vid=5ff74640-5d39-40f8-808a-e5695df59fd4"},"vehicle_type_id":"4","last_reported":1730372870,"current_range_meters":8400,"station_id":"ce4bhl12rcd13ifvqgf0","pricing_plan_id":"cebpf4jnsgd1na2vs0mg"},{"bike_id":"84e2b042-2c79-4878-a2d2-5d6cd154cfca","system_id":"levelo_inurba_marseille","lat":43.28421,"lon":5.34989,"is_reserved":false,"is_disabled":false,"rental_uris":{"android":"levelo://app?vid=84e2b042-2c79-4878-a2d2-5d6cd154cfca","ios":"levelo://app?vid=84e2b042-2c79-4878-a2d2-5d6cd154cfca"},"vehicle_type_id":"4","last_reported":1730372870,"current_range_meters":28800,"station_id":"ce4bhbh2rcd13ifvqepg","pricing_plan_id":"cebpf4jnsgd1na2vs0mg"},{"bike_id":"d4829a7e-16fe-4e76-9a47-d409e1283694","system_id":"levelo_inurba_marseille","lat":43.25719,"lon":5.4111,"is_reserved":false,"is_disabled":false,"rental_uris":{"android":"levelo://app?vid=d4829a7e-16fe-4e76-9a47-d409e1283694","ios":"levelo://app?vid=d4829a7e-16fe-4e76-9a47-d409e1283694"},"vehicle_type_id":"4","last_reported":1730372870,"current_range_meters":19600,"station_id":"ce4bhkp2rcd13ifvqgd0","pricing_plan_id":"cebpf4jnsgd1na2vs0mg"},{"bike_id":"6f300d83-3587-4671-9183-1ad5ec3e0ba6","system_id":"levelo_inurba_marseille","lat":43.30798,"lon":5.43524,"is_reserved":false,"is_disabled":false,"rental_uris":{"android":"levelo://app?vid=6f300d83-3587-4671-9183-1ad5ec3e0ba6","ios":"levelo://app?vid=6f300d83-3587-4671-9183-1ad5ec3e0ba6"},"vehicle_type_id":"4","last_reported":1730372870,"current_range_meters":27600,"station_id":"ce4bhph2rcd13ifvqheg","pricing_plan_id":"cebpf4jnsgd1na2vs0mg"},{"bike_id":"8174d648-eff1-41d4-b5d8-7b28c7c08b17","system_id":"levelo_inurba_marseille","lat":43.26952,"lon":5.38628,"is_reserved":false,"is_disabled":false,"rental_uris":{"android":"levelo://app?vid=8174d648-eff1-41d4-b5d8-7b28c7c08b17","ios":"levelo://app?vid=8174d648-eff1-41d4-b5d8-7b28c7c08b17"},"vehicle_type_id":"4","last_reported":1730372870,"current_range_meters":20000,"station_id":"ce4bhh92rcd13ifvqfh0","pricing_plan_id":"cebpf4jnsgd1na2vs0mg"},{"bike_id":"e5a97ed2-e11a-4d4a-b37d-458d8f707b32","system_id":"levelo_inurba_marseille","lat":43.28456,"lon":5.35892,"is_reserved":false,"is_disabled":false,"rental_uris":{"android":"levelo://app?vid=e5a97ed2-e11a-4d4a-b37d-458d8f707b32","ios":"levelo://app?vid=e5a97ed2-e11a-4d4a-b37d-458d8f707b32"},"vehicle_type_id":"4","last_reported":1730372870,"current_range_meters":19600,"station_id":"ce4bhah2rcd13ifvqei0","pricing_plan_id":"cebpf4jnsgd1na2vs0mg"},{"bike_id":"0a63987f-2ca0-40cf-af4a-1f56f44273dd","system_id":"levelo_inurba_marseille","lat":43.29554,"lon":5.42293,"is_reserved":false,"is_disabled":false,"rental_uris":{"android":"levelo://app?vid=0a63987f-2ca0-40cf-af4a-1f56f44273dd","ios":"levelo://app?vid=0a63987f-2ca0-40cf-af4a-1f56f44273dd"},"vehicle_type_id":"4","last_reported":1730372870,"current_range_meters":32800,"station_id":"ce4bhph2rcd13ifvqhdg","pricing_plan_id":"cebpf4jnsgd1na2vs0mg"},{"bike_id":"654e6c85-c7a0-4fba-b228-17b6bfa33ba6","system_id":"levelo_inurba_marseille","lat":43.24173,"lon":5.39719,"is_reserved":false,"is_disabled":false,"rental_uris":{"android":"levelo://app?vid=654e6c85-c7a0-4fba-b228-17b6bfa33ba6","ios":"levelo://app?vid=654e6c85-c7a0-4fba-b228-17b6bfa33ba6"},"vehicle_type_id":"4","last_reported":1730372870,"current_range_meters":4400,"station_id":"ce4bhn12rcd13ifvqgpg","pricing_plan_id":"cebpf4jnsgd1na2vs0mg"},{"bike_id":"a1f14d84-7d99-4674-8082-3d3ddd45c851","system_id":"levelo_inurba_marseille","lat":43.24386,"lon":5.37052,"is_reserved":false,"is_disabled":false,"rental_uris":{"android":"levelo://app?vid=a1f14d84-7d99-4674-8082-3d3ddd45c851","ios":"levelo://app?vid=a1f14d84-7d99-4674-8082-3d3ddd45c851"},"vehicle_type_id":"4","last_reported":1730372870,"current_range_meters":24400,"station_id":"ce4bhhh2rcd13ifvqfk0","pricing_plan_id":"cebpf4jnsgd1na2vs0mg"},{"bike_id":"3998c2d7-91a5-4d44-9a9a-9052ff445560","system_id":"levelo_inurba_marseille","lat":43.3055,"lon":5.36524,"is_reserved":false,"is_disabled":false,"rental_uris":{"android":"levelo://app?vid=3998c2d7-91a5-4d44-9a9a-9052ff445560","ios":"levelo://app?vid=3998c2d7-91a5-4d44-9a9a-9052ff445560"},"vehicle_type_id":"4","last_reported":1730372870,"current_range_meters":17600,"station_id":"ce4bgs12rcd13ifvqcag","pricing_plan_id":"cebpf4jnsgd1na2vs0mg"},{"bike_id":"cc43bf4d-496d-47ec-aa99-164bc1536ac8","system_id":"levelo_inurba_marseille","lat":43.24998,"lon":5.38932,"is_reserved":false,"is_disabled":false,"rental_uris":{"android":"levelo://app?vid=cc43bf4d-496d-47ec-aa99-164bc1536ac8","ios":"levelo://app?vid=cc43bf4d-496d-47ec-aa99-164bc1536ac8"},"vehicle_type_id":"4","last_reported":1730372870,"current_range_meters":33200,"station_id":"ce4bhgp2rcd13ifvqfd0","pricing_plan_id":"cebpf4jnsgd1na2vs0mg"},{"bike_id":"5e3e5e15-a26a-4370-a4d7-22b0461d60e4","system_id":"levelo_inurba_marseille","lat":43.31989,"lon":5.38141,"is_reserved":false,"is_disabled":false,"rental_uris":{"android":"levelo://app?vid=5e3e5e15-a26a-4370-a4d7-22b0461d60e4","ios":"levelo://app?vid=5e3e5e15-a26a-4370-a4d7-22b0461d60e4"},"vehicle_type_id":"4","last_reported":1730372870,"current_range_meters":38800,"station_id":"ce4bhr12rcd13ifvqhpg","pricing_plan_id":"cebpf4jnsgd1na2vs0mg"},{"bike_id":"c7b6fdee-7375-4c64-a86a-2176ea24f983","system_id":"levelo_inurba_marseille","lat":43.26026,"lon":5.37545,"is_reserved":false,"is_disabled":false,"rental_uris":{"android":"levelo://app?vid=c7b6fdee-7375-4c64-a86a-2176ea24f983","ios":"levelo://app?vid=c7b6fdee-7375-4c64-a86a-2176ea24f983"},"vehicle_type_id":"4","last_reported":1730372870,"current_range_meters":38800,"station_id":"ce4bhgh2rcd13ifvqfa0","pricing_plan_id":"cebpf4jnsgd1na2vs0mg"},{"bike_id":"3271d7f6-0f65-475f-8b65-c5efde785335","system_id":"levelo_inurba_marseille","lat":43.23197,"lon":5.35543,"is_reserved":false,"is_disabled":false,"rental_uris":{"android":"levelo://app?vid=3271d7f6-0f65-475f-8b65-c5efde785335","ios":"levelo://app?vid=3271d7f6-0f65-475f-8b65-c5efde785335"},"vehicle_type_id":"4","last_reported":1730372870,"current_range_meters":36000,"station_id":"ce4bhu92rcd13ifvqi70","pricing_plan_id":"cebpf4jnsgd1na2vs0mg"},{"bike_id":"5b79cbd9-c77e-4f09-8b4e-f7a7b2853d5f","system_id":"levelo_inurba_marseille","lat":43.29285,"lon":5.40116,"is_reserved":false,"is_disabled":false,"rental_uris":{"android":"levelo://app?vid=5b79cbd9-c77e-4f09-8b4e-f7a7b2853d5f","ios":"levelo://app?vid=5b79cbd9-c77e-4f09-8b4e-f7a7b2853d5f"},"vehicle_type_id":"4","last_reported":1730372870,"current_range_meters":11200,"station_id":"ce4bh312rcd13ifvqdk0","pricing_plan_id":"cebpf4jnsgd1na2vs0mg"},{"bike_id":"f82d6e99-2d3a-47e6-a97a-feadb35dd14a","system_id":"levelo_inurba_marseille","lat":43.29566,"lon":5.37492,"is_reserved":false,"is_disabled":false,"rental_uris":{"android":"levelo://app?vid=f82d6e99-2d3a-47e6-a97a-feadb35dd14a","ios":"levelo://app?vid=f82d6e99-2d3a-47e6-a97a-feadb35dd14a"},"vehicle_type_id":"4","last_reported":1730372870,"current_range_meters":36800,"station_id":"ce4bgh92rcd13ifvqb50","pricing_plan_id":"cebpf4jnsgd1na2vs0mg"},{"bike_id":"955d71ec-3346-4f99-b1c9-b93efca53e2c","system_id":"levelo_inurba_marseille","lat":43.276149,"lon":5.361051,"is_reserved":false,"is_disabled":false,"rental_uris":{"android":"levelo://app?vid=955d71ec-3346-4f99-b1c9-b93efca53e2c","ios":"levelo://app?vid=955d71ec-3346-4f99-b1c9-b93efca53e2c"},"vehicle_type_id":"4","last_reported":1730372870,"current_range_meters":28800,"station_id":"ce4bgj92rcd13ifvqbe0","pricing_plan_id":"cebpf4jnsgd1na2vs0mg"},{"bike_id":"f99547b6-e0b7-4a86-b4bb-f600f8ca5cb2","system_id":"levelo_inurba_marseille","lat":43.24168,"lon":5.36401,"is_reserved":false,"is_disabled":false,"rental_uris":{"android":"levelo://app?vid=f99547b6-e0b7-4a86-b4bb-f600f8ca5cb2","ios":"levelo://app?vid=f99547b6-e0b7-4a86-b4bb-f600f8ca5cb2"},"vehicle_type_id":"4","last_reported":1730372870,"current_range_meters":11200,"station_id":"cpo36qri1sfpv3e86is0","pricing_plan_id":"cebpf4jnsgd1na2vs0mg"},{"bike_id":"e102b7c5-a4ed-4645-b11f-4d05e39a0ce4","system_id":"levelo_inurba_marseille","lat":43.32371,"lon":5.38877,"is_reserved":false,"is_disabled":false,"rental_uris":{"android":"levelo://app?vid=e102b7c5-a4ed-4645-b11f-4d05e39a0ce4","ios":"levelo://app?vid=e102b7c5-a4ed-4645-b11f-4d05e39a0ce4"},"vehicle_type_id":"4","last_reported":1730372870,"current_range_meters":19600,"station_id":"ce4bhqp2rcd13ifvqhog","pricing_plan_id":"cebpf4jnsgd1na2vs0mg"},{"bike_id":"80092705-4989-4e56-ac2b-d582d70f3c41","system_id":"levelo_inurba_marseille","lat":43.30776,"lon":5.37654,"is_reserved":false,"is_disabled":false,"rental_uris":{"android":"levelo://app?vid=80092705-4989-4e56-ac2b-d582d70f3c41","ios":"levelo://app?vid=80092705-4989-4e56-ac2b-d582d70f3c41"},"vehicle_type_id":"4","last_reported":1730372870,"current_range_meters":19200,"station_id":"ce4bgv92rcd13ifvqcq0","pricing_plan_id":"cebpf4jnsgd1na2vs0mg"},{"bike_id":"0ecf41f2-a50c-49c7-a8f3-5be5dbcd6c6a","system_id":"levelo_inurba_marseille","lat":43.25574,"lon":5.38234,"is_reserved":false,"is_disabled":false,"rental_uris":{"android":"levelo://app?vid=0ecf41f2-a50c-49c7-a8f3-5be5dbcd6c6a","ios":"levelo://app?vid=0ecf41f2-a50c-49c7-a8f3-5be5dbcd6c6a"},"vehicle_type_id":"4","last_reported":1730372870,"current_range_meters":26800,"station_id":"ce4bhih2rcd13ifvqfs0","pricing_plan_id":"cebpf4jnsgd1na2vs0mg"},{"bike_id":"5c194102-4e0b-495f-894d-638c3c2a6312","system_id":"levelo_inurba_marseille","lat":43.30179,"lon":5.37435,"is_reserved":false,"is_disabled":false,"rental_uris":{"android":"levelo://app?vid=5c194102-4e0b-495f-894d-638c3c2a6312","ios":"levelo://app?vid=5c194102-4e0b-495f-894d-638c3c2a6312"},"vehicle_type_id":"4","last_reported":1730372870,"current_range_meters":2800,"station_id":"ce4bgs92rcd13ifvqcc0","pricing_plan_id":"cebpf4jnsgd1na2vs0mg"},{"bike_id":"72e37474-1bc8-4568-aec8-ce5464e6b828","system_id":"levelo_inurba_marseille","lat":43.2319,"lon":5.3555,"is_reserved":false,"is_disabled":false,"rental_uris":{"android":"levelo://app?vid=72e37474-1bc8-4568-aec8-ce5464e6b828","ios":"levelo://app?vid=72e37474-1bc8-4568-aec8-ce5464e6b828"},"vehicle_type_id":"4","last_reported":1730372870,"current_range_meters":24800,"station_id":"ce4bhu92rcd13ifvqi70","pricing_plan_id":"cebpf4jnsgd1na2vs0mg"},{"bike_id":"11f859a2-c8b9-4f5d-8883-d6b3873991ed","system_id":"levelo_inurba_marseille","lat":43.30143,"lon":5.3806,"is_reserved":false,"is_disabled":false,"rental_uris":{"android":"levelo://app?vid=11f859a2-c8b9-4f5d-8883-d6b3873991ed","ios":"levelo://app?vid=11f859a2-c8b9-4f5d-8883-d6b3873991ed"},"vehicle_type_id":"4","last_reported":1730372870,"current_range_meters":20800,"station_id":"ce4bgjp2rcd13ifvqbh0","pricing_plan_id":"cebpf4jnsgd1na2vs0mg"},{"bike_id":"1205d633-4986-4c67-9432-2d423a89c40d","system_id":"levelo_inurba_marseille","lat":43.27172,"lon":5.4099,"is_reserved":false,"is_disabled":false,"rental_uris":{"android":"levelo://app?vid=1205d633-4986-4c67-9432-2d423a89c40d","ios":"levelo://app?vid=1205d633-4986-4c67-9432-2d423a89c40d"},"vehicle_type_id":"4","last_reported":1730372870,"current_range_meters":35200,"station_id":"ce4bhl12rcd13ifvqgf0","pricing_plan_id":"cebpf4jnsgd1na2vs0mg"},{"bike_id":"caebbcd3-809e-4610-b16f-dadff6c64a44","system_id":"levelo_inurba_marseille","lat":43.29598,"lon":5.37724,"is_reserved":false,"is_disabled":false,"rental_uris":{"android":"levelo://app?vid=caebbcd3-809e-4610-b16f-dadff6c64a44","ios":"levelo://app?vid=caebbcd3-809e-4610-b16f-dadff6c64a44"},"vehicle_type_id":"4","last_reported":1730372870,"current_range_meters":31200,"station_id":"ce4bgi92rcd13ifvqb90","pricing_plan_id":"cebpf4jnsgd1na2vs0mg"},{"bike_id":"88dc58c8-a632-450d-98e1-c0f672ee9cc5","system_id":"levelo_inurba_marseille","lat":43.24386,"lon":5.37048,"is_reserved":false,"is_disabled":false,"rental_uris":{"android":"levelo://app?vid=88dc58c8-a632-450d-98e1-c0f672ee9cc5","ios":"levelo://app?vid=88dc58c8-a632-450d-98e1-c0f672ee9cc5"},"vehicle_type_id":"4","last_reported":1730372870,"current_range_meters":36800,"station_id":"ce4bhhh2rcd13ifvqfk0","pricing_plan_id":"cebpf4jnsgd1na2vs0mg"},{"bike_id":"54d2e7c1-0997-4e85-b497-01eca9eb4f00","system_id":"levelo_inurba_marseille","lat":43.23197,"lon":5.35542,"is_reserved":false,"is_disabled":false,"rental_uris":{"android":"levelo://app?vid=54d2e7c1-0997-4e85-b497-01eca9eb4f00","ios":"levelo://app?vid=54d2e7c1-0997-4e85-b497-01eca9eb4f00"},"vehicle_type_id":"4","last_reported":1730372870,"current_range_meters":9600,"station_id":"ce4bhu92rcd13ifvqi70","pricing_plan_id":"cebpf4jnsgd1na2vs0mg"},{"bike_id":"03a568f6-414d-4d28-9207-f96676ac1d4f","system_id":"levelo_inurba_marseille","lat":43.2418,"lon":5.39727,"is_reserved":false,"is_disabled":false,"rental_uris":{"android":"levelo://app?vid=03a568f6-414d-4d28-9207-f96676ac1d4f","ios":"levelo://app?vid=03a568f6-414d-4d28-9207-f96676ac1d4f"},"vehicle_type_id":"4","last_reported":1730372870,"current_range_meters":37600,"station_id":"ce4bhn12rcd13ifvqgpg","pricing_plan_id":"cebpf4jnsgd1na2vs0mg"},{"bike_id":"c843d4b3-e307-4a3f-9b6d-4ef36e881079","system_id":"levelo_inurba_marseille","lat":43.24068,"lon":5.3776,"is_reserved":false,"is_disabled":false,"rental_uris":{"android":"levelo://app?vid=c843d4b3-e307-4a3f-9b6d-4ef36e881079","ios":"levelo://app?vid=c843d4b3-e307-4a3f-9b6d-4ef36e881079"},"vehicle_type_id":"4","last_reported":1730372870,"current_range_meters":28000,"station_id":"ce4bhnp2rcd13ifvqgvg","pricing_plan_id":"cebpf4jnsgd1na2vs0mg"},{"bike_id":"87590ba3-c891-4a98-b240-a5bcb40b57cc","system_id":"levelo_inurba_marseille","lat":43.29931,"lon":5.36546,"is_reserved":false,"is_disabled":false,"rental_uris":{"android":"levelo://app?vid=87590ba3-c891-4a98-b240-a5bcb40b57cc","ios":"levelo://app?vid=87590ba3-c891-4a98-b240-a5bcb40b57cc"},"vehicle_type_id":"4","last_reported":1730372870,"current_range_meters":14000,"station_id":"ce4bgm92rcd13ifvqbr0","pricing_plan_id":"cebpf4jnsgd1na2vs0mg"},{"bike_id":"f3057238-5f59-4f12-8ea2-4111c268a7b1","system_id":"levelo_inurba_marseille","lat":43.29164,"lon":5.37157,"is_reserved":false,"is_disabled":false,"rental_uris":{"android":"levelo://app?vid=f3057238-5f59-4f12-8ea2-4111c268a7b1","ios":"levelo://app?vid=f3057238-5f59-4f12-8ea2-4111c268a7b1"},"vehicle_type_id":"4","last_reported":1730372870,"current_range_meters":27600,"station_id":"ce4bha92rcd13ifvqeh0","pricing_plan_id":"cebpf4jnsgd1na2vs0mg"},{"bike_id":"cef6c275-2daa-4dbb-b6da-851fac4a946e","system_id":"levelo_inurba_marseille","lat":43.28269,"lon":5.35055,"is_reserved":false,"is_disabled":false,"rental_uris":{"android":"levelo://app?vid=cef6c275-2daa-4dbb-b6da-851fac4a946e","ios":"levelo://app?vid=cef6c275-2daa-4dbb-b6da-851fac4a946e"},"vehicle_type_id":"4","last_reported":1730372870,"current_range_meters":32000,"station_id":"ce4bhbp2rcd13ifvqerg","pricing_plan_id":"cebpf4jnsgd1na2vs0mg"},{"bike_id":"d6419497-db25-46dc-9b09-80b762d6c261","system_id":"levelo_inurba_marseille","lat":43.29968,"lon":5.38497,"is_reserved":false,"is_disabled":false,"rental_uris":{"android":"levelo://app?vid=d6419497-db25-46dc-9b09-80b762d6c261","ios":"levelo://app?vid=d6419497-db25-46dc-9b09-80b762d6c261"},"vehicle_type_id":"4","last_reported":1730372870,"current_range_meters":36400,"station_id":"ce4bgj92rcd13ifvqbd0","pricing_plan_id":"cebpf4jnsgd1na2vs0mg"},{"bike_id":"91d99e26-3ee8-42a5-a51d-70843fb133ad","system_id":"levelo_inurba_marseille","lat":43.26949,"lon":5.38639,"is_reserved":false,"is_disabled":false,"rental_uris":{"android":"levelo://app?vid=91d99e26-3ee8-42a5-a51d-70843fb133ad","ios":"levelo://app?vid=91d99e26-3ee8-42a5-a51d-70843fb133ad"},"vehicle_type_id":"4","last_reported":1730372870,"current_range_meters":22000,"station_id":"ce4bhh92rcd13ifvqfh0","pricing_plan_id":"cebpf4jnsgd1na2vs0mg"},{"bike_id":"2f7244e8-43bb-49f1-8188-9aa5df428287","system_id":"levelo_inurba_marseille","lat":43.29273,"lon":5.40116,"is_reserved":false,"is_disabled":false,"rental_uris":{"android":"levelo://app?vid=2f7244e8-43bb-49f1-8188-9aa5df428287","ios":"levelo://app?vid=2f7244e8-43bb-49f1-8188-9aa5df428287"},"vehicle_type_id":"4","last_reported":1730372870,"current_range_meters":36800,"station_id":"ce4bh312rcd13ifvqdk0","pricing_plan_id":"cebpf4jnsgd1na2vs0mg"},{"bike_id":"67dd0412-c0dc-4b0f-9a4a-dfb180f6a2ef","system_id":"levelo_inurba_marseille","lat":43.30201,"lon":5.36612,"is_reserved":false,"is_disabled":false,"rental_uris":{"android":"levelo://app?vid=67dd0412-c0dc-4b0f-9a4a-dfb180f6a2ef","ios":"levelo://app?vid=67dd0412-c0dc-4b0f-9a4a-dfb180f6a2ef"},"vehicle_type_id":"4","last_reported":1730372870,"current_range_meters":35600,"station_id":"ce4bgrh2rcd13ifvqc8g","pricing_plan_id":"cebpf4jnsgd1na2vs0mg"},{"bike_id":"599c12af-31ce-4939-9aab-8ddc8b83f75b","system_id":"levelo_inurba_marseille","lat":43.29591,"lon":5.38099,"is_reserved":false,"is_disabled":false,"rental_uris":{"android":"levelo://app?vid=599c12af-31ce-4939-9aab-8ddc8b83f75b","ios":"levelo://app?vid=599c12af-31ce-4939-9aab-8ddc8b83f75b"},"vehicle_type_id":"4","last_reported":1730372870,"current_range_meters":37600,"station_id":"ce4bgl12rcd13ifvqbo0","pricing_plan_id":"cebpf4jnsgd1na2vs0mg"},{"bike_id":"cbd6e71b-da90-49a9-852e-9e6ceb2a79ce","system_id":"levelo_inurba_marseille","lat":43.2318,"lon":5.39981,"is_reserved":false,"is_disabled":false,"rental_uris":{"android":"levelo://app?vid=cbd6e71b-da90-49a9-852e-9e6ceb2a79ce","ios":"levelo://app?vid=cbd6e71b-da90-49a9-852e-9e6ceb2a79ce"},"vehicle_type_id":"4","last_reported":1730372870,"current_range_meters":38800,"station_id":"ce4bhn12rcd13ifvqgqg","pricing_plan_id":"cebpf4jnsgd1na2vs0mg"},{"bike_id":"eba47b43-c45d-4ae4-bc95-5c2ae0e17b2f","system_id":"levelo_inurba_marseille","lat":43.26491,"lon":5.39536,"is_reserved":false,"is_disabled":false,"rental_uris":{"android":"levelo://app?vid=eba47b43-c45d-4ae4-bc95-5c2ae0e17b2f","ios":"levelo://app?vid=eba47b43-c45d-4ae4-bc95-5c2ae0e17b2f"},"vehicle_type_id":"4","last_reported":1730372870,"current_range_meters":5600,"station_id":"ce4bhi12rcd13ifvqfq0","pricing_plan_id":"cebpf4jnsgd1na2vs0mg"},{"bike_id":"b503c5a4-0789-4753-98eb-4d5bd5fe28a7","system_id":"levelo_inurba_marseille","lat":43.30531,"lon":5.36697,"is_reserved":false,"is_disabled":false,"rental_uris":{"android":"levelo://app?vid=b503c5a4-0789-4753-98eb-4d5bd5fe28a7","ios":"levelo://app?vid=b503c5a4-0789-4753-98eb-4d5bd5fe28a7"},"vehicle_type_id":"4","last_reported":1730372870,"current_range_meters":38800,"station_id":"ce4bgrp2rcd13ifvqc9g","pricing_plan_id":"cebpf4jnsgd1na2vs0mg"},{"bike_id":"83d02727-84c5-4b32-8ff7-5349f20c93dd","system_id":"levelo_inurba_marseille","lat":43.33745,"lon":5.37462,"is_reserved":false,"is_disabled":false,"rental_uris":{"android":"levelo://app?vid=83d02727-84c5-4b32-8ff7-5349f20c93dd","ios":"levelo://app?vid=83d02727-84c5-4b32-8ff7-5349f20c93dd"},"vehicle_type_id":"4","last_reported":1730372870,"current_range_meters":35200,"station_id":"","pricing_plan_id":"cebpf4jnsgd1na2vs0mg"},{"bike_id":"ec887f96-3e7c-4cc5-bffc-e14c99385849","system_id":"levelo_inurba_marseille","lat":43.32105,"lon":5.36767,"is_reserved":false,"is_disabled":false,"rental_uris":{"android":"levelo://app?vid=ec887f96-3e7c-4cc5-bffc-e14c99385849","ios":"levelo://app?vid=ec887f96-3e7c-4cc5-bffc-e14c99385849"},"vehicle_type_id":"4","last_reported":1730372870,"current_range_meters":9600,"station_id":"ce4bhrh2rcd13ifvqhug","pricing_plan_id":"cebpf4jnsgd1na2vs0mg"},{"bike_id":"ef84f4b6-01b2-4a53-bdf2-0d57923d3ba7","system_id":"levelo_inurba_marseille","lat":43.28152,"lon":5.42648,"is_reserved":false,"is_disabled":false,"rental_uris":{"android":"levelo://app?vid=ef84f4b6-01b2-4a53-bdf2-0d57923d3ba7","ios":"levelo://app?vid=ef84f4b6-01b2-4a53-bdf2-0d57923d3ba7"},"vehicle_type_id":"4","last_reported":1730372870,"current_range_meters":38800,"station_id":"ce4bhnh2rcd13ifvqgug","pricing_plan_id":"cebpf4jnsgd1na2vs0mg"},{"bike_id":"1995d42f-9bb2-423e-a419-1706f5fab24e","system_id":"levelo_inurba_marseille","lat":43.27073,"lon":5.42275,"is_reserved":false,"is_disabled":false,"rental_uris":{"android":"levelo://app?vid=1995d42f-9bb2-423e-a419-1706f5fab24e","ios":"levelo://app?vid=1995d42f-9bb2-423e-a419-1706f5fab24e"},"vehicle_type_id":"4","last_reported":1730372870,"current_range_meters":28800,"station_id":"ce4bhk92rcd13ifvqgb0","pricing_plan_id":"cebpf4jnsgd1na2vs0mg"},{"bike_id":"d75a5f39-6d7e-41fe-bdc2-13c4c09528e6","system_id":"levelo_inurba_marseille","lat":43.23178,"lon":5.39986,"is_reserved":false,"is_disabled":false,"rental_uris":{"android":"levelo://app?vid=d75a5f39-6d7e-41fe-bdc2-13c4c09528e6","ios":"levelo://app?vid=d75a5f39-6d7e-41fe-bdc2-13c4c09528e6"},"vehicle_type_id":"4","last_reported":1730372870,"current_range_meters":39200,"station_id":"ce4bhn12rcd13ifvqgqg","pricing_plan_id":"cebpf4jnsgd1na2vs0mg"},{"bike_id":"be4cec61-2fbe-4c41-bc8f-6cef6f495468","system_id":"levelo_inurba_marseille","lat":43.31332,"lon":5.39697,"is_reserved":false,"is_disabled":false,"rental_uris":{"android":"levelo://app?vid=be4cec61-2fbe-4c41-bc8f-6cef6f495468","ios":"levelo://app?vid=be4cec61-2fbe-4c41-bc8f-6cef6f495468"},"vehicle_type_id":"4","last_reported":1730372870,"current_range_meters":37600,"station_id":"ce4bgvp2rcd13ifvqcu0","pricing_plan_id":"cebpf4jnsgd1na2vs0mg"},{"bike_id":"7f38d3bd-ce37-4bda-8700-bbd15f79f69f","system_id":"levelo_inurba_marseille","lat":43.25578,"lon":5.38233,"is_reserved":false,"is_disabled":false,"rental_uris":{"android":"levelo://app?vid=7f38d3bd-ce37-4bda-8700-bbd15f79f69f","ios":"levelo://app?vid=7f38d3bd-ce37-4bda-8700-bbd15f79f69f"},"vehicle_type_id":"4","last_reported":1730372870,"current_range_meters":17600,"station_id":"ce4bhih2rcd13ifvqfs0","pricing_plan_id":"cebpf4jnsgd1na2vs0mg"},{"bike_id":"f5a483d5-657f-4501-a808-01db012d3a39","system_id":"levelo_inurba_marseille","lat":43.296277,"lon":5.377036,"is_reserved":false,"is_disabled":false,"rental_uris":{"android":"levelo://app?vid=f5a483d5-657f-4501-a808-01db012d3a39","ios":"levelo://app?vid=f5a483d5-657f-4501-a808-01db012d3a39"},"vehicle_type_id":"4","last_reported":1730372870,"current_range_meters":38400,"station_id":"ce4bgi92rcd13ifvqb90","pricing_plan_id":"cebpf4jnsgd1na2vs0mg"},{"bike_id":"9aa45e72-b609-4231-ae92-d1560a1f1b21","system_id":"levelo_inurba_marseille","lat":43.27208,"lon":5.39184,"is_reserved":false,"is_disabled":false,"rental_uris":{"android":"levelo://app?vid=9aa45e72-b609-4231-ae92-d1560a1f1b21","ios":"levelo://app?vid=9aa45e72-b609-4231-ae92-d1560a1f1b21"},"vehicle_type_id":"4","last_reported":1730372870,"current_range_meters":20400,"station_id":"ce4bhhp2rcd13ifvqfm0","pricing_plan_id":"cebpf4jnsgd1na2vs0mg"},{"bike_id":"94279a57-03c0-47b7-abe3-7226e86fd3b0","system_id":"levelo_inurba_marseille","lat":43.27612,"lon":5.36101,"is_reserved":false,"is_disabled":false,"rental_uris":{"android":"levelo://app?vid=94279a57-03c0-47b7-abe3-7226e86fd3b0","ios":"levelo://app?vid=94279a57-03c0-47b7-abe3-7226e86fd3b0"},"vehicle_type_id":"4","last_reported":1730372870,"current_range_meters":32400,"station_id":"ce4bgj92rcd13ifvqbe0","pricing_plan_id":"cebpf4jnsgd1na2vs0mg"},{"bike_id":"1ace14c5-1992-46b1-87cf-4a1d3c62f592","system_id":"levelo_inurba_marseille","lat":43.28154,"lon":5.42643,"is_reserved":false,"is_disabled":false,"rental_uris":{"android":"levelo://app?vid=1ace14c5-1992-46b1-87cf-4a1d3c62f592","ios":"levelo://app?vid=1ace14c5-1992-46b1-87cf-4a1d3c62f592"},"vehicle_type_id":"4","last_reported":1730372870,"current_range_meters":16800,"station_id":"ce4bhnh2rcd13ifvqgug","pricing_plan_id":"cebpf4jnsgd1na2vs0mg"},{"bike_id":"d57a1092-3bd9-4874-b509-2b8a74c2ad8c","system_id":"levelo_inurba_marseille","lat":43.33107,"lon":5.38223,"is_reserved":false,"is_disabled":false,"rental_uris":{"android":"levelo://app?vid=d57a1092-3bd9-4874-b509-2b8a74c2ad8c","ios":"levelo://app?vid=d57a1092-3bd9-4874-b509-2b8a74c2ad8c"},"vehicle_type_id":"4","last_reported":1730372870,"current_range_meters":26000,"station_id":"","pricing_plan_id":"cebpf4jnsgd1na2vs0mg"},{"bike_id":"03bacc89-f3a3-45cb-bde7-3fd629a3da93","system_id":"levelo_inurba_marseille","lat":43.30429,"lon":5.39743,"is_reserved":false,"is_disabled":false,"rental_uris":{"android":"levelo://app?vid=03bacc89-f3a3-45cb-bde7-3fd629a3da93","ios":"levelo://app?vid=03bacc89-f3a3-45cb-bde7-3fd629a3da93"},"vehicle_type_id":"4","last_reported":1730372870,"current_range_meters":38000,"station_id":"ce4bh092rcd13ifvqd20","pricing_plan_id":"cebpf4jnsgd1na2vs0mg"},{"bike_id":"5718c92a-0530-44e6-bf01-c211fba0223b","system_id":"levelo_inurba_marseille","lat":43.29608,"lon":5.37719,"is_reserved":false,"is_disabled":false,"rental_uris":{"android":"levelo://app?vid=5718c92a-0530-44e6-bf01-c211fba0223b","ios":"levelo://app?vid=5718c92a-0530-44e6-bf01-c211fba0223b"},"vehicle_type_id":"4","last_reported":1730372870,"current_range_meters":30000,"station_id":"ce4bgi92rcd13ifvqb90","pricing_plan_id":"cebpf4jnsgd1na2vs0mg"},{"bike_id":"365a4305-5de4-47e5-9e89-03813707d1d2","system_id":"levelo_inurba_marseille","lat":43.30541,"lon":5.36556,"is_reserved":false,"is_disabled":false,"rental_uris":{"android":"levelo://app?vid=365a4305-5de4-47e5-9e89-03813707d1d2","ios":"levelo://app?vid=365a4305-5de4-47e5-9e89-03813707d1d2"},"vehicle_type_id":"4","last_reported":1730372870,"current_range_meters":30000,"station_id":"ce4bgs12rcd13ifvqcag","pricing_plan_id":"cebpf4jnsgd1na2vs0mg"},{"bike_id":"299f132d-0ca6-4ad3-8e4f-9652bb7a147e","system_id":"levelo_inurba_marseille","lat":43.29032,"lon":5.37556,"is_reserved":false,"is_disabled":false,"rental_uris":{"android":"levelo://app?vid=299f132d-0ca6-4ad3-8e4f-9652bb7a147e","ios":"levelo://app?vid=299f132d-0ca6-4ad3-8e4f-9652bb7a147e"},"vehicle_type_id":"4","last_reported":1730372870,"current_range_meters":34800,"station_id":"ce4bh692rcd13ifvqe90","pricing_plan_id":"cebpf4jnsgd1na2vs0mg"},{"bike_id":"0e6dd02c-46ea-478c-9dc6-e1b5bd3823e1","system_id":"levelo_inurba_marseille","lat":43.30127,"lon":5.37419,"is_reserved":false,"is_disabled":false,"rental_uris":{"android":"levelo://app?vid=0e6dd02c-46ea-478c-9dc6-e1b5bd3823e1","ios":"levelo://app?vid=0e6dd02c-46ea-478c-9dc6-e1b5bd3823e1"},"vehicle_type_id":"4","last_reported":1730372870,"current_range_meters":39200,"station_id":"ce4bgs92rcd13ifvqcc0","pricing_plan_id":"cebpf4jnsgd1na2vs0mg"},{"bike_id":"f7f1d501-2807-4b39-89c8-f6a3d9d084d6","system_id":"levelo_inurba_marseille","lat":43.29098,"lon":5.38124,"is_reserved":false,"is_disabled":false,"rental_uris":{"android":"levelo://app?vid=f7f1d501-2807-4b39-89c8-f6a3d9d084d6","ios":"levelo://app?vid=f7f1d501-2807-4b39-89c8-f6a3d9d084d6"},"vehicle_type_id":"4","last_reported":1730372870,"current_range_meters":38800,"station_id":"ce4bh512rcd13ifvqe2g","pricing_plan_id":"cebpf4jnsgd1na2vs0mg"},{"bike_id":"33d7239f-73a3-4ee6-886d-d4f39be7304a","system_id":"levelo_inurba_marseille","lat":43.31815,"lon":5.37424,"is_reserved":false,"is_disabled":false,"rental_uris":{"android":"levelo://app?vid=33d7239f-73a3-4ee6-886d-d4f39be7304a","ios":"levelo://app?vid=33d7239f-73a3-4ee6-886d-d4f39be7304a"},"vehicle_type_id":"4","last_reported":1730372870,"current_range_meters":15200,"station_id":"","pricing_plan_id":"cebpf4jnsgd1na2vs0mg"},{"bike_id":"d2e0efbb-61ff-424a-9cde-183324d21273","system_id":"levelo_inurba_marseille","lat":43.23972,"lon":5.36622,"is_reserved":false,"is_disabled":false,"rental_uris":{"android":"levelo://app?vid=d2e0efbb-61ff-424a-9cde-183324d21273","ios":"levelo://app?vid=d2e0efbb-61ff-424a-9cde-183324d21273"},"vehicle_type_id":"4","last_reported":1730372870,"current_range_meters":39200,"station_id":"ce4bhi12rcd13ifvqfp0","pricing_plan_id":"cebpf4jnsgd1na2vs0mg"},{"bike_id":"73e9d24a-2fc7-40cb-a46d-ca1afd2daf32","system_id":"levelo_inurba_marseille","lat":43.26951,"lon":5.38642,"is_reserved":false,"is_disabled":false,"rental_uris":{"android":"levelo://app?vid=73e9d24a-2fc7-40cb-a46d-ca1afd2daf32","ios":"levelo://app?vid=73e9d24a-2fc7-40cb-a46d-ca1afd2daf32"},"vehicle_type_id":"4","last_reported":1730372870,"current_range_meters":12800,"station_id":"ce4bhh92rcd13ifvqfh0","pricing_plan_id":"cebpf4jnsgd1na2vs0mg"},{"bike_id":"33151139-2448-4c66-9a0c-8c7ffb16887d","system_id":"levelo_inurba_marseille","lat":43.30142,"lon":5.38081,"is_reserved":false,"is_disabled":false,"rental_uris":{"android":"levelo://app?vid=33151139-2448-4c66-9a0c-8c7ffb16887d","ios":"levelo://app?vid=33151139-2448-4c66-9a0c-8c7ffb16887d"},"vehicle_type_id":"4","last_reported":1730372870,"current_range_meters":9200,"station_id":"ce4bgjp2rcd13ifvqbh0","pricing_plan_id":"cebpf4jnsgd1na2vs0mg"},{"bike_id":"3e68ff33-06ed-4f58-92d6-c7e8e60269c9","system_id":"levelo_inurba_marseille","lat":43.32485,"lon":5.36557,"is_reserved":false,"is_disabled":false,"rental_uris":{"android":"levelo://app?vid=3e68ff33-06ed-4f58-92d6-c7e8e60269c9","ios":"levelo://app?vid=3e68ff33-06ed-4f58-92d6-c7e8e60269c9"},"vehicle_type_id":"4","last_reported":1730372870,"current_range_meters":36400,"station_id":"ce4bhs12rcd13ifvqhvg","pricing_plan_id":"cebpf4jnsgd1na2vs0mg"},{"bike_id":"c14d09d1-3823-4a39-b14a-554f05542178","system_id":"levelo_inurba_marseille","lat":43.30282,"lon":5.37683,"is_reserved":false,"is_disabled":false,"rental_uris":{"android":"levelo://app?vid=c14d09d1-3823-4a39-b14a-554f05542178","ios":"levelo://app?vid=c14d09d1-3823-4a39-b14a-554f05542178"},"vehicle_type_id":"4","last_reported":1730372870,"current_range_meters":38800,"station_id":"ce4bguh2rcd13ifvqcj0","pricing_plan_id":"cebpf4jnsgd1na2vs0mg"},{"bike_id":"8fbee397-c726-4d42-ae6d-7e6a955a3eb5","system_id":"levelo_inurba_marseille","lat":43.23062,"lon":5.35491,"is_reserved":false,"is_disabled":false,"rental_uris":{"android":"levelo://app?vid=8fbee397-c726-4d42-ae6d-7e6a955a3eb5","ios":"levelo://app?vid=8fbee397-c726-4d42-ae6d-7e6a955a3eb5"},"vehicle_type_id":"4","last_reported":1730372870,"current_range_meters":37600,"station_id":"cpo3342slgdg3j2ifvpg","pricing_plan_id":"cebpf4jnsgd1na2vs0mg"},{"bike_id":"7129de68-9584-4be4-8bb3-b4eb9b1dab5c","system_id":"levelo_inurba_marseille","lat":43.30175,"lon":5.36619,"is_reserved":false,"is_disabled":false,"rental_uris":{"android":"levelo://app?vid=7129de68-9584-4be4-8bb3-b4eb9b1dab5c","ios":"levelo://app?vid=7129de68-9584-4be4-8bb3-b4eb9b1dab5c"},"vehicle_type_id":"4","last_reported":1730372870,"current_range_meters":38800,"station_id":"ce4bgrh2rcd13ifvqc8g","pricing_plan_id":"cebpf4jnsgd1na2vs0mg"},{"bike_id":"fea23d88-9bbb-4ffa-af08-7b03ca37348f","system_id":"levelo_inurba_marseille","lat":43.23176,"lon":5.39995,"is_reserved":false,"is_disabled":false,"rental_uris":{"android":"levelo://app?vid=fea23d88-9bbb-4ffa-af08-7b03ca37348f","ios":"levelo://app?vid=fea23d88-9bbb-4ffa-af08-7b03ca37348f"},"vehicle_type_id":"4","last_reported":1730372870,"current_range_meters":26000,"station_id":"ce4bhn12rcd13ifvqgqg","pricing_plan_id":"cebpf4jnsgd1na2vs0mg"},{"bike_id":"9f0cbdc8-c1d6-4064-9b78-d9e52e0cd33d","system_id":"levelo_inurba_marseille","lat":43.28942,"lon":5.39636,"is_reserved":false,"is_disabled":false,"rental_uris":{"android":"levelo://app?vid=9f0cbdc8-c1d6-4064-9b78-d9e52e0cd33d","ios":"levelo://app?vid=9f0cbdc8-c1d6-4064-9b78-d9e52e0cd33d"},"vehicle_type_id":"4","last_reported":1730372870,"current_range_meters":36400,"station_id":"ce4bh3h2rcd13ifvqdn0","pricing_plan_id":"cebpf4jnsgd1na2vs0mg"},{"bike_id":"02e39b18-963f-467b-8c5c-cef232d22c0c","system_id":"levelo_inurba_marseille","lat":43.3018,"lon":5.36617,"is_reserved":false,"is_disabled":false,"rental_uris":{"android":"levelo://app?vid=02e39b18-963f-467b-8c5c-cef232d22c0c","ios":"levelo://app?vid=02e39b18-963f-467b-8c5c-cef232d22c0c"},"vehicle_type_id":"4","last_reported":1730372870,"current_range_meters":30400,"station_id":"ce4bgrh2rcd13ifvqc8g","pricing_plan_id":"cebpf4jnsgd1na2vs0mg"},{"bike_id":"160c3125-d109-49e3-a687-ede78b99dea2","system_id":"levelo_inurba_marseille","lat":43.23193,"lon":5.35547,"is_reserved":false,"is_disabled":false,"rental_uris":{"android":"levelo://app?vid=160c3125-d109-49e3-a687-ede78b99dea2","ios":"levelo://app?vid=160c3125-d109-49e3-a687-ede78b99dea2"},"vehicle_type_id":"4","last_reported":1730372870,"current_range_meters":35600,"station_id":"ce4bhu92rcd13ifvqi70","pricing_plan_id":"cebpf4jnsgd1na2vs0mg"},{"bike_id":"e2ac1d66-9650-433b-8652-92ad9ea4813c","system_id":"levelo_inurba_marseille","lat":43.31167,"lon":5.38701,"is_reserved":false,"is_disabled":false,"rental_uris":{"android":"levelo://app?vid=e2ac1d66-9650-433b-8652-92ad9ea4813c","ios":"levelo://app?vid=e2ac1d66-9650-433b-8652-92ad9ea4813c"},"vehicle_type_id":"4","last_reported":1730372870,"current_range_meters":34000,"station_id":"ce4bgv12rcd13ifvqcp0","pricing_plan_id":"cebpf4jnsgd1na2vs0mg"},{"bike_id":"4d18b5d4-7277-4d5f-aad9-36361b09753f","system_id":"levelo_inurba_marseille","lat":43.27943,"lon":5.41049,"is_reserved":false,"is_disabled":false,"rental_uris":{"android":"levelo://app?vid=4d18b5d4-7277-4d5f-aad9-36361b09753f","ios":"levelo://app?vid=4d18b5d4-7277-4d5f-aad9-36361b09753f"},"vehicle_type_id":"4","last_reported":1730372870,"current_range_meters":32400,"station_id":"ce4bhnp2rcd13ifvqh0g","pricing_plan_id":"cebpf4jnsgd1na2vs0mg"},{"bike_id":"de676a33-49f3-48b2-9289-2bc4945021ec","system_id":"levelo_inurba_marseille","lat":43.32658,"lon":5.40977,"is_reserved":false,"is_disabled":false,"rental_uris":{"android":"levelo://app?vid=de676a33-49f3-48b2-9289-2bc4945021ec","ios":"levelo://app?vid=de676a33-49f3-48b2-9289-2bc4945021ec"},"vehicle_type_id":"4","last_reported":1730372870,"current_range_meters":35200,"station_id":"ce4bhpp2rcd13ifvqhgg","pricing_plan_id":"cebpf4jnsgd1na2vs0mg"},{"bike_id":"4fa8b85a-775a-4451-b242-ad0dd1de7ba0","system_id":"levelo_inurba_marseille","lat":43.2815,"lon":5.4264,"is_reserved":false,"is_disabled":false,"rental_uris":{"android":"levelo://app?vid=4fa8b85a-775a-4451-b242-ad0dd1de7ba0","ios":"levelo://app?vid=4fa8b85a-775a-4451-b242-ad0dd1de7ba0"},"vehicle_type_id":"4","last_reported":1730372870,"current_range_meters":27600,"station_id":"ce4bhnh2rcd13ifvqgug","pricing_plan_id":"cebpf4jnsgd1na2vs0mg"},{"bike_id":"61e384d5-7652-4a49-90ce-91935e978a44","system_id":"levelo_inurba_marseille","lat":43.26932,"lon":5.3891,"is_reserved":false,"is_disabled":false,"rental_uris":{"android":"levelo://app?vid=61e384d5-7652-4a49-90ce-91935e978a44","ios":"levelo://app?vid=61e384d5-7652-4a49-90ce-91935e978a44"},"vehicle_type_id":"4","last_reported":1730372870,"current_range_meters":38000,"station_id":"ce4bhhh2rcd13ifvqfl0","pricing_plan_id":"cebpf4jnsgd1na2vs0mg"},{"bike_id":"ad66b9ea-4543-41b3-8141-1fd368ac6dd3","system_id":"levelo_inurba_marseille","lat":43.29975,"lon":5.38481,"is_reserved":false,"is_disabled":false,"rental_uris":{"android":"levelo://app?vid=ad66b9ea-4543-41b3-8141-1fd368ac6dd3","ios":"levelo://app?vid=ad66b9ea-4543-41b3-8141-1fd368ac6dd3"},"vehicle_type_id":"4","last_reported":1730372870,"current_range_meters":24800,"station_id":"ce4bgj92rcd13ifvqbd0","pricing_plan_id":"cebpf4jnsgd1na2vs0mg"},{"bike_id":"2f0f7b31-4a6b-4fde-894e-497ed65bf9c4","system_id":"levelo_inurba_marseille","lat":43.29606,"lon":5.37717,"is_reserved":false,"is_disabled":false,"rental_uris":{"android":"levelo://app?vid=2f0f7b31-4a6b-4fde-894e-497ed65bf9c4","ios":"levelo://app?vid=2f0f7b31-4a6b-4fde-894e-497ed65bf9c4"},"vehicle_type_id":"4","last_reported":1730372870,"current_range_meters":30800,"station_id":"ce4bgi92rcd13ifvqb90","pricing_plan_id":"cebpf4jnsgd1na2vs0mg"},{"bike_id":"83b08583-c239-44af-bd45-18e7be51c523","system_id":"levelo_inurba_marseille","lat":43.2927,"lon":5.40105,"is_reserved":false,"is_disabled":false,"rental_uris":{"android":"levelo://app?vid=83b08583-c239-44af-bd45-18e7be51c523","ios":"levelo://app?vid=83b08583-c239-44af-bd45-18e7be51c523"},"vehicle_type_id":"4","last_reported":1730372870,"current_range_meters":17200,"station_id":"ce4bh312rcd13ifvqdk0","pricing_plan_id":"cebpf4jnsgd1na2vs0mg"},{"bike_id":"7c763de4-e7ce-4040-b15f-5fc817fb3972","system_id":"levelo_inurba_marseille","lat":43.26804,"lon":5.4027,"is_reserved":false,"is_disabled":false,"rental_uris":{"android":"levelo://app?vid=7c763de4-e7ce-4040-b15f-5fc817fb3972","ios":"levelo://app?vid=7c763de4-e7ce-4040-b15f-5fc817fb3972"},"vehicle_type_id":"4","last_reported":1730372870,"current_range_meters":39200,"station_id":"ce501612rcd8frsf0b60","pricing_plan_id":"cebpf4jnsgd1na2vs0mg"},{"bike_id":"59c14d9b-4823-424d-8c3d-75071815bf43","system_id":"levelo_inurba_marseille","lat":43.24386,"lon":5.37052,"is_reserved":false,"is_disabled":false,"rental_uris":{"android":"levelo://app?vid=59c14d9b-4823-424d-8c3d-75071815bf43","ios":"levelo://app?vid=59c14d9b-4823-424d-8c3d-75071815bf43"},"vehicle_type_id":"4","last_reported":1730372870,"current_range_meters":17600,"station_id":"ce4bhhh2rcd13ifvqfk0","pricing_plan_id":"cebpf4jnsgd1na2vs0mg"},{"bike_id":"2bfcf7af-afe7-4506-a713-4e5bb46379bb","system_id":"levelo_inurba_marseille","lat":43.24661,"lon":5.3816,"is_reserved":false,"is_disabled":false,"rental_uris":{"android":"levelo://app?vid=2bfcf7af-afe7-4506-a713-4e5bb46379bb","ios":"levelo://app?vid=2bfcf7af-afe7-4506-a713-4e5bb46379bb"},"vehicle_type_id":"4","last_reported":1730372870,"current_range_meters":35200,"station_id":"ce4bhih2rcd13ifvqfr0","pricing_plan_id":"cebpf4jnsgd1na2vs0mg"},{"bike_id":"a5479bdb-5353-4424-ba7d-c18a19a75155","system_id":"levelo_inurba_marseille","lat":43.25935,"lon":5.40902,"is_reserved":false,"is_disabled":false,"rental_uris":{"android":"levelo://app?vid=a5479bdb-5353-4424-ba7d-c18a19a75155","ios":"levelo://app?vid=a5479bdb-5353-4424-ba7d-c18a19a75155"},"vehicle_type_id":"4","last_reported":1730372870,"current_range_meters":31200,"station_id":"ce4bhm92rcd13ifvqglg","pricing_plan_id":"cebpf4jnsgd1na2vs0mg"},{"bike_id":"bef4eb30-8712-4f2c-a844-42d3198a207c","system_id":"levelo_inurba_marseille","lat":43.280379,"lon":5.369471,"is_reserved":false,"is_disabled":false,"rental_uris":{"android":"levelo://app?vid=bef4eb30-8712-4f2c-a844-42d3198a207c","ios":"levelo://app?vid=bef4eb30-8712-4f2c-a844-42d3198a207c"},"vehicle_type_id":"4","last_reported":1730372870,"current_range_meters":29600,"station_id":"ce4bha12rcd13ifvqef0","pricing_plan_id":"cebpf4jnsgd1na2vs0mg"},{"bike_id":"aeaab20f-d580-46f9-b771-cdfa3192d1a2","system_id":"levelo_inurba_marseille","lat":43.30181,"lon":5.36617,"is_reserved":false,"is_disabled":false,"rental_uris":{"android":"levelo://app?vid=aeaab20f-d580-46f9-b771-cdfa3192d1a2","ios":"levelo://app?vid=aeaab20f-d580-46f9-b771-cdfa3192d1a2"},"vehicle_type_id":"4","last_reported":1730372870,"current_range_meters":38800,"station_id":"ce4bgrh2rcd13ifvqc8g","pricing_plan_id":"cebpf4jnsgd1na2vs0mg"},{"bike_id":"e8293b4e-059a-4396-9bed-846c599622d5","system_id":"levelo_inurba_marseille","lat":43.27163,"lon":5.40981,"is_reserved":false,"is_disabled":false,"rental_uris":{"android":"levelo://app?vid=e8293b4e-059a-4396-9bed-846c599622d5","ios":"levelo://app?vid=e8293b4e-059a-4396-9bed-846c599622d5"},"vehicle_type_id":"4","last_reported":1730372870,"current_range_meters":38800,"station_id":"ce4bhl12rcd13ifvqgf0","pricing_plan_id":"cebpf4jnsgd1na2vs0mg"},{"bike_id":"b2676636-0873-4e47-ac17-f5e4f7c2e2c8","system_id":"levelo_inurba_marseille","lat":43.279424,"lon":5.410539,"is_reserved":false,"is_disabled":false,"rental_uris":{"android":"levelo://app?vid=b2676636-0873-4e47-ac17-f5e4f7c2e2c8","ios":"levelo://app?vid=b2676636-0873-4e47-ac17-f5e4f7c2e2c8"},"vehicle_type_id":"4","last_reported":1730372870,"current_range_meters":28400,"station_id":"ce4bhnp2rcd13ifvqh0g","pricing_plan_id":"cebpf4jnsgd1na2vs0mg"},{"bike_id":"0e74805e-97ff-4990-a94d-8b9e488cb48d","system_id":"levelo_inurba_marseille","lat":43.23147,"lon":5.43721,"is_reserved":false,"is_disabled":false,"rental_uris":{"android":"levelo://app?vid=0e74805e-97ff-4990-a94d-8b9e488cb48d","ios":"levelo://app?vid=0e74805e-97ff-4990-a94d-8b9e488cb48d"},"vehicle_type_id":"4","last_reported":1730372870,"current_range_meters":16400,"station_id":"ce4bhmp2rcd13ifvqgog","pricing_plan_id":"cebpf4jnsgd1na2vs0mg"},{"bike_id":"1f891675-16b0-4a24-aaa3-e59260de9b4e","system_id":"levelo_inurba_marseille","lat":43.2593,"lon":5.4091,"is_reserved":false,"is_disabled":false,"rental_uris":{"android":"levelo://app?vid=1f891675-16b0-4a24-aaa3-e59260de9b4e","ios":"levelo://app?vid=1f891675-16b0-4a24-aaa3-e59260de9b4e"},"vehicle_type_id":"4","last_reported":1730372870,"current_range_meters":32400,"station_id":"ce4bhm92rcd13ifvqglg","pricing_plan_id":"cebpf4jnsgd1na2vs0mg"},{"bike_id":"56d34997-1793-4eaa-a2e2-9cf806058d6e","system_id":"levelo_inurba_marseille","lat":43.28261,"lon":5.35058,"is_reserved":false,"is_disabled":false,"rental_uris":{"android":"levelo://app?vid=56d34997-1793-4eaa-a2e2-9cf806058d6e","ios":"levelo://app?vid=56d34997-1793-4eaa-a2e2-9cf806058d6e"},"vehicle_type_id":"4","last_reported":1730372870,"current_range_meters":10000,"station_id":"ce4bhbp2rcd13ifvqerg","pricing_plan_id":"cebpf4jnsgd1na2vs0mg"},{"bike_id":"2e679aa2-6222-4666-94d2-8febbbac34cf","system_id":"levelo_inurba_marseille","lat":43.28955,"lon":5.4807,"is_reserved":false,"is_disabled":false,"rental_uris":{"android":"levelo://app?vid=2e679aa2-6222-4666-94d2-8febbbac34cf","ios":"levelo://app?vid=2e679aa2-6222-4666-94d2-8febbbac34cf"},"vehicle_type_id":"4","last_reported":1730372870,"current_range_meters":12400,"station_id":"ce4bgvp2rcd13ifvqct0","pricing_plan_id":"cebpf4jnsgd1na2vs0mg"},{"bike_id":"b14f493d-e23f-4a62-be57-87ed754a6740","system_id":"levelo_inurba_marseille","lat":43.30607,"lon":5.37227,"is_reserved":false,"is_disabled":false,"rental_uris":{"android":"levelo://app?vid=b14f493d-e23f-4a62-be57-87ed754a6740","ios":"levelo://app?vid=b14f493d-e23f-4a62-be57-87ed754a6740"},"vehicle_type_id":"4","last_reported":1730372870,"current_range_meters":27200,"station_id":"ce4bgqh2rcd13ifvqc4g","pricing_plan_id":"cebpf4jnsgd1na2vs0mg"},{"bike_id":"6ccc4018-5311-436a-a117-3f2a218d4851","system_id":"levelo_inurba_marseille","lat":43.30353,"lon":5.41879,"is_reserved":false,"is_disabled":false,"rental_uris":{"android":"levelo://app?vid=6ccc4018-5311-436a-a117-3f2a218d4851","ios":"levelo://app?vid=6ccc4018-5311-436a-a117-3f2a218d4851"},"vehicle_type_id":"4","last_reported":1730372870,"current_range_meters":34000,"station_id":"ce4bhop2rcd13ifvqh7g","pricing_plan_id":"cebpf4jnsgd1na2vs0mg"},{"bike_id":"00570a9a-70dc-4fd9-a21d-b33665529146","system_id":"levelo_inurba_marseille","lat":43.2397,"lon":5.36627,"is_reserved":false,"is_disabled":false,"rental_uris":{"android":"levelo://app?vid=00570a9a-70dc-4fd9-a21d-b33665529146","ios":"levelo://app?vid=00570a9a-70dc-4fd9-a21d-b33665529146"},"vehicle_type_id":"4","last_reported":1730372870,"current_range_meters":39200,"station_id":"ce4bhi12rcd13ifvqfp0","pricing_plan_id":"cebpf4jnsgd1na2vs0mg"},{"bike_id":"9592eb1a-4a46-4535-b3fe-0af141dace43","system_id":"levelo_inurba_marseille","lat":43.23969,"lon":5.36626,"is_reserved":false,"is_disabled":false,"rental_uris":{"android":"levelo://app?vid=9592eb1a-4a46-4535-b3fe-0af141dace43","ios":"levelo://app?vid=9592eb1a-4a46-4535-b3fe-0af141dace43"},"vehicle_type_id":"4","last_reported":1730372870,"current_range_meters":27600,"station_id":"ce4bhi12rcd13ifvqfp0","pricing_plan_id":"cebpf4jnsgd1na2vs0mg"},{"bike_id":"e4c6cecf-542f-4f53-8f24-4ae9c5157b5e","system_id":"levelo_inurba_marseille","lat":43.29897,"lon":5.43667,"is_reserved":false,"is_disabled":false,"rental_uris":{"android":"levelo://app?vid=e4c6cecf-542f-4f53-8f24-4ae9c5157b5e","ios":"levelo://app?vid=e4c6cecf-542f-4f53-8f24-4ae9c5157b5e"},"vehicle_type_id":"4","last_reported":1730372870,"current_range_meters":14400,"station_id":"ce4bhpp2rcd13ifvqhfg","pricing_plan_id":"cebpf4jnsgd1na2vs0mg"},{"bike_id":"7f974af4-8d09-49de-a95e-4b1f619baf3f","system_id":"levelo_inurba_marseille","lat":43.2781,"lon":5.40708,"is_reserved":false,"is_disabled":false,"rental_uris":{"android":"levelo://app?vid=7f974af4-8d09-49de-a95e-4b1f619baf3f","ios":"levelo://app?vid=7f974af4-8d09-49de-a95e-4b1f619baf3f"},"vehicle_type_id":"4","last_reported":1730372870,"current_range_meters":35200,"station_id":"ce4bhnh2rcd13ifvqgtg","pricing_plan_id":"cebpf4jnsgd1na2vs0mg"},{"bike_id":"a2ceb387-a80a-4df3-b6b9-c8332e69dfe3","system_id":"levelo_inurba_marseille","lat":43.31258,"lon":5.40179,"is_reserved":false,"is_disabled":false,"rental_uris":{"android":"levelo://app?vid=a2ceb387-a80a-4df3-b6b9-c8332e69dfe3","ios":"levelo://app?vid=a2ceb387-a80a-4df3-b6b9-c8332e69dfe3"},"vehicle_type_id":"4","last_reported":1730372870,"current_range_meters":20400,"station_id":"ce4bh092rcd13ifvqd30","pricing_plan_id":"cebpf4jnsgd1na2vs0mg"},{"bike_id":"917c37da-2e2f-439d-a1b0-d3e7485d44a0","system_id":"levelo_inurba_marseille","lat":43.29958,"lon":5.4131,"is_reserved":false,"is_disabled":false,"rental_uris":{"android":"levelo://app?vid=917c37da-2e2f-439d-a1b0-d3e7485d44a0","ios":"levelo://app?vid=917c37da-2e2f-439d-a1b0-d3e7485d44a0"},"vehicle_type_id":"4","last_reported":1730372870,"current_range_meters":39200,"station_id":"ce4bhp12rcd13ifvqh9g","pricing_plan_id":"cebpf4jnsgd1na2vs0mg"},{"bike_id":"be1a1f99-d18e-40e2-b74a-1af8bb776cee","system_id":"levelo_inurba_marseille","lat":43.25938,"lon":5.40903,"is_reserved":false,"is_disabled":false,"rental_uris":{"android":"levelo://app?vid=be1a1f99-d18e-40e2-b74a-1af8bb776cee","ios":"levelo://app?vid=be1a1f99-d18e-40e2-b74a-1af8bb776cee"},"vehicle_type_id":"4","last_reported":1730372870,"current_range_meters":27600,"station_id":"ce4bhm92rcd13ifvqglg","pricing_plan_id":"cebpf4jnsgd1na2vs0mg"},{"bike_id":"82b1cd37-30c6-49a1-8afa-8a35461c10d5","system_id":"levelo_inurba_marseille","lat":43.29703,"lon":5.37694,"is_reserved":false,"is_disabled":false,"rental_uris":{"android":"levelo://app?vid=82b1cd37-30c6-49a1-8afa-8a35461c10d5","ios":"levelo://app?vid=82b1cd37-30c6-49a1-8afa-8a35461c10d5"},"vehicle_type_id":"4","last_reported":1730372870,"current_range_meters":36400,"station_id":"ce4bgkh2rcd13ifvqbl0","pricing_plan_id":"cebpf4jnsgd1na2vs0mg"},{"bike_id":"b92200f4-449d-4a31-8925-71f28648e3fc","system_id":"levelo_inurba_marseille","lat":43.30911,"lon":5.36847,"is_reserved":false,"is_disabled":false,"rental_uris":{"android":"levelo://app?vid=b92200f4-449d-4a31-8925-71f28648e3fc","ios":"levelo://app?vid=b92200f4-449d-4a31-8925-71f28648e3fc"},"vehicle_type_id":"4","last_reported":1730372870,"current_range_meters":38800,"station_id":"ce4bgn92rcd13ifvqbvg","pricing_plan_id":"cebpf4jnsgd1na2vs0mg"},{"bike_id":"d4a0de75-db8c-4154-9269-7c580652c8f0","system_id":"levelo_inurba_marseille","lat":43.29666,"lon":5.37295,"is_reserved":false,"is_disabled":false,"rental_uris":{"android":"levelo://app?vid=d4a0de75-db8c-4154-9269-7c580652c8f0","ios":"levelo://app?vid=d4a0de75-db8c-4154-9269-7c580652c8f0"},"vehicle_type_id":"4","last_reported":1730372870,"current_range_meters":9600,"station_id":"ce4bhhh2rcd13ifvqfl0","pricing_plan_id":"cebpf4jnsgd1na2vs0mg"},{"bike_id":"ed279d38-b7eb-4b14-96b9-94c615824290","system_id":"levelo_inurba_marseille","lat":43.23189,"lon":5.35549,"is_reserved":false,"is_disabled":false,"rental_uris":{"android":"levelo://app?vid=ed279d38-b7eb-4b14-96b9-94c615824290","ios":"levelo://app?vid=ed279d38-b7eb-4b14-96b9-94c615824290"},"vehicle_type_id":"4","last_reported":1730372870,"current_range_meters":20800,"station_id":"ce4bhu92rcd13ifvqi70","pricing_plan_id":"cebpf4jnsgd1na2vs0mg"},{"bike_id":"cae68920-5983-45fb-8f99-fde5da0f3b39","system_id":"levelo_inurba_marseille","lat":43.26799,"lon":5.40259,"is_reserved":false,"is_disabled":false,"rental_uris":{"android":"levelo://app?vid=cae68920-5983-45fb-8f99-fde5da0f3b39","ios":"levelo://app?vid=cae68920-5983-45fb-8f99-fde5da0f3b39"},"vehicle_type_id":"4","last_reported":1730372870,"current_range_meters":35200,"station_id":"ce501612rcd8frsf0b60","pricing_plan_id":"cebpf4jnsgd1na2vs0mg"},{"bike_id":"5ef568b9-d023-45ad-9c97-50ffb9d3788d","system_id":"levelo_inurba_marseille","lat":43.2958,"lon":5.37503,"is_reserved":false,"is_disabled":false,"rental_uris":{"android":"levelo://app?vid=5ef568b9-d023-45ad-9c97-50ffb9d3788d","ios":"levelo://app?vid=5ef568b9-d023-45ad-9c97-50ffb9d3788d"},"vehicle_type_id":"4","last_reported":1730372870,"current_range_meters":24000,"station_id":"ce4bgh92rcd13ifvqb50","pricing_plan_id":"cebpf4jnsgd1na2vs0mg"},{"bike_id":"c9fa92dc-4470-47e4-87d7-994dcb109eee","system_id":"levelo_inurba_marseille","lat":43.25,"lon":5.38925,"is_reserved":false,"is_disabled":false,"rental_uris":{"android":"levelo://app?vid=c9fa92dc-4470-47e4-87d7-994dcb109eee","ios":"levelo://app?vid=c9fa92dc-4470-47e4-87d7-994dcb109eee"},"vehicle_type_id":"4","last_reported":1730372870,"current_range_meters":30400,"station_id":"","pricing_plan_id":"cebpf4jnsgd1na2vs0mg"},{"bike_id":"7b95228e-fef0-4287-9be0-08f45fb21999","system_id":"levelo_inurba_marseille","lat":43.26799,"lon":5.40264,"is_reserved":false,"is_disabled":false,"rental_uris":{"android":"levelo://app?vid=7b95228e-fef0-4287-9be0-08f45fb21999","ios":"levelo://app?vid=7b95228e-fef0-4287-9be0-08f45fb21999"},"vehicle_type_id":"4","last_reported":1730372870,"current_range_meters":38000,"station_id":"ce501612rcd8frsf0b60","pricing_plan_id":"cebpf4jnsgd1na2vs0mg"},{"bike_id":"4f6fb244-37a3-45c0-8339-41266ada6759","system_id":"levelo_inurba_marseille","lat":43.2558,"lon":5.38237,"is_reserved":false,"is_disabled":false,"rental_uris":{"android":"levelo://app?vid=4f6fb244-37a3-45c0-8339-41266ada6759","ios":"levelo://app?vid=4f6fb244-37a3-45c0-8339-41266ada6759"},"vehicle_type_id":"4","last_reported":1730372870,"current_range_meters":11600,"station_id":"ce4bhih2rcd13ifvqfs0","pricing_plan_id":"cebpf4jnsgd1na2vs0mg"},{"bike_id":"d428b7ac-82b0-4c05-aad1-14aa884d0a19","system_id":"levelo_inurba_marseille","lat":43.30427,"lon":5.3973,"is_reserved":false,"is_disabled":false,"rental_uris":{"android":"levelo://app?vid=d428b7ac-82b0-4c05-aad1-14aa884d0a19","ios":"levelo://app?vid=d428b7ac-82b0-4c05-aad1-14aa884d0a19"},"vehicle_type_id":"4","last_reported":1730372870,"current_range_meters":30000,"station_id":"ce4bh092rcd13ifvqd20","pricing_plan_id":"cebpf4jnsgd1na2vs0mg"},{"bike_id":"a512b028-e662-43d1-8517-2b94eff58fc2","system_id":"levelo_inurba_marseille","lat":43.31701,"lon":5.3773,"is_reserved":false,"is_disabled":false,"rental_uris":{"android":"levelo://app?vid=a512b028-e662-43d1-8517-2b94eff58fc2","ios":"levelo://app?vid=a512b028-e662-43d1-8517-2b94eff58fc2"},"vehicle_type_id":"4","last_reported":1730372870,"current_range_meters":28000,"station_id":"ce4bgth2rcd13ifvqch0","pricing_plan_id":"cebpf4jnsgd1na2vs0mg"},{"bike_id":"cf580f99-54a4-42c0-b6a0-c56ca14bcb30","system_id":"levelo_inurba_marseille","lat":43.28413,"lon":5.34991,"is_reserved":false,"is_disabled":false,"rental_uris":{"android":"levelo://app?vid=cf580f99-54a4-42c0-b6a0-c56ca14bcb30","ios":"levelo://app?vid=cf580f99-54a4-42c0-b6a0-c56ca14bcb30"},"vehicle_type_id":"4","last_reported":1730372870,"current_range_meters":34000,"station_id":"ce4bhbh2rcd13ifvqepg","pricing_plan_id":"cebpf4jnsgd1na2vs0mg"},{"bike_id":"f68ad365-2de3-41e6-a4df-5c7204b2d296","system_id":"levelo_inurba_marseille","lat":43.28452,"lon":5.35899,"is_reserved":false,"is_disabled":false,"rental_uris":{"android":"levelo://app?vid=f68ad365-2de3-41e6-a4df-5c7204b2d296","ios":"levelo://app?vid=f68ad365-2de3-41e6-a4df-5c7204b2d296"},"vehicle_type_id":"4","last_reported":1730372870,"current_range_meters":28400,"station_id":"ce4bhah2rcd13ifvqei0","pricing_plan_id":"cebpf4jnsgd1na2vs0mg"},