{"last_updated":1711663653,"ttl":30,"version":"2.2","data":{"bikes":[{"bike_id":"6973ff12-a2c1-4f42-8990-768983a27399","system_id":"levelo_inurba_marseille","lat":43.313391,"lon":5.36706,"is_reserved":false,"is_disabled":false,"rental_uris":{"android":"levelo://app?vid=6973ff12-a2c1-4f42-8990-768983a27399","ios":"levelo://app?vid=6973ff12-a2c1-4f42-8990-768983a27399"},"vehicle_type_id":"4","last_reported":1711663653,"current_range_meters":14800,"station_id":"ce4bgr92rcd13ifvqc6g","pricing_plan_id":"cebpf4jnsgd1na2vs0mg"},{"bike_id":"6c2d5cc6-3cbe-469c-8b4c-eec93ea19f7d","system_id":"levelo_inurba_marseille","lat":43.313391,"lon":5.36706,"is_reserved":false,"is_disabled":false,"rental_uris":{"android":"levelo://app?vid=6c2d5cc6-3cbe-469c-8b4c-eec93ea19f7d","ios":"levelo://app?vid=6c2d5cc6-3cbe-469c-8b4c-eec93ea19f7d"},"vehicle_type_id":"4","last_reported":1711663653,"current_range_meters":12400,"station_id":"ce4bgr92rcd13ifvqc6g","pricing_plan_id":"cebpf4jnsgd1na2vs0mg"},{"bike_id":"869336fa-3269-4a6a-afe5-3d1a5ef61751","system_id":"levelo_inurba_marseille","lat":43.31341,"lon":5.367098,"is_reserved":false,"is_disabled":false,"rental_uris":{"android":"levelo://app?vid=869336fa-3269-4a6a-afe5-3d1a5ef61751","ios":"levelo://app?vid=869336fa-3269-4a6a-afe5-3d1a5ef61751"},"vehicle_type_id":"4","last_reported":1711663653,"current_range_meters":20800,"station_id":"ce4bgr92rcd13ifvqc6g","pricing_plan_id":"cebpf4jnsgd1na2vs0mg"},{"bike_id":"f0155069-f9a3-4c1b-87f8-3af9ddf8ee2c","system_id":"levelo_inurba_marseille","lat":43.31341,"lon":5.367098,"is_reserved":false,"is_disabled":false,"rental_uris":{"android":"levelo://app?vid=f0155069-f9a3-4c1b-87f8-3af9ddf8ee2c","ios":"levelo://app?vid=f0155069-f9a3-4c1b-87f8-3af9ddf8ee2c"},"vehicle_type_id":"4","last_reported":1711663653,"current_range_meters":9200,"station_id":"ce4bgr92rcd13ifvqc6g","pricing_plan_id":"cebpf4jnsgd1na2vs0mg"},{"bike_id":"e7dd8f8c-b3bc-41e4-81b4-af3a008c9715","system_id":"levelo_inurba_marseille","lat":43.31341,"lon":5.367098,"is_reserved":false,"is_disabled":false,"rental_uris":{"android":"levelo://app?vid=e7dd8f8c-b3bc-41e4-81b4-af3a008c9715","ios":"levelo://app?vid=e7dd8f8c-b3bc-41e4-81b4-af3a008c9715"},"vehicle_type_id":"4","last_reported":1711663653,"current_range_meters":22400,"station_id":"ce4bgr92rcd13ifvqc6g","pricing_plan_id":"cebpf4jnsgd1na2vs0mg"},{"bike_id":"3b34e6aa-206c-434f-b7d5-c6d98831af73","system_id":"levelo_inurba_marseille","lat":43.31341,"lon":5.367098,"is_reserved":false,"is_disabled":false,"rental_uris":{"android":"levelo://app?vid=3b34e6aa-206c-434f-b7d5-c6d98831af73","ios":"levelo://app?vid=3b34e6aa-206c-434f-b7d5-c6d98831af73"},"vehicle_type_id":"4","last_reported":1711663653,"current_range_meters":10400,"station_id":"ce4bgr92rcd13ifvqc6g","pricing_plan_id":"cebpf4jnsgd1na2vs0mg"},{"bike_id":"be348440-e1b9-47ef-b6eb-d956ea773f2f","system_id":"levelo_inurba_marseille","lat":43.31341,"lon":5.367098,"is_reserved":false,"is_disabled":false,"rental_uris":{"android":"levelo://app?vid=be348440-e1b9-47ef-b6eb-d956ea773f2f","ios":"levelo://app?vid=be348440-e1b9-47ef-b6eb-d956ea773f2f"},"vehicle_type_id":"4","last_reported":1711663653,"current_range_meters":6800,"station_id":"ce4bgr92rcd13ifvqc6g","pricing_plan_id":"cebpf4jnsgd1na2vs0mg"},{"bike_id":"c86cbdee-dd69-4f89-97f6-279dc988f82d","system_id":"levelo_inurba_marseille","lat":43.31341,"lon":5.367098,"is_reserved":false,"is_disabled":false,"rental_uris":{"android":"levelo://app?vid=c86cbdee-dd69-4f89-97f6-279dc988f82d","ios":"levelo://app?vid=c86cbdee-dd69-4f89-97f6-279dc988f82d"},"vehicle_type_id":"4","last_reported":1711663653,"current_range_meters":0,"station_id":"ce4bgr92rcd13ifvqc6g","pricing_plan_id":"cebpf4jnsgd1na2vs0mg"},{"bike_id":"069e0a2f-fd8e-4e71-8763-2437d94d40c7","system_id":"levelo_inurba_marseille","lat":43.31341,"lon":5.367098,"is_reserved":false,"is_disabled":false,"rental_uris":{"android":"levelo://app?vid=069e0a2f-fd8e-4e71-8763-2437d94d40c7","ios":"levelo://app?vid=069e0a2f-fd8e-4e71-8763-2437d94d40c7"},"vehicle_type_id":"4","last_reported":1711663653,"current_range_meters":28800,"station_id":"ce4bgr92rcd13ifvqc6g","pricing_plan_id":"cebpf4jnsgd1na2vs0mg"},{"bike_id":"016687a3-a842-4b8b-bfe3-100d087ac3ab","system_id":"levelo_inurba_marseille","lat":43.31341,"lon":5.367098,"is_reserved":false,"is_disabled":false,"rental_uris":{"android":"levelo://app?vid=016687a3-a842-4b8b-bfe3-100d087ac3ab","ios":"levelo://app?vid=016687a3-a842-4b8b-bfe3-100d087ac3ab"},"vehicle_type_id":"4","last_reported":1711663653,"current_range_meters":3200,"station_id":"ce4bgr92rcd13ifvqc6g","pricing_plan_id":"cebpf4jnsgd1na2vs0mg"},{"bike_id":"54d7353b-4adc-4b06-8deb-74da3db64e13","system_id":"levelo_inurba_marseille","lat":43.31341,"lon":5.367098,"is_reserved":false,"is_disabled":false,"rental_uris":{"android":"levelo://app?vid=54d7353b-4adc-4b06-8deb-74da3db64e13","ios":"levelo://app?vid=54d7353b-4adc-4b06-8deb-74da3db64e13"},"vehicle_type_id":"4","last_reported":1711663653,"current_range_meters":1600,"station_id":"ce4bgr92rcd13ifvqc6g","pricing_plan_id":"cebpf4jnsgd1na2vs0mg"},{"bike_id":"62a9befa-b93d-4164-b591-70e62995753a","system_id":"levelo_inurba_marseille","lat":43.312239,"lon":5.368562,"is_reserved":false,"is_disabled":false,"rental_uris":{"android":"levelo://app?vid=62a9befa-b93d-4164-b591-70e62995753a","ios":"levelo://app?vid=62a9befa-b93d-4164-b591-70e62995753a"},"vehicle_type_id":"4","last_reported":1711663653,"current_range_meters":26800,"station_id":"ce4bgl92rcd13ifvqbq0","pricing_plan_id":"cebpf4jnsgd1na2vs0mg"},{"bike_id":"f602c62e-e446-4db7-a7f3-5999d2e4cd69","system_id":"levelo_inurba_marseille","lat":43.31235,"lon":5.369,"is_reserved":false,"is_disabled":false,"rental_uris":{"android":"levelo://app?vid=f602c62e-e446-4db7-a7f3-5999d2e4cd69","ios":"levelo://app?vid=f602c62e-e446-4db7-a7f3-5999d2e4cd69"},"vehicle_type_id":"4","last_reported":1711663653,"current_range_meters":10800,"station_id":"ce4bgl92rcd13ifvqbq0","pricing_plan_id":"cebpf4jnsgd1na2vs0mg"},{"bike_id":"eef9a3f7-1ef4-4361-91c4-13ecca73f3f9","system_id":"levelo_inurba_marseille","lat":43.312239,"lon":5.368562,"is_reserved":false,"is_disabled":false,"rental_uris":{"android":"levelo://app?vid=eef9a3f7-1ef4-4361-91c4-13ecca73f3f9","ios":"levelo://app?vid=eef9a3f7-1ef4-4361-91c4-13ecca73f3f9"},"vehicle_type_id":"4","last_reported":1711663653,"current_range_meters":0,"station_id":"ce4bgl92rcd13ifvqbq0","pricing_plan_id":"cebpf4jnsgd1na2vs0mg"},{"bike_id":"56c5bb36-75e3-48ee-b623-64960846ed75","system_id":"levelo_inurba_marseille","lat":43.309076,"lon":5.368465,"is_reserved":false,"is_disabled":false,"rental_uris":{"android":"levelo://app?vid=56c5bb36-75e3-48ee-b623-64960846ed75","ios":"levelo://app?vid=56c5bb36-75e3-48ee-b623-64960846ed75"},"vehicle_type_id":"4","last_reported":1711663653,"current_range_meters":0,"station_id":"ce4bgn92rcd13ifvqbvg","pricing_plan_id":"cebpf4jnsgd1na2vs0mg"},{"bike_id":"dc644691-f312-445e-a1ec-61f575e6918d","system_id":"levelo_inurba_marseille","lat":43.309077,"lon":5.368577,"is_reserved":false,"is_disabled":false,"rental_uris":{"android":"levelo://app?vid=dc644691-f312-445e-a1ec-61f575e6918d","ios":"levelo://app?vid=dc644691-f312-445e-a1ec-61f575e6918d"},"vehicle_type_id":"4","last_reported":1711663653,"current_range_meters":0,"station_id":"ce4bgn92rcd13ifvqbvg","pricing_plan_id":"cebpf4jnsgd1na2vs0mg"},{"bike_id":"64c4371a-2469-4f04-b2a9-64d48a83259d","system_id":"levelo_inurba_marseille","lat":43.309039,"lon":5.371797,"is_reserved":false,"is_disabled":false,"rental_uris":{"android":"levelo://app?vid=64c4371a-2469-4f04-b2a9-64d48a83259d","ios":"levelo://app?vid=64c4371a-2469-4f04-b2a9-64d48a83259d"},"vehicle_type_id":"4","last_reported":1711663653,"current_range_meters":9600,"station_id":"ce4bguh2rcd13ifvqckg","pricing_plan_id":"cebpf4jnsgd1na2vs0mg"},{"bike_id":"80dc1a04-1b5d-4bd1-9ee2-9b3cc578f248","system_id":"levelo_inurba_marseille","lat":43.314811,"lon":5.373103,"is_reserved":false,"is_disabled":false,"rental_uris":{"android":"levelo://app?vid=80dc1a04-1b5d-4bd1-9ee2-9b3cc578f248","ios":"levelo://app?vid=80dc1a04-1b5d-4bd1-9ee2-9b3cc578f248"},"vehicle_type_id":"4","last_reported":1711663653,"current_range_meters":0,"station_id":"ce4bgt12rcd13ifvqcd0","pricing_plan_id":"cebpf4jnsgd1na2vs0mg"},{"bike_id":"487f9b2a-8e22-4a5d-bb84-5d2c3cd6c73a","system_id":"levelo_inurba_marseille","lat":43.314873,"lon":5.37307,"is_reserved":false,"is_disabled":false,"rental_uris":{"android":"levelo://app?vid=487f9b2a-8e22-4a5d-bb84-5d2c3cd6c73a","ios":"levelo://app?vid=487f9b2a-8e22-4a5d-bb84-5d2c3cd6c73a"},"vehicle_type_id":"4","last_reported":1711663653,"current_range_meters":0,"station_id":"ce4bgt12rcd13ifvqcd0","pricing_plan_id":"cebpf4jnsgd1na2vs0mg"},{"bike_id":"52fe88f9-b128-4c5d-bcbe-11a1400f7227","system_id":"levelo_inurba_marseille","lat":43.30892,"lon":5.37192,"is_reserved":false,"is_disabled":false,"rental_uris":{"android":"levelo://app?vid=52fe88f9-b128-4c5d-bcbe-11a1400f7227","ios":"levelo://app?vid=52fe88f9-b128-4c5d-bcbe-11a1400f7227"},"vehicle_type_id":"4","last_reported":1711663653,"current_range_meters":4400,"station_id":"ce4bguh2rcd13ifvqckg","pricing_plan_id":"cebpf4jnsgd1na2vs0mg"},{"bike_id":"d6e53b12-e7ad-4741-a7fc-f342a14c2ef4","system_id":"levelo_inurba_marseille","lat":43.308903,"lon":5.37195,"is_reserved":false,"is_disabled":false,"rental_uris":{"android":"levelo://app?vid=d6e53b12-e7ad-4741-a7fc-f342a14c2ef4","ios":"levelo://app?vid=d6e53b12-e7ad-4741-a7fc-f342a14c2ef4"},"vehicle_type_id":"4","last_reported":1711663653,"current_range_meters":13200,"station_id":"ce4bguh2rcd13ifvqckg","pricing_plan_id":"cebpf4jnsgd1na2vs0mg"},{"bike_id":"7d104911-063c-44d6-9d1c-3b86c6f92322","system_id":"levelo_inurba_marseille","lat":43.30893,"lon":5.37199,"is_reserved":false,"is_disabled":false,"rental_uris":{"android":"levelo://app?vid=7d104911-063c-44d6-9d1c-3b86c6f92322","ios":"levelo://app?vid=7d104911-063c-44d6-9d1c-3b86c6f92322"},"vehicle_type_id":"4","last_reported":1711663653,"current_range_meters":0,"station_id":"ce4bguh2rcd13ifvqckg","pricing_plan_id":"cebpf4jnsgd1na2vs0mg"},{"bike_id":"ee5ea0b8-ff2e-4698-9403-c13f67a4b783","system_id":"levelo_inurba_marseille","lat":43.30537,"lon":5.367345,"is_reserved":false,"is_disabled":false,"rental_uris":{"android":"levelo://app?vid=ee5ea0b8-ff2e-4698-9403-c13f67a4b783","ios":"levelo://app?vid=ee5ea0b8-ff2e-4698-9403-c13f67a4b783"},"vehicle_type_id":"4","last_reported":1711663653,"current_range_meters":30400,"station_id":"ce4bgrp2rcd13ifvqc9g","pricing_plan_id":"cebpf4jnsgd1na2vs0mg"},{"bike_id":"652bd1d1-1f6d-4590-87f5-0aef734a7f38","system_id":"levelo_inurba_marseille","lat":43.30537,"lon":5.367345,"is_reserved":false,"is_disabled":false,"rental_uris":{"android":"levelo://app?vid=652bd1d1-1f6d-4590-87f5-0aef734a7f38","ios":"levelo://app?vid=652bd1d1-1f6d-4590-87f5-0aef734a7f38"},"vehicle_type_id":"4","last_reported":1711663653,"current_range_meters":31200,"station_id":"ce4bgrp2rcd13ifvqc9g","pricing_plan_id":"cebpf4jnsgd1na2vs0mg"},{"bike_id":"1f0f161c-00ca-40f7-83d4-c57aa406a4c4","system_id":"levelo_inurba_marseille","lat":43.30537,"lon":5.367345,"is_reserved":false,"is_disabled":false,"rental_uris":{"android":"levelo://app?vid=1f0f161c-00ca-40f7-83d4-c57aa406a4c4","ios":"levelo://app?vid=1f0f161c-00ca-40f7-83d4-c57aa406a4c4"},"vehicle_type_id":"4","last_reported":1711663653,"current_range_meters":31200,"station_id":"ce4bgrp2rcd13ifvqc9g","pricing_plan_id":"cebpf4jnsgd1na2vs0mg"},{"bike_id":"a63e15cd-0673-4355-8b66-78618692e6c5","system_id":"levelo_inurba_marseille","lat":43.305368,"lon":5.367343,"is_reserved":false,"is_disabled":false,"rental_uris":{"android":"levelo://app?vid=a63e15cd-0673-4355-8b66-78618692e6c5","ios":"levelo://app?vid=a63e15cd-0673-4355-8b66-78618692e6c5"},"vehicle_type_id":"4","last_reported":1711663653,"current_range_meters":23600,"station_id":"ce4bgrp2rcd13ifvqc9g","pricing_plan_id":"cebpf4jnsgd1na2vs0mg"},{"bike_id":"26d7d6ef-4146-48d9-b15e-6c3937b8431d","system_id":"levelo_inurba_marseille","lat":43.311722,"lon":5.387247,"is_reserved":false,"is_disabled":false,"rental_uris":{"android":"levelo://app?vid=26d7d6ef-4146-48d9-b15e-6c3937b8431d","ios":"levelo://app?vid=26d7d6ef-4146-48d9-b15e-6c3937b8431d"},"vehicle_type_id":"4","last_reported":1711663653,"current_range_meters":12400,"station_id":"ce4bgv12rcd13ifvqcp0","pricing_plan_id":"cebpf4jnsgd1na2vs0mg"},{"bike_id":"0cd35bf2-194f-499e-a2f9-3e1016811ef2","system_id":"levelo_inurba_marseille","lat":43.305368,"lon":5.367343,"is_reserved":false,"is_disabled":false,"rental_uris":{"android":"levelo://app?vid=0cd35bf2-194f-499e-a2f9-3e1016811ef2","ios":"levelo://app?vid=0cd35bf2-194f-499e-a2f9-3e1016811ef2"},"vehicle_type_id":"4","last_reported":1711663653,"current_range_meters":24800,"station_id":"ce4bgrp2rcd13ifvqc9g","pricing_plan_id":"cebpf4jnsgd1na2vs0mg"},{"bike_id":"01ac5744-5f4d-497b-afe6-db97b8d8667c","system_id":"levelo_inurba_marseille","lat":43.305368,"lon":5.367343,"is_reserved":false,"is_disabled":false,"rental_uris":{"android":"levelo://app?vid=01ac5744-5f4d-497b-afe6-db97b8d8667c","ios":"levelo://app?vid=01ac5744-5f4d-497b-afe6-db97b8d8667c"},"vehicle_type_id":"4","last_reported":1711663653,"current_range_meters":9200,"station_id":"ce4bgrp2rcd13ifvqc9g","pricing_plan_id":"cebpf4jnsgd1na2vs0mg"},{"bike_id":"c3215c23-355e-4459-b617-667f6ec355a3","system_id":"levelo_inurba_marseille","lat":43.305706,"lon":5.365654,"is_reserved":false,"is_disabled":false,"rental_uris":{"android":"levelo://app?vid=c3215c23-355e-4459-b617-667f6ec355a3","ios":"levelo://app?vid=c3215c23-355e-4459-b617-667f6ec355a3"},"vehicle_type_id":"4","last_reported":1711663653,"current_range_meters":23600,"station_id":"ce4bgs12rcd13ifvqcag","pricing_plan_id":"cebpf4jnsgd1na2vs0mg"},{"bike_id":"47882e1b-ae59-4133-a950-311fef52e1db","system_id":"levelo_inurba_marseille","lat":43.311125,"lon":5.377624,"is_reserved":false,"is_disabled":false,"rental_uris":{"android":"levelo://app?vid=47882e1b-ae59-4133-a950-311fef52e1db","ios":"levelo://app?vid=47882e1b-ae59-4133-a950-311fef52e1db"},"vehicle_type_id":"4","last_reported":1711663653,"current_range_meters":8400,"station_id":"ce4bgt92rcd13ifvqcg0","pricing_plan_id":"cebpf4jnsgd1na2vs0mg"},{"bike_id":"bd237754-c071-4031-9e75-d14784d9e314","system_id":"levelo_inurba_marseille","lat":43.305989,"lon":5.37225,"is_reserved":false,"is_disabled":false,"rental_uris":{"android":"levelo://app?vid=bd237754-c071-4031-9e75-d14784d9e314","ios":"levelo://app?vid=bd237754-c071-4031-9e75-d14784d9e314"},"vehicle_type_id":"4","last_reported":1711663653,"current_range_meters":21200,"station_id":"ce4bgqh2rcd13ifvqc4g","pricing_plan_id":"cebpf4jnsgd1na2vs0mg"},{"bike_id":"836a441d-06fb-49ad-b9f2-8736160a2036","system_id":"levelo_inurba_marseille","lat":43.303046,"lon":5.368981,"is_reserved":false,"is_disabled":false,"rental_uris":{"android":"levelo://app?vid=836a441d-06fb-49ad-b9f2-8736160a2036","ios":"levelo://app?vid=836a441d-06fb-49ad-b9f2-8736160a2036"},"vehicle_type_id":"4","last_reported":1711663653,"current_range_meters":22400,"station_id":"ce4bgqh2rcd13ifvqc5g","pricing_plan_id":"cebpf4jnsgd1na2vs0mg"},{"bike_id":"c2161c94-e0b2-4121-a717-126b42e0098f","system_id":"levelo_inurba_marseille","lat":43.311181,"lon":5.377678,"is_reserved":false,"is_disabled":false,"rental_uris":{"android":"levelo://app?vid=c2161c94-e0b2-4121-a717-126b42e0098f","ios":"levelo://app?vid=c2161c94-e0b2-4121-a717-126b42e0098f"},"vehicle_type_id":"4","last_reported":1711663653,"current_range_meters":0,"station_id":"ce4bgt92rcd13ifvqcg0","pricing_plan_id":"cebpf4jnsgd1na2vs0mg"},{"bike_id":"61ccd139-a9ab-4129-af0d-1fbf9ff94b62","system_id":"levelo_inurba_marseille","lat":43.311125,"lon":5.377624,"is_reserved":false,"is_disabled":false,"rental_uris":{"android":"levelo://app?vid=61ccd139-a9ab-4129-af0d-1fbf9ff94b62","ios":"levelo://app?vid=61ccd139-a9ab-4129-af0d-1fbf9ff94b62"},"vehicle_type_id":"4","last_reported":1711663653,"current_range_meters":8000,"station_id":"ce4bgt92rcd13ifvqcg0","pricing_plan_id":"cebpf4jnsgd1na2vs0mg"},{"bike_id":"eca5b972-8e8f-4a91-8e51-0c5d0b79f198","system_id":"levelo_inurba_marseille","lat":43.311125,"lon":5.377624,"is_reserved":false,"is_disabled":false,"rental_uris":{"android":"levelo://app?vid=eca5b972-8e8f-4a91-8e51-0c5d0b79f198","ios":"levelo://app?vid=eca5b972-8e8f-4a91-8e51-0c5d0b79f198"},"vehicle_type_id":"4","last_reported":1711663653,"current_range_meters":24400,"station_id":"ce4bgt92rcd13ifvqcg0","pricing_plan_id":"cebpf4jnsgd1na2vs0mg"},{"bike_id":"ec5d3b59-0a2b-48a0-a77b-40b13e1fd9f1","system_id":"levelo_inurba_marseille","lat":43.311125,"lon":5.377624,"is_reserved":false,"is_disabled":false,"rental_uris":{"android":"levelo://app?vid=ec5d3b59-0a2b-48a0-a77b-40b13e1fd9f1","ios":"levelo://app?vid=ec5d3b59-0a2b-48a0-a77b-40b13e1fd9f1"},"vehicle_type_id":"4","last_reported":1711663653,"current_range_meters":31200,"station_id":"ce4bgt92rcd13ifvqcg0","pricing_plan_id":"cebpf4jnsgd1na2vs0mg"},{"bike_id":"f5f6ce22-c85c-49b5-8a47-12303670747e","system_id":"levelo_inurba_marseille","lat":43.311125,"lon":5.377624,"is_reserved":false,"is_disabled":false,"rental_uris":{"android":"levelo://app?vid=f5f6ce22-c85c-49b5-8a47-12303670747e","ios":"levelo://app?vid=f5f6ce22-c85c-49b5-8a47-12303670747e"},"vehicle_type_id":"4","last_reported":1711663653,"current_range_meters":8800,"station_id":"ce4bgt92rcd13ifvqcg0","pricing_plan_id":"cebpf4jnsgd1na2vs0mg"},{"bike_id":"ac38b560-5138-42ff-8a9b-cc2859dc8202","system_id":"levelo_inurba_marseille","lat":43.311125,"lon":5.377624,"is_reserved":false,"is_disabled":false,"rental_uris":{"android":"levelo://app?vid=ac38b560-5138-42ff-8a9b-cc2859dc8202","ios":"levelo://app?vid=ac38b560-5138-42ff-8a9b-cc2859dc8202"},"vehicle_type_id":"4","last_reported":1711663653,"current_range_meters":5600,"station_id":"ce4bgt92rcd13ifvqcg0","pricing_plan_id":"cebpf4jnsgd1na2vs0mg"},{"bike_id":"2be13122-9e55-4794-bfce-28df797fbd87","system_id":"levelo_inurba_marseille","lat":43.308474,"lon":5.376818,"is_reserved":false,"is_disabled":false,"rental_uris":{"android":"levelo://app?vid=2be13122-9e55-4794-bfce-28df797fbd87","ios":"levelo://app?vid=2be13122-9e55-4794-bfce-28df797fbd87"},"vehicle_type_id":"4","last_reported":1711663653,"current_range_meters":0,"station_id":"","pricing_plan_id":"cebpf4jnsgd1na2vs0mg"},{"bike_id":"6018f71e-ebc3-4d4f-950c-508b60434cd5","system_id":"levelo_inurba_marseille","lat":43.307945,"lon":5.376487,"is_reserved":false,"is_disabled":false,"rental_uris":{"android":"levelo://app?vid=6018f71e-ebc3-4d4f-950c-508b60434cd5","ios":"levelo://app?vid=6018f71e-ebc3-4d4f-950c-508b60434cd5"},"vehicle_type_id":"4","last_reported":1711663653,"current_range_meters":20400,"station_id":"ce4bgv92rcd13ifvqcq0","pricing_plan_id":"cebpf4jnsgd1na2vs0mg"},{"bike_id":"11f879f1-916b-4381-a3db-789b1970d5e9","system_id":"levelo_inurba_marseille","lat":43.307945,"lon":5.376487,"is_reserved":false,"is_disabled":false,"rental_uris":{"android":"levelo://app?vid=11f879f1-916b-4381-a3db-789b1970d5e9","ios":"levelo://app?vid=11f879f1-916b-4381-a3db-789b1970d5e9"},"vehicle_type_id":"4","last_reported":1711663653,"current_range_meters":28000,"station_id":"ce4bgv92rcd13ifvqcq0","pricing_plan_id":"cebpf4jnsgd1na2vs0mg"},{"bike_id":"63011676-ee73-4695-99ea-1b72ed196d62","system_id":"levelo_inurba_marseille","lat":43.307945,"lon":5.376487,"is_reserved":false,"is_disabled":false,"rental_uris":{"android":"levelo://app?vid=63011676-ee73-4695-99ea-1b72ed196d62","ios":"levelo://app?vid=63011676-ee73-4695-99ea-1b72ed196d62"},"vehicle_type_id":"4","last_reported":1711663653,"current_range_meters":13200,"station_id":"ce4bgv92rcd13ifvqcq0","pricing_plan_id":"cebpf4jnsgd1na2vs0mg"},{"bike_id":"bbfed310-f5ca-41c8-bf3a-f83cd6959697","system_id":"levelo_inurba_marseille","lat":43.313309,"lon":5.378779,"is_reserved":false,"is_disabled":false,"rental_uris":{"android":"levelo://app?vid=bbfed310-f5ca-41c8-bf3a-f83cd6959697","ios":"levelo://app?vid=bbfed310-f5ca-41c8-bf3a-f83cd6959697"},"vehicle_type_id":"4","last_reported":1711663653,"current_range_meters":26800,"station_id":"","pricing_plan_id":"cebpf4jnsgd1na2vs0mg"},{"bike_id":"5cbfd4c0-f04e-46a5-8a34-49703ffe229d","system_id":"levelo_inurba_marseille","lat":43.317075,"lon":5.377367,"is_reserved":false,"is_disabled":false,"rental_uris":{"android":"levelo://app?vid=5cbfd4c0-f04e-46a5-8a34-49703ffe229d","ios":"levelo://app?vid=5cbfd4c0-f04e-46a5-8a34-49703ffe229d"},"vehicle_type_id":"4","last_reported":1711663653,"current_range_meters":28000,"station_id":"ce4bgth2rcd13ifvqch0","pricing_plan_id":"cebpf4jnsgd1na2vs0mg"},{"bike_id":"fe47ae4a-ba1c-446f-b88e-57fdf466bf30","system_id":"levelo_inurba_marseille","lat":43.317075,"lon":5.377367,"is_reserved":false,"is_disabled":false,"rental_uris":{"android":"levelo://app?vid=fe47ae4a-ba1c-446f-b88e-57fdf466bf30","ios":"levelo://app?vid=fe47ae4a-ba1c-446f-b88e-57fdf466bf30"},"vehicle_type_id":"4","last_reported":1711663653,"current_range_meters":2800,"station_id":"ce4bgth2rcd13ifvqch0","pricing_plan_id":"cebpf4jnsgd1na2vs0mg"},{"bike_id":"a2ca5a7d-8f7b-4d48-88a3-0d98f6906d10","system_id":"levelo_inurba_marseille","lat":43.317075,"lon":5.377367,"is_reserved":false,"is_disabled":false,"rental_uris":{"android":"levelo://app?vid=a2ca5a7d-8f7b-4d48-88a3-0d98f6906d10","ios":"levelo://app?vid=a2ca5a7d-8f7b-4d48-88a3-0d98f6906d10"},"vehicle_type_id":"4","last_reported":1711663653,"current_range_meters":19600,"station_id":"ce4bgth2rcd13ifvqch0","pricing_plan_id":"cebpf4jnsgd1na2vs0mg"},{"bike_id":"c0cbdffa-5808-4bb3-87f8-19feb53d44a4","system_id":"levelo_inurba_marseille","lat":43.317075,"lon":5.377367,"is_reserved":false,"is_disabled":false,"rental_uris":{"android":"levelo://app?vid=c0cbdffa-5808-4bb3-87f8-19feb53d44a4","ios":"levelo://app?vid=c0cbdffa-5808-4bb3-87f8-19feb53d44a4"},"vehicle_type_id":"4","last_reported":1711663653,"current_range_meters":8400,"station_id":"ce4bgth2rcd13ifvqch0","pricing_plan_id":"cebpf4jnsgd1na2vs0mg"},{"bike_id":"3ed2df49-b2a5-4776-92e1-a1aa558dfb80","system_id":"levelo_inurba_marseille","lat":43.311762,"lon":5.37993,"is_reserved":false,"is_disabled":false,"rental_uris":{"android":"levelo://app?vid=3ed2df49-b2a5-4776-92e1-a1aa558dfb80","ios":"levelo://app?vid=3ed2df49-b2a5-4776-92e1-a1aa558dfb80"},"vehicle_type_id":"4","last_reported":1711663653,"current_range_meters":0,"station_id":"","pricing_plan_id":"cebpf4jnsgd1na2vs0mg"},{"bike_id":"93acaacc-78e1-4975-9acb-2606c2d9eefe","system_id":"levelo_inurba_marseille","lat":43.315289,"lon":5.380349,"is_reserved":false,"is_disabled":false,"rental_uris":{"android":"levelo://app?vid=93acaacc-78e1-4975-9acb-2606c2d9eefe","ios":"levelo://app?vid=93acaacc-78e1-4975-9acb-2606c2d9eefe"},"vehicle_type_id":"4","last_reported":1711663653,"current_range_meters":4000,"station_id":"ce4bhsp2rcd13ifvqi50","pricing_plan_id":"cebpf4jnsgd1na2vs0mg"},{"bike_id":"82f13c6e-7524-4299-8dbd-957e804e2665","system_id":"levelo_inurba_marseille","lat":43.315289,"lon":5.380349,"is_reserved":false,"is_disabled":false,"rental_uris":{"android":"levelo://app?vid=82f13c6e-7524-4299-8dbd-957e804e2665","ios":"levelo://app?vid=82f13c6e-7524-4299-8dbd-957e804e2665"},"vehicle_type_id":"4","last_reported":1711663653,"current_range_meters":20800,"station_id":"ce4bhsp2rcd13ifvqi50","pricing_plan_id":"cebpf4jnsgd1na2vs0mg"},{"bike_id":"4a452003-4457-4fa1-918e-a4af968b18be","system_id":"levelo_inurba_marseille","lat":43.315289,"lon":5.380349,"is_reserved":false,"is_disabled":false,"rental_uris":{"android":"levelo://app?vid=4a452003-4457-4fa1-918e-a4af968b18be","ios":"levelo://app?vid=4a452003-4457-4fa1-918e-a4af968b18be"},"vehicle_type_id":"4","last_reported":1711663653,"current_range_meters":16000,"station_id":"ce4bhsp2rcd13ifvqi50","pricing_plan_id":"cebpf4jnsgd1na2vs0mg"},{"bike_id":"67246598-1d4b-4557-a8f3-9bc39686ed10","system_id":"levelo_inurba_marseille","lat":43.315289,"lon":5.380349,"is_reserved":false,"is_disabled":false,"rental_uris":{"android":"levelo://app?vid=67246598-1d4b-4557-a8f3-9bc39686ed10","ios":"levelo://app?vid=67246598-1d4b-4557-a8f3-9bc39686ed10"},"vehicle_type_id":"4","last_reported":1711663653,"current_range_meters":9600,"station_id":"ce4bhsp2rcd13ifvqi50","pricing_plan_id":"cebpf4jnsgd1na2vs0mg"},{"bike_id":"c0e24edb-4354-47a2-ae5a-365562df0333","system_id":"levelo_inurba_marseille","lat":43.31554,"lon":5.3807,"is_reserved":false,"is_disabled":false,"rental_uris":{"android":"levelo://app?vid=c0e24edb-4354-47a2-ae5a-365562df0333","ios":"levelo://app?vid=c0e24edb-4354-47a2-ae5a-365562df0333"},"vehicle_type_id":"4","last_reported":1711663653,"current_range_meters":13200,"station_id":"ce4bhsp2rcd13ifvqi50","pricing_plan_id":"cebpf4jnsgd1na2vs0mg"},{"bike_id":"28f4a8d3-057e-4631-81ae-180e22650fa0","system_id":"levelo_inurba_marseille","lat":43.301939,"lon":5.366286,"is_reserved":false,"is_disabled":false,"rental_uris":{"android":"levelo://app?vid=28f4a8d3-057e-4631-81ae-180e22650fa0","ios":"levelo://app?vid=28f4a8d3-057e-4631-81ae-180e22650fa0"},"vehicle_type_id":"4","last_reported":1711663653,"current_range_meters":12800,"station_id":"ce4bgrh2rcd13ifvqc8g","pricing_plan_id":"cebpf4jnsgd1na2vs0mg"},{"bike_id":"d5965d43-6635-4cab-9994-884b11ebdd9e","system_id":"levelo_inurba_marseille","lat":43.301939,"lon":5.366286,"is_reserved":false,"is_disabled":false,"rental_uris":{"android":"levelo://app?vid=d5965d43-6635-4cab-9994-884b11ebdd9e","ios":"levelo://app?vid=d5965d43-6635-4cab-9994-884b11ebdd9e"},"vehicle_type_id":"4","last_reported":1711663653,"current_range_meters":16400,"station_id":"ce4bgrh2rcd13ifvqc8g","pricing_plan_id":"cebpf4jnsgd1na2vs0mg"},{"bike_id":"f0c30e19-309b-48df-896d-e6a3d9e2a038","system_id":"levelo_inurba_marseille","lat":43.301939,"lon":5.366286,"is_reserved":false,"is_disabled":false,"rental_uris":{"android":"levelo://app?vid=f0c30e19-309b-48df-896d-e6a3d9e2a038","ios":"levelo://app?vid=f0c30e19-309b-48df-896d-e6a3d9e2a038"},"vehicle_type_id":"4","last_reported":1711663653,"current_range_meters":9600,"station_id":"ce4bgrh2rcd13ifvqc8g","pricing_plan_id":"cebpf4jnsgd1na2vs0mg"},{"bike_id":"282c8a88-f16f-4230-b70a-39089cb6ae1a","system_id":"levelo_inurba_marseille","lat":43.301939,"lon":5.366286,"is_reserved":false,"is_disabled":false,"rental_uris":{"android":"levelo://app?vid=282c8a88-f16f-4230-b70a-39089cb6ae1a","ios":"levelo://app?vid=282c8a88-f16f-4230-b70a-39089cb6ae1a"},"vehicle_type_id":"4","last_reported":1711663653,"current_range_meters":24400,"station_id":"ce4bgrh2rcd13ifvqc8g","pricing_plan_id":"cebpf4jnsgd1na2vs0mg"},{"bike_id":"959bbde5-ae68-4bab-86ee-c0fc1dcea5c8","system_id":"levelo_inurba_marseille","lat":43.301939,"lon":5.366286,"is_reserved":false,"is_disabled":false,"rental_uris":{"android":"levelo://app?vid=959bbde5-ae68-4bab-86ee-c0fc1dcea5c8","ios":"levelo://app?vid=959bbde5-ae68-4bab-86ee-c0fc1dcea5c8"},"vehicle_type_id":"4","last_reported":1711663653,"current_range_meters":28800,"station_id":"ce4bgrh2rcd13ifvqc8g","pricing_plan_id":"cebpf4jnsgd1na2vs0mg"},{"bike_id":"c7a90ca6-a6ce-4454-b9e8-f76f668624ce","system_id":"levelo_inurba_marseille","lat":43.301939,"lon":5.366286,"is_reserved":false,"is_disabled":false,"rental_uris":{"android":"levelo://app?vid=c7a90ca6-a6ce-4454-b9e8-f76f668624ce","ios":"levelo://app?vid=c7a90ca6-a6ce-4454-b9e8-f76f668624ce"},"vehicle_type_id":"4","last_reported":1711663653,"current_range_meters":26800,"station_id":"ce4bgrh2rcd13ifvqc8g","pricing_plan_id":"cebpf4jnsgd1na2vs0mg"},{"bike_id":"ff9f8218-80f3-4e18-8d6f-60918f92ca0e","system_id":"levelo_inurba_marseille","lat":43.301939,"lon":5.366286,"is_reserved":false,"is_disabled":false,"rental_uris":{"android":"levelo://app?vid=ff9f8218-80f3-4e18-8d6f-60918f92ca0e","ios":"levelo://app?vid=ff9f8218-80f3-4e18-8d6f-60918f92ca0e"},"vehicle_type_id":"4","last_reported":1711663653,"current_range_meters":14400,"station_id":"ce4bgrh2rcd13ifvqc8g","pricing_plan_id":"cebpf4jnsgd1na2vs0mg"},{"bike_id":"9d82d33f-25c6-4645-9dde-5336343c2b12","system_id":"levelo_inurba_marseille","lat":43.308012,"lon":5.381511,"is_reserved":false,"is_disabled":false,"rental_uris":{"android":"levelo://app?vid=9d82d33f-25c6-4645-9dde-5336343c2b12","ios":"levelo://app?vid=9d82d33f-25c6-4645-9dde-5336343c2b12"},"vehicle_type_id":"4","last_reported":1711663653,"current_range_meters":14000,"station_id":"ce4bgt12rcd13ifvqce0","pricing_plan_id":"cebpf4jnsgd1na2vs0mg"},{"bike_id":"ea829be6-1dcf-4536-84cc-197caecc4146","system_id":"levelo_inurba_marseille","lat":43.308012,"lon":5.381511,"is_reserved":false,"is_disabled":false,"rental_uris":{"android":"levelo://app?vid=ea829be6-1dcf-4536-84cc-197caecc4146","ios":"levelo://app?vid=ea829be6-1dcf-4536-84cc-197caecc4146"},"vehicle_type_id":"4","last_reported":1711663653,"current_range_meters":0,"station_id":"ce4bgt12rcd13ifvqce0","pricing_plan_id":"cebpf4jnsgd1na2vs0mg"},{"bike_id":"429c4a3b-0cfb-4f67-b318-5118530daadd","system_id":"levelo_inurba_marseille","lat":43.308012,"lon":5.381511,"is_reserved":false,"is_disabled":false,"rental_uris":{"android":"levelo://app?vid=429c4a3b-0cfb-4f67-b318-5118530daadd","ios":"levelo://app?vid=429c4a3b-0cfb-4f67-b318-5118530daadd"},"vehicle_type_id":"4","last_reported":1711663653,"current_range_meters":5600,"station_id":"ce4bgt12rcd13ifvqce0","pricing_plan_id":"cebpf4jnsgd1na2vs0mg"},{"bike_id":"25bd6481-c83e-45bb-b904-ed786260af27","system_id":"levelo_inurba_marseille","lat":43.308012,"lon":5.381511,"is_reserved":false,"is_disabled":false,"rental_uris":{"android":"levelo://app?vid=25bd6481-c83e-45bb-b904-ed786260af27","ios":"levelo://app?vid=25bd6481-c83e-45bb-b904-ed786260af27"},"vehicle_type_id":"4","last_reported":1711663653,"current_range_meters":31200,"station_id":"ce4bgt12rcd13ifvqce0","pricing_plan_id":"cebpf4jnsgd1na2vs0mg"},{"bike_id":"392e19ab-7a8c-4a45-a190-801687044fdb","system_id":"levelo_inurba_marseille","lat":43.308012,"lon":5.381511,"is_reserved":false,"is_disabled":false,"rental_uris":{"android":"levelo://app?vid=392e19ab-7a8c-4a45-a190-801687044fdb","ios":"levelo://app?vid=392e19ab-7a8c-4a45-a190-801687044fdb"},"vehicle_type_id":"4","last_reported":1711663653,"current_range_meters":0,"station_id":"ce4bgt12rcd13ifvqce0","pricing_plan_id":"cebpf4jnsgd1na2vs0mg"},{"bike_id":"8519a91a-efbe-4b99-8f3f-37b456c5ad9d","system_id":"levelo_inurba_marseille","lat":43.307955,"lon":5.381604,"is_reserved":false,"is_disabled":false,"rental_uris":{"android":"levelo://app?vid=8519a91a-efbe-4b99-8f3f-37b456c5ad9d","ios":"levelo://app?vid=8519a91a-efbe-4b99-8f3f-37b456c5ad9d"},"vehicle_type_id":"4","last_reported":1711663653,"current_range_meters":16000,"station_id":"","pricing_plan_id":"cebpf4jnsgd1na2vs0mg"},{"bike_id":"7f7bfdf4-77a4-4e52-8242-a1f0fe432e7e","system_id":"levelo_inurba_marseille","lat":43.308012,"lon":5.381511,"is_reserved":false,"is_disabled":false,"rental_uris":{"android":"levelo://app?vid=7f7bfdf4-77a4-4e52-8242-a1f0fe432e7e","ios":"levelo://app?vid=7f7bfdf4-77a4-4e52-8242-a1f0fe432e7e"},"vehicle_type_id":"4","last_reported":1711663653,"current_range_meters":14000,"station_id":"ce4bgt12rcd13ifvqce0","pricing_plan_id":"cebpf4jnsgd1na2vs0mg"},{"bike_id":"1166bd8d-21d2-4ca6-ab47-8b3d9e35e2dc","system_id":"levelo_inurba_marseille","lat":43.307945,"lon":5.376487,"is_reserved":false,"is_disabled":false,"rental_uris":{"android":"levelo://app?vid=1166bd8d-21d2-4ca6-ab47-8b3d9e35e2dc","ios":"levelo://app?vid=1166bd8d-21d2-4ca6-ab47-8b3d9e35e2dc"},"vehicle_type_id":"4","last_reported":1711663653,"current_range_meters":1600,"station_id":"ce4bgv92rcd13ifvqcq0","pricing_plan_id":"cebpf4jnsgd1na2vs0mg"},{"bike_id":"917bbf15-9872-4774-b0e5-991899ce8178","system_id":"levelo_inurba_marseille","lat":43.304606,"lon":5.379026,"is_reserved":false,"is_disabled":false,"rental_uris":{"android":"levelo://app?vid=917bbf15-9872-4774-b0e5-991899ce8178","ios":"levelo://app?vid=917bbf15-9872-4774-b0e5-991899ce8178"},"vehicle_type_id":"4","last_reported":1711663653,"current_range_meters":0,"station_id":"ce4bgup2rcd13ifvqcn0","pricing_plan_id":"cebpf4jnsgd1na2vs0mg"},{"bike_id":"097efd98-a822-4dba-9e65-4e37aa449e76","system_id":"levelo_inurba_marseille","lat":43.304606,"lon":5.379026,"is_reserved":false,"is_disabled":false,"rental_uris":{"android":"levelo://app?vid=097efd98-a822-4dba-9e65-4e37aa449e76","ios":"levelo://app?vid=097efd98-a822-4dba-9e65-4e37aa449e76"},"vehicle_type_id":"4","last_reported":1711663653,"current_range_meters":0,"station_id":"ce4bgup2rcd13ifvqcn0","pricing_plan_id":"cebpf4jnsgd1na2vs0mg"},{"bike_id":"04fa233f-8379-419f-96fc-2d37ac6b48d1","system_id":"levelo_inurba_marseille","lat":43.304606,"lon":5.379026,"is_reserved":false,"is_disabled":false,"rental_uris":{"android":"levelo://app?vid=04fa233f-8379-419f-96fc-2d37ac6b48d1","ios":"levelo://app?vid=04fa233f-8379-419f-96fc-2d37ac6b48d1"},"vehicle_type_id":"4","last_reported":1711663653,"current_range_meters":4400,"station_id":"ce4bgup2rcd13ifvqcn0","pricing_plan_id":"cebpf4jnsgd1na2vs0mg"},{"bike_id":"b76eb328-7c28-4b1e-b715-7b916d841084","system_id":"levelo_inurba_marseille","lat":43.304606,"lon":5.379026,"is_reserved":false,"is_disabled":false,"rental_uris":{"android":"levelo://app?vid=b76eb328-7c28-4b1e-b715-7b916d841084","ios":"levelo://app?vid=b76eb328-7c28-4b1e-b715-7b916d841084"},"vehicle_type_id":"4","last_reported":1711663653,"current_range_meters":30000,"station_id":"ce4bgup2rcd13ifvqcn0","pricing_plan_id":"cebpf4jnsgd1na2vs0mg"},{"bike_id":"130e069b-8fc6-4ee8-97cd-0c4f45529b1e","system_id":"levelo_inurba_marseille","lat":43.324771,"lon":5.36557,"is_reserved":false,"is_disabled":false,"rental_uris":{"android":"levelo://app?vid=130e069b-8fc6-4ee8-97cd-0c4f45529b1e","ios":"levelo://app?vid=130e069b-8fc6-4ee8-97cd-0c4f45529b1e"},"vehicle_type_id":"4","last_reported":1711663653,"current_range_meters":9600,"station_id":"ce4bhs12rcd13ifvqhvg","pricing_plan_id":"cebpf4jnsgd1na2vs0mg"},{"bike_id":"d4685ed2-b712-4552-aa1c-8a753cf39d55","system_id":"levelo_inurba_marseille","lat":43.324771,"lon":5.36557,"is_reserved":false,"is_disabled":false,"rental_uris":{"android":"levelo://app?vid=d4685ed2-b712-4552-aa1c-8a753cf39d55","ios":"levelo://app?vid=d4685ed2-b712-4552-aa1c-8a753cf39d55"},"vehicle_type_id":"4","last_reported":1711663653,"current_range_meters":0,"station_id":"ce4bhs12rcd13ifvqhvg","pricing_plan_id":"cebpf4jnsgd1na2vs0mg"},{"bike_id":"f6f72ee2-3f0f-4fe4-910a-0ab1c3a2398f","system_id":"levelo_inurba_marseille","lat":43.324771,"lon":5.36557,"is_reserved":false,"is_disabled":false,"rental_uris":{"android":"levelo://app?vid=f6f72ee2-3f0f-4fe4-910a-0ab1c3a2398f","ios":"levelo://app?vid=f6f72ee2-3f0f-4fe4-910a-0ab1c3a2398f"},"vehicle_type_id":"4","last_reported":1711663653,"current_range_meters":9200,"station_id":"ce4bhs12rcd13ifvqhvg","pricing_plan_id":"cebpf4jnsgd1na2vs0mg"},{"bike_id":"d7e593ae-0e04-4801-88d6-585d610f28a0","system_id":"levelo_inurba_marseille","lat":43.324771,"lon":5.36557,"is_reserved":false,"is_disabled":false,"rental_uris":{"android":"levelo://app?vid=d7e593ae-0e04-4801-88d6-585d610f28a0","ios":"levelo://app?vid=d7e593ae-0e04-4801-88d6-585d610f28a0"},"vehicle_type_id":"4","last_reported":1711663653,"current_range_meters":8800,"station_id":"ce4bhs12rcd13ifvqhvg","pricing_plan_id":"cebpf4jnsgd1na2vs0mg"},{"bike_id":"af0e473d-2c1e-4bd9-9fc7-87a879c91a64","system_id":"levelo_inurba_marseille","lat":43.31078,"lon":5.3835,"is_reserved":false,"is_disabled":false,"rental_uris":{"android":"levelo://app?vid=af0e473d-2c1e-4bd9-9fc7-87a879c91a64","ios":"levelo://app?vid=af0e473d-2c1e-4bd9-9fc7-87a879c91a64"},"vehicle_type_id":"4","last_reported":1711663653,"current_range_meters":13200,"station_id":"ce4bgv92rcd13ifvqcr0","pricing_plan_id":"cebpf4jnsgd1na2vs0mg"},{"bike_id":"afe4da4e-e6f5-4c03-a5a3-9fd54a20473b","system_id":"levelo_inurba_marseille","lat":43.31071,"lon":5.3835,"is_reserved":false,"is_disabled":false,"rental_uris":{"android":"levelo://app?vid=afe4da4e-e6f5-4c03-a5a3-9fd54a20473b","ios":"levelo://app?vid=afe4da4e-e6f5-4c03-a5a3-9fd54a20473b"},"vehicle_type_id":"4","last_reported":1711663653,"current_range_meters":0,"station_id":"ce4bgv92rcd13ifvqcr0","pricing_plan_id":"cebpf4jnsgd1na2vs0mg"},{"bike_id":"aae219d3-9116-4642-8936-586036a9d47c","system_id":"levelo_inurba_marseille","lat":43.31077,"lon":5.38352,"is_reserved":false,"is_disabled":false,"rental_uris":{"android":"levelo://app?vid=aae219d3-9116-4642-8936-586036a9d47c","ios":"levelo://app?vid=aae219d3-9116-4642-8936-586036a9d47c"},"vehicle_type_id":"4","last_reported":1711663653,"current_range_meters":2000,"station_id":"ce4bgv92rcd13ifvqcr0","pricing_plan_id":"cebpf4jnsgd1na2vs0mg"},{"bike_id":"731d926e-19c8-4486-bd70-ea3b0c9ef716","system_id":"levelo_inurba_marseille","lat":43.310757,"lon":5.383583,"is_reserved":false,"is_disabled":false,"rental_uris":{"android":"levelo://app?vid=731d926e-19c8-4486-bd70-ea3b0c9ef716","ios":"levelo://app?vid=731d926e-19c8-4486-bd70-ea3b0c9ef716"},"vehicle_type_id":"4","last_reported":1711663653,"current_range_meters":0,"station_id":"ce4bgv92rcd13ifvqcr0","pricing_plan_id":"cebpf4jnsgd1na2vs0mg"},{"bike_id":"f99a3a84-ed6d-4145-a693-f9e85802692e","system_id":"levelo_inurba_marseille","lat":43.302784,"lon":5.377158,"is_reserved":false,"is_disabled":false,"rental_uris":{"android":"levelo://app?vid=f99a3a84-ed6d-4145-a693-f9e85802692e","ios":"levelo://app?vid=f99a3a84-ed6d-4145-a693-f9e85802692e"},"vehicle_type_id":"4","last_reported":1711663653,"current_range_meters":18400,"station_id":"ce4bguh2rcd13ifvqcj0","pricing_plan_id":"cebpf4jnsgd1na2vs0mg"},{"bike_id":"703118f5-185f-43d3-a3c1-512690f15c40","system_id":"levelo_inurba_marseille","lat":43.310804,"lon":5.38359,"is_reserved":false,"is_disabled":false,"rental_uris":{"android":"levelo://app?vid=703118f5-185f-43d3-a3c1-512690f15c40","ios":"levelo://app?vid=703118f5-185f-43d3-a3c1-512690f15c40"},"vehicle_type_id":"4","last_reported":1711663653,"current_range_meters":800,"station_id":"ce4bgv92rcd13ifvqcr0","pricing_plan_id":"cebpf4jnsgd1na2vs0mg"},{"bike_id":"17bc8836-d7ec-46a6-8535-1a47f4ae85c5","system_id":"levelo_inurba_marseille","lat":43.310804,"lon":5.38359,"is_reserved":false,"is_disabled":false,"rental_uris":{"android":"levelo://app?vid=17bc8836-d7ec-46a6-8535-1a47f4ae85c5","ios":"levelo://app?vid=17bc8836-d7ec-46a6-8535-1a47f4ae85c5"},"vehicle_type_id":"4","last_reported":1711663653,"current_range_meters":0,"station_id":"ce4bgv92rcd13ifvqcr0","pricing_plan_id":"cebpf4jnsgd1na2vs0mg"},{"bike_id":"efba47c0-0371-4a8b-b1a3-18cb5de7595a","system_id":"levelo_inurba_marseille","lat":43.310693,"lon":5.383633,"is_reserved":false,"is_disabled":false,"rental_uris":{"android":"levelo://app?vid=efba47c0-0371-4a8b-b1a3-18cb5de7595a","ios":"levelo://app?vid=efba47c0-0371-4a8b-b1a3-18cb5de7595a"},"vehicle_type_id":"4","last_reported":1711663653,"current_range_meters":0,"station_id":"ce4bgv92rcd13ifvqcr0","pricing_plan_id":"cebpf4jnsgd1na2vs0mg"},{"bike_id":"d6c1b228-f3fc-49cd-b330-56dd7059eb9d","system_id":"levelo_inurba_marseille","lat":43.3014,"lon":5.37428,"is_reserved":false,"is_disabled":false,"rental_uris":{"android":"levelo://app?vid=d6c1b228-f3fc-49cd-b330-56dd7059eb9d","ios":"levelo://app?vid=d6c1b228-f3fc-49cd-b330-56dd7059eb9d"},"vehicle_type_id":"4","last_reported":1711663653,"current_range_meters":0,"station_id":"ce4bgs92rcd13ifvqcc0","pricing_plan_id":"cebpf4jnsgd1na2vs0mg"},{"bike_id":"4dcded47-b7a6-4217-a89a-64f96173659e","system_id":"levelo_inurba_marseille","lat":43.30143,"lon":5.37413,"is_reserved":false,"is_disabled":false,"rental_uris":{"android":"levelo://app?vid=4dcded47-b7a6-4217-a89a-64f96173659e","ios":"levelo://app?vid=4dcded47-b7a6-4217-a89a-64f96173659e"},"vehicle_type_id":"4","last_reported":1711663653,"current_range_meters":9600,"station_id":"ce4bgs92rcd13ifvqcc0","pricing_plan_id":"cebpf4jnsgd1na2vs0mg"},{"bike_id":"bd231c0a-2e9a-4753-9143-34a921226e99","system_id":"levelo_inurba_marseille","lat":43.319942,"lon":5.381484,"is_reserved":false,"is_disabled":false,"rental_uris":{"android":"levelo://app?vid=bd231c0a-2e9a-4753-9143-34a921226e99","ios":"levelo://app?vid=bd231c0a-2e9a-4753-9143-34a921226e99"},"vehicle_type_id":"4","last_reported":1711663653,"current_range_meters":29200,"station_id":"","pricing_plan_id":"cebpf4jnsgd1na2vs0mg"},{"bike_id":"f1a54125-3819-4398-bfe1-38963f6cc47c","system_id":"levelo_inurba_marseille","lat":43.29996,"lon":5.3656,"is_reserved":false,"is_disabled":false,"rental_uris":{"android":"levelo://app?vid=f1a54125-3819-4398-bfe1-38963f6cc47c","ios":"levelo://app?vid=f1a54125-3819-4398-bfe1-38963f6cc47c"},"vehicle_type_id":"4","last_reported":1711663653,"current_range_meters":4400,"station_id":"","pricing_plan_id":"cebpf4jnsgd1na2vs0mg"},{"bike_id":"f5408208-92fc-4487-be05-844dceb07b37","system_id":"levelo_inurba_marseille","lat":43.31997,"lon":5.3815,"is_reserved":false,"is_disabled":false,"rental_uris":{"android":"levelo://app?vid=f5408208-92fc-4487-be05-844dceb07b37","ios":"levelo://app?vid=f5408208-92fc-4487-be05-844dceb07b37"},"vehicle_type_id":"4","last_reported":1711663653,"current_range_meters":0,"station_id":"ce4bhr12rcd13ifvqhpg","pricing_plan_id":"cebpf4jnsgd1na2vs0mg"},{"bike_id":"a263493d-bdcb-4178-8daa-6a519ed8256b","system_id":"levelo_inurba_marseille","lat":43.319935,"lon":5.381699,"is_reserved":false,"is_disabled":false,"rental_uris":{"android":"levelo://app?vid=a263493d-bdcb-4178-8daa-6a519ed8256b","ios":"levelo://app?vid=a263493d-bdcb-4178-8daa-6a519ed8256b"},"vehicle_type_id":"4","last_reported":1711663653,"current_range_meters":10800,"station_id":"ce4bhr12rcd13ifvqhpg","pricing_plan_id":"cebpf4jnsgd1na2vs0mg"},{"bike_id":"557167c4-8ff0-4915-9809-d8a0ab6aed85","system_id":"levelo_inurba_marseille","lat":43.306862,"lon":5.382753,"is_reserved":false,"is_disabled":false,"rental_uris":{"android":"levelo://app?vid=557167c4-8ff0-4915-9809-d8a0ab6aed85","ios":"levelo://app?vid=557167c4-8ff0-4915-9809-d8a0ab6aed85"},"vehicle_type_id":"4","last_reported":1711663653,"current_range_meters":4000,"station_id":"","pricing_plan_id":"cebpf4jnsgd1na2vs0mg"},{"bike_id":"9b5bd7ab-4173-447a-9b53-ce2ad6c3e0ca","system_id":"levelo_inurba_marseille","lat":43.313571,"lon":5.384829,"is_reserved":false,"is_disabled":false,"rental_uris":{"android":"levelo://app?vid=9b5bd7ab-4173-447a-9b53-ce2ad6c3e0ca","ios":"levelo://app?vid=9b5bd7ab-4173-447a-9b53-ce2ad6c3e0ca"},"vehicle_type_id":"4","last_reported":1711663653,"current_range_meters":1600,"station_id":"ce4bgt92rcd13ifvqcf0","pricing_plan_id":"cebpf4jnsgd1na2vs0mg"},{"bike_id":"c157b9e6-a243-494d-be19-38f43f34f53a","system_id":"levelo_inurba_marseille","lat":43.31368,"lon":5.38488,"is_reserved":false,"is_disabled":false,"rental_uris":{"android":"levelo://app?vid=c157b9e6-a243-494d-be19-38f43f34f53a","ios":"levelo://app?vid=c157b9e6-a243-494d-be19-38f43f34f53a"},"vehicle_type_id":"4","last_reported":1711663653,"current_range_meters":6400,"station_id":"ce4bgt92rcd13ifvqcf0","pricing_plan_id":"cebpf4jnsgd1na2vs0mg"},{"bike_id":"86148eb6-b774-4b2a-8d56-258c439131fc","system_id":"levelo_inurba_marseille","lat":43.313571,"lon":5.384829,"is_reserved":false,"is_disabled":false,"rental_uris":{"android":"levelo://app?vid=86148eb6-b774-4b2a-8d56-258c439131fc","ios":"levelo://app?vid=86148eb6-b774-4b2a-8d56-258c439131fc"},"vehicle_type_id":"4","last_reported":1711663653,"current_range_meters":21200,"station_id":"ce4bgt92rcd13ifvqcf0","pricing_plan_id":"cebpf4jnsgd1na2vs0mg"},{"bike_id":"5c70d7e8-e246-441d-a426-cf39c0fd2bb5","system_id":"levelo_inurba_marseille","lat":43.31244,"lon":5.38497,"is_reserved":false,"is_disabled":false,"rental_uris":{"android":"levelo://app?vid=5c70d7e8-e246-441d-a426-cf39c0fd2bb5","ios":"levelo://app?vid=5c70d7e8-e246-441d-a426-cf39c0fd2bb5"},"vehicle_type_id":"4","last_reported":1711663653,"current_range_meters":16000,"station_id":"","pricing_plan_id":"cebpf4jnsgd1na2vs0mg"},{"bike_id":"260375e2-c8db-490c-a007-774bf39bcde5","system_id":"levelo_inurba_marseille","lat":43.31366,"lon":5.38494,"is_reserved":false,"is_disabled":false,"rental_uris":{"android":"levelo://app?vid=260375e2-c8db-490c-a007-774bf39bcde5","ios":"levelo://app?vid=260375e2-c8db-490c-a007-774bf39bcde5"},"vehicle_type_id":"4","last_reported":1711663653,"current_range_meters":0,"station_id":"ce4bgt92rcd13ifvqcf0","pricing_plan_id":"cebpf4jnsgd1na2vs0mg"},{"bike_id":"4c006252-0c18-4bf1-8554-01094e819444","system_id":"levelo_inurba_marseille","lat":43.31368,"lon":5.38494,"is_reserved":false,"is_disabled":false,"rental_uris":{"android":"levelo://app?vid=4c006252-0c18-4bf1-8554-01094e819444","ios":"levelo://app?vid=4c006252-0c18-4bf1-8554-01094e819444"},"vehicle_type_id":"4","last_reported":1711663653,"current_range_meters":11200,"station_id":"ce4bgt92rcd13ifvqcf0","pricing_plan_id":"cebpf4jnsgd1na2vs0mg"},{"bike_id":"82e0ac95-19ac-44d1-a4e4-74cef857f1ae","system_id":"levelo_inurba_marseille","lat":43.31367,"lon":5.38495,"is_reserved":false,"is_disabled":false,"rental_uris":{"android":"levelo://app?vid=82e0ac95-19ac-44d1-a4e4-74cef857f1ae","ios":"levelo://app?vid=82e0ac95-19ac-44d1-a4e4-74cef857f1ae"},"vehicle_type_id":"4","last_reported":1711663653,"current_range_meters":0,"station_id":"ce4bgt92rcd13ifvqcf0","pricing_plan_id":"cebpf4jnsgd1na2vs0mg"},{"bike_id":"c28b1cf1-c19c-4db1-a1f8-8fcedcf43efd","system_id":"levelo_inurba_marseille","lat":43.31356,"lon":5.38497,"is_reserved":false,"is_disabled":false,"rental_uris":{"android":"levelo://app?vid=c28b1cf1-c19c-4db1-a1f8-8fcedcf43efd","ios":"levelo://app?vid=c28b1cf1-c19c-4db1-a1f8-8fcedcf43efd"},"vehicle_type_id":"4","last_reported":1711663653,"current_range_meters":1200,"station_id":"ce4bgt92rcd13ifvqcf0","pricing_plan_id":"cebpf4jnsgd1na2vs0mg"},{"bike_id":"4f36fa0c-1eaa-43a7-9119-ff9b19b35fc6","system_id":"levelo_inurba_marseille","lat":43.313571,"lon":5.384829,"is_reserved":false,"is_disabled":false,"rental_uris":{"android":"levelo://app?vid=4f36fa0c-1eaa-43a7-9119-ff9b19b35fc6","ios":"levelo://app?vid=4f36fa0c-1eaa-43a7-9119-ff9b19b35fc6"},"vehicle_type_id":"4","last_reported":1711663653,"current_range_meters":0,"station_id":"ce4bgt92rcd13ifvqcf0","pricing_plan_id":"cebpf4jnsgd1na2vs0mg"},{"bike_id":"a522f003-8d71-4b9e-bfda-6c4f0588bf7f","system_id":"levelo_inurba_marseille","lat":43.313571,"lon":5.384829,"is_reserved":false,"is_disabled":false,"rental_uris":{"android":"levelo://app?vid=a522f003-8d71-4b9e-bfda-6c4f0588bf7f","ios":"levelo://app?vid=a522f003-8d71-4b9e-bfda-6c4f0588bf7f"},"vehicle_type_id":"4","last_reported":1711663653,"current_range_meters":1600,"station_id":"ce4bgt92rcd13ifvqcf0","pricing_plan_id":"cebpf4jnsgd1na2vs0mg"},{"bike_id":"63139e3e-9f94-4457-b5d1-d9fcf91844c8","system_id":"levelo_inurba_marseille","lat":43.31368,"lon":5.38498,"is_reserved":false,"is_disabled":false,"rental_uris":{"android":"levelo://app?vid=63139e3e-9f94-4457-b5d1-d9fcf91844c8","ios":"levelo://app?vid=63139e3e-9f94-4457-b5d1-d9fcf91844c8"},"vehicle_type_id":"4","last_reported":1711663653,"current_range_meters":0,"station_id":"ce4bgt92rcd13ifvqcf0","pricing_plan_id":"cebpf4jnsgd1na2vs0mg"},{"bike_id":"1383002d-7b31-4e37-bbd9-8ccc582b3060","system_id":"levelo_inurba_marseille","lat":43.31367,"lon":5.38505,"is_reserved":false,"is_disabled":false,"rental_uris":{"android":"levelo://app?vid=1383002d-7b31-4e37-bbd9-8ccc582b3060","ios":"levelo://app?vid=1383002d-7b31-4e37-bbd9-8ccc582b3060"},"vehicle_type_id":"4","last_reported":1711663653,"current_range_meters":16800,"station_id":"ce4bgt92rcd13ifvqcf0","pricing_plan_id":"cebpf4jnsgd1na2vs0mg"},{"bike_id":"9c9be7d6-f2bf-4910-922a-e63a15907962","system_id":"levelo_inurba_marseille","lat":43.299222,"lon":5.365554,"is_reserved":false,"is_disabled":false,"rental_uris":{"android":"levelo://app?vid=9c9be7d6-f2bf-4910-922a-e63a15907962","ios":"levelo://app?vid=9c9be7d6-f2bf-4910-922a-e63a15907962"},"vehicle_type_id":"4","last_reported":1711663653,"current_range_meters":28400,"station_id":"ce4bgm92rcd13ifvqbr0","pricing_plan_id":"cebpf4jnsgd1na2vs0mg"},{"bike_id":"1340f7c3-a886-4d53-9330-a1417cdc65ac","system_id":"levelo_inurba_marseille","lat":43.299222,"lon":5.365554,"is_reserved":false,"is_disabled":false,"rental_uris":{"android":"levelo://app?vid=1340f7c3-a886-4d53-9330-a1417cdc65ac","ios":"levelo://app?vid=1340f7c3-a886-4d53-9330-a1417cdc65ac"},"vehicle_type_id":"4","last_reported":1711663653,"current_range_meters":4000,"station_id":"ce4bgm92rcd13ifvqbr0","pricing_plan_id":"cebpf4jnsgd1na2vs0mg"},{"bike_id":"fb7e9708-b388-4dcb-bcb3-1ad1d4ba6af3","system_id":"levelo_inurba_marseille","lat":43.299222,"lon":5.365554,"is_reserved":false,"is_disabled":false,"rental_uris":{"android":"levelo://app?vid=fb7e9708-b388-4dcb-bcb3-1ad1d4ba6af3","ios":"levelo://app?vid=fb7e9708-b388-4dcb-bcb3-1ad1d4ba6af3"},"vehicle_type_id":"4","last_reported":1711663653,"current_range_meters":29200,"station_id":"ce4bgm92rcd13ifvqbr0","pricing_plan_id":"cebpf4jnsgd1na2vs0mg"},{"bike_id":"c4189af1-ba96-408c-b732-f8217dda1776","system_id":"levelo_inurba_marseille","lat":43.299222,"lon":5.365554,"is_reserved":false,"is_disabled":false,"rental_uris":{"android":"levelo://app?vid=c4189af1-ba96-408c-b732-f8217dda1776","ios":"levelo://app?vid=c4189af1-ba96-408c-b732-f8217dda1776"},"vehicle_type_id":"4","last_reported":1711663653,"current_range_meters":27200,"station_id":"ce4bgm92rcd13ifvqbr0","pricing_plan_id":"cebpf4jnsgd1na2vs0mg"},{"bike_id":"e579c225-273b-4622-b284-4ab06091d381","system_id":"levelo_inurba_marseille","lat":43.299222,"lon":5.365554,"is_reserved":false,"is_disabled":false,"rental_uris":{"android":"levelo://app?vid=e579c225-273b-4622-b284-4ab06091d381","ios":"levelo://app?vid=e579c225-273b-4622-b284-4ab06091d381"},"vehicle_type_id":"4","last_reported":1711663653,"current_range_meters":29600,"station_id":"ce4bgm92rcd13ifvqbr0","pricing_plan_id":"cebpf4jnsgd1na2vs0mg"},{"bike_id":"b3763941-4f23-4c3e-bfc6-063d124f0057","system_id":"levelo_inurba_marseille","lat":43.299724,"lon":5.371829,"is_reserved":false,"is_disabled":false,"rental_uris":{"android":"levelo://app?vid=b3763941-4f23-4c3e-bfc6-063d124f0057","ios":"levelo://app?vid=b3763941-4f23-4c3e-bfc6-063d124f0057"},"vehicle_type_id":"4","last_reported":1711663653,"current_range_meters":30800,"station_id":"ce4bgr92rcd13ifvqc7g","pricing_plan_id":"cebpf4jnsgd1na2vs0mg"},{"bike_id":"92c6c849-f1c1-4c4f-9b1f-854ba7571ccb","system_id":"levelo_inurba_marseille","lat":43.305364,"lon":5.384119,"is_reserved":false,"is_disabled":false,"rental_uris":{"android":"levelo://app?vid=92c6c849-f1c1-4c4f-9b1f-854ba7571ccb","ios":"levelo://app?vid=92c6c849-f1c1-4c4f-9b1f-854ba7571ccb"},"vehicle_type_id":"4","last_reported":1711663653,"current_range_meters":0,"station_id":"ce4bgg92rcd13ifvqb30","pricing_plan_id":"cebpf4jnsgd1na2vs0mg"},{"bike_id":"7832d712-fa84-4c08-9ab2-c8702d3de357","system_id":"levelo_inurba_marseille","lat":43.29852,"lon":5.36274,"is_reserved":false,"is_disabled":false,"rental_uris":{"android":"levelo://app?vid=7832d712-fa84-4c08-9ab2-c8702d3de357","ios":"levelo://app?vid=7832d712-fa84-4c08-9ab2-c8702d3de357"},"vehicle_type_id":"4","last_reported":1711663653,"current_range_meters":15600,"station_id":"ce4bgpp2rcd13ifvqc3g","pricing_plan_id":"cebpf4jnsgd1na2vs0mg"},{"bike_id":"1bd8221c-658d-4d1d-affc-bfa8af7fbe2d","system_id":"levelo_inurba_marseille","lat":43.29849,"lon":5.36286,"is_reserved":false,"is_disabled":false,"rental_uris":{"android":"levelo://app?vid=1bd8221c-658d-4d1d-affc-bfa8af7fbe2d","ios":"levelo://app?vid=1bd8221c-658d-4d1d-affc-bfa8af7fbe2d"},"vehicle_type_id":"4","last_reported":1711663653,"current_range_meters":31600,"station_id":"ce4bgpp2rcd13ifvqc3g","pricing_plan_id":"cebpf4jnsgd1na2vs0mg"},{"bike_id":"0bafa354-3fc2-40c2-8f30-1842fb4268d4","system_id":"levelo_inurba_marseille","lat":43.29847,"lon":5.36283,"is_reserved":false,"is_disabled":false,"rental_uris":{"android":"levelo://app?vid=0bafa354-3fc2-40c2-8f30-1842fb4268d4","ios":"levelo://app?vid=0bafa354-3fc2-40c2-8f30-1842fb4268d4"},"vehicle_type_id":"4","last_reported":1711663653,"current_range_meters":8000,"station_id":"ce4bgpp2rcd13ifvqc3g","pricing_plan_id":"cebpf4jnsgd1na2vs0mg"},{"bike_id":"ff654bcd-6a15-4e91-b60f-b3371a1f59f3","system_id":"levelo_inurba_marseille","lat":43.298433,"lon":5.362774,"is_reserved":false,"is_disabled":false,"rental_uris":{"android":"levelo://app?vid=ff654bcd-6a15-4e91-b60f-b3371a1f59f3","ios":"levelo://app?vid=ff654bcd-6a15-4e91-b60f-b3371a1f59f3"},"vehicle_type_id":"4","last_reported":1711663653,"current_range_meters":28000,"station_id":"ce4bgpp2rcd13ifvqc3g","pricing_plan_id":"cebpf4jnsgd1na2vs0mg"},{"bike_id":"89a9e3f4-b166-4154-a977-7585c3382080","system_id":"levelo_inurba_marseille","lat":43.299182,"lon":5.37469,"is_reserved":false,"is_disabled":false,"rental_uris":{"android":"levelo://app?vid=89a9e3f4-b166-4154-a977-7585c3382080","ios":"levelo://app?vid=89a9e3f4-b166-4154-a977-7585c3382080"},"vehicle_type_id":"4","last_reported":1711663653,"current_range_meters":0,"station_id":"ce4bgjh2rcd13ifvqbg0","pricing_plan_id":"cebpf4jnsgd1na2vs0mg"},{"bike_id":"6b057422-5afa-4b79-9e09-3994d0b52239","system_id":"levelo_inurba_marseille","lat":43.299167,"lon":5.374671,"is_reserved":false,"is_disabled":false,"rental_uris":{"android":"levelo://app?vid=6b057422-5afa-4b79-9e09-3994d0b52239","ios":"levelo://app?vid=6b057422-5afa-4b79-9e09-3994d0b52239"},"vehicle_type_id":"4","last_reported":1711663653,"current_range_meters":0,"station_id":"ce4bgjh2rcd13ifvqbg0","pricing_plan_id":"cebpf4jnsgd1na2vs0mg"},{"bike_id":"cbd10193-4495-480c-980f-1524391e0f83","system_id":"levelo_inurba_marseille","lat":43.311722,"lon":5.387247,"is_reserved":false,"is_disabled":false,"rental_uris":{"android":"levelo://app?vid=cbd10193-4495-480c-980f-1524391e0f83","ios":"levelo://app?vid=cbd10193-4495-480c-980f-1524391e0f83"},"vehicle_type_id":"4","last_reported":1711663653,"current_range_meters":13200,"station_id":"ce4bgv12rcd13ifvqcp0","pricing_plan_id":"cebpf4jnsgd1na2vs0mg"},{"bike_id":"f6105b78-22cf-4e0d-a7de-59af81d0bfb3","system_id":"levelo_inurba_marseille","lat":43.32118,"lon":5.38403,"is_reserved":false,"is_disabled":false,"rental_uris":{"android":"levelo://app?vid=f6105b78-22cf-4e0d-a7de-59af81d0bfb3","ios":"levelo://app?vid=f6105b78-22cf-4e0d-a7de-59af81d0bfb3"},"vehicle_type_id":"4","last_reported":1711663653,"current_range_meters":0,"station_id":"","pricing_plan_id":"cebpf4jnsgd1na2vs0mg"},{"bike_id":"5f429c77-9e67-4259-be61-13c035e68f23","system_id":"levelo_inurba_marseille","lat":43.297794,"lon":5.370888,"is_reserved":false,"is_disabled":false,"rental_uris":{"android":"levelo://app?vid=5f429c77-9e67-4259-be61-13c035e68f23","ios":"levelo://app?vid=5f429c77-9e67-4259-be61-13c035e68f23"},"vehicle_type_id":"4","last_reported":1711663653,"current_range_meters":19200,"station_id":"ce4bgop2rcd13ifvqc1g","pricing_plan_id":"cebpf4jnsgd1na2vs0mg"},{"bike_id":"3afedf14-8250-458f-950c-938ffe028edf","system_id":"levelo_inurba_marseille","lat":43.29784,"lon":5.37099,"is_reserved":false,"is_disabled":false,"rental_uris":{"android":"levelo://app?vid=3afedf14-8250-458f-950c-938ffe028edf","ios":"levelo://app?vid=3afedf14-8250-458f-950c-938ffe028edf"},"vehicle_type_id":"4","last_reported":1711663653,"current_range_meters":0,"station_id":"ce4bgop2rcd13ifvqc1g","pricing_plan_id":"cebpf4jnsgd1na2vs0mg"},{"bike_id":"38f1a639-8cf7-49d0-b93e-6357ea0a9b6b","system_id":"levelo_inurba_marseille","lat":43.322872,"lon":5.382756,"is_reserved":false,"is_disabled":false,"rental_uris":{"android":"levelo://app?vid=38f1a639-8cf7-49d0-b93e-6357ea0a9b6b","ios":"levelo://app?vid=38f1a639-8cf7-49d0-b93e-6357ea0a9b6b"},"vehicle_type_id":"4","last_reported":1711663653,"current_range_meters":30800,"station_id":"ce4bhr12rcd13ifvqhqg","pricing_plan_id":"cebpf4jnsgd1na2vs0mg"},{"bike_id":"3b76ca08-e291-4dd2-a1a1-281e8e1d26b3","system_id":"levelo_inurba_marseille","lat":43.32289,"lon":5.38267,"is_reserved":false,"is_disabled":false,"rental_uris":{"android":"levelo://app?vid=3b76ca08-e291-4dd2-a1a1-281e8e1d26b3","ios":"levelo://app?vid=3b76ca08-e291-4dd2-a1a1-281e8e1d26b3"},"vehicle_type_id":"4","last_reported":1711663653,"current_range_meters":9200,"station_id":"ce4bhr12rcd13ifvqhqg","pricing_plan_id":"cebpf4jnsgd1na2vs0mg"},{"bike_id":"54481d2e-766f-4405-a73d-16a751028189","system_id":"levelo_inurba_marseille","lat":43.299222,"lon":5.365554,"is_reserved":false,"is_disabled":false,"rental_uris":{"android":"levelo://app?vid=54481d2e-766f-4405-a73d-16a751028189","ios":"levelo://app?vid=54481d2e-766f-4405-a73d-16a751028189"},"vehicle_type_id":"4","last_reported":1711663653,"current_range_meters":20000,"station_id":"ce4bgm92rcd13ifvqbr0","pricing_plan_id":"cebpf4jnsgd1na2vs0mg"},{"bike_id":"317519cd-ef36-403f-bba6-2177a25028b5","system_id":"levelo_inurba_marseille","lat":43.322872,"lon":5.382756,"is_reserved":false,"is_disabled":false,"rental_uris":{"android":"levelo://app?vid=317519cd-ef36-403f-bba6-2177a25028b5","ios":"levelo://app?vid=317519cd-ef36-403f-bba6-2177a25028b5"},"vehicle_type_id":"4","last_reported":1711663653,"current_range_meters":31600,"station_id":"ce4bhr12rcd13ifvqhqg","pricing_plan_id":"cebpf4jnsgd1na2vs0mg"},{"bike_id":"41d6ed59-32a2-4d73-8e7d-4df4fef1ad39","system_id":"levelo_inurba_marseille","lat":43.322872,"lon":5.382756,"is_reserved":false,"is_disabled":false,"rental_uris":{"android":"levelo://app?vid=41d6ed59-32a2-4d73-8e7d-4df4fef1ad39","ios":"levelo://app?vid=41d6ed59-32a2-4d73-8e7d-4df4fef1ad39"},"vehicle_type_id":"4","last_reported":1711663653,"current_range_meters":31600,"station_id":"ce4bhr12rcd13ifvqhqg","pricing_plan_id":"cebpf4jnsgd1na2vs0mg"},{"bike_id":"b72021d7-3a71-42c2-8c93-39cdac26ee66","system_id":"levelo_inurba_marseille","lat":43.322872,"lon":5.382756,"is_reserved":false,"is_disabled":false,"rental_uris":{"android":"levelo://app?vid=b72021d7-3a71-42c2-8c93-39cdac26ee66","ios":"levelo://app?vid=b72021d7-3a71-42c2-8c93-39cdac26ee66"},"vehicle_type_id":"4","last_reported":1711663653,"current_range_meters":23600,"station_id":"ce4bhr12rcd13ifvqhqg","pricing_plan_id":"cebpf4jnsgd1na2vs0mg"},{"bike_id":"b7b93f0e-556f-4660-b726-adf5a8914869","system_id":"levelo_inurba_marseille","lat":43.322872,"lon":5.382756,"is_reserved":false,"is_disabled":false,"rental_uris":{"android":"levelo://app?vid=b7b93f0e-556f-4660-b726-adf5a8914869","ios":"levelo://app?vid=b7b93f0e-556f-4660-b726-adf5a8914869"},"vehicle_type_id":"4","last_reported":1711663653,"current_range_meters":16800,"station_id":"ce4bhr12rcd13ifvqhqg","pricing_plan_id":"cebpf4jnsgd1na2vs0mg"},{"bike_id":"802b76b4-cbd0-49ce-8780-97d23a65aa6f","system_id":"levelo_inurba_marseille","lat":43.322872,"lon":5.382756,"is_reserved":false,"is_disabled":false,"rental_uris":{"android":"levelo://app?vid=802b76b4-cbd0-49ce-8780-97d23a65aa6f","ios":"levelo://app?vid=802b76b4-cbd0-49ce-8780-97d23a65aa6f"},"vehicle_type_id":"4","last_reported":1711663653,"current_range_meters":27600,"station_id":"ce4bhr12rcd13ifvqhqg","pricing_plan_id":"cebpf4jnsgd1na2vs0mg"},{"bike_id":"f7669e84-a7b6-45f4-8f83-dbe279e0bd01","system_id":"levelo_inurba_marseille","lat":43.32291,"lon":5.38279,"is_reserved":false,"is_disabled":false,"rental_uris":{"android":"levelo://app?vid=f7669e84-a7b6-45f4-8f83-dbe279e0bd01","ios":"levelo://app?vid=f7669e84-a7b6-45f4-8f83-dbe279e0bd01"},"vehicle_type_id":"4","last_reported":1711663653,"current_range_meters":8400,"station_id":"ce4bhr12rcd13ifvqhqg","pricing_plan_id":"cebpf4jnsgd1na2vs0mg"},{"bike_id":"3ea4aac5-44e9-4cb1-b4cf-e1940df9c198","system_id":"levelo_inurba_marseille","lat":43.2996,"lon":5.37823,"is_reserved":false,"is_disabled":false,"rental_uris":{"android":"levelo://app?vid=3ea4aac5-44e9-4cb1-b4cf-e1940df9c198","ios":"levelo://app?vid=3ea4aac5-44e9-4cb1-b4cf-e1940df9c198"},"vehicle_type_id":"4","last_reported":1711663653,"current_range_meters":3600,"station_id":"","pricing_plan_id":"cebpf4jnsgd1na2vs0mg"},{"bike_id":"0dc88b79-c621-4fee-9587-7d3e109e817b","system_id":"levelo_inurba_marseille","lat":43.297163,"lon":5.365866,"is_reserved":false,"is_disabled":false,"rental_uris":{"android":"levelo://app?vid=0dc88b79-c621-4fee-9587-7d3e109e817b","ios":"levelo://app?vid=0dc88b79-c621-4fee-9587-7d3e109e817b"},"vehicle_type_id":"4","last_reported":1711663653,"current_range_meters":29200,"station_id":"ce4bgn12rcd13ifvqbt0","pricing_plan_id":"cebpf4jnsgd1na2vs0mg"},{"bike_id":"1550bd03-8b11-4ba3-8ca6-1c583c4d0ab3","system_id":"levelo_inurba_marseille","lat":43.297163,"lon":5.365866,"is_reserved":false,"is_disabled":false,"rental_uris":{"android":"levelo://app?vid=1550bd03-8b11-4ba3-8ca6-1c583c4d0ab3","ios":"levelo://app?vid=1550bd03-8b11-4ba3-8ca6-1c583c4d0ab3"},"vehicle_type_id":"4","last_reported":1711663653,"current_range_meters":21200,"station_id":"ce4bgn12rcd13ifvqbt0","pricing_plan_id":"cebpf4jnsgd1na2vs0mg"},{"bike_id":"1c86ebb7-8c50-46bb-9369-c41a225a6024","system_id":"levelo_inurba_marseille","lat":43.297163,"lon":5.365866,"is_reserved":false,"is_disabled":false,"rental_uris":{"android":"levelo://app?vid=1c86ebb7-8c50-46bb-9369-c41a225a6024","ios":"levelo://app?vid=1c86ebb7-8c50-46bb-9369-c41a225a6024"},"vehicle_type_id":"4","last_reported":1711663653,"current_range_meters":29200,"station_id":"ce4bgn12rcd13ifvqbt0","pricing_plan_id":"cebpf4jnsgd1na2vs0mg"},{"bike_id":"7fe986bf-09b8-4a0c-be82-d4f49cba6bc1","system_id":"levelo_inurba_marseille","lat":43.309589,"lon":5.390258,"is_reserved":false,"is_disabled":false,"rental_uris":{"android":"levelo://app?vid=7fe986bf-09b8-4a0c-be82-d4f49cba6bc1","ios":"levelo://app?vid=7fe986bf-09b8-4a0c-be82-d4f49cba6bc1"},"vehicle_type_id":"4","last_reported":1711663653,"current_range_meters":9200,"station_id":"ce4bgup2rcd13ifvqco0","pricing_plan_id":"cebpf4jnsgd1na2vs0mg"},{"bike_id":"963ea2fa-2275-44bf-b5f7-617cf8d24c2d","system_id":"levelo_inurba_marseille","lat":43.297163,"lon":5.365866,"is_reserved":false,"is_disabled":false,"rental_uris":{"android":"levelo://app?vid=963ea2fa-2275-44bf-b5f7-617cf8d24c2d","ios":"levelo://app?vid=963ea2fa-2275-44bf-b5f7-617cf8d24c2d"},"vehicle_type_id":"4","last_reported":1711663653,"current_range_meters":8400,"station_id":"ce4bgn12rcd13ifvqbt0","pricing_plan_id":"cebpf4jnsgd1na2vs0mg"},{"bike_id":"b683bf29-f9b0-4970-a702-d9c6d90437a7","system_id":"levelo_inurba_marseille","lat":43.297163,"lon":5.365866,"is_reserved":false,"is_disabled":false,"rental_uris":{"android":"levelo://app?vid=b683bf29-f9b0-4970-a702-d9c6d90437a7","ios":"levelo://app?vid=b683bf29-f9b0-4970-a702-d9c6d90437a7"},"vehicle_type_id":"4","last_reported":1711663653,"current_range_meters":22800,"station_id":"ce4bgn12rcd13ifvqbt0","pricing_plan_id":"cebpf4jnsgd1na2vs0mg"},{"bike_id":"07431bbb-b567-47a9-ac0a-f955c1a3e829","system_id":"levelo_inurba_marseille","lat":43.297163,"lon":5.365866,"is_reserved":false,"is_disabled":false,"rental_uris":{"android":"levelo://app?vid=07431bbb-b567-47a9-ac0a-f955c1a3e829","ios":"levelo://app?vid=07431bbb-b567-47a9-ac0a-f955c1a3e829"},"vehicle_type_id":"4","last_reported":1711663653,"current_range_meters":22800,"station_id":"ce4bgn12rcd13ifvqbt0","pricing_plan_id":"cebpf4jnsgd1na2vs0mg"},{"bike_id":"b55483c7-5e79-4e88-9f14-f5bebeec9e29","system_id":"levelo_inurba_marseille","lat":43.294153,"lon":5.386305,"is_reserved":false,"is_disabled":false,"rental_uris":{"android":"levelo://app?vid=b55483c7-5e79-4e88-9f14-f5bebeec9e29","ios":"levelo://app?vid=b55483c7-5e79-4e88-9f14-f5bebeec9e29"},"vehicle_type_id":"4","last_reported":1711663653,"current_range_meters":12000,"station_id":"ce4bh2h2rcd13ifvqdh0","pricing_plan_id":"cebpf4jnsgd1na2vs0mg"},{"bike_id":"df1e6ea2-2d2a-4468-bf41-ca2da1e31172","system_id":"levelo_inurba_marseille","lat":43.31556,"lon":5.38842,"is_reserved":false,"is_disabled":false,"rental_uris":{"android":"levelo://app?vid=df1e6ea2-2d2a-4468-bf41-ca2da1e31172","ios":"levelo://app?vid=df1e6ea2-2d2a-4468-bf41-ca2da1e31172"},"vehicle_type_id":"4","last_reported":1711663653,"current_range_meters":0,"station_id":"","pricing_plan_id":"cebpf4jnsgd1na2vs0mg"},{"bike_id":"dabe3db4-2799-4509-8127-743c9266ea50","system_id":"levelo_inurba_marseille","lat":43.297156,"lon":5.362509,"is_reserved":false,"is_disabled":false,"rental_uris":{"android":"levelo://app?vid=dabe3db4-2799-4509-8127-743c9266ea50","ios":"levelo://app?vid=dabe3db4-2799-4509-8127-743c9266ea50"},"vehicle_type_id":"4","last_reported":1711663653,"current_range_meters":4000,"station_id":"","pricing_plan_id":"cebpf4jnsgd1na2vs0mg"},{"bike_id":"33e12740-741a-404d-b07e-9ac7cb548135","system_id":"levelo_inurba_marseille","lat":43.2968,"lon":5.37291,"is_reserved":false,"is_disabled":false,"rental_uris":{"android":"levelo://app?vid=33e12740-741a-404d-b07e-9ac7cb548135","ios":"levelo://app?vid=33e12740-741a-404d-b07e-9ac7cb548135"},"vehicle_type_id":"4","last_reported":1711663653,"current_range_meters":28000,"station_id":"ce4bgk12rcd13ifvqbj0","pricing_plan_id":"cebpf4jnsgd1na2vs0mg"},{"bike_id":"7b307647-4fd3-423a-b5c2-c265a47d6d18","system_id":"levelo_inurba_marseille","lat":43.296131,"lon":5.370791,"is_reserved":false,"is_disabled":false,"rental_uris":{"android":"levelo://app?vid=7b307647-4fd3-423a-b5c2-c265a47d6d18","ios":"levelo://app?vid=7b307647-4fd3-423a-b5c2-c265a47d6d18"},"vehicle_type_id":"4","last_reported":1711663653,"current_range_meters":24000,"station_id":"ce4bgnh2rcd13ifvqc0g","pricing_plan_id":"cebpf4jnsgd1na2vs0mg"},{"bike_id":"3e25127a-8d31-4f47-a6f4-db7e063d2c67","system_id":"levelo_inurba_marseille","lat":43.29573,"lon":5.367355,"is_reserved":false,"is_disabled":false,"rental_uris":{"android":"levelo://app?vid=3e25127a-8d31-4f47-a6f4-db7e063d2c67","ios":"levelo://app?vid=3e25127a-8d31-4f47-a6f4-db7e063d2c67"},"vehicle_type_id":"4","last_reported":1711663653,"current_range_meters":31600,"station_id":"ce4bgph2rcd13ifvqc2g","pricing_plan_id":"cebpf4jnsgd1na2vs0mg"},{"bike_id":"a1214dc7-8993-4531-a480-ee4656a478fa","system_id":"levelo_inurba_marseille","lat":43.296129,"lon":5.370777,"is_reserved":false,"is_disabled":false,"rental_uris":{"android":"levelo://app?vid=a1214dc7-8993-4531-a480-ee4656a478fa","ios":"levelo://app?vid=a1214dc7-8993-4531-a480-ee4656a478fa"},"vehicle_type_id":"4","last_reported":1711663653,"current_range_meters":6000,"station_id":"ce4bgnh2rcd13ifvqc0g","pricing_plan_id":"cebpf4jnsgd1na2vs0mg"},{"bike_id":"6f8a7658-c49a-419e-b6a7-83b6597a5295","system_id":"levelo_inurba_marseille","lat":43.299062,"lon":5.381412,"is_reserved":false,"is_disabled":false,"rental_uris":{"android":"levelo://app?vid=6f8a7658-c49a-419e-b6a7-83b6597a5295","ios":"levelo://app?vid=6f8a7658-c49a-419e-b6a7-83b6597a5295"},"vehicle_type_id":"4","last_reported":1711663653,"current_range_meters":0,"station_id":"ce4bgj12rcd13ifvqbc0","pricing_plan_id":"cebpf4jnsgd1na2vs0mg"},{"bike_id":"1351c857-79fa-41db-b911-4f304ae5d2c8","system_id":"levelo_inurba_marseille","lat":43.29914,"lon":5.38156,"is_reserved":false,"is_disabled":false,"rental_uris":{"android":"levelo://app?vid=1351c857-79fa-41db-b911-4f304ae5d2c8","ios":"levelo://app?vid=1351c857-79fa-41db-b911-4f304ae5d2c8"},"vehicle_type_id":"4","last_reported":1711663653,"current_range_meters":4000,"station_id":"ce4bgj12rcd13ifvqbc0","pricing_plan_id":"cebpf4jnsgd1na2vs0mg"},{"bike_id":"2f8a1f81-b8d7-4050-aefe-8f4281fb1d4f","system_id":"levelo_inurba_marseille","lat":43.29905,"lon":5.38146,"is_reserved":false,"is_disabled":false,"rental_uris":{"android":"levelo://app?vid=2f8a1f81-b8d7-4050-aefe-8f4281fb1d4f","ios":"levelo://app?vid=2f8a1f81-b8d7-4050-aefe-8f4281fb1d4f"},"vehicle_type_id":"4","last_reported":1711663653,"current_range_meters":6800,"station_id":"ce4bgj12rcd13ifvqbc0","pricing_plan_id":"cebpf4jnsgd1na2vs0mg"},{"bike_id":"406bcc06-94d8-454c-a52f-3c5ce0d57fce","system_id":"levelo_inurba_marseille","lat":43.296921,"lon":5.376579,"is_reserved":false,"is_disabled":false,"rental_uris":{"android":"levelo://app?vid=406bcc06-94d8-454c-a52f-3c5ce0d57fce","ios":"levelo://app?vid=406bcc06-94d8-454c-a52f-3c5ce0d57fce"},"vehicle_type_id":"4","last_reported":1711663653,"current_range_meters":3200,"station_id":"ce4bgkh2rcd13ifvqbl0","pricing_plan_id":"cebpf4jnsgd1na2vs0mg"},{"bike_id":"b2bc132d-80f6-42b1-8bd7-bc67f76456a6","system_id":"levelo_inurba_marseille","lat":43.31761,"lon":5.39012,"is_reserved":false,"is_disabled":false,"rental_uris":{"android":"levelo://app?vid=b2bc132d-80f6-42b1-8bd7-bc67f76456a6","ios":"levelo://app?vid=b2bc132d-80f6-42b1-8bd7-bc67f76456a6"},"vehicle_type_id":"4","last_reported":1711663653,"current_range_meters":22800,"station_id":"ce4bhqp2rcd13ifvqhng","pricing_plan_id":"cebpf4jnsgd1na2vs0mg"},{"bike_id":"e4042505-b127-4f06-bb1e-39cb28acf2ea","system_id":"levelo_inurba_marseille","lat":43.317627,"lon":5.390129,"is_reserved":false,"is_disabled":false,"rental_uris":{"android":"levelo://app?vid=e4042505-b127-4f06-bb1e-39cb28acf2ea","ios":"levelo://app?vid=e4042505-b127-4f06-bb1e-39cb28acf2ea"},"vehicle_type_id":"4","last_reported":1711663653,"current_range_meters":6000,"station_id":"ce4bhqp2rcd13ifvqhng","pricing_plan_id":"cebpf4jnsgd1na2vs0mg"},{"bike_id":"2b68ebbb-caa7-4de5-9022-8c2ebc8cd38e","system_id":"levelo_inurba_marseille","lat":43.31754,"lon":5.39017,"is_reserved":false,"is_disabled":false,"rental_uris":{"android":"levelo://app?vid=2b68ebbb-caa7-4de5-9022-8c2ebc8cd38e","ios":"levelo://app?vid=2b68ebbb-caa7-4de5-9022-8c2ebc8cd38e"},"vehicle_type_id":"4","last_reported":1711663653,"current_range_meters":4800,"station_id":"ce4bhqp2rcd13ifvqhng","pricing_plan_id":"cebpf4jnsgd1na2vs0mg"},{"bike_id":"a5b3fcbf-da88-4697-89d2-87e6ec805704","system_id":"levelo_inurba_marseille","lat":43.317557,"lon":5.390165,"is_reserved":false,"is_disabled":false,"rental_uris":{"android":"levelo://app?vid=a5b3fcbf-da88-4697-89d2-87e6ec805704","ios":"levelo://app?vid=a5b3fcbf-da88-4697-89d2-87e6ec805704"},"vehicle_type_id":"4","last_reported":1711663653,"current_range_meters":31200,"station_id":"ce4bhqp2rcd13ifvqhng","pricing_plan_id":"cebpf4jnsgd1na2vs0mg"},{"bike_id":"14b25ab4-d3a1-44e6-8abb-31afe39ac129","system_id":"levelo_inurba_marseille","lat":43.317601,"lon":5.390148,"is_reserved":false,"is_disabled":false,"rental_uris":{"android":"levelo://app?vid=14b25ab4-d3a1-44e6-8abb-31afe39ac129","ios":"levelo://app?vid=14b25ab4-d3a1-44e6-8abb-31afe39ac129"},"vehicle_type_id":"4","last_reported":1711663653,"current_range_meters":3600,"station_id":"ce4bhqp2rcd13ifvqhng","pricing_plan_id":"cebpf4jnsgd1na2vs0mg"},{"bike_id":"63d7e23f-6216-414f-8d05-021df6249fa9","system_id":"levelo_inurba_marseille","lat":43.317574,"lon":5.390168,"is_reserved":false,"is_disabled":false,"rental_uris":{"android":"levelo://app?vid=63d7e23f-6216-414f-8d05-021df6249fa9","ios":"levelo://app?vid=63d7e23f-6216-414f-8d05-021df6249fa9"},"vehicle_type_id":"4","last_reported":1711663653,"current_range_meters":17600,"station_id":"ce4bhqp2rcd13ifvqhng","pricing_plan_id":"cebpf4jnsgd1na2vs0mg"},{"bike_id":"26ff9772-7999-47f8-b30d-e8a6c19e273d","system_id":"levelo_inurba_marseille","lat":43.31758,"lon":5.39017,"is_reserved":false,"is_disabled":false,"rental_uris":{"android":"levelo://app?vid=26ff9772-7999-47f8-b30d-e8a6c19e273d","ios":"levelo://app?vid=26ff9772-7999-47f8-b30d-e8a6c19e273d"},"vehicle_type_id":"4","last_reported":1711663653,"current_range_meters":18000,"station_id":"ce4bhqp2rcd13ifvqhng","pricing_plan_id":"cebpf4jnsgd1na2vs0mg"},{"bike_id":"ae27ded8-ead6-4dc4-8155-68bebdee1bf1","system_id":"levelo_inurba_marseille","lat":43.317589,"lon":5.390175,"is_reserved":false,"is_disabled":false,"rental_uris":{"android":"levelo://app?vid=ae27ded8-ead6-4dc4-8155-68bebdee1bf1","ios":"levelo://app?vid=ae27ded8-ead6-4dc4-8155-68bebdee1bf1"},"vehicle_type_id":"4","last_reported":1711663653,"current_range_meters":4000,"station_id":"ce4bhqp2rcd13ifvqhng","pricing_plan_id":"cebpf4jnsgd1na2vs0mg"},{"bike_id":"7bfb1ca9-8509-4f08-8279-82b89f9181d6","system_id":"levelo_inurba_marseille","lat":43.317518,"lon":5.39024,"is_reserved":false,"is_disabled":false,"rental_uris":{"android":"levelo://app?vid=7bfb1ca9-8509-4f08-8279-82b89f9181d6","ios":"levelo://app?vid=7bfb1ca9-8509-4f08-8279-82b89f9181d6"},"vehicle_type_id":"4","last_reported":1711663653,"current_range_meters":27200,"station_id":"ce4bhqp2rcd13ifvqhng","pricing_plan_id":"cebpf4jnsgd1na2vs0mg"},{"bike_id":"f9e26199-094c-4b06-b0ad-4be1a38ed7be","system_id":"levelo_inurba_marseille","lat":43.317507,"lon":5.390307,"is_reserved":false,"is_disabled":false,"rental_uris":{"android":"levelo://app?vid=f9e26199-094c-4b06-b0ad-4be1a38ed7be","ios":"levelo://app?vid=f9e26199-094c-4b06-b0ad-4be1a38ed7be"},"vehicle_type_id":"4","last_reported":1711663653,"current_range_meters":15200,"station_id":"ce4bhqp2rcd13ifvqhng","pricing_plan_id":"cebpf4jnsgd1na2vs0mg"},{"bike_id":"d15381f7-6688-4bf6-87c1-20054670f7ae","system_id":"levelo_inurba_marseille","lat":43.296989,"lon":5.377997,"is_reserved":false,"is_disabled":false,"rental_uris":{"android":"levelo://app?vid=d15381f7-6688-4bf6-87c1-20054670f7ae","ios":"levelo://app?vid=d15381f7-6688-4bf6-87c1-20054670f7ae"},"vehicle_type_id":"4","last_reported":1711663653,"current_range_meters":800,"station_id":"","pricing_plan_id":"cebpf4jnsgd1na2vs0mg"},{"bike_id":"a1d4b698-df10-43fc-9f50-0b3368cefb7d","system_id":"levelo_inurba_marseille","lat":43.298037,"lon":5.381066,"is_reserved":false,"is_disabled":false,"rental_uris":{"android":"levelo://app?vid=a1d4b698-df10-43fc-9f50-0b3368cefb7d","ios":"levelo://app?vid=a1d4b698-df10-43fc-9f50-0b3368cefb7d"},"vehicle_type_id":"4","last_reported":1711663653,"current_range_meters":400,"station_id":"ce4bgip2rcd13ifvqbb0","pricing_plan_id":"cebpf4jnsgd1na2vs0mg"},{"bike_id":"5bd9103d-ced3-427d-af60-b64d742424c1","system_id":"levelo_inurba_marseille","lat":43.298037,"lon":5.381066,"is_reserved":false,"is_disabled":false,"rental_uris":{"android":"levelo://app?vid=5bd9103d-ced3-427d-af60-b64d742424c1","ios":"levelo://app?vid=5bd9103d-ced3-427d-af60-b64d742424c1"},"vehicle_type_id":"4","last_reported":1711663653,"current_range_meters":0,"station_id":"ce4bgip2rcd13ifvqbb0","pricing_plan_id":"cebpf4jnsgd1na2vs0mg"},{"bike_id":"ded8cb6c-0bd9-434e-9b12-35a539cdc775","system_id":"levelo_inurba_marseille","lat":43.29794,"lon":5.38102,"is_reserved":false,"is_disabled":false,"rental_uris":{"android":"levelo://app?vid=ded8cb6c-0bd9-434e-9b12-35a539cdc775","ios":"levelo://app?vid=ded8cb6c-0bd9-434e-9b12-35a539cdc775"},"vehicle_type_id":"4","last_reported":1711663653,"current_range_meters":0,"station_id":"ce4bgip2rcd13ifvqbb0","pricing_plan_id":"cebpf4jnsgd1na2vs0mg"},{"bike_id":"1954028a-6eed-49c2-af3c-6304f18a142d","system_id":"levelo_inurba_marseille","lat":43.304338,"lon":5.388829,"is_reserved":false,"is_disabled":false,"rental_uris":{"android":"levelo://app?vid=1954028a-6eed-49c2-af3c-6304f18a142d","ios":"levelo://app?vid=1954028a-6eed-49c2-af3c-6304f18a142d"},"vehicle_type_id":"4","last_reported":1711663653,"current_range_meters":0,"station_id":"ce4bgk12rcd13ifvqbi0","pricing_plan_id":"cebpf4jnsgd1na2vs0mg"},{"bike_id":"c0c6efc0-da6c-4317-9ef6-6d5c7763007e","system_id":"levelo_inurba_marseille","lat":43.304274,"lon":5.388873,"is_reserved":false,"is_disabled":false,"rental_uris":{"android":"levelo://app?vid=c0c6efc0-da6c-4317-9ef6-6d5c7763007e","ios":"levelo://app?vid=c0c6efc0-da6c-4317-9ef6-6d5c7763007e"},"vehicle_type_id":"4","last_reported":1711663653,"current_range_meters":14000,"station_id":"ce4bgk12rcd13ifvqbi0","pricing_plan_id":"cebpf4jnsgd1na2vs0mg"},{"bike_id":"010796f2-5803-4ba7-8bb3-8b37830af4cf","system_id":"levelo_inurba_marseille","lat":43.29791,"lon":5.38105,"is_reserved":false,"is_disabled":false,"rental_uris":{"android":"levelo://app?vid=010796f2-5803-4ba7-8bb3-8b37830af4cf","ios":"levelo://app?vid=010796f2-5803-4ba7-8bb3-8b37830af4cf"},"vehicle_type_id":"4","last_reported":1711663653,"current_range_meters":0,"station_id":"ce4bgip2rcd13ifvqbb0","pricing_plan_id":"cebpf4jnsgd1na2vs0mg"},{"bike_id":"34b2e978-1f8c-4e66-853e-d064872bbc98","system_id":"levelo_inurba_marseille","lat":43.298037,"lon":5.381066,"is_reserved":false,"is_disabled":false,"rental_uris":{"android":"levelo://app?vid=34b2e978-1f8c-4e66-853e-d064872bbc98","ios":"levelo://app?vid=34b2e978-1f8c-4e66-853e-d064872bbc98"},"vehicle_type_id":"4","last_reported":1711663653,"current_range_meters":14400,"station_id":"ce4bgip2rcd13ifvqbb0","pricing_plan_id":"cebpf4jnsgd1na2vs0mg"},{"bike_id":"bb826238-567d-4a7b-b391-017246a8e026","system_id":"levelo_inurba_marseille","lat":43.304274,"lon":5.388873,"is_reserved":false,"is_disabled":false,"rental_uris":{"android":"levelo://app?vid=bb826238-567d-4a7b-b391-017246a8e026","ios":"levelo://app?vid=bb826238-567d-4a7b-b391-017246a8e026"},"vehicle_type_id":"4","last_reported":1711663653,"current_range_meters":0,"station_id":"ce4bgk12rcd13ifvqbi0","pricing_plan_id":"cebpf4jnsgd1na2vs0mg"},{"bike_id":"3767ee20-0015-4f1c-aa0a-187ecdbe23fa","system_id":"levelo_inurba_marseille","lat":43.30432,"lon":5.38889,"is_reserved":false,"is_disabled":false,"rental_uris":{"android":"levelo://app?vid=3767ee20-0015-4f1c-aa0a-187ecdbe23fa","ios":"levelo://app?vid=3767ee20-0015-4f1c-aa0a-187ecdbe23fa"},"vehicle_type_id":"4","last_reported":1711663653,"current_range_meters":0,"station_id":"ce4bgk12rcd13ifvqbi0","pricing_plan_id":"cebpf4jnsgd1na2vs0mg"},{"bike_id":"496e801a-fa16-4df1-98fe-a06632f5e649","system_id":"levelo_inurba_marseille","lat":43.30437,"lon":5.38898,"is_reserved":false,"is_disabled":false,"rental_uris":{"android":"levelo://app?vid=496e801a-fa16-4df1-98fe-a06632f5e649","ios":"levelo://app?vid=496e801a-fa16-4df1-98fe-a06632f5e649"},"vehicle_type_id":"4","last_reported":1711663653,"current_range_meters":0,"station_id":"ce4bgk12rcd13ifvqbi0","pricing_plan_id":"cebpf4jnsgd1na2vs0mg"},{"bike_id":"18fccdd5-2fde-4c82-aa3b-945b56db0326","system_id":"levelo_inurba_marseille","lat":43.32367,"lon":5.388836,"is_reserved":false,"is_disabled":false,"rental_uris":{"android":"levelo://app?vid=18fccdd5-2fde-4c82-aa3b-945b56db0326","ios":"levelo://app?vid=18fccdd5-2fde-4c82-aa3b-945b56db0326"},"vehicle_type_id":"4","last_reported":1711663653,"current_range_meters":6000,"station_id":"ce4bhqp2rcd13ifvqhog","pricing_plan_id":"cebpf4jnsgd1na2vs0mg"},{"bike_id":"f4f06a98-fad7-4671-b11e-16c23a8e2b3d","system_id":"levelo_inurba_marseille","lat":43.32367,"lon":5.388836,"is_reserved":false,"is_disabled":false,"rental_uris":{"android":"levelo://app?vid=f4f06a98-fad7-4671-b11e-16c23a8e2b3d","ios":"levelo://app?vid=f4f06a98-fad7-4671-b11e-16c23a8e2b3d"},"vehicle_type_id":"4","last_reported":1711663653,"current_range_meters":12000,"station_id":"ce4bhqp2rcd13ifvqhog","pricing_plan_id":"cebpf4jnsgd1na2vs0mg"},{"bike_id":"8d88fe37-0217-40e2-a102-68b18fa2f442","system_id":"levelo_inurba_marseille","lat":43.32367,"lon":5.388836,"is_reserved":false,"is_disabled":false,"rental_uris":{"android":"levelo://app?vid=8d88fe37-0217-40e2-a102-68b18fa2f442","ios":"levelo://app?vid=8d88fe37-0217-40e2-a102-68b18fa2f442"},"vehicle_type_id":"4","last_reported":1711663653,"current_range_meters":17600,"station_id":"ce4bhqp2rcd13ifvqhog","pricing_plan_id":"cebpf4jnsgd1na2vs0mg"},{"bike_id":"f5f1a870-2efe-4f1a-b8d8-e342b746a405","system_id":"levelo_inurba_marseille","lat":43.32367,"lon":5.388836,"is_reserved":false,"is_disabled":false,"rental_uris":{"android":"levelo://app?vid=f5f1a870-2efe-4f1a-b8d8-e342b746a405","ios":"levelo://app?vid=f5f1a870-2efe-4f1a-b8d8-e342b746a405"},"vehicle_type_id":"4","last_reported":1711663653,"current_range_meters":21600,"station_id":"ce4bhqp2rcd13ifvqhog","pricing_plan_id":"cebpf4jnsgd1na2vs0mg"},{"bike_id":"946fab7d-ef69-4be3-9c9a-c54ceff74910","system_id":"levelo_inurba_marseille","lat":43.29602,"lon":5.381084,"is_reserved":false,"is_disabled":false,"rental_uris":{"android":"levelo://app?vid=946fab7d-ef69-4be3-9c9a-c54ceff74910","ios":"levelo://app?vid=946fab7d-ef69-4be3-9c9a-c54ceff74910"},"vehicle_type_id":"4","last_reported":1711663653,"current_range_meters":15200,"station_id":"ce4bgl12rcd13ifvqbo0","pricing_plan_id":"cebpf4jnsgd1na2vs0mg"},{"bike_id":"fff546aa-f577-4a58-a3f8-bbf0c3f4f445","system_id":"levelo_inurba_marseille","lat":43.29602,"lon":5.381084,"is_reserved":false,"is_disabled":false,"rental_uris":{"android":"levelo://app?vid=fff546aa-f577-4a58-a3f8-bbf0c3f4f445","ios":"levelo://app?vid=fff546aa-f577-4a58-a3f8-bbf0c3f4f445"},"vehicle_type_id":"4","last_reported":1711663653,"current_range_meters":10000,"station_id":"ce4bgl12rcd13ifvqbo0","pricing_plan_id":"cebpf4jnsgd1na2vs0mg"},{"bike_id":"6fd649ce-d3a7-4db0-ad26-ffa67cbe5f4c","system_id":"levelo_inurba_marseille","lat":43.29602,"lon":5.381084,"is_reserved":false,"is_disabled":false,"rental_uris":{"android":"levelo://app?vid=6fd649ce-d3a7-4db0-ad26-ffa67cbe5f4c","ios":"levelo://app?vid=6fd649ce-d3a7-4db0-ad26-ffa67cbe5f4c"},"vehicle_type_id":"4","last_reported":1711663653,"current_range_meters":4000,"station_id":"ce4bgl12rcd13ifvqbo0","pricing_plan_id":"cebpf4jnsgd1na2vs0mg"},{"bike_id":"a73ab29c-e846-4469-a758-07203bfdde14","system_id":"levelo_inurba_marseille","lat":43.29602,"lon":5.38112,"is_reserved":false,"is_disabled":false,"rental_uris":{"android":"levelo://app?vid=a73ab29c-e846-4469-a758-07203bfdde14","ios":"levelo://app?vid=a73ab29c-e846-4469-a758-07203bfdde14"},"vehicle_type_id":"4","last_reported":1711663653,"current_range_meters":6800,"station_id":"ce4bhi12rcd13ifvqfq0","pricing_plan_id":"cebpf4jnsgd1na2vs0mg"},{"bike_id":"0d3472a8-a2f7-4e34-a2ce-6ca17e85a4b4","system_id":"levelo_inurba_marseille","lat":43.293259,"lon":5.371586,"is_reserved":false,"is_disabled":false,"rental_uris":{"android":"levelo://app?vid=0d3472a8-a2f7-4e34-a2ce-6ca17e85a4b4","ios":"levelo://app?vid=0d3472a8-a2f7-4e34-a2ce-6ca17e85a4b4"},"vehicle_type_id":"4","last_reported":1711663653,"current_range_meters":0,"station_id":"ce4bgh92rcd13ifvqb40","pricing_plan_id":"cebpf4jnsgd1na2vs0mg"},{"bike_id":"23e58475-41c2-4b94-9d42-16b6c6d12f59","system_id":"levelo_inurba_marseille","lat":43.2931,"lon":5.371763,"is_reserved":false,"is_disabled":false,"rental_uris":{"android":"levelo://app?vid=23e58475-41c2-4b94-9d42-16b6c6d12f59","ios":"levelo://app?vid=23e58475-41c2-4b94-9d42-16b6c6d12f59"},"vehicle_type_id":"4","last_reported":1711663653,"current_range_meters":0,"station_id":"ce4bgh92rcd13ifvqb40","pricing_plan_id":"cebpf4jnsgd1na2vs0mg"},{"bike_id":"a5d2683b-85e9-45ac-ba84-229cabf0fcac","system_id":"levelo_inurba_marseille","lat":43.293259,"lon":5.371586,"is_reserved":false,"is_disabled":false,"rental_uris":{"android":"levelo://app?vid=a5d2683b-85e9-45ac-ba84-229cabf0fcac","ios":"levelo://app?vid=a5d2683b-85e9-45ac-ba84-229cabf0fcac"},"vehicle_type_id":"4","last_reported":1711663653,"current_range_meters":24400,"station_id":"ce4bgh92rcd13ifvqb40","pricing_plan_id":"cebpf4jnsgd1na2vs0mg"},{"bike_id":"f97cc89f-e634-489a-8a53-8f143498462e","system_id":"levelo_inurba_marseille","lat":43.293259,"lon":5.371586,"is_reserved":false,"is_disabled":false,"rental_uris":{"android":"levelo://app?vid=f97cc89f-e634-489a-8a53-8f143498462e","ios":"levelo://app?vid=f97cc89f-e634-489a-8a53-8f143498462e"},"vehicle_type_id":"4","last_reported":1711663653,"current_range_meters":20000,"station_id":"ce4bgh92rcd13ifvqb40","pricing_plan_id":"cebpf4jnsgd1na2vs0mg"},{"bike_id":"d5ac95e9-9f50-42d7-982f-cedfdc668ca5","system_id":"levelo_inurba_marseille","lat":43.29277,"lon":5.36835,"is_reserved":false,"is_disabled":false,"rental_uris":{"android":"levelo://app?vid=d5ac95e9-9f50-42d7-982f-cedfdc668ca5","ios":"levelo://app?vid=d5ac95e9-9f50-42d7-982f-cedfdc668ca5"},"vehicle_type_id":"4","last_reported":1711663653,"current_range_meters":0,"station_id":"ce4bhbp2rcd13ifvqesg","pricing_plan_id":"cebpf4jnsgd1na2vs0mg"},{"bike_id":"096c5a58-b217-4abf-8c23-933fe61c0127","system_id":"levelo_inurba_marseille","lat":43.293259,"lon":5.371586,"is_reserved":false,"is_disabled":false,"rental_uris":{"android":"levelo://app?vid=096c5a58-b217-4abf-8c23-933fe61c0127","ios":"levelo://app?vid=096c5a58-b217-4abf-8c23-933fe61c0127"},"vehicle_type_id":"4","last_reported":1711663653,"current_range_meters":0,"station_id":"ce4bgh92rcd13ifvqb40","pricing_plan_id":"cebpf4jnsgd1na2vs0mg"},{"bike_id":"295c7889-4ad2-491b-ba5c-94dfebc6967a","system_id":"levelo_inurba_marseille","lat":43.293387,"lon":5.374086,"is_reserved":false,"is_disabled":false,"rental_uris":{"android":"levelo://app?vid=295c7889-4ad2-491b-ba5c-94dfebc6967a","ios":"levelo://app?vid=295c7889-4ad2-491b-ba5c-94dfebc6967a"},"vehicle_type_id":"4","last_reported":1711663653,"current_range_meters":17200,"station_id":"ce4bhap2rcd13ifvqek0","pricing_plan_id":"cebpf4jnsgd1na2vs0mg"},{"bike_id":"34eb00cb-068b-463e-b78a-a3d9e80ef22c","system_id":"levelo_inurba_marseille","lat":43.292749,"lon":5.368402,"is_reserved":false,"is_disabled":false,"rental_uris":{"android":"levelo://app?vid=34eb00cb-068b-463e-b78a-a3d9e80ef22c","ios":"levelo://app?vid=34eb00cb-068b-463e-b78a-a3d9e80ef22c"},"vehicle_type_id":"4","last_reported":1711663653,"current_range_meters":4000,"station_id":"ce4bhbp2rcd13ifvqesg","pricing_plan_id":"cebpf4jnsgd1na2vs0mg"},{"bike_id":"ad19ea8f-6bfe-4d10-8e73-ba9e61ebc416","system_id":"levelo_inurba_marseille","lat":43.292749,"lon":5.368402,"is_reserved":false,"is_disabled":false,"rental_uris":{"android":"levelo://app?vid=ad19ea8f-6bfe-4d10-8e73-ba9e61ebc416","ios":"levelo://app?vid=ad19ea8f-6bfe-4d10-8e73-ba9e61ebc416"},"vehicle_type_id":"4","last_reported":1711663653,"current_range_meters":1600,"station_id":"ce4bhbp2rcd13ifvqesg","pricing_plan_id":"cebpf4jnsgd1na2vs0mg"},{"bike_id":"18094ce2-e403-4189-b946-27476ae5a86f","system_id":"levelo_inurba_marseille","lat":43.292749,"lon":5.368402,"is_reserved":false,"is_disabled":false,"rental_uris":{"android":"levelo://app?vid=18094ce2-e403-4189-b946-27476ae5a86f","ios":"levelo://app?vid=18094ce2-e403-4189-b946-27476ae5a86f"},"vehicle_type_id":"4","last_reported":1711663653,"current_range_meters":1200,"station_id":"ce4bhbp2rcd13ifvqesg","pricing_plan_id":"cebpf4jnsgd1na2vs0mg"},{"bike_id":"15f933f1-f946-47d9-bdbd-51c605f1a3ed","system_id":"levelo_inurba_marseille","lat":43.29545,"lon":5.381765,"is_reserved":false,"is_disabled":false,"rental_uris":{"android":"levelo://app?vid=15f933f1-f946-47d9-bdbd-51c605f1a3ed","ios":"levelo://app?vid=15f933f1-f946-47d9-bdbd-51c605f1a3ed"},"vehicle_type_id":"4","last_reported":1711663653,"current_range_meters":7600,"station_id":"","pricing_plan_id":"cebpf4jnsgd1na2vs0mg"},{"bike_id":"84190116-f48e-4411-91ae-01a23cb7de88","system_id":"levelo_inurba_marseille","lat":43.305994,"lon":5.393687,"is_reserved":false,"is_disabled":false,"rental_uris":{"android":"levelo://app?vid=84190116-f48e-4411-91ae-01a23cb7de88","ios":"levelo://app?vid=84190116-f48e-4411-91ae-01a23cb7de88"},"vehicle_type_id":"4","last_reported":1711663653,"current_range_meters":14400,"station_id":"ce4bh0p2rcd13ifvqd80","pricing_plan_id":"cebpf4jnsgd1na2vs0mg"},{"bike_id":"f2abfd08-8545-4f8b-b10f-c1e2b82bb13a","system_id":"levelo_inurba_marseille","lat":43.30305,"lon":5.392048,"is_reserved":false,"is_disabled":false,"rental_uris":{"android":"levelo://app?vid=f2abfd08-8545-4f8b-b10f-c1e2b82bb13a","ios":"levelo://app?vid=f2abfd08-8545-4f8b-b10f-c1e2b82bb13a"},"vehicle_type_id":"4","last_reported":1711663653,"current_range_meters":0,"station_id":"ce4bgkh2rcd13ifvqbk0","pricing_plan_id":"cebpf4jnsgd1na2vs0mg"},{"bike_id":"5be12821-dc5d-4e23-930c-bbf5934f2e2c","system_id":"levelo_inurba_marseille","lat":43.303002,"lon":5.392142,"is_reserved":false,"is_disabled":false,"rental_uris":{"android":"levelo://app?vid=5be12821-dc5d-4e23-930c-bbf5934f2e2c","ios":"levelo://app?vid=5be12821-dc5d-4e23-930c-bbf5934f2e2c"},"vehicle_type_id":"4","last_reported":1711663653,"current_range_meters":23600,"station_id":"ce4bgkh2rcd13ifvqbk0","pricing_plan_id":"cebpf4jnsgd1na2vs0mg"},{"bike_id":"f5bc29da-a3d1-42e4-b2e2-5e0087194e08","system_id":"levelo_inurba_marseille","lat":43.30305,"lon":5.39208,"is_reserved":false,"is_disabled":false,"rental_uris":{"android":"levelo://app?vid=f5bc29da-a3d1-42e4-b2e2-5e0087194e08","ios":"levelo://app?vid=f5bc29da-a3d1-42e4-b2e2-5e0087194e08"},"vehicle_type_id":"4","last_reported":1711663653,"current_range_meters":9200,"station_id":"ce4bgkh2rcd13ifvqbk0","pricing_plan_id":"cebpf4jnsgd1na2vs0mg"},{"bike_id":"7af67689-3dc3-434a-9dda-775ecdc93d21","system_id":"levelo_inurba_marseille","lat":43.303002,"lon":5.392142,"is_reserved":false,"is_disabled":false,"rental_uris":{"android":"levelo://app?vid=7af67689-3dc3-434a-9dda-775ecdc93d21","ios":"levelo://app?vid=7af67689-3dc3-434a-9dda-775ecdc93d21"},"vehicle_type_id":"4","last_reported":1711663653,"current_range_meters":400,"station_id":"ce4bgkh2rcd13ifvqbk0","pricing_plan_id":"cebpf4jnsgd1na2vs0mg"},{"bike_id":"59daf915-3384-4e56-95ca-5fc249f06d83","system_id":"levelo_inurba_marseille","lat":43.303002,"lon":5.392142,"is_reserved":false,"is_disabled":false,"rental_uris":{"android":"levelo://app?vid=59daf915-3384-4e56-95ca-5fc249f06d83","ios":"levelo://app?vid=59daf915-3384-4e56-95ca-5fc249f06d83"},"vehicle_type_id":"4","last_reported":1711663653,"current_range_meters":0,"station_id":"ce4bgkh2rcd13ifvqbk0","pricing_plan_id":"cebpf4jnsgd1na2vs0mg"},{"bike_id":"e6aa3ea1-0475-408b-b022-a047e827f19c","system_id":"levelo_inurba_marseille","lat":43.303002,"lon":5.392142,"is_reserved":false,"is_disabled":false,"rental_uris":{"android":"levelo://app?vid=e6aa3ea1-0475-408b-b022-a047e827f19c","ios":"levelo://app?vid=e6aa3ea1-0475-408b-b022-a047e827f19c"},"vehicle_type_id":"4","last_reported":1711663653,"current_range_meters":2800,"station_id":"ce4bgkh2rcd13ifvqbk0","pricing_plan_id":"cebpf4jnsgd1na2vs0mg"},{"bike_id":"9e592c3b-dd62-4e84-85b1-df324d2c09ea","system_id":"levelo_inurba_marseille","lat":43.2936,"lon":5.37835,"is_reserved":false,"is_disabled":false,"rental_uris":{"android":"levelo://app?vid=9e592c3b-dd62-4e84-85b1-df324d2c09ea","ios":"levelo://app?vid=9e592c3b-dd62-4e84-85b1-df324d2c09ea"},"vehicle_type_id":"4","last_reported":1711663653,"current_range_meters":25600,"station_id":"ce4bgjh2rcd13ifvqbf0","pricing_plan_id":"cebpf4jnsgd1na2vs0mg"},{"bike_id":"60442c4f-7b65-4472-aefe-798e1da2abf7","system_id":"levelo_inurba_marseille","lat":43.302992,"lon":5.392136,"is_reserved":false,"is_disabled":false,"rental_uris":{"android":"levelo://app?vid=60442c4f-7b65-4472-aefe-798e1da2abf7","ios":"levelo://app?vid=60442c4f-7b65-4472-aefe-798e1da2abf7"},"vehicle_type_id":"4","last_reported":1711663653,"current_range_meters":4800,"station_id":"ce4bgkh2rcd13ifvqbk0","pricing_plan_id":"cebpf4jnsgd1na2vs0mg"},{"bike_id":"f9fa7713-1c02-4b9a-9be7-3c307943cd16","system_id":"levelo_inurba_marseille","lat":43.30085,"lon":5.390856,"is_reserved":false,"is_disabled":false,"rental_uris":{"android":"levelo://app?vid=f9fa7713-1c02-4b9a-9be7-3c307943cd16","ios":"levelo://app?vid=f9fa7713-1c02-4b9a-9be7-3c307943cd16"},"vehicle_type_id":"4","last_reported":1711663653,"current_range_meters":22000,"station_id":"ce4bh192rcd13ifvqdb0","pricing_plan_id":"cebpf4jnsgd1na2vs0mg"},{"bike_id":"c5369abf-cb61-43b4-8b0a-c51a7a3187e8","system_id":"levelo_inurba_marseille","lat":43.30085,"lon":5.390856,"is_reserved":false,"is_disabled":false,"rental_uris":{"android":"levelo://app?vid=c5369abf-cb61-43b4-8b0a-c51a7a3187e8","ios":"levelo://app?vid=c5369abf-cb61-43b4-8b0a-c51a7a3187e8"},"vehicle_type_id":"4","last_reported":1711663653,"current_range_meters":17200,"station_id":"ce4bh192rcd13ifvqdb0","pricing_plan_id":"cebpf4jnsgd1na2vs0mg"},{"bike_id":"820b08c2-6a15-4ef7-86f7-9d02656dacb7","system_id":"levelo_inurba_marseille","lat":43.30085,"lon":5.390856,"is_reserved":false,"is_disabled":false,"rental_uris":{"android":"levelo://app?vid=820b08c2-6a15-4ef7-86f7-9d02656dacb7","ios":"levelo://app?vid=820b08c2-6a15-4ef7-86f7-9d02656dacb7"},"vehicle_type_id":"4","last_reported":1711663653,"current_range_meters":9200,"station_id":"ce4bh192rcd13ifvqdb0","pricing_plan_id":"cebpf4jnsgd1na2vs0mg"},{"bike_id":"76b3baec-7fd8-4e68-8cd8-8df3be2c1f59","system_id":"levelo_inurba_marseille","lat":43.29224,"lon":5.36069,"is_reserved":false,"is_disabled":false,"rental_uris":{"android":"levelo://app?vid=76b3baec-7fd8-4e68-8cd8-8df3be2c1f59","ios":"levelo://app?vid=76b3baec-7fd8-4e68-8cd8-8df3be2c1f59"},"vehicle_type_id":"4","last_reported":1711663653,"current_range_meters":10800,"station_id":"ce4bhbh2rcd13ifvqeqg","pricing_plan_id":"cebpf4jnsgd1na2vs0mg"},{"bike_id":"b02a7dd8-40f8-4bd3-adaf-5203498e1abf","system_id":"levelo_inurba_marseille","lat":43.300855,"lon":5.39073,"is_reserved":false,"is_disabled":false,"rental_uris":{"android":"levelo://app?vid=b02a7dd8-40f8-4bd3-adaf-5203498e1abf","ios":"levelo://app?vid=b02a7dd8-40f8-4bd3-adaf-5203498e1abf"},"vehicle_type_id":"4","last_reported":1711663653,"current_range_meters":26400,"station_id":"ce4bh192rcd13ifvqdb0","pricing_plan_id":"cebpf4jnsgd1na2vs0mg"},{"bike_id":"a745db81-3c76-4fb0-b1bd-64f4db34ab4f","system_id":"levelo_inurba_marseille","lat":43.300852,"lon":5.390859,"is_reserved":false,"is_disabled":false,"rental_uris":{"android":"levelo://app?vid=a745db81-3c76-4fb0-b1bd-64f4db34ab4f","ios":"levelo://app?vid=a745db81-3c76-4fb0-b1bd-64f4db34ab4f"},"vehicle_type_id":"4","last_reported":1711663653,"current_range_meters":6400,"station_id":"ce4bh192rcd13ifvqdb0","pricing_plan_id":"cebpf4jnsgd1na2vs0mg"},{"bike_id":"99148dfa-fdc9-41bc-b76b-750aeca24668","system_id":"levelo_inurba_marseille","lat":43.2927,"lon":5.37619,"is_reserved":false,"is_disabled":false,"rental_uris":{"android":"levelo://app?vid=99148dfa-fdc9-41bc-b76b-750aeca24668","ios":"levelo://app?vid=99148dfa-fdc9-41bc-b76b-750aeca24668"},"vehicle_type_id":"4","last_reported":1711663653,"current_range_meters":3600,"station_id":"","pricing_plan_id":"cebpf4jnsgd1na2vs0mg"},{"bike_id":"28449022-df55-4d2a-950c-e4a764bd6e9d","system_id":"levelo_inurba_marseille","lat":43.291805,"lon":5.371408,"is_reserved":false,"is_disabled":false,"rental_uris":{"android":"levelo://app?vid=28449022-df55-4d2a-950c-e4a764bd6e9d","ios":"levelo://app?vid=28449022-df55-4d2a-950c-e4a764bd6e9d"},"vehicle_type_id":"4","last_reported":1711663653,"current_range_meters":0,"station_id":"ce4bha92rcd13ifvqeh0","pricing_plan_id":"cebpf4jnsgd1na2vs0mg"},{"bike_id":"6859868b-0945-4ede-b94c-f8632f49b029","system_id":"levelo_inurba_marseille","lat":43.298764,"lon":5.388973,"is_reserved":false,"is_disabled":false,"rental_uris":{"android":"levelo://app?vid=6859868b-0945-4ede-b94c-f8632f49b029","ios":"levelo://app?vid=6859868b-0945-4ede-b94c-f8632f49b029"},"vehicle_type_id":"4","last_reported":1711663653,"current_range_meters":30400,"station_id":"ce4bh392rcd13ifvqdl0","pricing_plan_id":"cebpf4jnsgd1na2vs0mg"},{"bike_id":"dbfc1d57-1fee-4a9d-8c8f-a722c606ca3b","system_id":"levelo_inurba_marseille","lat":43.298764,"lon":5.388973,"is_reserved":false,"is_disabled":false,"rental_uris":{"android":"levelo://app?vid=dbfc1d57-1fee-4a9d-8c8f-a722c606ca3b","ios":"levelo://app?vid=dbfc1d57-1fee-4a9d-8c8f-a722c606ca3b"},"vehicle_type_id":"4","last_reported":1711663653,"current_range_meters":4400,"station_id":"ce4bh392rcd13ifvqdl0","pricing_plan_id":"cebpf4jnsgd1na2vs0mg"},{"bike_id":"717a442c-f952-447c-afe9-afe1aa829a54","system_id":"levelo_inurba_marseille","lat":43.298824,"lon":5.389076,"is_reserved":false,"is_disabled":false,"rental_uris":{"android":"levelo://app?vid=717a442c-f952-447c-afe9-afe1aa829a54","ios":"levelo://app?vid=717a442c-f952-447c-afe9-afe1aa829a54"},"vehicle_type_id":"4","last_reported":1711663653,"current_range_meters":24800,"station_id":"ce4bh392rcd13ifvqdl0","pricing_plan_id":"cebpf4jnsgd1na2vs0mg"},{"bike_id":"26226e35-a79d-4e20-a243-fd78ca300135","system_id":"levelo_inurba_marseille","lat":43.291671,"lon":5.371575,"is_reserved":false,"is_disabled":false,"rental_uris":{"android":"levelo://app?vid=26226e35-a79d-4e20-a243-fd78ca300135","ios":"levelo://app?vid=26226e35-a79d-4e20-a243-fd78ca300135"},"vehicle_type_id":"4","last_reported":1711663653,"current_range_meters":27600,"station_id":"ce4bha92rcd13ifvqeh0","pricing_plan_id":"cebpf4jnsgd1na2vs0mg"},{"bike_id":"62e5af5e-d2d1-4e59-b79c-729a46367945","system_id":"levelo_inurba_marseille","lat":43.298764,"lon":5.388973,"is_reserved":false,"is_disabled":false,"rental_uris":{"android":"levelo://app?vid=62e5af5e-d2d1-4e59-b79c-729a46367945","ios":"levelo://app?vid=62e5af5e-d2d1-4e59-b79c-729a46367945"},"vehicle_type_id":"4","last_reported":1711663653,"current_range_meters":22400,"station_id":"ce4bh392rcd13ifvqdl0","pricing_plan_id":"cebpf4jnsgd1na2vs0mg"},{"bike_id":"2499f7e9-1ec7-48bd-8e21-94e6d86e4892","system_id":"levelo_inurba_marseille","lat":43.291675,"lon":5.371583,"is_reserved":false,"is_disabled":false,"rental_uris":{"android":"levelo://app?vid=2499f7e9-1ec7-48bd-8e21-94e6d86e4892","ios":"levelo://app?vid=2499f7e9-1ec7-48bd-8e21-94e6d86e4892"},"vehicle_type_id":"4","last_reported":1711663653,"current_range_meters":4400,"station_id":"ce4bha92rcd13ifvqeh0","pricing_plan_id":"cebpf4jnsgd1na2vs0mg"},{"bike_id":"a48311c9-f5e1-49cd-a43b-01cce047d670","system_id":"levelo_inurba_marseille","lat":43.298764,"lon":5.388973,"is_reserved":false,"is_disabled":false,"rental_uris":{"android":"levelo://app?vid=a48311c9-f5e1-49cd-a43b-01cce047d670","ios":"levelo://app?vid=a48311c9-f5e1-49cd-a43b-01cce047d670"},"vehicle_type_id":"4","last_reported":1711663653,"current_range_meters":4400,"station_id":"ce4bh392rcd13ifvqdl0","pricing_plan_id":"cebpf4jnsgd1na2vs0mg"},{"bike_id":"005107cd-34f7-43be-9b6e-6477cbae79ac","system_id":"levelo_inurba_marseille","lat":43.29875,"lon":5.38909,"is_reserved":false,"is_disabled":false,"rental_uris":{"android":"levelo://app?vid=005107cd-34f7-43be-9b6e-6477cbae79ac","ios":"levelo://app?vid=005107cd-34f7-43be-9b6e-6477cbae79ac"},"vehicle_type_id":"4","last_reported":1711663653,"current_range_meters":1600,"station_id":"ce4bh392rcd13ifvqdl0","pricing_plan_id":"cebpf4jnsgd1na2vs0mg"},{"bike_id":"e5bf2825-f613-495c-b583-1c4512047b00","system_id":"levelo_inurba_marseille","lat":43.291675,"lon":5.371583,"is_reserved":false,"is_disabled":false,"rental_uris":{"android":"levelo://app?vid=e5bf2825-f613-495c-b583-1c4512047b00","ios":"levelo://app?vid=e5bf2825-f613-495c-b583-1c4512047b00"},"vehicle_type_id":"4","last_reported":1711663653,"current_range_meters":3200,"station_id":"ce4bha92rcd13ifvqeh0","pricing_plan_id":"cebpf4jnsgd1na2vs0mg"},{"bike_id":"06f5f7c6-f030-4ae6-87e6-75235d463671","system_id":"levelo_inurba_marseille","lat":43.298764,"lon":5.388973,"is_reserved":false,"is_disabled":false,"rental_uris":{"android":"levelo://app?vid=06f5f7c6-f030-4ae6-87e6-75235d463671","ios":"levelo://app?vid=06f5f7c6-f030-4ae6-87e6-75235d463671"},"vehicle_type_id":"4","last_reported":1711663653,"current_range_meters":10000,"station_id":"ce4bh392rcd13ifvqdl0","pricing_plan_id":"cebpf4jnsgd1na2vs0mg"},{"bike_id":"4734fe15-8877-436a-a242-f286f4e7a3df","system_id":"levelo_inurba_marseille","lat":43.309047,"lon":5.396551,"is_reserved":false,"is_disabled":false,"rental_uris":{"android":"levelo://app?vid=4734fe15-8877-436a-a242-f286f4e7a3df","ios":"levelo://app?vid=4734fe15-8877-436a-a242-f286f4e7a3df"},"vehicle_type_id":"4","last_reported":1711663653,"current_range_meters":27200,"station_id":"ce4bh012rcd13ifvqcv0","pricing_plan_id":"cebpf4jnsgd1na2vs0mg"},{"bike_id":"eef48db7-1fad-4e47-bb21-6e4224c749ef","system_id":"levelo_inurba_marseille","lat":43.308853,"lon":5.39636,"is_reserved":false,"is_disabled":false,"rental_uris":{"android":"levelo://app?vid=eef48db7-1fad-4e47-bb21-6e4224c749ef","ios":"levelo://app?vid=eef48db7-1fad-4e47-bb21-6e4224c749ef"},"vehicle_type_id":"4","last_reported":1711663653,"current_range_meters":0,"station_id":"ce4bh012rcd13ifvqcv0","pricing_plan_id":"cebpf4jnsgd1na2vs0mg"},{"bike_id":"e0785e2e-1cda-4c93-be1e-9b07469724ee","system_id":"levelo_inurba_marseille","lat":43.31326,"lon":5.39684,"is_reserved":false,"is_disabled":false,"rental_uris":{"android":"levelo://app?vid=e0785e2e-1cda-4c93-be1e-9b07469724ee","ios":"levelo://app?vid=e0785e2e-1cda-4c93-be1e-9b07469724ee"},"vehicle_type_id":"4","last_reported":1711663653,"current_range_meters":25200,"station_id":"ce4bgvp2rcd13ifvqcu0","pricing_plan_id":"cebpf4jnsgd1na2vs0mg"},