{"last_updated":1745701705,"ttl":60,"version":"2.2","data":{"bikes":[{"bike_id":"9de69f74-e703-4f11-ac28-aea62c2bad49","system_id":"levelo_inurba_marseille","lat":43.30952,"lon":5.3906,"is_reserved":false,"is_disabled":true,"rental_uris":{"android":"levelo://app?vid=9de69f74-e703-4f11-ac28-aea62c2bad49","ios":"levelo://app?vid=9de69f74-e703-4f11-ac28-aea62c2bad49"},"vehicle_type_id":"4","last_reported":1745701705,"current_range_meters":2800,"station_id":"ce4bgup2rcd13ifvqco0","pricing_plan_id":"cebpf4jnsgd1na2vs0mg"},{"bike_id":"a87cac5e-7e4d-4a77-a84b-1e42c89d5cc2","system_id":"levelo_inurba_marseille","lat":43.27944,"lon":5.41041,"is_reserved":false,"is_disabled":false,"rental_uris":{"android":"levelo://app?vid=a87cac5e-7e4d-4a77-a84b-1e42c89d5cc2","ios":"levelo://app?vid=a87cac5e-7e4d-4a77-a84b-1e42c89d5cc2"},"vehicle_type_id":"4","last_reported":1745701705,"current_range_meters":3200,"station_id":"ce4bhnp2rcd13ifvqh0g","pricing_plan_id":"cebpf4jnsgd1na2vs0mg"},{"bike_id":"327fa908-fafe-40ae-b97e-12862a152f1f","system_id":"levelo_inurba_marseille","lat":43.27626,"lon":5.393,"is_reserved":false,"is_disabled":false,"rental_uris":{"android":"levelo://app?vid=327fa908-fafe-40ae-b97e-12862a152f1f","ios":"levelo://app?vid=327fa908-fafe-40ae-b97e-12862a152f1f"},"vehicle_type_id":"4","last_reported":1745701705,"current_range_meters":3600,"station_id":"","pricing_plan_id":"cebpf4jnsgd1na2vs0mg"},{"bike_id":"f4edd00e-488c-4259-bbb9-c01f12a02681","system_id":"levelo_inurba_marseille","lat":43.30489,"lon":5.39332,"is_reserved":false,"is_disabled":false,"rental_uris":{"android":"levelo://app?vid=f4edd00e-488c-4259-bbb9-c01f12a02681","ios":"levelo://app?vid=f4edd00e-488c-4259-bbb9-c01f12a02681"},"vehicle_type_id":"4","last_reported":1745701705,"current_range_meters":3600,"station_id":"","pricing_plan_id":"cebpf4jnsgd1na2vs0mg"},{"bike_id":"144232dc-fbfe-4f72-aba3-3450a87576a4","system_id":"levelo_inurba_marseille","lat":43.29837,"lon":5.38549,"is_reserved":false,"is_disabled":false,"rental_uris":{"android":"levelo://app?vid=144232dc-fbfe-4f72-aba3-3450a87576a4","ios":"levelo://app?vid=144232dc-fbfe-4f72-aba3-3450a87576a4"},"vehicle_type_id":"4","last_reported":1745701705,"current_range_meters":3600,"station_id":"","pricing_plan_id":"cebpf4jnsgd1na2vs0mg"},{"bike_id":"a84dda67-2771-448f-9f2c-69a47019d774","system_id":"levelo_inurba_marseille","lat":43.33611,"lon":5.41011,"is_reserved":false,"is_disabled":true,"rental_uris":{"android":"levelo://app?vid=a84dda67-2771-448f-9f2c-69a47019d774","ios":"levelo://app?vid=a84dda67-2771-448f-9f2c-69a47019d774"},"vehicle_type_id":"4","last_reported":1745701705,"current_range_meters":3600,"station_id":"ce4bhqh2rcd13ifvqhmg","pricing_plan_id":"cebpf4jnsgd1na2vs0mg"},{"bike_id":"ed4ee8c6-297c-49ae-9493-32045abf00c0","system_id":"levelo_inurba_marseille","lat":43.27915,"lon":5.39544,"is_reserved":false,"is_disabled":false,"rental_uris":{"android":"levelo://app?vid=ed4ee8c6-297c-49ae-9493-32045abf00c0","ios":"levelo://app?vid=ed4ee8c6-297c-49ae-9493-32045abf00c0"},"vehicle_type_id":"4","last_reported":1745701705,"current_range_meters":3600,"station_id":"ce4bhf92rcd13ifvqf40","pricing_plan_id":"cebpf4jnsgd1na2vs0mg"},{"bike_id":"53a2997e-6301-48cc-ba39-ed035b540ac5","system_id":"levelo_inurba_marseille","lat":43.30335,"lon":5.40377,"is_reserved":false,"is_disabled":false,"rental_uris":{"android":"levelo://app?vid=53a2997e-6301-48cc-ba39-ed035b540ac5","ios":"levelo://app?vid=53a2997e-6301-48cc-ba39-ed035b540ac5"},"vehicle_type_id":"4","last_reported":1745701705,"current_range_meters":4000,"station_id":"ce4bh012rcd13ifvqd10","pricing_plan_id":"cebpf4jnsgd1na2vs0mg"},{"bike_id":"1746265e-27ad-4913-8a06-b6dc5372d844","system_id":"levelo_inurba_marseille","lat":43.26012,"lon":5.37486,"is_reserved":false,"is_disabled":false,"rental_uris":{"android":"levelo://app?vid=1746265e-27ad-4913-8a06-b6dc5372d844","ios":"levelo://app?vid=1746265e-27ad-4913-8a06-b6dc5372d844"},"vehicle_type_id":"4","last_reported":1745701705,"current_range_meters":4000,"station_id":"ce4bhgh2rcd13ifvqfa0","pricing_plan_id":"cebpf4jnsgd1na2vs0mg"},{"bike_id":"2ed3acad-be2b-47bc-bb16-dd14b09ebd94","system_id":"levelo_inurba_marseille","lat":43.24541,"lon":5.39519,"is_reserved":false,"is_disabled":false,"rental_uris":{"android":"levelo://app?vid=2ed3acad-be2b-47bc-bb16-dd14b09ebd94","ios":"levelo://app?vid=2ed3acad-be2b-47bc-bb16-dd14b09ebd94"},"vehicle_type_id":"4","last_reported":1745701705,"current_range_meters":4000,"station_id":"ce4bhlp2rcd13ifvqgjg","pricing_plan_id":"cebpf4jnsgd1na2vs0mg"},{"bike_id":"29e436ca-6f7d-42ee-94c7-987fdae41c2b","system_id":"levelo_inurba_marseille","lat":43.26224,"lon":5.37413,"is_reserved":false,"is_disabled":false,"rental_uris":{"android":"levelo://app?vid=29e436ca-6f7d-42ee-94c7-987fdae41c2b","ios":"levelo://app?vid=29e436ca-6f7d-42ee-94c7-987fdae41c2b"},"vehicle_type_id":"4","last_reported":1745701705,"current_range_meters":4000,"station_id":"","pricing_plan_id":"cebpf4jnsgd1na2vs0mg"},{"bike_id":"8e1b7f9c-15cd-4196-9a56-b8c9c867228b","system_id":"levelo_inurba_marseille","lat":43.26192,"lon":5.37469,"is_reserved":false,"is_disabled":false,"rental_uris":{"android":"levelo://app?vid=8e1b7f9c-15cd-4196-9a56-b8c9c867228b","ios":"levelo://app?vid=8e1b7f9c-15cd-4196-9a56-b8c9c867228b"},"vehicle_type_id":"4","last_reported":1745701705,"current_range_meters":4400,"station_id":"ce4bhgp2rcd13ifvqfc0","pricing_plan_id":"cebpf4jnsgd1na2vs0mg"},{"bike_id":"71d6e181-f0eb-48c7-8671-51cc43571718","system_id":"levelo_inurba_marseille","lat":43.25501,"lon":5.37656,"is_reserved":false,"is_disabled":false,"rental_uris":{"android":"levelo://app?vid=71d6e181-f0eb-48c7-8671-51cc43571718","ios":"levelo://app?vid=71d6e181-f0eb-48c7-8671-51cc43571718"},"vehicle_type_id":"4","last_reported":1745701705,"current_range_meters":4400,"station_id":"ce4bhh12rcd13ifvqff0","pricing_plan_id":"cebpf4jnsgd1na2vs0mg"},{"bike_id":"ed537f9b-b1db-4f7f-87a1-1dbb18dd4577","system_id":"levelo_inurba_marseille","lat":43.33598,"lon":5.42806,"is_reserved":false,"is_disabled":false,"rental_uris":{"android":"levelo://app?vid=ed537f9b-b1db-4f7f-87a1-1dbb18dd4577","ios":"levelo://app?vid=ed537f9b-b1db-4f7f-87a1-1dbb18dd4577"},"vehicle_type_id":"4","last_reported":1745701705,"current_range_meters":4400,"station_id":"","pricing_plan_id":"cebpf4jnsgd1na2vs0mg"},{"bike_id":"2cc64c0a-8650-4764-a6b5-3df9655e8e55","system_id":"levelo_inurba_marseille","lat":43.28007,"lon":5.35641,"is_reserved":false,"is_disabled":false,"rental_uris":{"android":"levelo://app?vid=2cc64c0a-8650-4764-a6b5-3df9655e8e55","ios":"levelo://app?vid=2cc64c0a-8650-4764-a6b5-3df9655e8e55"},"vehicle_type_id":"4","last_reported":1745701705,"current_range_meters":4800,"station_id":"","pricing_plan_id":"cebpf4jnsgd1na2vs0mg"},{"bike_id":"fcddd32a-71f9-41b4-a1cc-f32582f63a00","system_id":"levelo_inurba_marseille","lat":43.30792,"lon":5.37652,"is_reserved":false,"is_disabled":false,"rental_uris":{"android":"levelo://app?vid=fcddd32a-71f9-41b4-a1cc-f32582f63a00","ios":"levelo://app?vid=fcddd32a-71f9-41b4-a1cc-f32582f63a00"},"vehicle_type_id":"4","last_reported":1745701705,"current_range_meters":4800,"station_id":"","pricing_plan_id":"cebpf4jnsgd1na2vs0mg"},{"bike_id":"72ae67fc-0ff5-41d0-b65d-20a1832707ac","system_id":"levelo_inurba_marseille","lat":43.24803,"lon":5.37447,"is_reserved":false,"is_disabled":false,"rental_uris":{"android":"levelo://app?vid=72ae67fc-0ff5-41d0-b65d-20a1832707ac","ios":"levelo://app?vid=72ae67fc-0ff5-41d0-b65d-20a1832707ac"},"vehicle_type_id":"4","last_reported":1745701705,"current_range_meters":4800,"station_id":"ce4bhgh2rcd13ifvqfb0","pricing_plan_id":"cebpf4jnsgd1na2vs0mg"},{"bike_id":"6d91a8dc-ba91-4e59-90e6-05e9199e8291","system_id":"levelo_inurba_marseille","lat":43.26223,"lon":5.40462,"is_reserved":false,"is_disabled":false,"rental_uris":{"android":"levelo://app?vid=6d91a8dc-ba91-4e59-90e6-05e9199e8291","ios":"levelo://app?vid=6d91a8dc-ba91-4e59-90e6-05e9199e8291"},"vehicle_type_id":"4","last_reported":1745701705,"current_range_meters":4800,"station_id":"ce4bhmh2rcd13ifvqgmg","pricing_plan_id":"cebpf4jnsgd1na2vs0mg"},{"bike_id":"74bf1832-a389-491d-9cf1-c0544e13bc20","system_id":"levelo_inurba_marseille","lat":43.27495,"lon":5.42459,"is_reserved":false,"is_disabled":false,"rental_uris":{"android":"levelo://app?vid=74bf1832-a389-491d-9cf1-c0544e13bc20","ios":"levelo://app?vid=74bf1832-a389-491d-9cf1-c0544e13bc20"},"vehicle_type_id":"4","last_reported":1745701705,"current_range_meters":5600,"station_id":"ce4bhn92rcd13ifvqgrg","pricing_plan_id":"cebpf4jnsgd1na2vs0mg"},{"bike_id":"436914c3-43b7-49dc-8a5f-990cea531c07","system_id":"levelo_inurba_marseille","lat":43.25497,"lon":5.3765,"is_reserved":false,"is_disabled":false,"rental_uris":{"android":"levelo://app?vid=436914c3-43b7-49dc-8a5f-990cea531c07","ios":"levelo://app?vid=436914c3-43b7-49dc-8a5f-990cea531c07"},"vehicle_type_id":"4","last_reported":1745701705,"current_range_meters":5600,"station_id":"ce4bhh12rcd13ifvqff0","pricing_plan_id":"cebpf4jnsgd1na2vs0mg"},{"bike_id":"634bce37-401e-4c09-bfd6-51c166a38b8d","system_id":"levelo_inurba_marseille","lat":43.31689,"lon":5.40473,"is_reserved":false,"is_disabled":false,"rental_uris":{"android":"levelo://app?vid=634bce37-401e-4c09-bfd6-51c166a38b8d","ios":"levelo://app?vid=634bce37-401e-4c09-bfd6-51c166a38b8d"},"vehicle_type_id":"4","last_reported":1745701705,"current_range_meters":5600,"station_id":"ce4bh012rcd13ifvqd00","pricing_plan_id":"cebpf4jnsgd1na2vs0mg"},{"bike_id":"d1ff7e34-d25d-4063-9648-2bd4db47424f","system_id":"levelo_inurba_marseille","lat":43.32455,"lon":5.39145,"is_reserved":false,"is_disabled":true,"rental_uris":{"android":"levelo://app?vid=d1ff7e34-d25d-4063-9648-2bd4db47424f","ios":"levelo://app?vid=d1ff7e34-d25d-4063-9648-2bd4db47424f"},"vehicle_type_id":"4","last_reported":1745701705,"current_range_meters":6000,"station_id":"","pricing_plan_id":"cebpf4jnsgd1na2vs0mg"},{"bike_id":"422b5989-c8b6-43aa-b2b9-3bfeb2e1ddc0","system_id":"levelo_inurba_marseille","lat":43.24786,"lon":5.41165,"is_reserved":false,"is_disabled":false,"rental_uris":{"android":"levelo://app?vid=422b5989-c8b6-43aa-b2b9-3bfeb2e1ddc0","ios":"levelo://app?vid=422b5989-c8b6-43aa-b2b9-3bfeb2e1ddc0"},"vehicle_type_id":"4","last_reported":1745701705,"current_range_meters":6400,"station_id":"","pricing_plan_id":"cebpf4jnsgd1na2vs0mg"},{"bike_id":"038ab9d9-bdf2-4623-8df7-6a83d8bbe4d5","system_id":"levelo_inurba_marseille","lat":43.24543,"lon":5.39527,"is_reserved":false,"is_disabled":false,"rental_uris":{"android":"levelo://app?vid=038ab9d9-bdf2-4623-8df7-6a83d8bbe4d5","ios":"levelo://app?vid=038ab9d9-bdf2-4623-8df7-6a83d8bbe4d5"},"vehicle_type_id":"4","last_reported":1745701705,"current_range_meters":6400,"station_id":"ce4bhlp2rcd13ifvqgjg","pricing_plan_id":"cebpf4jnsgd1na2vs0mg"},{"bike_id":"11401a89-1aad-4932-8dc9-873ec02586b9","system_id":"levelo_inurba_marseille","lat":43.225006,"lon":5.34782,"is_reserved":false,"is_disabled":false,"rental_uris":{"android":"levelo://app?vid=11401a89-1aad-4932-8dc9-873ec02586b9","ios":"levelo://app?vid=11401a89-1aad-4932-8dc9-873ec02586b9"},"vehicle_type_id":"4","last_reported":1745701705,"current_range_meters":6400,"station_id":"ce4bgjp2rcd13ifvqbh0","pricing_plan_id":"cebpf4jnsgd1na2vs0mg"},{"bike_id":"64a661ec-5d74-4010-b560-cb20fecad26d","system_id":"levelo_inurba_marseille","lat":43.24812,"lon":5.37442,"is_reserved":false,"is_disabled":false,"rental_uris":{"android":"levelo://app?vid=64a661ec-5d74-4010-b560-cb20fecad26d","ios":"levelo://app?vid=64a661ec-5d74-4010-b560-cb20fecad26d"},"vehicle_type_id":"4","last_reported":1745701705,"current_range_meters":6400,"station_id":"ce4bhgh2rcd13ifvqfb0","pricing_plan_id":"cebpf4jnsgd1na2vs0mg"},{"bike_id":"05094179-e208-4767-94df-7d6832edefd1","system_id":"levelo_inurba_marseille","lat":43.281537,"lon":5.42648,"is_reserved":false,"is_disabled":false,"rental_uris":{"android":"levelo://app?vid=05094179-e208-4767-94df-7d6832edefd1","ios":"levelo://app?vid=05094179-e208-4767-94df-7d6832edefd1"},"vehicle_type_id":"4","last_reported":1745701705,"current_range_meters":6400,"station_id":"ce4bhnh2rcd13ifvqgug","pricing_plan_id":"cebpf4jnsgd1na2vs0mg"},{"bike_id":"408ee05e-0685-4974-b585-ffd2a9141994","system_id":"levelo_inurba_marseille","lat":43.27185,"lon":5.39208,"is_reserved":false,"is_disabled":false,"rental_uris":{"android":"levelo://app?vid=408ee05e-0685-4974-b585-ffd2a9141994","ios":"levelo://app?vid=408ee05e-0685-4974-b585-ffd2a9141994"},"vehicle_type_id":"4","last_reported":1745701705,"current_range_meters":6000,"station_id":"ce4bhhp2rcd13ifvqfm0","pricing_plan_id":"cebpf4jnsgd1na2vs0mg"},{"bike_id":"3e8f967c-f41e-4797-a659-737e6711283c","system_id":"levelo_inurba_marseille","lat":43.24387,"lon":5.37062,"is_reserved":false,"is_disabled":false,"rental_uris":{"android":"levelo://app?vid=3e8f967c-f41e-4797-a659-737e6711283c","ios":"levelo://app?vid=3e8f967c-f41e-4797-a659-737e6711283c"},"vehicle_type_id":"4","last_reported":1745701705,"current_range_meters":6400,"station_id":"ce4bhhh2rcd13ifvqfk0","pricing_plan_id":"cebpf4jnsgd1na2vs0mg"},{"bike_id":"f62a4552-ec40-438e-82bf-49608a81162e","system_id":"levelo_inurba_marseille","lat":43.239624,"lon":5.366341,"is_reserved":false,"is_disabled":false,"rental_uris":{"android":"levelo://app?vid=f62a4552-ec40-438e-82bf-49608a81162e","ios":"levelo://app?vid=f62a4552-ec40-438e-82bf-49608a81162e"},"vehicle_type_id":"4","last_reported":1745701705,"current_range_meters":6800,"station_id":"ce4bhi12rcd13ifvqfp0","pricing_plan_id":"cebpf4jnsgd1na2vs0mg"},{"bike_id":"3b6e3216-f666-4298-a310-acc5d51086df","system_id":"levelo_inurba_marseille","lat":43.2418,"lon":5.39698,"is_reserved":false,"is_disabled":false,"rental_uris":{"android":"levelo://app?vid=3b6e3216-f666-4298-a310-acc5d51086df","ios":"levelo://app?vid=3b6e3216-f666-4298-a310-acc5d51086df"},"vehicle_type_id":"4","last_reported":1745701705,"current_range_meters":6800,"station_id":"ce4bhn12rcd13ifvqgpg","pricing_plan_id":"cebpf4jnsgd1na2vs0mg"},{"bike_id":"e99e6315-2751-4329-ad7b-f9d19f8ec3ef","system_id":"levelo_inurba_marseille","lat":43.28149,"lon":5.42652,"is_reserved":false,"is_disabled":false,"rental_uris":{"android":"levelo://app?vid=e99e6315-2751-4329-ad7b-f9d19f8ec3ef","ios":"levelo://app?vid=e99e6315-2751-4329-ad7b-f9d19f8ec3ef"},"vehicle_type_id":"4","last_reported":1745701705,"current_range_meters":6800,"station_id":"ce4bhnh2rcd13ifvqgug","pricing_plan_id":"cebpf4jnsgd1na2vs0mg"},{"bike_id":"f04eedf7-4b60-4c7d-8552-095292c8d967","system_id":"levelo_inurba_marseille","lat":43.26573,"lon":5.37283,"is_reserved":false,"is_disabled":false,"rental_uris":{"android":"levelo://app?vid=f04eedf7-4b60-4c7d-8552-095292c8d967","ios":"levelo://app?vid=f04eedf7-4b60-4c7d-8552-095292c8d967"},"vehicle_type_id":"4","last_reported":1745701705,"current_range_meters":6800,"station_id":"ce4bhg12rcd13ifvqf70","pricing_plan_id":"cebpf4jnsgd1na2vs0mg"},{"bike_id":"ce3d79c7-ad7f-4485-ae2d-dc5e85ab4561","system_id":"levelo_inurba_marseille","lat":43.29262,"lon":5.3844,"is_reserved":false,"is_disabled":false,"rental_uris":{"android":"levelo://app?vid=ce3d79c7-ad7f-4485-ae2d-dc5e85ab4561","ios":"levelo://app?vid=ce3d79c7-ad7f-4485-ae2d-dc5e85ab4561"},"vehicle_type_id":"4","last_reported":1745701705,"current_range_meters":6800,"station_id":"ce4bh692rcd13ifvqea0","pricing_plan_id":"cebpf4jnsgd1na2vs0mg"},{"bike_id":"18ae1d78-8d9e-4697-bc48-a39d36035c1d","system_id":"levelo_inurba_marseille","lat":43.2397,"lon":5.36608,"is_reserved":false,"is_disabled":false,"rental_uris":{"android":"levelo://app?vid=18ae1d78-8d9e-4697-bc48-a39d36035c1d","ios":"levelo://app?vid=18ae1d78-8d9e-4697-bc48-a39d36035c1d"},"vehicle_type_id":"4","last_reported":1745701705,"current_range_meters":6800,"station_id":"ce4bhi12rcd13ifvqfp0","pricing_plan_id":"cebpf4jnsgd1na2vs0mg"},{"bike_id":"554fe001-fd7c-4ce9-8b9f-fe24a3da343a","system_id":"levelo_inurba_marseille","lat":43.23172,"lon":5.35552,"is_reserved":false,"is_disabled":false,"rental_uris":{"android":"levelo://app?vid=554fe001-fd7c-4ce9-8b9f-fe24a3da343a","ios":"levelo://app?vid=554fe001-fd7c-4ce9-8b9f-fe24a3da343a"},"vehicle_type_id":"4","last_reported":1745701705,"current_range_meters":7200,"station_id":"ce4bhu92rcd13ifvqi70","pricing_plan_id":"cebpf4jnsgd1na2vs0mg"},{"bike_id":"3fb10e7d-00e1-476c-a14f-2837b73331eb","system_id":"levelo_inurba_marseille","lat":43.2618,"lon":5.37457,"is_reserved":false,"is_disabled":false,"rental_uris":{"android":"levelo://app?vid=3fb10e7d-00e1-476c-a14f-2837b73331eb","ios":"levelo://app?vid=3fb10e7d-00e1-476c-a14f-2837b73331eb"},"vehicle_type_id":"4","last_reported":1745701705,"current_range_meters":7200,"station_id":"ce4bhgp2rcd13ifvqfc0","pricing_plan_id":"cebpf4jnsgd1na2vs0mg"},{"bike_id":"62b8d5c9-eb15-493f-a357-4eb15de007d7","system_id":"levelo_inurba_marseille","lat":43.28155,"lon":5.4264,"is_reserved":false,"is_disabled":false,"rental_uris":{"android":"levelo://app?vid=62b8d5c9-eb15-493f-a357-4eb15de007d7","ios":"levelo://app?vid=62b8d5c9-eb15-493f-a357-4eb15de007d7"},"vehicle_type_id":"4","last_reported":1745701705,"current_range_meters":6800,"station_id":"ce4bhnh2rcd13ifvqgug","pricing_plan_id":"cebpf4jnsgd1na2vs0mg"},{"bike_id":"51376682-930e-45ed-90e0-b53d931ddc33","system_id":"levelo_inurba_marseille","lat":43.27498,"lon":5.42453,"is_reserved":false,"is_disabled":false,"rental_uris":{"android":"levelo://app?vid=51376682-930e-45ed-90e0-b53d931ddc33","ios":"levelo://app?vid=51376682-930e-45ed-90e0-b53d931ddc33"},"vehicle_type_id":"4","last_reported":1745701705,"current_range_meters":7200,"station_id":"ce4bhn92rcd13ifvqgrg","pricing_plan_id":"cebpf4jnsgd1na2vs0mg"},{"bike_id":"2168c6a8-8003-45ab-92e8-4b50ef7564ed","system_id":"levelo_inurba_marseille","lat":43.33602,"lon":5.4103,"is_reserved":false,"is_disabled":false,"rental_uris":{"android":"levelo://app?vid=2168c6a8-8003-45ab-92e8-4b50ef7564ed","ios":"levelo://app?vid=2168c6a8-8003-45ab-92e8-4b50ef7564ed"},"vehicle_type_id":"4","last_reported":1745701705,"current_range_meters":9600,"station_id":"ce4bhqh2rcd13ifvqhmg","pricing_plan_id":"cebpf4jnsgd1na2vs0mg"},{"bike_id":"1633ed64-e423-42e4-93c5-471c5c6b4f37","system_id":"levelo_inurba_marseille","lat":43.260644,"lon":5.393873,"is_reserved":false,"is_disabled":false,"rental_uris":{"android":"levelo://app?vid=1633ed64-e423-42e4-93c5-471c5c6b4f37","ios":"levelo://app?vid=1633ed64-e423-42e4-93c5-471c5c6b4f37"},"vehicle_type_id":"4","last_reported":1745701705,"current_range_meters":7200,"station_id":"ce4bhh92rcd13ifvqfj0","pricing_plan_id":"cebpf4jnsgd1na2vs0mg"},{"bike_id":"6fde95af-764f-42ed-86f2-bd357da49a18","system_id":"levelo_inurba_marseille","lat":43.288544,"lon":5.393198,"is_reserved":false,"is_disabled":false,"rental_uris":{"android":"levelo://app?vid=6fde95af-764f-42ed-86f2-bd357da49a18","ios":"levelo://app?vid=6fde95af-764f-42ed-86f2-bd357da49a18"},"vehicle_type_id":"4","last_reported":1745701705,"current_range_meters":7200,"station_id":"ce4bh2p2rcd13ifvqdi0","pricing_plan_id":"cebpf4jnsgd1na2vs0mg"},{"bike_id":"884263e9-f290-4b92-ae21-0fd1133fdd06","system_id":"levelo_inurba_marseille","lat":43.303759,"lon":5.392998,"is_reserved":false,"is_disabled":false,"rental_uris":{"android":"levelo://app?vid=884263e9-f290-4b92-ae21-0fd1133fdd06","ios":"levelo://app?vid=884263e9-f290-4b92-ae21-0fd1133fdd06"},"vehicle_type_id":"4","last_reported":1745701705,"current_range_meters":7200,"station_id":"ce4bgvp2rcd13ifvqcu0","pricing_plan_id":"cebpf4jnsgd1na2vs0mg"},{"bike_id":"6104de1b-83a6-4912-bfa1-49d35364e6af","system_id":"levelo_inurba_marseille","lat":43.23949,"lon":5.36651,"is_reserved":false,"is_disabled":false,"rental_uris":{"android":"levelo://app?vid=6104de1b-83a6-4912-bfa1-49d35364e6af","ios":"levelo://app?vid=6104de1b-83a6-4912-bfa1-49d35364e6af"},"vehicle_type_id":"4","last_reported":1745701705,"current_range_meters":8000,"station_id":"ce4bhi12rcd13ifvqfp0","pricing_plan_id":"cebpf4jnsgd1na2vs0mg"},{"bike_id":"53094921-ea74-4215-bdf0-9e1c0cdded85","system_id":"levelo_inurba_marseille","lat":43.310683,"lon":5.383485,"is_reserved":false,"is_disabled":false,"rental_uris":{"android":"levelo://app?vid=53094921-ea74-4215-bdf0-9e1c0cdded85","ios":"levelo://app?vid=53094921-ea74-4215-bdf0-9e1c0cdded85"},"vehicle_type_id":"4","last_reported":1745701705,"current_range_meters":8000,"station_id":"ce4bgv92rcd13ifvqcr0","pricing_plan_id":"cebpf4jnsgd1na2vs0mg"},{"bike_id":"98234df2-0309-4215-9ce6-3af7f1c867a9","system_id":"levelo_inurba_marseille","lat":43.27918,"lon":5.3958,"is_reserved":false,"is_disabled":false,"rental_uris":{"android":"levelo://app?vid=98234df2-0309-4215-9ce6-3af7f1c867a9","ios":"levelo://app?vid=98234df2-0309-4215-9ce6-3af7f1c867a9"},"vehicle_type_id":"4","last_reported":1745701705,"current_range_meters":8000,"station_id":"ce4bhf92rcd13ifvqf40","pricing_plan_id":"cebpf4jnsgd1na2vs0mg"},{"bike_id":"dea15188-c098-4794-90f6-0fc4b187f745","system_id":"levelo_inurba_marseille","lat":43.307972,"lon":5.43529,"is_reserved":false,"is_disabled":false,"rental_uris":{"android":"levelo://app?vid=dea15188-c098-4794-90f6-0fc4b187f745","ios":"levelo://app?vid=dea15188-c098-4794-90f6-0fc4b187f745"},"vehicle_type_id":"4","last_reported":1745701705,"current_range_meters":8000,"station_id":"ce4bhph2rcd13ifvqheg","pricing_plan_id":"cebpf4jnsgd1na2vs0mg"},{"bike_id":"c53bc830-0a68-438e-a5d2-e046cc273bef","system_id":"levelo_inurba_marseille","lat":43.31077,"lon":5.38353,"is_reserved":false,"is_disabled":false,"rental_uris":{"android":"levelo://app?vid=c53bc830-0a68-438e-a5d2-e046cc273bef","ios":"levelo://app?vid=c53bc830-0a68-438e-a5d2-e046cc273bef"},"vehicle_type_id":"4","last_reported":1745701705,"current_range_meters":8400,"station_id":"ce4bgv92rcd13ifvqcr0","pricing_plan_id":"cebpf4jnsgd1na2vs0mg"},{"bike_id":"b25d821f-85f0-4e36-bfe6-db46d00f9763","system_id":"levelo_inurba_marseille","lat":43.29579,"lon":5.42255,"is_reserved":false,"is_disabled":false,"rental_uris":{"android":"levelo://app?vid=b25d821f-85f0-4e36-bfe6-db46d00f9763","ios":"levelo://app?vid=b25d821f-85f0-4e36-bfe6-db46d00f9763"},"vehicle_type_id":"4","last_reported":1745701705,"current_range_meters":8400,"station_id":"ce4bhph2rcd13ifvqhdg","pricing_plan_id":"cebpf4jnsgd1na2vs0mg"},{"bike_id":"268cb347-ad94-4ab7-9a23-ad4d7a2bcb5c","system_id":"levelo_inurba_marseille","lat":43.24071,"lon":5.37752,"is_reserved":false,"is_disabled":false,"rental_uris":{"android":"levelo://app?vid=268cb347-ad94-4ab7-9a23-ad4d7a2bcb5c","ios":"levelo://app?vid=268cb347-ad94-4ab7-9a23-ad4d7a2bcb5c"},"vehicle_type_id":"4","last_reported":1745701705,"current_range_meters":8400,"station_id":"ce4bhnp2rcd13ifvqgvg","pricing_plan_id":"cebpf4jnsgd1na2vs0mg"},{"bike_id":"84de9c1d-4ee7-4ffa-865a-f2d564ed8bea","system_id":"levelo_inurba_marseille","lat":43.24812,"lon":5.3746,"is_reserved":false,"is_disabled":false,"rental_uris":{"android":"levelo://app?vid=84de9c1d-4ee7-4ffa-865a-f2d564ed8bea","ios":"levelo://app?vid=84de9c1d-4ee7-4ffa-865a-f2d564ed8bea"},"vehicle_type_id":"4","last_reported":1745701705,"current_range_meters":8400,"station_id":"ce4bhgh2rcd13ifvqfb0","pricing_plan_id":"cebpf4jnsgd1na2vs0mg"},{"bike_id":"206d6220-b715-46fc-be54-9a6732301080","system_id":"levelo_inurba_marseille","lat":43.27819,"lon":5.40706,"is_reserved":false,"is_disabled":false,"rental_uris":{"android":"levelo://app?vid=206d6220-b715-46fc-be54-9a6732301080","ios":"levelo://app?vid=206d6220-b715-46fc-be54-9a6732301080"},"vehicle_type_id":"4","last_reported":1745701705,"current_range_meters":8400,"station_id":"ce4bhnh2rcd13ifvqgtg","pricing_plan_id":"cebpf4jnsgd1na2vs0mg"},{"bike_id":"e1b21425-ef5d-4276-a8f6-9c7098eb7312","system_id":"levelo_inurba_marseille","lat":43.3043,"lon":5.41263,"is_reserved":false,"is_disabled":false,"rental_uris":{"android":"levelo://app?vid=e1b21425-ef5d-4276-a8f6-9c7098eb7312","ios":"levelo://app?vid=e1b21425-ef5d-4276-a8f6-9c7098eb7312"},"vehicle_type_id":"4","last_reported":1745701705,"current_range_meters":8400,"station_id":"ce4bhop2rcd13ifvqh8g","pricing_plan_id":"cebpf4jnsgd1na2vs0mg"},{"bike_id":"aa802d04-93cc-4325-bf66-50895eaf23d2","system_id":"levelo_inurba_marseille","lat":43.31374,"lon":5.38488,"is_reserved":false,"is_disabled":false,"rental_uris":{"android":"levelo://app?vid=aa802d04-93cc-4325-bf66-50895eaf23d2","ios":"levelo://app?vid=aa802d04-93cc-4325-bf66-50895eaf23d2"},"vehicle_type_id":"4","last_reported":1745701705,"current_range_meters":8800,"station_id":"ce4bgt92rcd13ifvqcf0","pricing_plan_id":"cebpf4jnsgd1na2vs0mg"},{"bike_id":"ccb58822-4bf1-4cf8-9190-ef7aee64397d","system_id":"levelo_inurba_marseille","lat":43.31122,"lon":5.37758,"is_reserved":false,"is_disabled":false,"rental_uris":{"android":"levelo://app?vid=ccb58822-4bf1-4cf8-9190-ef7aee64397d","ios":"levelo://app?vid=ccb58822-4bf1-4cf8-9190-ef7aee64397d"},"vehicle_type_id":"4","last_reported":1745701705,"current_range_meters":8800,"station_id":"ce4bgt92rcd13ifvqcg0","pricing_plan_id":"cebpf4jnsgd1na2vs0mg"},{"bike_id":"c886bc95-a9f4-4b08-af93-286cc6dbd1ea","system_id":"levelo_inurba_marseille","lat":43.24167,"lon":5.36397,"is_reserved":false,"is_disabled":false,"rental_uris":{"android":"levelo://app?vid=c886bc95-a9f4-4b08-af93-286cc6dbd1ea","ios":"levelo://app?vid=c886bc95-a9f4-4b08-af93-286cc6dbd1ea"},"vehicle_type_id":"4","last_reported":1745701705,"current_range_meters":8800,"station_id":"cpo36qri1sfpv3e86is0","pricing_plan_id":"cebpf4jnsgd1na2vs0mg"},{"bike_id":"b4b0266c-631d-4bc0-b722-43b22c86c85f","system_id":"levelo_inurba_marseille","lat":43.3099,"lon":5.41749,"is_reserved":false,"is_disabled":false,"rental_uris":{"android":"levelo://app?vid=b4b0266c-631d-4bc0-b722-43b22c86c85f","ios":"levelo://app?vid=b4b0266c-631d-4bc0-b722-43b22c86c85f"},"vehicle_type_id":"4","last_reported":1745701705,"current_range_meters":9200,"station_id":"","pricing_plan_id":"cebpf4jnsgd1na2vs0mg"},{"bike_id":"9b530da8-10bb-4c9c-b1d0-30ef0860ae0d","system_id":"levelo_inurba_marseille","lat":43.29536,"lon":5.38547,"is_reserved":false,"is_disabled":false,"rental_uris":{"android":"levelo://app?vid=9b530da8-10bb-4c9c-b1d0-30ef0860ae0d","ios":"levelo://app?vid=9b530da8-10bb-4c9c-b1d0-30ef0860ae0d"},"vehicle_type_id":"4","last_reported":1745701705,"current_range_meters":5600,"station_id":"ce4bgih2rcd13ifvqba0","pricing_plan_id":"cebpf4jnsgd1na2vs0mg"},{"bike_id":"b9812e90-2535-4bd3-ba9b-7f88dc336581","system_id":"levelo_inurba_marseille","lat":43.31352,"lon":5.38494,"is_reserved":false,"is_disabled":false,"rental_uris":{"android":"levelo://app?vid=b9812e90-2535-4bd3-ba9b-7f88dc336581","ios":"levelo://app?vid=b9812e90-2535-4bd3-ba9b-7f88dc336581"},"vehicle_type_id":"4","last_reported":1745701705,"current_range_meters":9600,"station_id":"ce4bgt92rcd13ifvqcf0","pricing_plan_id":"cebpf4jnsgd1na2vs0mg"},{"bike_id":"e768aa58-f78c-4d48-862b-93a92cf87bd8","system_id":"levelo_inurba_marseille","lat":43.3212,"lon":5.36761,"is_reserved":false,"is_disabled":false,"rental_uris":{"android":"levelo://app?vid=e768aa58-f78c-4d48-862b-93a92cf87bd8","ios":"levelo://app?vid=e768aa58-f78c-4d48-862b-93a92cf87bd8"},"vehicle_type_id":"4","last_reported":1745701705,"current_range_meters":9600,"station_id":"ce4bhrh2rcd13ifvqhug","pricing_plan_id":"cebpf4jnsgd1na2vs0mg"},{"bike_id":"042a36cf-a68c-4f02-8fbe-a3d4f36fa492","system_id":"levelo_inurba_marseille","lat":43.212036,"lon":5.350663,"is_reserved":false,"is_disabled":false,"rental_uris":{"android":"levelo://app?vid=042a36cf-a68c-4f02-8fbe-a3d4f36fa492","ios":"levelo://app?vid=042a36cf-a68c-4f02-8fbe-a3d4f36fa492"},"vehicle_type_id":"4","last_reported":1745701705,"current_range_meters":9600,"station_id":"st_cvj6sg6p6f1abm77japg","pricing_plan_id":"cebpf4jnsgd1na2vs0mg"},{"bike_id":"5a42e7d2-7dc3-47bf-9bd4-a4f42443d89e","system_id":"levelo_inurba_marseille","lat":43.25493,"lon":5.37645,"is_reserved":false,"is_disabled":false,"rental_uris":{"android":"levelo://app?vid=5a42e7d2-7dc3-47bf-9bd4-a4f42443d89e","ios":"levelo://app?vid=5a42e7d2-7dc3-47bf-9bd4-a4f42443d89e"},"vehicle_type_id":"4","last_reported":1745701705,"current_range_meters":9600,"station_id":"ce4bhh12rcd13ifvqff0","pricing_plan_id":"cebpf4jnsgd1na2vs0mg"},{"bike_id":"1bd9ebb5-711c-422d-b034-c7e190c4cf38","system_id":"levelo_inurba_marseille","lat":43.27177,"lon":5.40998,"is_reserved":false,"is_disabled":false,"rental_uris":{"android":"levelo://app?vid=1bd9ebb5-711c-422d-b034-c7e190c4cf38","ios":"levelo://app?vid=1bd9ebb5-711c-422d-b034-c7e190c4cf38"},"vehicle_type_id":"4","last_reported":1745701705,"current_range_meters":9600,"station_id":"ce4bhl12rcd13ifvqgf0","pricing_plan_id":"cebpf4jnsgd1na2vs0mg"},{"bike_id":"dc563db4-3d66-4cb2-8ddd-0654d51c02b6","system_id":"levelo_inurba_marseille","lat":43.29525,"lon":5.38541,"is_reserved":false,"is_disabled":false,"rental_uris":{"android":"levelo://app?vid=dc563db4-3d66-4cb2-8ddd-0654d51c02b6","ios":"levelo://app?vid=dc563db4-3d66-4cb2-8ddd-0654d51c02b6"},"vehicle_type_id":"4","last_reported":1745701705,"current_range_meters":9600,"station_id":"ce4bgih2rcd13ifvqba0","pricing_plan_id":"cebpf4jnsgd1na2vs0mg"},{"bike_id":"ae2f8384-ab79-4241-aa7f-a13b45da22ce","system_id":"levelo_inurba_marseille","lat":43.26223,"lon":5.37424,"is_reserved":false,"is_disabled":false,"rental_uris":{"android":"levelo://app?vid=ae2f8384-ab79-4241-aa7f-a13b45da22ce","ios":"levelo://app?vid=ae2f8384-ab79-4241-aa7f-a13b45da22ce"},"vehicle_type_id":"4","last_reported":1745701705,"current_range_meters":9600,"station_id":"","pricing_plan_id":"cebpf4jnsgd1na2vs0mg"},{"bike_id":"3f485f12-ccbf-4cc6-bfee-26b7c2709069","system_id":"levelo_inurba_marseille","lat":43.28192,"lon":5.49055,"is_reserved":false,"is_disabled":false,"rental_uris":{"android":"levelo://app?vid=3f485f12-ccbf-4cc6-bfee-26b7c2709069","ios":"levelo://app?vid=3f485f12-ccbf-4cc6-bfee-26b7c2709069"},"vehicle_type_id":"4","last_reported":1745701705,"current_range_meters":9600,"station_id":"","pricing_plan_id":"cebpf4jnsgd1na2vs0mg"},{"bike_id":"6d7cc870-ccfd-4f48-96fb-e8c1f82a64cc","system_id":"levelo_inurba_marseille","lat":43.29772,"lon":5.37105,"is_reserved":false,"is_disabled":true,"rental_uris":{"android":"levelo://app?vid=6d7cc870-ccfd-4f48-96fb-e8c1f82a64cc","ios":"levelo://app?vid=6d7cc870-ccfd-4f48-96fb-e8c1f82a64cc"},"vehicle_type_id":"4","last_reported":1745701705,"current_range_meters":10000,"station_id":"ce4bgop2rcd13ifvqc1g","pricing_plan_id":"cebpf4jnsgd1na2vs0mg"},{"bike_id":"aa7dd23a-c50c-4359-a4fa-3d29c4576751","system_id":"levelo_inurba_marseille","lat":43.241615,"lon":5.36409,"is_reserved":false,"is_disabled":false,"rental_uris":{"android":"levelo://app?vid=aa7dd23a-c50c-4359-a4fa-3d29c4576751","ios":"levelo://app?vid=aa7dd23a-c50c-4359-a4fa-3d29c4576751"},"vehicle_type_id":"4","last_reported":1745701705,"current_range_meters":10000,"station_id":"cpo36qri1sfpv3e86is0","pricing_plan_id":"cebpf4jnsgd1na2vs0mg"},{"bike_id":"757a31c2-77e1-4627-a72e-6a5115a94e27","system_id":"levelo_inurba_marseille","lat":43.21749,"lon":5.34602,"is_reserved":false,"is_disabled":false,"rental_uris":{"android":"levelo://app?vid=757a31c2-77e1-4627-a72e-6a5115a94e27","ios":"levelo://app?vid=757a31c2-77e1-4627-a72e-6a5115a94e27"},"vehicle_type_id":"4","last_reported":1745701705,"current_range_meters":10000,"station_id":"","pricing_plan_id":"cebpf4jnsgd1na2vs0mg"},{"bike_id":"9d24975d-5989-4c6e-bc54-bdc168e02c5f","system_id":"levelo_inurba_marseille","lat":43.24488,"lon":5.41162,"is_reserved":false,"is_disabled":false,"rental_uris":{"android":"levelo://app?vid=9d24975d-5989-4c6e-bc54-bdc168e02c5f","ios":"levelo://app?vid=9d24975d-5989-4c6e-bc54-bdc168e02c5f"},"vehicle_type_id":"4","last_reported":1745701705,"current_range_meters":10000,"station_id":"","pricing_plan_id":"cebpf4jnsgd1na2vs0mg"},{"bike_id":"e0898947-00fd-48e7-866b-aca3d0a6fba3","system_id":"levelo_inurba_marseille","lat":43.29513,"lon":5.37515,"is_reserved":false,"is_disabled":false,"rental_uris":{"android":"levelo://app?vid=e0898947-00fd-48e7-866b-aca3d0a6fba3","ios":"levelo://app?vid=e0898947-00fd-48e7-866b-aca3d0a6fba3"},"vehicle_type_id":"4","last_reported":1745701705,"current_range_meters":10800,"station_id":"ce4bgkp2rcd13ifvqbmg","pricing_plan_id":"cebpf4jnsgd1na2vs0mg"},{"bike_id":"0cce7ea2-3151-4739-8e52-340c11e5c4e0","system_id":"levelo_inurba_marseille","lat":43.24659,"lon":5.38158,"is_reserved":false,"is_disabled":false,"rental_uris":{"android":"levelo://app?vid=0cce7ea2-3151-4739-8e52-340c11e5c4e0","ios":"levelo://app?vid=0cce7ea2-3151-4739-8e52-340c11e5c4e0"},"vehicle_type_id":"4","last_reported":1745701705,"current_range_meters":10800,"station_id":"ce4bhih2rcd13ifvqfr0","pricing_plan_id":"cebpf4jnsgd1na2vs0mg"},{"bike_id":"a09f4ec6-b5d9-4928-a37a-363e3182923b","system_id":"levelo_inurba_marseille","lat":43.27998,"lon":5.4002,"is_reserved":false,"is_disabled":false,"rental_uris":{"android":"levelo://app?vid=a09f4ec6-b5d9-4928-a37a-363e3182923b","ios":"levelo://app?vid=a09f4ec6-b5d9-4928-a37a-363e3182923b"},"vehicle_type_id":"4","last_reported":1745701705,"current_range_meters":10800,"station_id":"ce4bho92rcd13ifvqh4g","pricing_plan_id":"cebpf4jnsgd1na2vs0mg"},{"bike_id":"3f8e74df-4b8a-4fe8-9f20-4fbe47605119","system_id":"levelo_inurba_marseille","lat":43.29031,"lon":5.3758,"is_reserved":false,"is_disabled":true,"rental_uris":{"android":"levelo://app?vid=3f8e74df-4b8a-4fe8-9f20-4fbe47605119","ios":"levelo://app?vid=3f8e74df-4b8a-4fe8-9f20-4fbe47605119"},"vehicle_type_id":"4","last_reported":1745701705,"current_range_meters":10800,"station_id":"ce4bh692rcd13ifvqe90","pricing_plan_id":"cebpf4jnsgd1na2vs0mg"},{"bike_id":"46ff4bff-4f24-468c-b5f8-bbf958e109d4","system_id":"levelo_inurba_marseille","lat":43.27609,"lon":5.36122,"is_reserved":false,"is_disabled":false,"rental_uris":{"android":"levelo://app?vid=46ff4bff-4f24-468c-b5f8-bbf958e109d4","ios":"levelo://app?vid=46ff4bff-4f24-468c-b5f8-bbf958e109d4"},"vehicle_type_id":"4","last_reported":1745701705,"current_range_meters":10800,"station_id":"ce4bgj92rcd13ifvqbe0","pricing_plan_id":"cebpf4jnsgd1na2vs0mg"},{"bike_id":"81afe79d-5e03-48e2-8c9e-ad5047380392","system_id":"levelo_inurba_marseille","lat":43.27174,"lon":5.40991,"is_reserved":false,"is_disabled":false,"rental_uris":{"android":"levelo://app?vid=81afe79d-5e03-48e2-8c9e-ad5047380392","ios":"levelo://app?vid=81afe79d-5e03-48e2-8c9e-ad5047380392"},"vehicle_type_id":"4","last_reported":1745701705,"current_range_meters":10800,"station_id":"ce4bhl12rcd13ifvqgf0","pricing_plan_id":"cebpf4jnsgd1na2vs0mg"},{"bike_id":"c7c9ec95-3e30-4f6c-9cdc-a517940c777e","system_id":"levelo_inurba_marseille","lat":43.30382,"lon":5.39322,"is_reserved":false,"is_disabled":false,"rental_uris":{"android":"levelo://app?vid=c7c9ec95-3e30-4f6c-9cdc-a517940c777e","ios":"levelo://app?vid=c7c9ec95-3e30-4f6c-9cdc-a517940c777e"},"vehicle_type_id":"4","last_reported":1745701705,"current_range_meters":11200,"station_id":"","pricing_plan_id":"cebpf4jnsgd1na2vs0mg"},{"bike_id":"c6d9f4d6-af78-4bfb-9189-1ff4d5c29790","system_id":"levelo_inurba_marseille","lat":43.30597,"lon":5.37229,"is_reserved":false,"is_disabled":false,"rental_uris":{"android":"levelo://app?vid=c6d9f4d6-af78-4bfb-9189-1ff4d5c29790","ios":"levelo://app?vid=c6d9f4d6-af78-4bfb-9189-1ff4d5c29790"},"vehicle_type_id":"4","last_reported":1745701705,"current_range_meters":11200,"station_id":"ce4bgqh2rcd13ifvqc4g","pricing_plan_id":"cebpf4jnsgd1na2vs0mg"},{"bike_id":"acde762a-e89c-4ab0-b2dc-c092ce49b1fd","system_id":"levelo_inurba_marseille","lat":43.30538,"lon":5.38426,"is_reserved":false,"is_disabled":false,"rental_uris":{"android":"levelo://app?vid=acde762a-e89c-4ab0-b2dc-c092ce49b1fd","ios":"levelo://app?vid=acde762a-e89c-4ab0-b2dc-c092ce49b1fd"},"vehicle_type_id":"4","last_reported":1745701705,"current_range_meters":10800,"station_id":"ce4bgg92rcd13ifvqb30","pricing_plan_id":"cebpf4jnsgd1na2vs0mg"},{"bike_id":"50567301-7660-45e4-9314-78fdd7ddbf96","system_id":"levelo_inurba_marseille","lat":43.30765,"lon":5.40937,"is_reserved":false,"is_disabled":false,"rental_uris":{"android":"levelo://app?vid=50567301-7660-45e4-9314-78fdd7ddbf96","ios":"levelo://app?vid=50567301-7660-45e4-9314-78fdd7ddbf96"},"vehicle_type_id":"4","last_reported":1745701705,"current_range_meters":11200,"station_id":"","pricing_plan_id":"cebpf4jnsgd1na2vs0mg"},{"bike_id":"4e09e2f3-6329-4563-9a1f-79c5001029cb","system_id":"levelo_inurba_marseille","lat":43.32362,"lon":5.38881,"is_reserved":false,"is_disabled":false,"rental_uris":{"android":"levelo://app?vid=4e09e2f3-6329-4563-9a1f-79c5001029cb","ios":"levelo://app?vid=4e09e2f3-6329-4563-9a1f-79c5001029cb"},"vehicle_type_id":"4","last_reported":1745701705,"current_range_meters":11200,"station_id":"ce4bhqp2rcd13ifvqhog","pricing_plan_id":"cebpf4jnsgd1na2vs0mg"},{"bike_id":"c596ab54-4f89-4649-a442-12778ac8adc4","system_id":"levelo_inurba_marseille","lat":43.3171,"lon":5.437,"is_reserved":false,"is_disabled":true,"rental_uris":{"android":"levelo://app?vid=c596ab54-4f89-4649-a442-12778ac8adc4","ios":"levelo://app?vid=c596ab54-4f89-4649-a442-12778ac8adc4"},"vehicle_type_id":"4","last_reported":1745701705,"current_range_meters":11600,"station_id":"ce4bhp92rcd13ifvqhcg","pricing_plan_id":"cebpf4jnsgd1na2vs0mg"},{"bike_id":"2fac31c9-ecd4-4c07-9ea5-ab959ac9f813","system_id":"levelo_inurba_marseille","lat":43.2465,"lon":5.38167,"is_reserved":false,"is_disabled":true,"rental_uris":{"android":"levelo://app?vid=2fac31c9-ecd4-4c07-9ea5-ab959ac9f813","ios":"levelo://app?vid=2fac31c9-ecd4-4c07-9ea5-ab959ac9f813"},"vehicle_type_id":"4","last_reported":1745701705,"current_range_meters":11600,"station_id":"ce4bhih2rcd13ifvqfr0","pricing_plan_id":"cebpf4jnsgd1na2vs0mg"},{"bike_id":"9f9519bb-1c19-4102-9915-058e901106c0","system_id":"levelo_inurba_marseille","lat":43.31073,"lon":5.38365,"is_reserved":false,"is_disabled":false,"rental_uris":{"android":"levelo://app?vid=9f9519bb-1c19-4102-9915-058e901106c0","ios":"levelo://app?vid=9f9519bb-1c19-4102-9915-058e901106c0"},"vehicle_type_id":"4","last_reported":1745701705,"current_range_meters":11600,"station_id":"ce4bgv92rcd13ifvqcr0","pricing_plan_id":"cebpf4jnsgd1na2vs0mg"},{"bike_id":"4e3e5e04-b104-4651-94db-59952999f729","system_id":"levelo_inurba_marseille","lat":43.30791,"lon":5.38165,"is_reserved":false,"is_disabled":false,"rental_uris":{"android":"levelo://app?vid=4e3e5e04-b104-4651-94db-59952999f729","ios":"levelo://app?vid=4e3e5e04-b104-4651-94db-59952999f729"},"vehicle_type_id":"4","last_reported":1745701705,"current_range_meters":11200,"station_id":"ce4bgt12rcd13ifvqce0","pricing_plan_id":"cebpf4jnsgd1na2vs0mg"},{"bike_id":"736ee7d5-708e-48bd-8281-35bb85d0bc7d","system_id":"levelo_inurba_marseille","lat":43.28995,"lon":5.35626,"is_reserved":false,"is_disabled":true,"rental_uris":{"android":"levelo://app?vid=736ee7d5-708e-48bd-8281-35bb85d0bc7d","ios":"levelo://app?vid=736ee7d5-708e-48bd-8281-35bb85d0bc7d"},"vehicle_type_id":"4","last_reported":1745701705,"current_range_meters":11600,"station_id":"ce4bhb92rcd13ifvqen0","pricing_plan_id":"cebpf4jnsgd1na2vs0mg"},{"bike_id":"8e4bcc92-18f9-466c-9f0e-98f4ca9d92a2","system_id":"levelo_inurba_marseille","lat":43.30139,"lon":5.39882,"is_reserved":false,"is_disabled":false,"rental_uris":{"android":"levelo://app?vid=8e4bcc92-18f9-466c-9f0e-98f4ca9d92a2","ios":"levelo://app?vid=8e4bcc92-18f9-466c-9f0e-98f4ca9d92a2"},"vehicle_type_id":"4","last_reported":1745701705,"current_range_meters":12000,"station_id":"ce4bh0h2rcd13ifvqd40","pricing_plan_id":"cebpf4jnsgd1na2vs0mg"},{"bike_id":"2c368ccb-3bac-439c-8518-62bd21f059de","system_id":"levelo_inurba_marseille","lat":43.23961,"lon":5.36638,"is_reserved":false,"is_disabled":false,"rental_uris":{"android":"levelo://app?vid=2c368ccb-3bac-439c-8518-62bd21f059de","ios":"levelo://app?vid=2c368ccb-3bac-439c-8518-62bd21f059de"},"vehicle_type_id":"4","last_reported":1745701705,"current_range_meters":12000,"station_id":"ce4bhi12rcd13ifvqfp0","pricing_plan_id":"cebpf4jnsgd1na2vs0mg"},{"bike_id":"b542a307-ea0d-41dd-ad30-be27f31650da","system_id":"levelo_inurba_marseille","lat":43.30315,"lon":5.36887,"is_reserved":false,"is_disabled":false,"rental_uris":{"android":"levelo://app?vid=b542a307-ea0d-41dd-ad30-be27f31650da","ios":"levelo://app?vid=b542a307-ea0d-41dd-ad30-be27f31650da"},"vehicle_type_id":"4","last_reported":1745701705,"current_range_meters":4800,"station_id":"ce4bgqh2rcd13ifvqc5g","pricing_plan_id":"cebpf4jnsgd1na2vs0mg"},{"bike_id":"56b523c5-8a8b-486f-a0f0-6f77b6036fbf","system_id":"levelo_inurba_marseille","lat":43.30969,"lon":5.39087,"is_reserved":false,"is_disabled":false,"rental_uris":{"android":"levelo://app?vid=56b523c5-8a8b-486f-a0f0-6f77b6036fbf","ios":"levelo://app?vid=56b523c5-8a8b-486f-a0f0-6f77b6036fbf"},"vehicle_type_id":"4","last_reported":1745701705,"current_range_meters":12000,"station_id":"","pricing_plan_id":"cebpf4jnsgd1na2vs0mg"},{"bike_id":"63bdb0de-bc08-46fa-82f4-d817e253e662","system_id":"levelo_inurba_marseille","lat":43.2319,"lon":5.35557,"is_reserved":false,"is_disabled":false,"rental_uris":{"android":"levelo://app?vid=63bdb0de-bc08-46fa-82f4-d817e253e662","ios":"levelo://app?vid=63bdb0de-bc08-46fa-82f4-d817e253e662"},"vehicle_type_id":"4","last_reported":1745701705,"current_range_meters":11600,"station_id":"ce4bhu92rcd13ifvqi70","pricing_plan_id":"cebpf4jnsgd1na2vs0mg"},{"bike_id":"0b4eb874-2ae2-4559-98dd-7e17eb114804","system_id":"levelo_inurba_marseille","lat":43.29905,"lon":5.38142,"is_reserved":false,"is_disabled":false,"rental_uris":{"android":"levelo://app?vid=0b4eb874-2ae2-4559-98dd-7e17eb114804","ios":"levelo://app?vid=0b4eb874-2ae2-4559-98dd-7e17eb114804"},"vehicle_type_id":"4","last_reported":1745701705,"current_range_meters":12000,"station_id":"ce4bgj12rcd13ifvqbc0","pricing_plan_id":"cebpf4jnsgd1na2vs0mg"},{"bike_id":"a65c04c4-dde7-4cf7-acfb-5fe2c1f889fd","system_id":"levelo_inurba_marseille","lat":43.26176,"lon":5.40472,"is_reserved":false,"is_disabled":false,"rental_uris":{"android":"levelo://app?vid=a65c04c4-dde7-4cf7-acfb-5fe2c1f889fd","ios":"levelo://app?vid=a65c04c4-dde7-4cf7-acfb-5fe2c1f889fd"},"vehicle_type_id":"4","last_reported":1745701705,"current_range_meters":12400,"station_id":"ce4bhmh2rcd13ifvqgmg","pricing_plan_id":"cebpf4jnsgd1na2vs0mg"},{"bike_id":"b21e7975-c027-4434-8d96-3fe128c9684b","system_id":"levelo_inurba_marseille","lat":43.25001,"lon":5.38941,"is_reserved":false,"is_disabled":false,"rental_uris":{"android":"levelo://app?vid=b21e7975-c027-4434-8d96-3fe128c9684b","ios":"levelo://app?vid=b21e7975-c027-4434-8d96-3fe128c9684b"},"vehicle_type_id":"4","last_reported":1745701705,"current_range_meters":12400,"station_id":"ce4bhgp2rcd13ifvqfd0","pricing_plan_id":"cebpf4jnsgd1na2vs0mg"},{"bike_id":"0a20c176-84ce-406c-b816-a20786a5492e","system_id":"levelo_inurba_marseille","lat":43.31714,"lon":5.37761,"is_reserved":false,"is_disabled":false,"rental_uris":{"android":"levelo://app?vid=0a20c176-84ce-406c-b816-a20786a5492e","ios":"levelo://app?vid=0a20c176-84ce-406c-b816-a20786a5492e"},"vehicle_type_id":"4","last_reported":1745701705,"current_range_meters":12400,"station_id":"ce4bgth2rcd13ifvqch0","pricing_plan_id":"cebpf4jnsgd1na2vs0mg"},{"bike_id":"5e6f617f-9775-48cd-a2eb-2b1af96f70ab","system_id":"levelo_inurba_marseille","lat":43.25507,"lon":5.37634,"is_reserved":false,"is_disabled":false,"rental_uris":{"android":"levelo://app?vid=5e6f617f-9775-48cd-a2eb-2b1af96f70ab","ios":"levelo://app?vid=5e6f617f-9775-48cd-a2eb-2b1af96f70ab"},"vehicle_type_id":"4","last_reported":1745701705,"current_range_meters":12400,"station_id":"ce4bhh12rcd13ifvqff0","pricing_plan_id":"cebpf4jnsgd1na2vs0mg"},{"bike_id":"96559aab-6a24-48ee-848b-93558c3bbcbc","system_id":"levelo_inurba_marseille","lat":43.29472,"lon":5.38757,"is_reserved":false,"is_disabled":false,"rental_uris":{"android":"levelo://app?vid=96559aab-6a24-48ee-848b-93558c3bbcbc","ios":"levelo://app?vid=96559aab-6a24-48ee-848b-93558c3bbcbc"},"vehicle_type_id":"4","last_reported":1745701705,"current_range_meters":12400,"station_id":"ce4bh2h2rcd13ifvqdh0","pricing_plan_id":"cebpf4jnsgd1na2vs0mg"},{"bike_id":"87f19f60-99fa-407a-a2a7-61f9de9645e6","system_id":"levelo_inurba_marseille","lat":43.27616,"lon":5.36108,"is_reserved":false,"is_disabled":false,"rental_uris":{"android":"levelo://app?vid=87f19f60-99fa-407a-a2a7-61f9de9645e6","ios":"levelo://app?vid=87f19f60-99fa-407a-a2a7-61f9de9645e6"},"vehicle_type_id":"4","last_reported":1745701705,"current_range_meters":12400,"station_id":"ce4bgj92rcd13ifvqbe0","pricing_plan_id":"cebpf4jnsgd1na2vs0mg"},{"bike_id":"4f707baa-208e-4931-8825-76ef1a4a082c","system_id":"levelo_inurba_marseille","lat":43.29926,"lon":5.37479,"is_reserved":false,"is_disabled":false,"rental_uris":{"android":"levelo://app?vid=4f707baa-208e-4931-8825-76ef1a4a082c","ios":"levelo://app?vid=4f707baa-208e-4931-8825-76ef1a4a082c"},"vehicle_type_id":"4","last_reported":1745701705,"current_range_meters":12400,"station_id":"ce4bgjh2rcd13ifvqbg0","pricing_plan_id":"cebpf4jnsgd1na2vs0mg"},{"bike_id":"6e4fd1c1-94b0-421e-a8a3-a7c1f06a94e6","system_id":"levelo_inurba_marseille","lat":43.29938,"lon":5.38142,"is_reserved":false,"is_disabled":false,"rental_uris":{"android":"levelo://app?vid=6e4fd1c1-94b0-421e-a8a3-a7c1f06a94e6","ios":"levelo://app?vid=6e4fd1c1-94b0-421e-a8a3-a7c1f06a94e6"},"vehicle_type_id":"4","last_reported":1745701705,"current_range_meters":12800,"station_id":"ce4bgj12rcd13ifvqbc0","pricing_plan_id":"cebpf4jnsgd1na2vs0mg"},{"bike_id":"3ee52dd6-ee76-4da1-bbf0-da3ef76cb155","system_id":"levelo_inurba_marseille","lat":43.34636,"lon":5.34767,"is_reserved":false,"is_disabled":false,"rental_uris":{"android":"levelo://app?vid=3ee52dd6-ee76-4da1-bbf0-da3ef76cb155","ios":"levelo://app?vid=3ee52dd6-ee76-4da1-bbf0-da3ef76cb155"},"vehicle_type_id":"4","last_reported":1745701705,"current_range_meters":12800,"station_id":"","pricing_plan_id":"cebpf4jnsgd1na2vs0mg"},{"bike_id":"9eba1ded-fb46-439c-a253-2b2c842053d2","system_id":"levelo_inurba_marseille","lat":43.31067,"lon":5.38353,"is_reserved":false,"is_disabled":false,"rental_uris":{"android":"levelo://app?vid=9eba1ded-fb46-439c-a253-2b2c842053d2","ios":"levelo://app?vid=9eba1ded-fb46-439c-a253-2b2c842053d2"},"vehicle_type_id":"4","last_reported":1745701705,"current_range_meters":12800,"station_id":"ce4bgv92rcd13ifvqcr0","pricing_plan_id":"cebpf4jnsgd1na2vs0mg"},{"bike_id":"6f9efa22-6701-48b6-9dac-71701c013e89","system_id":"levelo_inurba_marseille","lat":43.27994,"lon":5.4002,"is_reserved":false,"is_disabled":false,"rental_uris":{"android":"levelo://app?vid=6f9efa22-6701-48b6-9dac-71701c013e89","ios":"levelo://app?vid=6f9efa22-6701-48b6-9dac-71701c013e89"},"vehicle_type_id":"4","last_reported":1745701705,"current_range_meters":12800,"station_id":"ce4bho92rcd13ifvqh4g","pricing_plan_id":"cebpf4jnsgd1na2vs0mg"},{"bike_id":"4357dcb6-6805-45f7-80ab-854faf16a478","system_id":"levelo_inurba_marseille","lat":43.30944,"lon":5.39038,"is_reserved":false,"is_disabled":false,"rental_uris":{"android":"levelo://app?vid=4357dcb6-6805-45f7-80ab-854faf16a478","ios":"levelo://app?vid=4357dcb6-6805-45f7-80ab-854faf16a478"},"vehicle_type_id":"4","last_reported":1745701705,"current_range_meters":12800,"station_id":"ce4bgup2rcd13ifvqco0","pricing_plan_id":"cebpf4jnsgd1na2vs0mg"},{"bike_id":"a5752412-2b3a-495a-b554-2a3e08204a69","system_id":"levelo_inurba_marseille","lat":43.32284,"lon":5.38276,"is_reserved":false,"is_disabled":false,"rental_uris":{"android":"levelo://app?vid=a5752412-2b3a-495a-b554-2a3e08204a69","ios":"levelo://app?vid=a5752412-2b3a-495a-b554-2a3e08204a69"},"vehicle_type_id":"4","last_reported":1745701705,"current_range_meters":13600,"station_id":"ce4bhr12rcd13ifvqhqg","pricing_plan_id":"cebpf4jnsgd1na2vs0mg"},{"bike_id":"dd3031e0-5272-497e-a41c-be7750e07327","system_id":"levelo_inurba_marseille","lat":43.30046,"lon":5.40226,"is_reserved":false,"is_disabled":false,"rental_uris":{"android":"levelo://app?vid=dd3031e0-5272-497e-a41c-be7750e07327","ios":"levelo://app?vid=dd3031e0-5272-497e-a41c-be7750e07327"},"vehicle_type_id":"4","last_reported":1745701705,"current_range_meters":13600,"station_id":"","pricing_plan_id":"cebpf4jnsgd1na2vs0mg"},{"bike_id":"612fb24e-a7cd-4027-9bc2-aecdde93c8c1","system_id":"levelo_inurba_marseille","lat":43.307957,"lon":5.376629,"is_reserved":false,"is_disabled":false,"rental_uris":{"android":"levelo://app?vid=612fb24e-a7cd-4027-9bc2-aecdde93c8c1","ios":"levelo://app?vid=612fb24e-a7cd-4027-9bc2-aecdde93c8c1"},"vehicle_type_id":"4","last_reported":1745701705,"current_range_meters":13600,"station_id":"ce4bgv92rcd13ifvqcq0","pricing_plan_id":"cebpf4jnsgd1na2vs0mg"},{"bike_id":"e0c71cba-c6a3-4efe-8b3a-5afbc1b4d441","system_id":"levelo_inurba_marseille","lat":43.29268,"lon":5.38442,"is_reserved":false,"is_disabled":false,"rental_uris":{"android":"levelo://app?vid=e0c71cba-c6a3-4efe-8b3a-5afbc1b4d441","ios":"levelo://app?vid=e0c71cba-c6a3-4efe-8b3a-5afbc1b4d441"},"vehicle_type_id":"4","last_reported":1745701705,"current_range_meters":14000,"station_id":"ce4bh692rcd13ifvqea0","pricing_plan_id":"cebpf4jnsgd1na2vs0mg"},{"bike_id":"5fad59bc-3524-4461-8c1b-7bea7233f08a","system_id":"levelo_inurba_marseille","lat":43.3014,"lon":5.38105,"is_reserved":false,"is_disabled":false,"rental_uris":{"android":"levelo://app?vid=5fad59bc-3524-4461-8c1b-7bea7233f08a","ios":"levelo://app?vid=5fad59bc-3524-4461-8c1b-7bea7233f08a"},"vehicle_type_id":"4","last_reported":1745701705,"current_range_meters":13600,"station_id":"ce4bgjp2rcd13ifvqbh0","pricing_plan_id":"cebpf4jnsgd1na2vs0mg"},{"bike_id":"fdcaf338-d3e1-44ab-b996-4fd6eba29359","system_id":"levelo_inurba_marseille","lat":43.3097,"lon":5.39019,"is_reserved":false,"is_disabled":false,"rental_uris":{"android":"levelo://app?vid=fdcaf338-d3e1-44ab-b996-4fd6eba29359","ios":"levelo://app?vid=fdcaf338-d3e1-44ab-b996-4fd6eba29359"},"vehicle_type_id":"4","last_reported":1745701705,"current_range_meters":13600,"station_id":"ce4bgup2rcd13ifvqco0","pricing_plan_id":"cebpf4jnsgd1na2vs0mg"},{"bike_id":"a84e86a1-79d0-4431-9d4d-85a0ef8dcef7","system_id":"levelo_inurba_marseille","lat":43.29256,"lon":5.40907,"is_reserved":false,"is_disabled":false,"rental_uris":{"android":"levelo://app?vid=a84e86a1-79d0-4431-9d4d-85a0ef8dcef7","ios":"levelo://app?vid=a84e86a1-79d0-4431-9d4d-85a0ef8dcef7"},"vehicle_type_id":"4","last_reported":1745701705,"current_range_meters":14000,"station_id":"ce4bh192rcd13ifvqdc0","pricing_plan_id":"cebpf4jnsgd1na2vs0mg"},{"bike_id":"cc451a9b-2103-4f70-9e38-222a3f72b606","system_id":"levelo_inurba_marseille","lat":43.30969,"lon":5.39045,"is_reserved":false,"is_disabled":false,"rental_uris":{"android":"levelo://app?vid=cc451a9b-2103-4f70-9e38-222a3f72b606","ios":"levelo://app?vid=cc451a9b-2103-4f70-9e38-222a3f72b606"},"vehicle_type_id":"4","last_reported":1745701705,"current_range_meters":14000,"station_id":"ce4bgup2rcd13ifvqco0","pricing_plan_id":"cebpf4jnsgd1na2vs0mg"},{"bike_id":"4dbe6a23-f5d6-4e56-a01e-ebc7f6aac841","system_id":"levelo_inurba_marseille","lat":43.2929,"lon":5.37462,"is_reserved":false,"is_disabled":false,"rental_uris":{"android":"levelo://app?vid=4dbe6a23-f5d6-4e56-a01e-ebc7f6aac841","ios":"levelo://app?vid=4dbe6a23-f5d6-4e56-a01e-ebc7f6aac841"},"vehicle_type_id":"4","last_reported":1745701705,"current_range_meters":14000,"station_id":"ce4bgi12rcd13ifvqb70","pricing_plan_id":"cebpf4jnsgd1na2vs0mg"},{"bike_id":"8ceb83a1-dfe6-49f1-89c8-ea92a6799553","system_id":"levelo_inurba_marseille","lat":43.30944,"lon":5.39045,"is_reserved":false,"is_disabled":false,"rental_uris":{"android":"levelo://app?vid=8ceb83a1-dfe6-49f1-89c8-ea92a6799553","ios":"levelo://app?vid=8ceb83a1-dfe6-49f1-89c8-ea92a6799553"},"vehicle_type_id":"4","last_reported":1745701705,"current_range_meters":14400,"station_id":"ce4bgup2rcd13ifvqco0","pricing_plan_id":"cebpf4jnsgd1na2vs0mg"},{"bike_id":"ed705789-0f0d-49d6-b81c-9868871746ab","system_id":"levelo_inurba_marseille","lat":43.21745,"lon":5.34608,"is_reserved":false,"is_disabled":true,"rental_uris":{"android":"levelo://app?vid=ed705789-0f0d-49d6-b81c-9868871746ab","ios":"levelo://app?vid=ed705789-0f0d-49d6-b81c-9868871746ab"},"vehicle_type_id":"4","last_reported":1745701705,"current_range_meters":14400,"station_id":"ce4bhbp2rcd13ifvqesg","pricing_plan_id":"cebpf4jnsgd1na2vs0mg"},{"bike_id":"79ac62eb-6af6-45eb-9943-7bc51441727e","system_id":"levelo_inurba_marseille","lat":43.29041,"lon":5.39969,"is_reserved":false,"is_disabled":false,"rental_uris":{"android":"levelo://app?vid=79ac62eb-6af6-45eb-9943-7bc51441727e","ios":"levelo://app?vid=79ac62eb-6af6-45eb-9943-7bc51441727e"},"vehicle_type_id":"4","last_reported":1745701705,"current_range_meters":14400,"station_id":"ce4bh392rcd13ifvqdm0","pricing_plan_id":"cebpf4jnsgd1na2vs0mg"},{"bike_id":"8840b7d1-badd-45b4-91db-50feaeb6b7ed","system_id":"levelo_inurba_marseille","lat":43.31027,"lon":5.36715,"is_reserved":false,"is_disabled":false,"rental_uris":{"android":"levelo://app?vid=8840b7d1-badd-45b4-91db-50feaeb6b7ed","ios":"levelo://app?vid=8840b7d1-badd-45b4-91db-50feaeb6b7ed"},"vehicle_type_id":"4","last_reported":1745701705,"current_range_meters":14400,"station_id":"","pricing_plan_id":"cebpf4jnsgd1na2vs0mg"},{"bike_id":"3cb16e15-687d-4193-ada7-b8109702591e","system_id":"levelo_inurba_marseille","lat":43.30429,"lon":5.38891,"is_reserved":false,"is_disabled":false,"rental_uris":{"android":"levelo://app?vid=3cb16e15-687d-4193-ada7-b8109702591e","ios":"levelo://app?vid=3cb16e15-687d-4193-ada7-b8109702591e"},"vehicle_type_id":"4","last_reported":1745701705,"current_range_meters":14800,"station_id":"","pricing_plan_id":"cebpf4jnsgd1na2vs0mg"},{"bike_id":"2c22000a-edc4-4500-9a8b-a3d4e7c39654","system_id":"levelo_inurba_marseille","lat":43.34141,"lon":5.40904,"is_reserved":false,"is_disabled":false,"rental_uris":{"android":"levelo://app?vid=2c22000a-edc4-4500-9a8b-a3d4e7c39654","ios":"levelo://app?vid=2c22000a-edc4-4500-9a8b-a3d4e7c39654"},"vehicle_type_id":"4","last_reported":1745701705,"current_range_meters":14800,"station_id":"ce4bhqh2rcd13ifvqhlg","pricing_plan_id":"cebpf4jnsgd1na2vs0mg"},{"bike_id":"f0aa239a-c897-40b3-aa23-b24f3e889635","system_id":"levelo_inurba_marseille","lat":43.3136,"lon":5.38485,"is_reserved":false,"is_disabled":false,"rental_uris":{"android":"levelo://app?vid=f0aa239a-c897-40b3-aa23-b24f3e889635","ios":"levelo://app?vid=f0aa239a-c897-40b3-aa23-b24f3e889635"},"vehicle_type_id":"4","last_reported":1745701705,"current_range_meters":14800,"station_id":"ce4bgt92rcd13ifvqcf0","pricing_plan_id":"cebpf4jnsgd1na2vs0mg"},{"bike_id":"0053b840-de47-4900-98aa-cc8575176b05","system_id":"levelo_inurba_marseille","lat":43.24162,"lon":5.36418,"is_reserved":false,"is_disabled":true,"rental_uris":{"android":"levelo://app?vid=0053b840-de47-4900-98aa-cc8575176b05","ios":"levelo://app?vid=0053b840-de47-4900-98aa-cc8575176b05"},"vehicle_type_id":"4","last_reported":1745701705,"current_range_meters":14800,"station_id":"cpo36qri1sfpv3e86is0","pricing_plan_id":"cebpf4jnsgd1na2vs0mg"},{"bike_id":"356b76a1-af1a-4bef-951e-98e5b057a721","system_id":"levelo_inurba_marseille","lat":43.29244,"lon":5.3844,"is_reserved":false,"is_disabled":true,"rental_uris":{"android":"levelo://app?vid=356b76a1-af1a-4bef-951e-98e5b057a721","ios":"levelo://app?vid=356b76a1-af1a-4bef-951e-98e5b057a721"},"vehicle_type_id":"4","last_reported":1745701705,"current_range_meters":14800,"station_id":"ce4bh692rcd13ifvqea0","pricing_plan_id":"cebpf4jnsgd1na2vs0mg"},{"bike_id":"0ab6801c-0243-4fc0-bbf6-8366cb37d105","system_id":"levelo_inurba_marseille","lat":43.30951,"lon":5.39053,"is_reserved":false,"is_disabled":false,"rental_uris":{"android":"levelo://app?vid=0ab6801c-0243-4fc0-bbf6-8366cb37d105","ios":"levelo://app?vid=0ab6801c-0243-4fc0-bbf6-8366cb37d105"},"vehicle_type_id":"4","last_reported":1745701705,"current_range_meters":14800,"station_id":"ce4bgup2rcd13ifvqco0","pricing_plan_id":"cebpf4jnsgd1na2vs0mg"},{"bike_id":"41f345a9-75d9-4676-b56c-6e8ef96547ca","system_id":"levelo_inurba_marseille","lat":43.24061,"lon":5.37755,"is_reserved":false,"is_disabled":false,"rental_uris":{"android":"levelo://app?vid=41f345a9-75d9-4676-b56c-6e8ef96547ca","ios":"levelo://app?vid=41f345a9-75d9-4676-b56c-6e8ef96547ca"},"vehicle_type_id":"4","last_reported":1745701705,"current_range_meters":15200,"station_id":"ce4bhnp2rcd13ifvqgvg","pricing_plan_id":"cebpf4jnsgd1na2vs0mg"},{"bike_id":"8fad2f4f-7c37-4f73-9a24-51fc4dc3becf","system_id":"levelo_inurba_marseille","lat":43.27903,"lon":5.380097,"is_reserved":false,"is_disabled":false,"rental_uris":{"android":"levelo://app?vid=8fad2f4f-7c37-4f73-9a24-51fc4dc3becf","ios":"levelo://app?vid=8fad2f4f-7c37-4f73-9a24-51fc4dc3becf"},"vehicle_type_id":"4","last_reported":1745701705,"current_range_meters":14400,"station_id":"ce4bhf92rcd13ifvqf50","pricing_plan_id":"cebpf4jnsgd1na2vs0mg"},{"bike_id":"ae1d96a0-b0a2-41e1-be14-e78907f9338a","system_id":"levelo_inurba_marseille","lat":43.29505,"lon":5.39393,"is_reserved":false,"is_disabled":true,"rental_uris":{"android":"levelo://app?vid=ae1d96a0-b0a2-41e1-be14-e78907f9338a","ios":"levelo://app?vid=ae1d96a0-b0a2-41e1-be14-e78907f9338a"},"vehicle_type_id":"4","last_reported":1745701705,"current_range_meters":15200,"station_id":"ce4bh292rcd13ifvqdf0","pricing_plan_id":"cebpf4jnsgd1na2vs0mg"},{"bike_id":"af4a97e0-dded-4da0-9eba-7bcd01c44383","system_id":"levelo_inurba_marseille","lat":43.30309,"lon":5.39208,"is_reserved":false,"is_disabled":true,"rental_uris":{"android":"levelo://app?vid=af4a97e0-dded-4da0-9eba-7bcd01c44383","ios":"levelo://app?vid=af4a97e0-dded-4da0-9eba-7bcd01c44383"},"vehicle_type_id":"4","last_reported":1745701705,"current_range_meters":15200,"station_id":"ce4bgkh2rcd13ifvqbk0","pricing_plan_id":"cebpf4jnsgd1na2vs0mg"},{"bike_id":"aa574283-8f9b-4a56-ab65-d5849111299b","system_id":"levelo_inurba_marseille","lat":43.30948,"lon":5.39033,"is_reserved":false,"is_disabled":false,"rental_uris":{"android":"levelo://app?vid=aa574283-8f9b-4a56-ab65-d5849111299b","ios":"levelo://app?vid=aa574283-8f9b-4a56-ab65-d5849111299b"},"vehicle_type_id":"4","last_reported":1745701705,"current_range_meters":15200,"station_id":"ce4bgup2rcd13ifvqco0","pricing_plan_id":"cebpf4jnsgd1na2vs0mg"},{"bike_id":"7994dd97-4450-48aa-b05c-e8aee6486e5a","system_id":"levelo_inurba_marseille","lat":43.30803,"lon":5.38152,"is_reserved":false,"is_disabled":false,"rental_uris":{"android":"levelo://app?vid=7994dd97-4450-48aa-b05c-e8aee6486e5a","ios":"levelo://app?vid=7994dd97-4450-48aa-b05c-e8aee6486e5a"},"vehicle_type_id":"4","last_reported":1745701705,"current_range_meters":14800,"station_id":"ce4bgt12rcd13ifvqce0","pricing_plan_id":"cebpf4jnsgd1na2vs0mg"},{"bike_id":"91474842-32bf-45c2-856a-80fd91d22aa5","system_id":"levelo_inurba_marseille","lat":43.2119,"lon":5.35075,"is_reserved":false,"is_disabled":false,"rental_uris":{"android":"levelo://app?vid=91474842-32bf-45c2-856a-80fd91d22aa5","ios":"levelo://app?vid=91474842-32bf-45c2-856a-80fd91d22aa5"},"vehicle_type_id":"4","last_reported":1745701705,"current_range_meters":15200,"station_id":"st_cvj6sg6p6f1abm77japg","pricing_plan_id":"cebpf4jnsgd1na2vs0mg"},{"bike_id":"30288cb7-e849-4b02-8ab1-96deccfd974f","system_id":"levelo_inurba_marseille","lat":43.23956,"lon":5.36643,"is_reserved":false,"is_disabled":false,"rental_uris":{"android":"levelo://app?vid=30288cb7-e849-4b02-8ab1-96deccfd974f","ios":"levelo://app?vid=30288cb7-e849-4b02-8ab1-96deccfd974f"},"vehicle_type_id":"4","last_reported":1745701705,"current_range_meters":16000,"station_id":"ce4bhi12rcd13ifvqfp0","pricing_plan_id":"cebpf4jnsgd1na2vs0mg"},{"bike_id":"47859ae8-4157-419a-a068-4625ada059ba","system_id":"levelo_inurba_marseille","lat":43.26213,"lon":5.40459,"is_reserved":false,"is_disabled":false,"rental_uris":{"android":"levelo://app?vid=47859ae8-4157-419a-a068-4625ada059ba","ios":"levelo://app?vid=47859ae8-4157-419a-a068-4625ada059ba"},"vehicle_type_id":"4","last_reported":1745701705,"current_range_meters":16000,"station_id":"ce4bhmh2rcd13ifvqgmg","pricing_plan_id":"cebpf4jnsgd1na2vs0mg"},{"bike_id":"9111363c-e358-4cc0-9632-937d6be3578a","system_id":"levelo_inurba_marseille","lat":43.27995,"lon":5.40029,"is_reserved":false,"is_disabled":false,"rental_uris":{"android":"levelo://app?vid=9111363c-e358-4cc0-9632-937d6be3578a","ios":"levelo://app?vid=9111363c-e358-4cc0-9632-937d6be3578a"},"vehicle_type_id":"4","last_reported":1745701705,"current_range_meters":16400,"station_id":"ce4bho92rcd13ifvqh4g","pricing_plan_id":"cebpf4jnsgd1na2vs0mg"},{"bike_id":"353a1a57-38e9-4a82-a58f-19e5b95764ba","system_id":"levelo_inurba_marseille","lat":43.26196,"lon":5.37458,"is_reserved":false,"is_disabled":false,"rental_uris":{"android":"levelo://app?vid=353a1a57-38e9-4a82-a58f-19e5b95764ba","ios":"levelo://app?vid=353a1a57-38e9-4a82-a58f-19e5b95764ba"},"vehicle_type_id":"4","last_reported":1745701705,"current_range_meters":16000,"station_id":"ce4bhgp2rcd13ifvqfc0","pricing_plan_id":"cebpf4jnsgd1na2vs0mg"},{"bike_id":"6ead2528-29e5-4654-9c60-49316558b174","system_id":"levelo_inurba_marseille","lat":43.29416,"lon":5.38622,"is_reserved":false,"is_disabled":false,"rental_uris":{"android":"levelo://app?vid=6ead2528-29e5-4654-9c60-49316558b174","ios":"levelo://app?vid=6ead2528-29e5-4654-9c60-49316558b174"},"vehicle_type_id":"4","last_reported":1745701705,"current_range_meters":16000,"station_id":"ce4bh2h2rcd13ifvqdh0","pricing_plan_id":"cebpf4jnsgd1na2vs0mg"},{"bike_id":"a08e6535-7d97-4f82-b424-5e6daf2d2362","system_id":"levelo_inurba_marseille","lat":43.29503,"lon":5.39404,"is_reserved":false,"is_disabled":true,"rental_uris":{"android":"levelo://app?vid=a08e6535-7d97-4f82-b424-5e6daf2d2362","ios":"levelo://app?vid=a08e6535-7d97-4f82-b424-5e6daf2d2362"},"vehicle_type_id":"4","last_reported":1745701705,"current_range_meters":16400,"station_id":"ce4bh292rcd13ifvqdf0","pricing_plan_id":"cebpf4jnsgd1na2vs0mg"},{"bike_id":"bf3def60-4127-492d-9708-bd48c9abce97","system_id":"levelo_inurba_marseille","lat":43.2845,"lon":5.35891,"is_reserved":false,"is_disabled":false,"rental_uris":{"android":"levelo://app?vid=bf3def60-4127-492d-9708-bd48c9abce97","ios":"levelo://app?vid=bf3def60-4127-492d-9708-bd48c9abce97"},"vehicle_type_id":"4","last_reported":1745701705,"current_range_meters":16400,"station_id":"ce4bhah2rcd13ifvqei0","pricing_plan_id":"cebpf4jnsgd1na2vs0mg"},{"bike_id":"49e0d52b-4e80-46ce-bdc2-e9d6da2fa326","system_id":"levelo_inurba_marseille","lat":43.22501,"lon":5.34773,"is_reserved":false,"is_disabled":false,"rental_uris":{"android":"levelo://app?vid=49e0d52b-4e80-46ce-bdc2-e9d6da2fa326","ios":"levelo://app?vid=49e0d52b-4e80-46ce-bdc2-e9d6da2fa326"},"vehicle_type_id":"4","last_reported":1745701705,"current_range_meters":16400,"station_id":"st_cvj5dfep6f1abm77gieg","pricing_plan_id":"cebpf4jnsgd1na2vs0mg"},{"bike_id":"560f12bb-1614-4d7c-b78e-ccf5bdec9ea6","system_id":"levelo_inurba_marseille","lat":43.284623,"lon":5.359006,"is_reserved":false,"is_disabled":true,"rental_uris":{"android":"levelo://app?vid=560f12bb-1614-4d7c-b78e-ccf5bdec9ea6","ios":"levelo://app?vid=560f12bb-1614-4d7c-b78e-ccf5bdec9ea6"},"vehicle_type_id":"4","last_reported":1745701705,"current_range_meters":16400,"station_id":"ce4bhah2rcd13ifvqei0","pricing_plan_id":"cebpf4jnsgd1na2vs0mg"},{"bike_id":"ba855121-da96-430f-97ba-6b78ccb57ca3","system_id":"levelo_inurba_marseille","lat":43.29256,"lon":5.38435,"is_reserved":false,"is_disabled":false,"rental_uris":{"android":"levelo://app?vid=ba855121-da96-430f-97ba-6b78ccb57ca3","ios":"levelo://app?vid=ba855121-da96-430f-97ba-6b78ccb57ca3"},"vehicle_type_id":"4","last_reported":1745701705,"current_range_meters":16400,"station_id":"ce4bh692rcd13ifvqea0","pricing_plan_id":"cebpf4jnsgd1na2vs0mg"},{"bike_id":"b6daf84f-0577-4191-89b8-751b314c6c47","system_id":"levelo_inurba_marseille","lat":43.30929,"lon":5.40143,"is_reserved":false,"is_disabled":false,"rental_uris":{"android":"levelo://app?vid=b6daf84f-0577-4191-89b8-751b314c6c47","ios":"levelo://app?vid=b6daf84f-0577-4191-89b8-751b314c6c47"},"vehicle_type_id":"4","last_reported":1745701705,"current_range_meters":16800,"station_id":"ce4bgvp2rcd13ifvqct0","pricing_plan_id":"cebpf4jnsgd1na2vs0mg"},{"bike_id":"7d64638f-c1da-4c84-92b7-7533ccba9600","system_id":"levelo_inurba_marseille","lat":43.25502,"lon":5.37637,"is_reserved":false,"is_disabled":false,"rental_uris":{"android":"levelo://app?vid=7d64638f-c1da-4c84-92b7-7533ccba9600","ios":"levelo://app?vid=7d64638f-c1da-4c84-92b7-7533ccba9600"},"vehicle_type_id":"4","last_reported":1745701705,"current_range_meters":16800,"station_id":"ce4bhh12rcd13ifvqff0","pricing_plan_id":"cebpf4jnsgd1na2vs0mg"},{"bike_id":"8fb6b3a3-6275-46a3-bfdf-8928675665e1","system_id":"levelo_inurba_marseille","lat":43.23176,"lon":5.39985,"is_reserved":false,"is_disabled":false,"rental_uris":{"android":"levelo://app?vid=8fb6b3a3-6275-46a3-bfdf-8928675665e1","ios":"levelo://app?vid=8fb6b3a3-6275-46a3-bfdf-8928675665e1"},"vehicle_type_id":"4","last_reported":1745701705,"current_range_meters":16400,"station_id":"ce4bhn12rcd13ifvqgqg","pricing_plan_id":"cebpf4jnsgd1na2vs0mg"},{"bike_id":"23931e92-aae4-49d3-a6ec-7e28158d6b03","system_id":"levelo_inurba_marseille","lat":43.29166,"lon":5.37162,"is_reserved":false,"is_disabled":false,"rental_uris":{"android":"levelo://app?vid=23931e92-aae4-49d3-a6ec-7e28158d6b03","ios":"levelo://app?vid=23931e92-aae4-49d3-a6ec-7e28158d6b03"},"vehicle_type_id":"4","last_reported":1745701705,"current_range_meters":16800,"station_id":"ce4bha92rcd13ifvqeh0","pricing_plan_id":"cebpf4jnsgd1na2vs0mg"},{"bike_id":"b203fb0c-823d-423d-a01f-c3490028b2a5","system_id":"levelo_inurba_marseille","lat":43.30451,"lon":5.38882,"is_reserved":false,"is_disabled":false,"rental_uris":{"android":"levelo://app?vid=b203fb0c-823d-423d-a01f-c3490028b2a5","ios":"levelo://app?vid=b203fb0c-823d-423d-a01f-c3490028b2a5"},"vehicle_type_id":"4","last_reported":1745701705,"current_range_meters":16400,"station_id":"ce4bgk12rcd13ifvqbi0","pricing_plan_id":"cebpf4jnsgd1na2vs0mg"},{"bike_id":"e289e8fb-7f4f-4a24-91cd-241de9351d47","system_id":"levelo_inurba_marseille","lat":43.30941,"lon":5.39074,"is_reserved":false,"is_disabled":false,"rental_uris":{"android":"levelo://app?vid=e289e8fb-7f4f-4a24-91cd-241de9351d47","ios":"levelo://app?vid=e289e8fb-7f4f-4a24-91cd-241de9351d47"},"vehicle_type_id":"4","last_reported":1745701705,"current_range_meters":16800,"station_id":"ce4bgup2rcd13ifvqco0","pricing_plan_id":"cebpf4jnsgd1na2vs0mg"},{"bike_id":"a336e8be-f74c-44ac-a943-4784433d7798","system_id":"levelo_inurba_marseille","lat":43.30142,"lon":5.38061,"is_reserved":false,"is_disabled":false,"rental_uris":{"android":"levelo://app?vid=a336e8be-f74c-44ac-a943-4784433d7798","ios":"levelo://app?vid=a336e8be-f74c-44ac-a943-4784433d7798"},"vehicle_type_id":"4","last_reported":1745701705,"current_range_meters":17200,"station_id":"ce4bgjp2rcd13ifvqbh0","pricing_plan_id":"cebpf4jnsgd1na2vs0mg"},{"bike_id":"47a0db4d-b8a0-40f6-9d41-04d50875ecf3","system_id":"levelo_inurba_marseille","lat":43.26559,"lon":5.37279,"is_reserved":false,"is_disabled":false,"rental_uris":{"android":"levelo://app?vid=47a0db4d-b8a0-40f6-9d41-04d50875ecf3","ios":"levelo://app?vid=47a0db4d-b8a0-40f6-9d41-04d50875ecf3"},"vehicle_type_id":"4","last_reported":1745701705,"current_range_meters":17200,"station_id":"ce4bhg12rcd13ifvqf70","pricing_plan_id":"cebpf4jnsgd1na2vs0mg"},{"bike_id":"e9b415b4-4e2c-401e-a8b5-45edc633db29","system_id":"levelo_inurba_marseille","lat":43.28664,"lon":5.38682,"is_reserved":false,"is_disabled":false,"rental_uris":{"android":"levelo://app?vid=e9b415b4-4e2c-401e-a8b5-45edc633db29","ios":"levelo://app?vid=e9b415b4-4e2c-401e-a8b5-45edc633db29"},"vehicle_type_id":"4","last_reported":1745701705,"current_range_meters":17200,"station_id":"ce4bh492rcd13ifvqdug","pricing_plan_id":"cebpf4jnsgd1na2vs0mg"},{"bike_id":"727df1f9-1cdb-472b-9518-0dd0026ce6ce","system_id":"levelo_inurba_marseille","lat":43.26491,"lon":5.39551,"is_reserved":false,"is_disabled":false,"rental_uris":{"android":"levelo://app?vid=727df1f9-1cdb-472b-9518-0dd0026ce6ce","ios":"levelo://app?vid=727df1f9-1cdb-472b-9518-0dd0026ce6ce"},"vehicle_type_id":"4","last_reported":1745701705,"current_range_meters":17200,"station_id":"ce4bhi12rcd13ifvqfq0","pricing_plan_id":"cebpf4jnsgd1na2vs0mg"},{"bike_id":"99651831-fca2-438d-ab66-435769775bdf","system_id":"levelo_inurba_marseille","lat":43.32075,"lon":5.41531,"is_reserved":false,"is_disabled":false,"rental_uris":{"android":"levelo://app?vid=99651831-fca2-438d-ab66-435769775bdf","ios":"levelo://app?vid=99651831-fca2-438d-ab66-435769775bdf"},"vehicle_type_id":"4","last_reported":1745701705,"current_range_meters":17200,"station_id":"ce4bhq92rcd13ifvqhkg","pricing_plan_id":"cebpf4jnsgd1na2vs0mg"},{"bike_id":"7dc89b1a-c9fd-4c2d-9709-58e45b8ad827","system_id":"levelo_inurba_marseille","lat":43.29958,"lon":5.38504,"is_reserved":false,"is_disabled":false,"rental_uris":{"android":"levelo://app?vid=7dc89b1a-c9fd-4c2d-9709-58e45b8ad827","ios":"levelo://app?vid=7dc89b1a-c9fd-4c2d-9709-58e45b8ad827"},"vehicle_type_id":"4","last_reported":1745701705,"current_range_meters":17600,"station_id":"ce4bgj92rcd13ifvqbd0","pricing_plan_id":"cebpf4jnsgd1na2vs0mg"},{"bike_id":"60dac35b-18d8-4a62-8d2b-b924ee365948","system_id":"levelo_inurba_marseille","lat":43.27801,"lon":5.40717,"is_reserved":false,"is_disabled":false,"rental_uris":{"android":"levelo://app?vid=60dac35b-18d8-4a62-8d2b-b924ee365948","ios":"levelo://app?vid=60dac35b-18d8-4a62-8d2b-b924ee365948"},"vehicle_type_id":"4","last_reported":1745701705,"current_range_meters":17600,"station_id":"ce4bhnh2rcd13ifvqgtg","pricing_plan_id":"cebpf4jnsgd1na2vs0mg"},{"bike_id":"cf0d47bd-81d3-4c57-82db-02956e138e59","system_id":"levelo_inurba_marseille","lat":43.32363,"lon":5.38902,"is_reserved":false,"is_disabled":false,"rental_uris":{"android":"levelo://app?vid=cf0d47bd-81d3-4c57-82db-02956e138e59","ios":"levelo://app?vid=cf0d47bd-81d3-4c57-82db-02956e138e59"},"vehicle_type_id":"4","last_reported":1745701705,"current_range_meters":17600,"station_id":"ce4bhqp2rcd13ifvqhog","pricing_plan_id":"cebpf4jnsgd1na2vs0mg"},{"bike_id":"57ebd52c-bbc8-4a4d-8d80-2da8f6250dbd","system_id":"levelo_inurba_marseille","lat":43.27823,"lon":5.40705,"is_reserved":false,"is_disabled":true,"rental_uris":{"android":"levelo://app?vid=57ebd52c-bbc8-4a4d-8d80-2da8f6250dbd","ios":"levelo://app?vid=57ebd52c-bbc8-4a4d-8d80-2da8f6250dbd"},"vehicle_type_id":"4","last_reported":1745701705,"current_range_meters":17600,"station_id":"ce4bhnh2rcd13ifvqgtg","pricing_plan_id":"cebpf4jnsgd1na2vs0mg"},{"bike_id":"1fe84233-d6e6-400c-ba7e-765c53207954","system_id":"levelo_inurba_marseille","lat":43.2607,"lon":5.39394,"is_reserved":false,"is_disabled":false,"rental_uris":{"android":"levelo://app?vid=1fe84233-d6e6-400c-ba7e-765c53207954","ios":"levelo://app?vid=1fe84233-d6e6-400c-ba7e-765c53207954"},"vehicle_type_id":"4","last_reported":1745701705,"current_range_meters":17600,"station_id":"ce4bhh92rcd13ifvqfj0","pricing_plan_id":"cebpf4jnsgd1na2vs0mg"},{"bike_id":"edb7787a-c68b-4c3c-a204-0dcc8d513b0d","system_id":"levelo_inurba_marseille","lat":43.24639,"lon":5.38161,"is_reserved":false,"is_disabled":false,"rental_uris":{"android":"levelo://app?vid=edb7787a-c68b-4c3c-a204-0dcc8d513b0d","ios":"levelo://app?vid=edb7787a-c68b-4c3c-a204-0dcc8d513b0d"},"vehicle_type_id":"4","last_reported":1745701705,"current_range_meters":18000,"station_id":"ce4bhih2rcd13ifvqfr0","pricing_plan_id":"cebpf4jnsgd1na2vs0mg"},{"bike_id":"b673c4dd-5bdb-48a9-9acf-4d4837707a29","system_id":"levelo_inurba_marseille","lat":43.31485,"lon":5.37296,"is_reserved":false,"is_disabled":false,"rental_uris":{"android":"levelo://app?vid=b673c4dd-5bdb-48a9-9acf-4d4837707a29","ios":"levelo://app?vid=b673c4dd-5bdb-48a9-9acf-4d4837707a29"},"vehicle_type_id":"4","last_reported":1745701705,"current_range_meters":18000,"station_id":"ce4bgt12rcd13ifvqcd0","pricing_plan_id":"cebpf4jnsgd1na2vs0mg"},{"bike_id":"0d777af5-4166-475a-a6b9-6a0197032592","system_id":"levelo_inurba_marseille","lat":43.23253,"lon":5.35217,"is_reserved":false,"is_disabled":false,"rental_uris":{"android":"levelo://app?vid=0d777af5-4166-475a-a6b9-6a0197032592","ios":"levelo://app?vid=0d777af5-4166-475a-a6b9-6a0197032592"},"vehicle_type_id":"4","last_reported":1745701705,"current_range_meters":18000,"station_id":"","pricing_plan_id":"cebpf4jnsgd1na2vs0mg"},{"bike_id":"a3cb0bcc-45ee-4fcb-b255-43e5e09b7dd7","system_id":"levelo_inurba_marseille","lat":43.27805,"lon":5.40701,"is_reserved":false,"is_disabled":false,"rental_uris":{"android":"levelo://app?vid=a3cb0bcc-45ee-4fcb-b255-43e5e09b7dd7","ios":"levelo://app?vid=a3cb0bcc-45ee-4fcb-b255-43e5e09b7dd7"},"vehicle_type_id":"4","last_reported":1745701705,"current_range_meters":18000,"station_id":"ce4bhnh2rcd13ifvqgtg","pricing_plan_id":"cebpf4jnsgd1na2vs0mg"},{"bike_id":"bebf0f63-e9f3-4e3a-8d1b-7f6293ca463b","system_id":"levelo_inurba_marseille","lat":43.2841,"lon":5.37514,"is_reserved":false,"is_disabled":false,"rental_uris":{"android":"levelo://app?vid=bebf0f63-e9f3-4e3a-8d1b-7f6293ca463b","ios":"levelo://app?vid=bebf0f63-e9f3-4e3a-8d1b-7f6293ca463b"},"vehicle_type_id":"4","last_reported":1745701705,"current_range_meters":18000,"station_id":"ce4bh412rcd13ifvqds0","pricing_plan_id":"cebpf4jnsgd1na2vs0mg"},{"bike_id":"d77284f1-7367-48f3-a859-73844ce949f7","system_id":"levelo_inurba_marseille","lat":43.30948,"lon":5.39036,"is_reserved":false,"is_disabled":false,"rental_uris":{"android":"levelo://app?vid=d77284f1-7367-48f3-a859-73844ce949f7","ios":"levelo://app?vid=d77284f1-7367-48f3-a859-73844ce949f7"},"vehicle_type_id":"4","last_reported":1745701705,"current_range_meters":18000,"station_id":"ce4bgup2rcd13ifvqco0","pricing_plan_id":"cebpf4jnsgd1na2vs0mg"},{"bike_id":"a6ef5e73-9c2a-4c3a-b853-48e28d6dc161","system_id":"levelo_inurba_marseille","lat":43.31719,"lon":5.43711,"is_reserved":false,"is_disabled":true,"rental_uris":{"android":"levelo://app?vid=a6ef5e73-9c2a-4c3a-b853-48e28d6dc161","ios":"levelo://app?vid=a6ef5e73-9c2a-4c3a-b853-48e28d6dc161"},"vehicle_type_id":"4","last_reported":1745701705,"current_range_meters":18000,"station_id":"ce4bhp92rcd13ifvqhcg","pricing_plan_id":"cebpf4jnsgd1na2vs0mg"},{"bike_id":"a64b2b49-efca-4a83-aa27-2d10a783df3a","system_id":"levelo_inurba_marseille","lat":43.31359,"lon":5.38498,"is_reserved":false,"is_disabled":false,"rental_uris":{"android":"levelo://app?vid=a64b2b49-efca-4a83-aa27-2d10a783df3a","ios":"levelo://app?vid=a64b2b49-efca-4a83-aa27-2d10a783df3a"},"vehicle_type_id":"4","last_reported":1745701705,"current_range_meters":18000,"station_id":"ce4bgt92rcd13ifvqcf0","pricing_plan_id":"cebpf4jnsgd1na2vs0mg"},{"bike_id":"b330c3b4-8203-49c9-a4bf-5485d09a1d2d","system_id":"levelo_inurba_marseille","lat":43.30211,"lon":5.39458,"is_reserved":false,"is_disabled":true,"rental_uris":{"android":"levelo://app?vid=b330c3b4-8203-49c9-a4bf-5485d09a1d2d","ios":"levelo://app?vid=b330c3b4-8203-49c9-a4bf-5485d09a1d2d"},"vehicle_type_id":"4","last_reported":1745701705,"current_range_meters":18000,"station_id":"ce4bh0p2rcd13ifvqd70","pricing_plan_id":"cebpf4jnsgd1na2vs0mg"},{"bike_id":"34786b00-380f-4884-b04a-2523b5b3f066","system_id":"levelo_inurba_marseille","lat":43.29847,"lon":5.36286,"is_reserved":false,"is_disabled":false,"rental_uris":{"android":"levelo://app?vid=34786b00-380f-4884-b04a-2523b5b3f066","ios":"levelo://app?vid=34786b00-380f-4884-b04a-2523b5b3f066"},"vehicle_type_id":"4","last_reported":1745701705,"current_range_meters":18000,"station_id":"ce4bgpp2rcd13ifvqc3g","pricing_plan_id":"cebpf4jnsgd1na2vs0mg"},{"bike_id":"910a4d90-2483-4a72-a0c8-dc2f67356ded","system_id":"levelo_inurba_marseille","lat":43.25579,"lon":5.382224,"is_reserved":false,"is_disabled":false,"rental_uris":{"android":"levelo://app?vid=910a4d90-2483-4a72-a0c8-dc2f67356ded","ios":"levelo://app?vid=910a4d90-2483-4a72-a0c8-dc2f67356ded"},"vehicle_type_id":"4","last_reported":1745701705,"current_range_meters":19200,"station_id":"ce4bhih2rcd13ifvqfs0","pricing_plan_id":"cebpf4jnsgd1na2vs0mg"},{"bike_id":"99be1414-58ff-4752-826b-d0dcc4401711","system_id":"levelo_inurba_marseille","lat":43.24817,"lon":5.37455,"is_reserved":false,"is_disabled":true,"rental_uris":{"android":"levelo://app?vid=99be1414-58ff-4752-826b-d0dcc4401711","ios":"levelo://app?vid=99be1414-58ff-4752-826b-d0dcc4401711"},"vehicle_type_id":"4","last_reported":1745701705,"current_range_meters":18000,"station_id":"ce4bhgh2rcd13ifvqfb0","pricing_plan_id":"cebpf4jnsgd1na2vs0mg"},{"bike_id":"4046a82f-66e8-4b55-bd0a-356edea772d8","system_id":"levelo_inurba_marseille","lat":43.30554,"lon":5.38192,"is_reserved":false,"is_disabled":false,"rental_uris":{"android":"levelo://app?vid=4046a82f-66e8-4b55-bd0a-356edea772d8","ios":"levelo://app?vid=4046a82f-66e8-4b55-bd0a-356edea772d8"},"vehicle_type_id":"4","last_reported":1745701705,"current_range_meters":18800,"station_id":"","pricing_plan_id":"cebpf4jnsgd1na2vs0mg"},{"bike_id":"900afbe3-a32c-4b35-b52f-a1f3c40dd5ea","system_id":"levelo_inurba_marseille","lat":43.29551,"lon":5.38537,"is_reserved":false,"is_disabled":false,"rental_uris":{"android":"levelo://app?vid=900afbe3-a32c-4b35-b52f-a1f3c40dd5ea","ios":"levelo://app?vid=900afbe3-a32c-4b35-b52f-a1f3c40dd5ea"},"vehicle_type_id":"4","last_reported":1745701705,"current_range_meters":18800,"station_id":"ce4bgih2rcd13ifvqba0","pricing_plan_id":"cebpf4jnsgd1na2vs0mg"},{"bike_id":"b8b283a3-f0bb-4b6a-8588-f7b70d0c87cc","system_id":"levelo_inurba_marseille","lat":43.31483,"lon":5.37306,"is_reserved":false,"is_disabled":false,"rental_uris":{"android":"levelo://app?vid=b8b283a3-f0bb-4b6a-8588-f7b70d0c87cc","ios":"levelo://app?vid=b8b283a3-f0bb-4b6a-8588-f7b70d0c87cc"},"vehicle_type_id":"4","last_reported":1745701705,"current_range_meters":18800,"station_id":"ce4bgt12rcd13ifvqcd0","pricing_plan_id":"cebpf4jnsgd1na2vs0mg"},{"bike_id":"54658195-e624-4018-aa07-ef0577a1bf80","system_id":"levelo_inurba_marseille","lat":43.313562,"lon":5.384906,"is_reserved":false,"is_disabled":false,"rental_uris":{"android":"levelo://app?vid=54658195-e624-4018-aa07-ef0577a1bf80","ios":"levelo://app?vid=54658195-e624-4018-aa07-ef0577a1bf80"},"vehicle_type_id":"4","last_reported":1745701705,"current_range_meters":18800,"station_id":"ce4bgt92rcd13ifvqcf0","pricing_plan_id":"cebpf4jnsgd1na2vs0mg"},{"bike_id":"3816b344-e93c-4aff-b282-64d7bca51257","system_id":"levelo_inurba_marseille","lat":43.29418,"lon":5.38622,"is_reserved":false,"is_disabled":false,"rental_uris":{"android":"levelo://app?vid=3816b344-e93c-4aff-b282-64d7bca51257","ios":"levelo://app?vid=3816b344-e93c-4aff-b282-64d7bca51257"},"vehicle_type_id":"4","last_reported":1745701705,"current_range_meters":18800,"station_id":"ce4bh2h2rcd13ifvqdh0","pricing_plan_id":"cebpf4jnsgd1na2vs0mg"},{"bike_id":"3d934169-6946-46cc-87a4-ce5d03b77075","system_id":"levelo_inurba_marseille","lat":43.21749,"lon":5.34611,"is_reserved":false,"is_disabled":false,"rental_uris":{"android":"levelo://app?vid=3d934169-6946-46cc-87a4-ce5d03b77075","ios":"levelo://app?vid=3d934169-6946-46cc-87a4-ce5d03b77075"},"vehicle_type_id":"4","last_reported":1745701705,"current_range_meters":18800,"station_id":"","pricing_plan_id":"cebpf4jnsgd1na2vs0mg"},{"bike_id":"06c92633-bbdb-4d25-bee6-736832763dcd","system_id":"levelo_inurba_marseille","lat":43.29609,"lon":5.3772,"is_reserved":false,"is_disabled":false,"rental_uris":{"android":"levelo://app?vid=06c92633-bbdb-4d25-bee6-736832763dcd","ios":"levelo://app?vid=06c92633-bbdb-4d25-bee6-736832763dcd"},"vehicle_type_id":"4","last_reported":1745701705,"current_range_meters":18800,"station_id":"ce4bgi92rcd13ifvqb90","pricing_plan_id":"cebpf4jnsgd1na2vs0mg"},{"bike_id":"389fa13e-9fb8-4551-94cc-3437e858ed36","system_id":"levelo_inurba_marseille","lat":43.24168,"lon":5.3647,"is_reserved":false,"is_disabled":false,"rental_uris":{"android":"levelo://app?vid=389fa13e-9fb8-4551-94cc-3437e858ed36","ios":"levelo://app?vid=389fa13e-9fb8-4551-94cc-3437e858ed36"},"vehicle_type_id":"4","last_reported":1745701705,"current_range_meters":18800,"station_id":"","pricing_plan_id":"cebpf4jnsgd1na2vs0mg"},{"bike_id":"25717bcb-9ca8-4b05-903a-5adf45a28468","system_id":"levelo_inurba_marseille","lat":43.2835,"lon":5.38107,"is_reserved":false,"is_disabled":false,"rental_uris":{"android":"levelo://app?vid=25717bcb-9ca8-4b05-903a-5adf45a28468","ios":"levelo://app?vid=25717bcb-9ca8-4b05-903a-5adf45a28468"},"vehicle_type_id":"4","last_reported":1745701705,"current_range_meters":18800,"station_id":"ce4bh412rcd13ifvqdr0","pricing_plan_id":"cebpf4jnsgd1na2vs0mg"},{"bike_id":"807d9a72-3332-4238-b634-95923264599a","system_id":"levelo_inurba_marseille","lat":43.25114,"lon":5.4032,"is_reserved":false,"is_disabled":false,"rental_uris":{"android":"levelo://app?vid=807d9a72-3332-4238-b634-95923264599a","ios":"levelo://app?vid=807d9a72-3332-4238-b634-95923264599a"},"vehicle_type_id":"4","last_reported":1745701705,"current_range_meters":19200,"station_id":"ce4bhlh2rcd13ifvqgig","pricing_plan_id":"cebpf4jnsgd1na2vs0mg"},{"bike_id":"7f674c56-15ac-4b7b-bb6d-65f401bed2ea","system_id":"levelo_inurba_marseille","lat":43.303384,"lon":5.40446,"is_reserved":false,"is_disabled":false,"rental_uris":{"android":"levelo://app?vid=7f674c56-15ac-4b7b-bb6d-65f401bed2ea","ios":"levelo://app?vid=7f674c56-15ac-4b7b-bb6d-65f401bed2ea"},"vehicle_type_id":"4","last_reported":1745701705,"current_range_meters":19200,"station_id":"ce4bh012rcd13ifvqd10","pricing_plan_id":"cebpf4jnsgd1na2vs0mg"},{"bike_id":"7224a352-ef26-4499-990b-56f9c21ea9d6","system_id":"levelo_inurba_marseille","lat":43.292619,"lon":5.384326,"is_reserved":false,"is_disabled":false,"rental_uris":{"android":"levelo://app?vid=7224a352-ef26-4499-990b-56f9c21ea9d6","ios":"levelo://app?vid=7224a352-ef26-4499-990b-56f9c21ea9d6"},"vehicle_type_id":"4","last_reported":1745701705,"current_range_meters":19200,"station_id":"ce4bhc92rcd13ifvqetg","pricing_plan_id":"cebpf4jnsgd1na2vs0mg"},{"bike_id":"f5181ff8-3bea-459d-9bd7-848090e8ed24","system_id":"levelo_inurba_marseille","lat":43.26537,"lon":5.37311,"is_reserved":false,"is_disabled":false,"rental_uris":{"android":"levelo://app?vid=f5181ff8-3bea-459d-9bd7-848090e8ed24","ios":"levelo://app?vid=f5181ff8-3bea-459d-9bd7-848090e8ed24"},"vehicle_type_id":"4","last_reported":1745701705,"current_range_meters":19200,"station_id":"ce4bhg12rcd13ifvqf70","pricing_plan_id":"cebpf4jnsgd1na2vs0mg"},{"bike_id":"debe680f-b1a3-4533-aba7-db1fa459c7fd","system_id":"levelo_inurba_marseille","lat":43.24395,"lon":5.37056,"is_reserved":false,"is_disabled":false,"rental_uris":{"android":"levelo://app?vid=debe680f-b1a3-4533-aba7-db1fa459c7fd","ios":"levelo://app?vid=debe680f-b1a3-4533-aba7-db1fa459c7fd"},"vehicle_type_id":"4","last_reported":1745701705,"current_range_meters":19200,"station_id":"ce4bhhh2rcd13ifvqfk0","pricing_plan_id":"cebpf4jnsgd1na2vs0mg"},{"bike_id":"453ce3d4-d623-45e4-abde-68c49a57963b","system_id":"levelo_inurba_marseille","lat":43.3081,"lon":5.38151,"is_reserved":false,"is_disabled":false,"rental_uris":{"android":"levelo://app?vid=453ce3d4-d623-45e4-abde-68c49a57963b","ios":"levelo://app?vid=453ce3d4-d623-45e4-abde-68c49a57963b"},"vehicle_type_id":"4","last_reported":1745701705,"current_range_meters":19200,"station_id":"ce4bgt12rcd13ifvqce0","pricing_plan_id":"cebpf4jnsgd1na2vs0mg"},{"bike_id":"f36ae1cb-5823-4223-b278-872cdf2c9c14","system_id":"levelo_inurba_marseille","lat":43.3095,"lon":5.39039,"is_reserved":false,"is_disabled":false,"rental_uris":{"android":"levelo://app?vid=f36ae1cb-5823-4223-b278-872cdf2c9c14","ios":"levelo://app?vid=f36ae1cb-5823-4223-b278-872cdf2c9c14"},"vehicle_type_id":"4","last_reported":1745701705,"current_range_meters":19200,"station_id":"ce4bgup2rcd13ifvqco0","pricing_plan_id":"cebpf4jnsgd1na2vs0mg"},{"bike_id":"ce5de5e1-c593-4567-99fa-1cab6ea8581d","system_id":"levelo_inurba_marseille","lat":43.25494,"lon":5.37649,"is_reserved":false,"is_disabled":false,"rental_uris":{"android":"levelo://app?vid=ce5de5e1-c593-4567-99fa-1cab6ea8581d","ios":"levelo://app?vid=ce5de5e1-c593-4567-99fa-1cab6ea8581d"},"vehicle_type_id":"4","last_reported":1745701705,"current_range_meters":18800,"station_id":"ce4bhh12rcd13ifvqff0","pricing_plan_id":"cebpf4jnsgd1na2vs0mg"},{"bike_id":"e3793fab-c0cc-4068-98d1-3095b05ab883","system_id":"levelo_inurba_marseille","lat":43.2834,"lon":5.38104,"is_reserved":false,"is_disabled":false,"rental_uris":{"android":"levelo://app?vid=e3793fab-c0cc-4068-98d1-3095b05ab883","ios":"levelo://app?vid=e3793fab-c0cc-4068-98d1-3095b05ab883"},"vehicle_type_id":"4","last_reported":1745701705,"current_range_meters":20400,"station_id":"ce4bh412rcd13ifvqdr0","pricing_plan_id":"cebpf4jnsgd1na2vs0mg"},{"bike_id":"52aacdd4-5dab-403a-82ba-a1f9f36d8f0a","system_id":"levelo_inurba_marseille","lat":43.29532,"lon":5.3854,"is_reserved":false,"is_disabled":false,"rental_uris":{"android":"levelo://app?vid=52aacdd4-5dab-403a-82ba-a1f9f36d8f0a","ios":"levelo://app?vid=52aacdd4-5dab-403a-82ba-a1f9f36d8f0a"},"vehicle_type_id":"4","last_reported":1745701705,"current_range_meters":19200,"station_id":"ce4bgih2rcd13ifvqba0","pricing_plan_id":"cebpf4jnsgd1na2vs0mg"},{"bike_id":"fc61a5ad-831c-4e7e-8b6e-08907090df4c","system_id":"levelo_inurba_marseille","lat":43.26062,"lon":5.39383,"is_reserved":false,"is_disabled":false,"rental_uris":{"android":"levelo://app?vid=fc61a5ad-831c-4e7e-8b6e-08907090df4c","ios":"levelo://app?vid=fc61a5ad-831c-4e7e-8b6e-08907090df4c"},"vehicle_type_id":"4","last_reported":1745701705,"current_range_meters":18800,"station_id":"ce4bhh92rcd13ifvqfj0","pricing_plan_id":"cebpf4jnsgd1na2vs0mg"},{"bike_id":"8267a175-b5cb-45e0-8d32-cc806f617854","system_id":"levelo_inurba_marseille","lat":43.29939,"lon":5.39745,"is_reserved":false,"is_disabled":false,"rental_uris":{"android":"levelo://app?vid=8267a175-b5cb-45e0-8d32-cc806f617854","ios":"levelo://app?vid=8267a175-b5cb-45e0-8d32-cc806f617854"},"vehicle_type_id":"4","last_reported":1745701705,"current_range_meters":19600,"station_id":"","pricing_plan_id":"cebpf4jnsgd1na2vs0mg"},{"bike_id":"36894e47-6a3e-44a3-a461-a4c4abe0aa7d","system_id":"levelo_inurba_marseille","lat":43.33737,"lon":5.39171,"is_reserved":false,"is_disabled":false,"rental_uris":{"android":"levelo://app?vid=36894e47-6a3e-44a3-a461-a4c4abe0aa7d","ios":"levelo://app?vid=36894e47-6a3e-44a3-a461-a4c4abe0aa7d"},"vehicle_type_id":"4","last_reported":1745701705,"current_range_meters":19600,"station_id":"ce4bhr92rcd13ifvqhsg","pricing_plan_id":"cebpf4jnsgd1na2vs0mg"},{"bike_id":"6b9c0dcf-1c41-4c8b-8e37-f97f2576bbec","system_id":"levelo_inurba_marseille","lat":43.294535,"lon":5.386188,"is_reserved":false,"is_disabled":false,"rental_uris":{"android":"levelo://app?vid=6b9c0dcf-1c41-4c8b-8e37-f97f2576bbec","ios":"levelo://app?vid=6b9c0dcf-1c41-4c8b-8e37-f97f2576bbec"},"vehicle_type_id":"4","last_reported":1745701705,"current_range_meters":21600,"station_id":"ce4bh2h2rcd13ifvqdh0","pricing_plan_id":"cebpf4jnsgd1na2vs0mg"},{"bike_id":"7d190f61-cc11-4493-a85b-f5ab9d39c3ab","system_id":"levelo_inurba_marseille","lat":43.29362,"lon":5.37857,"is_reserved":false,"is_disabled":false,"rental_uris":{"android":"levelo://app?vid=7d190f61-cc11-4493-a85b-f5ab9d39c3ab","ios":"levelo://app?vid=7d190f61-cc11-4493-a85b-f5ab9d39c3ab"},"vehicle_type_id":"4","last_reported":1745701705,"current_range_meters":19600,"station_id":"ce4bgjh2rcd13ifvqbf0","pricing_plan_id":"cebpf4jnsgd1na2vs0mg"},{"bike_id":"ec5dcbe0-2702-496a-b053-c39b04a7935b","system_id":"levelo_inurba_marseille","lat":43.3107,"lon":5.38364,"is_reserved":false,"is_disabled":false,"rental_uris":{"android":"levelo://app?vid=ec5dcbe0-2702-496a-b053-c39b04a7935b","ios":"levelo://app?vid=ec5dcbe0-2702-496a-b053-c39b04a7935b"},"vehicle_type_id":"4","last_reported":1745701705,"current_range_meters":19600,"station_id":"ce4bgv92rcd13ifvqcr0","pricing_plan_id":"cebpf4jnsgd1na2vs0mg"},{"bike_id":"8a8b3113-1b29-4eb8-aeb2-995a941e7c57","system_id":"levelo_inurba_marseille","lat":43.29527,"lon":5.38556,"is_reserved":false,"is_disabled":false,"rental_uris":{"android":"levelo://app?vid=8a8b3113-1b29-4eb8-aeb2-995a941e7c57","ios":"levelo://app?vid=8a8b3113-1b29-4eb8-aeb2-995a941e7c57"},"vehicle_type_id":"4","last_reported":1745701705,"current_range_meters":19600,"station_id":"ce4bgih2rcd13ifvqba0","pricing_plan_id":"cebpf4jnsgd1na2vs0mg"},{"bike_id":"39e556f8-d0d7-49bd-a49d-12f8885d2931","system_id":"levelo_inurba_marseille","lat":43.25865,"lon":5.39899,"is_reserved":false,"is_disabled":false,"rental_uris":{"android":"levelo://app?vid=39e556f8-d0d7-49bd-a49d-12f8885d2931","ios":"levelo://app?vid=39e556f8-d0d7-49bd-a49d-12f8885d2931"},"vehicle_type_id":"4","last_reported":1745701705,"current_range_meters":19200,"station_id":"ce4bhl92rcd13ifvqghg","pricing_plan_id":"cebpf4jnsgd1na2vs0mg"},{"bike_id":"bfd1be1c-1489-48fe-a99c-a9cefc997ae0","system_id":"levelo_inurba_marseille","lat":43.262535,"lon":5.37425,"is_reserved":false,"is_disabled":false,"rental_uris":{"android":"levelo://app?vid=bfd1be1c-1489-48fe-a99c-a9cefc997ae0","ios":"levelo://app?vid=bfd1be1c-1489-48fe-a99c-a9cefc997ae0"},"vehicle_type_id":"4","last_reported":1745701705,"current_range_meters":19600,"station_id":"ce4bhch2rcd13ifvqeug","pricing_plan_id":"cebpf4jnsgd1na2vs0mg"},{"bike_id":"1c71887c-a4a8-4f5e-959c-343eeaab9000","system_id":"levelo_inurba_marseille","lat":43.29626,"lon":5.385507,"is_reserved":false,"is_disabled":false,"rental_uris":{"android":"levelo://app?vid=1c71887c-a4a8-4f5e-959c-343eeaab9000","ios":"levelo://app?vid=1c71887c-a4a8-4f5e-959c-343eeaab9000"},"vehicle_type_id":"4","last_reported":1745701705,"current_range_meters":19600,"station_id":"ce4bgj92rcd13ifvqbd0","pricing_plan_id":"cebpf4jnsgd1na2vs0mg"},{"bike_id":"01388fcf-0b43-4e25-9b82-888c48161f65","system_id":"levelo_inurba_marseille","lat":43.29531,"lon":5.38546,"is_reserved":false,"is_disabled":false,"rental_uris":{"android":"levelo://app?vid=01388fcf-0b43-4e25-9b82-888c48161f65","ios":"levelo://app?vid=01388fcf-0b43-4e25-9b82-888c48161f65"},"vehicle_type_id":"4","last_reported":1745701705,"current_range_meters":19600,"station_id":"ce4bgih2rcd13ifvqba0","pricing_plan_id":"cebpf4jnsgd1na2vs0mg"},{"bike_id":"d013ffe6-3f41-41cb-9c5f-6efe89312988","system_id":"levelo_inurba_marseille","lat":43.30947,"lon":5.3904,"is_reserved":false,"is_disabled":false,"rental_uris":{"android":"levelo://app?vid=d013ffe6-3f41-41cb-9c5f-6efe89312988","ios":"levelo://app?vid=d013ffe6-3f41-41cb-9c5f-6efe89312988"},"vehicle_type_id":"4","last_reported":1745701705,"current_range_meters":19600,"station_id":"ce4bgup2rcd13ifvqco0","pricing_plan_id":"cebpf4jnsgd1na2vs0mg"},{"bike_id":"a6a22255-55fb-4d74-8ed1-512da62e57c4","system_id":"levelo_inurba_marseille","lat":43.28351,"lon":5.38106,"is_reserved":false,"is_disabled":false,"rental_uris":{"android":"levelo://app?vid=a6a22255-55fb-4d74-8ed1-512da62e57c4","ios":"levelo://app?vid=a6a22255-55fb-4d74-8ed1-512da62e57c4"},"vehicle_type_id":"4","last_reported":1745701705,"current_range_meters":20000,"station_id":"ce4bh412rcd13ifvqdr0","pricing_plan_id":"cebpf4jnsgd1na2vs0mg"},{"bike_id":"048ac0f5-9965-4a68-9c87-61ea79d9fcbb","system_id":"levelo_inurba_marseille","lat":43.30929,"lon":5.40142,"is_reserved":false,"is_disabled":false,"rental_uris":{"android":"levelo://app?vid=048ac0f5-9965-4a68-9c87-61ea79d9fcbb","ios":"levelo://app?vid=048ac0f5-9965-4a68-9c87-61ea79d9fcbb"},"vehicle_type_id":"4","last_reported":1745701705,"current_range_meters":19600,"station_id":"ce4bgvp2rcd13ifvqct0","pricing_plan_id":"cebpf4jnsgd1na2vs0mg"},{"bike_id":"c90de9fe-3ace-4bac-8b23-d4861eb8ac7e","system_id":"levelo_inurba_marseille","lat":43.27014,"lon":5.40085,"is_reserved":false,"is_disabled":false,"rental_uris":{"android":"levelo://app?vid=c90de9fe-3ace-4bac-8b23-d4861eb8ac7e","ios":"levelo://app?vid=c90de9fe-3ace-4bac-8b23-d4861eb8ac7e"},"vehicle_type_id":"4","last_reported":1745701705,"current_range_meters":20000,"station_id":"","pricing_plan_id":"cebpf4jnsgd1na2vs0mg"},{"bike_id":"030c26b3-c4dc-4d5b-9919-9d5eb35c475b","system_id":"levelo_inurba_marseille","lat":43.29042,"lon":5.35912,"is_reserved":false,"is_disabled":false,"rental_uris":{"android":"levelo://app?vid=030c26b3-c4dc-4d5b-9919-9d5eb35c475b","ios":"levelo://app?vid=030c26b3-c4dc-4d5b-9919-9d5eb35c475b"},"vehicle_type_id":"4","last_reported":1745701705,"current_range_meters":19600,"station_id":"ce4bha92rcd13ifvqeg0","pricing_plan_id":"cebpf4jnsgd1na2vs0mg"},{"bike_id":"e22302d4-296f-4aeb-9107-eb3ee99f311f","system_id":"levelo_inurba_marseille","lat":43.24085,"lon":5.37752,"is_reserved":false,"is_disabled":false,"rental_uris":{"android":"levelo://app?vid=e22302d4-296f-4aeb-9107-eb3ee99f311f","ios":"levelo://app?vid=e22302d4-296f-4aeb-9107-eb3ee99f311f"},"vehicle_type_id":"4","last_reported":1745701705,"current_range_meters":20000,"station_id":"ce4bhnp2rcd13ifvqgvg","pricing_plan_id":"cebpf4jnsgd1na2vs0mg"},{"bike_id":"6d593226-0a2e-46d4-8de3-9c8bd9d3e674","system_id":"levelo_inurba_marseille","lat":43.29792,"lon":5.38124,"is_reserved":false,"is_disabled":true,"rental_uris":{"android":"levelo://app?vid=6d593226-0a2e-46d4-8de3-9c8bd9d3e674","ios":"levelo://app?vid=6d593226-0a2e-46d4-8de3-9c8bd9d3e674"},"vehicle_type_id":"4","last_reported":1745701705,"current_range_meters":20000,"station_id":"ce4bgip2rcd13ifvqbb0","pricing_plan_id":"cebpf4jnsgd1na2vs0mg"},{"bike_id":"97f36b89-3f79-4d54-80b9-0001fe6da6bb","system_id":"levelo_inurba_marseille","lat":43.32445,"lon":5.39134,"is_reserved":false,"is_disabled":true,"rental_uris":{"android":"levelo://app?vid=97f36b89-3f79-4d54-80b9-0001fe6da6bb","ios":"levelo://app?vid=97f36b89-3f79-4d54-80b9-0001fe6da6bb"},"vehicle_type_id":"4","last_reported":1745701705,"current_range_meters":20000,"station_id":"","pricing_plan_id":"cebpf4jnsgd1na2vs0mg"},{"bike_id":"4da7f61a-1aa1-4cac-b9c9-60a633b52baf","system_id":"levelo_inurba_marseille","lat":43.28152,"lon":5.42645,"is_reserved":false,"is_disabled":false,"rental_uris":{"android":"levelo://app?vid=4da7f61a-1aa1-4cac-b9c9-60a633b52baf","ios":"levelo://app?vid=4da7f61a-1aa1-4cac-b9c9-60a633b52baf"},"vehicle_type_id":"4","last_reported":1745701705,"current_range_meters":20400,"station_id":"ce4bhnh2rcd13ifvqgug","pricing_plan_id":"cebpf4jnsgd1na2vs0mg"},{"bike_id":"b6c145a0-fb21-4f45-bacf-2b6b45b1c59b","system_id":"levelo_inurba_marseille","lat":43.29415,"lon":5.38619,"is_reserved":false,"is_disabled":false,"rental_uris":{"android":"levelo://app?vid=b6c145a0-fb21-4f45-bacf-2b6b45b1c59b","ios":"levelo://app?vid=b6c145a0-fb21-4f45-bacf-2b6b45b1c59b"},"vehicle_type_id":"4","last_reported":1745701705,"current_range_meters":20400,"station_id":"ce4bh2h2rcd13ifvqdh0","pricing_plan_id":"cebpf4jnsgd1na2vs0mg"},{"bike_id":"6dfad5a3-fb79-434a-b230-fd9d763b4988","system_id":"levelo_inurba_marseille","lat":43.29412,"lon":5.38631,"is_reserved":false,"is_disabled":false,"rental_uris":{"android":"levelo://app?vid=6dfad5a3-fb79-434a-b230-fd9d763b4988","ios":"levelo://app?vid=6dfad5a3-fb79-434a-b230-fd9d763b4988"},"vehicle_type_id":"4","last_reported":1745701705,"current_range_meters":20400,"station_id":"ce4bh2h2rcd13ifvqdh0","pricing_plan_id":"cebpf4jnsgd1na2vs0mg"},{"bike_id":"49c695a3-442a-4057-89a1-9b828256f3f4","system_id":"levelo_inurba_marseille","lat":43.29547,"lon":5.38547,"is_reserved":false,"is_disabled":false,"rental_uris":{"android":"levelo://app?vid=49c695a3-442a-4057-89a1-9b828256f3f4","ios":"levelo://app?vid=49c695a3-442a-4057-89a1-9b828256f3f4"},"vehicle_type_id":"4","last_reported":1745701705,"current_range_meters":20800,"station_id":"ce4bgih2rcd13ifvqba0","pricing_plan_id":"cebpf4jnsgd1na2vs0mg"},{"bike_id":"c76eee0f-7ac8-4e62-a383-2db142342ac5","system_id":"levelo_inurba_marseille","lat":43.30818,"lon":5.38128,"is_reserved":false,"is_disabled":false,"rental_uris":{"android":"levelo://app?vid=c76eee0f-7ac8-4e62-a383-2db142342ac5","ios":"levelo://app?vid=c76eee0f-7ac8-4e62-a383-2db142342ac5"},"vehicle_type_id":"4","last_reported":1745701705,"current_range_meters":20800,"station_id":"ce4bgt12rcd13ifvqce0","pricing_plan_id":"cebpf4jnsgd1na2vs0mg"},{"bike_id":"28375f2a-9360-468c-bb10-5994bbf0d537","system_id":"levelo_inurba_marseille","lat":43.25012,"lon":5.38916,"is_reserved":false,"is_disabled":false,"rental_uris":{"android":"levelo://app?vid=28375f2a-9360-468c-bb10-5994bbf0d537","ios":"levelo://app?vid=28375f2a-9360-468c-bb10-5994bbf0d537"},"vehicle_type_id":"4","last_reported":1745701705,"current_range_meters":20800,"station_id":"ce4bhgp2rcd13ifvqfd0","pricing_plan_id":"cebpf4jnsgd1na2vs0mg"},{"bike_id":"e492037e-60a9-4864-84d6-2fe9ea031f90","system_id":"levelo_inurba_marseille","lat":43.2797,"lon":5.38756,"is_reserved":false,"is_disabled":false,"rental_uris":{"android":"levelo://app?vid=e492037e-60a9-4864-84d6-2fe9ea031f90","ios":"levelo://app?vid=e492037e-60a9-4864-84d6-2fe9ea031f90"},"vehicle_type_id":"4","last_reported":1745701705,"current_range_meters":20800,"station_id":"ce4bhg12rcd13ifvqf80","pricing_plan_id":"cebpf4jnsgd1na2vs0mg"},{"bike_id":"3953ce46-e2a7-4b08-ba33-a9d9dc52911f","system_id":"levelo_inurba_marseille","lat":43.27825,"lon":5.39207,"is_reserved":false,"is_disabled":false,"rental_uris":{"android":"levelo://app?vid=3953ce46-e2a7-4b08-ba33-a9d9dc52911f","ios":"levelo://app?vid=3953ce46-e2a7-4b08-ba33-a9d9dc52911f"},"vehicle_type_id":"4","last_reported":1745701705,"current_range_meters":20400,"station_id":"ce4bhjp2rcd13ifvqga0","pricing_plan_id":"cebpf4jnsgd1na2vs0mg"},{"bike_id":"2150d908-de18-435c-b409-34ee44a9880a","system_id":"levelo_inurba_marseille","lat":43.29916,"lon":5.38126,"is_reserved":false,"is_disabled":false,"rental_uris":{"android":"levelo://app?vid=2150d908-de18-435c-b409-34ee44a9880a","ios":"levelo://app?vid=2150d908-de18-435c-b409-34ee44a9880a"},"vehicle_type_id":"4","last_reported":1745701705,"current_range_meters":20800,"station_id":"ce4bgj12rcd13ifvqbc0","pricing_plan_id":"cebpf4jnsgd1na2vs0mg"},{"bike_id":"78cb7f0e-bdd1-4934-9dc6-fe66b1ce023c","system_id":"levelo_inurba_marseille","lat":43.26274,"lon":5.40474,"is_reserved":false,"is_disabled":false,"rental_uris":{"android":"levelo://app?vid=78cb7f0e-bdd1-4934-9dc6-fe66b1ce023c","ios":"levelo://app?vid=78cb7f0e-bdd1-4934-9dc6-fe66b1ce023c"},"vehicle_type_id":"4","last_reported":1745701705,"current_range_meters":20800,"station_id":"ce4bhmh2rcd13ifvqgmg","pricing_plan_id":"cebpf4jnsgd1na2vs0mg"},{"bike_id":"97fd7a4c-36e8-401d-b12d-1b4015a01ebe","system_id":"levelo_inurba_marseille","lat":43.26566,"lon":5.42084,"is_reserved":false,"is_disabled":false,"rental_uris":{"android":"levelo://app?vid=97fd7a4c-36e8-401d-b12d-1b4015a01ebe","ios":"levelo://app?vid=97fd7a4c-36e8-401d-b12d-1b4015a01ebe"},"vehicle_type_id":"4","last_reported":1745701705,"current_range_meters":20800,"station_id":"","pricing_plan_id":"cebpf4jnsgd1na2vs0mg"},{"bike_id":"afdb9807-8661-4d33-802f-51fb0ef84141","system_id":"levelo_inurba_marseille","lat":43.31353,"lon":5.38499,"is_reserved":false,"is_disabled":false,"rental_uris":{"android":"levelo://app?vid=afdb9807-8661-4d33-802f-51fb0ef84141","ios":"levelo://app?vid=afdb9807-8661-4d33-802f-51fb0ef84141"},"vehicle_type_id":"4","last_reported":1745701705,"current_range_meters":20800,"station_id":"ce4bgt92rcd13ifvqcf0","pricing_plan_id":"cebpf4jnsgd1na2vs0mg"},{"bike_id":"181ed326-b471-49b5-9f00-acd48cb5b299","system_id":"levelo_inurba_marseille","lat":43.28315,"lon":5.35113,"is_reserved":false,"is_disabled":true,"rental_uris":{"android":"levelo://app?vid=181ed326-b471-49b5-9f00-acd48cb5b299","ios":"levelo://app?vid=181ed326-b471-49b5-9f00-acd48cb5b299"},"vehicle_type_id":"4","last_reported":1745701705,"current_range_meters":20800,"station_id":"","pricing_plan_id":"cebpf4jnsgd1na2vs0mg"},{"bike_id":"cfb98d76-01e0-4de3-ac94-8b25e85e79ab","system_id":"levelo_inurba_marseille","lat":43.32052,"lon":5.41542,"is_reserved":false,"is_disabled":false,"rental_uris":{"android":"levelo://app?vid=cfb98d76-01e0-4de3-ac94-8b25e85e79ab","ios":"levelo://app?vid=cfb98d76-01e0-4de3-ac94-8b25e85e79ab"},"vehicle_type_id":"4","last_reported":1745701705,"current_range_meters":19200,"station_id":"ce4bhq92rcd13ifvqhkg","pricing_plan_id":"cebpf4jnsgd1na2vs0mg"},