{"last_updated":1726931333,"ttl":30,"version":"2.2","data":{"bikes":[{"bike_id":"babc7701-a255-4424-91f0-61fa6fd96958","system_id":"levelo_inurba_marseille","lat":43.27991,"lon":5.40017,"is_reserved":false,"is_disabled":false,"rental_uris":{"android":"levelo://app?vid=babc7701-a255-4424-91f0-61fa6fd96958","ios":"levelo://app?vid=babc7701-a255-4424-91f0-61fa6fd96958"},"vehicle_type_id":"4","last_reported":1726931333,"current_range_meters":39200,"station_id":"ce4bho92rcd13ifvqh4g","pricing_plan_id":"cebpf4jnsgd1na2vs0mg"},{"bike_id":"80211d98-7415-4915-859e-97b385c0a4d6","system_id":"levelo_inurba_marseille","lat":43.24391,"lon":5.37065,"is_reserved":false,"is_disabled":false,"rental_uris":{"android":"levelo://app?vid=80211d98-7415-4915-859e-97b385c0a4d6","ios":"levelo://app?vid=80211d98-7415-4915-859e-97b385c0a4d6"},"vehicle_type_id":"4","last_reported":1726931333,"current_range_meters":25600,"station_id":"ce4bhhh2rcd13ifvqfk0","pricing_plan_id":"cebpf4jnsgd1na2vs0mg"},{"bike_id":"8d1377de-9bd8-4c80-938d-d8cb28b5c55c","system_id":"levelo_inurba_marseille","lat":43.27189,"lon":5.41003,"is_reserved":false,"is_disabled":false,"rental_uris":{"android":"levelo://app?vid=8d1377de-9bd8-4c80-938d-d8cb28b5c55c","ios":"levelo://app?vid=8d1377de-9bd8-4c80-938d-d8cb28b5c55c"},"vehicle_type_id":"4","last_reported":1726931333,"current_range_meters":9600,"station_id":"ce4bhl12rcd13ifvqgf0","pricing_plan_id":"cebpf4jnsgd1na2vs0mg"},{"bike_id":"222ccc1f-7970-4907-a453-e930c382e3ae","system_id":"levelo_inurba_marseille","lat":43.29572,"lon":5.39979,"is_reserved":false,"is_disabled":false,"rental_uris":{"android":"levelo://app?vid=222ccc1f-7970-4907-a453-e930c382e3ae","ios":"levelo://app?vid=222ccc1f-7970-4907-a453-e930c382e3ae"},"vehicle_type_id":"4","last_reported":1726931333,"current_range_meters":26800,"station_id":"ce4bh312rcd13ifvqdj0","pricing_plan_id":"cebpf4jnsgd1na2vs0mg"},{"bike_id":"3f2e6373-a5ce-4ff7-95c1-722d21fed03d","system_id":"levelo_inurba_marseille","lat":43.26206,"lon":5.3793,"is_reserved":false,"is_disabled":false,"rental_uris":{"android":"levelo://app?vid=3f2e6373-a5ce-4ff7-95c1-722d21fed03d","ios":"levelo://app?vid=3f2e6373-a5ce-4ff7-95c1-722d21fed03d"},"vehicle_type_id":"4","last_reported":1726931333,"current_range_meters":38800,"station_id":"ce4bhjp2rcd13ifvqg90","pricing_plan_id":"cebpf4jnsgd1na2vs0mg"},{"bike_id":"b657b1c7-5510-4c47-abb7-e756725f1cf9","system_id":"levelo_inurba_marseille","lat":43.28427,"lon":5.3498,"is_reserved":false,"is_disabled":false,"rental_uris":{"android":"levelo://app?vid=b657b1c7-5510-4c47-abb7-e756725f1cf9","ios":"levelo://app?vid=b657b1c7-5510-4c47-abb7-e756725f1cf9"},"vehicle_type_id":"4","last_reported":1726931333,"current_range_meters":17200,"station_id":"ce4bhbh2rcd13ifvqepg","pricing_plan_id":"cebpf4jnsgd1na2vs0mg"},{"bike_id":"71651ac6-0b76-4019-b34f-072820ef1ca3","system_id":"levelo_inurba_marseille","lat":43.26031,"lon":5.37548,"is_reserved":false,"is_disabled":false,"rental_uris":{"android":"levelo://app?vid=71651ac6-0b76-4019-b34f-072820ef1ca3","ios":"levelo://app?vid=71651ac6-0b76-4019-b34f-072820ef1ca3"},"vehicle_type_id":"4","last_reported":1726931333,"current_range_meters":35200,"station_id":"ce4bhgh2rcd13ifvqfa0","pricing_plan_id":"cebpf4jnsgd1na2vs0mg"},{"bike_id":"a102afbc-3ec3-41dd-b50f-9d9de306dc75","system_id":"levelo_inurba_marseille","lat":43.33025,"lon":5.39045,"is_reserved":false,"is_disabled":false,"rental_uris":{"android":"levelo://app?vid=a102afbc-3ec3-41dd-b50f-9d9de306dc75","ios":"levelo://app?vid=a102afbc-3ec3-41dd-b50f-9d9de306dc75"},"vehicle_type_id":"4","last_reported":1726931333,"current_range_meters":29600,"station_id":"ce4bhr92rcd13ifvqhrg","pricing_plan_id":"cebpf4jnsgd1na2vs0mg"},{"bike_id":"926ebef5-7d9d-4ae6-a06c-8d02604c00cc","system_id":"levelo_inurba_marseille","lat":43.28951,"lon":5.36416,"is_reserved":false,"is_disabled":false,"rental_uris":{"android":"levelo://app?vid=926ebef5-7d9d-4ae6-a06c-8d02604c00cc","ios":"levelo://app?vid=926ebef5-7d9d-4ae6-a06c-8d02604c00cc"},"vehicle_type_id":"4","last_reported":1726931333,"current_range_meters":22800,"station_id":"ce4bhc92rcd13ifvqetg","pricing_plan_id":"cebpf4jnsgd1na2vs0mg"},{"bike_id":"11b07735-41fe-46db-9b01-e7149e08e197","system_id":"levelo_inurba_marseille","lat":43.28269,"lon":5.35063,"is_reserved":false,"is_disabled":false,"rental_uris":{"android":"levelo://app?vid=11b07735-41fe-46db-9b01-e7149e08e197","ios":"levelo://app?vid=11b07735-41fe-46db-9b01-e7149e08e197"},"vehicle_type_id":"4","last_reported":1726931333,"current_range_meters":24000,"station_id":"ce4bhbp2rcd13ifvqerg","pricing_plan_id":"cebpf4jnsgd1na2vs0mg"},{"bike_id":"2f86184e-6cf5-4a2c-bcdf-6f262742aefd","system_id":"levelo_inurba_marseille","lat":43.24809,"lon":5.37459,"is_reserved":false,"is_disabled":false,"rental_uris":{"android":"levelo://app?vid=2f86184e-6cf5-4a2c-bcdf-6f262742aefd","ios":"levelo://app?vid=2f86184e-6cf5-4a2c-bcdf-6f262742aefd"},"vehicle_type_id":"4","last_reported":1726931333,"current_range_meters":28800,"station_id":"ce4bhgh2rcd13ifvqfb0","pricing_plan_id":"cebpf4jnsgd1na2vs0mg"},{"bike_id":"7355e7b6-81bd-474c-a88c-5755fef3dd80","system_id":"levelo_inurba_marseille","lat":43.33611,"lon":5.41037,"is_reserved":false,"is_disabled":false,"rental_uris":{"android":"levelo://app?vid=7355e7b6-81bd-474c-a88c-5755fef3dd80","ios":"levelo://app?vid=7355e7b6-81bd-474c-a88c-5755fef3dd80"},"vehicle_type_id":"4","last_reported":1726931333,"current_range_meters":38800,"station_id":"ce4bhqh2rcd13ifvqhmg","pricing_plan_id":"cebpf4jnsgd1na2vs0mg"},{"bike_id":"60bf8854-1f13-49b3-9a9a-781d8b8319ee","system_id":"levelo_inurba_marseille","lat":43.28266,"lon":5.35059,"is_reserved":false,"is_disabled":false,"rental_uris":{"android":"levelo://app?vid=60bf8854-1f13-49b3-9a9a-781d8b8319ee","ios":"levelo://app?vid=60bf8854-1f13-49b3-9a9a-781d8b8319ee"},"vehicle_type_id":"4","last_reported":1726931333,"current_range_meters":3200,"station_id":"ce4bhbp2rcd13ifvqerg","pricing_plan_id":"cebpf4jnsgd1na2vs0mg"},{"bike_id":"7305e097-fa56-4e8c-b7c3-772deb6569c0","system_id":"levelo_inurba_marseille","lat":43.25578,"lon":5.38228,"is_reserved":false,"is_disabled":false,"rental_uris":{"android":"levelo://app?vid=7305e097-fa56-4e8c-b7c3-772deb6569c0","ios":"levelo://app?vid=7305e097-fa56-4e8c-b7c3-772deb6569c0"},"vehicle_type_id":"4","last_reported":1726931333,"current_range_meters":29600,"station_id":"ce4bhih2rcd13ifvqfs0","pricing_plan_id":"cebpf4jnsgd1na2vs0mg"},{"bike_id":"f9787a80-1f71-4dc3-9e44-6503f8065747","system_id":"levelo_inurba_marseille","lat":43.29252,"lon":5.409,"is_reserved":false,"is_disabled":false,"rental_uris":{"android":"levelo://app?vid=f9787a80-1f71-4dc3-9e44-6503f8065747","ios":"levelo://app?vid=f9787a80-1f71-4dc3-9e44-6503f8065747"},"vehicle_type_id":"4","last_reported":1726931333,"current_range_meters":36000,"station_id":"ce4bh192rcd13ifvqdc0","pricing_plan_id":"cebpf4jnsgd1na2vs0mg"},{"bike_id":"c9e21436-caec-41cf-8484-be6be98df0ff","system_id":"levelo_inurba_marseille","lat":43.26033,"lon":5.37549,"is_reserved":false,"is_disabled":false,"rental_uris":{"android":"levelo://app?vid=c9e21436-caec-41cf-8484-be6be98df0ff","ios":"levelo://app?vid=c9e21436-caec-41cf-8484-be6be98df0ff"},"vehicle_type_id":"4","last_reported":1726931333,"current_range_meters":7200,"station_id":"ce4bhgh2rcd13ifvqfa0","pricing_plan_id":"cebpf4jnsgd1na2vs0mg"},{"bike_id":"df63e28f-cd57-48d1-89d0-dbc144c9c1f9","system_id":"levelo_inurba_marseille","lat":43.23187,"lon":5.39985,"is_reserved":false,"is_disabled":false,"rental_uris":{"android":"levelo://app?vid=df63e28f-cd57-48d1-89d0-dbc144c9c1f9","ios":"levelo://app?vid=df63e28f-cd57-48d1-89d0-dbc144c9c1f9"},"vehicle_type_id":"4","last_reported":1726931333,"current_range_meters":17200,"station_id":"ce4bhn12rcd13ifvqgqg","pricing_plan_id":"cebpf4jnsgd1na2vs0mg"},{"bike_id":"27f41fdd-9b65-495a-83cb-6765305799e4","system_id":"levelo_inurba_marseille","lat":43.28269,"lon":5.35062,"is_reserved":false,"is_disabled":false,"rental_uris":{"android":"levelo://app?vid=27f41fdd-9b65-495a-83cb-6765305799e4","ios":"levelo://app?vid=27f41fdd-9b65-495a-83cb-6765305799e4"},"vehicle_type_id":"4","last_reported":1726931333,"current_range_meters":23200,"station_id":"ce4bhbp2rcd13ifvqerg","pricing_plan_id":"cebpf4jnsgd1na2vs0mg"},{"bike_id":"c043c10c-c60c-4efa-89f1-9b2376c178b6","system_id":"levelo_inurba_marseille","lat":43.30544,"lon":5.3653,"is_reserved":false,"is_disabled":false,"rental_uris":{"android":"levelo://app?vid=c043c10c-c60c-4efa-89f1-9b2376c178b6","ios":"levelo://app?vid=c043c10c-c60c-4efa-89f1-9b2376c178b6"},"vehicle_type_id":"4","last_reported":1726931333,"current_range_meters":38400,"station_id":"ce4bgs12rcd13ifvqcag","pricing_plan_id":"cebpf4jnsgd1na2vs0mg"},{"bike_id":"52cd0fc2-81cd-4e2e-b651-6f0bb948d1d3","system_id":"levelo_inurba_marseille","lat":43.28462,"lon":5.35892,"is_reserved":false,"is_disabled":false,"rental_uris":{"android":"levelo://app?vid=52cd0fc2-81cd-4e2e-b651-6f0bb948d1d3","ios":"levelo://app?vid=52cd0fc2-81cd-4e2e-b651-6f0bb948d1d3"},"vehicle_type_id":"4","last_reported":1726931333,"current_range_meters":35200,"station_id":"ce4bhah2rcd13ifvqei0","pricing_plan_id":"cebpf4jnsgd1na2vs0mg"},{"bike_id":"889e28e2-6f1c-4ea5-b22c-b546f4c54f82","system_id":"levelo_inurba_marseille","lat":43.28612,"lon":5.35121,"is_reserved":false,"is_disabled":false,"rental_uris":{"android":"levelo://app?vid=889e28e2-6f1c-4ea5-b22c-b546f4c54f82","ios":"levelo://app?vid=889e28e2-6f1c-4ea5-b22c-b546f4c54f82"},"vehicle_type_id":"4","last_reported":1726931333,"current_range_meters":25200,"station_id":"ce4bhch2rcd13ifvqeug","pricing_plan_id":"cebpf4jnsgd1na2vs0mg"},{"bike_id":"14cba0ea-4932-4120-ba2f-1e13201aa231","system_id":"levelo_inurba_marseille","lat":43.33765,"lon":5.37446,"is_reserved":false,"is_disabled":false,"rental_uris":{"android":"levelo://app?vid=14cba0ea-4932-4120-ba2f-1e13201aa231","ios":"levelo://app?vid=14cba0ea-4932-4120-ba2f-1e13201aa231"},"vehicle_type_id":"4","last_reported":1726931333,"current_range_meters":34800,"station_id":"","pricing_plan_id":"cebpf4jnsgd1na2vs0mg"},{"bike_id":"f7799aa3-45ee-4987-a997-9d3e2d59c3ac","system_id":"levelo_inurba_marseille","lat":43.31361,"lon":5.36709,"is_reserved":false,"is_disabled":false,"rental_uris":{"android":"levelo://app?vid=f7799aa3-45ee-4987-a997-9d3e2d59c3ac","ios":"levelo://app?vid=f7799aa3-45ee-4987-a997-9d3e2d59c3ac"},"vehicle_type_id":"4","last_reported":1726931333,"current_range_meters":28000,"station_id":"ce4bgr92rcd13ifvqc6g","pricing_plan_id":"cebpf4jnsgd1na2vs0mg"},{"bike_id":"632b4d5c-2cfb-46bf-a0f5-fc63d213e57c","system_id":"levelo_inurba_marseille","lat":43.28272,"lon":5.35067,"is_reserved":false,"is_disabled":false,"rental_uris":{"android":"levelo://app?vid=632b4d5c-2cfb-46bf-a0f5-fc63d213e57c","ios":"levelo://app?vid=632b4d5c-2cfb-46bf-a0f5-fc63d213e57c"},"vehicle_type_id":"4","last_reported":1726931333,"current_range_meters":3200,"station_id":"ce4bhbp2rcd13ifvqerg","pricing_plan_id":"cebpf4jnsgd1na2vs0mg"},{"bike_id":"0deece1d-382f-464a-8814-433d86ab301c","system_id":"levelo_inurba_marseille","lat":43.29417,"lon":5.38626,"is_reserved":false,"is_disabled":false,"rental_uris":{"android":"levelo://app?vid=0deece1d-382f-464a-8814-433d86ab301c","ios":"levelo://app?vid=0deece1d-382f-464a-8814-433d86ab301c"},"vehicle_type_id":"4","last_reported":1726931333,"current_range_meters":28400,"station_id":"ce4bh2h2rcd13ifvqdh0","pricing_plan_id":"cebpf4jnsgd1na2vs0mg"},{"bike_id":"2a7db943-6265-4479-9604-043d344eb7a6","system_id":"levelo_inurba_marseille","lat":43.30275,"lon":5.38398,"is_reserved":false,"is_disabled":false,"rental_uris":{"android":"levelo://app?vid=2a7db943-6265-4479-9604-043d344eb7a6","ios":"levelo://app?vid=2a7db943-6265-4479-9604-043d344eb7a6"},"vehicle_type_id":"4","last_reported":1726931333,"current_range_meters":22400,"station_id":"","pricing_plan_id":"cebpf4jnsgd1na2vs0mg"},{"bike_id":"feef65fd-70ed-4c2a-ab1c-62060f564852","system_id":"levelo_inurba_marseille","lat":43.2668,"lon":5.38277,"is_reserved":false,"is_disabled":false,"rental_uris":{"android":"levelo://app?vid=feef65fd-70ed-4c2a-ab1c-62060f564852","ios":"levelo://app?vid=feef65fd-70ed-4c2a-ab1c-62060f564852"},"vehicle_type_id":"4","last_reported":1726931333,"current_range_meters":25200,"station_id":"ce4bhg92rcd13ifvqf90","pricing_plan_id":"cebpf4jnsgd1na2vs0mg"},{"bike_id":"0eaef082-ef9d-4221-9208-c5dee654bdae","system_id":"levelo_inurba_marseille","lat":43.28452,"lon":5.39206,"is_reserved":false,"is_disabled":false,"rental_uris":{"android":"levelo://app?vid=0eaef082-ef9d-4221-9208-c5dee654bdae","ios":"levelo://app?vid=0eaef082-ef9d-4221-9208-c5dee654bdae"},"vehicle_type_id":"4","last_reported":1726931333,"current_range_meters":24400,"station_id":"ce4bhoh2rcd13ifvqh5g","pricing_plan_id":"cebpf4jnsgd1na2vs0mg"},{"bike_id":"edfb1ff5-b81b-4225-8da9-100a9115b1e3","system_id":"levelo_inurba_marseille","lat":43.29735,"lon":5.36561,"is_reserved":false,"is_disabled":false,"rental_uris":{"android":"levelo://app?vid=edfb1ff5-b81b-4225-8da9-100a9115b1e3","ios":"levelo://app?vid=edfb1ff5-b81b-4225-8da9-100a9115b1e3"},"vehicle_type_id":"4","last_reported":1726931333,"current_range_meters":8000,"station_id":"","pricing_plan_id":"cebpf4jnsgd1na2vs0mg"},{"bike_id":"da7df92a-9841-4fff-97b9-a0288984a3f4","system_id":"levelo_inurba_marseille","lat":43.28943,"lon":5.36641,"is_reserved":false,"is_disabled":false,"rental_uris":{"android":"levelo://app?vid=da7df92a-9841-4fff-97b9-a0288984a3f4","ios":"levelo://app?vid=da7df92a-9841-4fff-97b9-a0288984a3f4"},"vehicle_type_id":"4","last_reported":1726931333,"current_range_meters":27200,"station_id":"ce4bhap2rcd13ifvqek0","pricing_plan_id":"cebpf4jnsgd1na2vs0mg"},{"bike_id":"ce61d7bb-c34a-442a-8d18-5688950ba79a","system_id":"levelo_inurba_marseille","lat":43.27616,"lon":5.36112,"is_reserved":false,"is_disabled":false,"rental_uris":{"android":"levelo://app?vid=ce61d7bb-c34a-442a-8d18-5688950ba79a","ios":"levelo://app?vid=ce61d7bb-c34a-442a-8d18-5688950ba79a"},"vehicle_type_id":"4","last_reported":1726931333,"current_range_meters":37600,"station_id":"ce4bgj92rcd13ifvqbe0","pricing_plan_id":"cebpf4jnsgd1na2vs0mg"},{"bike_id":"bd6456aa-7882-4ecb-b6d6-c1e08b9e8174","system_id":"levelo_inurba_marseille","lat":43.25577,"lon":5.38235,"is_reserved":false,"is_disabled":false,"rental_uris":{"android":"levelo://app?vid=bd6456aa-7882-4ecb-b6d6-c1e08b9e8174","ios":"levelo://app?vid=bd6456aa-7882-4ecb-b6d6-c1e08b9e8174"},"vehicle_type_id":"4","last_reported":1726931333,"current_range_meters":25600,"station_id":"ce4bhih2rcd13ifvqfs0","pricing_plan_id":"cebpf4jnsgd1na2vs0mg"},{"bike_id":"af8bbe16-1b49-4d87-a8cd-bae30dcb31f0","system_id":"levelo_inurba_marseille","lat":43.23962,"lon":5.36638,"is_reserved":false,"is_disabled":false,"rental_uris":{"android":"levelo://app?vid=af8bbe16-1b49-4d87-a8cd-bae30dcb31f0","ios":"levelo://app?vid=af8bbe16-1b49-4d87-a8cd-bae30dcb31f0"},"vehicle_type_id":"4","last_reported":1726931333,"current_range_meters":13600,"station_id":"ce4bhi12rcd13ifvqfp0","pricing_plan_id":"cebpf4jnsgd1na2vs0mg"},{"bike_id":"97330416-8313-455e-8741-6084c645ff0e","system_id":"levelo_inurba_marseille","lat":43.262123,"lon":5.374408,"is_reserved":false,"is_disabled":false,"rental_uris":{"android":"levelo://app?vid=97330416-8313-455e-8741-6084c645ff0e","ios":"levelo://app?vid=97330416-8313-455e-8741-6084c645ff0e"},"vehicle_type_id":"4","last_reported":1726931333,"current_range_meters":4800,"station_id":"ce4bhgp2rcd13ifvqfc0","pricing_plan_id":"cebpf4jnsgd1na2vs0mg"},{"bike_id":"b468ee1a-027c-496f-b461-b4cfb17afd44","system_id":"levelo_inurba_marseille","lat":43.286109,"lon":5.351001,"is_reserved":false,"is_disabled":false,"rental_uris":{"android":"levelo://app?vid=b468ee1a-027c-496f-b461-b4cfb17afd44","ios":"levelo://app?vid=b468ee1a-027c-496f-b461-b4cfb17afd44"},"vehicle_type_id":"4","last_reported":1726931333,"current_range_meters":38400,"station_id":"ce4bhch2rcd13ifvqeug","pricing_plan_id":"cebpf4jnsgd1na2vs0mg"},{"bike_id":"23972f11-8b87-4ebc-98d0-caed5b624bda","system_id":"levelo_inurba_marseille","lat":43.30191,"lon":5.36603,"is_reserved":false,"is_disabled":false,"rental_uris":{"android":"levelo://app?vid=23972f11-8b87-4ebc-98d0-caed5b624bda","ios":"levelo://app?vid=23972f11-8b87-4ebc-98d0-caed5b624bda"},"vehicle_type_id":"4","last_reported":1726931333,"current_range_meters":9200,"station_id":"ce4bgrh2rcd13ifvqc8g","pricing_plan_id":"cebpf4jnsgd1na2vs0mg"},{"bike_id":"f7ad2e7a-a575-4361-994a-0ff95a85d018","system_id":"levelo_inurba_marseille","lat":43.30642,"lon":5.37188,"is_reserved":false,"is_disabled":false,"rental_uris":{"android":"levelo://app?vid=f7ad2e7a-a575-4361-994a-0ff95a85d018","ios":"levelo://app?vid=f7ad2e7a-a575-4361-994a-0ff95a85d018"},"vehicle_type_id":"4","last_reported":1726931333,"current_range_meters":38800,"station_id":"ce4bgqh2rcd13ifvqc4g","pricing_plan_id":"cebpf4jnsgd1na2vs0mg"},{"bike_id":"5a906720-3d1e-4fcf-80e0-d3d05a7e7f77","system_id":"levelo_inurba_marseille","lat":43.31714,"lon":5.43709,"is_reserved":false,"is_disabled":false,"rental_uris":{"android":"levelo://app?vid=5a906720-3d1e-4fcf-80e0-d3d05a7e7f77","ios":"levelo://app?vid=5a906720-3d1e-4fcf-80e0-d3d05a7e7f77"},"vehicle_type_id":"4","last_reported":1726931333,"current_range_meters":6400,"station_id":"ce4bhp92rcd13ifvqhcg","pricing_plan_id":"cebpf4jnsgd1na2vs0mg"},{"bike_id":"2367c2f2-23d9-46ff-a26a-8fc2503b4c53","system_id":"levelo_inurba_marseille","lat":43.27905,"lon":5.38013,"is_reserved":false,"is_disabled":false,"rental_uris":{"android":"levelo://app?vid=2367c2f2-23d9-46ff-a26a-8fc2503b4c53","ios":"levelo://app?vid=2367c2f2-23d9-46ff-a26a-8fc2503b4c53"},"vehicle_type_id":"4","last_reported":1726931333,"current_range_meters":38800,"station_id":"ce4bhf92rcd13ifvqf50","pricing_plan_id":"cebpf4jnsgd1na2vs0mg"},{"bike_id":"041bbe10-cb23-4faa-832a-4b87adc0d468","system_id":"levelo_inurba_marseille","lat":43.31282,"lon":5.40171,"is_reserved":false,"is_disabled":false,"rental_uris":{"android":"levelo://app?vid=041bbe10-cb23-4faa-832a-4b87adc0d468","ios":"levelo://app?vid=041bbe10-cb23-4faa-832a-4b87adc0d468"},"vehicle_type_id":"4","last_reported":1726931333,"current_range_meters":16400,"station_id":"ce4bh092rcd13ifvqd30","pricing_plan_id":"cebpf4jnsgd1na2vs0mg"},{"bike_id":"fff77a8f-a9c6-4fe7-8a78-4793301b5ec6","system_id":"levelo_inurba_marseille","lat":43.30189,"lon":5.36608,"is_reserved":false,"is_disabled":false,"rental_uris":{"android":"levelo://app?vid=fff77a8f-a9c6-4fe7-8a78-4793301b5ec6","ios":"levelo://app?vid=fff77a8f-a9c6-4fe7-8a78-4793301b5ec6"},"vehicle_type_id":"4","last_reported":1726931333,"current_range_meters":26000,"station_id":"ce4bgrh2rcd13ifvqc8g","pricing_plan_id":"cebpf4jnsgd1na2vs0mg"},{"bike_id":"8bd73247-3d9a-4cf7-86dd-1b93d416c8ea","system_id":"levelo_inurba_marseille","lat":43.27073,"lon":5.42282,"is_reserved":false,"is_disabled":false,"rental_uris":{"android":"levelo://app?vid=8bd73247-3d9a-4cf7-86dd-1b93d416c8ea","ios":"levelo://app?vid=8bd73247-3d9a-4cf7-86dd-1b93d416c8ea"},"vehicle_type_id":"4","last_reported":1726931333,"current_range_meters":37600,"station_id":"ce4bhk92rcd13ifvqgb0","pricing_plan_id":"cebpf4jnsgd1na2vs0mg"},{"bike_id":"386d7d39-d9a0-4f2f-9dfa-7b382234f940","system_id":"levelo_inurba_marseille","lat":43.23197,"lon":5.35559,"is_reserved":false,"is_disabled":false,"rental_uris":{"android":"levelo://app?vid=386d7d39-d9a0-4f2f-9dfa-7b382234f940","ios":"levelo://app?vid=386d7d39-d9a0-4f2f-9dfa-7b382234f940"},"vehicle_type_id":"4","last_reported":1726931333,"current_range_meters":20000,"station_id":"ce4bhu92rcd13ifvqi70","pricing_plan_id":"cebpf4jnsgd1na2vs0mg"},{"bike_id":"5419b1bf-d37c-4076-a34c-52ede101758e","system_id":"levelo_inurba_marseille","lat":43.337444,"lon":5.374475,"is_reserved":false,"is_disabled":false,"rental_uris":{"android":"levelo://app?vid=5419b1bf-d37c-4076-a34c-52ede101758e","ios":"levelo://app?vid=5419b1bf-d37c-4076-a34c-52ede101758e"},"vehicle_type_id":"4","last_reported":1726931333,"current_range_meters":32400,"station_id":"","pricing_plan_id":"cebpf4jnsgd1na2vs0mg"},{"bike_id":"da9dd67c-abc2-4859-b89e-c27139de6bb9","system_id":"levelo_inurba_marseille","lat":43.27374,"lon":5.36251,"is_reserved":false,"is_disabled":false,"rental_uris":{"android":"levelo://app?vid=da9dd67c-abc2-4859-b89e-c27139de6bb9","ios":"levelo://app?vid=da9dd67c-abc2-4859-b89e-c27139de6bb9"},"vehicle_type_id":"4","last_reported":1726931333,"current_range_meters":24000,"station_id":"ce4bhbh2rcd13ifvqeo0","pricing_plan_id":"cebpf4jnsgd1na2vs0mg"},{"bike_id":"96ca8804-9dbb-4ab7-933d-74ff8c93cf35","system_id":"levelo_inurba_marseille","lat":43.279114,"lon":5.380156,"is_reserved":false,"is_disabled":false,"rental_uris":{"android":"levelo://app?vid=96ca8804-9dbb-4ab7-933d-74ff8c93cf35","ios":"levelo://app?vid=96ca8804-9dbb-4ab7-933d-74ff8c93cf35"},"vehicle_type_id":"4","last_reported":1726931333,"current_range_meters":35600,"station_id":"ce4bhf92rcd13ifvqf50","pricing_plan_id":"cebpf4jnsgd1na2vs0mg"},{"bike_id":"953c5b11-6943-4797-927c-b0fa9e5f690a","system_id":"levelo_inurba_marseille","lat":43.25933,"lon":5.40916,"is_reserved":false,"is_disabled":false,"rental_uris":{"android":"levelo://app?vid=953c5b11-6943-4797-927c-b0fa9e5f690a","ios":"levelo://app?vid=953c5b11-6943-4797-927c-b0fa9e5f690a"},"vehicle_type_id":"4","last_reported":1726931333,"current_range_meters":20000,"station_id":"ce4bhm92rcd13ifvqglg","pricing_plan_id":"cebpf4jnsgd1na2vs0mg"},{"bike_id":"2ffb0845-df77-40dd-9343-1dc0810c2d8e","system_id":"levelo_inurba_marseille","lat":43.31712,"lon":5.37743,"is_reserved":false,"is_disabled":false,"rental_uris":{"android":"levelo://app?vid=2ffb0845-df77-40dd-9343-1dc0810c2d8e","ios":"levelo://app?vid=2ffb0845-df77-40dd-9343-1dc0810c2d8e"},"vehicle_type_id":"4","last_reported":1726931333,"current_range_meters":18000,"station_id":"ce4bgth2rcd13ifvqch0","pricing_plan_id":"cebpf4jnsgd1na2vs0mg"},{"bike_id":"1027ff11-3e18-4cfb-8e9a-da3a9435b07b","system_id":"levelo_inurba_marseille","lat":43.30936,"lon":5.40143,"is_reserved":false,"is_disabled":false,"rental_uris":{"android":"levelo://app?vid=1027ff11-3e18-4cfb-8e9a-da3a9435b07b","ios":"levelo://app?vid=1027ff11-3e18-4cfb-8e9a-da3a9435b07b"},"vehicle_type_id":"4","last_reported":1726931333,"current_range_meters":6800,"station_id":"ce4bgvp2rcd13ifvqct0","pricing_plan_id":"cebpf4jnsgd1na2vs0mg"},{"bike_id":"9b8550a5-ba3c-452e-98fa-864d659b5d88","system_id":"levelo_inurba_marseille","lat":43.26213,"lon":5.37443,"is_reserved":false,"is_disabled":false,"rental_uris":{"android":"levelo://app?vid=9b8550a5-ba3c-452e-98fa-864d659b5d88","ios":"levelo://app?vid=9b8550a5-ba3c-452e-98fa-864d659b5d88"},"vehicle_type_id":"4","last_reported":1726931333,"current_range_meters":30400,"station_id":"ce4bhgp2rcd13ifvqfc0","pricing_plan_id":"cebpf4jnsgd1na2vs0mg"},{"bike_id":"6e2fd8fb-799c-468d-a60b-38d2bf81aa37","system_id":"levelo_inurba_marseille","lat":43.23955,"lon":5.36629,"is_reserved":false,"is_disabled":false,"rental_uris":{"android":"levelo://app?vid=6e2fd8fb-799c-468d-a60b-38d2bf81aa37","ios":"levelo://app?vid=6e2fd8fb-799c-468d-a60b-38d2bf81aa37"},"vehicle_type_id":"4","last_reported":1726931333,"current_range_meters":38800,"station_id":"ce4bhi12rcd13ifvqfp0","pricing_plan_id":"cebpf4jnsgd1na2vs0mg"},{"bike_id":"7ccc499f-63f1-4a72-b7c8-4b3b2437d268","system_id":"levelo_inurba_marseille","lat":43.25005,"lon":5.38916,"is_reserved":false,"is_disabled":false,"rental_uris":{"android":"levelo://app?vid=7ccc499f-63f1-4a72-b7c8-4b3b2437d268","ios":"levelo://app?vid=7ccc499f-63f1-4a72-b7c8-4b3b2437d268"},"vehicle_type_id":"4","last_reported":1726931333,"current_range_meters":27600,"station_id":"ce4bhgp2rcd13ifvqfd0","pricing_plan_id":"cebpf4jnsgd1na2vs0mg"},{"bike_id":"f7b75827-bfbc-4df4-b0c8-739b09895720","system_id":"levelo_inurba_marseille","lat":43.26203,"lon":5.3793,"is_reserved":false,"is_disabled":false,"rental_uris":{"android":"levelo://app?vid=f7b75827-bfbc-4df4-b0c8-739b09895720","ios":"levelo://app?vid=f7b75827-bfbc-4df4-b0c8-739b09895720"},"vehicle_type_id":"4","last_reported":1726931333,"current_range_meters":8000,"station_id":"ce4bhjp2rcd13ifvqg90","pricing_plan_id":"cebpf4jnsgd1na2vs0mg"},{"bike_id":"df476563-0e19-4936-a96a-d073dae507b7","system_id":"levelo_inurba_marseille","lat":43.279999,"lon":5.400018,"is_reserved":false,"is_disabled":false,"rental_uris":{"android":"levelo://app?vid=df476563-0e19-4936-a96a-d073dae507b7","ios":"levelo://app?vid=df476563-0e19-4936-a96a-d073dae507b7"},"vehicle_type_id":"4","last_reported":1726931333,"current_range_meters":36800,"station_id":"ce4bho92rcd13ifvqh4g","pricing_plan_id":"cebpf4jnsgd1na2vs0mg"},{"bike_id":"170b5b88-1e91-465c-a5a6-dd6eb3f862ce","system_id":"levelo_inurba_marseille","lat":43.27369,"lon":5.36252,"is_reserved":false,"is_disabled":false,"rental_uris":{"android":"levelo://app?vid=170b5b88-1e91-465c-a5a6-dd6eb3f862ce","ios":"levelo://app?vid=170b5b88-1e91-465c-a5a6-dd6eb3f862ce"},"vehicle_type_id":"4","last_reported":1726931333,"current_range_meters":38800,"station_id":"ce4bhbh2rcd13ifvqeo0","pricing_plan_id":"cebpf4jnsgd1na2vs0mg"},{"bike_id":"aed1b973-7d5f-49bd-829b-a03f39495b53","system_id":"levelo_inurba_marseille","lat":43.30898,"lon":5.37193,"is_reserved":false,"is_disabled":false,"rental_uris":{"android":"levelo://app?vid=aed1b973-7d5f-49bd-829b-a03f39495b53","ios":"levelo://app?vid=aed1b973-7d5f-49bd-829b-a03f39495b53"},"vehicle_type_id":"4","last_reported":1726931333,"current_range_meters":22800,"station_id":"ce4bguh2rcd13ifvqckg","pricing_plan_id":"cebpf4jnsgd1na2vs0mg"},{"bike_id":"149779fc-bc45-458a-857f-33707eedaf6a","system_id":"levelo_inurba_marseille","lat":43.23195,"lon":5.35547,"is_reserved":false,"is_disabled":false,"rental_uris":{"android":"levelo://app?vid=149779fc-bc45-458a-857f-33707eedaf6a","ios":"levelo://app?vid=149779fc-bc45-458a-857f-33707eedaf6a"},"vehicle_type_id":"4","last_reported":1726931333,"current_range_meters":20000,"station_id":"ce4bhu92rcd13ifvqi70","pricing_plan_id":"cebpf4jnsgd1na2vs0mg"},{"bike_id":"153f45ce-432f-473b-a68b-e72dfdf83a63","system_id":"levelo_inurba_marseille","lat":43.26215,"lon":5.37441,"is_reserved":false,"is_disabled":false,"rental_uris":{"android":"levelo://app?vid=153f45ce-432f-473b-a68b-e72dfdf83a63","ios":"levelo://app?vid=153f45ce-432f-473b-a68b-e72dfdf83a63"},"vehicle_type_id":"4","last_reported":1726931333,"current_range_meters":38000,"station_id":"ce4bhgp2rcd13ifvqfc0","pricing_plan_id":"cebpf4jnsgd1na2vs0mg"},{"bike_id":"9bc9d4bf-bc37-4a3b-9f19-c0cf17b71a21","system_id":"levelo_inurba_marseille","lat":43.2693,"lon":5.38918,"is_reserved":false,"is_disabled":false,"rental_uris":{"android":"levelo://app?vid=9bc9d4bf-bc37-4a3b-9f19-c0cf17b71a21","ios":"levelo://app?vid=9bc9d4bf-bc37-4a3b-9f19-c0cf17b71a21"},"vehicle_type_id":"4","last_reported":1726931333,"current_range_meters":11600,"station_id":"ce4bhhh2rcd13ifvqfl0","pricing_plan_id":"cebpf4jnsgd1na2vs0mg"},{"bike_id":"1ed4e0c7-d3f8-4751-a217-b53cf45cffb8","system_id":"levelo_inurba_marseille","lat":43.2827,"lon":5.35064,"is_reserved":false,"is_disabled":false,"rental_uris":{"android":"levelo://app?vid=1ed4e0c7-d3f8-4751-a217-b53cf45cffb8","ios":"levelo://app?vid=1ed4e0c7-d3f8-4751-a217-b53cf45cffb8"},"vehicle_type_id":"4","last_reported":1726931333,"current_range_meters":3200,"station_id":"ce4bhbp2rcd13ifvqerg","pricing_plan_id":"cebpf4jnsgd1na2vs0mg"},{"bike_id":"8ac7670c-0fae-49ed-acc7-8551ffe208ee","system_id":"levelo_inurba_marseille","lat":43.308819,"lon":5.396342,"is_reserved":false,"is_disabled":false,"rental_uris":{"android":"levelo://app?vid=8ac7670c-0fae-49ed-acc7-8551ffe208ee","ios":"levelo://app?vid=8ac7670c-0fae-49ed-acc7-8551ffe208ee"},"vehicle_type_id":"4","last_reported":1726931333,"current_range_meters":8400,"station_id":"ce4bh012rcd13ifvqcv0","pricing_plan_id":"cebpf4jnsgd1na2vs0mg"},{"bike_id":"506ffb93-f34a-49aa-8c9c-9b095a96f3f4","system_id":"levelo_inurba_marseille","lat":43.27372,"lon":5.36255,"is_reserved":false,"is_disabled":false,"rental_uris":{"android":"levelo://app?vid=506ffb93-f34a-49aa-8c9c-9b095a96f3f4","ios":"levelo://app?vid=506ffb93-f34a-49aa-8c9c-9b095a96f3f4"},"vehicle_type_id":"4","last_reported":1726931333,"current_range_meters":38000,"station_id":"ce4bhbh2rcd13ifvqeo0","pricing_plan_id":"cebpf4jnsgd1na2vs0mg"},{"bike_id":"3b708282-a859-425d-8712-512e529fc471","system_id":"levelo_inurba_marseille","lat":43.29789,"lon":5.371,"is_reserved":false,"is_disabled":false,"rental_uris":{"android":"levelo://app?vid=3b708282-a859-425d-8712-512e529fc471","ios":"levelo://app?vid=3b708282-a859-425d-8712-512e529fc471"},"vehicle_type_id":"4","last_reported":1726931333,"current_range_meters":14000,"station_id":"ce4bgop2rcd13ifvqc1g","pricing_plan_id":"cebpf4jnsgd1na2vs0mg"},{"bike_id":"d009c466-3119-4655-8251-0bfc3ab9372f","system_id":"levelo_inurba_marseille","lat":43.31224,"lon":5.36875,"is_reserved":false,"is_disabled":false,"rental_uris":{"android":"levelo://app?vid=d009c466-3119-4655-8251-0bfc3ab9372f","ios":"levelo://app?vid=d009c466-3119-4655-8251-0bfc3ab9372f"},"vehicle_type_id":"4","last_reported":1726931333,"current_range_meters":37600,"station_id":"ce4bgl92rcd13ifvqbq0","pricing_plan_id":"cebpf4jnsgd1na2vs0mg"},{"bike_id":"b5e46c21-64ab-4665-8f6a-3b9f93c0544f","system_id":"levelo_inurba_marseille","lat":43.274368,"lon":5.394269,"is_reserved":false,"is_disabled":false,"rental_uris":{"android":"levelo://app?vid=b5e46c21-64ab-4665-8f6a-3b9f93c0544f","ios":"levelo://app?vid=b5e46c21-64ab-4665-8f6a-3b9f93c0544f"},"vehicle_type_id":"4","last_reported":1726931333,"current_range_meters":3200,"station_id":"ce4bhdp2rcd13ifvqf20","pricing_plan_id":"cebpf4jnsgd1na2vs0mg"},{"bike_id":"604c9531-be4f-4974-bfe2-bd7828d7386f","system_id":"levelo_inurba_marseille","lat":43.29897,"lon":5.43673,"is_reserved":false,"is_disabled":false,"rental_uris":{"android":"levelo://app?vid=604c9531-be4f-4974-bfe2-bd7828d7386f","ios":"levelo://app?vid=604c9531-be4f-4974-bfe2-bd7828d7386f"},"vehicle_type_id":"4","last_reported":1726931333,"current_range_meters":23200,"station_id":"ce4bhpp2rcd13ifvqhfg","pricing_plan_id":"cebpf4jnsgd1na2vs0mg"},{"bike_id":"7183ba03-f885-42cb-bfab-beb48654f769","system_id":"levelo_inurba_marseille","lat":43.30462,"lon":5.40772,"is_reserved":false,"is_disabled":false,"rental_uris":{"android":"levelo://app?vid=7183ba03-f885-42cb-bfab-beb48654f769","ios":"levelo://app?vid=7183ba03-f885-42cb-bfab-beb48654f769"},"vehicle_type_id":"4","last_reported":1726931333,"current_range_meters":3600,"station_id":"","pricing_plan_id":"cebpf4jnsgd1na2vs0mg"},{"bike_id":"542e4041-6f8e-44e8-8766-5c2c89ed8497","system_id":"levelo_inurba_marseille","lat":43.307485,"lon":5.382124,"is_reserved":false,"is_disabled":false,"rental_uris":{"android":"levelo://app?vid=542e4041-6f8e-44e8-8766-5c2c89ed8497","ios":"levelo://app?vid=542e4041-6f8e-44e8-8766-5c2c89ed8497"},"vehicle_type_id":"4","last_reported":1726931333,"current_range_meters":26800,"station_id":"ce4bgt12rcd13ifvqce0","pricing_plan_id":"cebpf4jnsgd1na2vs0mg"},{"bike_id":"e9f714fa-1d05-42df-9ecd-4171744ee136","system_id":"levelo_inurba_marseille","lat":43.28412,"lon":5.34986,"is_reserved":false,"is_disabled":false,"rental_uris":{"android":"levelo://app?vid=e9f714fa-1d05-42df-9ecd-4171744ee136","ios":"levelo://app?vid=e9f714fa-1d05-42df-9ecd-4171744ee136"},"vehicle_type_id":"4","last_reported":1726931333,"current_range_meters":31200,"station_id":"ce4bhbh2rcd13ifvqepg","pricing_plan_id":"cebpf4jnsgd1na2vs0mg"},{"bike_id":"d414398a-c2f5-4147-98fd-421b864558c6","system_id":"levelo_inurba_marseille","lat":43.23964,"lon":5.36624,"is_reserved":false,"is_disabled":false,"rental_uris":{"android":"levelo://app?vid=d414398a-c2f5-4147-98fd-421b864558c6","ios":"levelo://app?vid=d414398a-c2f5-4147-98fd-421b864558c6"},"vehicle_type_id":"4","last_reported":1726931333,"current_range_meters":17600,"station_id":"ce4bhi12rcd13ifvqfp0","pricing_plan_id":"cebpf4jnsgd1na2vs0mg"},{"bike_id":"7b151381-96e1-44a0-b5df-96f067496c60","system_id":"levelo_inurba_marseille","lat":43.30545,"lon":5.36519,"is_reserved":false,"is_disabled":false,"rental_uris":{"android":"levelo://app?vid=7b151381-96e1-44a0-b5df-96f067496c60","ios":"levelo://app?vid=7b151381-96e1-44a0-b5df-96f067496c60"},"vehicle_type_id":"4","last_reported":1726931333,"current_range_meters":38800,"station_id":"ce4bgs12rcd13ifvqcag","pricing_plan_id":"cebpf4jnsgd1na2vs0mg"},{"bike_id":"a8d42cf3-65fd-4e73-93d7-47142c435399","system_id":"levelo_inurba_marseille","lat":43.34387,"lon":5.40841,"is_reserved":false,"is_disabled":false,"rental_uris":{"android":"levelo://app?vid=a8d42cf3-65fd-4e73-93d7-47142c435399","ios":"levelo://app?vid=a8d42cf3-65fd-4e73-93d7-47142c435399"},"vehicle_type_id":"4","last_reported":1726931333,"current_range_meters":26000,"station_id":"","pricing_plan_id":"cebpf4jnsgd1na2vs0mg"},{"bike_id":"7b5d35fc-e4a6-40bc-a5c7-9c6b1f86fb5f","system_id":"levelo_inurba_marseille","lat":43.29785,"lon":5.371026,"is_reserved":false,"is_disabled":false,"rental_uris":{"android":"levelo://app?vid=7b5d35fc-e4a6-40bc-a5c7-9c6b1f86fb5f","ios":"levelo://app?vid=7b5d35fc-e4a6-40bc-a5c7-9c6b1f86fb5f"},"vehicle_type_id":"4","last_reported":1726931333,"current_range_meters":3200,"station_id":"ce4bgop2rcd13ifvqc1g","pricing_plan_id":"cebpf4jnsgd1na2vs0mg"},{"bike_id":"cb34e831-3508-461b-986b-ad2cd483725e","system_id":"levelo_inurba_marseille","lat":43.290325,"lon":5.386456,"is_reserved":false,"is_disabled":false,"rental_uris":{"android":"levelo://app?vid=cb34e831-3508-461b-986b-ad2cd483725e","ios":"levelo://app?vid=cb34e831-3508-461b-986b-ad2cd483725e"},"vehicle_type_id":"4","last_reported":1726931333,"current_range_meters":18000,"station_id":"ce4bgh92rcd13ifvqb40","pricing_plan_id":"cebpf4jnsgd1na2vs0mg"},{"bike_id":"098e7db8-9fb9-4914-96c6-6e99c4b98a81","system_id":"levelo_inurba_marseille","lat":43.26802,"lon":5.40267,"is_reserved":false,"is_disabled":false,"rental_uris":{"android":"levelo://app?vid=098e7db8-9fb9-4914-96c6-6e99c4b98a81","ios":"levelo://app?vid=098e7db8-9fb9-4914-96c6-6e99c4b98a81"},"vehicle_type_id":"4","last_reported":1726931333,"current_range_meters":24800,"station_id":"ce501612rcd8frsf0b60","pricing_plan_id":"cebpf4jnsgd1na2vs0mg"},{"bike_id":"b9bc8e46-1f4f-4b5c-85c3-fd0de20c06b6","system_id":"levelo_inurba_marseille","lat":43.309497,"lon":5.390309,"is_reserved":false,"is_disabled":false,"rental_uris":{"android":"levelo://app?vid=b9bc8e46-1f4f-4b5c-85c3-fd0de20c06b6","ios":"levelo://app?vid=b9bc8e46-1f4f-4b5c-85c3-fd0de20c06b6"},"vehicle_type_id":"4","last_reported":1726931333,"current_range_meters":20800,"station_id":"ce4bgup2rcd13ifvqco0","pricing_plan_id":"cebpf4jnsgd1na2vs0mg"},{"bike_id":"3f850b93-db9b-4d00-8a4d-d90e7297a704","system_id":"levelo_inurba_marseille","lat":43.30546,"lon":5.36541,"is_reserved":false,"is_disabled":false,"rental_uris":{"android":"levelo://app?vid=3f850b93-db9b-4d00-8a4d-d90e7297a704","ios":"levelo://app?vid=3f850b93-db9b-4d00-8a4d-d90e7297a704"},"vehicle_type_id":"4","last_reported":1726931333,"current_range_meters":2000,"station_id":"ce4bgs12rcd13ifvqcag","pricing_plan_id":"cebpf4jnsgd1na2vs0mg"},{"bike_id":"7b7cf89d-5325-4d4a-8061-5cf0c5bab16f","system_id":"levelo_inurba_marseille","lat":43.26192,"lon":5.37451,"is_reserved":false,"is_disabled":false,"rental_uris":{"android":"levelo://app?vid=7b7cf89d-5325-4d4a-8061-5cf0c5bab16f","ios":"levelo://app?vid=7b7cf89d-5325-4d4a-8061-5cf0c5bab16f"},"vehicle_type_id":"4","last_reported":1726931333,"current_range_meters":30800,"station_id":"","pricing_plan_id":"cebpf4jnsgd1na2vs0mg"},{"bike_id":"e59912e5-f85b-4b7c-8668-5c2a7f0c780f","system_id":"levelo_inurba_marseille","lat":43.310563,"lon":5.368663,"is_reserved":false,"is_disabled":false,"rental_uris":{"android":"levelo://app?vid=e59912e5-f85b-4b7c-8668-5c2a7f0c780f","ios":"levelo://app?vid=e59912e5-f85b-4b7c-8668-5c2a7f0c780f"},"vehicle_type_id":"4","last_reported":1726931333,"current_range_meters":32800,"station_id":"ce4bgn92rcd13ifvqbvg","pricing_plan_id":"cebpf4jnsgd1na2vs0mg"},{"bike_id":"fe02eabb-a2b4-4ea9-918d-8498504a82a3","system_id":"levelo_inurba_marseille","lat":43.26197,"lon":5.37455,"is_reserved":false,"is_disabled":false,"rental_uris":{"android":"levelo://app?vid=fe02eabb-a2b4-4ea9-918d-8498504a82a3","ios":"levelo://app?vid=fe02eabb-a2b4-4ea9-918d-8498504a82a3"},"vehicle_type_id":"4","last_reported":1726931333,"current_range_meters":12800,"station_id":"ce4bhgp2rcd13ifvqfc0","pricing_plan_id":"cebpf4jnsgd1na2vs0mg"},{"bike_id":"8804b823-ebc4-45df-afec-bc90acecfd39","system_id":"levelo_inurba_marseille","lat":43.32538,"lon":5.41422,"is_reserved":false,"is_disabled":false,"rental_uris":{"android":"levelo://app?vid=8804b823-ebc4-45df-afec-bc90acecfd39","ios":"levelo://app?vid=8804b823-ebc4-45df-afec-bc90acecfd39"},"vehicle_type_id":"4","last_reported":1726931333,"current_range_meters":10800,"station_id":"ce4bhq12rcd13ifvqhhg","pricing_plan_id":"cebpf4jnsgd1na2vs0mg"},{"bike_id":"afaab830-46a4-4c2c-9890-6708827d00b5","system_id":"levelo_inurba_marseille","lat":43.28416,"lon":5.34979,"is_reserved":false,"is_disabled":false,"rental_uris":{"android":"levelo://app?vid=afaab830-46a4-4c2c-9890-6708827d00b5","ios":"levelo://app?vid=afaab830-46a4-4c2c-9890-6708827d00b5"},"vehicle_type_id":"4","last_reported":1726931333,"current_range_meters":24400,"station_id":"ce4bhbh2rcd13ifvqepg","pricing_plan_id":"cebpf4jnsgd1na2vs0mg"},{"bike_id":"ec36355b-dfd4-4ae0-afa5-be75d5d82a02","system_id":"levelo_inurba_marseille","lat":43.24666,"lon":5.38164,"is_reserved":false,"is_disabled":false,"rental_uris":{"android":"levelo://app?vid=ec36355b-dfd4-4ae0-afa5-be75d5d82a02","ios":"levelo://app?vid=ec36355b-dfd4-4ae0-afa5-be75d5d82a02"},"vehicle_type_id":"4","last_reported":1726931333,"current_range_meters":3200,"station_id":"ce4bhih2rcd13ifvqfr0","pricing_plan_id":"cebpf4jnsgd1na2vs0mg"},{"bike_id":"c924ca52-a1e2-4644-b4a3-921f8e4a6962","system_id":"levelo_inurba_marseille","lat":43.254905,"lon":5.374162,"is_reserved":false,"is_disabled":false,"rental_uris":{"android":"levelo://app?vid=c924ca52-a1e2-4644-b4a3-921f8e4a6962","ios":"levelo://app?vid=c924ca52-a1e2-4644-b4a3-921f8e4a6962"},"vehicle_type_id":"4","last_reported":1726931333,"current_range_meters":4000,"station_id":"","pricing_plan_id":"cebpf4jnsgd1na2vs0mg"},{"bike_id":"146ac5f2-7c1e-46d5-9347-54e9005d3585","system_id":"levelo_inurba_marseille","lat":43.26938,"lon":5.40249,"is_reserved":false,"is_disabled":false,"rental_uris":{"android":"levelo://app?vid=146ac5f2-7c1e-46d5-9347-54e9005d3585","ios":"levelo://app?vid=146ac5f2-7c1e-46d5-9347-54e9005d3585"},"vehicle_type_id":"4","last_reported":1726931333,"current_range_meters":39200,"station_id":"cjm6bp8fraef2m0cb0m0","pricing_plan_id":"cebpf4jnsgd1na2vs0mg"},{"bike_id":"7b9dd459-340b-4978-bfb0-6c163a5263e8","system_id":"levelo_inurba_marseille","lat":43.23189,"lon":5.35543,"is_reserved":false,"is_disabled":false,"rental_uris":{"android":"levelo://app?vid=7b9dd459-340b-4978-bfb0-6c163a5263e8","ios":"levelo://app?vid=7b9dd459-340b-4978-bfb0-6c163a5263e8"},"vehicle_type_id":"4","last_reported":1726931333,"current_range_meters":38800,"station_id":"ce4bhu92rcd13ifvqi70","pricing_plan_id":"cebpf4jnsgd1na2vs0mg"},{"bike_id":"36becd8b-dd34-47e7-b3dc-d35fe69a36ae","system_id":"levelo_inurba_marseille","lat":43.30538,"lon":5.36536,"is_reserved":false,"is_disabled":false,"rental_uris":{"android":"levelo://app?vid=36becd8b-dd34-47e7-b3dc-d35fe69a36ae","ios":"levelo://app?vid=36becd8b-dd34-47e7-b3dc-d35fe69a36ae"},"vehicle_type_id":"4","last_reported":1726931333,"current_range_meters":18000,"station_id":"ce4bgs12rcd13ifvqcag","pricing_plan_id":"cebpf4jnsgd1na2vs0mg"},{"bike_id":"6bf068ce-e802-4172-a483-455bc5daa48d","system_id":"levelo_inurba_marseille","lat":43.29422,"lon":5.38624,"is_reserved":false,"is_disabled":false,"rental_uris":{"android":"levelo://app?vid=6bf068ce-e802-4172-a483-455bc5daa48d","ios":"levelo://app?vid=6bf068ce-e802-4172-a483-455bc5daa48d"},"vehicle_type_id":"4","last_reported":1726931333,"current_range_meters":4800,"station_id":"ce4bh2h2rcd13ifvqdh0","pricing_plan_id":"cebpf4jnsgd1na2vs0mg"},{"bike_id":"c86e62fb-e37f-42ae-8b49-a8c4c7d0e0d8","system_id":"levelo_inurba_marseille","lat":43.33781,"lon":5.37437,"is_reserved":false,"is_disabled":false,"rental_uris":{"android":"levelo://app?vid=c86e62fb-e37f-42ae-8b49-a8c4c7d0e0d8","ios":"levelo://app?vid=c86e62fb-e37f-42ae-8b49-a8c4c7d0e0d8"},"vehicle_type_id":"4","last_reported":1726931333,"current_range_meters":33600,"station_id":"","pricing_plan_id":"cebpf4jnsgd1na2vs0mg"},{"bike_id":"7b838af5-fb46-4844-a9f5-9a622a0326a3","system_id":"levelo_inurba_marseille","lat":43.31362,"lon":5.36695,"is_reserved":false,"is_disabled":false,"rental_uris":{"android":"levelo://app?vid=7b838af5-fb46-4844-a9f5-9a622a0326a3","ios":"levelo://app?vid=7b838af5-fb46-4844-a9f5-9a622a0326a3"},"vehicle_type_id":"4","last_reported":1726931333,"current_range_meters":38800,"station_id":"ce4bgr92rcd13ifvqc6g","pricing_plan_id":"cebpf4jnsgd1na2vs0mg"},{"bike_id":"71aa8592-ddf7-4343-aed4-c00d3433340f","system_id":"levelo_inurba_marseille","lat":43.337444,"lon":5.374475,"is_reserved":false,"is_disabled":false,"rental_uris":{"android":"levelo://app?vid=71aa8592-ddf7-4343-aed4-c00d3433340f","ios":"levelo://app?vid=71aa8592-ddf7-4343-aed4-c00d3433340f"},"vehicle_type_id":"4","last_reported":1726931333,"current_range_meters":35600,"station_id":"","pricing_plan_id":"cebpf4jnsgd1na2vs0mg"},{"bike_id":"3740c6df-06cd-419b-9ae6-b8d9e5eff548","system_id":"levelo_inurba_marseille","lat":43.2753,"lon":5.40935,"is_reserved":false,"is_disabled":false,"rental_uris":{"android":"levelo://app?vid=3740c6df-06cd-419b-9ae6-b8d9e5eff548","ios":"levelo://app?vid=3740c6df-06cd-419b-9ae6-b8d9e5eff548"},"vehicle_type_id":"4","last_reported":1726931333,"current_range_meters":17200,"station_id":"","pricing_plan_id":"cebpf4jnsgd1na2vs0mg"},{"bike_id":"a08a71e6-1112-4c78-8fb8-2363fc0af058","system_id":"levelo_inurba_marseille","lat":43.26211,"lon":5.37449,"is_reserved":false,"is_disabled":false,"rental_uris":{"android":"levelo://app?vid=a08a71e6-1112-4c78-8fb8-2363fc0af058","ios":"levelo://app?vid=a08a71e6-1112-4c78-8fb8-2363fc0af058"},"vehicle_type_id":"4","last_reported":1726931333,"current_range_meters":18000,"station_id":"ce4bhgp2rcd13ifvqfc0","pricing_plan_id":"cebpf4jnsgd1na2vs0mg"},{"bike_id":"031c7f84-a43a-4deb-9b43-a573dd4a878e","system_id":"levelo_inurba_marseille","lat":43.30544,"lon":5.36647,"is_reserved":false,"is_disabled":false,"rental_uris":{"android":"levelo://app?vid=031c7f84-a43a-4deb-9b43-a573dd4a878e","ios":"levelo://app?vid=031c7f84-a43a-4deb-9b43-a573dd4a878e"},"vehicle_type_id":"4","last_reported":1726931333,"current_range_meters":30400,"station_id":"","pricing_plan_id":"cebpf4jnsgd1na2vs0mg"},{"bike_id":"56afc466-4e2b-4282-8cb5-97c2b1d8a91e","system_id":"levelo_inurba_marseille","lat":43.26215,"lon":5.37441,"is_reserved":false,"is_disabled":false,"rental_uris":{"android":"levelo://app?vid=56afc466-4e2b-4282-8cb5-97c2b1d8a91e","ios":"levelo://app?vid=56afc466-4e2b-4282-8cb5-97c2b1d8a91e"},"vehicle_type_id":"4","last_reported":1726931333,"current_range_meters":38800,"station_id":"ce4bhgp2rcd13ifvqfc0","pricing_plan_id":"cebpf4jnsgd1na2vs0mg"},{"bike_id":"0b8c603b-dd7e-41e3-a2f3-46d73db38756","system_id":"levelo_inurba_marseille","lat":43.28418,"lon":5.34983,"is_reserved":false,"is_disabled":false,"rental_uris":{"android":"levelo://app?vid=0b8c603b-dd7e-41e3-a2f3-46d73db38756","ios":"levelo://app?vid=0b8c603b-dd7e-41e3-a2f3-46d73db38756"},"vehicle_type_id":"4","last_reported":1726931333,"current_range_meters":25200,"station_id":"ce4bhbh2rcd13ifvqepg","pricing_plan_id":"cebpf4jnsgd1na2vs0mg"},{"bike_id":"53a580e2-e76b-439b-8305-6be63b4cd5da","system_id":"levelo_inurba_marseille","lat":43.28432,"lon":5.34982,"is_reserved":false,"is_disabled":false,"rental_uris":{"android":"levelo://app?vid=53a580e2-e76b-439b-8305-6be63b4cd5da","ios":"levelo://app?vid=53a580e2-e76b-439b-8305-6be63b4cd5da"},"vehicle_type_id":"4","last_reported":1726931333,"current_range_meters":25200,"station_id":"ce4bhbh2rcd13ifvqepg","pricing_plan_id":"cebpf4jnsgd1na2vs0mg"},{"bike_id":"81f49656-1212-4c2f-8787-abf6b8307f6d","system_id":"levelo_inurba_marseille","lat":43.25862,"lon":5.39894,"is_reserved":false,"is_disabled":false,"rental_uris":{"android":"levelo://app?vid=81f49656-1212-4c2f-8787-abf6b8307f6d","ios":"levelo://app?vid=81f49656-1212-4c2f-8787-abf6b8307f6d"},"vehicle_type_id":"4","last_reported":1726931333,"current_range_meters":7200,"station_id":"ce4bhl92rcd13ifvqghg","pricing_plan_id":"cebpf4jnsgd1na2vs0mg"},{"bike_id":"bb77777d-90bb-42a8-bb53-86e3a00001ad","system_id":"levelo_inurba_marseille","lat":43.23152,"lon":5.43707,"is_reserved":false,"is_disabled":false,"rental_uris":{"android":"levelo://app?vid=bb77777d-90bb-42a8-bb53-86e3a00001ad","ios":"levelo://app?vid=bb77777d-90bb-42a8-bb53-86e3a00001ad"},"vehicle_type_id":"4","last_reported":1726931333,"current_range_meters":38800,"station_id":"ce4bhmp2rcd13ifvqgog","pricing_plan_id":"cebpf4jnsgd1na2vs0mg"},{"bike_id":"c6614dcb-90be-4da4-b83e-39fe850d45a0","system_id":"levelo_inurba_marseille","lat":43.31277,"lon":5.40165,"is_reserved":false,"is_disabled":false,"rental_uris":{"android":"levelo://app?vid=c6614dcb-90be-4da4-b83e-39fe850d45a0","ios":"levelo://app?vid=c6614dcb-90be-4da4-b83e-39fe850d45a0"},"vehicle_type_id":"4","last_reported":1726931333,"current_range_meters":28800,"station_id":"ce4bh092rcd13ifvqd30","pricing_plan_id":"cebpf4jnsgd1na2vs0mg"},{"bike_id":"56bf84e4-d9e1-4de7-9f5c-2a8417a4e5af","system_id":"levelo_inurba_marseille","lat":43.28414,"lon":5.34984,"is_reserved":false,"is_disabled":false,"rental_uris":{"android":"levelo://app?vid=56bf84e4-d9e1-4de7-9f5c-2a8417a4e5af","ios":"levelo://app?vid=56bf84e4-d9e1-4de7-9f5c-2a8417a4e5af"},"vehicle_type_id":"4","last_reported":1726931333,"current_range_meters":10000,"station_id":"ce4bhbh2rcd13ifvqepg","pricing_plan_id":"cebpf4jnsgd1na2vs0mg"},{"bike_id":"dca4f369-d3de-40a5-902a-d4b2d303f669","system_id":"levelo_inurba_marseille","lat":43.3171,"lon":5.37733,"is_reserved":false,"is_disabled":false,"rental_uris":{"android":"levelo://app?vid=dca4f369-d3de-40a5-902a-d4b2d303f669","ios":"levelo://app?vid=dca4f369-d3de-40a5-902a-d4b2d303f669"},"vehicle_type_id":"4","last_reported":1726931333,"current_range_meters":2000,"station_id":"ce4bgth2rcd13ifvqch0","pricing_plan_id":"cebpf4jnsgd1na2vs0mg"},{"bike_id":"b3c79152-915f-47ba-abad-61985a3c2bfd","system_id":"levelo_inurba_marseille","lat":43.262054,"lon":5.374417,"is_reserved":false,"is_disabled":false,"rental_uris":{"android":"levelo://app?vid=b3c79152-915f-47ba-abad-61985a3c2bfd","ios":"levelo://app?vid=b3c79152-915f-47ba-abad-61985a3c2bfd"},"vehicle_type_id":"4","last_reported":1726931333,"current_range_meters":16400,"station_id":"ce4bhgp2rcd13ifvqfc0","pricing_plan_id":"cebpf4jnsgd1na2vs0mg"},{"bike_id":"176b0519-c285-4151-b173-2a5a92811e88","system_id":"levelo_inurba_marseille","lat":43.29433,"lon":5.3973,"is_reserved":false,"is_disabled":false,"rental_uris":{"android":"levelo://app?vid=176b0519-c285-4151-b173-2a5a92811e88","ios":"levelo://app?vid=176b0519-c285-4151-b173-2a5a92811e88"},"vehicle_type_id":"4","last_reported":1726931333,"current_range_meters":14400,"station_id":"ce4bh3h2rcd13ifvqdo0","pricing_plan_id":"cebpf4jnsgd1na2vs0mg"},{"bike_id":"a9e1a17a-3867-474c-bcb5-704c017157fa","system_id":"levelo_inurba_marseille","lat":43.2893,"lon":5.384,"is_reserved":false,"is_disabled":false,"rental_uris":{"android":"levelo://app?vid=a9e1a17a-3867-474c-bcb5-704c017157fa","ios":"levelo://app?vid=a9e1a17a-3867-474c-bcb5-704c017157fa"},"vehicle_type_id":"4","last_reported":1726931333,"current_range_meters":11200,"station_id":"ce4bh612rcd13ifvqe6g","pricing_plan_id":"cebpf4jnsgd1na2vs0mg"},{"bike_id":"4f6cd953-65f5-4d4f-a052-70118d864e1d","system_id":"levelo_inurba_marseille","lat":43.29897,"lon":5.43671,"is_reserved":false,"is_disabled":false,"rental_uris":{"android":"levelo://app?vid=4f6cd953-65f5-4d4f-a052-70118d864e1d","ios":"levelo://app?vid=4f6cd953-65f5-4d4f-a052-70118d864e1d"},"vehicle_type_id":"4","last_reported":1726931333,"current_range_meters":8400,"station_id":"ce4bhpp2rcd13ifvqhfg","pricing_plan_id":"cebpf4jnsgd1na2vs0mg"},{"bike_id":"71d21888-65cb-409f-8de9-46fcb1e9ffd4","system_id":"levelo_inurba_marseille","lat":43.30932,"lon":5.40162,"is_reserved":false,"is_disabled":false,"rental_uris":{"android":"levelo://app?vid=71d21888-65cb-409f-8de9-46fcb1e9ffd4","ios":"levelo://app?vid=71d21888-65cb-409f-8de9-46fcb1e9ffd4"},"vehicle_type_id":"4","last_reported":1726931333,"current_range_meters":20800,"station_id":"ce4bgvp2rcd13ifvqct0","pricing_plan_id":"cebpf4jnsgd1na2vs0mg"},{"bike_id":"9155923b-d04f-4747-b5ef-ddc263290775","system_id":"levelo_inurba_marseille","lat":43.34143,"lon":5.40913,"is_reserved":false,"is_disabled":false,"rental_uris":{"android":"levelo://app?vid=9155923b-d04f-4747-b5ef-ddc263290775","ios":"levelo://app?vid=9155923b-d04f-4747-b5ef-ddc263290775"},"vehicle_type_id":"4","last_reported":1726931333,"current_range_meters":10000,"station_id":"ce4bhqh2rcd13ifvqhlg","pricing_plan_id":"cebpf4jnsgd1na2vs0mg"},{"bike_id":"e0c6e516-aa33-407e-ad18-e59b908c53cc","system_id":"levelo_inurba_marseille","lat":43.29849,"lon":5.36287,"is_reserved":false,"is_disabled":false,"rental_uris":{"android":"levelo://app?vid=e0c6e516-aa33-407e-ad18-e59b908c53cc","ios":"levelo://app?vid=e0c6e516-aa33-407e-ad18-e59b908c53cc"},"vehicle_type_id":"4","last_reported":1726931333,"current_range_meters":36800,"station_id":"ce4bgpp2rcd13ifvqc3g","pricing_plan_id":"cebpf4jnsgd1na2vs0mg"},{"bike_id":"f86bcbf4-fb48-4f96-8fda-87a65c3a0bf1","system_id":"levelo_inurba_marseille","lat":43.31281,"lon":5.40163,"is_reserved":false,"is_disabled":false,"rental_uris":{"android":"levelo://app?vid=f86bcbf4-fb48-4f96-8fda-87a65c3a0bf1","ios":"levelo://app?vid=f86bcbf4-fb48-4f96-8fda-87a65c3a0bf1"},"vehicle_type_id":"4","last_reported":1726931333,"current_range_meters":16000,"station_id":"ce4bh092rcd13ifvqd30","pricing_plan_id":"cebpf4jnsgd1na2vs0mg"},{"bike_id":"0dd06d00-7e66-4af1-82fa-9451fd1d28f2","system_id":"levelo_inurba_marseille","lat":43.27617,"lon":5.36109,"is_reserved":false,"is_disabled":false,"rental_uris":{"android":"levelo://app?vid=0dd06d00-7e66-4af1-82fa-9451fd1d28f2","ios":"levelo://app?vid=0dd06d00-7e66-4af1-82fa-9451fd1d28f2"},"vehicle_type_id":"4","last_reported":1726931333,"current_range_meters":11200,"station_id":"ce4bgj92rcd13ifvqbe0","pricing_plan_id":"cebpf4jnsgd1na2vs0mg"},{"bike_id":"9ec07ac2-f995-4675-a2e1-3f2f55960be6","system_id":"levelo_inurba_marseille","lat":43.30951,"lon":5.39035,"is_reserved":false,"is_disabled":false,"rental_uris":{"android":"levelo://app?vid=9ec07ac2-f995-4675-a2e1-3f2f55960be6","ios":"levelo://app?vid=9ec07ac2-f995-4675-a2e1-3f2f55960be6"},"vehicle_type_id":"4","last_reported":1726931333,"current_range_meters":8000,"station_id":"ce4bgup2rcd13ifvqco0","pricing_plan_id":"cebpf4jnsgd1na2vs0mg"},{"bike_id":"aba48e36-8d36-477c-8249-588c835cdb8a","system_id":"levelo_inurba_marseille","lat":43.26028,"lon":5.37552,"is_reserved":false,"is_disabled":false,"rental_uris":{"android":"levelo://app?vid=aba48e36-8d36-477c-8249-588c835cdb8a","ios":"levelo://app?vid=aba48e36-8d36-477c-8249-588c835cdb8a"},"vehicle_type_id":"4","last_reported":1726931333,"current_range_meters":7200,"station_id":"ce4bhgh2rcd13ifvqfa0","pricing_plan_id":"cebpf4jnsgd1na2vs0mg"},{"bike_id":"d2e4c27d-c408-4d35-8e79-cadaf175f2f4","system_id":"levelo_inurba_marseille","lat":43.29221,"lon":5.36064,"is_reserved":false,"is_disabled":false,"rental_uris":{"android":"levelo://app?vid=d2e4c27d-c408-4d35-8e79-cadaf175f2f4","ios":"levelo://app?vid=d2e4c27d-c408-4d35-8e79-cadaf175f2f4"},"vehicle_type_id":"4","last_reported":1726931333,"current_range_meters":17200,"station_id":"ce4bhbh2rcd13ifvqeqg","pricing_plan_id":"cebpf4jnsgd1na2vs0mg"},{"bike_id":"b0a200e6-6395-4bcf-8477-f694f7cf3c53","system_id":"levelo_inurba_marseille","lat":43.28266,"lon":5.35068,"is_reserved":false,"is_disabled":false,"rental_uris":{"android":"levelo://app?vid=b0a200e6-6395-4bcf-8477-f694f7cf3c53","ios":"levelo://app?vid=b0a200e6-6395-4bcf-8477-f694f7cf3c53"},"vehicle_type_id":"4","last_reported":1726931333,"current_range_meters":19200,"station_id":"ce4bhbp2rcd13ifvqerg","pricing_plan_id":"cebpf4jnsgd1na2vs0mg"},{"bike_id":"612f8825-af75-4595-a617-6107af8196ae","system_id":"levelo_inurba_marseille","lat":43.23145,"lon":5.43711,"is_reserved":false,"is_disabled":false,"rental_uris":{"android":"levelo://app?vid=612f8825-af75-4595-a617-6107af8196ae","ios":"levelo://app?vid=612f8825-af75-4595-a617-6107af8196ae"},"vehicle_type_id":"4","last_reported":1726931333,"current_range_meters":22000,"station_id":"ce4bhmp2rcd13ifvqgog","pricing_plan_id":"cebpf4jnsgd1na2vs0mg"},{"bike_id":"9ea2c16a-7b2f-469f-a5d0-99891546bea4","system_id":"levelo_inurba_marseille","lat":43.31269,"lon":5.40192,"is_reserved":false,"is_disabled":false,"rental_uris":{"android":"levelo://app?vid=9ea2c16a-7b2f-469f-a5d0-99891546bea4","ios":"levelo://app?vid=9ea2c16a-7b2f-469f-a5d0-99891546bea4"},"vehicle_type_id":"4","last_reported":1726931333,"current_range_meters":10800,"station_id":"ce4bh092rcd13ifvqd30","pricing_plan_id":"cebpf4jnsgd1na2vs0mg"},{"bike_id":"99eeafe6-366f-429a-b8f8-8a504a89203b","system_id":"levelo_inurba_marseille","lat":43.28506,"lon":5.35597,"is_reserved":false,"is_disabled":false,"rental_uris":{"android":"levelo://app?vid=99eeafe6-366f-429a-b8f8-8a504a89203b","ios":"levelo://app?vid=99eeafe6-366f-429a-b8f8-8a504a89203b"},"vehicle_type_id":"4","last_reported":1726931333,"current_range_meters":32000,"station_id":"","pricing_plan_id":"cebpf4jnsgd1na2vs0mg"},{"bike_id":"d33947f1-f932-44f2-b587-5b9d877a68ad","system_id":"levelo_inurba_marseille","lat":43.28416,"lon":5.34977,"is_reserved":false,"is_disabled":false,"rental_uris":{"android":"levelo://app?vid=d33947f1-f932-44f2-b587-5b9d877a68ad","ios":"levelo://app?vid=d33947f1-f932-44f2-b587-5b9d877a68ad"},"vehicle_type_id":"4","last_reported":1726931333,"current_range_meters":9200,"station_id":"ce4bhbh2rcd13ifvqepg","pricing_plan_id":"cebpf4jnsgd1na2vs0mg"},{"bike_id":"29058ff5-4d24-4c57-9c80-3c616b905bac","system_id":"levelo_inurba_marseille","lat":43.29547,"lon":5.42282,"is_reserved":false,"is_disabled":false,"rental_uris":{"android":"levelo://app?vid=29058ff5-4d24-4c57-9c80-3c616b905bac","ios":"levelo://app?vid=29058ff5-4d24-4c57-9c80-3c616b905bac"},"vehicle_type_id":"4","last_reported":1726931333,"current_range_meters":37600,"station_id":"ce4bhph2rcd13ifvqhdg","pricing_plan_id":"cebpf4jnsgd1na2vs0mg"},{"bike_id":"05db7e3b-4c7c-4904-b266-56a31c1dfdcc","system_id":"levelo_inurba_marseille","lat":43.31283,"lon":5.40167,"is_reserved":false,"is_disabled":false,"rental_uris":{"android":"levelo://app?vid=05db7e3b-4c7c-4904-b266-56a31c1dfdcc","ios":"levelo://app?vid=05db7e3b-4c7c-4904-b266-56a31c1dfdcc"},"vehicle_type_id":"4","last_reported":1726931333,"current_range_meters":31200,"station_id":"ce4bh092rcd13ifvqd30","pricing_plan_id":"cebpf4jnsgd1na2vs0mg"},{"bike_id":"bf15330f-3d01-4555-8976-a48ada12dd15","system_id":"levelo_inurba_marseille","lat":43.30956,"lon":5.39037,"is_reserved":false,"is_disabled":false,"rental_uris":{"android":"levelo://app?vid=bf15330f-3d01-4555-8976-a48ada12dd15","ios":"levelo://app?vid=bf15330f-3d01-4555-8976-a48ada12dd15"},"vehicle_type_id":"4","last_reported":1726931333,"current_range_meters":18800,"station_id":"ce4bgup2rcd13ifvqco0","pricing_plan_id":"cebpf4jnsgd1na2vs0mg"},{"bike_id":"71121ff6-bb9d-4d5a-9e8b-15d7e046558a","system_id":"levelo_inurba_marseille","lat":43.28476,"lon":5.38413,"is_reserved":false,"is_disabled":false,"rental_uris":{"android":"levelo://app?vid=71121ff6-bb9d-4d5a-9e8b-15d7e046558a","ios":"levelo://app?vid=71121ff6-bb9d-4d5a-9e8b-15d7e046558a"},"vehicle_type_id":"4","last_reported":1726931333,"current_range_meters":38800,"station_id":"ce4bh512rcd13ifvqe3g","pricing_plan_id":"cebpf4jnsgd1na2vs0mg"},{"bike_id":"bce83964-771d-421d-a795-c2b376c5b9dc","system_id":"levelo_inurba_marseille","lat":43.23194,"lon":5.35552,"is_reserved":false,"is_disabled":false,"rental_uris":{"android":"levelo://app?vid=bce83964-771d-421d-a795-c2b376c5b9dc","ios":"levelo://app?vid=bce83964-771d-421d-a795-c2b376c5b9dc"},"vehicle_type_id":"4","last_reported":1726931333,"current_range_meters":18000,"station_id":"ce4bhu92rcd13ifvqi70","pricing_plan_id":"cebpf4jnsgd1na2vs0mg"},{"bike_id":"70e763f5-9d12-479e-9b10-8847cc055c86","system_id":"levelo_inurba_marseille","lat":43.30416,"lon":5.41287,"is_reserved":false,"is_disabled":false,"rental_uris":{"android":"levelo://app?vid=70e763f5-9d12-479e-9b10-8847cc055c86","ios":"levelo://app?vid=70e763f5-9d12-479e-9b10-8847cc055c86"},"vehicle_type_id":"4","last_reported":1726931333,"current_range_meters":38800,"station_id":"ce4bhop2rcd13ifvqh8g","pricing_plan_id":"cebpf4jnsgd1na2vs0mg"},{"bike_id":"f22c4413-a948-4396-9c39-d47f741aaf78","system_id":"levelo_inurba_marseille","lat":43.24806,"lon":5.37452,"is_reserved":false,"is_disabled":false,"rental_uris":{"android":"levelo://app?vid=f22c4413-a948-4396-9c39-d47f741aaf78","ios":"levelo://app?vid=f22c4413-a948-4396-9c39-d47f741aaf78"},"vehicle_type_id":"4","last_reported":1726931333,"current_range_meters":38800,"station_id":"ce4bhgh2rcd13ifvqfb0","pricing_plan_id":"cebpf4jnsgd1na2vs0mg"},{"bike_id":"fe184719-ceee-410e-b8f7-b4f2e74f3bce","system_id":"levelo_inurba_marseille","lat":43.31997,"lon":5.38162,"is_reserved":false,"is_disabled":false,"rental_uris":{"android":"levelo://app?vid=fe184719-ceee-410e-b8f7-b4f2e74f3bce","ios":"levelo://app?vid=fe184719-ceee-410e-b8f7-b4f2e74f3bce"},"vehicle_type_id":"4","last_reported":1726931333,"current_range_meters":6000,"station_id":"ce4bhr12rcd13ifvqhpg","pricing_plan_id":"cebpf4jnsgd1na2vs0mg"},{"bike_id":"fb1f7c88-37f7-4f68-b789-2663f61aee6f","system_id":"levelo_inurba_marseille","lat":43.286621,"lon":5.363459,"is_reserved":false,"is_disabled":false,"rental_uris":{"android":"levelo://app?vid=fb1f7c88-37f7-4f68-b789-2663f61aee6f","ios":"levelo://app?vid=fb1f7c88-37f7-4f68-b789-2663f61aee6f"},"vehicle_type_id":"4","last_reported":1726931333,"current_range_meters":9200,"station_id":"ce4bhah2rcd13ifvqej0","pricing_plan_id":"cebpf4jnsgd1na2vs0mg"},{"bike_id":"f72a91e3-9830-4f72-be57-370f9792a305","system_id":"levelo_inurba_marseille","lat":43.297791,"lon":5.371262,"is_reserved":false,"is_disabled":false,"rental_uris":{"android":"levelo://app?vid=f72a91e3-9830-4f72-be57-370f9792a305","ios":"levelo://app?vid=f72a91e3-9830-4f72-be57-370f9792a305"},"vehicle_type_id":"4","last_reported":1726931333,"current_range_meters":9600,"station_id":"ce4bgop2rcd13ifvqc1g","pricing_plan_id":"cebpf4jnsgd1na2vs0mg"},{"bike_id":"bbeb6fed-4fab-458a-8037-4d8037f7bc32","system_id":"levelo_inurba_marseille","lat":43.29271,"lon":5.3684,"is_reserved":false,"is_disabled":false,"rental_uris":{"android":"levelo://app?vid=bbeb6fed-4fab-458a-8037-4d8037f7bc32","ios":"levelo://app?vid=bbeb6fed-4fab-458a-8037-4d8037f7bc32"},"vehicle_type_id":"4","last_reported":1726931333,"current_range_meters":30000,"station_id":"ce4bhbp2rcd13ifvqesg","pricing_plan_id":"cebpf4jnsgd1na2vs0mg"},{"bike_id":"96126d49-44a0-4357-88ed-b1a8ab9be94f","system_id":"levelo_inurba_marseille","lat":43.28931,"lon":5.36637,"is_reserved":false,"is_disabled":false,"rental_uris":{"android":"levelo://app?vid=96126d49-44a0-4357-88ed-b1a8ab9be94f","ios":"levelo://app?vid=96126d49-44a0-4357-88ed-b1a8ab9be94f"},"vehicle_type_id":"4","last_reported":1726931333,"current_range_meters":29600,"station_id":"ce4bhap2rcd13ifvqek0","pricing_plan_id":"cebpf4jnsgd1na2vs0mg"},{"bike_id":"692cc85b-ed92-4880-9373-712bd364095e","system_id":"levelo_inurba_marseille","lat":43.29538,"lon":5.38548,"is_reserved":false,"is_disabled":false,"rental_uris":{"android":"levelo://app?vid=692cc85b-ed92-4880-9373-712bd364095e","ios":"levelo://app?vid=692cc85b-ed92-4880-9373-712bd364095e"},"vehicle_type_id":"4","last_reported":1726931333,"current_range_meters":19200,"station_id":"ce4bgih2rcd13ifvqba0","pricing_plan_id":"cebpf4jnsgd1na2vs0mg"},{"bike_id":"57c61f8c-633b-4326-a545-184ec4592023","system_id":"levelo_inurba_marseille","lat":43.32472,"lon":5.36571,"is_reserved":false,"is_disabled":false,"rental_uris":{"android":"levelo://app?vid=57c61f8c-633b-4326-a545-184ec4592023","ios":"levelo://app?vid=57c61f8c-633b-4326-a545-184ec4592023"},"vehicle_type_id":"4","last_reported":1726931333,"current_range_meters":24000,"station_id":"ce4bhs12rcd13ifvqhvg","pricing_plan_id":"cebpf4jnsgd1na2vs0mg"},{"bike_id":"6bda33c9-897f-4b73-86d2-cc62e9d5abd3","system_id":"levelo_inurba_marseille","lat":43.27431,"lon":5.39409,"is_reserved":false,"is_disabled":false,"rental_uris":{"android":"levelo://app?vid=6bda33c9-897f-4b73-86d2-cc62e9d5abd3","ios":"levelo://app?vid=6bda33c9-897f-4b73-86d2-cc62e9d5abd3"},"vehicle_type_id":"4","last_reported":1726931333,"current_range_meters":33200,"station_id":"ce4bhdp2rcd13ifvqf20","pricing_plan_id":"cebpf4jnsgd1na2vs0mg"},{"bike_id":"9a32ce3b-cf70-4602-828d-43252eef18a9","system_id":"levelo_inurba_marseille","lat":43.309548,"lon":5.390288,"is_reserved":false,"is_disabled":false,"rental_uris":{"android":"levelo://app?vid=9a32ce3b-cf70-4602-828d-43252eef18a9","ios":"levelo://app?vid=9a32ce3b-cf70-4602-828d-43252eef18a9"},"vehicle_type_id":"4","last_reported":1726931333,"current_range_meters":20400,"station_id":"ce4bhu92rcd13ifvqi70","pricing_plan_id":"cebpf4jnsgd1na2vs0mg"},{"bike_id":"fb2b63d9-4a26-4602-9a57-d2caab531ee7","system_id":"levelo_inurba_marseille","lat":43.33726,"lon":5.39185,"is_reserved":false,"is_disabled":false,"rental_uris":{"android":"levelo://app?vid=fb2b63d9-4a26-4602-9a57-d2caab531ee7","ios":"levelo://app?vid=fb2b63d9-4a26-4602-9a57-d2caab531ee7"},"vehicle_type_id":"4","last_reported":1726931333,"current_range_meters":38000,"station_id":"ce4bhr92rcd13ifvqhsg","pricing_plan_id":"cebpf4jnsgd1na2vs0mg"},{"bike_id":"2e31119d-c49b-4c6f-8d35-fe5f19d3606b","system_id":"levelo_inurba_marseille","lat":43.26208,"lon":5.37441,"is_reserved":false,"is_disabled":false,"rental_uris":{"android":"levelo://app?vid=2e31119d-c49b-4c6f-8d35-fe5f19d3606b","ios":"levelo://app?vid=2e31119d-c49b-4c6f-8d35-fe5f19d3606b"},"vehicle_type_id":"4","last_reported":1726931333,"current_range_meters":22800,"station_id":"ce4bhgp2rcd13ifvqfc0","pricing_plan_id":"cebpf4jnsgd1na2vs0mg"},{"bike_id":"56763d14-48cc-48cd-a39f-e8fbafa67e84","system_id":"levelo_inurba_marseille","lat":43.25591,"lon":5.38246,"is_reserved":false,"is_disabled":false,"rental_uris":{"android":"levelo://app?vid=56763d14-48cc-48cd-a39f-e8fbafa67e84","ios":"levelo://app?vid=56763d14-48cc-48cd-a39f-e8fbafa67e84"},"vehicle_type_id":"4","last_reported":1726931333,"current_range_meters":27200,"station_id":"ce4bhih2rcd13ifvqfs0","pricing_plan_id":"cebpf4jnsgd1na2vs0mg"},{"bike_id":"bba6d661-636d-45b7-8a14-965538232817","system_id":"levelo_inurba_marseille","lat":43.300079,"lon":5.388299,"is_reserved":false,"is_disabled":false,"rental_uris":{"android":"levelo://app?vid=bba6d661-636d-45b7-8a14-965538232817","ios":"levelo://app?vid=bba6d661-636d-45b7-8a14-965538232817"},"vehicle_type_id":"4","last_reported":1726931333,"current_range_meters":14000,"station_id":"ce4bh092rcd13ifvqd30","pricing_plan_id":"cebpf4jnsgd1na2vs0mg"},{"bike_id":"73c3ed45-d5ef-40cf-ac31-1369fde8dd79","system_id":"levelo_inurba_marseille","lat":43.2656,"lon":5.37282,"is_reserved":false,"is_disabled":false,"rental_uris":{"android":"levelo://app?vid=73c3ed45-d5ef-40cf-ac31-1369fde8dd79","ios":"levelo://app?vid=73c3ed45-d5ef-40cf-ac31-1369fde8dd79"},"vehicle_type_id":"4","last_reported":1726931333,"current_range_meters":6000,"station_id":"ce4bhg12rcd13ifvqf70","pricing_plan_id":"cebpf4jnsgd1na2vs0mg"},{"bike_id":"b869f1ae-f37d-464a-8d18-0fd8cd3f314c","system_id":"levelo_inurba_marseille","lat":43.29152,"lon":5.40624,"is_reserved":false,"is_disabled":false,"rental_uris":{"android":"levelo://app?vid=b869f1ae-f37d-464a-8d18-0fd8cd3f314c","ios":"levelo://app?vid=b869f1ae-f37d-464a-8d18-0fd8cd3f314c"},"vehicle_type_id":"4","last_reported":1726931333,"current_range_meters":3200,"station_id":"","pricing_plan_id":"cebpf4jnsgd1na2vs0mg"},{"bike_id":"ba35c621-872f-44ce-89bb-d04f3b86389c","system_id":"levelo_inurba_marseille","lat":43.29596,"lon":5.38098,"is_reserved":false,"is_disabled":false,"rental_uris":{"android":"levelo://app?vid=ba35c621-872f-44ce-89bb-d04f3b86389c","ios":"levelo://app?vid=ba35c621-872f-44ce-89bb-d04f3b86389c"},"vehicle_type_id":"4","last_reported":1726931333,"current_range_meters":26000,"station_id":"ce4bgv12rcd13ifvqcp0","pricing_plan_id":"cebpf4jnsgd1na2vs0mg"},{"bike_id":"a59a88ce-616d-46fe-8ebf-7b37657fca69","system_id":"levelo_inurba_marseille","lat":43.26954,"lon":5.38629,"is_reserved":false,"is_disabled":false,"rental_uris":{"android":"levelo://app?vid=a59a88ce-616d-46fe-8ebf-7b37657fca69","ios":"levelo://app?vid=a59a88ce-616d-46fe-8ebf-7b37657fca69"},"vehicle_type_id":"4","last_reported":1726931333,"current_range_meters":30800,"station_id":"ce4bhh92rcd13ifvqfh0","pricing_plan_id":"cebpf4jnsgd1na2vs0mg"},{"bike_id":"fa690805-233a-4a70-a9f3-33f1b67cdb1f","system_id":"levelo_inurba_marseille","lat":43.32281,"lon":5.38261,"is_reserved":false,"is_disabled":false,"rental_uris":{"android":"levelo://app?vid=fa690805-233a-4a70-a9f3-33f1b67cdb1f","ios":"levelo://app?vid=fa690805-233a-4a70-a9f3-33f1b67cdb1f"},"vehicle_type_id":"4","last_reported":1726931333,"current_range_meters":11200,"station_id":"ce4bhr12rcd13ifvqhqg","pricing_plan_id":"cebpf4jnsgd1na2vs0mg"},{"bike_id":"7f89ca45-47ac-48a4-b2b0-d8601a3e5f77","system_id":"levelo_inurba_marseille","lat":43.28152,"lon":5.42648,"is_reserved":false,"is_disabled":false,"rental_uris":{"android":"levelo://app?vid=7f89ca45-47ac-48a4-b2b0-d8601a3e5f77","ios":"levelo://app?vid=7f89ca45-47ac-48a4-b2b0-d8601a3e5f77"},"vehicle_type_id":"4","last_reported":1726931333,"current_range_meters":33600,"station_id":"ce4bhnh2rcd13ifvqgug","pricing_plan_id":"cebpf4jnsgd1na2vs0mg"},{"bike_id":"7a69a206-59d7-4338-b1fb-7a4c9f69082f","system_id":"levelo_inurba_marseille","lat":43.2396,"lon":5.36636,"is_reserved":false,"is_disabled":false,"rental_uris":{"android":"levelo://app?vid=7a69a206-59d7-4338-b1fb-7a4c9f69082f","ios":"levelo://app?vid=7a69a206-59d7-4338-b1fb-7a4c9f69082f"},"vehicle_type_id":"4","last_reported":1726931333,"current_range_meters":11600,"station_id":"ce4bhi12rcd13ifvqfp0","pricing_plan_id":"cebpf4jnsgd1na2vs0mg"},{"bike_id":"5538791c-46ef-4dd6-bb61-9569d67885c3","system_id":"levelo_inurba_marseille","lat":43.28418,"lon":5.34973,"is_reserved":false,"is_disabled":false,"rental_uris":{"android":"levelo://app?vid=5538791c-46ef-4dd6-bb61-9569d67885c3","ios":"levelo://app?vid=5538791c-46ef-4dd6-bb61-9569d67885c3"},"vehicle_type_id":"4","last_reported":1726931333,"current_range_meters":18800,"station_id":"ce4bhbh2rcd13ifvqepg","pricing_plan_id":"cebpf4jnsgd1na2vs0mg"},{"bike_id":"a85f79cd-b642-4726-925c-e5aef479b7b8","system_id":"levelo_inurba_marseille","lat":43.3169,"lon":5.40466,"is_reserved":false,"is_disabled":false,"rental_uris":{"android":"levelo://app?vid=a85f79cd-b642-4726-925c-e5aef479b7b8","ios":"levelo://app?vid=a85f79cd-b642-4726-925c-e5aef479b7b8"},"vehicle_type_id":"4","last_reported":1726931333,"current_range_meters":30000,"station_id":"ce4bh012rcd13ifvqd00","pricing_plan_id":"cebpf4jnsgd1na2vs0mg"},{"bike_id":"d6c78d26-b080-45e0-b0d6-d2288d4c8f6e","system_id":"levelo_inurba_marseille","lat":43.30949,"lon":5.39034,"is_reserved":false,"is_disabled":false,"rental_uris":{"android":"levelo://app?vid=d6c78d26-b080-45e0-b0d6-d2288d4c8f6e","ios":"levelo://app?vid=d6c78d26-b080-45e0-b0d6-d2288d4c8f6e"},"vehicle_type_id":"4","last_reported":1726931333,"current_range_meters":36400,"station_id":"ce4bh3p2rcd13ifvqdp0","pricing_plan_id":"cebpf4jnsgd1na2vs0mg"},{"bike_id":"b2763354-ec6c-4733-8de6-6c4493759ae9","system_id":"levelo_inurba_marseille","lat":43.29063,"lon":5.40158,"is_reserved":false,"is_disabled":false,"rental_uris":{"android":"levelo://app?vid=b2763354-ec6c-4733-8de6-6c4493759ae9","ios":"levelo://app?vid=b2763354-ec6c-4733-8de6-6c4493759ae9"},"vehicle_type_id":"4","last_reported":1726931333,"current_range_meters":14000,"station_id":"","pricing_plan_id":"cebpf4jnsgd1na2vs0mg"},{"bike_id":"539fc34f-d6af-4439-bfb1-a4a922f196c4","system_id":"levelo_inurba_marseille","lat":43.2886,"lon":5.35873,"is_reserved":false,"is_disabled":false,"rental_uris":{"android":"levelo://app?vid=539fc34f-d6af-4439-bfb1-a4a922f196c4","ios":"levelo://app?vid=539fc34f-d6af-4439-bfb1-a4a922f196c4"},"vehicle_type_id":"4","last_reported":1726931333,"current_range_meters":4400,"station_id":"ce4bhb12rcd13ifvqem0","pricing_plan_id":"cebpf4jnsgd1na2vs0mg"},{"bike_id":"0e39d527-775d-485d-88ef-2f5602ee0cbd","system_id":"levelo_inurba_marseille","lat":43.30553,"lon":5.36695,"is_reserved":false,"is_disabled":false,"rental_uris":{"android":"levelo://app?vid=0e39d527-775d-485d-88ef-2f5602ee0cbd","ios":"levelo://app?vid=0e39d527-775d-485d-88ef-2f5602ee0cbd"},"vehicle_type_id":"4","last_reported":1726931333,"current_range_meters":38800,"station_id":"ce4bgrp2rcd13ifvqc9g","pricing_plan_id":"cebpf4jnsgd1na2vs0mg"},{"bike_id":"efb91d3b-762e-473d-abeb-625cfb2a5e10","system_id":"levelo_inurba_marseille","lat":43.26554,"lon":5.37286,"is_reserved":false,"is_disabled":false,"rental_uris":{"android":"levelo://app?vid=efb91d3b-762e-473d-abeb-625cfb2a5e10","ios":"levelo://app?vid=efb91d3b-762e-473d-abeb-625cfb2a5e10"},"vehicle_type_id":"4","last_reported":1726931333,"current_range_meters":25600,"station_id":"ce4bhg12rcd13ifvqf70","pricing_plan_id":"cebpf4jnsgd1na2vs0mg"},{"bike_id":"6108b381-1ef5-476a-a568-771827a71c79","system_id":"levelo_inurba_marseille","lat":43.30952,"lon":5.39024,"is_reserved":false,"is_disabled":false,"rental_uris":{"android":"levelo://app?vid=6108b381-1ef5-476a-a568-771827a71c79","ios":"levelo://app?vid=6108b381-1ef5-476a-a568-771827a71c79"},"vehicle_type_id":"4","last_reported":1726931333,"current_range_meters":22800,"station_id":"ce4bgup2rcd13ifvqco0","pricing_plan_id":"cebpf4jnsgd1na2vs0mg"},{"bike_id":"68138f84-0b3c-4ab2-a43a-bf940dc06daa","system_id":"levelo_inurba_marseille","lat":43.24394,"lon":5.37059,"is_reserved":false,"is_disabled":false,"rental_uris":{"android":"levelo://app?vid=68138f84-0b3c-4ab2-a43a-bf940dc06daa","ios":"levelo://app?vid=68138f84-0b3c-4ab2-a43a-bf940dc06daa"},"vehicle_type_id":"4","last_reported":1726931333,"current_range_meters":27200,"station_id":"ce4bhhh2rcd13ifvqfk0","pricing_plan_id":"cebpf4jnsgd1na2vs0mg"},{"bike_id":"8d1b6af2-5218-430e-b388-36ffb667f93c","system_id":"levelo_inurba_marseille","lat":43.306519,"lon":5.400859,"is_reserved":false,"is_disabled":false,"rental_uris":{"android":"levelo://app?vid=8d1b6af2-5218-430e-b388-36ffb667f93c","ios":"levelo://app?vid=8d1b6af2-5218-430e-b388-36ffb667f93c"},"vehicle_type_id":"4","last_reported":1726931333,"current_range_meters":37600,"station_id":"ce4bh112rcd13ifvqda0","pricing_plan_id":"cebpf4jnsgd1na2vs0mg"},{"bike_id":"ead54e45-2d10-4e32-8e7a-f6c230f2b7ce","system_id":"levelo_inurba_marseille","lat":43.30532,"lon":5.36717,"is_reserved":false,"is_disabled":false,"rental_uris":{"android":"levelo://app?vid=ead54e45-2d10-4e32-8e7a-f6c230f2b7ce","ios":"levelo://app?vid=ead54e45-2d10-4e32-8e7a-f6c230f2b7ce"},"vehicle_type_id":"4","last_reported":1726931333,"current_range_meters":19200,"station_id":"ce4bgrp2rcd13ifvqc9g","pricing_plan_id":"cebpf4jnsgd1na2vs0mg"},{"bike_id":"c2c9a555-6ec8-4b92-b33e-073571605c93","system_id":"levelo_inurba_marseille","lat":43.23185,"lon":5.35544,"is_reserved":false,"is_disabled":false,"rental_uris":{"android":"levelo://app?vid=c2c9a555-6ec8-4b92-b33e-073571605c93","ios":"levelo://app?vid=c2c9a555-6ec8-4b92-b33e-073571605c93"},"vehicle_type_id":"4","last_reported":1726931333,"current_range_meters":20000,"station_id":"ce4bhu92rcd13ifvqi70","pricing_plan_id":"cebpf4jnsgd1na2vs0mg"},{"bike_id":"4c1e0e25-72dd-4241-82e3-221e4f65ec19","system_id":"levelo_inurba_marseille","lat":43.297076,"lon":5.377046,"is_reserved":false,"is_disabled":false,"rental_uris":{"android":"levelo://app?vid=4c1e0e25-72dd-4241-82e3-221e4f65ec19","ios":"levelo://app?vid=4c1e0e25-72dd-4241-82e3-221e4f65ec19"},"vehicle_type_id":"4","last_reported":1726931333,"current_range_meters":26800,"station_id":"ce4bgkh2rcd13ifvqbl0","pricing_plan_id":"cebpf4jnsgd1na2vs0mg"},{"bike_id":"55825df2-7169-40c3-b34a-148fef6ebe50","system_id":"levelo_inurba_marseille","lat":43.23961,"lon":5.36632,"is_reserved":false,"is_disabled":false,"rental_uris":{"android":"levelo://app?vid=55825df2-7169-40c3-b34a-148fef6ebe50","ios":"levelo://app?vid=55825df2-7169-40c3-b34a-148fef6ebe50"},"vehicle_type_id":"4","last_reported":1726931333,"current_range_meters":9600,"station_id":"ce4bhi12rcd13ifvqfp0","pricing_plan_id":"cebpf4jnsgd1na2vs0mg"},{"bike_id":"aaa5c187-dedb-40a2-a249-8f2117fe26cf","system_id":"levelo_inurba_marseille","lat":43.23195,"lon":5.35558,"is_reserved":false,"is_disabled":false,"rental_uris":{"android":"levelo://app?vid=aaa5c187-dedb-40a2-a249-8f2117fe26cf","ios":"levelo://app?vid=aaa5c187-dedb-40a2-a249-8f2117fe26cf"},"vehicle_type_id":"4","last_reported":1726931333,"current_range_meters":38000,"station_id":"ce4bhu92rcd13ifvqi70","pricing_plan_id":"cebpf4jnsgd1na2vs0mg"},{"bike_id":"c3d0b565-c429-49bb-9e74-464c3dd0e487","system_id":"levelo_inurba_marseille","lat":43.2862,"lon":5.35108,"is_reserved":false,"is_disabled":false,"rental_uris":{"android":"levelo://app?vid=c3d0b565-c429-49bb-9e74-464c3dd0e487","ios":"levelo://app?vid=c3d0b565-c429-49bb-9e74-464c3dd0e487"},"vehicle_type_id":"4","last_reported":1726931333,"current_range_meters":8400,"station_id":"ce4bhch2rcd13ifvqeug","pricing_plan_id":"cebpf4jnsgd1na2vs0mg"},{"bike_id":"d7083faf-8657-4423-bf09-083d6d7ccbc5","system_id":"levelo_inurba_marseille","lat":43.28612,"lon":5.37058,"is_reserved":false,"is_disabled":false,"rental_uris":{"android":"levelo://app?vid=d7083faf-8657-4423-bf09-083d6d7ccbc5","ios":"levelo://app?vid=d7083faf-8657-4423-bf09-083d6d7ccbc5"},"vehicle_type_id":"4","last_reported":1726931333,"current_range_meters":16000,"station_id":"ce4bht12rcd13ifvqi60","pricing_plan_id":"cebpf4jnsgd1na2vs0mg"},{"bike_id":"ecee3ef6-6351-4e0e-9e8c-d941697fb0f6","system_id":"levelo_inurba_marseille","lat":43.26557,"lon":5.3728,"is_reserved":false,"is_disabled":false,"rental_uris":{"android":"levelo://app?vid=ecee3ef6-6351-4e0e-9e8c-d941697fb0f6","ios":"levelo://app?vid=ecee3ef6-6351-4e0e-9e8c-d941697fb0f6"},"vehicle_type_id":"4","last_reported":1726931333,"current_range_meters":18000,"station_id":"ce4bhg12rcd13ifvqf70","pricing_plan_id":"cebpf4jnsgd1na2vs0mg"},{"bike_id":"14568d97-c1b1-45fd-a569-0552371fdadd","system_id":"levelo_inurba_marseille","lat":43.25009,"lon":5.3891,"is_reserved":false,"is_disabled":false,"rental_uris":{"android":"levelo://app?vid=14568d97-c1b1-45fd-a569-0552371fdadd","ios":"levelo://app?vid=14568d97-c1b1-45fd-a569-0552371fdadd"},"vehicle_type_id":"4","last_reported":1726931333,"current_range_meters":34000,"station_id":"ce4bhgp2rcd13ifvqfd0","pricing_plan_id":"cebpf4jnsgd1na2vs0mg"},{"bike_id":"43c988a6-42c7-4b4d-81e4-873686ab3d7c","system_id":"levelo_inurba_marseille","lat":43.24997,"lon":5.38932,"is_reserved":false,"is_disabled":false,"rental_uris":{"android":"levelo://app?vid=43c988a6-42c7-4b4d-81e4-873686ab3d7c","ios":"levelo://app?vid=43c988a6-42c7-4b4d-81e4-873686ab3d7c"},"vehicle_type_id":"4","last_reported":1726931333,"current_range_meters":27200,"station_id":"ce4bhgp2rcd13ifvqfd0","pricing_plan_id":"cebpf4jnsgd1na2vs0mg"},{"bike_id":"98708f1a-3ae7-4961-8c39-7bb958b5fc7f","system_id":"levelo_inurba_marseille","lat":43.30128,"lon":5.39865,"is_reserved":false,"is_disabled":false,"rental_uris":{"android":"levelo://app?vid=98708f1a-3ae7-4961-8c39-7bb958b5fc7f","ios":"levelo://app?vid=98708f1a-3ae7-4961-8c39-7bb958b5fc7f"},"vehicle_type_id":"4","last_reported":1726931333,"current_range_meters":32400,"station_id":"ce4bh0h2rcd13ifvqd40","pricing_plan_id":"cebpf4jnsgd1na2vs0mg"},{"bike_id":"e7622aba-ff24-4b88-93ac-6b67d54105ba","system_id":"levelo_inurba_marseille","lat":43.31352,"lon":5.36715,"is_reserved":false,"is_disabled":false,"rental_uris":{"android":"levelo://app?vid=e7622aba-ff24-4b88-93ac-6b67d54105ba","ios":"levelo://app?vid=e7622aba-ff24-4b88-93ac-6b67d54105ba"},"vehicle_type_id":"4","last_reported":1726931333,"current_range_meters":22400,"station_id":"ce4bgr92rcd13ifvqc6g","pricing_plan_id":"cebpf4jnsgd1na2vs0mg"},{"bike_id":"3461a529-61d9-45d6-93d0-4407ecae5209","system_id":"levelo_inurba_marseille","lat":43.29041,"lon":5.37565,"is_reserved":false,"is_disabled":false,"rental_uris":{"android":"levelo://app?vid=3461a529-61d9-45d6-93d0-4407ecae5209","ios":"levelo://app?vid=3461a529-61d9-45d6-93d0-4407ecae5209"},"vehicle_type_id":"4","last_reported":1726931333,"current_range_meters":38800,"station_id":"ce4bh692rcd13ifvqe90","pricing_plan_id":"cebpf4jnsgd1na2vs0mg"},{"bike_id":"6131a768-1584-4c8a-af25-ff651d2038f3","system_id":"levelo_inurba_marseille","lat":43.31274,"lon":5.40161,"is_reserved":false,"is_disabled":false,"rental_uris":{"android":"levelo://app?vid=6131a768-1584-4c8a-af25-ff651d2038f3","ios":"levelo://app?vid=6131a768-1584-4c8a-af25-ff651d2038f3"},"vehicle_type_id":"4","last_reported":1726931333,"current_range_meters":22800,"station_id":"ce4bh092rcd13ifvqd30","pricing_plan_id":"cebpf4jnsgd1na2vs0mg"},{"bike_id":"0ee9b5f0-5a46-4190-83cc-5d6d4f1d37a1","system_id":"levelo_inurba_marseille","lat":43.27612,"lon":5.36104,"is_reserved":false,"is_disabled":false,"rental_uris":{"android":"levelo://app?vid=0ee9b5f0-5a46-4190-83cc-5d6d4f1d37a1","ios":"levelo://app?vid=0ee9b5f0-5a46-4190-83cc-5d6d4f1d37a1"},"vehicle_type_id":"4","last_reported":1726931333,"current_range_meters":16000,"station_id":"ce4bgj92rcd13ifvqbe0","pricing_plan_id":"cebpf4jnsgd1na2vs0mg"},{"bike_id":"598539f9-f8b2-4ce4-bc29-852a23adc8f1","system_id":"levelo_inurba_marseille","lat":43.23192,"lon":5.35556,"is_reserved":false,"is_disabled":false,"rental_uris":{"android":"levelo://app?vid=598539f9-f8b2-4ce4-bc29-852a23adc8f1","ios":"levelo://app?vid=598539f9-f8b2-4ce4-bc29-852a23adc8f1"},"vehicle_type_id":"4","last_reported":1726931333,"current_range_meters":7200,"station_id":"ce4bhu92rcd13ifvqi70","pricing_plan_id":"cebpf4jnsgd1na2vs0mg"},{"bike_id":"2b35edc0-f969-4162-8d5c-3d9b3e70e5c1","system_id":"levelo_inurba_marseille","lat":43.26212,"lon":5.37444,"is_reserved":false,"is_disabled":false,"rental_uris":{"android":"levelo://app?vid=2b35edc0-f969-4162-8d5c-3d9b3e70e5c1","ios":"levelo://app?vid=2b35edc0-f969-4162-8d5c-3d9b3e70e5c1"},"vehicle_type_id":"4","last_reported":1726931333,"current_range_meters":11600,"station_id":"ce4bhgp2rcd13ifvqfc0","pricing_plan_id":"cebpf4jnsgd1na2vs0mg"},{"bike_id":"31444d97-ada7-4c14-9ccc-e8d8f546def7","system_id":"levelo_inurba_marseille","lat":43.26937,"lon":5.36663,"is_reserved":false,"is_disabled":false,"rental_uris":{"android":"levelo://app?vid=31444d97-ada7-4c14-9ccc-e8d8f546def7","ios":"levelo://app?vid=31444d97-ada7-4c14-9ccc-e8d8f546def7"},"vehicle_type_id":"4","last_reported":1726931333,"current_range_meters":8800,"station_id":"","pricing_plan_id":"cebpf4jnsgd1na2vs0mg"},{"bike_id":"941c2be7-38c9-4594-8d09-931cf3867569","system_id":"levelo_inurba_marseille","lat":43.26552,"lon":5.37287,"is_reserved":false,"is_disabled":false,"rental_uris":{"android":"levelo://app?vid=941c2be7-38c9-4594-8d09-931cf3867569","ios":"levelo://app?vid=941c2be7-38c9-4594-8d09-931cf3867569"},"vehicle_type_id":"4","last_reported":1726931333,"current_range_meters":25600,"station_id":"ce4bhg12rcd13ifvqf70","pricing_plan_id":"cebpf4jnsgd1na2vs0mg"},{"bike_id":"f52f8d59-062e-4196-b574-09febdfff3cf","system_id":"levelo_inurba_marseille","lat":43.23959,"lon":5.3663,"is_reserved":false,"is_disabled":false,"rental_uris":{"android":"levelo://app?vid=f52f8d59-062e-4196-b574-09febdfff3cf","ios":"levelo://app?vid=f52f8d59-062e-4196-b574-09febdfff3cf"},"vehicle_type_id":"4","last_reported":1726931333,"current_range_meters":19600,"station_id":"ce4bhi12rcd13ifvqfp0","pricing_plan_id":"cebpf4jnsgd1na2vs0mg"},{"bike_id":"06bc7569-871f-4107-a6ba-8fe9d2e50a3d","system_id":"levelo_inurba_marseille","lat":43.2808,"lon":5.39662,"is_reserved":false,"is_disabled":false,"rental_uris":{"android":"levelo://app?vid=06bc7569-871f-4107-a6ba-8fe9d2e50a3d","ios":"levelo://app?vid=06bc7569-871f-4107-a6ba-8fe9d2e50a3d"},"vehicle_type_id":"4","last_reported":1726931333,"current_range_meters":24000,"station_id":"ce4bho12rcd13ifvqh2g","pricing_plan_id":"cebpf4jnsgd1na2vs0mg"},{"bike_id":"401e60d2-841e-4e8e-b792-ea9d658da8e8","system_id":"levelo_inurba_marseille","lat":43.28569,"lon":5.39493,"is_reserved":false,"is_disabled":false,"rental_uris":{"android":"levelo://app?vid=401e60d2-841e-4e8e-b792-ea9d658da8e8","ios":"levelo://app?vid=401e60d2-841e-4e8e-b792-ea9d658da8e8"},"vehicle_type_id":"4","last_reported":1726931333,"current_range_meters":32400,"station_id":"ce4bh292rcd13ifvqdg0","pricing_plan_id":"cebpf4jnsgd1na2vs0mg"},{"bike_id":"fc310a25-dc2d-4c56-a987-6d115e7de426","system_id":"levelo_inurba_marseille","lat":43.26558,"lon":5.3729,"is_reserved":false,"is_disabled":false,"rental_uris":{"android":"levelo://app?vid=fc310a25-dc2d-4c56-a987-6d115e7de426","ios":"levelo://app?vid=fc310a25-dc2d-4c56-a987-6d115e7de426"},"vehicle_type_id":"4","last_reported":1726931333,"current_range_meters":38000,"station_id":"ce4bhg12rcd13ifvqf70","pricing_plan_id":"cebpf4jnsgd1na2vs0mg"},{"bike_id":"3e67926b-d996-4939-b001-65a0c74bfdd9","system_id":"levelo_inurba_marseille","lat":43.27605,"lon":5.36115,"is_reserved":false,"is_disabled":false,"rental_uris":{"android":"levelo://app?vid=3e67926b-d996-4939-b001-65a0c74bfdd9","ios":"levelo://app?vid=3e67926b-d996-4939-b001-65a0c74bfdd9"},"vehicle_type_id":"4","last_reported":1726931333,"current_range_meters":38800,"station_id":"ce4bgj92rcd13ifvqbe0","pricing_plan_id":"cebpf4jnsgd1na2vs0mg"},{"bike_id":"d7da6523-b170-45fd-83b0-bc213474b4ea","system_id":"levelo_inurba_marseille","lat":43.30218,"lon":5.39479,"is_reserved":false,"is_disabled":false,"rental_uris":{"android":"levelo://app?vid=d7da6523-b170-45fd-83b0-bc213474b4ea","ios":"levelo://app?vid=d7da6523-b170-45fd-83b0-bc213474b4ea"},"vehicle_type_id":"4","last_reported":1726931333,"current_range_meters":2000,"station_id":"ce4bh0p2rcd13ifvqd70","pricing_plan_id":"cebpf4jnsgd1na2vs0mg"},{"bike_id":"61109755-ebce-4a28-8ce3-899f6c017a35","system_id":"levelo_inurba_marseille","lat":43.251101,"lon":5.40322,"is_reserved":false,"is_disabled":false,"rental_uris":{"android":"levelo://app?vid=61109755-ebce-4a28-8ce3-899f6c017a35","ios":"levelo://app?vid=61109755-ebce-4a28-8ce3-899f6c017a35"},"vehicle_type_id":"4","last_reported":1726931333,"current_range_meters":24400,"station_id":"ce4bhkp2rcd13ifvqgd0","pricing_plan_id":"cebpf4jnsgd1na2vs0mg"},{"bike_id":"84252a62-067f-432d-9fd8-6091579c4051","system_id":"levelo_inurba_marseille","lat":43.33023,"lon":5.39042,"is_reserved":false,"is_disabled":false,"rental_uris":{"android":"levelo://app?vid=84252a62-067f-432d-9fd8-6091579c4051","ios":"levelo://app?vid=84252a62-067f-432d-9fd8-6091579c4051"},"vehicle_type_id":"4","last_reported":1726931333,"current_range_meters":6000,"station_id":"ce4bhr92rcd13ifvqhrg","pricing_plan_id":"cebpf4jnsgd1na2vs0mg"},{"bike_id":"d323bc23-4105-4d98-87ab-fb3899c88f8a","system_id":"levelo_inurba_marseille","lat":43.23197,"lon":5.35559,"is_reserved":false,"is_disabled":false,"rental_uris":{"android":"levelo://app?vid=d323bc23-4105-4d98-87ab-fb3899c88f8a","ios":"levelo://app?vid=d323bc23-4105-4d98-87ab-fb3899c88f8a"},"vehicle_type_id":"4","last_reported":1726931333,"current_range_meters":36800,"station_id":"ce4bhu92rcd13ifvqi70","pricing_plan_id":"cebpf4jnsgd1na2vs0mg"},{"bike_id":"d868928e-8e51-401b-aef6-b4bc636f61f3","system_id":"levelo_inurba_marseille","lat":43.28416,"lon":5.34976,"is_reserved":false,"is_disabled":false,"rental_uris":{"android":"levelo://app?vid=d868928e-8e51-401b-aef6-b4bc636f61f3","ios":"levelo://app?vid=d868928e-8e51-401b-aef6-b4bc636f61f3"},"vehicle_type_id":"4","last_reported":1726931333,"current_range_meters":38800,"station_id":"ce4bhbh2rcd13ifvqepg","pricing_plan_id":"cebpf4jnsgd1na2vs0mg"},{"bike_id":"0d966cb9-7fe6-4ede-8012-01837258dae5","system_id":"levelo_inurba_marseille","lat":43.30801,"lon":5.43516,"is_reserved":false,"is_disabled":false,"rental_uris":{"android":"levelo://app?vid=0d966cb9-7fe6-4ede-8012-01837258dae5","ios":"levelo://app?vid=0d966cb9-7fe6-4ede-8012-01837258dae5"},"vehicle_type_id":"4","last_reported":1726931333,"current_range_meters":8400,"station_id":"ce4bhph2rcd13ifvqheg","pricing_plan_id":"cebpf4jnsgd1na2vs0mg"},{"bike_id":"de8f196e-02cf-4220-b086-3c02fcec3a97","system_id":"levelo_inurba_marseille","lat":43.284818,"lon":5.384131,"is_reserved":false,"is_disabled":false,"rental_uris":{"android":"levelo://app?vid=de8f196e-02cf-4220-b086-3c02fcec3a97","ios":"levelo://app?vid=de8f196e-02cf-4220-b086-3c02fcec3a97"},"vehicle_type_id":"4","last_reported":1726931333,"current_range_meters":38400,"station_id":"ce4bh512rcd13ifvqe3g","pricing_plan_id":"cebpf4jnsgd1na2vs0mg"},{"bike_id":"33d6ff2c-e9ab-420e-9dd7-bcdb5d1a399f","system_id":"levelo_inurba_marseille","lat":43.31719,"lon":5.43715,"is_reserved":false,"is_disabled":false,"rental_uris":{"android":"levelo://app?vid=33d6ff2c-e9ab-420e-9dd7-bcdb5d1a399f","ios":"levelo://app?vid=33d6ff2c-e9ab-420e-9dd7-bcdb5d1a399f"},"vehicle_type_id":"4","last_reported":1726931333,"current_range_meters":35600,"station_id":"ce4bhp92rcd13ifvqhcg","pricing_plan_id":"cebpf4jnsgd1na2vs0mg"},{"bike_id":"166676af-a4c0-417b-b0f1-0cf23535ec82","system_id":"levelo_inurba_marseille","lat":43.23143,"lon":5.43725,"is_reserved":false,"is_disabled":false,"rental_uris":{"android":"levelo://app?vid=166676af-a4c0-417b-b0f1-0cf23535ec82","ios":"levelo://app?vid=166676af-a4c0-417b-b0f1-0cf23535ec82"},"vehicle_type_id":"4","last_reported":1726931333,"current_range_meters":16400,"station_id":"ce4bhmp2rcd13ifvqgog","pricing_plan_id":"cebpf4jnsgd1na2vs0mg"},{"bike_id":"32ecd4a5-6a6e-4685-ae24-d272b98d1ca3","system_id":"levelo_inurba_marseille","lat":43.23959,"lon":5.36627,"is_reserved":false,"is_disabled":false,"rental_uris":{"android":"levelo://app?vid=32ecd4a5-6a6e-4685-ae24-d272b98d1ca3","ios":"levelo://app?vid=32ecd4a5-6a6e-4685-ae24-d272b98d1ca3"},"vehicle_type_id":"4","last_reported":1726931333,"current_range_meters":8400,"station_id":"ce4bhi12rcd13ifvqfp0","pricing_plan_id":"cebpf4jnsgd1na2vs0mg"},{"bike_id":"5e78fb85-e163-454f-b47f-06d0c000c116","system_id":"levelo_inurba_marseille","lat":43.29162,"lon":5.38603,"is_reserved":false,"is_disabled":false,"rental_uris":{"android":"levelo://app?vid=5e78fb85-e163-454f-b47f-06d0c000c116","ios":"levelo://app?vid=5e78fb85-e163-454f-b47f-06d0c000c116"},"vehicle_type_id":"4","last_reported":1726931333,"current_range_meters":20000,"station_id":"","pricing_plan_id":"cebpf4jnsgd1na2vs0mg"},{"bike_id":"9353f79e-131d-42a9-b599-ca59d2fdaf55","system_id":"levelo_inurba_marseille","lat":43.28428,"lon":5.34984,"is_reserved":false,"is_disabled":false,"rental_uris":{"android":"levelo://app?vid=9353f79e-131d-42a9-b599-ca59d2fdaf55","ios":"levelo://app?vid=9353f79e-131d-42a9-b599-ca59d2fdaf55"},"vehicle_type_id":"4","last_reported":1726931333,"current_range_meters":38800,"station_id":"ce4bhbh2rcd13ifvqepg","pricing_plan_id":"cebpf4jnsgd1na2vs0mg"},{"bike_id":"8c31e471-7d43-49b9-b052-72f6de1be083","system_id":"levelo_inurba_marseille","lat":43.2315,"lon":5.43714,"is_reserved":false,"is_disabled":false,"rental_uris":{"android":"levelo://app?vid=8c31e471-7d43-49b9-b052-72f6de1be083","ios":"levelo://app?vid=8c31e471-7d43-49b9-b052-72f6de1be083"},"vehicle_type_id":"4","last_reported":1726931333,"current_range_meters":13600,"station_id":"ce4bhmp2rcd13ifvqgog","pricing_plan_id":"cebpf4jnsgd1na2vs0mg"},{"bike_id":"0b8b59d8-bc7d-4315-a8b7-88baefae4af2","system_id":"levelo_inurba_marseille","lat":43.301406,"lon":5.398693,"is_reserved":false,"is_disabled":false,"rental_uris":{"android":"levelo://app?vid=0b8b59d8-bc7d-4315-a8b7-88baefae4af2","ios":"levelo://app?vid=0b8b59d8-bc7d-4315-a8b7-88baefae4af2"},"vehicle_type_id":"4","last_reported":1726931333,"current_range_meters":38000,"station_id":"ce4bh0h2rcd13ifvqd40","pricing_plan_id":"cebpf4jnsgd1na2vs0mg"},{"bike_id":"8d9c715f-9745-43f1-b0c1-65e975dc001d","system_id":"levelo_inurba_marseille","lat":43.309326,"lon":5.390391,"is_reserved":false,"is_disabled":false,"rental_uris":{"android":"levelo://app?vid=8d9c715f-9745-43f1-b0c1-65e975dc001d","ios":"levelo://app?vid=8d9c715f-9745-43f1-b0c1-65e975dc001d"},"vehicle_type_id":"4","last_reported":1726931333,"current_range_meters":10800,"station_id":"ce4bgup2rcd13ifvqco0","pricing_plan_id":"cebpf4jnsgd1na2vs0mg"},{"bike_id":"d374cb2d-439a-43b0-9983-5f645ad687ae","system_id":"levelo_inurba_marseille","lat":43.24391,"lon":5.37058,"is_reserved":false,"is_disabled":false,"rental_uris":{"android":"levelo://app?vid=d374cb2d-439a-43b0-9983-5f645ad687ae","ios":"levelo://app?vid=d374cb2d-439a-43b0-9983-5f645ad687ae"},"vehicle_type_id":"4","last_reported":1726931333,"current_range_meters":4400,"station_id":"ce4bhhh2rcd13ifvqfk0","pricing_plan_id":"cebpf4jnsgd1na2vs0mg"},{"bike_id":"cbccb6a3-8a3a-4480-8add-daceea31073a","system_id":"levelo_inurba_marseille","lat":43.28157,"lon":5.42655,"is_reserved":false,"is_disabled":false,"rental_uris":{"android":"levelo://app?vid=cbccb6a3-8a3a-4480-8add-daceea31073a","ios":"levelo://app?vid=cbccb6a3-8a3a-4480-8add-daceea31073a"},"vehicle_type_id":"4","last_reported":1726931333,"current_range_meters":34000,"station_id":"ce4bhnh2rcd13ifvqgug","pricing_plan_id":"cebpf4jnsgd1na2vs0mg"},{"bike_id":"156cc6b8-6dc3-4531-9452-78a33b5eb4cc","system_id":"levelo_inurba_marseille","lat":43.24381,"lon":5.37051,"is_reserved":false,"is_disabled":false,"rental_uris":{"android":"levelo://app?vid=156cc6b8-6dc3-4531-9452-78a33b5eb4cc","ios":"levelo://app?vid=156cc6b8-6dc3-4531-9452-78a33b5eb4cc"},"vehicle_type_id":"4","last_reported":1726931333,"current_range_meters":38800,"station_id":"ce4bhhh2rcd13ifvqfk0","pricing_plan_id":"cebpf4jnsgd1na2vs0mg"},{"bike_id":"3c5e64a0-f4ac-46d7-a9c5-927a0ef07b31","system_id":"levelo_inurba_marseille","lat":43.29168,"lon":5.37137,"is_reserved":false,"is_disabled":false,"rental_uris":{"android":"levelo://app?vid=3c5e64a0-f4ac-46d7-a9c5-927a0ef07b31","ios":"levelo://app?vid=3c5e64a0-f4ac-46d7-a9c5-927a0ef07b31"},"vehicle_type_id":"4","last_reported":1726931333,"current_range_meters":22800,"station_id":"ce4bha92rcd13ifvqeh0","pricing_plan_id":"cebpf4jnsgd1na2vs0mg"},{"bike_id":"4058ea0e-9892-4067-b318-42847b74de1d","system_id":"levelo_inurba_marseille","lat":43.24806,"lon":5.3746,"is_reserved":false,"is_disabled":false,"rental_uris":{"android":"levelo://app?vid=4058ea0e-9892-4067-b318-42847b74de1d","ios":"levelo://app?vid=4058ea0e-9892-4067-b318-42847b74de1d"},"vehicle_type_id":"4","last_reported":1726931333,"current_range_meters":6000,"station_id":"ce4bhgh2rcd13ifvqfb0","pricing_plan_id":"cebpf4jnsgd1na2vs0mg"},{"bike_id":"762309ff-0db2-47db-bbe3-30d258de3d51","system_id":"levelo_inurba_marseille","lat":43.292801,"lon":5.401132,"is_reserved":false,"is_disabled":false,"rental_uris":{"android":"levelo://app?vid=762309ff-0db2-47db-bbe3-30d258de3d51","ios":"levelo://app?vid=762309ff-0db2-47db-bbe3-30d258de3d51"},"vehicle_type_id":"4","last_reported":1726931333,"current_range_meters":27600,"station_id":"ce4bh312rcd13ifvqdk0","pricing_plan_id":"cebpf4jnsgd1na2vs0mg"},{"bike_id":"f887ea9e-2eb7-415d-8387-97784d78b680","system_id":"levelo_inurba_marseille","lat":43.23959,"lon":5.3664,"is_reserved":false,"is_disabled":false,"rental_uris":{"android":"levelo://app?vid=f887ea9e-2eb7-415d-8387-97784d78b680","ios":"levelo://app?vid=f887ea9e-2eb7-415d-8387-97784d78b680"},"vehicle_type_id":"4","last_reported":1726931333,"current_range_meters":26000,"station_id":"ce4bhi12rcd13ifvqfp0","pricing_plan_id":"cebpf4jnsgd1na2vs0mg"},{"bike_id":"0e8e3fc9-766a-4c6b-b03a-d21464ad7c20","system_id":"levelo_inurba_marseille","lat":43.27622,"lon":5.36109,"is_reserved":false,"is_disabled":false,"rental_uris":{"android":"levelo://app?vid=0e8e3fc9-766a-4c6b-b03a-d21464ad7c20","ios":"levelo://app?vid=0e8e3fc9-766a-4c6b-b03a-d21464ad7c20"},"vehicle_type_id":"4","last_reported":1726931333,"current_range_meters":38800,"station_id":"ce4bgj92rcd13ifvqbe0","pricing_plan_id":"cebpf4jnsgd1na2vs0mg"},{"bike_id":"193dbd2d-426e-4630-b966-c226ade3e061","system_id":"levelo_inurba_marseille","lat":43.31359,"lon":5.3671,"is_reserved":false,"is_disabled":false,"rental_uris":{"android":"levelo://app?vid=193dbd2d-426e-4630-b966-c226ade3e061","ios":"levelo://app?vid=193dbd2d-426e-4630-b966-c226ade3e061"},"vehicle_type_id":"4","last_reported":1726931333,"current_range_meters":22800,"station_id":"ce4bgr92rcd13ifvqc6g","pricing_plan_id":"cebpf4jnsgd1na2vs0mg"},{"bike_id":"35faea71-56e7-4860-b4e8-ea6c7685e116","system_id":"levelo_inurba_marseille","lat":43.25865,"lon":5.39902,"is_reserved":false,"is_disabled":false,"rental_uris":{"android":"levelo://app?vid=35faea71-56e7-4860-b4e8-ea6c7685e116","ios":"levelo://app?vid=35faea71-56e7-4860-b4e8-ea6c7685e116"},"vehicle_type_id":"4","last_reported":1726931333,"current_range_meters":11200,"station_id":"ce4bhl92rcd13ifvqghg","pricing_plan_id":"cebpf4jnsgd1na2vs0mg"},{"bike_id":"12523199-e5f9-4719-896d-fc53190097ff","system_id":"levelo_inurba_marseille","lat":43.25729,"lon":5.41108,"is_reserved":false,"is_disabled":false,"rental_uris":{"android":"levelo://app?vid=12523199-e5f9-4719-896d-fc53190097ff","ios":"levelo://app?vid=12523199-e5f9-4719-896d-fc53190097ff"},"vehicle_type_id":"4","last_reported":1726931333,"current_range_meters":37600,"station_id":"ce4bhkp2rcd13ifvqgd0","pricing_plan_id":"cebpf4jnsgd1na2vs0mg"},{"bike_id":"485bf86f-7790-4624-9b3a-c0f41be08ad4","system_id":"levelo_inurba_marseille","lat":43.28363,"lon":5.386305,"is_reserved":false,"is_disabled":false,"rental_uris":{"android":"levelo://app?vid=485bf86f-7790-4624-9b3a-c0f41be08ad4","ios":"levelo://app?vid=485bf86f-7790-4624-9b3a-c0f41be08ad4"},"vehicle_type_id":"4","last_reported":1726931333,"current_range_meters":19600,"station_id":"ce4bh492rcd13ifvqdvg","pricing_plan_id":"cebpf4jnsgd1na2vs0mg"},{"bike_id":"6fba5c86-e7bd-477f-8aad-f2bcc8666e6f","system_id":"levelo_inurba_marseille","lat":43.2587,"lon":5.39895,"is_reserved":false,"is_disabled":false,"rental_uris":{"android":"levelo://app?vid=6fba5c86-e7bd-477f-8aad-f2bcc8666e6f","ios":"levelo://app?vid=6fba5c86-e7bd-477f-8aad-f2bcc8666e6f"},"vehicle_type_id":"4","last_reported":1726931333,"current_range_meters":36800,"station_id":"ce4bhl92rcd13ifvqghg","pricing_plan_id":"cebpf4jnsgd1na2vs0mg"},{"bike_id":"f742507c-34c4-4a92-98e0-5c394b5450cb","system_id":"levelo_inurba_marseille","lat":43.25824,"lon":5.39438,"is_reserved":false,"is_disabled":false,"rental_uris":{"android":"levelo://app?vid=f742507c-34c4-4a92-98e0-5c394b5450cb","ios":"levelo://app?vid=f742507c-34c4-4a92-98e0-5c394b5450cb"},"vehicle_type_id":"4","last_reported":1726931333,"current_range_meters":16800,"station_id":"ce4bhip2rcd13ifvqft0","pricing_plan_id":"cebpf4jnsgd1na2vs0mg"},{"bike_id":"9cf968d1-1740-4c3f-bcd7-06496b339f60","system_id":"levelo_inurba_marseille","lat":43.279144,"lon":5.395787,"is_reserved":false,"is_disabled":false,"rental_uris":{"android":"levelo://app?vid=9cf968d1-1740-4c3f-bcd7-06496b339f60","ios":"levelo://app?vid=9cf968d1-1740-4c3f-bcd7-06496b339f60"},"vehicle_type_id":"4","last_reported":1726931333,"current_range_meters":25200,"station_id":"ce4bhf92rcd13ifvqf40","pricing_plan_id":"cebpf4jnsgd1na2vs0mg"},{"bike_id":"d35c199f-10e3-4c3f-a944-06f389326357","system_id":"levelo_inurba_marseille","lat":43.30125,"lon":5.38782,"is_reserved":false,"is_disabled":false,"rental_uris":{"android":"levelo://app?vid=d35c199f-10e3-4c3f-a944-06f389326357","ios":"levelo://app?vid=d35c199f-10e3-4c3f-a944-06f389326357"},"vehicle_type_id":"4","last_reported":1726931333,"current_range_meters":38000,"station_id":"ce4bghh2rcd13ifvqb60","pricing_plan_id":"cebpf4jnsgd1na2vs0mg"},{"bike_id":"85105fc0-f56a-4c99-96d6-e0c2770852a6","system_id":"levelo_inurba_marseille","lat":43.28156,"lon":5.42646,"is_reserved":false,"is_disabled":false,"rental_uris":{"android":"levelo://app?vid=85105fc0-f56a-4c99-96d6-e0c2770852a6","ios":"levelo://app?vid=85105fc0-f56a-4c99-96d6-e0c2770852a6"},"vehicle_type_id":"4","last_reported":1726931333,"current_range_meters":8800,"station_id":"ce4bhnh2rcd13ifvqgug","pricing_plan_id":"cebpf4jnsgd1na2vs0mg"},{"bike_id":"0801d2cf-487a-4bbb-86ab-b49d5e3f4ea0","system_id":"levelo_inurba_marseille","lat":43.29255,"lon":5.40904,"is_reserved":false,"is_disabled":false,"rental_uris":{"android":"levelo://app?vid=0801d2cf-487a-4bbb-86ab-b49d5e3f4ea0","ios":"levelo://app?vid=0801d2cf-487a-4bbb-86ab-b49d5e3f4ea0"},"vehicle_type_id":"4","last_reported":1726931333,"current_range_meters":22800,"station_id":"ce4bh192rcd13ifvqdc0","pricing_plan_id":"cebpf4jnsgd1na2vs0mg"},{"bike_id":"c0bb13f2-c66a-4c2c-9069-2d56aa2210bf","system_id":"levelo_inurba_marseille","lat":43.320412,"lon":5.415415,"is_reserved":false,"is_disabled":false,"rental_uris":{"android":"levelo://app?vid=c0bb13f2-c66a-4c2c-9069-2d56aa2210bf","ios":"levelo://app?vid=c0bb13f2-c66a-4c2c-9069-2d56aa2210bf"},"vehicle_type_id":"4","last_reported":1726931333,"current_range_meters":38000,"station_id":"ce4bhq92rcd13ifvqhkg","pricing_plan_id":"cebpf4jnsgd1na2vs0mg"},{"bike_id":"8420dc83-545b-4962-8329-6948a5a22dc9","system_id":"levelo_inurba_marseille","lat":43.28417,"lon":5.3499,"is_reserved":false,"is_disabled":false,"rental_uris":{"android":"levelo://app?vid=8420dc83-545b-4962-8329-6948a5a22dc9","ios":"levelo://app?vid=8420dc83-545b-4962-8329-6948a5a22dc9"},"vehicle_type_id":"4","last_reported":1726931333,"current_range_meters":36800,"station_id":"ce4bhbh2rcd13ifvqepg","pricing_plan_id":"cebpf4jnsgd1na2vs0mg"},{"bike_id":"bf4fb08a-acd1-4629-9083-fe385a66cec8","system_id":"levelo_inurba_marseille","lat":43.33763,"lon":5.37438,"is_reserved":false,"is_disabled":false,"rental_uris":{"android":"levelo://app?vid=bf4fb08a-acd1-4629-9083-fe385a66cec8","ios":"levelo://app?vid=bf4fb08a-acd1-4629-9083-fe385a66cec8"},"vehicle_type_id":"4","last_reported":1726931333,"current_range_meters":18000,"station_id":"","pricing_plan_id":"cebpf4jnsgd1na2vs0mg"},{"bike_id":"11934601-5a96-4460-9236-64b70ec2bc9b","system_id":"levelo_inurba_marseille","lat":43.30947,"lon":5.3903,"is_reserved":false,"is_disabled":false,"rental_uris":{"android":"levelo://app?vid=11934601-5a96-4460-9236-64b70ec2bc9b","ios":"levelo://app?vid=11934601-5a96-4460-9236-64b70ec2bc9b"},"vehicle_type_id":"4","last_reported":1726931333,"current_range_meters":6800,"station_id":"ce4bgup2rcd13ifvqco0","pricing_plan_id":"cebpf4jnsgd1na2vs0mg"},{"bike_id":"22e4a15e-6041-4c71-b288-1c12c69d262d","system_id":"levelo_inurba_marseille","lat":43.33723,"lon":5.39188,"is_reserved":false,"is_disabled":false,"rental_uris":{"android":"levelo://app?vid=22e4a15e-6041-4c71-b288-1c12c69d262d","ios":"levelo://app?vid=22e4a15e-6041-4c71-b288-1c12c69d262d"},"vehicle_type_id":"4","last_reported":1726931333,"current_range_meters":12400,"station_id":"ce4bhr92rcd13ifvqhsg","pricing_plan_id":"cebpf4jnsgd1na2vs0mg"},{"bike_id":"c5d3a046-6bd7-4d7b-af21-c3e4cb98efd0","system_id":"levelo_inurba_marseille","lat":43.23965,"lon":5.36621,"is_reserved":false,"is_disabled":false,"rental_uris":{"android":"levelo://app?vid=c5d3a046-6bd7-4d7b-af21-c3e4cb98efd0","ios":"levelo://app?vid=c5d3a046-6bd7-4d7b-af21-c3e4cb98efd0"},"vehicle_type_id":"4","last_reported":1726931333,"current_range_meters":20800,"station_id":"ce4bhi12rcd13ifvqfp0","pricing_plan_id":"cebpf4jnsgd1na2vs0mg"},