{"last_updated":1717333622,"ttl":30,"version":"2.2","data":{"bikes":[{"bike_id":"93cb9a9b-adf1-4bcf-859d-072610dbc021","system_id":"levelo_inurba_marseille","lat":43.312239,"lon":5.368562,"is_reserved":false,"is_disabled":false,"rental_uris":{"android":"levelo://app?vid=93cb9a9b-adf1-4bcf-859d-072610dbc021","ios":"levelo://app?vid=93cb9a9b-adf1-4bcf-859d-072610dbc021"},"vehicle_type_id":"4","last_reported":1717333622,"current_range_meters":13200,"station_id":"ce4bgl92rcd13ifvqbq0","pricing_plan_id":"cebpf4jnsgd1na2vs0mg"},{"bike_id":"ffcaabbe-af31-4006-8c50-44ed3869020d","system_id":"levelo_inurba_marseille","lat":43.309076,"lon":5.368465,"is_reserved":false,"is_disabled":false,"rental_uris":{"android":"levelo://app?vid=ffcaabbe-af31-4006-8c50-44ed3869020d","ios":"levelo://app?vid=ffcaabbe-af31-4006-8c50-44ed3869020d"},"vehicle_type_id":"4","last_reported":1717333622,"current_range_meters":30000,"station_id":"ce4bgn92rcd13ifvqbvg","pricing_plan_id":"cebpf4jnsgd1na2vs0mg"},{"bike_id":"12516786-0a8d-4fd5-8e53-43d255a79488","system_id":"levelo_inurba_marseille","lat":43.309076,"lon":5.368465,"is_reserved":false,"is_disabled":false,"rental_uris":{"android":"levelo://app?vid=12516786-0a8d-4fd5-8e53-43d255a79488","ios":"levelo://app?vid=12516786-0a8d-4fd5-8e53-43d255a79488"},"vehicle_type_id":"4","last_reported":1717333622,"current_range_meters":18400,"station_id":"ce4bgn92rcd13ifvqbvg","pricing_plan_id":"cebpf4jnsgd1na2vs0mg"},{"bike_id":"839e3e73-9cde-417b-be68-03ecb4869e10","system_id":"levelo_inurba_marseille","lat":43.309034,"lon":5.371783,"is_reserved":false,"is_disabled":false,"rental_uris":{"android":"levelo://app?vid=839e3e73-9cde-417b-be68-03ecb4869e10","ios":"levelo://app?vid=839e3e73-9cde-417b-be68-03ecb4869e10"},"vehicle_type_id":"4","last_reported":1717333622,"current_range_meters":28000,"station_id":"ce4bguh2rcd13ifvqckg","pricing_plan_id":"cebpf4jnsgd1na2vs0mg"},{"bike_id":"3b74879a-dfe9-4a7e-b2cb-32b393ee77a8","system_id":"levelo_inurba_marseille","lat":43.305368,"lon":5.367343,"is_reserved":false,"is_disabled":false,"rental_uris":{"android":"levelo://app?vid=3b74879a-dfe9-4a7e-b2cb-32b393ee77a8","ios":"levelo://app?vid=3b74879a-dfe9-4a7e-b2cb-32b393ee77a8"},"vehicle_type_id":"4","last_reported":1717333622,"current_range_meters":22000,"station_id":"ce4bgrp2rcd13ifvqc9g","pricing_plan_id":"cebpf4jnsgd1na2vs0mg"},{"bike_id":"c41a9bb6-56f0-4ab1-b4fb-f3381767b52a","system_id":"levelo_inurba_marseille","lat":43.305594,"lon":5.365336,"is_reserved":false,"is_disabled":false,"rental_uris":{"android":"levelo://app?vid=c41a9bb6-56f0-4ab1-b4fb-f3381767b52a","ios":"levelo://app?vid=c41a9bb6-56f0-4ab1-b4fb-f3381767b52a"},"vehicle_type_id":"4","last_reported":1717333622,"current_range_meters":13200,"station_id":"ce4bgs12rcd13ifvqcag","pricing_plan_id":"cebpf4jnsgd1na2vs0mg"},{"bike_id":"83f05e27-5868-4c28-8d3d-7a621f178673","system_id":"levelo_inurba_marseille","lat":43.305368,"lon":5.367343,"is_reserved":false,"is_disabled":false,"rental_uris":{"android":"levelo://app?vid=83f05e27-5868-4c28-8d3d-7a621f178673","ios":"levelo://app?vid=83f05e27-5868-4c28-8d3d-7a621f178673"},"vehicle_type_id":"4","last_reported":1717333622,"current_range_meters":0,"station_id":"ce4bgrp2rcd13ifvqc9g","pricing_plan_id":"cebpf4jnsgd1na2vs0mg"},{"bike_id":"80ee86b8-755a-4ec0-b079-0abe72ca02fe","system_id":"levelo_inurba_marseille","lat":43.305712,"lon":5.365641,"is_reserved":false,"is_disabled":false,"rental_uris":{"android":"levelo://app?vid=80ee86b8-755a-4ec0-b079-0abe72ca02fe","ios":"levelo://app?vid=80ee86b8-755a-4ec0-b079-0abe72ca02fe"},"vehicle_type_id":"4","last_reported":1717333622,"current_range_meters":9600,"station_id":"ce4bgs12rcd13ifvqcag","pricing_plan_id":"cebpf4jnsgd1na2vs0mg"},{"bike_id":"e6da4c63-3e18-464e-add1-ed6fd789ceb8","system_id":"levelo_inurba_marseille","lat":43.305706,"lon":5.365654,"is_reserved":false,"is_disabled":false,"rental_uris":{"android":"levelo://app?vid=e6da4c63-3e18-464e-add1-ed6fd789ceb8","ios":"levelo://app?vid=e6da4c63-3e18-464e-add1-ed6fd789ceb8"},"vehicle_type_id":"4","last_reported":1717333622,"current_range_meters":22000,"station_id":"ce4bgs12rcd13ifvqcag","pricing_plan_id":"cebpf4jnsgd1na2vs0mg"},{"bike_id":"bf913c80-8ffc-471b-ab8e-73d48297b7b1","system_id":"levelo_inurba_marseille","lat":43.305714,"lon":5.365633,"is_reserved":false,"is_disabled":false,"rental_uris":{"android":"levelo://app?vid=bf913c80-8ffc-471b-ab8e-73d48297b7b1","ios":"levelo://app?vid=bf913c80-8ffc-471b-ab8e-73d48297b7b1"},"vehicle_type_id":"4","last_reported":1717333622,"current_range_meters":6400,"station_id":"ce4bgs12rcd13ifvqcag","pricing_plan_id":"cebpf4jnsgd1na2vs0mg"},{"bike_id":"69ac32f5-ec55-403d-94f0-99025da00ae7","system_id":"levelo_inurba_marseille","lat":43.305706,"lon":5.365654,"is_reserved":false,"is_disabled":false,"rental_uris":{"android":"levelo://app?vid=69ac32f5-ec55-403d-94f0-99025da00ae7","ios":"levelo://app?vid=69ac32f5-ec55-403d-94f0-99025da00ae7"},"vehicle_type_id":"4","last_reported":1717333622,"current_range_meters":18000,"station_id":"ce4bgs12rcd13ifvqcag","pricing_plan_id":"cebpf4jnsgd1na2vs0mg"},{"bike_id":"4cf87d36-8e4f-4881-873d-8ac5dfbde9a6","system_id":"levelo_inurba_marseille","lat":43.305706,"lon":5.365654,"is_reserved":false,"is_disabled":false,"rental_uris":{"android":"levelo://app?vid=4cf87d36-8e4f-4881-873d-8ac5dfbde9a6","ios":"levelo://app?vid=4cf87d36-8e4f-4881-873d-8ac5dfbde9a6"},"vehicle_type_id":"4","last_reported":1717333622,"current_range_meters":31200,"station_id":"ce4bgs12rcd13ifvqcag","pricing_plan_id":"cebpf4jnsgd1na2vs0mg"},{"bike_id":"37b5c42c-bceb-472d-b235-2556db1e2d01","system_id":"levelo_inurba_marseille","lat":43.305368,"lon":5.367343,"is_reserved":false,"is_disabled":false,"rental_uris":{"android":"levelo://app?vid=37b5c42c-bceb-472d-b235-2556db1e2d01","ios":"levelo://app?vid=37b5c42c-bceb-472d-b235-2556db1e2d01"},"vehicle_type_id":"4","last_reported":1717333622,"current_range_meters":12400,"station_id":"ce4bgrp2rcd13ifvqc9g","pricing_plan_id":"cebpf4jnsgd1na2vs0mg"},{"bike_id":"a6fd56fb-61d0-4150-a4d0-3d44f4f7a598","system_id":"levelo_inurba_marseille","lat":43.305706,"lon":5.365654,"is_reserved":false,"is_disabled":false,"rental_uris":{"android":"levelo://app?vid=a6fd56fb-61d0-4150-a4d0-3d44f4f7a598","ios":"levelo://app?vid=a6fd56fb-61d0-4150-a4d0-3d44f4f7a598"},"vehicle_type_id":"4","last_reported":1717333622,"current_range_meters":31200,"station_id":"ce4bgs12rcd13ifvqcag","pricing_plan_id":"cebpf4jnsgd1na2vs0mg"},{"bike_id":"6d5e57c2-9a77-41c7-813c-8e52e3bab4ab","system_id":"levelo_inurba_marseille","lat":43.311125,"lon":5.377624,"is_reserved":false,"is_disabled":false,"rental_uris":{"android":"levelo://app?vid=6d5e57c2-9a77-41c7-813c-8e52e3bab4ab","ios":"levelo://app?vid=6d5e57c2-9a77-41c7-813c-8e52e3bab4ab"},"vehicle_type_id":"4","last_reported":1717333622,"current_range_meters":14800,"station_id":"ce4bgt92rcd13ifvqcg0","pricing_plan_id":"cebpf4jnsgd1na2vs0mg"},{"bike_id":"1183772c-cc84-426b-a674-9e09eeb3ddc3","system_id":"levelo_inurba_marseille","lat":43.311125,"lon":5.377624,"is_reserved":false,"is_disabled":false,"rental_uris":{"android":"levelo://app?vid=1183772c-cc84-426b-a674-9e09eeb3ddc3","ios":"levelo://app?vid=1183772c-cc84-426b-a674-9e09eeb3ddc3"},"vehicle_type_id":"4","last_reported":1717333622,"current_range_meters":18800,"station_id":"ce4bgt92rcd13ifvqcg0","pricing_plan_id":"cebpf4jnsgd1na2vs0mg"},{"bike_id":"6831711f-87e9-47c6-8e57-d77755db5ae9","system_id":"levelo_inurba_marseille","lat":43.30781,"lon":5.37658,"is_reserved":false,"is_disabled":false,"rental_uris":{"android":"levelo://app?vid=6831711f-87e9-47c6-8e57-d77755db5ae9","ios":"levelo://app?vid=6831711f-87e9-47c6-8e57-d77755db5ae9"},"vehicle_type_id":"4","last_reported":1717333622,"current_range_meters":22400,"station_id":"ce4bgv92rcd13ifvqcq0","pricing_plan_id":"cebpf4jnsgd1na2vs0mg"},{"bike_id":"f1c190d8-955e-4bad-882c-39f5d34408ae","system_id":"levelo_inurba_marseille","lat":43.307945,"lon":5.376487,"is_reserved":false,"is_disabled":false,"rental_uris":{"android":"levelo://app?vid=f1c190d8-955e-4bad-882c-39f5d34408ae","ios":"levelo://app?vid=f1c190d8-955e-4bad-882c-39f5d34408ae"},"vehicle_type_id":"4","last_reported":1717333622,"current_range_meters":31200,"station_id":"ce4bgv92rcd13ifvqcq0","pricing_plan_id":"cebpf4jnsgd1na2vs0mg"},{"bike_id":"6205fad5-8c39-4816-810c-b2e17526bfea","system_id":"levelo_inurba_marseille","lat":43.317075,"lon":5.377367,"is_reserved":false,"is_disabled":false,"rental_uris":{"android":"levelo://app?vid=6205fad5-8c39-4816-810c-b2e17526bfea","ios":"levelo://app?vid=6205fad5-8c39-4816-810c-b2e17526bfea"},"vehicle_type_id":"4","last_reported":1717333622,"current_range_meters":13600,"station_id":"ce4bgth2rcd13ifvqch0","pricing_plan_id":"cebpf4jnsgd1na2vs0mg"},{"bike_id":"8f0b6a0e-aa78-45dc-bd51-c01b815f041f","system_id":"levelo_inurba_marseille","lat":43.31771,"lon":5.37783,"is_reserved":false,"is_disabled":false,"rental_uris":{"android":"levelo://app?vid=8f0b6a0e-aa78-45dc-bd51-c01b815f041f","ios":"levelo://app?vid=8f0b6a0e-aa78-45dc-bd51-c01b815f041f"},"vehicle_type_id":"4","last_reported":1717333622,"current_range_meters":30800,"station_id":"","pricing_plan_id":"cebpf4jnsgd1na2vs0mg"},{"bike_id":"d68f55bd-00e2-41fa-9ef4-963c1c8bbac7","system_id":"levelo_inurba_marseille","lat":43.303046,"lon":5.368981,"is_reserved":false,"is_disabled":false,"rental_uris":{"android":"levelo://app?vid=d68f55bd-00e2-41fa-9ef4-963c1c8bbac7","ios":"levelo://app?vid=d68f55bd-00e2-41fa-9ef4-963c1c8bbac7"},"vehicle_type_id":"4","last_reported":1717333622,"current_range_meters":3200,"station_id":"ce4bgqh2rcd13ifvqc5g","pricing_plan_id":"cebpf4jnsgd1na2vs0mg"},{"bike_id":"1d1ace44-2e8f-42cf-9f06-228a95cd915a","system_id":"levelo_inurba_marseille","lat":43.315293,"lon":5.380349,"is_reserved":false,"is_disabled":false,"rental_uris":{"android":"levelo://app?vid=1d1ace44-2e8f-42cf-9f06-228a95cd915a","ios":"levelo://app?vid=1d1ace44-2e8f-42cf-9f06-228a95cd915a"},"vehicle_type_id":"4","last_reported":1717333622,"current_range_meters":21600,"station_id":"ce4bhsp2rcd13ifvqi50","pricing_plan_id":"cebpf4jnsgd1na2vs0mg"},{"bike_id":"61ce56f3-8c27-423d-bbf1-b00ccc6cf763","system_id":"levelo_inurba_marseille","lat":43.315293,"lon":5.380349,"is_reserved":false,"is_disabled":false,"rental_uris":{"android":"levelo://app?vid=61ce56f3-8c27-423d-bbf1-b00ccc6cf763","ios":"levelo://app?vid=61ce56f3-8c27-423d-bbf1-b00ccc6cf763"},"vehicle_type_id":"4","last_reported":1717333622,"current_range_meters":800,"station_id":"ce4bhsp2rcd13ifvqi50","pricing_plan_id":"cebpf4jnsgd1na2vs0mg"},{"bike_id":"701a9ec3-2f7e-4751-b26c-51c6543fc6c8","system_id":"levelo_inurba_marseille","lat":43.315293,"lon":5.380349,"is_reserved":false,"is_disabled":false,"rental_uris":{"android":"levelo://app?vid=701a9ec3-2f7e-4751-b26c-51c6543fc6c8","ios":"levelo://app?vid=701a9ec3-2f7e-4751-b26c-51c6543fc6c8"},"vehicle_type_id":"4","last_reported":1717333622,"current_range_meters":22000,"station_id":"ce4bhsp2rcd13ifvqi50","pricing_plan_id":"cebpf4jnsgd1na2vs0mg"},{"bike_id":"58ec586b-4c01-4f6e-b4d1-e1d57e94c8cc","system_id":"levelo_inurba_marseille","lat":43.324771,"lon":5.36557,"is_reserved":false,"is_disabled":false,"rental_uris":{"android":"levelo://app?vid=58ec586b-4c01-4f6e-b4d1-e1d57e94c8cc","ios":"levelo://app?vid=58ec586b-4c01-4f6e-b4d1-e1d57e94c8cc"},"vehicle_type_id":"4","last_reported":1717333622,"current_range_meters":12800,"station_id":"ce4bhs12rcd13ifvqhvg","pricing_plan_id":"cebpf4jnsgd1na2vs0mg"},{"bike_id":"42c7a295-36d5-4ecb-a515-edff7e61f781","system_id":"levelo_inurba_marseille","lat":43.324771,"lon":5.36557,"is_reserved":false,"is_disabled":false,"rental_uris":{"android":"levelo://app?vid=42c7a295-36d5-4ecb-a515-edff7e61f781","ios":"levelo://app?vid=42c7a295-36d5-4ecb-a515-edff7e61f781"},"vehicle_type_id":"4","last_reported":1717333622,"current_range_meters":25200,"station_id":"ce4bhs12rcd13ifvqhvg","pricing_plan_id":"cebpf4jnsgd1na2vs0mg"},{"bike_id":"8cbc0fc6-918d-4c69-8fdd-df42854ea7e1","system_id":"levelo_inurba_marseille","lat":43.32479,"lon":5.36562,"is_reserved":false,"is_disabled":false,"rental_uris":{"android":"levelo://app?vid=8cbc0fc6-918d-4c69-8fdd-df42854ea7e1","ios":"levelo://app?vid=8cbc0fc6-918d-4c69-8fdd-df42854ea7e1"},"vehicle_type_id":"4","last_reported":1717333622,"current_range_meters":16400,"station_id":"ce4bhs12rcd13ifvqhvg","pricing_plan_id":"cebpf4jnsgd1na2vs0mg"},{"bike_id":"7d8c9967-a5fa-4057-9c8c-66a605c6c81a","system_id":"levelo_inurba_marseille","lat":43.324771,"lon":5.36557,"is_reserved":false,"is_disabled":false,"rental_uris":{"android":"levelo://app?vid=7d8c9967-a5fa-4057-9c8c-66a605c6c81a","ios":"levelo://app?vid=7d8c9967-a5fa-4057-9c8c-66a605c6c81a"},"vehicle_type_id":"4","last_reported":1717333622,"current_range_meters":16800,"station_id":"ce4bhs12rcd13ifvqhvg","pricing_plan_id":"cebpf4jnsgd1na2vs0mg"},{"bike_id":"801f355f-f800-4b1e-bb6c-d1fe46e1a5b0","system_id":"levelo_inurba_marseille","lat":43.324771,"lon":5.36557,"is_reserved":false,"is_disabled":false,"rental_uris":{"android":"levelo://app?vid=801f355f-f800-4b1e-bb6c-d1fe46e1a5b0","ios":"levelo://app?vid=801f355f-f800-4b1e-bb6c-d1fe46e1a5b0"},"vehicle_type_id":"4","last_reported":1717333622,"current_range_meters":22000,"station_id":"ce4bhs12rcd13ifvqhvg","pricing_plan_id":"cebpf4jnsgd1na2vs0mg"},{"bike_id":"64ec3637-4ea2-4e44-9b1e-112fe7054b9d","system_id":"levelo_inurba_marseille","lat":43.324771,"lon":5.36557,"is_reserved":false,"is_disabled":false,"rental_uris":{"android":"levelo://app?vid=64ec3637-4ea2-4e44-9b1e-112fe7054b9d","ios":"levelo://app?vid=64ec3637-4ea2-4e44-9b1e-112fe7054b9d"},"vehicle_type_id":"4","last_reported":1717333622,"current_range_meters":1600,"station_id":"ce4bhs12rcd13ifvqhvg","pricing_plan_id":"cebpf4jnsgd1na2vs0mg"},{"bike_id":"760a3dff-4fd3-478b-bcb8-a8df2ebdcda7","system_id":"levelo_inurba_marseille","lat":43.32487,"lon":5.36573,"is_reserved":false,"is_disabled":false,"rental_uris":{"android":"levelo://app?vid=760a3dff-4fd3-478b-bcb8-a8df2ebdcda7","ios":"levelo://app?vid=760a3dff-4fd3-478b-bcb8-a8df2ebdcda7"},"vehicle_type_id":"4","last_reported":1717333622,"current_range_meters":17600,"station_id":"ce4bhs12rcd13ifvqhvg","pricing_plan_id":"cebpf4jnsgd1na2vs0mg"},{"bike_id":"dc165afd-38f4-483d-a711-026c7dff31c3","system_id":"levelo_inurba_marseille","lat":43.324771,"lon":5.36557,"is_reserved":false,"is_disabled":false,"rental_uris":{"android":"levelo://app?vid=dc165afd-38f4-483d-a711-026c7dff31c3","ios":"levelo://app?vid=dc165afd-38f4-483d-a711-026c7dff31c3"},"vehicle_type_id":"4","last_reported":1717333622,"current_range_meters":6000,"station_id":"ce4bhs12rcd13ifvqhvg","pricing_plan_id":"cebpf4jnsgd1na2vs0mg"},{"bike_id":"e45777db-9c3b-4f82-96ee-a09b0bb0b35a","system_id":"levelo_inurba_marseille","lat":43.302784,"lon":5.377158,"is_reserved":false,"is_disabled":false,"rental_uris":{"android":"levelo://app?vid=e45777db-9c3b-4f82-96ee-a09b0bb0b35a","ios":"levelo://app?vid=e45777db-9c3b-4f82-96ee-a09b0bb0b35a"},"vehicle_type_id":"4","last_reported":1717333622,"current_range_meters":20800,"station_id":"ce4bguh2rcd13ifvqcj0","pricing_plan_id":"cebpf4jnsgd1na2vs0mg"},{"bike_id":"39ba6520-d8d1-428d-a8a3-e07befa35c8d","system_id":"levelo_inurba_marseille","lat":43.301429,"lon":5.37413,"is_reserved":false,"is_disabled":false,"rental_uris":{"android":"levelo://app?vid=39ba6520-d8d1-428d-a8a3-e07befa35c8d","ios":"levelo://app?vid=39ba6520-d8d1-428d-a8a3-e07befa35c8d"},"vehicle_type_id":"4","last_reported":1717333622,"current_range_meters":11200,"station_id":"ce4bgs92rcd13ifvqcc0","pricing_plan_id":"cebpf4jnsgd1na2vs0mg"},{"bike_id":"738e4d5e-3ca2-45b8-8d0d-0ec4816ba461","system_id":"levelo_inurba_marseille","lat":43.30143,"lon":5.37413,"is_reserved":false,"is_disabled":false,"rental_uris":{"android":"levelo://app?vid=738e4d5e-3ca2-45b8-8d0d-0ec4816ba461","ios":"levelo://app?vid=738e4d5e-3ca2-45b8-8d0d-0ec4816ba461"},"vehicle_type_id":"4","last_reported":1717333622,"current_range_meters":19600,"station_id":"ce4bgs92rcd13ifvqcc0","pricing_plan_id":"cebpf4jnsgd1na2vs0mg"},{"bike_id":"4d482546-7b72-4463-9f7b-b455b5273e5a","system_id":"levelo_inurba_marseille","lat":43.301429,"lon":5.37413,"is_reserved":false,"is_disabled":false,"rental_uris":{"android":"levelo://app?vid=4d482546-7b72-4463-9f7b-b455b5273e5a","ios":"levelo://app?vid=4d482546-7b72-4463-9f7b-b455b5273e5a"},"vehicle_type_id":"4","last_reported":1717333622,"current_range_meters":27200,"station_id":"ce4bgs92rcd13ifvqcc0","pricing_plan_id":"cebpf4jnsgd1na2vs0mg"},{"bike_id":"5f902022-e487-4366-9821-d5eeb24ba1fb","system_id":"levelo_inurba_marseille","lat":43.302784,"lon":5.377158,"is_reserved":false,"is_disabled":false,"rental_uris":{"android":"levelo://app?vid=5f902022-e487-4366-9821-d5eeb24ba1fb","ios":"levelo://app?vid=5f902022-e487-4366-9821-d5eeb24ba1fb"},"vehicle_type_id":"4","last_reported":1717333622,"current_range_meters":0,"station_id":"ce4bguh2rcd13ifvqcj0","pricing_plan_id":"cebpf4jnsgd1na2vs0mg"},{"bike_id":"dc0f4164-887d-45f3-8919-97f2c7b37e90","system_id":"levelo_inurba_marseille","lat":43.302784,"lon":5.377158,"is_reserved":false,"is_disabled":false,"rental_uris":{"android":"levelo://app?vid=dc0f4164-887d-45f3-8919-97f2c7b37e90","ios":"levelo://app?vid=dc0f4164-887d-45f3-8919-97f2c7b37e90"},"vehicle_type_id":"4","last_reported":1717333622,"current_range_meters":4000,"station_id":"ce4bguh2rcd13ifvqcj0","pricing_plan_id":"cebpf4jnsgd1na2vs0mg"},{"bike_id":"a1b324c3-4672-4178-8f46-8f15d360dea8","system_id":"levelo_inurba_marseille","lat":43.303246,"lon":5.379282,"is_reserved":false,"is_disabled":false,"rental_uris":{"android":"levelo://app?vid=a1b324c3-4672-4178-8f46-8f15d360dea8","ios":"levelo://app?vid=a1b324c3-4672-4178-8f46-8f15d360dea8"},"vehicle_type_id":"4","last_reported":1717333622,"current_range_meters":17200,"station_id":"","pricing_plan_id":"cebpf4jnsgd1na2vs0mg"},{"bike_id":"4df27ff7-d8dd-4ae3-926c-a578e9598487","system_id":"levelo_inurba_marseille","lat":43.313571,"lon":5.384829,"is_reserved":false,"is_disabled":false,"rental_uris":{"android":"levelo://app?vid=4df27ff7-d8dd-4ae3-926c-a578e9598487","ios":"levelo://app?vid=4df27ff7-d8dd-4ae3-926c-a578e9598487"},"vehicle_type_id":"4","last_reported":1717333622,"current_range_meters":26400,"station_id":"ce4bgt92rcd13ifvqcf0","pricing_plan_id":"cebpf4jnsgd1na2vs0mg"},{"bike_id":"dcec3f9c-ed73-442e-8693-f7460b211c5c","system_id":"levelo_inurba_marseille","lat":43.298433,"lon":5.362774,"is_reserved":false,"is_disabled":false,"rental_uris":{"android":"levelo://app?vid=dcec3f9c-ed73-442e-8693-f7460b211c5c","ios":"levelo://app?vid=dcec3f9c-ed73-442e-8693-f7460b211c5c"},"vehicle_type_id":"4","last_reported":1717333622,"current_range_meters":0,"station_id":"ce4bgpp2rcd13ifvqc3g","pricing_plan_id":"cebpf4jnsgd1na2vs0mg"},{"bike_id":"7c0279c4-785e-41cc-9875-11b1aa5697b0","system_id":"levelo_inurba_marseille","lat":43.298433,"lon":5.362774,"is_reserved":false,"is_disabled":false,"rental_uris":{"android":"levelo://app?vid=7c0279c4-785e-41cc-9875-11b1aa5697b0","ios":"levelo://app?vid=7c0279c4-785e-41cc-9875-11b1aa5697b0"},"vehicle_type_id":"4","last_reported":1717333622,"current_range_meters":30000,"station_id":"ce4bgpp2rcd13ifvqc3g","pricing_plan_id":"cebpf4jnsgd1na2vs0mg"},{"bike_id":"07cd24fb-3de7-421c-9dd9-7fbb4bb15e59","system_id":"levelo_inurba_marseille","lat":43.298371,"lon":5.362444,"is_reserved":false,"is_disabled":false,"rental_uris":{"android":"levelo://app?vid=07cd24fb-3de7-421c-9dd9-7fbb4bb15e59","ios":"levelo://app?vid=07cd24fb-3de7-421c-9dd9-7fbb4bb15e59"},"vehicle_type_id":"4","last_reported":1717333622,"current_range_meters":2800,"station_id":"ce4bgpp2rcd13ifvqc3g","pricing_plan_id":"cebpf4jnsgd1na2vs0mg"},{"bike_id":"b1ff9e8b-0fa4-4fef-a32e-8ac0796b52e7","system_id":"levelo_inurba_marseille","lat":43.311722,"lon":5.387247,"is_reserved":false,"is_disabled":false,"rental_uris":{"android":"levelo://app?vid=b1ff9e8b-0fa4-4fef-a32e-8ac0796b52e7","ios":"levelo://app?vid=b1ff9e8b-0fa4-4fef-a32e-8ac0796b52e7"},"vehicle_type_id":"4","last_reported":1717333622,"current_range_meters":26800,"station_id":"ce4bgv12rcd13ifvqcp0","pricing_plan_id":"cebpf4jnsgd1na2vs0mg"},{"bike_id":"72f163b3-88a9-43aa-9898-85e4b5589800","system_id":"levelo_inurba_marseille","lat":43.301427,"lon":5.380703,"is_reserved":false,"is_disabled":false,"rental_uris":{"android":"levelo://app?vid=72f163b3-88a9-43aa-9898-85e4b5589800","ios":"levelo://app?vid=72f163b3-88a9-43aa-9898-85e4b5589800"},"vehicle_type_id":"4","last_reported":1717333622,"current_range_meters":6800,"station_id":"","pricing_plan_id":"cebpf4jnsgd1na2vs0mg"},{"bike_id":"10fb4334-c940-4455-979b-d3f1ca32e262","system_id":"levelo_inurba_marseille","lat":43.297774,"lon":5.370875,"is_reserved":false,"is_disabled":false,"rental_uris":{"android":"levelo://app?vid=10fb4334-c940-4455-979b-d3f1ca32e262","ios":"levelo://app?vid=10fb4334-c940-4455-979b-d3f1ca32e262"},"vehicle_type_id":"4","last_reported":1717333622,"current_range_meters":29200,"station_id":"ce4bgop2rcd13ifvqc1g","pricing_plan_id":"cebpf4jnsgd1na2vs0mg"},{"bike_id":"0147ebd0-ebd4-46e5-b36c-659fa382bbeb","system_id":"levelo_inurba_marseille","lat":43.322872,"lon":5.382756,"is_reserved":false,"is_disabled":false,"rental_uris":{"android":"levelo://app?vid=0147ebd0-ebd4-46e5-b36c-659fa382bbeb","ios":"levelo://app?vid=0147ebd0-ebd4-46e5-b36c-659fa382bbeb"},"vehicle_type_id":"4","last_reported":1717333622,"current_range_meters":20400,"station_id":"ce4bhr12rcd13ifvqhqg","pricing_plan_id":"cebpf4jnsgd1na2vs0mg"},{"bike_id":"02ab29b3-e154-485f-86d5-17711359b8f2","system_id":"levelo_inurba_marseille","lat":43.322872,"lon":5.382756,"is_reserved":false,"is_disabled":false,"rental_uris":{"android":"levelo://app?vid=02ab29b3-e154-485f-86d5-17711359b8f2","ios":"levelo://app?vid=02ab29b3-e154-485f-86d5-17711359b8f2"},"vehicle_type_id":"4","last_reported":1717333622,"current_range_meters":30000,"station_id":"ce4bhr12rcd13ifvqhqg","pricing_plan_id":"cebpf4jnsgd1na2vs0mg"},{"bike_id":"a80d5ae5-d830-4f23-b82c-8d497091f94d","system_id":"levelo_inurba_marseille","lat":43.322872,"lon":5.382756,"is_reserved":false,"is_disabled":false,"rental_uris":{"android":"levelo://app?vid=a80d5ae5-d830-4f23-b82c-8d497091f94d","ios":"levelo://app?vid=a80d5ae5-d830-4f23-b82c-8d497091f94d"},"vehicle_type_id":"4","last_reported":1717333622,"current_range_meters":30800,"station_id":"ce4bhr12rcd13ifvqhqg","pricing_plan_id":"cebpf4jnsgd1na2vs0mg"},{"bike_id":"c8bd1ee7-7a7c-4a48-967a-353add3fdd51","system_id":"levelo_inurba_marseille","lat":43.296131,"lon":5.370773,"is_reserved":false,"is_disabled":false,"rental_uris":{"android":"levelo://app?vid=c8bd1ee7-7a7c-4a48-967a-353add3fdd51","ios":"levelo://app?vid=c8bd1ee7-7a7c-4a48-967a-353add3fdd51"},"vehicle_type_id":"4","last_reported":1717333622,"current_range_meters":6800,"station_id":"ce4bgnh2rcd13ifvqc0g","pricing_plan_id":"cebpf4jnsgd1na2vs0mg"},{"bike_id":"f0b84d78-bdfd-43a4-901e-1a19b9cf2d5c","system_id":"levelo_inurba_marseille","lat":43.29573,"lon":5.367355,"is_reserved":false,"is_disabled":false,"rental_uris":{"android":"levelo://app?vid=f0b84d78-bdfd-43a4-901e-1a19b9cf2d5c","ios":"levelo://app?vid=f0b84d78-bdfd-43a4-901e-1a19b9cf2d5c"},"vehicle_type_id":"4","last_reported":1717333622,"current_range_meters":29600,"station_id":"ce4bgph2rcd13ifvqc2g","pricing_plan_id":"cebpf4jnsgd1na2vs0mg"},{"bike_id":"67aa83fd-ead6-4832-9618-6202fc56bcd5","system_id":"levelo_inurba_marseille","lat":43.299028,"lon":5.381509,"is_reserved":false,"is_disabled":false,"rental_uris":{"android":"levelo://app?vid=67aa83fd-ead6-4832-9618-6202fc56bcd5","ios":"levelo://app?vid=67aa83fd-ead6-4832-9618-6202fc56bcd5"},"vehicle_type_id":"4","last_reported":1717333622,"current_range_meters":29600,"station_id":"ce4bgj12rcd13ifvqbc0","pricing_plan_id":"cebpf4jnsgd1na2vs0mg"},{"bike_id":"4c2a91e8-af51-407e-a216-30fedbb6ad57","system_id":"levelo_inurba_marseille","lat":43.296935,"lon":5.376544,"is_reserved":false,"is_disabled":false,"rental_uris":{"android":"levelo://app?vid=4c2a91e8-af51-407e-a216-30fedbb6ad57","ios":"levelo://app?vid=4c2a91e8-af51-407e-a216-30fedbb6ad57"},"vehicle_type_id":"4","last_reported":1717333622,"current_range_meters":0,"station_id":"ce4bgkh2rcd13ifvqbl0","pricing_plan_id":"cebpf4jnsgd1na2vs0mg"},{"bike_id":"8628d5ec-063e-411c-9c10-41cb5da49ea2","system_id":"levelo_inurba_marseille","lat":43.296921,"lon":5.376579,"is_reserved":false,"is_disabled":false,"rental_uris":{"android":"levelo://app?vid=8628d5ec-063e-411c-9c10-41cb5da49ea2","ios":"levelo://app?vid=8628d5ec-063e-411c-9c10-41cb5da49ea2"},"vehicle_type_id":"4","last_reported":1717333622,"current_range_meters":27200,"station_id":"ce4bgkh2rcd13ifvqbl0","pricing_plan_id":"cebpf4jnsgd1na2vs0mg"},{"bike_id":"ce2e4a08-a872-40a5-8223-7f008307c592","system_id":"levelo_inurba_marseille","lat":43.298037,"lon":5.381066,"is_reserved":false,"is_disabled":false,"rental_uris":{"android":"levelo://app?vid=ce2e4a08-a872-40a5-8223-7f008307c592","ios":"levelo://app?vid=ce2e4a08-a872-40a5-8223-7f008307c592"},"vehicle_type_id":"4","last_reported":1717333622,"current_range_meters":27200,"station_id":"ce4bgip2rcd13ifvqbb0","pricing_plan_id":"cebpf4jnsgd1na2vs0mg"},{"bike_id":"f3622c1b-d3d5-4c52-81b6-31688b4cbaf4","system_id":"levelo_inurba_marseille","lat":43.295755,"lon":5.374945,"is_reserved":false,"is_disabled":false,"rental_uris":{"android":"levelo://app?vid=f3622c1b-d3d5-4c52-81b6-31688b4cbaf4","ios":"levelo://app?vid=f3622c1b-d3d5-4c52-81b6-31688b4cbaf4"},"vehicle_type_id":"4","last_reported":1717333622,"current_range_meters":0,"station_id":"ce4bgh92rcd13ifvqb50","pricing_plan_id":"cebpf4jnsgd1na2vs0mg"},{"bike_id":"c7a4513b-a250-4974-836e-341796c7a07c","system_id":"levelo_inurba_marseille","lat":43.300608,"lon":5.385539,"is_reserved":false,"is_disabled":false,"rental_uris":{"android":"levelo://app?vid=c7a4513b-a250-4974-836e-341796c7a07c","ios":"levelo://app?vid=c7a4513b-a250-4974-836e-341796c7a07c"},"vehicle_type_id":"4","last_reported":1717333622,"current_range_meters":20400,"station_id":"","pricing_plan_id":"cebpf4jnsgd1na2vs0mg"},{"bike_id":"59d10ae2-a5af-413b-8b84-b79a559e9a04","system_id":"levelo_inurba_marseille","lat":43.295402,"lon":5.375015,"is_reserved":false,"is_disabled":false,"rental_uris":{"android":"levelo://app?vid=59d10ae2-a5af-413b-8b84-b79a559e9a04","ios":"levelo://app?vid=59d10ae2-a5af-413b-8b84-b79a559e9a04"},"vehicle_type_id":"4","last_reported":1717333622,"current_range_meters":0,"station_id":"ce4bgkp2rcd13ifvqbmg","pricing_plan_id":"cebpf4jnsgd1na2vs0mg"},{"bike_id":"5981a0ff-222d-4d93-8ebc-dc88615dbc05","system_id":"levelo_inurba_marseille","lat":43.29525,"lon":5.37489,"is_reserved":false,"is_disabled":false,"rental_uris":{"android":"levelo://app?vid=5981a0ff-222d-4d93-8ebc-dc88615dbc05","ios":"levelo://app?vid=5981a0ff-222d-4d93-8ebc-dc88615dbc05"},"vehicle_type_id":"4","last_reported":1717333622,"current_range_meters":14000,"station_id":"ce4bgkp2rcd13ifvqbmg","pricing_plan_id":"cebpf4jnsgd1na2vs0mg"},{"bike_id":"69543aaf-ef80-403d-8882-b50b0e0315e1","system_id":"levelo_inurba_marseille","lat":43.292749,"lon":5.368402,"is_reserved":false,"is_disabled":false,"rental_uris":{"android":"levelo://app?vid=69543aaf-ef80-403d-8882-b50b0e0315e1","ios":"levelo://app?vid=69543aaf-ef80-403d-8882-b50b0e0315e1"},"vehicle_type_id":"4","last_reported":1717333622,"current_range_meters":11200,"station_id":"ce4bhbp2rcd13ifvqesg","pricing_plan_id":"cebpf4jnsgd1na2vs0mg"},{"bike_id":"9acb491e-1894-4897-a5ff-a493317cbe92","system_id":"levelo_inurba_marseille","lat":43.32365,"lon":5.38879,"is_reserved":false,"is_disabled":false,"rental_uris":{"android":"levelo://app?vid=9acb491e-1894-4897-a5ff-a493317cbe92","ios":"levelo://app?vid=9acb491e-1894-4897-a5ff-a493317cbe92"},"vehicle_type_id":"4","last_reported":1717333622,"current_range_meters":0,"station_id":"ce4bhqp2rcd13ifvqhog","pricing_plan_id":"cebpf4jnsgd1na2vs0mg"},{"bike_id":"d8977f94-3001-4d6b-957f-cfd5ed3ba340","system_id":"levelo_inurba_marseille","lat":43.29602,"lon":5.381084,"is_reserved":false,"is_disabled":false,"rental_uris":{"android":"levelo://app?vid=d8977f94-3001-4d6b-957f-cfd5ed3ba340","ios":"levelo://app?vid=d8977f94-3001-4d6b-957f-cfd5ed3ba340"},"vehicle_type_id":"4","last_reported":1717333622,"current_range_meters":3600,"station_id":"ce4bgl12rcd13ifvqbo0","pricing_plan_id":"cebpf4jnsgd1na2vs0mg"},{"bike_id":"cc542274-a318-4b27-8327-4456682d5c3e","system_id":"levelo_inurba_marseille","lat":43.292571,"lon":5.409107,"is_reserved":false,"is_disabled":false,"rental_uris":{"android":"levelo://app?vid=cc542274-a318-4b27-8327-4456682d5c3e","ios":"levelo://app?vid=cc542274-a318-4b27-8327-4456682d5c3e"},"vehicle_type_id":"4","last_reported":1717333622,"current_range_meters":2800,"station_id":"ce4bh192rcd13ifvqdc0","pricing_plan_id":"cebpf4jnsgd1na2vs0mg"},{"bike_id":"2050b52b-5429-4b2f-9579-2d752cc3cc8e","system_id":"levelo_inurba_marseille","lat":43.291671,"lon":5.371575,"is_reserved":false,"is_disabled":false,"rental_uris":{"android":"levelo://app?vid=2050b52b-5429-4b2f-9579-2d752cc3cc8e","ios":"levelo://app?vid=2050b52b-5429-4b2f-9579-2d752cc3cc8e"},"vehicle_type_id":"4","last_reported":1717333622,"current_range_meters":0,"station_id":"ce4bha92rcd13ifvqeh0","pricing_plan_id":"cebpf4jnsgd1na2vs0mg"},{"bike_id":"5a7298de-b9b7-4d26-b160-d5f66828f207","system_id":"levelo_inurba_marseille","lat":43.292749,"lon":5.368402,"is_reserved":false,"is_disabled":false,"rental_uris":{"android":"levelo://app?vid=5a7298de-b9b7-4d26-b160-d5f66828f207","ios":"levelo://app?vid=5a7298de-b9b7-4d26-b160-d5f66828f207"},"vehicle_type_id":"4","last_reported":1717333622,"current_range_meters":400,"station_id":"ce4bhbp2rcd13ifvqesg","pricing_plan_id":"cebpf4jnsgd1na2vs0mg"},{"bike_id":"3c18f2cb-e2f4-48e8-8dc8-e28ad34d75c2","system_id":"levelo_inurba_marseille","lat":43.292749,"lon":5.368402,"is_reserved":false,"is_disabled":false,"rental_uris":{"android":"levelo://app?vid=3c18f2cb-e2f4-48e8-8dc8-e28ad34d75c2","ios":"levelo://app?vid=3c18f2cb-e2f4-48e8-8dc8-e28ad34d75c2"},"vehicle_type_id":"4","last_reported":1717333622,"current_range_meters":7600,"station_id":"ce4bhbp2rcd13ifvqesg","pricing_plan_id":"cebpf4jnsgd1na2vs0mg"},{"bike_id":"541c7351-8df5-4b93-9c52-a1f630411d67","system_id":"levelo_inurba_marseille","lat":43.2931,"lon":5.37435,"is_reserved":false,"is_disabled":false,"rental_uris":{"android":"levelo://app?vid=541c7351-8df5-4b93-9c52-a1f630411d67","ios":"levelo://app?vid=541c7351-8df5-4b93-9c52-a1f630411d67"},"vehicle_type_id":"4","last_reported":1717333622,"current_range_meters":0,"station_id":"","pricing_plan_id":"cebpf4jnsgd1na2vs0mg"},{"bike_id":"37b75fb7-2901-475e-b2ef-fd5c683dac26","system_id":"levelo_inurba_marseille","lat":43.29309,"lon":5.37453,"is_reserved":false,"is_disabled":false,"rental_uris":{"android":"levelo://app?vid=37b75fb7-2901-475e-b2ef-fd5c683dac26","ios":"levelo://app?vid=37b75fb7-2901-475e-b2ef-fd5c683dac26"},"vehicle_type_id":"4","last_reported":1717333622,"current_range_meters":0,"station_id":"ce4bgi12rcd13ifvqb70","pricing_plan_id":"cebpf4jnsgd1na2vs0mg"},{"bike_id":"10c55566-6446-47e2-a7d5-91e77df346de","system_id":"levelo_inurba_marseille","lat":43.30607,"lon":5.39362,"is_reserved":false,"is_disabled":false,"rental_uris":{"android":"levelo://app?vid=10c55566-6446-47e2-a7d5-91e77df346de","ios":"levelo://app?vid=10c55566-6446-47e2-a7d5-91e77df346de"},"vehicle_type_id":"4","last_reported":1717333622,"current_range_meters":20800,"station_id":"ce4bh0p2rcd13ifvqd80","pricing_plan_id":"cebpf4jnsgd1na2vs0mg"},{"bike_id":"807499fc-d0f0-40cf-9a8b-54f6ee559ea0","system_id":"levelo_inurba_marseille","lat":43.292311,"lon":5.360731,"is_reserved":false,"is_disabled":false,"rental_uris":{"android":"levelo://app?vid=807499fc-d0f0-40cf-9a8b-54f6ee559ea0","ios":"levelo://app?vid=807499fc-d0f0-40cf-9a8b-54f6ee559ea0"},"vehicle_type_id":"4","last_reported":1717333622,"current_range_meters":0,"station_id":"ce4bhbh2rcd13ifvqeqg","pricing_plan_id":"cebpf4jnsgd1na2vs0mg"},{"bike_id":"03671b3e-d533-43a5-b896-c4da53114d5e","system_id":"levelo_inurba_marseille","lat":43.292311,"lon":5.360731,"is_reserved":false,"is_disabled":false,"rental_uris":{"android":"levelo://app?vid=03671b3e-d533-43a5-b896-c4da53114d5e","ios":"levelo://app?vid=03671b3e-d533-43a5-b896-c4da53114d5e"},"vehicle_type_id":"4","last_reported":1717333622,"current_range_meters":22400,"station_id":"ce4bhbh2rcd13ifvqeqg","pricing_plan_id":"cebpf4jnsgd1na2vs0mg"},{"bike_id":"a099acd0-f9c9-4196-b0c6-5e4841a29ee7","system_id":"levelo_inurba_marseille","lat":43.292311,"lon":5.360731,"is_reserved":false,"is_disabled":false,"rental_uris":{"android":"levelo://app?vid=a099acd0-f9c9-4196-b0c6-5e4841a29ee7","ios":"levelo://app?vid=a099acd0-f9c9-4196-b0c6-5e4841a29ee7"},"vehicle_type_id":"4","last_reported":1717333622,"current_range_meters":0,"station_id":"ce4bhbh2rcd13ifvqeqg","pricing_plan_id":"cebpf4jnsgd1na2vs0mg"},{"bike_id":"198496e3-539e-4773-9879-e9173bd0fd61","system_id":"levelo_inurba_marseille","lat":43.292005,"lon":5.357875,"is_reserved":false,"is_disabled":false,"rental_uris":{"android":"levelo://app?vid=198496e3-539e-4773-9879-e9173bd0fd61","ios":"levelo://app?vid=198496e3-539e-4773-9879-e9173bd0fd61"},"vehicle_type_id":"4","last_reported":1717333622,"current_range_meters":12000,"station_id":"ce4bhb12rcd13ifvqel0","pricing_plan_id":"cebpf4jnsgd1na2vs0mg"},{"bike_id":"c223fdfe-5eda-43c0-8208-a63315f2fa03","system_id":"levelo_inurba_marseille","lat":43.292005,"lon":5.357875,"is_reserved":false,"is_disabled":false,"rental_uris":{"android":"levelo://app?vid=c223fdfe-5eda-43c0-8208-a63315f2fa03","ios":"levelo://app?vid=c223fdfe-5eda-43c0-8208-a63315f2fa03"},"vehicle_type_id":"4","last_reported":1717333622,"current_range_meters":0,"station_id":"ce4bhb12rcd13ifvqel0","pricing_plan_id":"cebpf4jnsgd1na2vs0mg"},{"bike_id":"4fa46756-6587-48e3-a760-1d3fe0eafdcd","system_id":"levelo_inurba_marseille","lat":43.309038,"lon":5.396546,"is_reserved":false,"is_disabled":false,"rental_uris":{"android":"levelo://app?vid=4fa46756-6587-48e3-a760-1d3fe0eafdcd","ios":"levelo://app?vid=4fa46756-6587-48e3-a760-1d3fe0eafdcd"},"vehicle_type_id":"4","last_reported":1717333622,"current_range_meters":16000,"station_id":"ce4bh012rcd13ifvqcv0","pricing_plan_id":"cebpf4jnsgd1na2vs0mg"},{"bike_id":"7e07358d-5974-4846-9f8b-777722813da0","system_id":"levelo_inurba_marseille","lat":43.291994,"lon":5.357886,"is_reserved":false,"is_disabled":false,"rental_uris":{"android":"levelo://app?vid=7e07358d-5974-4846-9f8b-777722813da0","ios":"levelo://app?vid=7e07358d-5974-4846-9f8b-777722813da0"},"vehicle_type_id":"4","last_reported":1717333622,"current_range_meters":4400,"station_id":"ce4bhb12rcd13ifvqel0","pricing_plan_id":"cebpf4jnsgd1na2vs0mg"},{"bike_id":"88d85188-9462-4941-8600-f60d2bfd0bdf","system_id":"levelo_inurba_marseille","lat":43.3132,"lon":5.39688,"is_reserved":false,"is_disabled":false,"rental_uris":{"android":"levelo://app?vid=88d85188-9462-4941-8600-f60d2bfd0bdf","ios":"levelo://app?vid=88d85188-9462-4941-8600-f60d2bfd0bdf"},"vehicle_type_id":"4","last_reported":1717333622,"current_range_meters":18800,"station_id":"","pricing_plan_id":"cebpf4jnsgd1na2vs0mg"},{"bike_id":"4d3c82a3-c6c6-4d5c-a61a-301f82f9bcdc","system_id":"levelo_inurba_marseille","lat":43.313291,"lon":5.396838,"is_reserved":false,"is_disabled":false,"rental_uris":{"android":"levelo://app?vid=4d3c82a3-c6c6-4d5c-a61a-301f82f9bcdc","ios":"levelo://app?vid=4d3c82a3-c6c6-4d5c-a61a-301f82f9bcdc"},"vehicle_type_id":"4","last_reported":1717333622,"current_range_meters":28000,"station_id":"ce4bgvp2rcd13ifvqcu0","pricing_plan_id":"cebpf4jnsgd1na2vs0mg"},{"bike_id":"d4cb5f38-f0f6-4045-9545-8c70c0c16a67","system_id":"levelo_inurba_marseille","lat":43.290319,"lon":5.375732,"is_reserved":false,"is_disabled":false,"rental_uris":{"android":"levelo://app?vid=d4cb5f38-f0f6-4045-9545-8c70c0c16a67","ios":"levelo://app?vid=d4cb5f38-f0f6-4045-9545-8c70c0c16a67"},"vehicle_type_id":"4","last_reported":1717333622,"current_range_meters":16800,"station_id":"ce4bh692rcd13ifvqe90","pricing_plan_id":"cebpf4jnsgd1na2vs0mg"},{"bike_id":"7279f7f9-9259-46f5-a426-3f83471e63a4","system_id":"levelo_inurba_marseille","lat":43.290104,"lon":5.356111,"is_reserved":false,"is_disabled":false,"rental_uris":{"android":"levelo://app?vid=7279f7f9-9259-46f5-a426-3f83471e63a4","ios":"levelo://app?vid=7279f7f9-9259-46f5-a426-3f83471e63a4"},"vehicle_type_id":"4","last_reported":1717333622,"current_range_meters":9200,"station_id":"ce4bhb92rcd13ifvqen0","pricing_plan_id":"cebpf4jnsgd1na2vs0mg"},{"bike_id":"e58f5698-b755-40e6-9b55-2d0410fceb59","system_id":"levelo_inurba_marseille","lat":43.292644,"lon":5.384257,"is_reserved":false,"is_disabled":false,"rental_uris":{"android":"levelo://app?vid=e58f5698-b755-40e6-9b55-2d0410fceb59","ios":"levelo://app?vid=e58f5698-b755-40e6-9b55-2d0410fceb59"},"vehicle_type_id":"4","last_reported":1717333622,"current_range_meters":16000,"station_id":"ce4bh692rcd13ifvqea0","pricing_plan_id":"cebpf4jnsgd1na2vs0mg"},{"bike_id":"1751948c-0e26-485c-b8e5-9e25e034f7d9","system_id":"levelo_inurba_marseille","lat":43.292644,"lon":5.384257,"is_reserved":false,"is_disabled":false,"rental_uris":{"android":"levelo://app?vid=1751948c-0e26-485c-b8e5-9e25e034f7d9","ios":"levelo://app?vid=1751948c-0e26-485c-b8e5-9e25e034f7d9"},"vehicle_type_id":"4","last_reported":1717333622,"current_range_meters":22000,"station_id":"ce4bh692rcd13ifvqea0","pricing_plan_id":"cebpf4jnsgd1na2vs0mg"},{"bike_id":"526741bd-8932-4571-83e8-348f38ba028a","system_id":"levelo_inurba_marseille","lat":43.292644,"lon":5.384257,"is_reserved":false,"is_disabled":false,"rental_uris":{"android":"levelo://app?vid=526741bd-8932-4571-83e8-348f38ba028a","ios":"levelo://app?vid=526741bd-8932-4571-83e8-348f38ba028a"},"vehicle_type_id":"4","last_reported":1717333622,"current_range_meters":20400,"station_id":"ce4bh692rcd13ifvqea0","pricing_plan_id":"cebpf4jnsgd1na2vs0mg"},{"bike_id":"71dd503a-5b9a-44b0-9a44-77fd7dc47423","system_id":"levelo_inurba_marseille","lat":43.290104,"lon":5.356111,"is_reserved":false,"is_disabled":false,"rental_uris":{"android":"levelo://app?vid=71dd503a-5b9a-44b0-9a44-77fd7dc47423","ios":"levelo://app?vid=71dd503a-5b9a-44b0-9a44-77fd7dc47423"},"vehicle_type_id":"4","last_reported":1717333622,"current_range_meters":0,"station_id":"ce4bhb92rcd13ifvqen0","pricing_plan_id":"cebpf4jnsgd1na2vs0mg"},{"bike_id":"8a983ca7-082c-451c-a23e-84944005a405","system_id":"levelo_inurba_marseille","lat":43.29006,"lon":5.35611,"is_reserved":false,"is_disabled":false,"rental_uris":{"android":"levelo://app?vid=8a983ca7-082c-451c-a23e-84944005a405","ios":"levelo://app?vid=8a983ca7-082c-451c-a23e-84944005a405"},"vehicle_type_id":"4","last_reported":1717333622,"current_range_meters":0,"station_id":"ce4bhb92rcd13ifvqen0","pricing_plan_id":"cebpf4jnsgd1na2vs0mg"},{"bike_id":"88070973-b214-46fe-9fe1-0eca886616b2","system_id":"levelo_inurba_marseille","lat":43.290103,"lon":5.356114,"is_reserved":false,"is_disabled":false,"rental_uris":{"android":"levelo://app?vid=88070973-b214-46fe-9fe1-0eca886616b2","ios":"levelo://app?vid=88070973-b214-46fe-9fe1-0eca886616b2"},"vehicle_type_id":"4","last_reported":1717333622,"current_range_meters":8800,"station_id":"ce4bhb92rcd13ifvqen0","pricing_plan_id":"cebpf4jnsgd1na2vs0mg"},{"bike_id":"5323ad91-de6f-43c1-afc3-90dc70a16bed","system_id":"levelo_inurba_marseille","lat":43.330442,"lon":5.389148,"is_reserved":false,"is_disabled":false,"rental_uris":{"android":"levelo://app?vid=5323ad91-de6f-43c1-afc3-90dc70a16bed","ios":"levelo://app?vid=5323ad91-de6f-43c1-afc3-90dc70a16bed"},"vehicle_type_id":"4","last_reported":1717333622,"current_range_meters":22400,"station_id":"ce4bhr92rcd13ifvqhrg","pricing_plan_id":"cebpf4jnsgd1na2vs0mg"},{"bike_id":"967129ec-6d96-4085-bf4f-2355cc54fede","system_id":"levelo_inurba_marseille","lat":43.2901,"lon":5.381269,"is_reserved":false,"is_disabled":false,"rental_uris":{"android":"levelo://app?vid=967129ec-6d96-4085-bf4f-2355cc54fede","ios":"levelo://app?vid=967129ec-6d96-4085-bf4f-2355cc54fede"},"vehicle_type_id":"4","last_reported":1717333622,"current_range_meters":21200,"station_id":"ce4bh4p2rcd13ifvqe1g","pricing_plan_id":"cebpf4jnsgd1na2vs0mg"},{"bike_id":"c812960d-831c-4855-a2f3-900170b76aef","system_id":"levelo_inurba_marseille","lat":43.28856,"lon":5.358371,"is_reserved":false,"is_disabled":false,"rental_uris":{"android":"levelo://app?vid=c812960d-831c-4855-a2f3-900170b76aef","ios":"levelo://app?vid=c812960d-831c-4855-a2f3-900170b76aef"},"vehicle_type_id":"4","last_reported":1717333622,"current_range_meters":6800,"station_id":"ce4bhb12rcd13ifvqem0","pricing_plan_id":"cebpf4jnsgd1na2vs0mg"},{"bike_id":"94241b89-be14-4ed4-9e17-e498b3a99b2f","system_id":"levelo_inurba_marseille","lat":43.33148,"lon":5.38987,"is_reserved":false,"is_disabled":false,"rental_uris":{"android":"levelo://app?vid=94241b89-be14-4ed4-9e17-e498b3a99b2f","ios":"levelo://app?vid=94241b89-be14-4ed4-9e17-e498b3a99b2f"},"vehicle_type_id":"4","last_reported":1717333622,"current_range_meters":6000,"station_id":"","pricing_plan_id":"cebpf4jnsgd1na2vs0mg"},{"bike_id":"26e88c15-1ebf-4978-814d-f8bc280f73dc","system_id":"levelo_inurba_marseille","lat":43.33743,"lon":5.37483,"is_reserved":false,"is_disabled":false,"rental_uris":{"android":"levelo://app?vid=26e88c15-1ebf-4978-814d-f8bc280f73dc","ios":"levelo://app?vid=26e88c15-1ebf-4978-814d-f8bc280f73dc"},"vehicle_type_id":"4","last_reported":1717333622,"current_range_meters":27600,"station_id":"","pricing_plan_id":"cebpf4jnsgd1na2vs0mg"},{"bike_id":"4d0cda49-4ef1-4464-bc6e-77041513e8b1","system_id":"levelo_inurba_marseille","lat":43.309371,"lon":5.401449,"is_reserved":false,"is_disabled":false,"rental_uris":{"android":"levelo://app?vid=4d0cda49-4ef1-4464-bc6e-77041513e8b1","ios":"levelo://app?vid=4d0cda49-4ef1-4464-bc6e-77041513e8b1"},"vehicle_type_id":"4","last_reported":1717333622,"current_range_meters":20000,"station_id":"ce4bgvp2rcd13ifvqct0","pricing_plan_id":"cebpf4jnsgd1na2vs0mg"},{"bike_id":"5e4a7bbd-79ec-4d01-b4bd-a67b4f24cdb1","system_id":"levelo_inurba_marseille","lat":43.28875,"lon":5.35551,"is_reserved":false,"is_disabled":false,"rental_uris":{"android":"levelo://app?vid=5e4a7bbd-79ec-4d01-b4bd-a67b4f24cdb1","ios":"levelo://app?vid=5e4a7bbd-79ec-4d01-b4bd-a67b4f24cdb1"},"vehicle_type_id":"4","last_reported":1717333622,"current_range_meters":30000,"station_id":"","pricing_plan_id":"cebpf4jnsgd1na2vs0mg"},{"bike_id":"d4b6b031-1bea-445f-bcbe-488e3171208f","system_id":"levelo_inurba_marseille","lat":43.309371,"lon":5.401449,"is_reserved":false,"is_disabled":false,"rental_uris":{"android":"levelo://app?vid=d4b6b031-1bea-445f-bcbe-488e3171208f","ios":"levelo://app?vid=d4b6b031-1bea-445f-bcbe-488e3171208f"},"vehicle_type_id":"4","last_reported":1717333622,"current_range_meters":7600,"station_id":"ce4bgvp2rcd13ifvqct0","pricing_plan_id":"cebpf4jnsgd1na2vs0mg"},{"bike_id":"b15a0e69-9e5d-4970-a7aa-551a1f9f3178","system_id":"levelo_inurba_marseille","lat":43.28898,"lon":5.35411,"is_reserved":false,"is_disabled":false,"rental_uris":{"android":"levelo://app?vid=b15a0e69-9e5d-4970-a7aa-551a1f9f3178","ios":"levelo://app?vid=b15a0e69-9e5d-4970-a7aa-551a1f9f3178"},"vehicle_type_id":"4","last_reported":1717333622,"current_range_meters":0,"station_id":"","pricing_plan_id":"cebpf4jnsgd1na2vs0mg"},{"bike_id":"981aced3-a155-4d1d-8400-a0fad9788c04","system_id":"levelo_inurba_marseille","lat":43.298681,"lon":5.397225,"is_reserved":false,"is_disabled":false,"rental_uris":{"android":"levelo://app?vid=981aced3-a155-4d1d-8400-a0fad9788c04","ios":"levelo://app?vid=981aced3-a155-4d1d-8400-a0fad9788c04"},"vehicle_type_id":"4","last_reported":1717333622,"current_range_meters":18400,"station_id":"ce4bh0h2rcd13ifvqd50","pricing_plan_id":"cebpf4jnsgd1na2vs0mg"},{"bike_id":"fbf1032d-1270-4fbd-a4da-ea316ddf7dfc","system_id":"levelo_inurba_marseille","lat":43.298681,"lon":5.397225,"is_reserved":false,"is_disabled":false,"rental_uris":{"android":"levelo://app?vid=fbf1032d-1270-4fbd-a4da-ea316ddf7dfc","ios":"levelo://app?vid=fbf1032d-1270-4fbd-a4da-ea316ddf7dfc"},"vehicle_type_id":"4","last_reported":1717333622,"current_range_meters":26000,"station_id":"ce4bh0h2rcd13ifvqd50","pricing_plan_id":"cebpf4jnsgd1na2vs0mg"},{"bike_id":"4128b5ef-4ccb-4136-ab2d-d6e5ae481212","system_id":"levelo_inurba_marseille","lat":43.286961,"lon":5.373785,"is_reserved":false,"is_disabled":false,"rental_uris":{"android":"levelo://app?vid=4128b5ef-4ccb-4136-ab2d-d6e5ae481212","ios":"levelo://app?vid=4128b5ef-4ccb-4136-ab2d-d6e5ae481212"},"vehicle_type_id":"4","last_reported":1717333622,"current_range_meters":0,"station_id":"ce4bh3p2rcd13ifvqdq0","pricing_plan_id":"cebpf4jnsgd1na2vs0mg"},{"bike_id":"86d85f7e-ee1f-42f3-9ae2-66245d5cb680","system_id":"levelo_inurba_marseille","lat":43.295194,"lon":5.39397,"is_reserved":false,"is_disabled":false,"rental_uris":{"android":"levelo://app?vid=86d85f7e-ee1f-42f3-9ae2-66245d5cb680","ios":"levelo://app?vid=86d85f7e-ee1f-42f3-9ae2-66245d5cb680"},"vehicle_type_id":"4","last_reported":1717333622,"current_range_meters":10400,"station_id":"ce4bh292rcd13ifvqdf0","pricing_plan_id":"cebpf4jnsgd1na2vs0mg"},{"bike_id":"e65aa32c-bc0f-4ab8-a44a-034f3b0fffd3","system_id":"levelo_inurba_marseille","lat":43.290336,"lon":5.386425,"is_reserved":false,"is_disabled":false,"rental_uris":{"android":"levelo://app?vid=e65aa32c-bc0f-4ab8-a44a-034f3b0fffd3","ios":"levelo://app?vid=e65aa32c-bc0f-4ab8-a44a-034f3b0fffd3"},"vehicle_type_id":"4","last_reported":1717333622,"current_range_meters":22400,"station_id":"ce4bh4p2rcd13ifvqe0g","pricing_plan_id":"cebpf4jnsgd1na2vs0mg"},{"bike_id":"44c6dc1c-0670-4620-81e9-014efa61fc69","system_id":"levelo_inurba_marseille","lat":43.290336,"lon":5.386425,"is_reserved":false,"is_disabled":false,"rental_uris":{"android":"levelo://app?vid=44c6dc1c-0670-4620-81e9-014efa61fc69","ios":"levelo://app?vid=44c6dc1c-0670-4620-81e9-014efa61fc69"},"vehicle_type_id":"4","last_reported":1717333622,"current_range_meters":31200,"station_id":"ce4bh4p2rcd13ifvqe0g","pricing_plan_id":"cebpf4jnsgd1na2vs0mg"},{"bike_id":"4ae3508c-8e55-46ad-b13e-3f66e4b2b788","system_id":"levelo_inurba_marseille","lat":43.30251,"lon":5.40072,"is_reserved":false,"is_disabled":false,"rental_uris":{"android":"levelo://app?vid=4ae3508c-8e55-46ad-b13e-3f66e4b2b788","ios":"levelo://app?vid=4ae3508c-8e55-46ad-b13e-3f66e4b2b788"},"vehicle_type_id":"4","last_reported":1717333622,"current_range_meters":28400,"station_id":"","pricing_plan_id":"cebpf4jnsgd1na2vs0mg"},{"bike_id":"8d983ffa-b3d7-4f2d-aea5-3424dad9ad29","system_id":"levelo_inurba_marseille","lat":43.28613,"lon":5.37063,"is_reserved":false,"is_disabled":false,"rental_uris":{"android":"levelo://app?vid=8d983ffa-b3d7-4f2d-aea5-3424dad9ad29","ios":"levelo://app?vid=8d983ffa-b3d7-4f2d-aea5-3424dad9ad29"},"vehicle_type_id":"4","last_reported":1717333622,"current_range_meters":9200,"station_id":"ce4bht12rcd13ifvqi60","pricing_plan_id":"cebpf4jnsgd1na2vs0mg"},{"bike_id":"9bc9002a-68fc-4cf6-b733-205d7a961631","system_id":"levelo_inurba_marseille","lat":43.287185,"lon":5.379373,"is_reserved":false,"is_disabled":false,"rental_uris":{"android":"levelo://app?vid=9bc9002a-68fc-4cf6-b733-205d7a961631","ios":"levelo://app?vid=9bc9002a-68fc-4cf6-b733-205d7a961631"},"vehicle_type_id":"4","last_reported":1717333622,"current_range_meters":0,"station_id":"ce4bh9p2rcd13ifvqec0","pricing_plan_id":"cebpf4jnsgd1na2vs0mg"},{"bike_id":"a8702027-ec03-4c69-b1d9-662e2bc5936e","system_id":"levelo_inurba_marseille","lat":43.287184,"lon":5.37937,"is_reserved":false,"is_disabled":false,"rental_uris":{"android":"levelo://app?vid=a8702027-ec03-4c69-b1d9-662e2bc5936e","ios":"levelo://app?vid=a8702027-ec03-4c69-b1d9-662e2bc5936e"},"vehicle_type_id":"4","last_reported":1717333622,"current_range_meters":0,"station_id":"ce4bh9p2rcd13ifvqec0","pricing_plan_id":"cebpf4jnsgd1na2vs0mg"},{"bike_id":"3b46e088-2e8b-453f-802e-181d8d8b3d44","system_id":"levelo_inurba_marseille","lat":43.316828,"lon":5.404723,"is_reserved":false,"is_disabled":false,"rental_uris":{"android":"levelo://app?vid=3b46e088-2e8b-453f-802e-181d8d8b3d44","ios":"levelo://app?vid=3b46e088-2e8b-453f-802e-181d8d8b3d44"},"vehicle_type_id":"4","last_reported":1717333622,"current_range_meters":18000,"station_id":"ce4bh012rcd13ifvqd00","pricing_plan_id":"cebpf4jnsgd1na2vs0mg"},{"bike_id":"cc338114-2089-40ad-91d0-95b5ed33d3b1","system_id":"levelo_inurba_marseille","lat":43.316821,"lon":5.404737,"is_reserved":false,"is_disabled":false,"rental_uris":{"android":"levelo://app?vid=cc338114-2089-40ad-91d0-95b5ed33d3b1","ios":"levelo://app?vid=cc338114-2089-40ad-91d0-95b5ed33d3b1"},"vehicle_type_id":"4","last_reported":1717333622,"current_range_meters":30000,"station_id":"ce4bh012rcd13ifvqd00","pricing_plan_id":"cebpf4jnsgd1na2vs0mg"},{"bike_id":"0054e700-e689-4d38-a5cf-c2ee0f7980f9","system_id":"levelo_inurba_marseille","lat":43.291994,"lon":5.392907,"is_reserved":false,"is_disabled":false,"rental_uris":{"android":"levelo://app?vid=0054e700-e689-4d38-a5cf-c2ee0f7980f9","ios":"levelo://app?vid=0054e700-e689-4d38-a5cf-c2ee0f7980f9"},"vehicle_type_id":"4","last_reported":1717333622,"current_range_meters":17200,"station_id":"ce4bh192rcd13ifvqdd0","pricing_plan_id":"cebpf4jnsgd1na2vs0mg"},{"bike_id":"138aea2f-8376-49f9-b466-28ccb189beec","system_id":"levelo_inurba_marseille","lat":43.284918,"lon":5.359618,"is_reserved":false,"is_disabled":false,"rental_uris":{"android":"levelo://app?vid=138aea2f-8376-49f9-b466-28ccb189beec","ios":"levelo://app?vid=138aea2f-8376-49f9-b466-28ccb189beec"},"vehicle_type_id":"4","last_reported":1717333622,"current_range_meters":15600,"station_id":"ce4bhah2rcd13ifvqei0","pricing_plan_id":"cebpf4jnsgd1na2vs0mg"},{"bike_id":"e1335ea6-9fc8-477a-b170-f4016e2be4e0","system_id":"levelo_inurba_marseille","lat":43.28467,"lon":5.35886,"is_reserved":false,"is_disabled":false,"rental_uris":{"android":"levelo://app?vid=e1335ea6-9fc8-477a-b170-f4016e2be4e0","ios":"levelo://app?vid=e1335ea6-9fc8-477a-b170-f4016e2be4e0"},"vehicle_type_id":"4","last_reported":1717333622,"current_range_meters":0,"station_id":"ce4bhah2rcd13ifvqei0","pricing_plan_id":"cebpf4jnsgd1na2vs0mg"},{"bike_id":"0844ab78-8109-4ffa-9a42-bcd6ae593ef3","system_id":"levelo_inurba_marseille","lat":43.28466,"lon":5.35879,"is_reserved":false,"is_disabled":false,"rental_uris":{"android":"levelo://app?vid=0844ab78-8109-4ffa-9a42-bcd6ae593ef3","ios":"levelo://app?vid=0844ab78-8109-4ffa-9a42-bcd6ae593ef3"},"vehicle_type_id":"4","last_reported":1717333622,"current_range_meters":6000,"station_id":"ce4bhah2rcd13ifvqei0","pricing_plan_id":"cebpf4jnsgd1na2vs0mg"},{"bike_id":"3fcc40c0-436f-4b8a-8191-410cdcdbbb01","system_id":"levelo_inurba_marseille","lat":43.28465,"lon":5.35873,"is_reserved":false,"is_disabled":false,"rental_uris":{"android":"levelo://app?vid=3fcc40c0-436f-4b8a-8191-410cdcdbbb01","ios":"levelo://app?vid=3fcc40c0-436f-4b8a-8191-410cdcdbbb01"},"vehicle_type_id":"4","last_reported":1717333622,"current_range_meters":0,"station_id":"ce4bhah2rcd13ifvqei0","pricing_plan_id":"cebpf4jnsgd1na2vs0mg"},{"bike_id":"255e6b58-d3ba-47fc-9ca9-1cfa3592ea00","system_id":"levelo_inurba_marseille","lat":43.28458,"lon":5.35891,"is_reserved":false,"is_disabled":false,"rental_uris":{"android":"levelo://app?vid=255e6b58-d3ba-47fc-9ca9-1cfa3592ea00","ios":"levelo://app?vid=255e6b58-d3ba-47fc-9ca9-1cfa3592ea00"},"vehicle_type_id":"4","last_reported":1717333622,"current_range_meters":2400,"station_id":"ce4bhah2rcd13ifvqei0","pricing_plan_id":"cebpf4jnsgd1na2vs0mg"},{"bike_id":"9d84993d-3e13-4e65-b4c8-22941471d10f","system_id":"levelo_inurba_marseille","lat":43.28458,"lon":5.35889,"is_reserved":false,"is_disabled":false,"rental_uris":{"android":"levelo://app?vid=9d84993d-3e13-4e65-b4c8-22941471d10f","ios":"levelo://app?vid=9d84993d-3e13-4e65-b4c8-22941471d10f"},"vehicle_type_id":"4","last_reported":1717333622,"current_range_meters":15200,"station_id":"ce4bhah2rcd13ifvqei0","pricing_plan_id":"cebpf4jnsgd1na2vs0mg"},{"bike_id":"ef5a91b6-7cb8-4f77-9003-b563b95c1366","system_id":"levelo_inurba_marseille","lat":43.294314,"lon":5.397498,"is_reserved":false,"is_disabled":false,"rental_uris":{"android":"levelo://app?vid=ef5a91b6-7cb8-4f77-9003-b563b95c1366","ios":"levelo://app?vid=ef5a91b6-7cb8-4f77-9003-b563b95c1366"},"vehicle_type_id":"4","last_reported":1717333622,"current_range_meters":9200,"station_id":"ce4bh3h2rcd13ifvqdo0","pricing_plan_id":"cebpf4jnsgd1na2vs0mg"},{"bike_id":"9fb7ebdc-c7b2-41bf-84d2-c38bfef7b7a4","system_id":"levelo_inurba_marseille","lat":43.284534,"lon":5.358662,"is_reserved":false,"is_disabled":false,"rental_uris":{"android":"levelo://app?vid=9fb7ebdc-c7b2-41bf-84d2-c38bfef7b7a4","ios":"levelo://app?vid=9fb7ebdc-c7b2-41bf-84d2-c38bfef7b7a4"},"vehicle_type_id":"4","last_reported":1717333622,"current_range_meters":12400,"station_id":"ce4bhah2rcd13ifvqei0","pricing_plan_id":"cebpf4jnsgd1na2vs0mg"},{"bike_id":"e60266ae-80e0-4598-a89a-4c41dab31b14","system_id":"levelo_inurba_marseille","lat":43.285856,"lon":5.350771,"is_reserved":false,"is_disabled":false,"rental_uris":{"android":"levelo://app?vid=e60266ae-80e0-4598-a89a-4c41dab31b14","ios":"levelo://app?vid=e60266ae-80e0-4598-a89a-4c41dab31b14"},"vehicle_type_id":"4","last_reported":1717333622,"current_range_meters":3200,"station_id":"ce4bhch2rcd13ifvqeug","pricing_plan_id":"cebpf4jnsgd1na2vs0mg"},{"bike_id":"e193ecfc-304e-4ce6-955e-67265292d888","system_id":"levelo_inurba_marseille","lat":43.285856,"lon":5.350771,"is_reserved":false,"is_disabled":false,"rental_uris":{"android":"levelo://app?vid=e193ecfc-304e-4ce6-955e-67265292d888","ios":"levelo://app?vid=e193ecfc-304e-4ce6-955e-67265292d888"},"vehicle_type_id":"4","last_reported":1717333622,"current_range_meters":400,"station_id":"ce4bhch2rcd13ifvqeug","pricing_plan_id":"cebpf4jnsgd1na2vs0mg"},{"bike_id":"0f7ae5a3-ddcb-41ec-ac14-ae78a4de0174","system_id":"levelo_inurba_marseille","lat":43.285856,"lon":5.350771,"is_reserved":false,"is_disabled":false,"rental_uris":{"android":"levelo://app?vid=0f7ae5a3-ddcb-41ec-ac14-ae78a4de0174","ios":"levelo://app?vid=0f7ae5a3-ddcb-41ec-ac14-ae78a4de0174"},"vehicle_type_id":"4","last_reported":1717333622,"current_range_meters":14800,"station_id":"ce4bhch2rcd13ifvqeug","pricing_plan_id":"cebpf4jnsgd1na2vs0mg"},{"bike_id":"2c924206-eeb7-42b9-8d5c-0f247f5294da","system_id":"levelo_inurba_marseille","lat":43.285856,"lon":5.350771,"is_reserved":false,"is_disabled":false,"rental_uris":{"android":"levelo://app?vid=2c924206-eeb7-42b9-8d5c-0f247f5294da","ios":"levelo://app?vid=2c924206-eeb7-42b9-8d5c-0f247f5294da"},"vehicle_type_id":"4","last_reported":1717333622,"current_range_meters":8400,"station_id":"ce4bhch2rcd13ifvqeug","pricing_plan_id":"cebpf4jnsgd1na2vs0mg"},{"bike_id":"24668d0e-c1c2-42f7-b31b-a570736f4d71","system_id":"levelo_inurba_marseille","lat":43.285856,"lon":5.350771,"is_reserved":false,"is_disabled":false,"rental_uris":{"android":"levelo://app?vid=24668d0e-c1c2-42f7-b31b-a570736f4d71","ios":"levelo://app?vid=24668d0e-c1c2-42f7-b31b-a570736f4d71"},"vehicle_type_id":"4","last_reported":1717333622,"current_range_meters":2800,"station_id":"ce4bhch2rcd13ifvqeug","pricing_plan_id":"cebpf4jnsgd1na2vs0mg"},{"bike_id":"3d0705c8-ecbb-486a-93cb-71e4a9793e30","system_id":"levelo_inurba_marseille","lat":43.285856,"lon":5.350771,"is_reserved":false,"is_disabled":false,"rental_uris":{"android":"levelo://app?vid=3d0705c8-ecbb-486a-93cb-71e4a9793e30","ios":"levelo://app?vid=3d0705c8-ecbb-486a-93cb-71e4a9793e30"},"vehicle_type_id":"4","last_reported":1717333622,"current_range_meters":24800,"station_id":"ce4bhch2rcd13ifvqeug","pricing_plan_id":"cebpf4jnsgd1na2vs0mg"},{"bike_id":"8eb4e193-3ccf-43ba-b259-b43d7014d2d1","system_id":"levelo_inurba_marseille","lat":43.285856,"lon":5.350771,"is_reserved":false,"is_disabled":false,"rental_uris":{"android":"levelo://app?vid=8eb4e193-3ccf-43ba-b259-b43d7014d2d1","ios":"levelo://app?vid=8eb4e193-3ccf-43ba-b259-b43d7014d2d1"},"vehicle_type_id":"4","last_reported":1717333622,"current_range_meters":800,"station_id":"ce4bhch2rcd13ifvqeug","pricing_plan_id":"cebpf4jnsgd1na2vs0mg"},{"bike_id":"1187821c-bae3-4a5c-b01b-7e17dce3ce0f","system_id":"levelo_inurba_marseille","lat":43.285848,"lon":5.350787,"is_reserved":false,"is_disabled":false,"rental_uris":{"android":"levelo://app?vid=1187821c-bae3-4a5c-b01b-7e17dce3ce0f","ios":"levelo://app?vid=1187821c-bae3-4a5c-b01b-7e17dce3ce0f"},"vehicle_type_id":"4","last_reported":1717333622,"current_range_meters":19600,"station_id":"ce4bhch2rcd13ifvqeug","pricing_plan_id":"cebpf4jnsgd1na2vs0mg"},{"bike_id":"28114e40-3091-4c04-8c28-866d88da48bd","system_id":"levelo_inurba_marseille","lat":43.285856,"lon":5.350771,"is_reserved":false,"is_disabled":false,"rental_uris":{"android":"levelo://app?vid=28114e40-3091-4c04-8c28-866d88da48bd","ios":"levelo://app?vid=28114e40-3091-4c04-8c28-866d88da48bd"},"vehicle_type_id":"4","last_reported":1717333622,"current_range_meters":12800,"station_id":"ce4bhch2rcd13ifvqeug","pricing_plan_id":"cebpf4jnsgd1na2vs0mg"},{"bike_id":"6fc873d8-628e-4869-b460-376788698e01","system_id":"levelo_inurba_marseille","lat":43.28617,"lon":5.351,"is_reserved":false,"is_disabled":false,"rental_uris":{"android":"levelo://app?vid=6fc873d8-628e-4869-b460-376788698e01","ios":"levelo://app?vid=6fc873d8-628e-4869-b460-376788698e01"},"vehicle_type_id":"4","last_reported":1717333622,"current_range_meters":20800,"station_id":"ce4bhch2rcd13ifvqeug","pricing_plan_id":"cebpf4jnsgd1na2vs0mg"},{"bike_id":"e363e286-9d8a-448a-9031-34a08218d9ef","system_id":"levelo_inurba_marseille","lat":43.285856,"lon":5.350771,"is_reserved":false,"is_disabled":false,"rental_uris":{"android":"levelo://app?vid=e363e286-9d8a-448a-9031-34a08218d9ef","ios":"levelo://app?vid=e363e286-9d8a-448a-9031-34a08218d9ef"},"vehicle_type_id":"4","last_reported":1717333622,"current_range_meters":0,"station_id":"ce4bhch2rcd13ifvqeug","pricing_plan_id":"cebpf4jnsgd1na2vs0mg"},{"bike_id":"69fc5dbc-a691-41ad-bf4d-65d9f5512229","system_id":"levelo_inurba_marseille","lat":43.28614,"lon":5.35103,"is_reserved":false,"is_disabled":false,"rental_uris":{"android":"levelo://app?vid=69fc5dbc-a691-41ad-bf4d-65d9f5512229","ios":"levelo://app?vid=69fc5dbc-a691-41ad-bf4d-65d9f5512229"},"vehicle_type_id":"4","last_reported":1717333622,"current_range_meters":0,"station_id":"ce4bhch2rcd13ifvqeug","pricing_plan_id":"cebpf4jnsgd1na2vs0mg"},{"bike_id":"5741ef87-836d-448a-86da-62f886ef7889","system_id":"levelo_inurba_marseille","lat":43.285856,"lon":5.350771,"is_reserved":false,"is_disabled":false,"rental_uris":{"android":"levelo://app?vid=5741ef87-836d-448a-86da-62f886ef7889","ios":"levelo://app?vid=5741ef87-836d-448a-86da-62f886ef7889"},"vehicle_type_id":"4","last_reported":1717333622,"current_range_meters":31200,"station_id":"ce4bhch2rcd13ifvqeug","pricing_plan_id":"cebpf4jnsgd1na2vs0mg"},{"bike_id":"d39fc1c8-72ee-40f0-a603-cd09cfc9f4b9","system_id":"levelo_inurba_marseille","lat":43.285856,"lon":5.350771,"is_reserved":false,"is_disabled":false,"rental_uris":{"android":"levelo://app?vid=d39fc1c8-72ee-40f0-a603-cd09cfc9f4b9","ios":"levelo://app?vid=d39fc1c8-72ee-40f0-a603-cd09cfc9f4b9"},"vehicle_type_id":"4","last_reported":1717333622,"current_range_meters":14400,"station_id":"ce4bhch2rcd13ifvqeug","pricing_plan_id":"cebpf4jnsgd1na2vs0mg"},{"bike_id":"5afb4f27-0c9f-4d38-915e-ad1567b9debd","system_id":"levelo_inurba_marseille","lat":43.285848,"lon":5.350787,"is_reserved":false,"is_disabled":false,"rental_uris":{"android":"levelo://app?vid=5afb4f27-0c9f-4d38-915e-ad1567b9debd","ios":"levelo://app?vid=5afb4f27-0c9f-4d38-915e-ad1567b9debd"},"vehicle_type_id":"4","last_reported":1717333622,"current_range_meters":12800,"station_id":"ce4bhch2rcd13ifvqeug","pricing_plan_id":"cebpf4jnsgd1na2vs0mg"},{"bike_id":"2233cdbd-067d-47e1-b0c6-839244c54910","system_id":"levelo_inurba_marseille","lat":43.28613,"lon":5.35105,"is_reserved":false,"is_disabled":false,"rental_uris":{"android":"levelo://app?vid=2233cdbd-067d-47e1-b0c6-839244c54910","ios":"levelo://app?vid=2233cdbd-067d-47e1-b0c6-839244c54910"},"vehicle_type_id":"4","last_reported":1717333622,"current_range_meters":0,"station_id":"ce4bhch2rcd13ifvqeug","pricing_plan_id":"cebpf4jnsgd1na2vs0mg"},{"bike_id":"7741ea42-8029-450e-9364-f12871b2a372","system_id":"levelo_inurba_marseille","lat":43.28614,"lon":5.35101,"is_reserved":false,"is_disabled":false,"rental_uris":{"android":"levelo://app?vid=7741ea42-8029-450e-9364-f12871b2a372","ios":"levelo://app?vid=7741ea42-8029-450e-9364-f12871b2a372"},"vehicle_type_id":"4","last_reported":1717333622,"current_range_meters":0,"station_id":"ce4bhch2rcd13ifvqeug","pricing_plan_id":"cebpf4jnsgd1na2vs0mg"},{"bike_id":"916b707c-8ad5-4957-94cd-9fc64f20b52e","system_id":"levelo_inurba_marseille","lat":43.285856,"lon":5.350771,"is_reserved":false,"is_disabled":false,"rental_uris":{"android":"levelo://app?vid=916b707c-8ad5-4957-94cd-9fc64f20b52e","ios":"levelo://app?vid=916b707c-8ad5-4957-94cd-9fc64f20b52e"},"vehicle_type_id":"4","last_reported":1717333622,"current_range_meters":16000,"station_id":"ce4bhch2rcd13ifvqeug","pricing_plan_id":"cebpf4jnsgd1na2vs0mg"},{"bike_id":"a75784df-54a8-41de-9e36-2da9b5f0f3f3","system_id":"levelo_inurba_marseille","lat":43.28612,"lon":5.351032,"is_reserved":false,"is_disabled":false,"rental_uris":{"android":"levelo://app?vid=a75784df-54a8-41de-9e36-2da9b5f0f3f3","ios":"levelo://app?vid=a75784df-54a8-41de-9e36-2da9b5f0f3f3"},"vehicle_type_id":"4","last_reported":1717333622,"current_range_meters":30800,"station_id":"ce4bhch2rcd13ifvqeug","pricing_plan_id":"cebpf4jnsgd1na2vs0mg"},{"bike_id":"99813ea3-522e-4cf9-8af1-eb59c929f643","system_id":"levelo_inurba_marseille","lat":43.285856,"lon":5.350771,"is_reserved":false,"is_disabled":false,"rental_uris":{"android":"levelo://app?vid=99813ea3-522e-4cf9-8af1-eb59c929f643","ios":"levelo://app?vid=99813ea3-522e-4cf9-8af1-eb59c929f643"},"vehicle_type_id":"4","last_reported":1717333622,"current_range_meters":24400,"station_id":"ce4bhch2rcd13ifvqeug","pricing_plan_id":"cebpf4jnsgd1na2vs0mg"},{"bike_id":"522d2fdb-f6c5-4e44-bb6d-cbb0a5e5ff14","system_id":"levelo_inurba_marseille","lat":43.285856,"lon":5.350771,"is_reserved":false,"is_disabled":false,"rental_uris":{"android":"levelo://app?vid=522d2fdb-f6c5-4e44-bb6d-cbb0a5e5ff14","ios":"levelo://app?vid=522d2fdb-f6c5-4e44-bb6d-cbb0a5e5ff14"},"vehicle_type_id":"4","last_reported":1717333622,"current_range_meters":21200,"station_id":"ce4bhch2rcd13ifvqeug","pricing_plan_id":"cebpf4jnsgd1na2vs0mg"},{"bike_id":"4e64a555-f4f0-413e-81b8-f3ab31b7bd28","system_id":"levelo_inurba_marseille","lat":43.28612,"lon":5.35099,"is_reserved":false,"is_disabled":false,"rental_uris":{"android":"levelo://app?vid=4e64a555-f4f0-413e-81b8-f3ab31b7bd28","ios":"levelo://app?vid=4e64a555-f4f0-413e-81b8-f3ab31b7bd28"},"vehicle_type_id":"4","last_reported":1717333622,"current_range_meters":26000,"station_id":"ce4bhch2rcd13ifvqeug","pricing_plan_id":"cebpf4jnsgd1na2vs0mg"},{"bike_id":"6d7f0e12-a780-47d5-9a20-3e12dd6bbbd7","system_id":"levelo_inurba_marseille","lat":43.28612,"lon":5.35098,"is_reserved":false,"is_disabled":false,"rental_uris":{"android":"levelo://app?vid=6d7f0e12-a780-47d5-9a20-3e12dd6bbbd7","ios":"levelo://app?vid=6d7f0e12-a780-47d5-9a20-3e12dd6bbbd7"},"vehicle_type_id":"4","last_reported":1717333622,"current_range_meters":7200,"station_id":"ce4bhch2rcd13ifvqeug","pricing_plan_id":"cebpf4jnsgd1na2vs0mg"},{"bike_id":"369106d9-4488-4c8e-96d8-32054535205a","system_id":"levelo_inurba_marseille","lat":43.336543,"lon":5.392135,"is_reserved":false,"is_disabled":false,"rental_uris":{"android":"levelo://app?vid=369106d9-4488-4c8e-96d8-32054535205a","ios":"levelo://app?vid=369106d9-4488-4c8e-96d8-32054535205a"},"vehicle_type_id":"4","last_reported":1717333622,"current_range_meters":29600,"station_id":"","pricing_plan_id":"cebpf4jnsgd1na2vs0mg"},{"bike_id":"21a51ed3-dde5-476e-ae4b-9d89be466537","system_id":"levelo_inurba_marseille","lat":43.337168,"lon":5.391825,"is_reserved":false,"is_disabled":false,"rental_uris":{"android":"levelo://app?vid=21a51ed3-dde5-476e-ae4b-9d89be466537","ios":"levelo://app?vid=21a51ed3-dde5-476e-ae4b-9d89be466537"},"vehicle_type_id":"4","last_reported":1717333622,"current_range_meters":28000,"station_id":"ce4bhr92rcd13ifvqhsg","pricing_plan_id":"cebpf4jnsgd1na2vs0mg"},{"bike_id":"69376af1-5810-4843-a6b5-e685972794d8","system_id":"levelo_inurba_marseille","lat":43.323464,"lon":5.406297,"is_reserved":false,"is_disabled":false,"rental_uris":{"android":"levelo://app?vid=69376af1-5810-4843-a6b5-e685972794d8","ios":"levelo://app?vid=69376af1-5810-4843-a6b5-e685972794d8"},"vehicle_type_id":"4","last_reported":1717333622,"current_range_meters":22800,"station_id":"ce4bhq92rcd13ifvqhjg","pricing_plan_id":"cebpf4jnsgd1na2vs0mg"},{"bike_id":"cbcbb52a-89ae-4e47-913a-6da32d68fd05","system_id":"levelo_inurba_marseille","lat":43.323464,"lon":5.406297,"is_reserved":false,"is_disabled":false,"rental_uris":{"android":"levelo://app?vid=cbcbb52a-89ae-4e47-913a-6da32d68fd05","ios":"levelo://app?vid=cbcbb52a-89ae-4e47-913a-6da32d68fd05"},"vehicle_type_id":"4","last_reported":1717333622,"current_range_meters":31600,"station_id":"ce4bhq92rcd13ifvqhjg","pricing_plan_id":"cebpf4jnsgd1na2vs0mg"},{"bike_id":"095a4809-8f15-4f7f-85c4-b9607eff4ef7","system_id":"levelo_inurba_marseille","lat":43.29442,"lon":5.400442,"is_reserved":false,"is_disabled":false,"rental_uris":{"android":"levelo://app?vid=095a4809-8f15-4f7f-85c4-b9607eff4ef7","ios":"levelo://app?vid=095a4809-8f15-4f7f-85c4-b9607eff4ef7"},"vehicle_type_id":"4","last_reported":1717333622,"current_range_meters":6400,"station_id":"","pricing_plan_id":"cebpf4jnsgd1na2vs0mg"},{"bike_id":"b8fa993f-27b1-47f1-a02e-5f8a5b5f429d","system_id":"levelo_inurba_marseille","lat":43.32335,"lon":5.40624,"is_reserved":false,"is_disabled":false,"rental_uris":{"android":"levelo://app?vid=b8fa993f-27b1-47f1-a02e-5f8a5b5f429d","ios":"levelo://app?vid=b8fa993f-27b1-47f1-a02e-5f8a5b5f429d"},"vehicle_type_id":"4","last_reported":1717333622,"current_range_meters":400,"station_id":"ce4bhq92rcd13ifvqhjg","pricing_plan_id":"cebpf4jnsgd1na2vs0mg"},{"bike_id":"a43f4a10-34fb-403a-a076-f5340ee9f67e","system_id":"levelo_inurba_marseille","lat":43.288497,"lon":5.393089,"is_reserved":false,"is_disabled":false,"rental_uris":{"android":"levelo://app?vid=a43f4a10-34fb-403a-a076-f5340ee9f67e","ios":"levelo://app?vid=a43f4a10-34fb-403a-a076-f5340ee9f67e"},"vehicle_type_id":"4","last_reported":1717333622,"current_range_meters":2400,"station_id":"ce4bh2p2rcd13ifvqdi0","pricing_plan_id":"cebpf4jnsgd1na2vs0mg"},{"bike_id":"b7215365-293e-4897-a704-2d0fc993bd79","system_id":"levelo_inurba_marseille","lat":43.284523,"lon":5.34975,"is_reserved":false,"is_disabled":false,"rental_uris":{"android":"levelo://app?vid=b7215365-293e-4897-a704-2d0fc993bd79","ios":"levelo://app?vid=b7215365-293e-4897-a704-2d0fc993bd79"},"vehicle_type_id":"4","last_reported":1717333622,"current_range_meters":8000,"station_id":"","pricing_plan_id":"cebpf4jnsgd1na2vs0mg"},{"bike_id":"be4a9739-aac2-4893-91ab-7dcad85d2def","system_id":"levelo_inurba_marseille","lat":43.284444,"lon":5.349607,"is_reserved":false,"is_disabled":false,"rental_uris":{"android":"levelo://app?vid=be4a9739-aac2-4893-91ab-7dcad85d2def","ios":"levelo://app?vid=be4a9739-aac2-4893-91ab-7dcad85d2def"},"vehicle_type_id":"4","last_reported":1717333622,"current_range_meters":22000,"station_id":"ce4bhbh2rcd13ifvqepg","pricing_plan_id":"cebpf4jnsgd1na2vs0mg"},{"bike_id":"adc5f42d-ee8e-4ac5-b29e-913495d5fd7f","system_id":"levelo_inurba_marseille","lat":43.284214,"lon":5.349706,"is_reserved":false,"is_disabled":false,"rental_uris":{"android":"levelo://app?vid=adc5f42d-ee8e-4ac5-b29e-913495d5fd7f","ios":"levelo://app?vid=adc5f42d-ee8e-4ac5-b29e-913495d5fd7f"},"vehicle_type_id":"4","last_reported":1717333622,"current_range_meters":14800,"station_id":"ce4bhbh2rcd13ifvqepg","pricing_plan_id":"cebpf4jnsgd1na2vs0mg"},{"bike_id":"9f01ed1d-d7a1-4816-9760-e79ac571d2b5","system_id":"levelo_inurba_marseille","lat":43.284214,"lon":5.349706,"is_reserved":false,"is_disabled":false,"rental_uris":{"android":"levelo://app?vid=9f01ed1d-d7a1-4816-9760-e79ac571d2b5","ios":"levelo://app?vid=9f01ed1d-d7a1-4816-9760-e79ac571d2b5"},"vehicle_type_id":"4","last_reported":1717333622,"current_range_meters":20000,"station_id":"ce4bhbh2rcd13ifvqepg","pricing_plan_id":"cebpf4jnsgd1na2vs0mg"},{"bike_id":"b95d8132-8fda-4de4-9f57-6e915d305d8d","system_id":"levelo_inurba_marseille","lat":43.284214,"lon":5.349706,"is_reserved":false,"is_disabled":false,"rental_uris":{"android":"levelo://app?vid=b95d8132-8fda-4de4-9f57-6e915d305d8d","ios":"levelo://app?vid=b95d8132-8fda-4de4-9f57-6e915d305d8d"},"vehicle_type_id":"4","last_reported":1717333622,"current_range_meters":5600,"station_id":"ce4bhbh2rcd13ifvqepg","pricing_plan_id":"cebpf4jnsgd1na2vs0mg"},{"bike_id":"4a3c5e22-14aa-491e-83eb-58f3f9dc4027","system_id":"levelo_inurba_marseille","lat":43.284219,"lon":5.3497,"is_reserved":false,"is_disabled":false,"rental_uris":{"android":"levelo://app?vid=4a3c5e22-14aa-491e-83eb-58f3f9dc4027","ios":"levelo://app?vid=4a3c5e22-14aa-491e-83eb-58f3f9dc4027"},"vehicle_type_id":"4","last_reported":1717333622,"current_range_meters":15600,"station_id":"ce4bhbh2rcd13ifvqepg","pricing_plan_id":"cebpf4jnsgd1na2vs0mg"},{"bike_id":"d44daae6-549e-4fa6-ad41-d033922393c4","system_id":"levelo_inurba_marseille","lat":43.28423,"lon":5.34994,"is_reserved":false,"is_disabled":false,"rental_uris":{"android":"levelo://app?vid=d44daae6-549e-4fa6-ad41-d033922393c4","ios":"levelo://app?vid=d44daae6-549e-4fa6-ad41-d033922393c4"},"vehicle_type_id":"4","last_reported":1717333622,"current_range_meters":0,"station_id":"ce4bhbh2rcd13ifvqepg","pricing_plan_id":"cebpf4jnsgd1na2vs0mg"},{"bike_id":"0565dcf4-203f-4a16-8dec-b25b42d5d3d4","system_id":"levelo_inurba_marseille","lat":43.284219,"lon":5.3497,"is_reserved":false,"is_disabled":false,"rental_uris":{"android":"levelo://app?vid=0565dcf4-203f-4a16-8dec-b25b42d5d3d4","ios":"levelo://app?vid=0565dcf4-203f-4a16-8dec-b25b42d5d3d4"},"vehicle_type_id":"4","last_reported":1717333622,"current_range_meters":20400,"station_id":"ce4bhbh2rcd13ifvqepg","pricing_plan_id":"cebpf4jnsgd1na2vs0mg"},{"bike_id":"65fe5214-afd7-40ef-85b0-97553ce1b3e3","system_id":"levelo_inurba_marseille","lat":43.284219,"lon":5.3497,"is_reserved":false,"is_disabled":false,"rental_uris":{"android":"levelo://app?vid=65fe5214-afd7-40ef-85b0-97553ce1b3e3","ios":"levelo://app?vid=65fe5214-afd7-40ef-85b0-97553ce1b3e3"},"vehicle_type_id":"4","last_reported":1717333622,"current_range_meters":20800,"station_id":"ce4bhbh2rcd13ifvqepg","pricing_plan_id":"cebpf4jnsgd1na2vs0mg"},{"bike_id":"19130d91-d253-4f76-90db-a240fe457c55","system_id":"levelo_inurba_marseille","lat":43.284217,"lon":5.349697,"is_reserved":false,"is_disabled":false,"rental_uris":{"android":"levelo://app?vid=19130d91-d253-4f76-90db-a240fe457c55","ios":"levelo://app?vid=19130d91-d253-4f76-90db-a240fe457c55"},"vehicle_type_id":"4","last_reported":1717333622,"current_range_meters":22400,"station_id":"ce4bhbh2rcd13ifvqepg","pricing_plan_id":"cebpf4jnsgd1na2vs0mg"},{"bike_id":"67a51507-a2f2-43af-9b29-6f150df7cbb7","system_id":"levelo_inurba_marseille","lat":43.284219,"lon":5.3497,"is_reserved":false,"is_disabled":false,"rental_uris":{"android":"levelo://app?vid=67a51507-a2f2-43af-9b29-6f150df7cbb7","ios":"levelo://app?vid=67a51507-a2f2-43af-9b29-6f150df7cbb7"},"vehicle_type_id":"4","last_reported":1717333622,"current_range_meters":31200,"station_id":"ce4bhbh2rcd13ifvqepg","pricing_plan_id":"cebpf4jnsgd1na2vs0mg"},{"bike_id":"4aa79431-920e-422d-8a07-a9c84a5ca538","system_id":"levelo_inurba_marseille","lat":43.284194,"lon":5.349962,"is_reserved":false,"is_disabled":false,"rental_uris":{"android":"levelo://app?vid=4aa79431-920e-422d-8a07-a9c84a5ca538","ios":"levelo://app?vid=4aa79431-920e-422d-8a07-a9c84a5ca538"},"vehicle_type_id":"4","last_reported":1717333622,"current_range_meters":8400,"station_id":"ce4bhbh2rcd13ifvqepg","pricing_plan_id":"cebpf4jnsgd1na2vs0mg"},{"bike_id":"9b4d0ae7-dbd3-4903-bef7-93a2fa2a1810","system_id":"levelo_inurba_marseille","lat":43.284194,"lon":5.349956,"is_reserved":false,"is_disabled":false,"rental_uris":{"android":"levelo://app?vid=9b4d0ae7-dbd3-4903-bef7-93a2fa2a1810","ios":"levelo://app?vid=9b4d0ae7-dbd3-4903-bef7-93a2fa2a1810"},"vehicle_type_id":"4","last_reported":1717333622,"current_range_meters":16800,"station_id":"ce4bhbh2rcd13ifvqepg","pricing_plan_id":"cebpf4jnsgd1na2vs0mg"},{"bike_id":"79f47780-9d85-4545-af4e-1da5b48c31b3","system_id":"levelo_inurba_marseille","lat":43.284219,"lon":5.3497,"is_reserved":false,"is_disabled":false,"rental_uris":{"android":"levelo://app?vid=79f47780-9d85-4545-af4e-1da5b48c31b3","ios":"levelo://app?vid=79f47780-9d85-4545-af4e-1da5b48c31b3"},"vehicle_type_id":"4","last_reported":1717333622,"current_range_meters":24400,"station_id":"ce4bhbh2rcd13ifvqepg","pricing_plan_id":"cebpf4jnsgd1na2vs0mg"},{"bike_id":"309e4b44-4ff3-45b4-a138-c713e758b3d8","system_id":"levelo_inurba_marseille","lat":43.284212,"lon":5.34989,"is_reserved":false,"is_disabled":false,"rental_uris":{"android":"levelo://app?vid=309e4b44-4ff3-45b4-a138-c713e758b3d8","ios":"levelo://app?vid=309e4b44-4ff3-45b4-a138-c713e758b3d8"},"vehicle_type_id":"4","last_reported":1717333622,"current_range_meters":15600,"station_id":"ce4bhbh2rcd13ifvqepg","pricing_plan_id":"cebpf4jnsgd1na2vs0mg"},{"bike_id":"0876648c-72ff-44fe-a788-51ef0bea337e","system_id":"levelo_inurba_marseille","lat":43.284191,"lon":5.349954,"is_reserved":false,"is_disabled":false,"rental_uris":{"android":"levelo://app?vid=0876648c-72ff-44fe-a788-51ef0bea337e","ios":"levelo://app?vid=0876648c-72ff-44fe-a788-51ef0bea337e"},"vehicle_type_id":"4","last_reported":1717333622,"current_range_meters":31200,"station_id":"ce4bhbh2rcd13ifvqepg","pricing_plan_id":"cebpf4jnsgd1na2vs0mg"},{"bike_id":"0618269e-a37d-4e85-93ea-e27aa82c2aeb","system_id":"levelo_inurba_marseille","lat":43.284219,"lon":5.3497,"is_reserved":false,"is_disabled":false,"rental_uris":{"android":"levelo://app?vid=0618269e-a37d-4e85-93ea-e27aa82c2aeb","ios":"levelo://app?vid=0618269e-a37d-4e85-93ea-e27aa82c2aeb"},"vehicle_type_id":"4","last_reported":1717333622,"current_range_meters":17600,"station_id":"ce4bhbh2rcd13ifvqepg","pricing_plan_id":"cebpf4jnsgd1na2vs0mg"},{"bike_id":"83d0c184-19a0-4b74-8206-1227599e8a2c","system_id":"levelo_inurba_marseille","lat":43.2842,"lon":5.34989,"is_reserved":false,"is_disabled":false,"rental_uris":{"android":"levelo://app?vid=83d0c184-19a0-4b74-8206-1227599e8a2c","ios":"levelo://app?vid=83d0c184-19a0-4b74-8206-1227599e8a2c"},"vehicle_type_id":"4","last_reported":1717333622,"current_range_meters":1600,"station_id":"ce4bhbh2rcd13ifvqepg","pricing_plan_id":"cebpf4jnsgd1na2vs0mg"},{"bike_id":"77df9700-f2e0-434a-93d0-594405ca4206","system_id":"levelo_inurba_marseille","lat":43.284214,"lon":5.349706,"is_reserved":false,"is_disabled":false,"rental_uris":{"android":"levelo://app?vid=77df9700-f2e0-434a-93d0-594405ca4206","ios":"levelo://app?vid=77df9700-f2e0-434a-93d0-594405ca4206"},"vehicle_type_id":"4","last_reported":1717333622,"current_range_meters":23200,"station_id":"ce4bhbh2rcd13ifvqepg","pricing_plan_id":"cebpf4jnsgd1na2vs0mg"},{"bike_id":"e689657d-08d5-410e-9a3d-ca7632ee52f0","system_id":"levelo_inurba_marseille","lat":43.28421,"lon":5.34984,"is_reserved":false,"is_disabled":false,"rental_uris":{"android":"levelo://app?vid=e689657d-08d5-410e-9a3d-ca7632ee52f0","ios":"levelo://app?vid=e689657d-08d5-410e-9a3d-ca7632ee52f0"},"vehicle_type_id":"4","last_reported":1717333622,"current_range_meters":2400,"station_id":"ce4bhbh2rcd13ifvqepg","pricing_plan_id":"cebpf4jnsgd1na2vs0mg"},{"bike_id":"348709e4-a6dd-41b4-82c4-cb2c55a55b43","system_id":"levelo_inurba_marseille","lat":43.284197,"lon":5.34987,"is_reserved":false,"is_disabled":false,"rental_uris":{"android":"levelo://app?vid=348709e4-a6dd-41b4-82c4-cb2c55a55b43","ios":"levelo://app?vid=348709e4-a6dd-41b4-82c4-cb2c55a55b43"},"vehicle_type_id":"4","last_reported":1717333622,"current_range_meters":14400,"station_id":"ce4bhbh2rcd13ifvqepg","pricing_plan_id":"cebpf4jnsgd1na2vs0mg"},{"bike_id":"73d92cf1-35dc-456c-a8c7-100e85d3bf51","system_id":"levelo_inurba_marseille","lat":43.2842,"lon":5.3498,"is_reserved":false,"is_disabled":false,"rental_uris":{"android":"levelo://app?vid=73d92cf1-35dc-456c-a8c7-100e85d3bf51","ios":"levelo://app?vid=73d92cf1-35dc-456c-a8c7-100e85d3bf51"},"vehicle_type_id":"4","last_reported":1717333622,"current_range_meters":2000,"station_id":"ce4bhbh2rcd13ifvqepg","pricing_plan_id":"cebpf4jnsgd1na2vs0mg"},{"bike_id":"c808fdde-9078-4ad2-b4ad-b5e1f30ac191","system_id":"levelo_inurba_marseille","lat":43.284219,"lon":5.3497,"is_reserved":false,"is_disabled":false,"rental_uris":{"android":"levelo://app?vid=c808fdde-9078-4ad2-b4ad-b5e1f30ac191","ios":"levelo://app?vid=c808fdde-9078-4ad2-b4ad-b5e1f30ac191"},"vehicle_type_id":"4","last_reported":1717333622,"current_range_meters":24800,"station_id":"ce4bhbh2rcd13ifvqepg","pricing_plan_id":"cebpf4jnsgd1na2vs0mg"},{"bike_id":"dc9fd7a6-c915-4e75-af08-f29c7997ea80","system_id":"levelo_inurba_marseille","lat":43.284214,"lon":5.349706,"is_reserved":false,"is_disabled":false,"rental_uris":{"android":"levelo://app?vid=dc9fd7a6-c915-4e75-af08-f29c7997ea80","ios":"levelo://app?vid=dc9fd7a6-c915-4e75-af08-f29c7997ea80"},"vehicle_type_id":"4","last_reported":1717333622,"current_range_meters":28800,"station_id":"ce4bhbh2rcd13ifvqepg","pricing_plan_id":"cebpf4jnsgd1na2vs0mg"},{"bike_id":"f57bab33-8135-4186-b2c5-dfee5f67123e","system_id":"levelo_inurba_marseille","lat":43.284219,"lon":5.3497,"is_reserved":false,"is_disabled":false,"rental_uris":{"android":"levelo://app?vid=f57bab33-8135-4186-b2c5-dfee5f67123e","ios":"levelo://app?vid=f57bab33-8135-4186-b2c5-dfee5f67123e"},"vehicle_type_id":"4","last_reported":1717333622,"current_range_meters":3200,"station_id":"ce4bhbh2rcd13ifvqepg","pricing_plan_id":"cebpf4jnsgd1na2vs0mg"},{"bike_id":"d9ba2fec-a135-454f-bfe0-a377f5bf73bd","system_id":"levelo_inurba_marseille","lat":43.284192,"lon":5.349795,"is_reserved":false,"is_disabled":false,"rental_uris":{"android":"levelo://app?vid=d9ba2fec-a135-454f-bfe0-a377f5bf73bd","ios":"levelo://app?vid=d9ba2fec-a135-454f-bfe0-a377f5bf73bd"},"vehicle_type_id":"4","last_reported":1717333622,"current_range_meters":24800,"station_id":"ce4bhbh2rcd13ifvqepg","pricing_plan_id":"cebpf4jnsgd1na2vs0mg"},{"bike_id":"fbca44e5-2e50-47b2-a69a-cd6a3fea682f","system_id":"levelo_inurba_marseille","lat":43.284184,"lon":5.349812,"is_reserved":false,"is_disabled":false,"rental_uris":{"android":"levelo://app?vid=fbca44e5-2e50-47b2-a69a-cd6a3fea682f","ios":"levelo://app?vid=fbca44e5-2e50-47b2-a69a-cd6a3fea682f"},"vehicle_type_id":"4","last_reported":1717333622,"current_range_meters":4800,"station_id":"ce4bhbh2rcd13ifvqepg","pricing_plan_id":"cebpf4jnsgd1na2vs0mg"},{"bike_id":"6977f5da-984a-479d-8a24-e974978e9a1d","system_id":"levelo_inurba_marseille","lat":43.284219,"lon":5.3497,"is_reserved":false,"is_disabled":false,"rental_uris":{"android":"levelo://app?vid=6977f5da-984a-479d-8a24-e974978e9a1d","ios":"levelo://app?vid=6977f5da-984a-479d-8a24-e974978e9a1d"},"vehicle_type_id":"4","last_reported":1717333622,"current_range_meters":18000,"station_id":"ce4bhbh2rcd13ifvqepg","pricing_plan_id":"cebpf4jnsgd1na2vs0mg"},{"bike_id":"86009cfb-3072-4350-b201-19cb3584a13d","system_id":"levelo_inurba_marseille","lat":43.2842,"lon":5.34976,"is_reserved":false,"is_disabled":false,"rental_uris":{"android":"levelo://app?vid=86009cfb-3072-4350-b201-19cb3584a13d","ios":"levelo://app?vid=86009cfb-3072-4350-b201-19cb3584a13d"},"vehicle_type_id":"4","last_reported":1717333622,"current_range_meters":8000,"station_id":"ce4bhbh2rcd13ifvqepg","pricing_plan_id":"cebpf4jnsgd1na2vs0mg"},{"bike_id":"2876a2de-017e-4dfb-9781-09a5b89840c4","system_id":"levelo_inurba_marseille","lat":43.28418,"lon":5.34982,"is_reserved":false,"is_disabled":false,"rental_uris":{"android":"levelo://app?vid=2876a2de-017e-4dfb-9781-09a5b89840c4","ios":"levelo://app?vid=2876a2de-017e-4dfb-9781-09a5b89840c4"},"vehicle_type_id":"4","last_reported":1717333622,"current_range_meters":12000,"station_id":"ce4bhbh2rcd13ifvqepg","pricing_plan_id":"cebpf4jnsgd1na2vs0mg"},{"bike_id":"fcf77265-5bf2-4418-8daa-da85ae929087","system_id":"levelo_inurba_marseille","lat":43.28417,"lon":5.34985,"is_reserved":false,"is_disabled":false,"rental_uris":{"android":"levelo://app?vid=fcf77265-5bf2-4418-8daa-da85ae929087","ios":"levelo://app?vid=fcf77265-5bf2-4418-8daa-da85ae929087"},"vehicle_type_id":"4","last_reported":1717333622,"current_range_meters":7200,"station_id":"ce4bhbh2rcd13ifvqepg","pricing_plan_id":"cebpf4jnsgd1na2vs0mg"},{"bike_id":"e12a97bd-fb38-466d-b53c-2a7f7edba1d1","system_id":"levelo_inurba_marseille","lat":43.284217,"lon":5.349697,"is_reserved":false,"is_disabled":false,"rental_uris":{"android":"levelo://app?vid=e12a97bd-fb38-466d-b53c-2a7f7edba1d1","ios":"levelo://app?vid=e12a97bd-fb38-466d-b53c-2a7f7edba1d1"},"vehicle_type_id":"4","last_reported":1717333622,"current_range_meters":4800,"station_id":"ce4bhbh2rcd13ifvqepg","pricing_plan_id":"cebpf4jnsgd1na2vs0mg"},{"bike_id":"507e35e6-609d-4eab-af6f-e9290df48e48","system_id":"levelo_inurba_marseille","lat":43.28411,"lon":5.350005,"is_reserved":false,"is_disabled":false,"rental_uris":{"android":"levelo://app?vid=507e35e6-609d-4eab-af6f-e9290df48e48","ios":"levelo://app?vid=507e35e6-609d-4eab-af6f-e9290df48e48"},"vehicle_type_id":"4","last_reported":1717333622,"current_range_meters":24000,"station_id":"ce4bhbh2rcd13ifvqepg","pricing_plan_id":"cebpf4jnsgd1na2vs0mg"},{"bike_id":"8357b417-425e-48b8-83f5-e8a17c0b0931","system_id":"levelo_inurba_marseille","lat":43.284217,"lon":5.349697,"is_reserved":false,"is_disabled":false,"rental_uris":{"android":"levelo://app?vid=8357b417-425e-48b8-83f5-e8a17c0b0931","ios":"levelo://app?vid=8357b417-425e-48b8-83f5-e8a17c0b0931"},"vehicle_type_id":"4","last_reported":1717333622,"current_range_meters":12800,"station_id":"ce4bhbh2rcd13ifvqepg","pricing_plan_id":"cebpf4jnsgd1na2vs0mg"},{"bike_id":"7c274c3f-1f2a-47bc-af4c-de23baf549bc","system_id":"levelo_inurba_marseille","lat":43.28415,"lon":5.34983,"is_reserved":false,"is_disabled":false,"rental_uris":{"android":"levelo://app?vid=7c274c3f-1f2a-47bc-af4c-de23baf549bc","ios":"levelo://app?vid=7c274c3f-1f2a-47bc-af4c-de23baf549bc"},"vehicle_type_id":"4","last_reported":1717333622,"current_range_meters":0,"station_id":"ce4bhbh2rcd13ifvqepg","pricing_plan_id":"cebpf4jnsgd1na2vs0mg"},{"bike_id":"de579743-2897-41cc-a786-742140680b14","system_id":"levelo_inurba_marseille","lat":43.284219,"lon":5.3497,"is_reserved":false,"is_disabled":false,"rental_uris":{"android":"levelo://app?vid=de579743-2897-41cc-a786-742140680b14","ios":"levelo://app?vid=de579743-2897-41cc-a786-742140680b14"},"vehicle_type_id":"4","last_reported":1717333622,"current_range_meters":24800,"station_id":"ce4bhbh2rcd13ifvqepg","pricing_plan_id":"cebpf4jnsgd1na2vs0mg"},{"bike_id":"b747d6c7-79af-44f0-9100-616fc4584e50","system_id":"levelo_inurba_marseille","lat":43.284219,"lon":5.3497,"is_reserved":false,"is_disabled":false,"rental_uris":{"android":"levelo://app?vid=b747d6c7-79af-44f0-9100-616fc4584e50","ios":"levelo://app?vid=b747d6c7-79af-44f0-9100-616fc4584e50"},"vehicle_type_id":"4","last_reported":1717333622,"current_range_meters":24000,"station_id":"ce4bhbh2rcd13ifvqepg","pricing_plan_id":"cebpf4jnsgd1na2vs0mg"},{"bike_id":"b7ae3037-4779-44d5-a403-9e732a1f0444","system_id":"levelo_inurba_marseille","lat":43.28414,"lon":5.34982,"is_reserved":false,"is_disabled":false,"rental_uris":{"android":"levelo://app?vid=b7ae3037-4779-44d5-a403-9e732a1f0444","ios":"levelo://app?vid=b7ae3037-4779-44d5-a403-9e732a1f0444"},"vehicle_type_id":"4","last_reported":1717333622,"current_range_meters":14000,"station_id":"ce4bhbh2rcd13ifvqepg","pricing_plan_id":"cebpf4jnsgd1na2vs0mg"},{"bike_id":"68ffb4ed-24d0-4f6e-9dbc-855f4e1e0d2f","system_id":"levelo_inurba_marseille","lat":43.28416,"lon":5.34975,"is_reserved":false,"is_disabled":false,"rental_uris":{"android":"levelo://app?vid=68ffb4ed-24d0-4f6e-9dbc-855f4e1e0d2f","ios":"levelo://app?vid=68ffb4ed-24d0-4f6e-9dbc-855f4e1e0d2f"},"vehicle_type_id":"4","last_reported":1717333622,"current_range_meters":1600,"station_id":"ce4bhbh2rcd13ifvqepg","pricing_plan_id":"cebpf4jnsgd1na2vs0mg"},{"bike_id":"f30d6f53-bd09-42b7-b561-864008a26e3d","system_id":"levelo_inurba_marseille","lat":43.28411,"lon":5.34987,"is_reserved":false,"is_disabled":false,"rental_uris":{"android":"levelo://app?vid=f30d6f53-bd09-42b7-b561-864008a26e3d","ios":"levelo://app?vid=f30d6f53-bd09-42b7-b561-864008a26e3d"},"vehicle_type_id":"4","last_reported":1717333622,"current_range_meters":24800,"station_id":"ce4bhbh2rcd13ifvqepg","pricing_plan_id":"cebpf4jnsgd1na2vs0mg"},{"bike_id":"c05a3b21-61f9-42c0-a42c-1dd8bd065f74","system_id":"levelo_inurba_marseille","lat":43.28414,"lon":5.34975,"is_reserved":false,"is_disabled":false,"rental_uris":{"android":"levelo://app?vid=c05a3b21-61f9-42c0-a42c-1dd8bd065f74","ios":"levelo://app?vid=c05a3b21-61f9-42c0-a42c-1dd8bd065f74"},"vehicle_type_id":"4","last_reported":1717333622,"current_range_meters":2000,"station_id":"ce4bhbh2rcd13ifvqepg","pricing_plan_id":"cebpf4jnsgd1na2vs0mg"},{"bike_id":"2cf029d6-5962-4861-b1fe-125af667a71c","system_id":"levelo_inurba_marseille","lat":43.28414,"lon":5.34971,"is_reserved":false,"is_disabled":false,"rental_uris":{"android":"levelo://app?vid=2cf029d6-5962-4861-b1fe-125af667a71c","ios":"levelo://app?vid=2cf029d6-5962-4861-b1fe-125af667a71c"},"vehicle_type_id":"4","last_reported":1717333622,"current_range_meters":14000,"station_id":"ce4bhbh2rcd13ifvqepg","pricing_plan_id":"cebpf4jnsgd1na2vs0mg"},{"bike_id":"feab507c-ecc6-4df2-9a37-0d2857111b26","system_id":"levelo_inurba_marseille","lat":43.284063,"lon":5.349952,"is_reserved":false,"is_disabled":false,"rental_uris":{"android":"levelo://app?vid=feab507c-ecc6-4df2-9a37-0d2857111b26","ios":"levelo://app?vid=feab507c-ecc6-4df2-9a37-0d2857111b26"},"vehicle_type_id":"4","last_reported":1717333622,"current_range_meters":20400,"station_id":"ce4bhbh2rcd13ifvqepg","pricing_plan_id":"cebpf4jnsgd1na2vs0mg"},{"bike_id":"03db7d48-ad6a-40c3-9463-7a1c676452ea","system_id":"levelo_inurba_marseille","lat":43.28408,"lon":5.34987,"is_reserved":false,"is_disabled":false,"rental_uris":{"android":"levelo://app?vid=03db7d48-ad6a-40c3-9463-7a1c676452ea","ios":"levelo://app?vid=03db7d48-ad6a-40c3-9463-7a1c676452ea"},"vehicle_type_id":"4","last_reported":1717333622,"current_range_meters":8800,"station_id":"ce4bhbh2rcd13ifvqepg","pricing_plan_id":"cebpf4jnsgd1na2vs0mg"},{"bike_id":"32b97036-4d55-4e22-9e52-0be1a8b56619","system_id":"levelo_inurba_marseille","lat":43.28411,"lon":5.34971,"is_reserved":false,"is_disabled":false,"rental_uris":{"android":"levelo://app?vid=32b97036-4d55-4e22-9e52-0be1a8b56619","ios":"levelo://app?vid=32b97036-4d55-4e22-9e52-0be1a8b56619"},"vehicle_type_id":"4","last_reported":1717333622,"current_range_meters":4400,"station_id":"ce4bhbh2rcd13ifvqepg","pricing_plan_id":"cebpf4jnsgd1na2vs0mg"},{"bike_id":"9ce6f8de-e1ae-4229-95b0-84cbebdbcd34","system_id":"levelo_inurba_marseille","lat":43.28407,"lon":5.34981,"is_reserved":false,"is_disabled":false,"rental_uris":{"android":"levelo://app?vid=9ce6f8de-e1ae-4229-95b0-84cbebdbcd34","ios":"levelo://app?vid=9ce6f8de-e1ae-4229-95b0-84cbebdbcd34"},"vehicle_type_id":"4","last_reported":1717333622,"current_range_meters":16000,"station_id":"ce4bhbh2rcd13ifvqepg","pricing_plan_id":"cebpf4jnsgd1na2vs0mg"},{"bike_id":"d88a9968-7b57-4602-87d5-3f3c41e835df","system_id":"levelo_inurba_marseille","lat":43.282755,"lon":5.350818,"is_reserved":false,"is_disabled":false,"rental_uris":{"android":"levelo://app?vid=d88a9968-7b57-4602-87d5-3f3c41e835df","ios":"levelo://app?vid=d88a9968-7b57-4602-87d5-3f3c41e835df"},"vehicle_type_id":"4","last_reported":1717333622,"current_range_meters":16400,"station_id":"ce4bhbp2rcd13ifvqerg","pricing_plan_id":"cebpf4jnsgd1na2vs0mg"},{"bike_id":"aa26f240-0806-40ad-8bb2-6eb7cd14cc99","system_id":"levelo_inurba_marseille","lat":43.282785,"lon":5.350711,"is_reserved":false,"is_disabled":false,"rental_uris":{"android":"levelo://app?vid=aa26f240-0806-40ad-8bb2-6eb7cd14cc99","ios":"levelo://app?vid=aa26f240-0806-40ad-8bb2-6eb7cd14cc99"},"vehicle_type_id":"4","last_reported":1717333622,"current_range_meters":14800,"station_id":"ce4bhbp2rcd13ifvqerg","pricing_plan_id":"cebpf4jnsgd1na2vs0mg"},{"bike_id":"a68cacf5-7470-4217-b540-1c16e2f2ed90","system_id":"levelo_inurba_marseille","lat":43.28276,"lon":5.35073,"is_reserved":false,"is_disabled":false,"rental_uris":{"android":"levelo://app?vid=a68cacf5-7470-4217-b540-1c16e2f2ed90","ios":"levelo://app?vid=a68cacf5-7470-4217-b540-1c16e2f2ed90"},"vehicle_type_id":"4","last_reported":1717333622,"current_range_meters":18800,"station_id":"ce4bhbp2rcd13ifvqerg","pricing_plan_id":"cebpf4jnsgd1na2vs0mg"},{"bike_id":"5ab903ac-22cf-4707-9d82-a77a83257c12","system_id":"levelo_inurba_marseille","lat":43.28273,"lon":5.350782,"is_reserved":false,"is_disabled":false,"rental_uris":{"android":"levelo://app?vid=5ab903ac-22cf-4707-9d82-a77a83257c12","ios":"levelo://app?vid=5ab903ac-22cf-4707-9d82-a77a83257c12"},"vehicle_type_id":"4","last_reported":1717333622,"current_range_meters":20400,"station_id":"ce4bhbp2rcd13ifvqerg","pricing_plan_id":"cebpf4jnsgd1na2vs0mg"},{"bike_id":"995d656f-b3ec-42ff-829b-97e31a6d5ac1","system_id":"levelo_inurba_marseille","lat":43.28277,"lon":5.350637,"is_reserved":false,"is_disabled":false,"rental_uris":{"android":"levelo://app?vid=995d656f-b3ec-42ff-829b-97e31a6d5ac1","ios":"levelo://app?vid=995d656f-b3ec-42ff-829b-97e31a6d5ac1"},"vehicle_type_id":"4","last_reported":1717333622,"current_range_meters":25600,"station_id":"ce4bhbp2rcd13ifvqerg","pricing_plan_id":"cebpf4jnsgd1na2vs0mg"},{"bike_id":"5424cb95-e424-4dcf-92ec-62e5d035c80c","system_id":"levelo_inurba_marseille","lat":43.28272,"lon":5.35074,"is_reserved":false,"is_disabled":false,"rental_uris":{"android":"levelo://app?vid=5424cb95-e424-4dcf-92ec-62e5d035c80c","ios":"levelo://app?vid=5424cb95-e424-4dcf-92ec-62e5d035c80c"},"vehicle_type_id":"4","last_reported":1717333622,"current_range_meters":11200,"station_id":"ce4bhbp2rcd13ifvqerg","pricing_plan_id":"cebpf4jnsgd1na2vs0mg"},{"bike_id":"6b302399-f062-4650-bd6d-405fe1c62e29","system_id":"levelo_inurba_marseille","lat":43.28271,"lon":5.35075,"is_reserved":false,"is_disabled":false,"rental_uris":{"android":"levelo://app?vid=6b302399-f062-4650-bd6d-405fe1c62e29","ios":"levelo://app?vid=6b302399-f062-4650-bd6d-405fe1c62e29"},"vehicle_type_id":"4","last_reported":1717333622,"current_range_meters":20800,"station_id":"ce4bhbp2rcd13ifvqerg","pricing_plan_id":"cebpf4jnsgd1na2vs0mg"},{"bike_id":"5f7d6399-2c29-4b08-bd25-66dd7b395ed1","system_id":"levelo_inurba_marseille","lat":43.282731,"lon":5.350651,"is_reserved":false,"is_disabled":false,"rental_uris":{"android":"levelo://app?vid=5f7d6399-2c29-4b08-bd25-66dd7b395ed1","ios":"levelo://app?vid=5f7d6399-2c29-4b08-bd25-66dd7b395ed1"},"vehicle_type_id":"4","last_reported":1717333622,"current_range_meters":6800,"station_id":"ce4bhbp2rcd13ifvqerg","pricing_plan_id":"cebpf4jnsgd1na2vs0mg"},{"bike_id":"aa5c213d-d322-4f8b-9fbc-cba951b38704","system_id":"levelo_inurba_marseille","lat":43.28272,"lon":5.35069,"is_reserved":false,"is_disabled":false,"rental_uris":{"android":"levelo://app?vid=aa5c213d-d322-4f8b-9fbc-cba951b38704","ios":"levelo://app?vid=aa5c213d-d322-4f8b-9fbc-cba951b38704"},"vehicle_type_id":"4","last_reported":1717333622,"current_range_meters":28000,"station_id":"ce4bhbp2rcd13ifvqerg","pricing_plan_id":"cebpf4jnsgd1na2vs0mg"},{"bike_id":"14d1e6b9-ab23-45bb-85f7-a839649d5ae1","system_id":"levelo_inurba_marseille","lat":43.282717,"lon":5.350697,"is_reserved":false,"is_disabled":false,"rental_uris":{"android":"levelo://app?vid=14d1e6b9-ab23-45bb-85f7-a839649d5ae1","ios":"levelo://app?vid=14d1e6b9-ab23-45bb-85f7-a839649d5ae1"},"vehicle_type_id":"4","last_reported":1717333622,"current_range_meters":22800,"station_id":"ce4bhbp2rcd13ifvqerg","pricing_plan_id":"cebpf4jnsgd1na2vs0mg"},{"bike_id":"2979f388-fef4-4638-b47b-aaec796e1938","system_id":"levelo_inurba_marseille","lat":43.28269,"lon":5.35079,"is_reserved":false,"is_disabled":false,"rental_uris":{"android":"levelo://app?vid=2979f388-fef4-4638-b47b-aaec796e1938","ios":"levelo://app?vid=2979f388-fef4-4638-b47b-aaec796e1938"},"vehicle_type_id":"4","last_reported":1717333622,"current_range_meters":10000,"station_id":"ce4bhbp2rcd13ifvqerg","pricing_plan_id":"cebpf4jnsgd1na2vs0mg"},{"bike_id":"8e61366b-82ff-44c3-ad42-52ef91f71f9e","system_id":"levelo_inurba_marseille","lat":43.282706,"lon":5.350733,"is_reserved":false,"is_disabled":false,"rental_uris":{"android":"levelo://app?vid=8e61366b-82ff-44c3-ad42-52ef91f71f9e","ios":"levelo://app?vid=8e61366b-82ff-44c3-ad42-52ef91f71f9e"},"vehicle_type_id":"4","last_reported":1717333622,"current_range_meters":2800,"station_id":"ce4bhbp2rcd13ifvqerg","pricing_plan_id":"cebpf4jnsgd1na2vs0mg"},{"bike_id":"b8cda5c9-5bc3-41c3-83e1-5f31b7897ece","system_id":"levelo_inurba_marseille","lat":43.28272,"lon":5.35068,"is_reserved":false,"is_disabled":false,"rental_uris":{"android":"levelo://app?vid=b8cda5c9-5bc3-41c3-83e1-5f31b7897ece","ios":"levelo://app?vid=b8cda5c9-5bc3-41c3-83e1-5f31b7897ece"},"vehicle_type_id":"4","last_reported":1717333622,"current_range_meters":1200,"station_id":"ce4bhbp2rcd13ifvqerg","pricing_plan_id":"cebpf4jnsgd1na2vs0mg"},{"bike_id":"29557d06-eaf0-4244-a52d-2233ab2383a7","system_id":"levelo_inurba_marseille","lat":43.28269,"lon":5.35077,"is_reserved":false,"is_disabled":false,"rental_uris":{"android":"levelo://app?vid=29557d06-eaf0-4244-a52d-2233ab2383a7","ios":"levelo://app?vid=29557d06-eaf0-4244-a52d-2233ab2383a7"},"vehicle_type_id":"4","last_reported":1717333622,"current_range_meters":29200,"station_id":"ce4bhbp2rcd13ifvqerg","pricing_plan_id":"cebpf4jnsgd1na2vs0mg"},{"bike_id":"25227fc6-6edf-41a9-aeb0-743f84ec2043","system_id":"levelo_inurba_marseille","lat":43.28269,"lon":5.350766,"is_reserved":false,"is_disabled":false,"rental_uris":{"android":"levelo://app?vid=25227fc6-6edf-41a9-aeb0-743f84ec2043","ios":"levelo://app?vid=25227fc6-6edf-41a9-aeb0-743f84ec2043"},"vehicle_type_id":"4","last_reported":1717333622,"current_range_meters":29600,"station_id":"ce4bhbp2rcd13ifvqerg","pricing_plan_id":"cebpf4jnsgd1na2vs0mg"},{"bike_id":"72a38e44-a961-4c40-aa2a-ceeebf841064","system_id":"levelo_inurba_marseille","lat":43.28269,"lon":5.35076,"is_reserved":false,"is_disabled":false,"rental_uris":{"android":"levelo://app?vid=72a38e44-a961-4c40-aa2a-ceeebf841064","ios":"levelo://app?vid=72a38e44-a961-4c40-aa2a-ceeebf841064"},"vehicle_type_id":"4","last_reported":1717333622,"current_range_meters":20400,"station_id":"ce4bhbp2rcd13ifvqerg","pricing_plan_id":"cebpf4jnsgd1na2vs0mg"},{"bike_id":"19ea6ac5-5f98-49ff-be11-6e19e2ee2bfb","system_id":"levelo_inurba_marseille","lat":43.28267,"lon":5.350795,"is_reserved":false,"is_disabled":false,"rental_uris":{"android":"levelo://app?vid=19ea6ac5-5f98-49ff-be11-6e19e2ee2bfb","ios":"levelo://app?vid=19ea6ac5-5f98-49ff-be11-6e19e2ee2bfb"},"vehicle_type_id":"4","last_reported":1717333622,"current_range_meters":19600,"station_id":"ce4bhbp2rcd13ifvqerg","pricing_plan_id":"cebpf4jnsgd1na2vs0mg"},{"bike_id":"9de89402-1d33-42af-8cac-9c7e74642e0d","system_id":"levelo_inurba_marseille","lat":43.282689,"lon":5.350725,"is_reserved":false,"is_disabled":false,"rental_uris":{"android":"levelo://app?vid=9de89402-1d33-42af-8cac-9c7e74642e0d","ios":"levelo://app?vid=9de89402-1d33-42af-8cac-9c7e74642e0d"},"vehicle_type_id":"4","last_reported":1717333622,"current_range_meters":31200,"station_id":"ce4bhbp2rcd13ifvqerg","pricing_plan_id":"cebpf4jnsgd1na2vs0mg"},{"bike_id":"f94191fe-bf40-476e-84af-1cc1e2328928","system_id":"levelo_inurba_marseille","lat":43.283502,"lon":5.386471,"is_reserved":false,"is_disabled":false,"rental_uris":{"android":"levelo://app?vid=f94191fe-bf40-476e-84af-1cc1e2328928","ios":"levelo://app?vid=f94191fe-bf40-476e-84af-1cc1e2328928"},"vehicle_type_id":"4","last_reported":1717333622,"current_range_meters":22800,"station_id":"ce4bh492rcd13ifvqdvg","pricing_plan_id":"cebpf4jnsgd1na2vs0mg"},{"bike_id":"f1d069f1-89d1-401e-a3a2-f7a475119f3e","system_id":"levelo_inurba_marseille","lat":43.28268,"lon":5.35074,"is_reserved":false,"is_disabled":false,"rental_uris":{"android":"levelo://app?vid=f1d069f1-89d1-401e-a3a2-f7a475119f3e","ios":"levelo://app?vid=f1d069f1-89d1-401e-a3a2-f7a475119f3e"},"vehicle_type_id":"4","last_reported":1717333622,"current_range_meters":22800,"station_id":"ce4bhbp2rcd13ifvqerg","pricing_plan_id":"cebpf4jnsgd1na2vs0mg"},{"bike_id":"2b0f5d12-fc49-4bbc-a38c-f6788396f2a2","system_id":"levelo_inurba_marseille","lat":43.282656,"lon":5.350805,"is_reserved":false,"is_disabled":false,"rental_uris":{"android":"levelo://app?vid=2b0f5d12-fc49-4bbc-a38c-f6788396f2a2","ios":"levelo://app?vid=2b0f5d12-fc49-4bbc-a38c-f6788396f2a2"},"vehicle_type_id":"4","last_reported":1717333622,"current_range_meters":22800,"station_id":"ce4bhbp2rcd13ifvqerg","pricing_plan_id":"cebpf4jnsgd1na2vs0mg"},{"bike_id":"7bb981e6-d0e4-418f-93c4-47f97604f4f9","system_id":"levelo_inurba_marseille","lat":43.282717,"lon":5.350587,"is_reserved":false,"is_disabled":false,"rental_uris":{"android":"levelo://app?vid=7bb981e6-d0e4-418f-93c4-47f97604f4f9","ios":"levelo://app?vid=7bb981e6-d0e4-418f-93c4-47f97604f4f9"},"vehicle_type_id":"4","last_reported":1717333622,"current_range_meters":31200,"station_id":"ce4bhbp2rcd13ifvqerg","pricing_plan_id":"cebpf4jnsgd1na2vs0mg"},{"bike_id":"d4cdd4e9-7296-40e4-ab17-3be57ac50250","system_id":"levelo_inurba_marseille","lat":43.282674,"lon":5.350702,"is_reserved":false,"is_disabled":false,"rental_uris":{"android":"levelo://app?vid=d4cdd4e9-7296-40e4-ab17-3be57ac50250","ios":"levelo://app?vid=d4cdd4e9-7296-40e4-ab17-3be57ac50250"},"vehicle_type_id":"4","last_reported":1717333622,"current_range_meters":12400,"station_id":"","pricing_plan_id":"cebpf4jnsgd1na2vs0mg"},{"bike_id":"4ee86327-a0c8-4529-9f7a-a51d185c7244","system_id":"levelo_inurba_marseille","lat":43.28266,"lon":5.350747,"is_reserved":false,"is_disabled":false,"rental_uris":{"android":"levelo://app?vid=4ee86327-a0c8-4529-9f7a-a51d185c7244","ios":"levelo://app?vid=4ee86327-a0c8-4529-9f7a-a51d185c7244"},"vehicle_type_id":"4","last_reported":1717333622,"current_range_meters":24400,"station_id":"ce4bhbp2rcd13ifvqerg","pricing_plan_id":"cebpf4jnsgd1na2vs0mg"},{"bike_id":"d117cdfe-cbec-4fd1-a731-fe320a5068b3","system_id":"levelo_inurba_marseille","lat":43.28268,"lon":5.35067,"is_reserved":false,"is_disabled":false,"rental_uris":{"android":"levelo://app?vid=d117cdfe-cbec-4fd1-a731-fe320a5068b3","ios":"levelo://app?vid=d117cdfe-cbec-4fd1-a731-fe320a5068b3"},"vehicle_type_id":"4","last_reported":1717333622,"current_range_meters":0,"station_id":"ce4bhbp2rcd13ifvqerg","pricing_plan_id":"cebpf4jnsgd1na2vs0mg"},{"bike_id":"831d1ceb-be10-470f-b05f-d894b397434c","system_id":"levelo_inurba_marseille","lat":43.2827,"lon":5.3506,"is_reserved":false,"is_disabled":false,"rental_uris":{"android":"levelo://app?vid=831d1ceb-be10-470f-b05f-d894b397434c","ios":"levelo://app?vid=831d1ceb-be10-470f-b05f-d894b397434c"},"vehicle_type_id":"4","last_reported":1717333622,"current_range_meters":25600,"station_id":"ce4bhbp2rcd13ifvqerg","pricing_plan_id":"cebpf4jnsgd1na2vs0mg"},{"bike_id":"242e905f-6165-4d21-848e-aea3ccb1c42e","system_id":"levelo_inurba_marseille","lat":43.282645,"lon":5.35079,"is_reserved":false,"is_disabled":false,"rental_uris":{"android":"levelo://app?vid=242e905f-6165-4d21-848e-aea3ccb1c42e","ios":"levelo://app?vid=242e905f-6165-4d21-848e-aea3ccb1c42e"},"vehicle_type_id":"4","last_reported":1717333622,"current_range_meters":13200,"station_id":"ce4bhbp2rcd13ifvqerg","pricing_plan_id":"cebpf4jnsgd1na2vs0mg"},