{"last_updated":1741457388,"ttl":60,"version":"2.2","data":{"bikes":[{"bike_id":"f47c87bb-71cc-4617-adf5-67b7b3ee2e91","system_id":"levelo_inurba_marseille","lat":43.29305,"lon":5.37157,"is_reserved":false,"is_disabled":false,"rental_uris":{"android":"levelo://app?vid=f47c87bb-71cc-4617-adf5-67b7b3ee2e91","ios":"levelo://app?vid=f47c87bb-71cc-4617-adf5-67b7b3ee2e91"},"vehicle_type_id":"4","last_reported":1741457388,"current_range_meters":2800,"station_id":"ce4bgh92rcd13ifvqb40","pricing_plan_id":"cebpf4jnsgd1na2vs0mg"},{"bike_id":"d7f4f057-0937-45eb-90ae-2e7a3bd871ed","system_id":"levelo_inurba_marseille","lat":43.30395,"lon":5.41867,"is_reserved":false,"is_disabled":false,"rental_uris":{"android":"levelo://app?vid=d7f4f057-0937-45eb-90ae-2e7a3bd871ed","ios":"levelo://app?vid=d7f4f057-0937-45eb-90ae-2e7a3bd871ed"},"vehicle_type_id":"4","last_reported":1741457388,"current_range_meters":2800,"station_id":"ce4bhop2rcd13ifvqh7g","pricing_plan_id":"cebpf4jnsgd1na2vs0mg"},{"bike_id":"53ba06d6-3b6c-4f49-bc80-8f7e1937ded3","system_id":"levelo_inurba_marseille","lat":43.27898,"lon":5.41285,"is_reserved":false,"is_disabled":false,"rental_uris":{"android":"levelo://app?vid=53ba06d6-3b6c-4f49-bc80-8f7e1937ded3","ios":"levelo://app?vid=53ba06d6-3b6c-4f49-bc80-8f7e1937ded3"},"vehicle_type_id":"4","last_reported":1741457388,"current_range_meters":2800,"station_id":"","pricing_plan_id":"cebpf4jnsgd1na2vs0mg"},{"bike_id":"06ace302-ed0c-4baf-a7df-e66cc9dbcd5c","system_id":"levelo_inurba_marseille","lat":43.28615,"lon":5.37062,"is_reserved":false,"is_disabled":false,"rental_uris":{"android":"levelo://app?vid=06ace302-ed0c-4baf-a7df-e66cc9dbcd5c","ios":"levelo://app?vid=06ace302-ed0c-4baf-a7df-e66cc9dbcd5c"},"vehicle_type_id":"4","last_reported":1741457388,"current_range_meters":2800,"station_id":"ce4bht12rcd13ifvqi60","pricing_plan_id":"cebpf4jnsgd1na2vs0mg"},{"bike_id":"483bf892-8578-4f79-8acb-cc249301cb83","system_id":"levelo_inurba_marseille","lat":43.2902,"lon":5.38635,"is_reserved":false,"is_disabled":false,"rental_uris":{"android":"levelo://app?vid=483bf892-8578-4f79-8acb-cc249301cb83","ios":"levelo://app?vid=483bf892-8578-4f79-8acb-cc249301cb83"},"vehicle_type_id":"4","last_reported":1741457388,"current_range_meters":2800,"station_id":"ce4bh4p2rcd13ifvqe0g","pricing_plan_id":"cebpf4jnsgd1na2vs0mg"},{"bike_id":"4be5f969-c6bf-4e5b-878c-f1be37ef57aa","system_id":"levelo_inurba_marseille","lat":43.29023,"lon":5.35904,"is_reserved":false,"is_disabled":false,"rental_uris":{"android":"levelo://app?vid=4be5f969-c6bf-4e5b-878c-f1be37ef57aa","ios":"levelo://app?vid=4be5f969-c6bf-4e5b-878c-f1be37ef57aa"},"vehicle_type_id":"4","last_reported":1741457388,"current_range_meters":2800,"station_id":"ce4bha92rcd13ifvqeg0","pricing_plan_id":"cebpf4jnsgd1na2vs0mg"},{"bike_id":"a97779ef-58e6-4110-bd62-9e9a676d75bc","system_id":"levelo_inurba_marseille","lat":43.29265,"lon":5.38443,"is_reserved":false,"is_disabled":false,"rental_uris":{"android":"levelo://app?vid=a97779ef-58e6-4110-bd62-9e9a676d75bc","ios":"levelo://app?vid=a97779ef-58e6-4110-bd62-9e9a676d75bc"},"vehicle_type_id":"4","last_reported":1741457388,"current_range_meters":2800,"station_id":"ce4bh692rcd13ifvqea0","pricing_plan_id":"cebpf4jnsgd1na2vs0mg"},{"bike_id":"0f637d6f-79f8-4f82-9beb-659c54ae18b4","system_id":"levelo_inurba_marseille","lat":43.26234,"lon":5.40436,"is_reserved":false,"is_disabled":false,"rental_uris":{"android":"levelo://app?vid=0f637d6f-79f8-4f82-9beb-659c54ae18b4","ios":"levelo://app?vid=0f637d6f-79f8-4f82-9beb-659c54ae18b4"},"vehicle_type_id":"4","last_reported":1741457388,"current_range_meters":3200,"station_id":"ce4bhmh2rcd13ifvqgmg","pricing_plan_id":"cebpf4jnsgd1na2vs0mg"},{"bike_id":"3fb2ed09-13f3-4e6d-9eb7-c4384b65b3ef","system_id":"levelo_inurba_marseille","lat":43.31714,"lon":5.3774,"is_reserved":false,"is_disabled":false,"rental_uris":{"android":"levelo://app?vid=3fb2ed09-13f3-4e6d-9eb7-c4384b65b3ef","ios":"levelo://app?vid=3fb2ed09-13f3-4e6d-9eb7-c4384b65b3ef"},"vehicle_type_id":"4","last_reported":1741457388,"current_range_meters":3200,"station_id":"ce4bgth2rcd13ifvqch0","pricing_plan_id":"cebpf4jnsgd1na2vs0mg"},{"bike_id":"1f7c7370-082b-4796-a8ad-bb5cb1654f58","system_id":"levelo_inurba_marseille","lat":43.29253,"lon":5.38435,"is_reserved":false,"is_disabled":false,"rental_uris":{"android":"levelo://app?vid=1f7c7370-082b-4796-a8ad-bb5cb1654f58","ios":"levelo://app?vid=1f7c7370-082b-4796-a8ad-bb5cb1654f58"},"vehicle_type_id":"4","last_reported":1741457388,"current_range_meters":3200,"station_id":"ce4bh692rcd13ifvqea0","pricing_plan_id":"cebpf4jnsgd1na2vs0mg"},{"bike_id":"9693d8a7-464c-4308-b12c-28e9f3597280","system_id":"levelo_inurba_marseille","lat":43.2928,"lon":5.4011,"is_reserved":false,"is_disabled":false,"rental_uris":{"android":"levelo://app?vid=9693d8a7-464c-4308-b12c-28e9f3597280","ios":"levelo://app?vid=9693d8a7-464c-4308-b12c-28e9f3597280"},"vehicle_type_id":"4","last_reported":1741457388,"current_range_meters":3200,"station_id":"ce4bh312rcd13ifvqdk0","pricing_plan_id":"cebpf4jnsgd1na2vs0mg"},{"bike_id":"9d47b0d3-4f69-44b5-a82d-a36a43637504","system_id":"levelo_inurba_marseille","lat":43.28668,"lon":5.38664,"is_reserved":false,"is_disabled":false,"rental_uris":{"android":"levelo://app?vid=9d47b0d3-4f69-44b5-a82d-a36a43637504","ios":"levelo://app?vid=9d47b0d3-4f69-44b5-a82d-a36a43637504"},"vehicle_type_id":"4","last_reported":1741457388,"current_range_meters":3200,"station_id":"ce4bh492rcd13ifvqdug","pricing_plan_id":"cebpf4jnsgd1na2vs0mg"},{"bike_id":"daae548d-8aa9-4e8a-9811-1bbde31541e9","system_id":"levelo_inurba_marseille","lat":43.26801,"lon":5.4023,"is_reserved":false,"is_disabled":false,"rental_uris":{"android":"levelo://app?vid=daae548d-8aa9-4e8a-9811-1bbde31541e9","ios":"levelo://app?vid=daae548d-8aa9-4e8a-9811-1bbde31541e9"},"vehicle_type_id":"4","last_reported":1741457388,"current_range_meters":3200,"station_id":"ce501612rcd8frsf0b60","pricing_plan_id":"cebpf4jnsgd1na2vs0mg"},{"bike_id":"d0a76768-0bb0-4e00-b757-23fcfe57ff81","system_id":"levelo_inurba_marseille","lat":43.2695,"lon":5.3892,"is_reserved":false,"is_disabled":false,"rental_uris":{"android":"levelo://app?vid=d0a76768-0bb0-4e00-b757-23fcfe57ff81","ios":"levelo://app?vid=d0a76768-0bb0-4e00-b757-23fcfe57ff81"},"vehicle_type_id":"4","last_reported":1741457388,"current_range_meters":3200,"station_id":"ce4bhhh2rcd13ifvqfl0","pricing_plan_id":"cebpf4jnsgd1na2vs0mg"},{"bike_id":"afa3006f-9b9c-4de6-98fe-13630f48062e","system_id":"levelo_inurba_marseille","lat":43.30639,"lon":5.40081,"is_reserved":false,"is_disabled":false,"rental_uris":{"android":"levelo://app?vid=afa3006f-9b9c-4de6-98fe-13630f48062e","ios":"levelo://app?vid=afa3006f-9b9c-4de6-98fe-13630f48062e"},"vehicle_type_id":"4","last_reported":1741457388,"current_range_meters":3200,"station_id":"ce4bh112rcd13ifvqda0","pricing_plan_id":"cebpf4jnsgd1na2vs0mg"},{"bike_id":"5ddae395-b053-4a6b-9bb4-000d4957af9c","system_id":"levelo_inurba_marseille","lat":43.25725,"lon":5.41101,"is_reserved":false,"is_disabled":false,"rental_uris":{"android":"levelo://app?vid=5ddae395-b053-4a6b-9bb4-000d4957af9c","ios":"levelo://app?vid=5ddae395-b053-4a6b-9bb4-000d4957af9c"},"vehicle_type_id":"4","last_reported":1741457388,"current_range_meters":3600,"station_id":"ce4bhkp2rcd13ifvqgd0","pricing_plan_id":"cebpf4jnsgd1na2vs0mg"},{"bike_id":"ce62c5d0-0017-4456-a658-1ee3678522ec","system_id":"levelo_inurba_marseille","lat":43.29267,"lon":5.38448,"is_reserved":false,"is_disabled":false,"rental_uris":{"android":"levelo://app?vid=ce62c5d0-0017-4456-a658-1ee3678522ec","ios":"levelo://app?vid=ce62c5d0-0017-4456-a658-1ee3678522ec"},"vehicle_type_id":"4","last_reported":1741457388,"current_range_meters":3600,"station_id":"ce4bh692rcd13ifvqea0","pricing_plan_id":"cebpf4jnsgd1na2vs0mg"},{"bike_id":"34e6c22b-e813-419e-8c18-730c303010a2","system_id":"levelo_inurba_marseille","lat":43.27075,"lon":5.42275,"is_reserved":false,"is_disabled":false,"rental_uris":{"android":"levelo://app?vid=34e6c22b-e813-419e-8c18-730c303010a2","ios":"levelo://app?vid=34e6c22b-e813-419e-8c18-730c303010a2"},"vehicle_type_id":"4","last_reported":1741457388,"current_range_meters":3600,"station_id":"ce4bhk92rcd13ifvqgb0","pricing_plan_id":"cebpf4jnsgd1na2vs0mg"},{"bike_id":"1dfdd336-0ac5-4b76-9e1b-c6062c189b37","system_id":"levelo_inurba_marseille","lat":43.29523,"lon":5.39399,"is_reserved":false,"is_disabled":false,"rental_uris":{"android":"levelo://app?vid=1dfdd336-0ac5-4b76-9e1b-c6062c189b37","ios":"levelo://app?vid=1dfdd336-0ac5-4b76-9e1b-c6062c189b37"},"vehicle_type_id":"4","last_reported":1741457388,"current_range_meters":3600,"station_id":"ce4bh292rcd13ifvqdf0","pricing_plan_id":"cebpf4jnsgd1na2vs0mg"},{"bike_id":"3d696b19-b1ab-4a13-8598-4424cb3f5585","system_id":"levelo_inurba_marseille","lat":43.29698,"lon":5.37289,"is_reserved":false,"is_disabled":false,"rental_uris":{"android":"levelo://app?vid=3d696b19-b1ab-4a13-8598-4424cb3f5585","ios":"levelo://app?vid=3d696b19-b1ab-4a13-8598-4424cb3f5585"},"vehicle_type_id":"4","last_reported":1741457388,"current_range_meters":3600,"station_id":"ce4bgk12rcd13ifvqbj0","pricing_plan_id":"cebpf4jnsgd1na2vs0mg"},{"bike_id":"1d36d4d4-3201-48ff-b86e-17c2e2ea42d8","system_id":"levelo_inurba_marseille","lat":43.27058,"lon":5.4026,"is_reserved":false,"is_disabled":false,"rental_uris":{"android":"levelo://app?vid=1d36d4d4-3201-48ff-b86e-17c2e2ea42d8","ios":"levelo://app?vid=1d36d4d4-3201-48ff-b86e-17c2e2ea42d8"},"vehicle_type_id":"4","last_reported":1741457388,"current_range_meters":3600,"station_id":"ce4bhk92rcd13ifvqgc0","pricing_plan_id":"cebpf4jnsgd1na2vs0mg"},{"bike_id":"82382b55-3469-429b-82d5-0fa97c5de23d","system_id":"levelo_inurba_marseille","lat":43.27667,"lon":5.38893,"is_reserved":false,"is_disabled":false,"rental_uris":{"android":"levelo://app?vid=82382b55-3469-429b-82d5-0fa97c5de23d","ios":"levelo://app?vid=82382b55-3469-429b-82d5-0fa97c5de23d"},"vehicle_type_id":"4","last_reported":1741457388,"current_range_meters":3600,"station_id":"ce4bhi12rcd13ifvqfo0","pricing_plan_id":"cebpf4jnsgd1na2vs0mg"},{"bike_id":"d76c8617-5879-46a1-8c8c-a053a9230eda","system_id":"levelo_inurba_marseille","lat":43.27626,"lon":5.36104,"is_reserved":false,"is_disabled":false,"rental_uris":{"android":"levelo://app?vid=d76c8617-5879-46a1-8c8c-a053a9230eda","ios":"levelo://app?vid=d76c8617-5879-46a1-8c8c-a053a9230eda"},"vehicle_type_id":"4","last_reported":1741457388,"current_range_meters":3600,"station_id":"ce4bgj92rcd13ifvqbe0","pricing_plan_id":"cebpf4jnsgd1na2vs0mg"},{"bike_id":"2f83b506-d3e5-4bfb-94a8-5fcac2015a1b","system_id":"levelo_inurba_marseille","lat":43.28702,"lon":5.39988,"is_reserved":false,"is_disabled":false,"rental_uris":{"android":"levelo://app?vid=2f83b506-d3e5-4bfb-94a8-5fcac2015a1b","ios":"levelo://app?vid=2f83b506-d3e5-4bfb-94a8-5fcac2015a1b"},"vehicle_type_id":"4","last_reported":1741457388,"current_range_meters":3600,"station_id":"ce4bho92rcd13ifvqh3g","pricing_plan_id":"cebpf4jnsgd1na2vs0mg"},{"bike_id":"c989a96a-6e31-4ce3-9fe3-c9add618e27c","system_id":"levelo_inurba_marseille","lat":43.28435,"lon":5.39154,"is_reserved":false,"is_disabled":true,"rental_uris":{"android":"levelo://app?vid=c989a96a-6e31-4ce3-9fe3-c9add618e27c","ios":"levelo://app?vid=c989a96a-6e31-4ce3-9fe3-c9add618e27c"},"vehicle_type_id":"4","last_reported":1741457388,"current_range_meters":3600,"station_id":"ce4bhoh2rcd13ifvqh5g","pricing_plan_id":"cebpf4jnsgd1na2vs0mg"},{"bike_id":"04cac416-f980-4f10-a1db-76cb911255b8","system_id":"levelo_inurba_marseille","lat":43.32363,"lon":5.36755,"is_reserved":false,"is_disabled":false,"rental_uris":{"android":"levelo://app?vid=04cac416-f980-4f10-a1db-76cb911255b8","ios":"levelo://app?vid=04cac416-f980-4f10-a1db-76cb911255b8"},"vehicle_type_id":"4","last_reported":1741457388,"current_range_meters":3600,"station_id":"ce4bhsh2rcd13ifvqi2g","pricing_plan_id":"cebpf4jnsgd1na2vs0mg"},{"bike_id":"6dfc0e33-74d7-4d06-b6c9-c996b6877cad","system_id":"levelo_inurba_marseille","lat":43.29259,"lon":5.38438,"is_reserved":false,"is_disabled":false,"rental_uris":{"android":"levelo://app?vid=6dfc0e33-74d7-4d06-b6c9-c996b6877cad","ios":"levelo://app?vid=6dfc0e33-74d7-4d06-b6c9-c996b6877cad"},"vehicle_type_id":"4","last_reported":1741457388,"current_range_meters":4000,"station_id":"ce4bh692rcd13ifvqea0","pricing_plan_id":"cebpf4jnsgd1na2vs0mg"},{"bike_id":"8b216f70-3f4d-47c0-bf8d-8cdf18ada058","system_id":"levelo_inurba_marseille","lat":43.29205,"lon":5.39318,"is_reserved":false,"is_disabled":false,"rental_uris":{"android":"levelo://app?vid=8b216f70-3f4d-47c0-bf8d-8cdf18ada058","ios":"levelo://app?vid=8b216f70-3f4d-47c0-bf8d-8cdf18ada058"},"vehicle_type_id":"4","last_reported":1741457388,"current_range_meters":4000,"station_id":"ce4bh192rcd13ifvqdd0","pricing_plan_id":"cebpf4jnsgd1na2vs0mg"},{"bike_id":"6d56829a-8b66-4806-9fa3-c78e097b3431","system_id":"levelo_inurba_marseille","lat":43.2904,"lon":5.37563,"is_reserved":false,"is_disabled":false,"rental_uris":{"android":"levelo://app?vid=6d56829a-8b66-4806-9fa3-c78e097b3431","ios":"levelo://app?vid=6d56829a-8b66-4806-9fa3-c78e097b3431"},"vehicle_type_id":"4","last_reported":1741457388,"current_range_meters":4000,"station_id":"ce4bh692rcd13ifvqe90","pricing_plan_id":"cebpf4jnsgd1na2vs0mg"},{"bike_id":"71b97289-d517-49a1-8c55-539e5a8554d3","system_id":"levelo_inurba_marseille","lat":43.26213,"lon":5.40459,"is_reserved":false,"is_disabled":false,"rental_uris":{"android":"levelo://app?vid=71b97289-d517-49a1-8c55-539e5a8554d3","ios":"levelo://app?vid=71b97289-d517-49a1-8c55-539e5a8554d3"},"vehicle_type_id":"4","last_reported":1741457388,"current_range_meters":4000,"station_id":"ce4bhmh2rcd13ifvqgmg","pricing_plan_id":"cebpf4jnsgd1na2vs0mg"},{"bike_id":"f6dae647-2aaf-4352-b94d-de26875a36be","system_id":"levelo_inurba_marseille","lat":43.28475,"lon":5.38423,"is_reserved":false,"is_disabled":false,"rental_uris":{"android":"levelo://app?vid=f6dae647-2aaf-4352-b94d-de26875a36be","ios":"levelo://app?vid=f6dae647-2aaf-4352-b94d-de26875a36be"},"vehicle_type_id":"4","last_reported":1741457388,"current_range_meters":4000,"station_id":"ce4bh512rcd13ifvqe3g","pricing_plan_id":"cebpf4jnsgd1na2vs0mg"},{"bike_id":"8f60d7d0-7cdc-48b3-a763-4552a7d55ea3","system_id":"levelo_inurba_marseille","lat":43.26805,"lon":5.4026,"is_reserved":false,"is_disabled":false,"rental_uris":{"android":"levelo://app?vid=8f60d7d0-7cdc-48b3-a763-4552a7d55ea3","ios":"levelo://app?vid=8f60d7d0-7cdc-48b3-a763-4552a7d55ea3"},"vehicle_type_id":"4","last_reported":1741457388,"current_range_meters":4000,"station_id":"ce501612rcd8frsf0b60","pricing_plan_id":"cebpf4jnsgd1na2vs0mg"},{"bike_id":"c491dc31-a085-4206-8442-50946830be7e","system_id":"levelo_inurba_marseille","lat":43.29634,"lon":5.40595,"is_reserved":false,"is_disabled":false,"rental_uris":{"android":"levelo://app?vid=c491dc31-a085-4206-8442-50946830be7e","ios":"levelo://app?vid=c491dc31-a085-4206-8442-50946830be7e"},"vehicle_type_id":"4","last_reported":1741457388,"current_range_meters":3600,"station_id":"ce4bh0h2rcd13ifvqd60","pricing_plan_id":"cebpf4jnsgd1na2vs0mg"},{"bike_id":"b59e1315-387f-45c1-a951-7990df1d9f89","system_id":"levelo_inurba_marseille","lat":43.26935,"lon":5.40256,"is_reserved":false,"is_disabled":false,"rental_uris":{"android":"levelo://app?vid=b59e1315-387f-45c1-a951-7990df1d9f89","ios":"levelo://app?vid=b59e1315-387f-45c1-a951-7990df1d9f89"},"vehicle_type_id":"4","last_reported":1741457388,"current_range_meters":4000,"station_id":"cjm6bp8fraef2m0cb0m0","pricing_plan_id":"cebpf4jnsgd1na2vs0mg"},{"bike_id":"3236490d-652a-45d8-9907-850a2660f1c7","system_id":"levelo_inurba_marseille","lat":43.29839,"lon":5.37627,"is_reserved":false,"is_disabled":false,"rental_uris":{"android":"levelo://app?vid=3236490d-652a-45d8-9907-850a2660f1c7","ios":"levelo://app?vid=3236490d-652a-45d8-9907-850a2660f1c7"},"vehicle_type_id":"4","last_reported":1741457388,"current_range_meters":4000,"station_id":"","pricing_plan_id":"cebpf4jnsgd1na2vs0mg"},{"bike_id":"a206b171-32a9-417b-9185-ce04849e4aca","system_id":"levelo_inurba_marseille","lat":43.3023,"lon":5.39471,"is_reserved":false,"is_disabled":false,"rental_uris":{"android":"levelo://app?vid=a206b171-32a9-417b-9185-ce04849e4aca","ios":"levelo://app?vid=a206b171-32a9-417b-9185-ce04849e4aca"},"vehicle_type_id":"4","last_reported":1741457388,"current_range_meters":4000,"station_id":"ce4bh0p2rcd13ifvqd70","pricing_plan_id":"cebpf4jnsgd1na2vs0mg"},{"bike_id":"c376f348-26f0-4200-9c2f-feb3bc15e9b2","system_id":"levelo_inurba_marseille","lat":43.27944,"lon":5.41048,"is_reserved":false,"is_disabled":false,"rental_uris":{"android":"levelo://app?vid=c376f348-26f0-4200-9c2f-feb3bc15e9b2","ios":"levelo://app?vid=c376f348-26f0-4200-9c2f-feb3bc15e9b2"},"vehicle_type_id":"4","last_reported":1741457388,"current_range_meters":4000,"station_id":"ce4bhnp2rcd13ifvqh0g","pricing_plan_id":"cebpf4jnsgd1na2vs0mg"},{"bike_id":"8d20b5ae-7894-4983-826f-69b3b122986c","system_id":"levelo_inurba_marseille","lat":43.29872,"lon":5.39743,"is_reserved":false,"is_disabled":false,"rental_uris":{"android":"levelo://app?vid=8d20b5ae-7894-4983-826f-69b3b122986c","ios":"levelo://app?vid=8d20b5ae-7894-4983-826f-69b3b122986c"},"vehicle_type_id":"4","last_reported":1741457388,"current_range_meters":4000,"station_id":"ce4bh0h2rcd13ifvqd50","pricing_plan_id":"cebpf4jnsgd1na2vs0mg"},{"bike_id":"3761a61a-25ae-47b1-b1d5-ff18d536f9ce","system_id":"levelo_inurba_marseille","lat":43.24666,"lon":5.38157,"is_reserved":false,"is_disabled":false,"rental_uris":{"android":"levelo://app?vid=3761a61a-25ae-47b1-b1d5-ff18d536f9ce","ios":"levelo://app?vid=3761a61a-25ae-47b1-b1d5-ff18d536f9ce"},"vehicle_type_id":"4","last_reported":1741457388,"current_range_meters":4400,"station_id":"ce4bhih2rcd13ifvqfr0","pricing_plan_id":"cebpf4jnsgd1na2vs0mg"},{"bike_id":"8ec0ffba-b700-4c35-a5da-5e7ddd42d608","system_id":"levelo_inurba_marseille","lat":43.31486,"lon":5.37307,"is_reserved":false,"is_disabled":false,"rental_uris":{"android":"levelo://app?vid=8ec0ffba-b700-4c35-a5da-5e7ddd42d608","ios":"levelo://app?vid=8ec0ffba-b700-4c35-a5da-5e7ddd42d608"},"vehicle_type_id":"4","last_reported":1741457388,"current_range_meters":4400,"station_id":"ce4bgt12rcd13ifvqcd0","pricing_plan_id":"cebpf4jnsgd1na2vs0mg"},{"bike_id":"89b9b55a-1392-498d-b8a5-8520a39c9a74","system_id":"levelo_inurba_marseille","lat":43.29267,"lon":5.40142,"is_reserved":false,"is_disabled":true,"rental_uris":{"android":"levelo://app?vid=89b9b55a-1392-498d-b8a5-8520a39c9a74","ios":"levelo://app?vid=89b9b55a-1392-498d-b8a5-8520a39c9a74"},"vehicle_type_id":"4","last_reported":1741457388,"current_range_meters":4400,"station_id":"ce4bh312rcd13ifvqdk0","pricing_plan_id":"cebpf4jnsgd1na2vs0mg"},{"bike_id":"2d333629-56c1-4152-9882-38fae1dcef18","system_id":"levelo_inurba_marseille","lat":43.29529,"lon":5.39054,"is_reserved":false,"is_disabled":false,"rental_uris":{"android":"levelo://app?vid=2d333629-56c1-4152-9882-38fae1dcef18","ios":"levelo://app?vid=2d333629-56c1-4152-9882-38fae1dcef18"},"vehicle_type_id":"4","last_reported":1741457388,"current_range_meters":4400,"station_id":"ce4bh3p2rcd13ifvqdp0","pricing_plan_id":"cebpf4jnsgd1na2vs0mg"},{"bike_id":"41d596b3-b163-4c49-8c00-798eb6b5082d","system_id":"levelo_inurba_marseille","lat":43.24545,"lon":5.395227,"is_reserved":false,"is_disabled":false,"rental_uris":{"android":"levelo://app?vid=41d596b3-b163-4c49-8c00-798eb6b5082d","ios":"levelo://app?vid=41d596b3-b163-4c49-8c00-798eb6b5082d"},"vehicle_type_id":"4","last_reported":1741457388,"current_range_meters":4000,"station_id":"ce4bhlp2rcd13ifvqgjg","pricing_plan_id":"cebpf4jnsgd1na2vs0mg"},{"bike_id":"f69aeb1d-c2f7-4829-a00b-e7cd58582228","system_id":"levelo_inurba_marseille","lat":43.30126,"lon":5.388,"is_reserved":false,"is_disabled":false,"rental_uris":{"android":"levelo://app?vid=f69aeb1d-c2f7-4829-a00b-e7cd58582228","ios":"levelo://app?vid=f69aeb1d-c2f7-4829-a00b-e7cd58582228"},"vehicle_type_id":"4","last_reported":1741457388,"current_range_meters":4400,"station_id":"ce4bghh2rcd13ifvqb60","pricing_plan_id":"cebpf4jnsgd1na2vs0mg"},{"bike_id":"ef841903-cdc0-4227-af7f-cb9f26dc3c9b","system_id":"levelo_inurba_marseille","lat":43.31392,"lon":5.39267,"is_reserved":false,"is_disabled":false,"rental_uris":{"android":"levelo://app?vid=ef841903-cdc0-4227-af7f-cb9f26dc3c9b","ios":"levelo://app?vid=ef841903-cdc0-4227-af7f-cb9f26dc3c9b"},"vehicle_type_id":"4","last_reported":1741457388,"current_range_meters":4400,"station_id":"","pricing_plan_id":"cebpf4jnsgd1na2vs0mg"},{"bike_id":"9f064eab-647a-447f-ab31-c5f5b00c0586","system_id":"levelo_inurba_marseille","lat":43.29166,"lon":5.37161,"is_reserved":false,"is_disabled":false,"rental_uris":{"android":"levelo://app?vid=9f064eab-647a-447f-ab31-c5f5b00c0586","ios":"levelo://app?vid=9f064eab-647a-447f-ab31-c5f5b00c0586"},"vehicle_type_id":"4","last_reported":1741457388,"current_range_meters":4400,"station_id":"ce4bha92rcd13ifvqeh0","pricing_plan_id":"cebpf4jnsgd1na2vs0mg"},{"bike_id":"c3ace0f1-258a-473f-bbca-705d4d023f18","system_id":"levelo_inurba_marseille","lat":43.25705,"lon":5.41144,"is_reserved":false,"is_disabled":false,"rental_uris":{"android":"levelo://app?vid=c3ace0f1-258a-473f-bbca-705d4d023f18","ios":"levelo://app?vid=c3ace0f1-258a-473f-bbca-705d4d023f18"},"vehicle_type_id":"4","last_reported":1741457388,"current_range_meters":4400,"station_id":"ce4bhkp2rcd13ifvqgd0","pricing_plan_id":"cebpf4jnsgd1na2vs0mg"},{"bike_id":"aecbb0ed-4eaf-4888-b6d1-ceb77b1b8859","system_id":"levelo_inurba_marseille","lat":43.31714,"lon":5.43704,"is_reserved":false,"is_disabled":false,"rental_uris":{"android":"levelo://app?vid=aecbb0ed-4eaf-4888-b6d1-ceb77b1b8859","ios":"levelo://app?vid=aecbb0ed-4eaf-4888-b6d1-ceb77b1b8859"},"vehicle_type_id":"4","last_reported":1741457388,"current_range_meters":4000,"station_id":"ce4bhp92rcd13ifvqhcg","pricing_plan_id":"cebpf4jnsgd1na2vs0mg"},{"bike_id":"5d4e4574-6498-4372-afcd-f02df8652fd1","system_id":"levelo_inurba_marseille","lat":43.25722,"lon":5.41103,"is_reserved":false,"is_disabled":false,"rental_uris":{"android":"levelo://app?vid=5d4e4574-6498-4372-afcd-f02df8652fd1","ios":"levelo://app?vid=5d4e4574-6498-4372-afcd-f02df8652fd1"},"vehicle_type_id":"4","last_reported":1741457388,"current_range_meters":3200,"station_id":"ce4bhkp2rcd13ifvqgd0","pricing_plan_id":"cebpf4jnsgd1na2vs0mg"},{"bike_id":"c42576e8-5166-4d04-83f7-853dec7aef4f","system_id":"levelo_inurba_marseille","lat":43.30466,"lon":5.37903,"is_reserved":false,"is_disabled":false,"rental_uris":{"android":"levelo://app?vid=c42576e8-5166-4d04-83f7-853dec7aef4f","ios":"levelo://app?vid=c42576e8-5166-4d04-83f7-853dec7aef4f"},"vehicle_type_id":"4","last_reported":1741457388,"current_range_meters":4400,"station_id":"ce4bgup2rcd13ifvqcn0","pricing_plan_id":"cebpf4jnsgd1na2vs0mg"},{"bike_id":"30af4b38-17f9-4eae-85ca-9d0045cd4d6d","system_id":"levelo_inurba_marseille","lat":43.25735,"lon":5.41123,"is_reserved":false,"is_disabled":false,"rental_uris":{"android":"levelo://app?vid=30af4b38-17f9-4eae-85ca-9d0045cd4d6d","ios":"levelo://app?vid=30af4b38-17f9-4eae-85ca-9d0045cd4d6d"},"vehicle_type_id":"4","last_reported":1741457388,"current_range_meters":4400,"station_id":"ce4bhkp2rcd13ifvqgd0","pricing_plan_id":"cebpf4jnsgd1na2vs0mg"},{"bike_id":"2bfd4614-3b49-4fc0-a5e8-9efd598f8db8","system_id":"levelo_inurba_marseille","lat":43.28423,"lon":5.34989,"is_reserved":false,"is_disabled":false,"rental_uris":{"android":"levelo://app?vid=2bfd4614-3b49-4fc0-a5e8-9efd598f8db8","ios":"levelo://app?vid=2bfd4614-3b49-4fc0-a5e8-9efd598f8db8"},"vehicle_type_id":"4","last_reported":1741457388,"current_range_meters":4800,"station_id":"ce4bhbh2rcd13ifvqepg","pricing_plan_id":"cebpf4jnsgd1na2vs0mg"},{"bike_id":"f37911ec-e47b-48ec-b401-bb0c0dfd9a08","system_id":"levelo_inurba_marseille","lat":43.29803,"lon":5.40398,"is_reserved":false,"is_disabled":false,"rental_uris":{"android":"levelo://app?vid=f37911ec-e47b-48ec-b401-bb0c0dfd9a08","ios":"levelo://app?vid=f37911ec-e47b-48ec-b401-bb0c0dfd9a08"},"vehicle_type_id":"4","last_reported":1741457388,"current_range_meters":4800,"station_id":"ce4bh112rcd13ifvqd90","pricing_plan_id":"cebpf4jnsgd1na2vs0mg"},{"bike_id":"b5893d14-068e-4a0c-be7a-fdf83ee283cc","system_id":"levelo_inurba_marseille","lat":43.28088,"lon":5.39656,"is_reserved":false,"is_disabled":false,"rental_uris":{"android":"levelo://app?vid=b5893d14-068e-4a0c-be7a-fdf83ee283cc","ios":"levelo://app?vid=b5893d14-068e-4a0c-be7a-fdf83ee283cc"},"vehicle_type_id":"4","last_reported":1741457388,"current_range_meters":4800,"station_id":"ce4bho12rcd13ifvqh2g","pricing_plan_id":"cebpf4jnsgd1na2vs0mg"},{"bike_id":"b8bd45d5-5783-464a-a895-3ba653f0846d","system_id":"levelo_inurba_marseille","lat":43.30465,"lon":5.37906,"is_reserved":false,"is_disabled":false,"rental_uris":{"android":"levelo://app?vid=b8bd45d5-5783-464a-a895-3ba653f0846d","ios":"levelo://app?vid=b8bd45d5-5783-464a-a895-3ba653f0846d"},"vehicle_type_id":"4","last_reported":1741457388,"current_range_meters":4800,"station_id":"ce4bgup2rcd13ifvqcn0","pricing_plan_id":"cebpf4jnsgd1na2vs0mg"},{"bike_id":"858edaa0-863d-4ce2-bae6-d2614c19d906","system_id":"levelo_inurba_marseille","lat":43.28422,"lon":5.34983,"is_reserved":false,"is_disabled":false,"rental_uris":{"android":"levelo://app?vid=858edaa0-863d-4ce2-bae6-d2614c19d906","ios":"levelo://app?vid=858edaa0-863d-4ce2-bae6-d2614c19d906"},"vehicle_type_id":"4","last_reported":1741457388,"current_range_meters":4800,"station_id":"ce4bhbh2rcd13ifvqepg","pricing_plan_id":"cebpf4jnsgd1na2vs0mg"},{"bike_id":"11baeae5-2ab4-4b58-b44e-32e3ee1cb5ce","system_id":"levelo_inurba_marseille","lat":43.28724,"lon":5.37938,"is_reserved":false,"is_disabled":false,"rental_uris":{"android":"levelo://app?vid=11baeae5-2ab4-4b58-b44e-32e3ee1cb5ce","ios":"levelo://app?vid=11baeae5-2ab4-4b58-b44e-32e3ee1cb5ce"},"vehicle_type_id":"4","last_reported":1741457388,"current_range_meters":5600,"station_id":"ce4bh9p2rcd13ifvqec0","pricing_plan_id":"cebpf4jnsgd1na2vs0mg"},{"bike_id":"d16e1ab9-a007-4083-99a8-35b9341c5224","system_id":"levelo_inurba_marseille","lat":43.32044,"lon":5.41545,"is_reserved":false,"is_disabled":false,"rental_uris":{"android":"levelo://app?vid=d16e1ab9-a007-4083-99a8-35b9341c5224","ios":"levelo://app?vid=d16e1ab9-a007-4083-99a8-35b9341c5224"},"vehicle_type_id":"4","last_reported":1741457388,"current_range_meters":4400,"station_id":"ce4bhq92rcd13ifvqhkg","pricing_plan_id":"cebpf4jnsgd1na2vs0mg"},{"bike_id":"6e5c1ec0-55c7-428f-ab14-fe8ef478e880","system_id":"levelo_inurba_marseille","lat":43.32082,"lon":5.40118,"is_reserved":false,"is_disabled":false,"rental_uris":{"android":"levelo://app?vid=6e5c1ec0-55c7-428f-ab14-fe8ef478e880","ios":"levelo://app?vid=6e5c1ec0-55c7-428f-ab14-fe8ef478e880"},"vehicle_type_id":"4","last_reported":1741457388,"current_range_meters":4800,"station_id":"","pricing_plan_id":"cebpf4jnsgd1na2vs0mg"},{"bike_id":"0b0d1a19-cb76-4a04-95d5-1ce04b3ecaa2","system_id":"levelo_inurba_marseille","lat":43.2977,"lon":5.37099,"is_reserved":false,"is_disabled":false,"rental_uris":{"android":"levelo://app?vid=0b0d1a19-cb76-4a04-95d5-1ce04b3ecaa2","ios":"levelo://app?vid=0b0d1a19-cb76-4a04-95d5-1ce04b3ecaa2"},"vehicle_type_id":"4","last_reported":1741457388,"current_range_meters":4400,"station_id":"ce4bgop2rcd13ifvqc1g","pricing_plan_id":"cebpf4jnsgd1na2vs0mg"},{"bike_id":"c086275e-1d9e-430c-bb58-8c4da01ebb64","system_id":"levelo_inurba_marseille","lat":43.28686,"lon":5.38663,"is_reserved":false,"is_disabled":false,"rental_uris":{"android":"levelo://app?vid=c086275e-1d9e-430c-bb58-8c4da01ebb64","ios":"levelo://app?vid=c086275e-1d9e-430c-bb58-8c4da01ebb64"},"vehicle_type_id":"4","last_reported":1741457388,"current_range_meters":4800,"station_id":"ce4bh492rcd13ifvqdug","pricing_plan_id":"cebpf4jnsgd1na2vs0mg"},{"bike_id":"e8605cda-b987-464b-b14c-735c7a3c9e34","system_id":"levelo_inurba_marseille","lat":43.30122,"lon":5.39871,"is_reserved":false,"is_disabled":false,"rental_uris":{"android":"levelo://app?vid=e8605cda-b987-464b-b14c-735c7a3c9e34","ios":"levelo://app?vid=e8605cda-b987-464b-b14c-735c7a3c9e34"},"vehicle_type_id":"4","last_reported":1741457388,"current_range_meters":4800,"station_id":"ce4bh0h2rcd13ifvqd40","pricing_plan_id":"cebpf4jnsgd1na2vs0mg"},{"bike_id":"7d295ec4-9c0e-4850-9c53-dd65645b97b2","system_id":"levelo_inurba_marseille","lat":43.260646,"lon":5.39396,"is_reserved":false,"is_disabled":false,"rental_uris":{"android":"levelo://app?vid=7d295ec4-9c0e-4850-9c53-dd65645b97b2","ios":"levelo://app?vid=7d295ec4-9c0e-4850-9c53-dd65645b97b2"},"vehicle_type_id":"4","last_reported":1741457388,"current_range_meters":5600,"station_id":"ce4bhh92rcd13ifvqfj0","pricing_plan_id":"cebpf4jnsgd1na2vs0mg"},{"bike_id":"b0d79351-7c71-41c7-bd08-a1d81d07f8b7","system_id":"levelo_inurba_marseille","lat":43.26557,"lon":5.37286,"is_reserved":false,"is_disabled":false,"rental_uris":{"android":"levelo://app?vid=b0d79351-7c71-41c7-bd08-a1d81d07f8b7","ios":"levelo://app?vid=b0d79351-7c71-41c7-bd08-a1d81d07f8b7"},"vehicle_type_id":"4","last_reported":1741457388,"current_range_meters":6000,"station_id":"ce4bhg12rcd13ifvqf70","pricing_plan_id":"cebpf4jnsgd1na2vs0mg"},{"bike_id":"cfeb8ea5-7c09-483c-a7ae-4e7400ec956b","system_id":"levelo_inurba_marseille","lat":43.24179,"lon":5.3973,"is_reserved":false,"is_disabled":false,"rental_uris":{"android":"levelo://app?vid=cfeb8ea5-7c09-483c-a7ae-4e7400ec956b","ios":"levelo://app?vid=cfeb8ea5-7c09-483c-a7ae-4e7400ec956b"},"vehicle_type_id":"4","last_reported":1741457388,"current_range_meters":5600,"station_id":"ce4bhn12rcd13ifvqgpg","pricing_plan_id":"cebpf4jnsgd1na2vs0mg"},{"bike_id":"db361612-8186-4e1c-a8a1-a778740c3e27","system_id":"levelo_inurba_marseille","lat":43.26064,"lon":5.39395,"is_reserved":false,"is_disabled":false,"rental_uris":{"android":"levelo://app?vid=db361612-8186-4e1c-a8a1-a778740c3e27","ios":"levelo://app?vid=db361612-8186-4e1c-a8a1-a778740c3e27"},"vehicle_type_id":"4","last_reported":1741457388,"current_range_meters":5600,"station_id":"ce4bhh92rcd13ifvqfj0","pricing_plan_id":"cebpf4jnsgd1na2vs0mg"},{"bike_id":"61aa0117-5c98-4b8d-bdc0-dbe440734ebe","system_id":"levelo_inurba_marseille","lat":43.29771,"lon":5.38058,"is_reserved":false,"is_disabled":false,"rental_uris":{"android":"levelo://app?vid=61aa0117-5c98-4b8d-bdc0-dbe440734ebe","ios":"levelo://app?vid=61aa0117-5c98-4b8d-bdc0-dbe440734ebe"},"vehicle_type_id":"4","last_reported":1741457388,"current_range_meters":5600,"station_id":"","pricing_plan_id":"cebpf4jnsgd1na2vs0mg"},{"bike_id":"c535c6f3-e75c-45c2-a597-e9e0b6aaf0ab","system_id":"levelo_inurba_marseille","lat":43.29632,"lon":5.40591,"is_reserved":false,"is_disabled":false,"rental_uris":{"android":"levelo://app?vid=c535c6f3-e75c-45c2-a597-e9e0b6aaf0ab","ios":"levelo://app?vid=c535c6f3-e75c-45c2-a597-e9e0b6aaf0ab"},"vehicle_type_id":"4","last_reported":1741457388,"current_range_meters":4800,"station_id":"ce4bh0h2rcd13ifvqd60","pricing_plan_id":"cebpf4jnsgd1na2vs0mg"},{"bike_id":"c9d8f222-6d22-450c-91a1-97503c650bd7","system_id":"levelo_inurba_marseille","lat":43.29542,"lon":5.38545,"is_reserved":false,"is_disabled":false,"rental_uris":{"android":"levelo://app?vid=c9d8f222-6d22-450c-91a1-97503c650bd7","ios":"levelo://app?vid=c9d8f222-6d22-450c-91a1-97503c650bd7"},"vehicle_type_id":"4","last_reported":1741457388,"current_range_meters":5600,"station_id":"ce4bgih2rcd13ifvqba0","pricing_plan_id":"cebpf4jnsgd1na2vs0mg"},{"bike_id":"9221733e-b291-4005-a883-59708306b014","system_id":"levelo_inurba_marseille","lat":43.30435,"lon":5.39744,"is_reserved":false,"is_disabled":false,"rental_uris":{"android":"levelo://app?vid=9221733e-b291-4005-a883-59708306b014","ios":"levelo://app?vid=9221733e-b291-4005-a883-59708306b014"},"vehicle_type_id":"4","last_reported":1741457388,"current_range_meters":6000,"station_id":"ce4bh092rcd13ifvqd20","pricing_plan_id":"cebpf4jnsgd1na2vs0mg"},{"bike_id":"60e1fe0f-c1dd-449c-85d9-a3dd616d061a","system_id":"levelo_inurba_marseille","lat":43.23196,"lon":5.35554,"is_reserved":false,"is_disabled":false,"rental_uris":{"android":"levelo://app?vid=60e1fe0f-c1dd-449c-85d9-a3dd616d061a","ios":"levelo://app?vid=60e1fe0f-c1dd-449c-85d9-a3dd616d061a"},"vehicle_type_id":"4","last_reported":1741457388,"current_range_meters":6000,"station_id":"ce4bhu92rcd13ifvqi70","pricing_plan_id":"cebpf4jnsgd1na2vs0mg"},{"bike_id":"9a60e1e8-63f7-404b-ae3b-040e6f3b24d4","system_id":"levelo_inurba_marseille","lat":43.27321,"lon":5.39118,"is_reserved":false,"is_disabled":false,"rental_uris":{"android":"levelo://app?vid=9a60e1e8-63f7-404b-ae3b-040e6f3b24d4","ios":"levelo://app?vid=9a60e1e8-63f7-404b-ae3b-040e6f3b24d4"},"vehicle_type_id":"4","last_reported":1741457388,"current_range_meters":6000,"station_id":"ce4bhgp2rcd13ifvqfe0","pricing_plan_id":"cebpf4jnsgd1na2vs0mg"},{"bike_id":"8310cde6-c1e7-4f34-9185-55193707cf9d","system_id":"levelo_inurba_marseille","lat":43.27826,"lon":5.40725,"is_reserved":false,"is_disabled":false,"rental_uris":{"android":"levelo://app?vid=8310cde6-c1e7-4f34-9185-55193707cf9d","ios":"levelo://app?vid=8310cde6-c1e7-4f34-9185-55193707cf9d"},"vehicle_type_id":"4","last_reported":1741457388,"current_range_meters":6000,"station_id":"ce4bhnh2rcd13ifvqgtg","pricing_plan_id":"cebpf4jnsgd1na2vs0mg"},{"bike_id":"2279e2ee-051e-40ba-b0f4-efde21e23b42","system_id":"levelo_inurba_marseille","lat":43.29549,"lon":5.3901,"is_reserved":false,"is_disabled":false,"rental_uris":{"android":"levelo://app?vid=2279e2ee-051e-40ba-b0f4-efde21e23b42","ios":"levelo://app?vid=2279e2ee-051e-40ba-b0f4-efde21e23b42"},"vehicle_type_id":"4","last_reported":1741457388,"current_range_meters":6000,"station_id":"ce4bh3p2rcd13ifvqdp0","pricing_plan_id":"cebpf4jnsgd1na2vs0mg"},{"bike_id":"2f95aa38-713c-47fb-bd24-5fef713698a6","system_id":"levelo_inurba_marseille","lat":43.29206,"lon":5.358,"is_reserved":false,"is_disabled":false,"rental_uris":{"android":"levelo://app?vid=2f95aa38-713c-47fb-bd24-5fef713698a6","ios":"levelo://app?vid=2f95aa38-713c-47fb-bd24-5fef713698a6"},"vehicle_type_id":"4","last_reported":1741457388,"current_range_meters":6000,"station_id":"ce4bhb12rcd13ifvqel0","pricing_plan_id":"cebpf4jnsgd1na2vs0mg"},{"bike_id":"4c66712f-320e-418d-8cfe-056f70271a74","system_id":"levelo_inurba_marseille","lat":43.29796,"lon":5.39345,"is_reserved":false,"is_disabled":false,"rental_uris":{"android":"levelo://app?vid=4c66712f-320e-418d-8cfe-056f70271a74","ios":"levelo://app?vid=4c66712f-320e-418d-8cfe-056f70271a74"},"vehicle_type_id":"4","last_reported":1741457388,"current_range_meters":6000,"station_id":"chh1huq6cuj3fo74tm60","pricing_plan_id":"cebpf4jnsgd1na2vs0mg"},{"bike_id":"ba204e6a-cfe9-4fdc-88d2-ef4a0378322c","system_id":"levelo_inurba_marseille","lat":43.29029,"lon":5.38131,"is_reserved":false,"is_disabled":false,"rental_uris":{"android":"levelo://app?vid=ba204e6a-cfe9-4fdc-88d2-ef4a0378322c","ios":"levelo://app?vid=ba204e6a-cfe9-4fdc-88d2-ef4a0378322c"},"vehicle_type_id":"4","last_reported":1741457388,"current_range_meters":6400,"station_id":"ce4bh4p2rcd13ifvqe1g","pricing_plan_id":"cebpf4jnsgd1na2vs0mg"},{"bike_id":"962b8100-db4e-4177-b392-9df2ed356517","system_id":"levelo_inurba_marseille","lat":43.31706,"lon":5.37753,"is_reserved":false,"is_disabled":false,"rental_uris":{"android":"levelo://app?vid=962b8100-db4e-4177-b392-9df2ed356517","ios":"levelo://app?vid=962b8100-db4e-4177-b392-9df2ed356517"},"vehicle_type_id":"4","last_reported":1741457388,"current_range_meters":6000,"station_id":"ce4bgth2rcd13ifvqch0","pricing_plan_id":"cebpf4jnsgd1na2vs0mg"},{"bike_id":"dc6c7740-c717-4975-ba3c-fb09bec6f176","system_id":"levelo_inurba_marseille","lat":43.30099,"lon":5.39071,"is_reserved":false,"is_disabled":false,"rental_uris":{"android":"levelo://app?vid=dc6c7740-c717-4975-ba3c-fb09bec6f176","ios":"levelo://app?vid=dc6c7740-c717-4975-ba3c-fb09bec6f176"},"vehicle_type_id":"4","last_reported":1741457388,"current_range_meters":6400,"station_id":"ce4bh192rcd13ifvqdb0","pricing_plan_id":"cebpf4jnsgd1na2vs0mg"},{"bike_id":"9c9a08d5-61cd-4ed6-8201-bec971a51a10","system_id":"levelo_inurba_marseille","lat":43.26694,"lon":5.38273,"is_reserved":false,"is_disabled":false,"rental_uris":{"android":"levelo://app?vid=9c9a08d5-61cd-4ed6-8201-bec971a51a10","ios":"levelo://app?vid=9c9a08d5-61cd-4ed6-8201-bec971a51a10"},"vehicle_type_id":"4","last_reported":1741457388,"current_range_meters":6400,"station_id":"ce4bhg92rcd13ifvqf90","pricing_plan_id":"cebpf4jnsgd1na2vs0mg"},{"bike_id":"6eadeaa1-af69-4b52-b47d-466c66d76c63","system_id":"levelo_inurba_marseille","lat":43.30948,"lon":5.39038,"is_reserved":false,"is_disabled":false,"rental_uris":{"android":"levelo://app?vid=6eadeaa1-af69-4b52-b47d-466c66d76c63","ios":"levelo://app?vid=6eadeaa1-af69-4b52-b47d-466c66d76c63"},"vehicle_type_id":"4","last_reported":1741457388,"current_range_meters":6400,"station_id":"ce4bgup2rcd13ifvqco0","pricing_plan_id":"cebpf4jnsgd1na2vs0mg"},{"bike_id":"689807a5-f0af-4d93-9d00-2e864e964bda","system_id":"levelo_inurba_marseille","lat":43.28472,"lon":5.38426,"is_reserved":false,"is_disabled":false,"rental_uris":{"android":"levelo://app?vid=689807a5-f0af-4d93-9d00-2e864e964bda","ios":"levelo://app?vid=689807a5-f0af-4d93-9d00-2e864e964bda"},"vehicle_type_id":"4","last_reported":1741457388,"current_range_meters":6400,"station_id":"ce4bh512rcd13ifvqe3g","pricing_plan_id":"cebpf4jnsgd1na2vs0mg"},{"bike_id":"886cd959-3e51-4c8e-a86b-37636f423ca5","system_id":"levelo_inurba_marseille","lat":43.30309,"lon":5.39205,"is_reserved":false,"is_disabled":false,"rental_uris":{"android":"levelo://app?vid=886cd959-3e51-4c8e-a86b-37636f423ca5","ios":"levelo://app?vid=886cd959-3e51-4c8e-a86b-37636f423ca5"},"vehicle_type_id":"4","last_reported":1741457388,"current_range_meters":6400,"station_id":"ce4bgkh2rcd13ifvqbk0","pricing_plan_id":"cebpf4jnsgd1na2vs0mg"},{"bike_id":"a68d1206-5847-4eac-ba5b-2c29213eb1c2","system_id":"levelo_inurba_marseille","lat":43.2997,"lon":5.38501,"is_reserved":false,"is_disabled":false,"rental_uris":{"android":"levelo://app?vid=a68d1206-5847-4eac-ba5b-2c29213eb1c2","ios":"levelo://app?vid=a68d1206-5847-4eac-ba5b-2c29213eb1c2"},"vehicle_type_id":"4","last_reported":1741457388,"current_range_meters":6400,"station_id":"ce4bgj92rcd13ifvqbd0","pricing_plan_id":"cebpf4jnsgd1na2vs0mg"},{"bike_id":"e5c2f9a0-d065-4e10-9bff-a9a02c7dbc80","system_id":"levelo_inurba_marseille","lat":43.298974,"lon":5.436663,"is_reserved":false,"is_disabled":false,"rental_uris":{"android":"levelo://app?vid=e5c2f9a0-d065-4e10-9bff-a9a02c7dbc80","ios":"levelo://app?vid=e5c2f9a0-d065-4e10-9bff-a9a02c7dbc80"},"vehicle_type_id":"4","last_reported":1741457388,"current_range_meters":6800,"station_id":"ce4bhpp2rcd13ifvqhfg","pricing_plan_id":"cebpf4jnsgd1na2vs0mg"},{"bike_id":"b5c1b537-1dea-4e83-ba5d-c94af968a34b","system_id":"levelo_inurba_marseille","lat":43.2894,"lon":5.36633,"is_reserved":false,"is_disabled":false,"rental_uris":{"android":"levelo://app?vid=b5c1b537-1dea-4e83-ba5d-c94af968a34b","ios":"levelo://app?vid=b5c1b537-1dea-4e83-ba5d-c94af968a34b"},"vehicle_type_id":"4","last_reported":1741457388,"current_range_meters":6800,"station_id":"ce4bhap2rcd13ifvqek0","pricing_plan_id":"cebpf4jnsgd1na2vs0mg"},{"bike_id":"dc3dfcb6-8605-424c-b879-57f32083917f","system_id":"levelo_inurba_marseille","lat":43.30139,"lon":5.3987,"is_reserved":false,"is_disabled":false,"rental_uris":{"android":"levelo://app?vid=dc3dfcb6-8605-424c-b879-57f32083917f","ios":"levelo://app?vid=dc3dfcb6-8605-424c-b879-57f32083917f"},"vehicle_type_id":"4","last_reported":1741457388,"current_range_meters":6800,"station_id":"ce4bh0h2rcd13ifvqd40","pricing_plan_id":"cebpf4jnsgd1na2vs0mg"},{"bike_id":"e319fdb7-8ee3-4582-843c-5078956813a9","system_id":"levelo_inurba_marseille","lat":43.31486,"lon":5.37296,"is_reserved":false,"is_disabled":false,"rental_uris":{"android":"levelo://app?vid=e319fdb7-8ee3-4582-843c-5078956813a9","ios":"levelo://app?vid=e319fdb7-8ee3-4582-843c-5078956813a9"},"vehicle_type_id":"4","last_reported":1741457388,"current_range_meters":6800,"station_id":"ce4bgt12rcd13ifvqcd0","pricing_plan_id":"cebpf4jnsgd1na2vs0mg"},{"bike_id":"c9e93c2a-a2e3-4e36-924b-95bc550d0763","system_id":"levelo_inurba_marseille","lat":43.2952,"lon":5.39398,"is_reserved":false,"is_disabled":false,"rental_uris":{"android":"levelo://app?vid=c9e93c2a-a2e3-4e36-924b-95bc550d0763","ios":"levelo://app?vid=c9e93c2a-a2e3-4e36-924b-95bc550d0763"},"vehicle_type_id":"4","last_reported":1741457388,"current_range_meters":6800,"station_id":"ce4bh292rcd13ifvqdf0","pricing_plan_id":"cebpf4jnsgd1na2vs0mg"},{"bike_id":"7be62c1f-80ff-4ca8-9015-da8e95d30d2c","system_id":"levelo_inurba_marseille","lat":43.29801,"lon":5.40408,"is_reserved":false,"is_disabled":false,"rental_uris":{"android":"levelo://app?vid=7be62c1f-80ff-4ca8-9015-da8e95d30d2c","ios":"levelo://app?vid=7be62c1f-80ff-4ca8-9015-da8e95d30d2c"},"vehicle_type_id":"4","last_reported":1741457388,"current_range_meters":6800,"station_id":"ce4bh112rcd13ifvqd90","pricing_plan_id":"cebpf4jnsgd1na2vs0mg"},{"bike_id":"e73fb96e-0764-498c-88ac-adb20e0dd955","system_id":"levelo_inurba_marseille","lat":43.26049,"lon":5.39406,"is_reserved":false,"is_disabled":false,"rental_uris":{"android":"levelo://app?vid=e73fb96e-0764-498c-88ac-adb20e0dd955","ios":"levelo://app?vid=e73fb96e-0764-498c-88ac-adb20e0dd955"},"vehicle_type_id":"4","last_reported":1741457388,"current_range_meters":6800,"station_id":"ce4bhh92rcd13ifvqfj0","pricing_plan_id":"cebpf4jnsgd1na2vs0mg"},{"bike_id":"17e26925-e39d-419f-9bd8-ff88310d4c29","system_id":"levelo_inurba_marseille","lat":43.29523,"lon":5.38532,"is_reserved":false,"is_disabled":false,"rental_uris":{"android":"levelo://app?vid=17e26925-e39d-419f-9bd8-ff88310d4c29","ios":"levelo://app?vid=17e26925-e39d-419f-9bd8-ff88310d4c29"},"vehicle_type_id":"4","last_reported":1741457388,"current_range_meters":6400,"station_id":"ce4bgih2rcd13ifvqba0","pricing_plan_id":"cebpf4jnsgd1na2vs0mg"},{"bike_id":"45e74ffc-2cca-4755-99a2-a317bcba5976","system_id":"levelo_inurba_marseille","lat":43.25036,"lon":5.38945,"is_reserved":false,"is_disabled":false,"rental_uris":{"android":"levelo://app?vid=45e74ffc-2cca-4755-99a2-a317bcba5976","ios":"levelo://app?vid=45e74ffc-2cca-4755-99a2-a317bcba5976"},"vehicle_type_id":"4","last_reported":1741457388,"current_range_meters":6800,"station_id":"ce4bhgp2rcd13ifvqfd0","pricing_plan_id":"cebpf4jnsgd1na2vs0mg"},{"bike_id":"f0af433e-cbab-4367-a563-a25570f5ea46","system_id":"levelo_inurba_marseille","lat":43.26936,"lon":5.38914,"is_reserved":false,"is_disabled":false,"rental_uris":{"android":"levelo://app?vid=f0af433e-cbab-4367-a563-a25570f5ea46","ios":"levelo://app?vid=f0af433e-cbab-4367-a563-a25570f5ea46"},"vehicle_type_id":"4","last_reported":1741457388,"current_range_meters":6800,"station_id":"ce4bhhh2rcd13ifvqfl0","pricing_plan_id":"cebpf4jnsgd1na2vs0mg"},{"bike_id":"4239b5ac-f8c0-4fda-8b22-40063251cb83","system_id":"levelo_inurba_marseille","lat":43.26297,"lon":5.384788,"is_reserved":false,"is_disabled":false,"rental_uris":{"android":"levelo://app?vid=4239b5ac-f8c0-4fda-8b22-40063251cb83","ios":"levelo://app?vid=4239b5ac-f8c0-4fda-8b22-40063251cb83"},"vehicle_type_id":"4","last_reported":1741457388,"current_range_meters":7200,"station_id":"ce4bhhp2rcd13ifvqfm0","pricing_plan_id":"cebpf4jnsgd1na2vs0mg"},{"bike_id":"b0e76511-af7b-492f-ac52-2f4e14438e8a","system_id":"levelo_inurba_marseille","lat":43.30328,"lon":5.40441,"is_reserved":false,"is_disabled":false,"rental_uris":{"android":"levelo://app?vid=b0e76511-af7b-492f-ac52-2f4e14438e8a","ios":"levelo://app?vid=b0e76511-af7b-492f-ac52-2f4e14438e8a"},"vehicle_type_id":"4","last_reported":1741457388,"current_range_meters":7200,"station_id":"ce4bh012rcd13ifvqd10","pricing_plan_id":"cebpf4jnsgd1na2vs0mg"},{"bike_id":"eebafa01-50e4-41c0-ac57-143f757ec947","system_id":"levelo_inurba_marseille","lat":43.32337,"lon":5.40621,"is_reserved":false,"is_disabled":false,"rental_uris":{"android":"levelo://app?vid=eebafa01-50e4-41c0-ac57-143f757ec947","ios":"levelo://app?vid=eebafa01-50e4-41c0-ac57-143f757ec947"},"vehicle_type_id":"4","last_reported":1741457388,"current_range_meters":7200,"station_id":"ce4bhq92rcd13ifvqhjg","pricing_plan_id":"cebpf4jnsgd1na2vs0mg"},{"bike_id":"00736080-89e6-4ec0-9e8c-a8f5597ead48","system_id":"levelo_inurba_marseille","lat":43.25091,"lon":5.39521,"is_reserved":false,"is_disabled":false,"rental_uris":{"android":"levelo://app?vid=00736080-89e6-4ec0-9e8c-a8f5597ead48","ios":"levelo://app?vid=00736080-89e6-4ec0-9e8c-a8f5597ead48"},"vehicle_type_id":"4","last_reported":1741457388,"current_range_meters":7200,"station_id":"ce4bhm12rcd13ifvqgkg","pricing_plan_id":"cebpf4jnsgd1na2vs0mg"},{"bike_id":"16a38d58-0606-4efa-b07e-f821dbcba192","system_id":"levelo_inurba_marseille","lat":43.284023,"lon":5.375198,"is_reserved":false,"is_disabled":false,"rental_uris":{"android":"levelo://app?vid=16a38d58-0606-4efa-b07e-f821dbcba192","ios":"levelo://app?vid=16a38d58-0606-4efa-b07e-f821dbcba192"},"vehicle_type_id":"4","last_reported":1741457388,"current_range_meters":7200,"station_id":"ce4bh412rcd13ifvqds0","pricing_plan_id":"cebpf4jnsgd1na2vs0mg"},{"bike_id":"4d809e94-504b-4b45-a4ab-fc08a5b06802","system_id":"levelo_inurba_marseille","lat":43.25117,"lon":5.40316,"is_reserved":false,"is_disabled":false,"rental_uris":{"android":"levelo://app?vid=4d809e94-504b-4b45-a4ab-fc08a5b06802","ios":"levelo://app?vid=4d809e94-504b-4b45-a4ab-fc08a5b06802"},"vehicle_type_id":"4","last_reported":1741457388,"current_range_meters":7200,"station_id":"ce4bhlh2rcd13ifvqgig","pricing_plan_id":"cebpf4jnsgd1na2vs0mg"},{"bike_id":"84717a33-7ddb-48f2-9c98-37372d343540","system_id":"levelo_inurba_marseille","lat":43.30323,"lon":5.36902,"is_reserved":false,"is_disabled":false,"rental_uris":{"android":"levelo://app?vid=84717a33-7ddb-48f2-9c98-37372d343540","ios":"levelo://app?vid=84717a33-7ddb-48f2-9c98-37372d343540"},"vehicle_type_id":"4","last_reported":1741457388,"current_range_meters":7200,"station_id":"ce4bgqh2rcd13ifvqc5g","pricing_plan_id":"cebpf4jnsgd1na2vs0mg"},{"bike_id":"308f8f23-550e-46ff-beef-44fea467a5d5","system_id":"levelo_inurba_marseille","lat":43.29792,"lon":5.38095,"is_reserved":false,"is_disabled":false,"rental_uris":{"android":"levelo://app?vid=308f8f23-550e-46ff-beef-44fea467a5d5","ios":"levelo://app?vid=308f8f23-550e-46ff-beef-44fea467a5d5"},"vehicle_type_id":"4","last_reported":1741457388,"current_range_meters":7200,"station_id":"ce4bgip2rcd13ifvqbb0","pricing_plan_id":"cebpf4jnsgd1na2vs0mg"},{"bike_id":"f48947b8-c2e2-48c2-8fdc-a5455bbdb79f","system_id":"levelo_inurba_marseille","lat":43.292991,"lon":5.375393,"is_reserved":false,"is_disabled":false,"rental_uris":{"android":"levelo://app?vid=f48947b8-c2e2-48c2-8fdc-a5455bbdb79f","ios":"levelo://app?vid=f48947b8-c2e2-48c2-8fdc-a5455bbdb79f"},"vehicle_type_id":"4","last_reported":1741457388,"current_range_meters":7200,"station_id":"ce4bhop2rcd13ifvqh7g","pricing_plan_id":"cebpf4jnsgd1na2vs0mg"},{"bike_id":"4535af30-838a-436f-9c39-afb86353063f","system_id":"levelo_inurba_marseille","lat":43.30163,"lon":5.39919,"is_reserved":false,"is_disabled":false,"rental_uris":{"android":"levelo://app?vid=4535af30-838a-436f-9c39-afb86353063f","ios":"levelo://app?vid=4535af30-838a-436f-9c39-afb86353063f"},"vehicle_type_id":"4","last_reported":1741457388,"current_range_meters":7200,"station_id":"","pricing_plan_id":"cebpf4jnsgd1na2vs0mg"},{"bike_id":"61a3381f-4db1-4463-8b85-7a9e20cb9215","system_id":"levelo_inurba_marseille","lat":43.29004,"lon":5.38124,"is_reserved":false,"is_disabled":false,"rental_uris":{"android":"levelo://app?vid=61a3381f-4db1-4463-8b85-7a9e20cb9215","ios":"levelo://app?vid=61a3381f-4db1-4463-8b85-7a9e20cb9215"},"vehicle_type_id":"4","last_reported":1741457388,"current_range_meters":8000,"station_id":"ce4bh4p2rcd13ifvqe1g","pricing_plan_id":"cebpf4jnsgd1na2vs0mg"},{"bike_id":"5a832515-cd2e-4262-a0bf-c705e8c69b1e","system_id":"levelo_inurba_marseille","lat":43.29993,"lon":5.38481,"is_reserved":false,"is_disabled":false,"rental_uris":{"android":"levelo://app?vid=5a832515-cd2e-4262-a0bf-c705e8c69b1e","ios":"levelo://app?vid=5a832515-cd2e-4262-a0bf-c705e8c69b1e"},"vehicle_type_id":"4","last_reported":1741457388,"current_range_meters":7200,"station_id":"ce4bgj92rcd13ifvqbd0","pricing_plan_id":"cebpf4jnsgd1na2vs0mg"},{"bike_id":"7b62c62b-d961-49e1-afe1-b0b21a291801","system_id":"levelo_inurba_marseille","lat":43.27872,"lon":5.41741,"is_reserved":false,"is_disabled":false,"rental_uris":{"android":"levelo://app?vid=7b62c62b-d961-49e1-afe1-b0b21a291801","ios":"levelo://app?vid=7b62c62b-d961-49e1-afe1-b0b21a291801"},"vehicle_type_id":"4","last_reported":1741457388,"current_range_meters":8000,"station_id":"","pricing_plan_id":"cebpf4jnsgd1na2vs0mg"},{"bike_id":"4c614ad4-749d-4071-8bfd-9a0872a5ea8c","system_id":"levelo_inurba_marseille","lat":43.3021,"lon":5.39464,"is_reserved":false,"is_disabled":false,"rental_uris":{"android":"levelo://app?vid=4c614ad4-749d-4071-8bfd-9a0872a5ea8c","ios":"levelo://app?vid=4c614ad4-749d-4071-8bfd-9a0872a5ea8c"},"vehicle_type_id":"4","last_reported":1741457388,"current_range_meters":8000,"station_id":"ce4bh0p2rcd13ifvqd70","pricing_plan_id":"cebpf4jnsgd1na2vs0mg"},{"bike_id":"60fba7df-4520-4d63-9c5b-9a7a002cedfb","system_id":"levelo_inurba_marseille","lat":43.28032,"lon":5.39138,"is_reserved":false,"is_disabled":false,"rental_uris":{"android":"levelo://app?vid=60fba7df-4520-4d63-9c5b-9a7a002cedfb","ios":"levelo://app?vid=60fba7df-4520-4d63-9c5b-9a7a002cedfb"},"vehicle_type_id":"4","last_reported":1741457388,"current_range_meters":8000,"station_id":"","pricing_plan_id":"cebpf4jnsgd1na2vs0mg"},{"bike_id":"469ce995-1a85-40d4-98fe-bfcdcdbb768f","system_id":"levelo_inurba_marseille","lat":43.30177,"lon":5.36632,"is_reserved":false,"is_disabled":false,"rental_uris":{"android":"levelo://app?vid=469ce995-1a85-40d4-98fe-bfcdcdbb768f","ios":"levelo://app?vid=469ce995-1a85-40d4-98fe-bfcdcdbb768f"},"vehicle_type_id":"4","last_reported":1741457388,"current_range_meters":8000,"station_id":"ce4bgrh2rcd13ifvqc8g","pricing_plan_id":"cebpf4jnsgd1na2vs0mg"},{"bike_id":"da288a69-3e2a-48fc-b57e-4db01dd7c790","system_id":"levelo_inurba_marseille","lat":43.28154,"lon":5.42638,"is_reserved":false,"is_disabled":false,"rental_uris":{"android":"levelo://app?vid=da288a69-3e2a-48fc-b57e-4db01dd7c790","ios":"levelo://app?vid=da288a69-3e2a-48fc-b57e-4db01dd7c790"},"vehicle_type_id":"4","last_reported":1741457388,"current_range_meters":8000,"station_id":"ce4bhnh2rcd13ifvqgug","pricing_plan_id":"cebpf4jnsgd1na2vs0mg"},{"bike_id":"7e453c6c-ca54-41d2-a47b-f6162939c440","system_id":"levelo_inurba_marseille","lat":43.301272,"lon":5.387679,"is_reserved":false,"is_disabled":false,"rental_uris":{"android":"levelo://app?vid=7e453c6c-ca54-41d2-a47b-f6162939c440","ios":"levelo://app?vid=7e453c6c-ca54-41d2-a47b-f6162939c440"},"vehicle_type_id":"4","last_reported":1741457388,"current_range_meters":7200,"station_id":"ce4bghh2rcd13ifvqb60","pricing_plan_id":"cebpf4jnsgd1na2vs0mg"},{"bike_id":"6ddec0a6-9fd4-47be-a891-23c720c431da","system_id":"levelo_inurba_marseille","lat":43.29921,"lon":5.37479,"is_reserved":false,"is_disabled":false,"rental_uris":{"android":"levelo://app?vid=6ddec0a6-9fd4-47be-a891-23c720c431da","ios":"levelo://app?vid=6ddec0a6-9fd4-47be-a891-23c720c431da"},"vehicle_type_id":"4","last_reported":1741457388,"current_range_meters":8000,"station_id":"ce4bgjh2rcd13ifvqbg0","pricing_plan_id":"cebpf4jnsgd1na2vs0mg"},{"bike_id":"24b53cf3-dec6-4be7-9d68-c6045db11a62","system_id":"levelo_inurba_marseille","lat":43.29866,"lon":5.3974,"is_reserved":false,"is_disabled":false,"rental_uris":{"android":"levelo://app?vid=24b53cf3-dec6-4be7-9d68-c6045db11a62","ios":"levelo://app?vid=24b53cf3-dec6-4be7-9d68-c6045db11a62"},"vehicle_type_id":"4","last_reported":1741457388,"current_range_meters":8000,"station_id":"ce4bh0h2rcd13ifvqd50","pricing_plan_id":"cebpf4jnsgd1na2vs0mg"},{"bike_id":"15a5228d-28b8-4420-9f3f-b6b6b07f5cf7","system_id":"levelo_inurba_marseille","lat":43.25093,"lon":5.39518,"is_reserved":false,"is_disabled":false,"rental_uris":{"android":"levelo://app?vid=15a5228d-28b8-4420-9f3f-b6b6b07f5cf7","ios":"levelo://app?vid=15a5228d-28b8-4420-9f3f-b6b6b07f5cf7"},"vehicle_type_id":"4","last_reported":1741457388,"current_range_meters":8400,"station_id":"ce4bhm12rcd13ifvqgkg","pricing_plan_id":"cebpf4jnsgd1na2vs0mg"},{"bike_id":"8968ebf0-976e-4199-a05d-0b5eb90e8fa7","system_id":"levelo_inurba_marseille","lat":43.2572,"lon":5.41112,"is_reserved":false,"is_disabled":false,"rental_uris":{"android":"levelo://app?vid=8968ebf0-976e-4199-a05d-0b5eb90e8fa7","ios":"levelo://app?vid=8968ebf0-976e-4199-a05d-0b5eb90e8fa7"},"vehicle_type_id":"4","last_reported":1741457388,"current_range_meters":8400,"station_id":"ce4bhkp2rcd13ifvqgd0","pricing_plan_id":"cebpf4jnsgd1na2vs0mg"},{"bike_id":"e524bcef-a391-41b2-bad2-673eae53ea51","system_id":"levelo_inurba_marseille","lat":43.31717,"lon":5.43707,"is_reserved":false,"is_disabled":false,"rental_uris":{"android":"levelo://app?vid=e524bcef-a391-41b2-bad2-673eae53ea51","ios":"levelo://app?vid=e524bcef-a391-41b2-bad2-673eae53ea51"},"vehicle_type_id":"4","last_reported":1741457388,"current_range_meters":8400,"station_id":"ce4bhp92rcd13ifvqhcg","pricing_plan_id":"cebpf4jnsgd1na2vs0mg"},{"bike_id":"60827f5e-c4b3-4fd2-822a-fb25277166cd","system_id":"levelo_inurba_marseille","lat":43.2792,"lon":5.39592,"is_reserved":false,"is_disabled":false,"rental_uris":{"android":"levelo://app?vid=60827f5e-c4b3-4fd2-822a-fb25277166cd","ios":"levelo://app?vid=60827f5e-c4b3-4fd2-822a-fb25277166cd"},"vehicle_type_id":"4","last_reported":1741457388,"current_range_meters":8400,"station_id":"ce4bhf92rcd13ifvqf40","pricing_plan_id":"cebpf4jnsgd1na2vs0mg"},{"bike_id":"603e7930-ec9e-4dbc-b79e-c05aaea573ce","system_id":"levelo_inurba_marseille","lat":43.307976,"lon":5.43529,"is_reserved":false,"is_disabled":false,"rental_uris":{"android":"levelo://app?vid=603e7930-ec9e-4dbc-b79e-c05aaea573ce","ios":"levelo://app?vid=603e7930-ec9e-4dbc-b79e-c05aaea573ce"},"vehicle_type_id":"4","last_reported":1741457388,"current_range_meters":8400,"station_id":"ce4bhph2rcd13ifvqheg","pricing_plan_id":"cebpf4jnsgd1na2vs0mg"},{"bike_id":"9effefb9-02e3-4c25-ab75-e3a5ac01515f","system_id":"levelo_inurba_marseille","lat":43.26557,"lon":5.37293,"is_reserved":false,"is_disabled":true,"rental_uris":{"android":"levelo://app?vid=9effefb9-02e3-4c25-ab75-e3a5ac01515f","ios":"levelo://app?vid=9effefb9-02e3-4c25-ab75-e3a5ac01515f"},"vehicle_type_id":"4","last_reported":1741457388,"current_range_meters":8400,"station_id":"ce4bhg12rcd13ifvqf70","pricing_plan_id":"cebpf4jnsgd1na2vs0mg"},{"bike_id":"903ca8fb-a01f-48af-9d7f-844151e9f785","system_id":"levelo_inurba_marseille","lat":43.27955,"lon":5.41048,"is_reserved":false,"is_disabled":true,"rental_uris":{"android":"levelo://app?vid=903ca8fb-a01f-48af-9d7f-844151e9f785","ios":"levelo://app?vid=903ca8fb-a01f-48af-9d7f-844151e9f785"},"vehicle_type_id":"4","last_reported":1741457388,"current_range_meters":8400,"station_id":"ce4bhnp2rcd13ifvqh0g","pricing_plan_id":"cebpf4jnsgd1na2vs0mg"},{"bike_id":"ce8e0952-bd72-46a8-9481-a4de30a0a55a","system_id":"levelo_inurba_marseille","lat":43.26737,"lon":5.39439,"is_reserved":false,"is_disabled":false,"rental_uris":{"android":"levelo://app?vid=ce8e0952-bd72-46a8-9481-a4de30a0a55a","ios":"levelo://app?vid=ce8e0952-bd72-46a8-9481-a4de30a0a55a"},"vehicle_type_id":"4","last_reported":1741457388,"current_range_meters":8400,"station_id":"ce4bhh12rcd13ifvqfg0","pricing_plan_id":"cebpf4jnsgd1na2vs0mg"},{"bike_id":"fda5dfe6-116a-4e51-81cd-5a288ef41cba","system_id":"levelo_inurba_marseille","lat":43.28074,"lon":5.39647,"is_reserved":false,"is_disabled":false,"rental_uris":{"android":"levelo://app?vid=fda5dfe6-116a-4e51-81cd-5a288ef41cba","ios":"levelo://app?vid=fda5dfe6-116a-4e51-81cd-5a288ef41cba"},"vehicle_type_id":"4","last_reported":1741457388,"current_range_meters":8000,"station_id":"ce4bho12rcd13ifvqh2g","pricing_plan_id":"cebpf4jnsgd1na2vs0mg"},{"bike_id":"4c63458e-2db0-4cb3-bfc1-7ab137c5f028","system_id":"levelo_inurba_marseille","lat":43.26944,"lon":5.40267,"is_reserved":false,"is_disabled":false,"rental_uris":{"android":"levelo://app?vid=4c63458e-2db0-4cb3-bfc1-7ab137c5f028","ios":"levelo://app?vid=4c63458e-2db0-4cb3-bfc1-7ab137c5f028"},"vehicle_type_id":"4","last_reported":1741457388,"current_range_meters":8400,"station_id":"cjm6bp8fraef2m0cb0m0","pricing_plan_id":"cebpf4jnsgd1na2vs0mg"},{"bike_id":"f4fef931-b4a2-4ebe-bec3-6b00147f7cb2","system_id":"levelo_inurba_marseille","lat":43.27322,"lon":5.39079,"is_reserved":false,"is_disabled":false,"rental_uris":{"android":"levelo://app?vid=f4fef931-b4a2-4ebe-bec3-6b00147f7cb2","ios":"levelo://app?vid=f4fef931-b4a2-4ebe-bec3-6b00147f7cb2"},"vehicle_type_id":"4","last_reported":1741457388,"current_range_meters":8400,"station_id":"ce4bhgp2rcd13ifvqfe0","pricing_plan_id":"cebpf4jnsgd1na2vs0mg"},{"bike_id":"53bd1732-d8ff-41a5-8f1b-42274afdde26","system_id":"levelo_inurba_marseille","lat":43.29365,"lon":5.42838,"is_reserved":false,"is_disabled":false,"rental_uris":{"android":"levelo://app?vid=53bd1732-d8ff-41a5-8f1b-42274afdde26","ios":"levelo://app?vid=53bd1732-d8ff-41a5-8f1b-42274afdde26"},"vehicle_type_id":"4","last_reported":1741457388,"current_range_meters":8400,"station_id":"","pricing_plan_id":"cebpf4jnsgd1na2vs0mg"},{"bike_id":"0b425fe5-b8a9-4f83-8672-5a08e8a49b1a","system_id":"levelo_inurba_marseille","lat":43.29931,"lon":5.3653,"is_reserved":false,"is_disabled":false,"rental_uris":{"android":"levelo://app?vid=0b425fe5-b8a9-4f83-8672-5a08e8a49b1a","ios":"levelo://app?vid=0b425fe5-b8a9-4f83-8672-5a08e8a49b1a"},"vehicle_type_id":"4","last_reported":1741457388,"current_range_meters":8400,"station_id":"ce4bgm92rcd13ifvqbr0","pricing_plan_id":"cebpf4jnsgd1na2vs0mg"},{"bike_id":"18dea8c5-b4c7-4c5b-8784-c072a2eaf383","system_id":"levelo_inurba_marseille","lat":43.31441,"lon":5.37347,"is_reserved":false,"is_disabled":false,"rental_uris":{"android":"levelo://app?vid=18dea8c5-b4c7-4c5b-8784-c072a2eaf383","ios":"levelo://app?vid=18dea8c5-b4c7-4c5b-8784-c072a2eaf383"},"vehicle_type_id":"4","last_reported":1741457388,"current_range_meters":8400,"station_id":"","pricing_plan_id":"cebpf4jnsgd1na2vs0mg"},{"bike_id":"4eafaac5-33f0-4f48-8465-72edea11c55d","system_id":"levelo_inurba_marseille","lat":43.28452,"lon":5.39207,"is_reserved":false,"is_disabled":false,"rental_uris":{"android":"levelo://app?vid=4eafaac5-33f0-4f48-8465-72edea11c55d","ios":"levelo://app?vid=4eafaac5-33f0-4f48-8465-72edea11c55d"},"vehicle_type_id":"4","last_reported":1741457388,"current_range_meters":8400,"station_id":"ce4bhoh2rcd13ifvqh5g","pricing_plan_id":"cebpf4jnsgd1na2vs0mg"},{"bike_id":"a6c74a05-39e7-4da6-8b71-1ba187fc5bae","system_id":"levelo_inurba_marseille","lat":43.30574,"lon":5.36519,"is_reserved":false,"is_disabled":true,"rental_uris":{"android":"levelo://app?vid=a6c74a05-39e7-4da6-8b71-1ba187fc5bae","ios":"levelo://app?vid=a6c74a05-39e7-4da6-8b71-1ba187fc5bae"},"vehicle_type_id":"4","last_reported":1741457388,"current_range_meters":8800,"station_id":"ce4bgs12rcd13ifvqcag","pricing_plan_id":"cebpf4jnsgd1na2vs0mg"},{"bike_id":"19bb545e-7c13-47fd-8b19-9f445543dd7c","system_id":"levelo_inurba_marseille","lat":43.29019,"lon":5.38127,"is_reserved":false,"is_disabled":false,"rental_uris":{"android":"levelo://app?vid=19bb545e-7c13-47fd-8b19-9f445543dd7c","ios":"levelo://app?vid=19bb545e-7c13-47fd-8b19-9f445543dd7c"},"vehicle_type_id":"4","last_reported":1741457388,"current_range_meters":8800,"station_id":"ce4bh4p2rcd13ifvqe1g","pricing_plan_id":"cebpf4jnsgd1na2vs0mg"},{"bike_id":"6090477b-a092-4afd-a305-5e54d44615fb","system_id":"levelo_inurba_marseille","lat":43.24548,"lon":5.39519,"is_reserved":false,"is_disabled":false,"rental_uris":{"android":"levelo://app?vid=6090477b-a092-4afd-a305-5e54d44615fb","ios":"levelo://app?vid=6090477b-a092-4afd-a305-5e54d44615fb"},"vehicle_type_id":"4","last_reported":1741457388,"current_range_meters":8400,"station_id":"ce4bhlp2rcd13ifvqgjg","pricing_plan_id":"cebpf4jnsgd1na2vs0mg"},{"bike_id":"42155170-f769-480e-b54a-7297d54b5579","system_id":"levelo_inurba_marseille","lat":43.27321,"lon":5.3907,"is_reserved":false,"is_disabled":false,"rental_uris":{"android":"levelo://app?vid=42155170-f769-480e-b54a-7297d54b5579","ios":"levelo://app?vid=42155170-f769-480e-b54a-7297d54b5579"},"vehicle_type_id":"4","last_reported":1741457388,"current_range_meters":8800,"station_id":"ce4bhgp2rcd13ifvqfe0","pricing_plan_id":"cebpf4jnsgd1na2vs0mg"},{"bike_id":"16ceefdd-2bae-459c-8b32-f1c943adcfc6","system_id":"levelo_inurba_marseille","lat":43.26196,"lon":5.37476,"is_reserved":false,"is_disabled":false,"rental_uris":{"android":"levelo://app?vid=16ceefdd-2bae-459c-8b32-f1c943adcfc6","ios":"levelo://app?vid=16ceefdd-2bae-459c-8b32-f1c943adcfc6"},"vehicle_type_id":"4","last_reported":1741457388,"current_range_meters":8800,"station_id":"ce4bhgp2rcd13ifvqfc0","pricing_plan_id":"cebpf4jnsgd1na2vs0mg"},{"bike_id":"3c77d28d-ef5d-43f9-afd5-3b629025e592","system_id":"levelo_inurba_marseille","lat":43.29426,"lon":5.38621,"is_reserved":false,"is_disabled":false,"rental_uris":{"android":"levelo://app?vid=3c77d28d-ef5d-43f9-afd5-3b629025e592","ios":"levelo://app?vid=3c77d28d-ef5d-43f9-afd5-3b629025e592"},"vehicle_type_id":"4","last_reported":1741457388,"current_range_meters":8800,"station_id":"ce4bh2h2rcd13ifvqdh0","pricing_plan_id":"cebpf4jnsgd1na2vs0mg"},{"bike_id":"ee3154b9-d680-4b76-8429-98619aced766","system_id":"levelo_inurba_marseille","lat":43.29208,"lon":5.39332,"is_reserved":false,"is_disabled":false,"rental_uris":{"android":"levelo://app?vid=ee3154b9-d680-4b76-8429-98619aced766","ios":"levelo://app?vid=ee3154b9-d680-4b76-8429-98619aced766"},"vehicle_type_id":"4","last_reported":1741457388,"current_range_meters":8400,"station_id":"ce4bh192rcd13ifvqdd0","pricing_plan_id":"cebpf4jnsgd1na2vs0mg"},{"bike_id":"cb0d4d15-0ce0-4061-8a04-93bcbe80bd0f","system_id":"levelo_inurba_marseille","lat":43.2594,"lon":5.40942,"is_reserved":false,"is_disabled":false,"rental_uris":{"android":"levelo://app?vid=cb0d4d15-0ce0-4061-8a04-93bcbe80bd0f","ios":"levelo://app?vid=cb0d4d15-0ce0-4061-8a04-93bcbe80bd0f"},"vehicle_type_id":"4","last_reported":1741457388,"current_range_meters":8800,"station_id":"ce4bhm92rcd13ifvqglg","pricing_plan_id":"cebpf4jnsgd1na2vs0mg"},{"bike_id":"c54e76cd-efcc-47c2-b5e1-593386ffe01e","system_id":"levelo_inurba_marseille","lat":43.28978,"lon":5.3783,"is_reserved":false,"is_disabled":false,"rental_uris":{"android":"levelo://app?vid=c54e76cd-efcc-47c2-b5e1-593386ffe01e","ios":"levelo://app?vid=c54e76cd-efcc-47c2-b5e1-593386ffe01e"},"vehicle_type_id":"4","last_reported":1741457388,"current_range_meters":8800,"station_id":"ce4bh9p2rcd13ifvqed0","pricing_plan_id":"cebpf4jnsgd1na2vs0mg"},{"bike_id":"29a2dc41-176e-4ce3-9704-1e0c81ed4573","system_id":"levelo_inurba_marseille","lat":43.26063,"lon":5.39394,"is_reserved":false,"is_disabled":false,"rental_uris":{"android":"levelo://app?vid=29a2dc41-176e-4ce3-9704-1e0c81ed4573","ios":"levelo://app?vid=29a2dc41-176e-4ce3-9704-1e0c81ed4573"},"vehicle_type_id":"4","last_reported":1741457388,"current_range_meters":8800,"station_id":"ce4bhh92rcd13ifvqfj0","pricing_plan_id":"cebpf4jnsgd1na2vs0mg"},{"bike_id":"eaf1a163-e377-4bc2-a834-eef0e6f56450","system_id":"levelo_inurba_marseille","lat":43.32371,"lon":5.38883,"is_reserved":false,"is_disabled":false,"rental_uris":{"android":"levelo://app?vid=eaf1a163-e377-4bc2-a834-eef0e6f56450","ios":"levelo://app?vid=eaf1a163-e377-4bc2-a834-eef0e6f56450"},"vehicle_type_id":"4","last_reported":1741457388,"current_range_meters":9200,"station_id":"ce4bhqp2rcd13ifvqhog","pricing_plan_id":"cebpf4jnsgd1na2vs0mg"},{"bike_id":"fafd83ef-cab7-4843-bbf9-cbcc8d9bc772","system_id":"levelo_inurba_marseille","lat":43.31717,"lon":5.43711,"is_reserved":false,"is_disabled":false,"rental_uris":{"android":"levelo://app?vid=fafd83ef-cab7-4843-bbf9-cbcc8d9bc772","ios":"levelo://app?vid=fafd83ef-cab7-4843-bbf9-cbcc8d9bc772"},"vehicle_type_id":"4","last_reported":1741457388,"current_range_meters":8800,"station_id":"ce4bhp92rcd13ifvqhcg","pricing_plan_id":"cebpf4jnsgd1na2vs0mg"},{"bike_id":"0fb33aaf-2775-45e9-90b3-97f467d899eb","system_id":"levelo_inurba_marseille","lat":43.26779,"lon":5.39415,"is_reserved":false,"is_disabled":false,"rental_uris":{"android":"levelo://app?vid=0fb33aaf-2775-45e9-90b3-97f467d899eb","ios":"levelo://app?vid=0fb33aaf-2775-45e9-90b3-97f467d899eb"},"vehicle_type_id":"4","last_reported":1741457388,"current_range_meters":9200,"station_id":"ce4bhh12rcd13ifvqfg0","pricing_plan_id":"cebpf4jnsgd1na2vs0mg"},{"bike_id":"d1d0f1f3-f530-4087-9a2b-bf46043951d4","system_id":"levelo_inurba_marseille","lat":43.2526,"lon":5.39459,"is_reserved":false,"is_disabled":false,"rental_uris":{"android":"levelo://app?vid=d1d0f1f3-f530-4087-9a2b-bf46043951d4","ios":"levelo://app?vid=d1d0f1f3-f530-4087-9a2b-bf46043951d4"},"vehicle_type_id":"4","last_reported":1741457388,"current_range_meters":9200,"station_id":"","pricing_plan_id":"cebpf4jnsgd1na2vs0mg"},{"bike_id":"4f508b50-1e3d-40c5-be77-1e6495edbe07","system_id":"levelo_inurba_marseille","lat":43.25724,"lon":5.411043,"is_reserved":false,"is_disabled":false,"rental_uris":{"android":"levelo://app?vid=4f508b50-1e3d-40c5-be77-1e6495edbe07","ios":"levelo://app?vid=4f508b50-1e3d-40c5-be77-1e6495edbe07"},"vehicle_type_id":"4","last_reported":1741457388,"current_range_meters":9200,"station_id":"ce4bhkp2rcd13ifvqgd0","pricing_plan_id":"cebpf4jnsgd1na2vs0mg"},{"bike_id":"c787a0ef-03a5-4d36-b53c-60238e9036da","system_id":"levelo_inurba_marseille","lat":43.23199,"lon":5.39996,"is_reserved":false,"is_disabled":false,"rental_uris":{"android":"levelo://app?vid=c787a0ef-03a5-4d36-b53c-60238e9036da","ios":"levelo://app?vid=c787a0ef-03a5-4d36-b53c-60238e9036da"},"vehicle_type_id":"4","last_reported":1741457388,"current_range_meters":9200,"station_id":"ce4bhn12rcd13ifvqgqg","pricing_plan_id":"cebpf4jnsgd1na2vs0mg"},{"bike_id":"280076f9-67cd-49af-a0fe-da6dcdecc4af","system_id":"levelo_inurba_marseille","lat":43.30893,"lon":5.39644,"is_reserved":false,"is_disabled":false,"rental_uris":{"android":"levelo://app?vid=280076f9-67cd-49af-a0fe-da6dcdecc4af","ios":"levelo://app?vid=280076f9-67cd-49af-a0fe-da6dcdecc4af"},"vehicle_type_id":"4","last_reported":1741457388,"current_range_meters":9200,"station_id":"ce4bh012rcd13ifvqcv0","pricing_plan_id":"cebpf4jnsgd1na2vs0mg"},{"bike_id":"00e4d2fc-9900-4634-a718-f1ce7e95a876","system_id":"levelo_inurba_marseille","lat":43.33027,"lon":5.39068,"is_reserved":false,"is_disabled":false,"rental_uris":{"android":"levelo://app?vid=00e4d2fc-9900-4634-a718-f1ce7e95a876","ios":"levelo://app?vid=00e4d2fc-9900-4634-a718-f1ce7e95a876"},"vehicle_type_id":"4","last_reported":1741457388,"current_range_meters":9200,"station_id":"ce4bhr92rcd13ifvqhrg","pricing_plan_id":"cebpf4jnsgd1na2vs0mg"},{"bike_id":"dd12d0f7-1aa8-484d-8674-066320245c27","system_id":"levelo_inurba_marseille","lat":43.29044,"lon":5.37566,"is_reserved":false,"is_disabled":false,"rental_uris":{"android":"levelo://app?vid=dd12d0f7-1aa8-484d-8674-066320245c27","ios":"levelo://app?vid=dd12d0f7-1aa8-484d-8674-066320245c27"},"vehicle_type_id":"4","last_reported":1741457388,"current_range_meters":9200,"station_id":"ce4bh692rcd13ifvqe90","pricing_plan_id":"cebpf4jnsgd1na2vs0mg"},{"bike_id":"e963c1be-83df-4212-97d8-8b1cd2e91315","system_id":"levelo_inurba_marseille","lat":43.2319,"lon":5.35565,"is_reserved":false,"is_disabled":false,"rental_uris":{"android":"levelo://app?vid=e963c1be-83df-4212-97d8-8b1cd2e91315","ios":"levelo://app?vid=e963c1be-83df-4212-97d8-8b1cd2e91315"},"vehicle_type_id":"4","last_reported":1741457388,"current_range_meters":9200,"station_id":"ce4bhu92rcd13ifvqi70","pricing_plan_id":"cebpf4jnsgd1na2vs0mg"},{"bike_id":"1ce4e02f-dd53-45d6-bf34-0c056a4527e4","system_id":"levelo_inurba_marseille","lat":43.27999,"lon":5.39997,"is_reserved":false,"is_disabled":false,"rental_uris":{"android":"levelo://app?vid=1ce4e02f-dd53-45d6-bf34-0c056a4527e4","ios":"levelo://app?vid=1ce4e02f-dd53-45d6-bf34-0c056a4527e4"},"vehicle_type_id":"4","last_reported":1741457388,"current_range_meters":9200,"station_id":"ce4bho92rcd13ifvqh4g","pricing_plan_id":"cebpf4jnsgd1na2vs0mg"},{"bike_id":"f569fa99-647d-43a6-b792-42bd0b9ab2ae","system_id":"levelo_inurba_marseille","lat":43.25867,"lon":5.39919,"is_reserved":false,"is_disabled":false,"rental_uris":{"android":"levelo://app?vid=f569fa99-647d-43a6-b792-42bd0b9ab2ae","ios":"levelo://app?vid=f569fa99-647d-43a6-b792-42bd0b9ab2ae"},"vehicle_type_id":"4","last_reported":1741457388,"current_range_meters":9600,"station_id":"ce4bhl92rcd13ifvqghg","pricing_plan_id":"cebpf4jnsgd1na2vs0mg"},{"bike_id":"44c0f9a1-99ba-41cb-8f36-0e033c5e16cc","system_id":"levelo_inurba_marseille","lat":43.26177,"lon":5.37448,"is_reserved":false,"is_disabled":false,"rental_uris":{"android":"levelo://app?vid=44c0f9a1-99ba-41cb-8f36-0e033c5e16cc","ios":"levelo://app?vid=44c0f9a1-99ba-41cb-8f36-0e033c5e16cc"},"vehicle_type_id":"4","last_reported":1741457388,"current_range_meters":9600,"station_id":"ce4bhgp2rcd13ifvqfc0","pricing_plan_id":"cebpf4jnsgd1na2vs0mg"},{"bike_id":"3b32b7ae-055d-4265-832d-e3baa73f849b","system_id":"levelo_inurba_marseille","lat":43.32291,"lon":5.3827,"is_reserved":false,"is_disabled":false,"rental_uris":{"android":"levelo://app?vid=3b32b7ae-055d-4265-832d-e3baa73f849b","ios":"levelo://app?vid=3b32b7ae-055d-4265-832d-e3baa73f849b"},"vehicle_type_id":"4","last_reported":1741457388,"current_range_meters":9600,"station_id":"ce4bhr12rcd13ifvqhqg","pricing_plan_id":"cebpf4jnsgd1na2vs0mg"},{"bike_id":"8f9a4053-0a2b-44c3-b74c-9669b6d1df0e","system_id":"levelo_inurba_marseille","lat":43.31362,"lon":5.3849,"is_reserved":false,"is_disabled":false,"rental_uris":{"android":"levelo://app?vid=8f9a4053-0a2b-44c3-b74c-9669b6d1df0e","ios":"levelo://app?vid=8f9a4053-0a2b-44c3-b74c-9669b6d1df0e"},"vehicle_type_id":"4","last_reported":1741457388,"current_range_meters":9600,"station_id":"ce4bgt92rcd13ifvqcf0","pricing_plan_id":"cebpf4jnsgd1na2vs0mg"},{"bike_id":"9b9b32dc-2256-4948-acb9-7ed415d8ce63","system_id":"levelo_inurba_marseille","lat":43.31486,"lon":5.37304,"is_reserved":false,"is_disabled":false,"rental_uris":{"android":"levelo://app?vid=9b9b32dc-2256-4948-acb9-7ed415d8ce63","ios":"levelo://app?vid=9b9b32dc-2256-4948-acb9-7ed415d8ce63"},"vehicle_type_id":"4","last_reported":1741457388,"current_range_meters":9600,"station_id":"ce4bgt12rcd13ifvqcd0","pricing_plan_id":"cebpf4jnsgd1na2vs0mg"},{"bike_id":"0cc07bea-83df-4ccf-9a57-40422b97d85f","system_id":"levelo_inurba_marseille","lat":43.27372,"lon":5.3625,"is_reserved":false,"is_disabled":false,"rental_uris":{"android":"levelo://app?vid=0cc07bea-83df-4ccf-9a57-40422b97d85f","ios":"levelo://app?vid=0cc07bea-83df-4ccf-9a57-40422b97d85f"},"vehicle_type_id":"4","last_reported":1741457388,"current_range_meters":9600,"station_id":"ce4bhbh2rcd13ifvqeo0","pricing_plan_id":"cebpf4jnsgd1na2vs0mg"},{"bike_id":"7d4cc756-9c8b-4502-ad8d-d022cadf052f","system_id":"levelo_inurba_marseille","lat":43.27329,"lon":5.39063,"is_reserved":false,"is_disabled":false,"rental_uris":{"android":"levelo://app?vid=7d4cc756-9c8b-4502-ad8d-d022cadf052f","ios":"levelo://app?vid=7d4cc756-9c8b-4502-ad8d-d022cadf052f"},"vehicle_type_id":"4","last_reported":1741457388,"current_range_meters":9600,"station_id":"ce4bhgp2rcd13ifvqfe0","pricing_plan_id":"cebpf4jnsgd1na2vs0mg"},{"bike_id":"4953df91-06bc-47e0-82b0-3bd3da4be66b","system_id":"levelo_inurba_marseille","lat":43.29543,"lon":5.38552,"is_reserved":false,"is_disabled":true,"rental_uris":{"android":"levelo://app?vid=4953df91-06bc-47e0-82b0-3bd3da4be66b","ios":"levelo://app?vid=4953df91-06bc-47e0-82b0-3bd3da4be66b"},"vehicle_type_id":"4","last_reported":1741457388,"current_range_meters":9600,"station_id":"ce4bgih2rcd13ifvqba0","pricing_plan_id":"cebpf4jnsgd1na2vs0mg"},{"bike_id":"b533f38f-df9a-4e01-86fb-08f4b9bfcdfb","system_id":"levelo_inurba_marseille","lat":43.262223,"lon":5.421325,"is_reserved":false,"is_disabled":false,"rental_uris":{"android":"levelo://app?vid=b533f38f-df9a-4e01-86fb-08f4b9bfcdfb","ios":"levelo://app?vid=b533f38f-df9a-4e01-86fb-08f4b9bfcdfb"},"vehicle_type_id":"4","last_reported":1741457388,"current_range_meters":9600,"station_id":"","pricing_plan_id":"cebpf4jnsgd1na2vs0mg"},{"bike_id":"992f2745-70a8-474a-bf17-1eba265f1665","system_id":"levelo_inurba_marseille","lat":43.267793,"lon":5.394122,"is_reserved":false,"is_disabled":false,"rental_uris":{"android":"levelo://app?vid=992f2745-70a8-474a-bf17-1eba265f1665","ios":"levelo://app?vid=992f2745-70a8-474a-bf17-1eba265f1665"},"vehicle_type_id":"4","last_reported":1741457388,"current_range_meters":9600,"station_id":"ce4bhn12rcd13ifvqgqg","pricing_plan_id":"cebpf4jnsgd1na2vs0mg"},{"bike_id":"eaca221e-8152-482f-b0fa-559098e438e5","system_id":"levelo_inurba_marseille","lat":43.30332,"lon":5.40428,"is_reserved":false,"is_disabled":false,"rental_uris":{"android":"levelo://app?vid=eaca221e-8152-482f-b0fa-559098e438e5","ios":"levelo://app?vid=eaca221e-8152-482f-b0fa-559098e438e5"},"vehicle_type_id":"4","last_reported":1741457388,"current_range_meters":9200,"station_id":"ce4bh012rcd13ifvqd10","pricing_plan_id":"cebpf4jnsgd1na2vs0mg"},{"bike_id":"26760863-ee55-4743-aff1-e9b87d0fe08f","system_id":"levelo_inurba_marseille","lat":43.31363,"lon":5.38496,"is_reserved":false,"is_disabled":false,"rental_uris":{"android":"levelo://app?vid=26760863-ee55-4743-aff1-e9b87d0fe08f","ios":"levelo://app?vid=26760863-ee55-4743-aff1-e9b87d0fe08f"},"vehicle_type_id":"4","last_reported":1741457388,"current_range_meters":9200,"station_id":"ce4bgt92rcd13ifvqcf0","pricing_plan_id":"cebpf4jnsgd1na2vs0mg"},{"bike_id":"67b9db9a-c3fa-425a-9fe6-cc5e607865fb","system_id":"levelo_inurba_marseille","lat":43.30433,"lon":5.38879,"is_reserved":false,"is_disabled":false,"rental_uris":{"android":"levelo://app?vid=67b9db9a-c3fa-425a-9fe6-cc5e607865fb","ios":"levelo://app?vid=67b9db9a-c3fa-425a-9fe6-cc5e607865fb"},"vehicle_type_id":"4","last_reported":1741457388,"current_range_meters":9600,"station_id":"ce4bgk12rcd13ifvqbi0","pricing_plan_id":"cebpf4jnsgd1na2vs0mg"},{"bike_id":"a466add9-69f7-4b4a-bc37-ea5c2912310b","system_id":"levelo_inurba_marseille","lat":43.29574,"lon":5.39976,"is_reserved":false,"is_disabled":false,"rental_uris":{"android":"levelo://app?vid=a466add9-69f7-4b4a-bc37-ea5c2912310b","ios":"levelo://app?vid=a466add9-69f7-4b4a-bc37-ea5c2912310b"},"vehicle_type_id":"4","last_reported":1741457388,"current_range_meters":9600,"station_id":"ce4bh312rcd13ifvqdj0","pricing_plan_id":"cebpf4jnsgd1na2vs0mg"},{"bike_id":"89039b48-5595-4ddf-b64d-c53d2b672074","system_id":"levelo_inurba_marseille","lat":43.28156,"lon":5.42647,"is_reserved":false,"is_disabled":false,"rental_uris":{"android":"levelo://app?vid=89039b48-5595-4ddf-b64d-c53d2b672074","ios":"levelo://app?vid=89039b48-5595-4ddf-b64d-c53d2b672074"},"vehicle_type_id":"4","last_reported":1741457388,"current_range_meters":9600,"station_id":"ce4bhnh2rcd13ifvqgug","pricing_plan_id":"cebpf4jnsgd1na2vs0mg"},{"bike_id":"df3a299a-e02e-47da-986c-2876b05889d9","system_id":"levelo_inurba_marseille","lat":43.28371,"lon":5.38122,"is_reserved":false,"is_disabled":false,"rental_uris":{"android":"levelo://app?vid=df3a299a-e02e-47da-986c-2876b05889d9","ios":"levelo://app?vid=df3a299a-e02e-47da-986c-2876b05889d9"},"vehicle_type_id":"4","last_reported":1741457388,"current_range_meters":9600,"station_id":"ce4bh412rcd13ifvqdr0","pricing_plan_id":"cebpf4jnsgd1na2vs0mg"},{"bike_id":"7290e844-3b72-4d23-9989-c90e619569ad","system_id":"levelo_inurba_marseille","lat":43.2607,"lon":5.39394,"is_reserved":false,"is_disabled":false,"rental_uris":{"android":"levelo://app?vid=7290e844-3b72-4d23-9989-c90e619569ad","ios":"levelo://app?vid=7290e844-3b72-4d23-9989-c90e619569ad"},"vehicle_type_id":"4","last_reported":1741457388,"current_range_meters":10000,"station_id":"ce4bhh92rcd13ifvqfj0","pricing_plan_id":"cebpf4jnsgd1na2vs0mg"},{"bike_id":"b2c2514d-58df-4080-9acc-0a3325c87525","system_id":"levelo_inurba_marseille","lat":43.323668,"lon":5.367469,"is_reserved":false,"is_disabled":false,"rental_uris":{"android":"levelo://app?vid=b2c2514d-58df-4080-9acc-0a3325c87525","ios":"levelo://app?vid=b2c2514d-58df-4080-9acc-0a3325c87525"},"vehicle_type_id":"4","last_reported":1741457388,"current_range_meters":10000,"station_id":"ce4bhsh2rcd13ifvqi2g","pricing_plan_id":"cebpf4jnsgd1na2vs0mg"},{"bike_id":"fdf45df4-47d5-41e8-a6c7-03ee85585140","system_id":"levelo_inurba_marseille","lat":43.26767,"lon":5.39438,"is_reserved":false,"is_disabled":true,"rental_uris":{"android":"levelo://app?vid=fdf45df4-47d5-41e8-a6c7-03ee85585140","ios":"levelo://app?vid=fdf45df4-47d5-41e8-a6c7-03ee85585140"},"vehicle_type_id":"4","last_reported":1741457388,"current_range_meters":10000,"station_id":"ce4bhh12rcd13ifvqfg0","pricing_plan_id":"cebpf4jnsgd1na2vs0mg"},{"bike_id":"692c3fd1-e388-4c38-bc5f-023f56dd0104","system_id":"levelo_inurba_marseille","lat":43.25723,"lon":5.41116,"is_reserved":false,"is_disabled":false,"rental_uris":{"android":"levelo://app?vid=692c3fd1-e388-4c38-bc5f-023f56dd0104","ios":"levelo://app?vid=692c3fd1-e388-4c38-bc5f-023f56dd0104"},"vehicle_type_id":"4","last_reported":1741457388,"current_range_meters":10000,"station_id":"ce4bhkp2rcd13ifvqgd0","pricing_plan_id":"cebpf4jnsgd1na2vs0mg"},{"bike_id":"ad4ad322-893b-4984-a4fd-dd83709b88b1","system_id":"levelo_inurba_marseille","lat":43.28856,"lon":5.35856,"is_reserved":false,"is_disabled":false,"rental_uris":{"android":"levelo://app?vid=ad4ad322-893b-4984-a4fd-dd83709b88b1","ios":"levelo://app?vid=ad4ad322-893b-4984-a4fd-dd83709b88b1"},"vehicle_type_id":"4","last_reported":1741457388,"current_range_meters":10000,"station_id":"ce4bhb12rcd13ifvqem0","pricing_plan_id":"cebpf4jnsgd1na2vs0mg"},{"bike_id":"87defcae-b1c7-487b-a506-b5d41085f46d","system_id":"levelo_inurba_marseille","lat":43.27561,"lon":5.38415,"is_reserved":false,"is_disabled":false,"rental_uris":{"android":"levelo://app?vid=87defcae-b1c7-487b-a506-b5d41085f46d","ios":"levelo://app?vid=87defcae-b1c7-487b-a506-b5d41085f46d"},"vehicle_type_id":"4","last_reported":1741457388,"current_range_meters":10000,"station_id":"ce4bhh92rcd13ifvqfi0","pricing_plan_id":"cebpf4jnsgd1na2vs0mg"},{"bike_id":"80c6f2c9-3992-45fb-b231-d2ad7349e925","system_id":"levelo_inurba_marseille","lat":43.27211,"lon":5.39188,"is_reserved":false,"is_disabled":false,"rental_uris":{"android":"levelo://app?vid=80c6f2c9-3992-45fb-b231-d2ad7349e925","ios":"levelo://app?vid=80c6f2c9-3992-45fb-b231-d2ad7349e925"},"vehicle_type_id":"4","last_reported":1741457388,"current_range_meters":9600,"station_id":"ce4bhhp2rcd13ifvqfm0","pricing_plan_id":"cebpf4jnsgd1na2vs0mg"},{"bike_id":"8a40b14a-c14e-472f-b09f-cd3d81b3750c","system_id":"levelo_inurba_marseille","lat":43.291001,"lon":5.381227,"is_reserved":false,"is_disabled":false,"rental_uris":{"android":"levelo://app?vid=8a40b14a-c14e-472f-b09f-cd3d81b3750c","ios":"levelo://app?vid=8a40b14a-c14e-472f-b09f-cd3d81b3750c"},"vehicle_type_id":"4","last_reported":1741457388,"current_range_meters":10000,"station_id":"ce4bh192rcd13ifvqdd0","pricing_plan_id":"cebpf4jnsgd1na2vs0mg"},{"bike_id":"436bcdbb-61d6-407c-bb12-7dc81cb26c80","system_id":"levelo_inurba_marseille","lat":43.2926,"lon":5.37616,"is_reserved":false,"is_disabled":false,"rental_uris":{"android":"levelo://app?vid=436bcdbb-61d6-407c-bb12-7dc81cb26c80","ios":"levelo://app?vid=436bcdbb-61d6-407c-bb12-7dc81cb26c80"},"vehicle_type_id":"4","last_reported":1741457388,"current_range_meters":10000,"station_id":"ce4bgi12rcd13ifvqb80","pricing_plan_id":"cebpf4jnsgd1na2vs0mg"},{"bike_id":"47c0671a-1b48-4e75-a020-f0ad28e65ff6","system_id":"levelo_inurba_marseille","lat":43.28711,"lon":5.37379,"is_reserved":false,"is_disabled":false,"rental_uris":{"android":"levelo://app?vid=47c0671a-1b48-4e75-a020-f0ad28e65ff6","ios":"levelo://app?vid=47c0671a-1b48-4e75-a020-f0ad28e65ff6"},"vehicle_type_id":"4","last_reported":1741457388,"current_range_meters":10000,"station_id":"ce4bh3p2rcd13ifvqdq0","pricing_plan_id":"cebpf4jnsgd1na2vs0mg"},{"bike_id":"b33a4c14-342a-4743-b9e1-51c2fee0bb82","system_id":"levelo_inurba_marseille","lat":43.27986,"lon":5.38758,"is_reserved":false,"is_disabled":false,"rental_uris":{"android":"levelo://app?vid=b33a4c14-342a-4743-b9e1-51c2fee0bb82","ios":"levelo://app?vid=b33a4c14-342a-4743-b9e1-51c2fee0bb82"},"vehicle_type_id":"4","last_reported":1741457388,"current_range_meters":10000,"station_id":"ce4bhg12rcd13ifvqf80","pricing_plan_id":"cebpf4jnsgd1na2vs0mg"},{"bike_id":"680f50b0-bd88-46fa-8b64-7606994c73f2","system_id":"levelo_inurba_marseille","lat":43.29618,"lon":5.37143,"is_reserved":false,"is_disabled":true,"rental_uris":{"android":"levelo://app?vid=680f50b0-bd88-46fa-8b64-7606994c73f2","ios":"levelo://app?vid=680f50b0-bd88-46fa-8b64-7606994c73f2"},"vehicle_type_id":"4","last_reported":1741457388,"current_range_meters":10800,"station_id":"ce4bgnh2rcd13ifvqc0g","pricing_plan_id":"cebpf4jnsgd1na2vs0mg"},{"bike_id":"5f8cc0bc-599f-48cc-a187-9a6be9243724","system_id":"levelo_inurba_marseille","lat":43.24646,"lon":5.38901,"is_reserved":false,"is_disabled":false,"rental_uris":{"android":"levelo://app?vid=5f8cc0bc-599f-48cc-a187-9a6be9243724","ios":"levelo://app?vid=5f8cc0bc-599f-48cc-a187-9a6be9243724"},"vehicle_type_id":"4","last_reported":1741457388,"current_range_meters":10800,"station_id":"ce4bhg12rcd13ifvqf60","pricing_plan_id":"cebpf4jnsgd1na2vs0mg"},{"bike_id":"cc947579-4fa9-4b68-911b-1b5f4ee75478","system_id":"levelo_inurba_marseille","lat":43.28374,"lon":5.38621,"is_reserved":false,"is_disabled":false,"rental_uris":{"android":"levelo://app?vid=cc947579-4fa9-4b68-911b-1b5f4ee75478","ios":"levelo://app?vid=cc947579-4fa9-4b68-911b-1b5f4ee75478"},"vehicle_type_id":"4","last_reported":1741457388,"current_range_meters":10800,"station_id":"ce4bh492rcd13ifvqdvg","pricing_plan_id":"cebpf4jnsgd1na2vs0mg"},{"bike_id":"b206320e-212d-4f4a-9b3e-2aafe003e742","system_id":"levelo_inurba_marseille","lat":43.24072,"lon":5.37763,"is_reserved":false,"is_disabled":false,"rental_uris":{"android":"levelo://app?vid=b206320e-212d-4f4a-9b3e-2aafe003e742","ios":"levelo://app?vid=b206320e-212d-4f4a-9b3e-2aafe003e742"},"vehicle_type_id":"4","last_reported":1741457388,"current_range_meters":10800,"station_id":"ce4bhnp2rcd13ifvqgvg","pricing_plan_id":"cebpf4jnsgd1na2vs0mg"},{"bike_id":"7f018b19-9233-4b0d-8bcc-c6b2278988b1","system_id":"levelo_inurba_marseille","lat":43.25588,"lon":5.38222,"is_reserved":false,"is_disabled":false,"rental_uris":{"android":"levelo://app?vid=7f018b19-9233-4b0d-8bcc-c6b2278988b1","ios":"levelo://app?vid=7f018b19-9233-4b0d-8bcc-c6b2278988b1"},"vehicle_type_id":"4","last_reported":1741457388,"current_range_meters":10800,"station_id":"ce4bhih2rcd13ifvqfs0","pricing_plan_id":"cebpf4jnsgd1na2vs0mg"},{"bike_id":"388ea826-f5fa-4632-a530-45d13cc0a769","system_id":"levelo_inurba_marseille","lat":43.231876,"lon":5.399881,"is_reserved":false,"is_disabled":false,"rental_uris":{"android":"levelo://app?vid=388ea826-f5fa-4632-a530-45d13cc0a769","ios":"levelo://app?vid=388ea826-f5fa-4632-a530-45d13cc0a769"},"vehicle_type_id":"4","last_reported":1741457388,"current_range_meters":10800,"station_id":"ce4bhn12rcd13ifvqgqg","pricing_plan_id":"cebpf4jnsgd1na2vs0mg"},{"bike_id":"2cd62b5d-cb55-4130-8b4a-c96f5828ffcd","system_id":"levelo_inurba_marseille","lat":43.27312,"lon":5.39102,"is_reserved":false,"is_disabled":false,"rental_uris":{"android":"levelo://app?vid=2cd62b5d-cb55-4130-8b4a-c96f5828ffcd","ios":"levelo://app?vid=2cd62b5d-cb55-4130-8b4a-c96f5828ffcd"},"vehicle_type_id":"4","last_reported":1741457388,"current_range_meters":10800,"station_id":"ce4bhgp2rcd13ifvqfe0","pricing_plan_id":"cebpf4jnsgd1na2vs0mg"},{"bike_id":"1c67b67e-bf29-4a38-b97a-7bd76de36e8b","system_id":"levelo_inurba_marseille","lat":43.30468,"lon":5.37915,"is_reserved":false,"is_disabled":false,"rental_uris":{"android":"levelo://app?vid=1c67b67e-bf29-4a38-b97a-7bd76de36e8b","ios":"levelo://app?vid=1c67b67e-bf29-4a38-b97a-7bd76de36e8b"},"vehicle_type_id":"4","last_reported":1741457388,"current_range_meters":10000,"station_id":"ce4bgup2rcd13ifvqcn0","pricing_plan_id":"cebpf4jnsgd1na2vs0mg"},{"bike_id":"dc144f55-f3e2-40e0-823b-a9b8396770cd","system_id":"levelo_inurba_marseille","lat":43.29238,"lon":5.40911,"is_reserved":false,"is_disabled":false,"rental_uris":{"android":"levelo://app?vid=dc144f55-f3e2-40e0-823b-a9b8396770cd","ios":"levelo://app?vid=dc144f55-f3e2-40e0-823b-a9b8396770cd"},"vehicle_type_id":"4","last_reported":1741457388,"current_range_meters":10800,"station_id":"ce4bh192rcd13ifvqdc0","pricing_plan_id":"cebpf4jnsgd1na2vs0mg"},{"bike_id":"ad201581-ead6-4983-8e73-dbcbaff58324","system_id":"levelo_inurba_marseille","lat":43.28113,"lon":5.37786,"is_reserved":false,"is_disabled":false,"rental_uris":{"android":"levelo://app?vid=ad201581-ead6-4983-8e73-dbcbaff58324","ios":"levelo://app?vid=ad201581-ead6-4983-8e73-dbcbaff58324"},"vehicle_type_id":"4","last_reported":1741457388,"current_range_meters":10000,"station_id":"ce4bha12rcd13ifvqee0","pricing_plan_id":"cebpf4jnsgd1na2vs0mg"},{"bike_id":"080fa913-6241-4ec5-b301-6a7ab2548c57","system_id":"levelo_inurba_marseille","lat":43.29567,"lon":5.39968,"is_reserved":false,"is_disabled":false,"rental_uris":{"android":"levelo://app?vid=080fa913-6241-4ec5-b301-6a7ab2548c57","ios":"levelo://app?vid=080fa913-6241-4ec5-b301-6a7ab2548c57"},"vehicle_type_id":"4","last_reported":1741457388,"current_range_meters":10800,"station_id":"ce4bh312rcd13ifvqdj0","pricing_plan_id":"cebpf4jnsgd1na2vs0mg"},{"bike_id":"56bdef56-f1bb-4707-8c23-65ad62d779db","system_id":"levelo_inurba_marseille","lat":43.29918,"lon":5.37488,"is_reserved":false,"is_disabled":false,"rental_uris":{"android":"levelo://app?vid=56bdef56-f1bb-4707-8c23-65ad62d779db","ios":"levelo://app?vid=56bdef56-f1bb-4707-8c23-65ad62d779db"},"vehicle_type_id":"4","last_reported":1741457388,"current_range_meters":11200,"station_id":"ce4bgjh2rcd13ifvqbg0","pricing_plan_id":"cebpf4jnsgd1na2vs0mg"},{"bike_id":"90c41006-383b-4d7a-8478-dc6720be52d8","system_id":"levelo_inurba_marseille","lat":43.25361,"lon":5.39341,"is_reserved":false,"is_disabled":false,"rental_uris":{"android":"levelo://app?vid=90c41006-383b-4d7a-8478-dc6720be52d8","ios":"levelo://app?vid=90c41006-383b-4d7a-8478-dc6720be52d8"},"vehicle_type_id":"4","last_reported":1741457388,"current_range_meters":11200,"station_id":"ce4bhih2rcd13ifvqfs0","pricing_plan_id":"cebpf4jnsgd1na2vs0mg"},{"bike_id":"ba7620df-66d6-48fc-bba4-2830847ca428","system_id":"levelo_inurba_marseille","lat":43.26929,"lon":5.40273,"is_reserved":false,"is_disabled":false,"rental_uris":{"android":"levelo://app?vid=ba7620df-66d6-48fc-bba4-2830847ca428","ios":"levelo://app?vid=ba7620df-66d6-48fc-bba4-2830847ca428"},"vehicle_type_id":"4","last_reported":1741457388,"current_range_meters":11200,"station_id":"cjm6bp8fraef2m0cb0m0","pricing_plan_id":"cebpf4jnsgd1na2vs0mg"},{"bike_id":"75ab5234-7915-49a7-b1d4-c030396303a5","system_id":"levelo_inurba_marseille","lat":43.29576,"lon":5.37511,"is_reserved":false,"is_disabled":false,"rental_uris":{"android":"levelo://app?vid=75ab5234-7915-49a7-b1d4-c030396303a5","ios":"levelo://app?vid=75ab5234-7915-49a7-b1d4-c030396303a5"},"vehicle_type_id":"4","last_reported":1741457388,"current_range_meters":11200,"station_id":"ce4bgh92rcd13ifvqb50","pricing_plan_id":"cebpf4jnsgd1na2vs0mg"},{"bike_id":"576cbac4-8eca-4045-9b1b-46195bda1312","system_id":"levelo_inurba_marseille","lat":43.296,"lon":5.38096,"is_reserved":false,"is_disabled":false,"rental_uris":{"android":"levelo://app?vid=576cbac4-8eca-4045-9b1b-46195bda1312","ios":"levelo://app?vid=576cbac4-8eca-4045-9b1b-46195bda1312"},"vehicle_type_id":"4","last_reported":1741457388,"current_range_meters":11200,"station_id":"ce4bgl12rcd13ifvqbo0","pricing_plan_id":"cebpf4jnsgd1na2vs0mg"},{"bike_id":"cdc6fa71-b8c0-46e7-902c-4e18b52385d2","system_id":"levelo_inurba_marseille","lat":43.28832,"lon":5.40008,"is_reserved":false,"is_disabled":false,"rental_uris":{"android":"levelo://app?vid=cdc6fa71-b8c0-46e7-902c-4e18b52385d2","ios":"levelo://app?vid=cdc6fa71-b8c0-46e7-902c-4e18b52385d2"},"vehicle_type_id":"4","last_reported":1741457388,"current_range_meters":11200,"station_id":"","pricing_plan_id":"cebpf4jnsgd1na2vs0mg"},{"bike_id":"f3a51d33-8829-48fc-bce3-a6758bed5a15","system_id":"levelo_inurba_marseille","lat":43.289226,"lon":5.383912,"is_reserved":false,"is_disabled":false,"rental_uris":{"android":"levelo://app?vid=f3a51d33-8829-48fc-bce3-a6758bed5a15","ios":"levelo://app?vid=f3a51d33-8829-48fc-bce3-a6758bed5a15"},"vehicle_type_id":"4","last_reported":1741457388,"current_range_meters":11200,"station_id":"ce4bh612rcd13ifvqe6g","pricing_plan_id":"cebpf4jnsgd1na2vs0mg"},{"bike_id":"1903fdc0-4cfe-4518-825b-3ad5e42b9174","system_id":"levelo_inurba_marseille","lat":43.22943,"lon":5.35373,"is_reserved":false,"is_disabled":false,"rental_uris":{"android":"levelo://app?vid=1903fdc0-4cfe-4518-825b-3ad5e42b9174","ios":"levelo://app?vid=1903fdc0-4cfe-4518-825b-3ad5e42b9174"},"vehicle_type_id":"4","last_reported":1741457388,"current_range_meters":11200,"station_id":"cpo3532slgdg3j2ikp40","pricing_plan_id":"cebpf4jnsgd1na2vs0mg"},{"bike_id":"58912913-070d-4f68-94ac-282dc0181e33","system_id":"levelo_inurba_marseille","lat":43.29741,"lon":5.378342,"is_reserved":false,"is_disabled":false,"rental_uris":{"android":"levelo://app?vid=58912913-070d-4f68-94ac-282dc0181e33","ios":"levelo://app?vid=58912913-070d-4f68-94ac-282dc0181e33"},"vehicle_type_id":"4","last_reported":1741457388,"current_range_meters":11600,"station_id":"","pricing_plan_id":"cebpf4jnsgd1na2vs0mg"},{"bike_id":"bb3869f6-acdc-4349-8f09-4a3b1fcb7485","system_id":"levelo_inurba_marseille","lat":43.28001,"lon":5.4166,"is_reserved":false,"is_disabled":false,"rental_uris":{"android":"levelo://app?vid=bb3869f6-acdc-4349-8f09-4a3b1fcb7485","ios":"levelo://app?vid=bb3869f6-acdc-4349-8f09-4a3b1fcb7485"},"vehicle_type_id":"4","last_reported":1741457388,"current_range_meters":11200,"station_id":"ce4bho12rcd13ifvqh1g","pricing_plan_id":"cebpf4jnsgd1na2vs0mg"},{"bike_id":"96eecb08-f6f7-45ce-a28c-2f236db62383","system_id":"levelo_inurba_marseille","lat":43.315,"lon":5.37305,"is_reserved":false,"is_disabled":false,"rental_uris":{"android":"levelo://app?vid=96eecb08-f6f7-45ce-a28c-2f236db62383","ios":"levelo://app?vid=96eecb08-f6f7-45ce-a28c-2f236db62383"},"vehicle_type_id":"4","last_reported":1741457388,"current_range_meters":11600,"station_id":"ce4bgt12rcd13ifvqcd0","pricing_plan_id":"cebpf4jnsgd1na2vs0mg"},{"bike_id":"da6bc104-3985-4b3c-9e1e-719c6a1b7b7d","system_id":"levelo_inurba_marseille","lat":43.29023,"lon":5.38132,"is_reserved":false,"is_disabled":false,"rental_uris":{"android":"levelo://app?vid=da6bc104-3985-4b3c-9e1e-719c6a1b7b7d","ios":"levelo://app?vid=da6bc104-3985-4b3c-9e1e-719c6a1b7b7d"},"vehicle_type_id":"4","last_reported":1741457388,"current_range_meters":11600,"station_id":"ce4bh4p2rcd13ifvqe1g","pricing_plan_id":"cebpf4jnsgd1na2vs0mg"},{"bike_id":"b69f7fbc-ded1-4838-bc78-a9df00a3f040","system_id":"levelo_inurba_marseille","lat":43.27665,"lon":5.38886,"is_reserved":false,"is_disabled":false,"rental_uris":{"android":"levelo://app?vid=b69f7fbc-ded1-4838-bc78-a9df00a3f040","ios":"levelo://app?vid=b69f7fbc-ded1-4838-bc78-a9df00a3f040"},"vehicle_type_id":"4","last_reported":1741457388,"current_range_meters":11600,"station_id":"ce4bhi12rcd13ifvqfo0","pricing_plan_id":"cebpf4jnsgd1na2vs0mg"},{"bike_id":"443f1254-5206-4393-8bde-18a668a884f2","system_id":"levelo_inurba_marseille","lat":43.29005,"lon":5.35614,"is_reserved":false,"is_disabled":false,"rental_uris":{"android":"levelo://app?vid=443f1254-5206-4393-8bde-18a668a884f2","ios":"levelo://app?vid=443f1254-5206-4393-8bde-18a668a884f2"},"vehicle_type_id":"4","last_reported":1741457388,"current_range_meters":11600,"station_id":"ce4bhb92rcd13ifvqen0","pricing_plan_id":"cebpf4jnsgd1na2vs0mg"},{"bike_id":"f629dfa2-4109-4595-b480-86fa96be0632","system_id":"levelo_inurba_marseille","lat":43.26069,"lon":5.39396,"is_reserved":false,"is_disabled":false,"rental_uris":{"android":"levelo://app?vid=f629dfa2-4109-4595-b480-86fa96be0632","ios":"levelo://app?vid=f629dfa2-4109-4595-b480-86fa96be0632"},"vehicle_type_id":"4","last_reported":1741457388,"current_range_meters":11600,"station_id":"ce4bhh92rcd13ifvqfj0","pricing_plan_id":"cebpf4jnsgd1na2vs0mg"},{"bike_id":"41c25597-8d3d-4e72-9365-f57adf58c85f","system_id":"levelo_inurba_marseille","lat":43.33609,"lon":5.41017,"is_reserved":false,"is_disabled":false,"rental_uris":{"android":"levelo://app?vid=41c25597-8d3d-4e72-9365-f57adf58c85f","ios":"levelo://app?vid=41c25597-8d3d-4e72-9365-f57adf58c85f"},"vehicle_type_id":"4","last_reported":1741457388,"current_range_meters":11200,"station_id":"ce4bhqh2rcd13ifvqhmg","pricing_plan_id":"cebpf4jnsgd1na2vs0mg"},{"bike_id":"b35d1eed-9979-4496-8e4c-0cd837a007ed","system_id":"levelo_inurba_marseille","lat":43.31166,"lon":5.38716,"is_reserved":false,"is_disabled":false,"rental_uris":{"android":"levelo://app?vid=b35d1eed-9979-4496-8e4c-0cd837a007ed","ios":"levelo://app?vid=b35d1eed-9979-4496-8e4c-0cd837a007ed"},"vehicle_type_id":"4","last_reported":1741457388,"current_range_meters":12000,"station_id":"ce4bgv12rcd13ifvqcp0","pricing_plan_id":"cebpf4jnsgd1na2vs0mg"},{"bike_id":"93b65028-e8a4-4c8f-876a-ae246ea8ac90","system_id":"levelo_inurba_marseille","lat":43.31356,"lon":5.3849,"is_reserved":false,"is_disabled":true,"rental_uris":{"android":"levelo://app?vid=93b65028-e8a4-4c8f-876a-ae246ea8ac90","ios":"levelo://app?vid=93b65028-e8a4-4c8f-876a-ae246ea8ac90"},"vehicle_type_id":"4","last_reported":1741457388,"current_range_meters":12000,"station_id":"ce4bgt92rcd13ifvqcf0","pricing_plan_id":"cebpf4jnsgd1na2vs0mg"},{"bike_id":"30ca0a12-56c0-4feb-9059-10680035a6ae","system_id":"levelo_inurba_marseille","lat":43.28687,"lon":5.3739,"is_reserved":false,"is_disabled":true,"rental_uris":{"android":"levelo://app?vid=30ca0a12-56c0-4feb-9059-10680035a6ae","ios":"levelo://app?vid=30ca0a12-56c0-4feb-9059-10680035a6ae"},"vehicle_type_id":"4","last_reported":1741457388,"current_range_meters":12000,"station_id":"ce4bh3p2rcd13ifvqdq0","pricing_plan_id":"cebpf4jnsgd1na2vs0mg"},{"bike_id":"19bbe8da-d7df-496e-a677-cbaab925cf5e","system_id":"levelo_inurba_marseille","lat":43.24872,"lon":5.42523,"is_reserved":false,"is_disabled":false,"rental_uris":{"android":"levelo://app?vid=19bbe8da-d7df-496e-a677-cbaab925cf5e","ios":"levelo://app?vid=19bbe8da-d7df-496e-a677-cbaab925cf5e"},"vehicle_type_id":"4","last_reported":1741457388,"current_range_meters":12000,"station_id":"","pricing_plan_id":"cebpf4jnsgd1na2vs0mg"},{"bike_id":"5aa25032-ad47-4ab5-b20e-b3ed31a4aaac","system_id":"levelo_inurba_marseille","lat":43.31762,"lon":5.39012,"is_reserved":false,"is_disabled":false,"rental_uris":{"android":"levelo://app?vid=5aa25032-ad47-4ab5-b20e-b3ed31a4aaac","ios":"levelo://app?vid=5aa25032-ad47-4ab5-b20e-b3ed31a4aaac"},"vehicle_type_id":"4","last_reported":1741457388,"current_range_meters":11600,"station_id":"ce4bhqp2rcd13ifvqhng","pricing_plan_id":"cebpf4jnsgd1na2vs0mg"},{"bike_id":"c1be5c2e-ea1e-477e-9fc8-3a412f28c181","system_id":"levelo_inurba_marseille","lat":43.2694,"lon":5.40243,"is_reserved":false,"is_disabled":false,"rental_uris":{"android":"levelo://app?vid=c1be5c2e-ea1e-477e-9fc8-3a412f28c181","ios":"levelo://app?vid=c1be5c2e-ea1e-477e-9fc8-3a412f28c181"},"vehicle_type_id":"4","last_reported":1741457388,"current_range_meters":12000,"station_id":"cjm6bp8fraef2m0cb0m0","pricing_plan_id":"cebpf4jnsgd1na2vs0mg"},{"bike_id":"1255397c-ce62-4d3c-b34c-42b1e892168c","system_id":"levelo_inurba_marseille","lat":43.25723,"lon":5.41114,"is_reserved":false,"is_disabled":false,"rental_uris":{"android":"levelo://app?vid=1255397c-ce62-4d3c-b34c-42b1e892168c","ios":"levelo://app?vid=1255397c-ce62-4d3c-b34c-42b1e892168c"},"vehicle_type_id":"4","last_reported":1741457388,"current_range_meters":12000,"station_id":"ce4bhkp2rcd13ifvqgd0","pricing_plan_id":"cebpf4jnsgd1na2vs0mg"},{"bike_id":"0d09594a-59fa-44e0-a776-e1c2c48660b9","system_id":"levelo_inurba_marseille","lat":43.27849,"lon":5.39209,"is_reserved":false,"is_disabled":false,"rental_uris":{"android":"levelo://app?vid=0d09594a-59fa-44e0-a776-e1c2c48660b9","ios":"levelo://app?vid=0d09594a-59fa-44e0-a776-e1c2c48660b9"},"vehicle_type_id":"4","last_reported":1741457388,"current_range_meters":12000,"station_id":"ce4bhjp2rcd13ifvqga0","pricing_plan_id":"cebpf4jnsgd1na2vs0mg"},{"bike_id":"4f5153a5-7f30-4a47-9599-c344b63b8780","system_id":"levelo_inurba_marseille","lat":43.31271,"lon":5.40163,"is_reserved":false,"is_disabled":false,"rental_uris":{"android":"levelo://app?vid=4f5153a5-7f30-4a47-9599-c344b63b8780","ios":"levelo://app?vid=4f5153a5-7f30-4a47-9599-c344b63b8780"},"vehicle_type_id":"4","last_reported":1741457388,"current_range_meters":12000,"station_id":"ce4bh092rcd13ifvqd30","pricing_plan_id":"cebpf4jnsgd1na2vs0mg"},{"bike_id":"d9c0e2f3-0a0a-4e42-8dc3-f6e38401ca18","system_id":"levelo_inurba_marseille","lat":43.27618,"lon":5.36101,"is_reserved":false,"is_disabled":false,"rental_uris":{"android":"levelo://app?vid=d9c0e2f3-0a0a-4e42-8dc3-f6e38401ca18","ios":"levelo://app?vid=d9c0e2f3-0a0a-4e42-8dc3-f6e38401ca18"},"vehicle_type_id":"4","last_reported":1741457388,"current_range_meters":12000,"station_id":"ce4bgj92rcd13ifvqbe0","pricing_plan_id":"cebpf4jnsgd1na2vs0mg"},{"bike_id":"217cd3a8-8c66-4a54-b991-55c5c04e3d7f","system_id":"levelo_inurba_marseille","lat":43.30424,"lon":5.38879,"is_reserved":false,"is_disabled":false,"rental_uris":{"android":"levelo://app?vid=217cd3a8-8c66-4a54-b991-55c5c04e3d7f","ios":"levelo://app?vid=217cd3a8-8c66-4a54-b991-55c5c04e3d7f"},"vehicle_type_id":"4","last_reported":1741457388,"current_range_meters":12400,"station_id":"ce4bgk12rcd13ifvqbi0","pricing_plan_id":"cebpf4jnsgd1na2vs0mg"},{"bike_id":"fe21f160-e0f9-4a1a-bafa-28b4c638c023","system_id":"levelo_inurba_marseille","lat":43.30641,"lon":5.40069,"is_reserved":false,"is_disabled":false,"rental_uris":{"android":"levelo://app?vid=fe21f160-e0f9-4a1a-bafa-28b4c638c023","ios":"levelo://app?vid=fe21f160-e0f9-4a1a-bafa-28b4c638c023"},"vehicle_type_id":"4","last_reported":1741457388,"current_range_meters":12000,"station_id":"ce4bh112rcd13ifvqda0","pricing_plan_id":"cebpf4jnsgd1na2vs0mg"},{"bike_id":"3c0e4035-a221-4175-9c1f-5404a2e80550","system_id":"levelo_inurba_marseille","lat":43.26939,"lon":5.40246,"is_reserved":false,"is_disabled":false,"rental_uris":{"android":"levelo://app?vid=3c0e4035-a221-4175-9c1f-5404a2e80550","ios":"levelo://app?vid=3c0e4035-a221-4175-9c1f-5404a2e80550"},"vehicle_type_id":"4","last_reported":1741457388,"current_range_meters":12400,"station_id":"cjm6bp8fraef2m0cb0m0","pricing_plan_id":"cebpf4jnsgd1na2vs0mg"},{"bike_id":"f768c843-4cbf-4829-952f-d73a2c4dc840","system_id":"levelo_inurba_marseille","lat":43.29779,"lon":5.39332,"is_reserved":false,"is_disabled":false,"rental_uris":{"android":"levelo://app?vid=f768c843-4cbf-4829-952f-d73a2c4dc840","ios":"levelo://app?vid=f768c843-4cbf-4829-952f-d73a2c4dc840"},"vehicle_type_id":"4","last_reported":1741457388,"current_range_meters":12400,"station_id":"chh1huq6cuj3fo74tm60","pricing_plan_id":"cebpf4jnsgd1na2vs0mg"},{"bike_id":"63143664-46ee-48bb-a0f2-39ce5252fd98","system_id":"levelo_inurba_marseille","lat":43.29277,"lon":5.40119,"is_reserved":false,"is_disabled":false,"rental_uris":{"android":"levelo://app?vid=63143664-46ee-48bb-a0f2-39ce5252fd98","ios":"levelo://app?vid=63143664-46ee-48bb-a0f2-39ce5252fd98"},"vehicle_type_id":"4","last_reported":1741457388,"current_range_meters":12400,"station_id":"ce4bh312rcd13ifvqdk0","pricing_plan_id":"cebpf4jnsgd1na2vs0mg"},{"bike_id":"bcfd987e-4925-4bc0-a2c6-1cce4b073733","system_id":"levelo_inurba_marseille","lat":43.29059,"lon":5.37156,"is_reserved":false,"is_disabled":false,"rental_uris":{"android":"levelo://app?vid=bcfd987e-4925-4bc0-a2c6-1cce4b073733","ios":"levelo://app?vid=bcfd987e-4925-4bc0-a2c6-1cce4b073733"},