{"last_updated":1726762230,"ttl":30,"version":"2.2","data":{"bikes":[{"bike_id":"56cb1988-42ff-487b-82e2-58bf4b235dc0","system_id":"levelo_inurba_marseille","lat":43.28274,"lon":5.35041,"is_reserved":false,"is_disabled":false,"rental_uris":{"android":"levelo://app?vid=56cb1988-42ff-487b-82e2-58bf4b235dc0","ios":"levelo://app?vid=56cb1988-42ff-487b-82e2-58bf4b235dc0"},"vehicle_type_id":"4","last_reported":1726762231,"current_range_meters":38800,"station_id":"ce4bhbp2rcd13ifvqerg","pricing_plan_id":"cebpf4jnsgd1na2vs0mg"},{"bike_id":"b7fd4e7d-fb4c-4dcb-82ba-fc1035a5ee94","system_id":"levelo_inurba_marseille","lat":43.29259,"lon":5.40901,"is_reserved":false,"is_disabled":false,"rental_uris":{"android":"levelo://app?vid=b7fd4e7d-fb4c-4dcb-82ba-fc1035a5ee94","ios":"levelo://app?vid=b7fd4e7d-fb4c-4dcb-82ba-fc1035a5ee94"},"vehicle_type_id":"4","last_reported":1726762231,"current_range_meters":4800,"station_id":"ce4bh192rcd13ifvqdc0","pricing_plan_id":"cebpf4jnsgd1na2vs0mg"},{"bike_id":"db5755a8-855b-4c4f-9eda-a7834eaec994","system_id":"levelo_inurba_marseille","lat":43.28003,"lon":5.40007,"is_reserved":false,"is_disabled":false,"rental_uris":{"android":"levelo://app?vid=db5755a8-855b-4c4f-9eda-a7834eaec994","ios":"levelo://app?vid=db5755a8-855b-4c4f-9eda-a7834eaec994"},"vehicle_type_id":"4","last_reported":1726762231,"current_range_meters":32400,"station_id":"ce4bho92rcd13ifvqh4g","pricing_plan_id":"cebpf4jnsgd1na2vs0mg"},{"bike_id":"cbc1a068-6efa-4300-b9e2-4da5d06d0c76","system_id":"levelo_inurba_marseille","lat":43.29258,"lon":5.40902,"is_reserved":false,"is_disabled":false,"rental_uris":{"android":"levelo://app?vid=cbc1a068-6efa-4300-b9e2-4da5d06d0c76","ios":"levelo://app?vid=cbc1a068-6efa-4300-b9e2-4da5d06d0c76"},"vehicle_type_id":"4","last_reported":1726762231,"current_range_meters":39200,"station_id":"ce4bh192rcd13ifvqdc0","pricing_plan_id":"cebpf4jnsgd1na2vs0mg"},{"bike_id":"546ab03f-2e41-447d-9cd0-54c02712b2e7","system_id":"levelo_inurba_marseille","lat":43.29416,"lon":5.38625,"is_reserved":false,"is_disabled":false,"rental_uris":{"android":"levelo://app?vid=546ab03f-2e41-447d-9cd0-54c02712b2e7","ios":"levelo://app?vid=546ab03f-2e41-447d-9cd0-54c02712b2e7"},"vehicle_type_id":"4","last_reported":1726762231,"current_range_meters":4000,"station_id":"ce4bh2h2rcd13ifvqdh0","pricing_plan_id":"cebpf4jnsgd1na2vs0mg"},{"bike_id":"ac06bcda-5f72-44bf-abb3-a544f3973d51","system_id":"levelo_inurba_marseille","lat":43.31368,"lon":5.38508,"is_reserved":false,"is_disabled":false,"rental_uris":{"android":"levelo://app?vid=ac06bcda-5f72-44bf-abb3-a544f3973d51","ios":"levelo://app?vid=ac06bcda-5f72-44bf-abb3-a544f3973d51"},"vehicle_type_id":"4","last_reported":1726762231,"current_range_meters":7200,"station_id":"ce4bgt92rcd13ifvqcf0","pricing_plan_id":"cebpf4jnsgd1na2vs0mg"},{"bike_id":"ff630689-2c2f-4c7b-98b2-c2f72df33da6","system_id":"levelo_inurba_marseille","lat":43.31465,"lon":5.39206,"is_reserved":false,"is_disabled":false,"rental_uris":{"android":"levelo://app?vid=ff630689-2c2f-4c7b-98b2-c2f72df33da6","ios":"levelo://app?vid=ff630689-2c2f-4c7b-98b2-c2f72df33da6"},"vehicle_type_id":"4","last_reported":1726762231,"current_range_meters":8800,"station_id":"","pricing_plan_id":"cebpf4jnsgd1na2vs0mg"},{"bike_id":"e532fd53-ad12-4848-82ea-70ac934c1c37","system_id":"levelo_inurba_marseille","lat":43.3375,"lon":5.37446,"is_reserved":false,"is_disabled":false,"rental_uris":{"android":"levelo://app?vid=e532fd53-ad12-4848-82ea-70ac934c1c37","ios":"levelo://app?vid=e532fd53-ad12-4848-82ea-70ac934c1c37"},"vehicle_type_id":"4","last_reported":1726762231,"current_range_meters":36800,"station_id":"","pricing_plan_id":"cebpf4jnsgd1na2vs0mg"},{"bike_id":"905b4ce3-1a62-4e66-ba87-b0b847dffaea","system_id":"levelo_inurba_marseille","lat":43.32334,"lon":5.40618,"is_reserved":false,"is_disabled":false,"rental_uris":{"android":"levelo://app?vid=905b4ce3-1a62-4e66-ba87-b0b847dffaea","ios":"levelo://app?vid=905b4ce3-1a62-4e66-ba87-b0b847dffaea"},"vehicle_type_id":"4","last_reported":1726762231,"current_range_meters":23200,"station_id":"ce4bhq92rcd13ifvqhjg","pricing_plan_id":"cebpf4jnsgd1na2vs0mg"},{"bike_id":"ac78a539-4fc4-44cf-a8c3-86827d0cd2c6","system_id":"levelo_inurba_marseille","lat":43.30547,"lon":5.36696,"is_reserved":false,"is_disabled":false,"rental_uris":{"android":"levelo://app?vid=ac78a539-4fc4-44cf-a8c3-86827d0cd2c6","ios":"levelo://app?vid=ac78a539-4fc4-44cf-a8c3-86827d0cd2c6"},"vehicle_type_id":"4","last_reported":1726762231,"current_range_meters":28000,"station_id":"ce4bgrp2rcd13ifvqc9g","pricing_plan_id":"cebpf4jnsgd1na2vs0mg"},{"bike_id":"6219cbf9-b454-413f-b497-666a6b7852c1","system_id":"levelo_inurba_marseille","lat":43.29519,"lon":5.39401,"is_reserved":false,"is_disabled":false,"rental_uris":{"android":"levelo://app?vid=6219cbf9-b454-413f-b497-666a6b7852c1","ios":"levelo://app?vid=6219cbf9-b454-413f-b497-666a6b7852c1"},"vehicle_type_id":"4","last_reported":1726762231,"current_range_meters":9600,"station_id":"ce4bh292rcd13ifvqdf0","pricing_plan_id":"cebpf4jnsgd1na2vs0mg"},{"bike_id":"da9c2355-6cd9-4aea-b6b5-b299084c4058","system_id":"levelo_inurba_marseille","lat":43.32335,"lon":5.4062,"is_reserved":false,"is_disabled":false,"rental_uris":{"android":"levelo://app?vid=da9c2355-6cd9-4aea-b6b5-b299084c4058","ios":"levelo://app?vid=da9c2355-6cd9-4aea-b6b5-b299084c4058"},"vehicle_type_id":"4","last_reported":1726762231,"current_range_meters":24000,"station_id":"ce4bhq92rcd13ifvqhjg","pricing_plan_id":"cebpf4jnsgd1na2vs0mg"},{"bike_id":"108573da-c24a-438a-b2f7-17657d029314","system_id":"levelo_inurba_marseille","lat":43.29957,"lon":5.41315,"is_reserved":false,"is_disabled":false,"rental_uris":{"android":"levelo://app?vid=108573da-c24a-438a-b2f7-17657d029314","ios":"levelo://app?vid=108573da-c24a-438a-b2f7-17657d029314"},"vehicle_type_id":"4","last_reported":1726762231,"current_range_meters":22000,"station_id":"ce4bhp12rcd13ifvqh9g","pricing_plan_id":"cebpf4jnsgd1na2vs0mg"},{"bike_id":"dd1d553c-38c1-4ff8-981e-aa56ea99e085","system_id":"levelo_inurba_marseille","lat":43.30328,"lon":5.4043,"is_reserved":false,"is_disabled":false,"rental_uris":{"android":"levelo://app?vid=dd1d553c-38c1-4ff8-981e-aa56ea99e085","ios":"levelo://app?vid=dd1d553c-38c1-4ff8-981e-aa56ea99e085"},"vehicle_type_id":"4","last_reported":1726762231,"current_range_meters":18800,"station_id":"ce4bh012rcd13ifvqd10","pricing_plan_id":"cebpf4jnsgd1na2vs0mg"},{"bike_id":"e3aa334f-8dd5-4fad-a2ef-c55eb1bc7064","system_id":"levelo_inurba_marseille","lat":43.30351,"lon":5.4188,"is_reserved":false,"is_disabled":false,"rental_uris":{"android":"levelo://app?vid=e3aa334f-8dd5-4fad-a2ef-c55eb1bc7064","ios":"levelo://app?vid=e3aa334f-8dd5-4fad-a2ef-c55eb1bc7064"},"vehicle_type_id":"4","last_reported":1726762231,"current_range_meters":22800,"station_id":"ce4bhop2rcd13ifvqh7g","pricing_plan_id":"cebpf4jnsgd1na2vs0mg"},{"bike_id":"8ca8f709-a11a-408a-a3f9-a0aff4bda9ba","system_id":"levelo_inurba_marseille","lat":43.295593,"lon":5.382839,"is_reserved":false,"is_disabled":false,"rental_uris":{"android":"levelo://app?vid=8ca8f709-a11a-408a-a3f9-a0aff4bda9ba","ios":"levelo://app?vid=8ca8f709-a11a-408a-a3f9-a0aff4bda9ba"},"vehicle_type_id":"4","last_reported":1726762231,"current_range_meters":38400,"station_id":"ce4bh2h2rcd13ifvqdh0","pricing_plan_id":"cebpf4jnsgd1na2vs0mg"},{"bike_id":"48e56e02-0d45-4af3-8abe-618c1e7fe37a","system_id":"levelo_inurba_marseille","lat":43.30332,"lon":5.40434,"is_reserved":false,"is_disabled":false,"rental_uris":{"android":"levelo://app?vid=48e56e02-0d45-4af3-8abe-618c1e7fe37a","ios":"levelo://app?vid=48e56e02-0d45-4af3-8abe-618c1e7fe37a"},"vehicle_type_id":"4","last_reported":1726762231,"current_range_meters":28000,"station_id":"ce4bh012rcd13ifvqd10","pricing_plan_id":"cebpf4jnsgd1na2vs0mg"},{"bike_id":"60de19aa-7f4f-4a13-bd8b-be8fd7465bc9","system_id":"levelo_inurba_marseille","lat":43.30892,"lon":5.39653,"is_reserved":false,"is_disabled":false,"rental_uris":{"android":"levelo://app?vid=60de19aa-7f4f-4a13-bd8b-be8fd7465bc9","ios":"levelo://app?vid=60de19aa-7f4f-4a13-bd8b-be8fd7465bc9"},"vehicle_type_id":"4","last_reported":1726762231,"current_range_meters":38800,"station_id":"ce4bh012rcd13ifvqcv0","pricing_plan_id":"cebpf4jnsgd1na2vs0mg"},{"bike_id":"dbbd9678-f7f0-495c-b85f-7cf29ed95060","system_id":"levelo_inurba_marseille","lat":43.31087,"lon":5.42427,"is_reserved":false,"is_disabled":false,"rental_uris":{"android":"levelo://app?vid=dbbd9678-f7f0-495c-b85f-7cf29ed95060","ios":"levelo://app?vid=dbbd9678-f7f0-495c-b85f-7cf29ed95060"},"vehicle_type_id":"4","last_reported":1726762231,"current_range_meters":26000,"station_id":"ce4bhp92rcd13ifvqhag","pricing_plan_id":"cebpf4jnsgd1na2vs0mg"},{"bike_id":"3a45c996-8813-4852-9e35-bf12251068b6","system_id":"levelo_inurba_marseille","lat":43.2957,"lon":5.39981,"is_reserved":false,"is_disabled":false,"rental_uris":{"android":"levelo://app?vid=3a45c996-8813-4852-9e35-bf12251068b6","ios":"levelo://app?vid=3a45c996-8813-4852-9e35-bf12251068b6"},"vehicle_type_id":"4","last_reported":1726762231,"current_range_meters":16000,"station_id":"ce4bh312rcd13ifvqdj0","pricing_plan_id":"cebpf4jnsgd1na2vs0mg"},{"bike_id":"f73077e3-32d0-40c7-9ec9-7090638273f3","system_id":"levelo_inurba_marseille","lat":43.30604,"lon":5.37228,"is_reserved":false,"is_disabled":false,"rental_uris":{"android":"levelo://app?vid=f73077e3-32d0-40c7-9ec9-7090638273f3","ios":"levelo://app?vid=f73077e3-32d0-40c7-9ec9-7090638273f3"},"vehicle_type_id":"4","last_reported":1726762231,"current_range_meters":6000,"station_id":"ce4bgqh2rcd13ifvqc4g","pricing_plan_id":"cebpf4jnsgd1na2vs0mg"},{"bike_id":"9baa53f6-07e6-4bf3-b54f-2e9f436fa6b7","system_id":"levelo_inurba_marseille","lat":43.28037,"lon":5.36945,"is_reserved":false,"is_disabled":false,"rental_uris":{"android":"levelo://app?vid=9baa53f6-07e6-4bf3-b54f-2e9f436fa6b7","ios":"levelo://app?vid=9baa53f6-07e6-4bf3-b54f-2e9f436fa6b7"},"vehicle_type_id":"4","last_reported":1726762231,"current_range_meters":10000,"station_id":"ce4bha12rcd13ifvqef0","pricing_plan_id":"cebpf4jnsgd1na2vs0mg"},{"bike_id":"99225314-09be-4ea5-95db-8cf185f956c8","system_id":"levelo_inurba_marseille","lat":43.33718,"lon":5.39183,"is_reserved":false,"is_disabled":false,"rental_uris":{"android":"levelo://app?vid=99225314-09be-4ea5-95db-8cf185f956c8","ios":"levelo://app?vid=99225314-09be-4ea5-95db-8cf185f956c8"},"vehicle_type_id":"4","last_reported":1726762231,"current_range_meters":16000,"station_id":"ce4bhr92rcd13ifvqhsg","pricing_plan_id":"cebpf4jnsgd1na2vs0mg"},{"bike_id":"3ddc290e-5a67-453f-a356-251b8cb031fe","system_id":"levelo_inurba_marseille","lat":43.32472,"lon":5.36564,"is_reserved":false,"is_disabled":false,"rental_uris":{"android":"levelo://app?vid=3ddc290e-5a67-453f-a356-251b8cb031fe","ios":"levelo://app?vid=3ddc290e-5a67-453f-a356-251b8cb031fe"},"vehicle_type_id":"4","last_reported":1726762231,"current_range_meters":4800,"station_id":"ce4bhs12rcd13ifvqhvg","pricing_plan_id":"cebpf4jnsgd1na2vs0mg"},{"bike_id":"04394a73-34a5-4d88-bac1-80c0695aafe5","system_id":"levelo_inurba_marseille","lat":43.337444,"lon":5.374475,"is_reserved":false,"is_disabled":false,"rental_uris":{"android":"levelo://app?vid=04394a73-34a5-4d88-bac1-80c0695aafe5","ios":"levelo://app?vid=04394a73-34a5-4d88-bac1-80c0695aafe5"},"vehicle_type_id":"4","last_reported":1726762231,"current_range_meters":24000,"station_id":"","pricing_plan_id":"cebpf4jnsgd1na2vs0mg"},{"bike_id":"9c157cd7-167d-4d51-87b7-9376126065cd","system_id":"levelo_inurba_marseille","lat":43.23057,"lon":5.35497,"is_reserved":false,"is_disabled":false,"rental_uris":{"android":"levelo://app?vid=9c157cd7-167d-4d51-87b7-9376126065cd","ios":"levelo://app?vid=9c157cd7-167d-4d51-87b7-9376126065cd"},"vehicle_type_id":"4","last_reported":1726762231,"current_range_meters":16400,"station_id":"cpo3342slgdg3j2ifvpg","pricing_plan_id":"cebpf4jnsgd1na2vs0mg"},{"bike_id":"036ab25f-0c34-4c45-8e88-1fc9200da6fd","system_id":"levelo_inurba_marseille","lat":43.27183,"lon":5.42696,"is_reserved":false,"is_disabled":false,"rental_uris":{"android":"levelo://app?vid=036ab25f-0c34-4c45-8e88-1fc9200da6fd","ios":"levelo://app?vid=036ab25f-0c34-4c45-8e88-1fc9200da6fd"},"vehicle_type_id":"4","last_reported":1726762231,"current_range_meters":29600,"station_id":"","pricing_plan_id":"cebpf4jnsgd1na2vs0mg"},{"bike_id":"298ac1dc-024a-45f9-bee5-67e6e0d001f8","system_id":"levelo_inurba_marseille","lat":43.32293,"lon":5.38259,"is_reserved":false,"is_disabled":false,"rental_uris":{"android":"levelo://app?vid=298ac1dc-024a-45f9-bee5-67e6e0d001f8","ios":"levelo://app?vid=298ac1dc-024a-45f9-bee5-67e6e0d001f8"},"vehicle_type_id":"4","last_reported":1726762231,"current_range_meters":32000,"station_id":"ce4bhr12rcd13ifvqhqg","pricing_plan_id":"cebpf4jnsgd1na2vs0mg"},{"bike_id":"6f2daa5c-49dd-457e-8394-628f84e32e3e","system_id":"levelo_inurba_marseille","lat":43.24808,"lon":5.37446,"is_reserved":false,"is_disabled":false,"rental_uris":{"android":"levelo://app?vid=6f2daa5c-49dd-457e-8394-628f84e32e3e","ios":"levelo://app?vid=6f2daa5c-49dd-457e-8394-628f84e32e3e"},"vehicle_type_id":"4","last_reported":1726762231,"current_range_meters":38800,"station_id":"ce4bhgh2rcd13ifvqfb0","pricing_plan_id":"cebpf4jnsgd1na2vs0mg"},{"bike_id":"c7b8f9fc-036e-446b-a7a0-3a9c5da901c2","system_id":"levelo_inurba_marseille","lat":43.29572,"lon":5.39971,"is_reserved":false,"is_disabled":false,"rental_uris":{"android":"levelo://app?vid=c7b8f9fc-036e-446b-a7a0-3a9c5da901c2","ios":"levelo://app?vid=c7b8f9fc-036e-446b-a7a0-3a9c5da901c2"},"vehicle_type_id":"4","last_reported":1726762231,"current_range_meters":19600,"station_id":"ce4bh312rcd13ifvqdj0","pricing_plan_id":"cebpf4jnsgd1na2vs0mg"},{"bike_id":"0d6dd57e-313c-4dce-bd11-ab4e559af62e","system_id":"levelo_inurba_marseille","lat":43.305481,"lon":5.365474,"is_reserved":false,"is_disabled":false,"rental_uris":{"android":"levelo://app?vid=0d6dd57e-313c-4dce-bd11-ab4e559af62e","ios":"levelo://app?vid=0d6dd57e-313c-4dce-bd11-ab4e559af62e"},"vehicle_type_id":"4","last_reported":1726762231,"current_range_meters":36000,"station_id":"ce4bgs12rcd13ifvqcag","pricing_plan_id":"cebpf4jnsgd1na2vs0mg"},{"bike_id":"5a661f66-5133-4896-9127-0ed04e2e95ec","system_id":"levelo_inurba_marseille","lat":43.28277,"lon":5.35068,"is_reserved":false,"is_disabled":false,"rental_uris":{"android":"levelo://app?vid=5a661f66-5133-4896-9127-0ed04e2e95ec","ios":"levelo://app?vid=5a661f66-5133-4896-9127-0ed04e2e95ec"},"vehicle_type_id":"4","last_reported":1726762231,"current_range_meters":38800,"station_id":"ce4bhbp2rcd13ifvqerg","pricing_plan_id":"cebpf4jnsgd1na2vs0mg"},{"bike_id":"e9a0caef-aeb1-49b5-b70f-05bef312b586","system_id":"levelo_inurba_marseille","lat":43.32104,"lon":5.36779,"is_reserved":false,"is_disabled":false,"rental_uris":{"android":"levelo://app?vid=e9a0caef-aeb1-49b5-b70f-05bef312b586","ios":"levelo://app?vid=e9a0caef-aeb1-49b5-b70f-05bef312b586"},"vehicle_type_id":"4","last_reported":1726762231,"current_range_meters":20000,"station_id":"","pricing_plan_id":"cebpf4jnsgd1na2vs0mg"},{"bike_id":"32d8ceb9-2306-44da-9fc3-88be9188a9a4","system_id":"levelo_inurba_marseille","lat":43.30616,"lon":5.37225,"is_reserved":false,"is_disabled":false,"rental_uris":{"android":"levelo://app?vid=32d8ceb9-2306-44da-9fc3-88be9188a9a4","ios":"levelo://app?vid=32d8ceb9-2306-44da-9fc3-88be9188a9a4"},"vehicle_type_id":"4","last_reported":1726762231,"current_range_meters":22400,"station_id":"ce4bgqh2rcd13ifvqc4g","pricing_plan_id":"cebpf4jnsgd1na2vs0mg"},{"bike_id":"f2ca133a-a707-44df-9aa2-bba86caaa0ef","system_id":"levelo_inurba_marseille","lat":43.29702,"lon":5.366,"is_reserved":false,"is_disabled":false,"rental_uris":{"android":"levelo://app?vid=f2ca133a-a707-44df-9aa2-bba86caaa0ef","ios":"levelo://app?vid=f2ca133a-a707-44df-9aa2-bba86caaa0ef"},"vehicle_type_id":"4","last_reported":1726762231,"current_range_meters":19600,"station_id":"ce4bgn12rcd13ifvqbt0","pricing_plan_id":"cebpf4jnsgd1na2vs0mg"},{"bike_id":"2f4d361d-f1c7-4e1e-8d9b-4b46b02b518c","system_id":"levelo_inurba_marseille","lat":43.29416,"lon":5.38621,"is_reserved":false,"is_disabled":false,"rental_uris":{"android":"levelo://app?vid=2f4d361d-f1c7-4e1e-8d9b-4b46b02b518c","ios":"levelo://app?vid=2f4d361d-f1c7-4e1e-8d9b-4b46b02b518c"},"vehicle_type_id":"4","last_reported":1726762231,"current_range_meters":34000,"station_id":"ce4bh2h2rcd13ifvqdh0","pricing_plan_id":"cebpf4jnsgd1na2vs0mg"},{"bike_id":"bef5a230-dc06-40b2-aeaf-05c5a3915bf1","system_id":"levelo_inurba_marseille","lat":43.29255,"lon":5.40919,"is_reserved":false,"is_disabled":false,"rental_uris":{"android":"levelo://app?vid=bef5a230-dc06-40b2-aeaf-05c5a3915bf1","ios":"levelo://app?vid=bef5a230-dc06-40b2-aeaf-05c5a3915bf1"},"vehicle_type_id":"4","last_reported":1726762231,"current_range_meters":8400,"station_id":"ce4bh192rcd13ifvqdc0","pricing_plan_id":"cebpf4jnsgd1na2vs0mg"},{"bike_id":"1778472a-df4b-4370-8169-9f34a0a6c431","system_id":"levelo_inurba_marseille","lat":43.30544,"lon":5.36549,"is_reserved":false,"is_disabled":false,"rental_uris":{"android":"levelo://app?vid=1778472a-df4b-4370-8169-9f34a0a6c431","ios":"levelo://app?vid=1778472a-df4b-4370-8169-9f34a0a6c431"},"vehicle_type_id":"4","last_reported":1726762231,"current_range_meters":3200,"station_id":"ce4bgs12rcd13ifvqcag","pricing_plan_id":"cebpf4jnsgd1na2vs0mg"},{"bike_id":"4f42d43e-c75b-4fc4-873a-0a4d26d10804","system_id":"levelo_inurba_marseille","lat":43.31707,"lon":5.43713,"is_reserved":false,"is_disabled":false,"rental_uris":{"android":"levelo://app?vid=4f42d43e-c75b-4fc4-873a-0a4d26d10804","ios":"levelo://app?vid=4f42d43e-c75b-4fc4-873a-0a4d26d10804"},"vehicle_type_id":"4","last_reported":1726762231,"current_range_meters":38800,"station_id":"ce4bhp92rcd13ifvqhcg","pricing_plan_id":"cebpf4jnsgd1na2vs0mg"},{"bike_id":"2b67caa3-7267-414b-867b-e9cc4161cb69","system_id":"levelo_inurba_marseille","lat":43.29047,"lon":5.35923,"is_reserved":false,"is_disabled":false,"rental_uris":{"android":"levelo://app?vid=2b67caa3-7267-414b-867b-e9cc4161cb69","ios":"levelo://app?vid=2b67caa3-7267-414b-867b-e9cc4161cb69"},"vehicle_type_id":"4","last_reported":1726762231,"current_range_meters":35600,"station_id":"ce4bha92rcd13ifvqeg0","pricing_plan_id":"cebpf4jnsgd1na2vs0mg"},{"bike_id":"5326ae8e-2f35-4b98-baa5-5056825ee5b7","system_id":"levelo_inurba_marseille","lat":43.27052,"lon":5.40257,"is_reserved":false,"is_disabled":false,"rental_uris":{"android":"levelo://app?vid=5326ae8e-2f35-4b98-baa5-5056825ee5b7","ios":"levelo://app?vid=5326ae8e-2f35-4b98-baa5-5056825ee5b7"},"vehicle_type_id":"4","last_reported":1726762231,"current_range_meters":4800,"station_id":"ce4bhk92rcd13ifvqgc0","pricing_plan_id":"cebpf4jnsgd1na2vs0mg"},{"bike_id":"a169855a-8415-4009-8e4e-d5c20c31ae92","system_id":"levelo_inurba_marseille","lat":43.30329,"lon":5.40428,"is_reserved":false,"is_disabled":false,"rental_uris":{"android":"levelo://app?vid=a169855a-8415-4009-8e4e-d5c20c31ae92","ios":"levelo://app?vid=a169855a-8415-4009-8e4e-d5c20c31ae92"},"vehicle_type_id":"4","last_reported":1726762231,"current_range_meters":19200,"station_id":"ce4bh012rcd13ifvqd10","pricing_plan_id":"cebpf4jnsgd1na2vs0mg"},{"bike_id":"43356356-1ebf-41d4-a9de-4fa2973940ef","system_id":"levelo_inurba_marseille","lat":43.29963,"lon":5.41329,"is_reserved":false,"is_disabled":false,"rental_uris":{"android":"levelo://app?vid=43356356-1ebf-41d4-a9de-4fa2973940ef","ios":"levelo://app?vid=43356356-1ebf-41d4-a9de-4fa2973940ef"},"vehicle_type_id":"4","last_reported":1726762231,"current_range_meters":36400,"station_id":"ce4bhp12rcd13ifvqh9g","pricing_plan_id":"cebpf4jnsgd1na2vs0mg"},{"bike_id":"1c1f4947-2a44-4aee-a215-5c8e4d7d4d03","system_id":"levelo_inurba_marseille","lat":43.24058,"lon":5.37778,"is_reserved":false,"is_disabled":false,"rental_uris":{"android":"levelo://app?vid=1c1f4947-2a44-4aee-a215-5c8e4d7d4d03","ios":"levelo://app?vid=1c1f4947-2a44-4aee-a215-5c8e4d7d4d03"},"vehicle_type_id":"4","last_reported":1726762231,"current_range_meters":8400,"station_id":"ce4bhnp2rcd13ifvqgvg","pricing_plan_id":"cebpf4jnsgd1na2vs0mg"},{"bike_id":"de880ea5-94b8-4333-b137-d51d54eff34f","system_id":"levelo_inurba_marseille","lat":43.29369,"lon":5.37872,"is_reserved":false,"is_disabled":false,"rental_uris":{"android":"levelo://app?vid=de880ea5-94b8-4333-b137-d51d54eff34f","ios":"levelo://app?vid=de880ea5-94b8-4333-b137-d51d54eff34f"},"vehicle_type_id":"4","last_reported":1726762231,"current_range_meters":2800,"station_id":"ce4bgjh2rcd13ifvqbf0","pricing_plan_id":"cebpf4jnsgd1na2vs0mg"},{"bike_id":"f91d86b2-456a-48aa-bac9-b4717c616eb8","system_id":"levelo_inurba_marseille","lat":43.25724,"lon":5.4111,"is_reserved":false,"is_disabled":false,"rental_uris":{"android":"levelo://app?vid=f91d86b2-456a-48aa-bac9-b4717c616eb8","ios":"levelo://app?vid=f91d86b2-456a-48aa-bac9-b4717c616eb8"},"vehicle_type_id":"4","last_reported":1726762231,"current_range_meters":9200,"station_id":"ce4bhkp2rcd13ifvqgd0","pricing_plan_id":"cebpf4jnsgd1na2vs0mg"},{"bike_id":"f739118e-477b-47ff-a17e-a772748c0615","system_id":"levelo_inurba_marseille","lat":43.28662,"lon":5.3636,"is_reserved":false,"is_disabled":false,"rental_uris":{"android":"levelo://app?vid=f739118e-477b-47ff-a17e-a772748c0615","ios":"levelo://app?vid=f739118e-477b-47ff-a17e-a772748c0615"},"vehicle_type_id":"4","last_reported":1726762231,"current_range_meters":17200,"station_id":"ce4bhah2rcd13ifvqej0","pricing_plan_id":"cebpf4jnsgd1na2vs0mg"},{"bike_id":"f86f3e35-b376-4426-ab25-3abdf0fb3c82","system_id":"levelo_inurba_marseille","lat":43.276666,"lon":5.388721,"is_reserved":false,"is_disabled":false,"rental_uris":{"android":"levelo://app?vid=f86f3e35-b376-4426-ab25-3abdf0fb3c82","ios":"levelo://app?vid=f86f3e35-b376-4426-ab25-3abdf0fb3c82"},"vehicle_type_id":"4","last_reported":1726762231,"current_range_meters":38800,"station_id":"ce4bhi12rcd13ifvqfo0","pricing_plan_id":"cebpf4jnsgd1na2vs0mg"},{"bike_id":"99a7dc90-2d6f-44d5-8363-3b98e8384430","system_id":"levelo_inurba_marseille","lat":43.26559,"lon":5.37283,"is_reserved":false,"is_disabled":false,"rental_uris":{"android":"levelo://app?vid=99a7dc90-2d6f-44d5-8363-3b98e8384430","ios":"levelo://app?vid=99a7dc90-2d6f-44d5-8363-3b98e8384430"},"vehicle_type_id":"4","last_reported":1726762231,"current_range_meters":20400,"station_id":"ce4bhg12rcd13ifvqf70","pricing_plan_id":"cebpf4jnsgd1na2vs0mg"},{"bike_id":"c5cd7456-c498-4d9b-b750-f204dabadf00","system_id":"levelo_inurba_marseille","lat":43.28476,"lon":5.38411,"is_reserved":false,"is_disabled":false,"rental_uris":{"android":"levelo://app?vid=c5cd7456-c498-4d9b-b750-f204dabadf00","ios":"levelo://app?vid=c5cd7456-c498-4d9b-b750-f204dabadf00"},"vehicle_type_id":"4","last_reported":1726762231,"current_range_meters":10800,"station_id":"ce4bh512rcd13ifvqe3g","pricing_plan_id":"cebpf4jnsgd1na2vs0mg"},{"bike_id":"b812ed7a-7f77-4759-9cd3-2059d3c68c52","system_id":"levelo_inurba_marseille","lat":43.29525,"lon":5.38538,"is_reserved":false,"is_disabled":false,"rental_uris":{"android":"levelo://app?vid=b812ed7a-7f77-4759-9cd3-2059d3c68c52","ios":"levelo://app?vid=b812ed7a-7f77-4759-9cd3-2059d3c68c52"},"vehicle_type_id":"4","last_reported":1726762231,"current_range_meters":20000,"station_id":"ce4bgih2rcd13ifvqba0","pricing_plan_id":"cebpf4jnsgd1na2vs0mg"},{"bike_id":"bb54c0de-6ad7-4094-b256-fab41f0744e0","system_id":"levelo_inurba_marseille","lat":43.31076,"lon":5.38371,"is_reserved":false,"is_disabled":false,"rental_uris":{"android":"levelo://app?vid=bb54c0de-6ad7-4094-b256-fab41f0744e0","ios":"levelo://app?vid=bb54c0de-6ad7-4094-b256-fab41f0744e0"},"vehicle_type_id":"4","last_reported":1726762231,"current_range_meters":9200,"station_id":"ce4bgv92rcd13ifvqcr0","pricing_plan_id":"cebpf4jnsgd1na2vs0mg"},{"bike_id":"c58a09e0-e27d-474f-b410-f612c6647346","system_id":"levelo_inurba_marseille","lat":43.30548,"lon":5.36694,"is_reserved":false,"is_disabled":false,"rental_uris":{"android":"levelo://app?vid=c58a09e0-e27d-474f-b410-f612c6647346","ios":"levelo://app?vid=c58a09e0-e27d-474f-b410-f612c6647346"},"vehicle_type_id":"4","last_reported":1726762231,"current_range_meters":26800,"station_id":"ce4bgrp2rcd13ifvqc9g","pricing_plan_id":"cebpf4jnsgd1na2vs0mg"},{"bike_id":"283c4eb3-d030-4754-b69c-979f606b70e9","system_id":"levelo_inurba_marseille","lat":43.28702,"lon":5.37387,"is_reserved":false,"is_disabled":false,"rental_uris":{"android":"levelo://app?vid=283c4eb3-d030-4754-b69c-979f606b70e9","ios":"levelo://app?vid=283c4eb3-d030-4754-b69c-979f606b70e9"},"vehicle_type_id":"4","last_reported":1726762231,"current_range_meters":23200,"station_id":"ce4bh3p2rcd13ifvqdq0","pricing_plan_id":"cebpf4jnsgd1na2vs0mg"},{"bike_id":"a01a4a21-dbb1-4a02-b900-30af3a75c27a","system_id":"levelo_inurba_marseille","lat":43.24652,"lon":5.38893,"is_reserved":false,"is_disabled":false,"rental_uris":{"android":"levelo://app?vid=a01a4a21-dbb1-4a02-b900-30af3a75c27a","ios":"levelo://app?vid=a01a4a21-dbb1-4a02-b900-30af3a75c27a"},"vehicle_type_id":"4","last_reported":1726762231,"current_range_meters":8400,"station_id":"ce4bhg12rcd13ifvqf60","pricing_plan_id":"cebpf4jnsgd1na2vs0mg"},{"bike_id":"f5c3d73b-d8a1-4e32-adfe-d1f25642899b","system_id":"levelo_inurba_marseille","lat":43.30148,"lon":5.3876,"is_reserved":false,"is_disabled":false,"rental_uris":{"android":"levelo://app?vid=f5c3d73b-d8a1-4e32-adfe-d1f25642899b","ios":"levelo://app?vid=f5c3d73b-d8a1-4e32-adfe-d1f25642899b"},"vehicle_type_id":"4","last_reported":1726762231,"current_range_meters":7200,"station_id":"ce4bghh2rcd13ifvqb60","pricing_plan_id":"cebpf4jnsgd1na2vs0mg"},{"bike_id":"e669bd6c-abbe-4921-ba26-9fc661d40bbb","system_id":"levelo_inurba_marseille","lat":43.30544,"lon":5.36532,"is_reserved":false,"is_disabled":false,"rental_uris":{"android":"levelo://app?vid=e669bd6c-abbe-4921-ba26-9fc661d40bbb","ios":"levelo://app?vid=e669bd6c-abbe-4921-ba26-9fc661d40bbb"},"vehicle_type_id":"4","last_reported":1726762231,"current_range_meters":34800,"station_id":"ce4bgs12rcd13ifvqcag","pricing_plan_id":"cebpf4jnsgd1na2vs0mg"},{"bike_id":"78189870-b114-4146-b75a-b46bf65a6561","system_id":"levelo_inurba_marseille","lat":43.27368,"lon":5.36247,"is_reserved":false,"is_disabled":false,"rental_uris":{"android":"levelo://app?vid=78189870-b114-4146-b75a-b46bf65a6561","ios":"levelo://app?vid=78189870-b114-4146-b75a-b46bf65a6561"},"vehicle_type_id":"4","last_reported":1726762231,"current_range_meters":26000,"station_id":"ce4bhbh2rcd13ifvqeo0","pricing_plan_id":"cebpf4jnsgd1na2vs0mg"},{"bike_id":"f2fb56ea-037c-4ad8-8f8c-ad6c611f3003","system_id":"levelo_inurba_marseille","lat":43.31543,"lon":5.38033,"is_reserved":false,"is_disabled":false,"rental_uris":{"android":"levelo://app?vid=f2fb56ea-037c-4ad8-8f8c-ad6c611f3003","ios":"levelo://app?vid=f2fb56ea-037c-4ad8-8f8c-ad6c611f3003"},"vehicle_type_id":"4","last_reported":1726762231,"current_range_meters":27600,"station_id":"ce4bhsp2rcd13ifvqi50","pricing_plan_id":"cebpf4jnsgd1na2vs0mg"},{"bike_id":"246e273b-a1d9-4f57-9ff2-d91ef7c121c6","system_id":"levelo_inurba_marseille","lat":43.31362,"lon":5.38497,"is_reserved":false,"is_disabled":false,"rental_uris":{"android":"levelo://app?vid=246e273b-a1d9-4f57-9ff2-d91ef7c121c6","ios":"levelo://app?vid=246e273b-a1d9-4f57-9ff2-d91ef7c121c6"},"vehicle_type_id":"4","last_reported":1726762231,"current_range_meters":19600,"station_id":"ce4bgt92rcd13ifvqcf0","pricing_plan_id":"cebpf4jnsgd1na2vs0mg"},{"bike_id":"8adc4fb2-aa04-4a1d-8750-368836468b36","system_id":"levelo_inurba_marseille","lat":43.330244,"lon":5.390444,"is_reserved":false,"is_disabled":false,"rental_uris":{"android":"levelo://app?vid=8adc4fb2-aa04-4a1d-8750-368836468b36","ios":"levelo://app?vid=8adc4fb2-aa04-4a1d-8750-368836468b36"},"vehicle_type_id":"4","last_reported":1726762231,"current_range_meters":22800,"station_id":"ce4bhr92rcd13ifvqhrg","pricing_plan_id":"cebpf4jnsgd1na2vs0mg"},{"bike_id":"aa237ac6-1566-4583-b3e5-6581ef543c46","system_id":"levelo_inurba_marseille","lat":43.305485,"lon":5.367005,"is_reserved":false,"is_disabled":false,"rental_uris":{"android":"levelo://app?vid=aa237ac6-1566-4583-b3e5-6581ef543c46","ios":"levelo://app?vid=aa237ac6-1566-4583-b3e5-6581ef543c46"},"vehicle_type_id":"4","last_reported":1726762231,"current_range_meters":37600,"station_id":"ce4bhjp2rcd13ifvqga0","pricing_plan_id":"cebpf4jnsgd1na2vs0mg"},{"bike_id":"15b51197-3735-4aee-a1a5-301de3d43470","system_id":"levelo_inurba_marseille","lat":43.26555,"lon":5.3728,"is_reserved":false,"is_disabled":false,"rental_uris":{"android":"levelo://app?vid=15b51197-3735-4aee-a1a5-301de3d43470","ios":"levelo://app?vid=15b51197-3735-4aee-a1a5-301de3d43470"},"vehicle_type_id":"4","last_reported":1726762231,"current_range_meters":25200,"station_id":"ce4bhg12rcd13ifvqf70","pricing_plan_id":"cebpf4jnsgd1na2vs0mg"},{"bike_id":"fb24808e-3cb1-4168-bff7-af5400702ebb","system_id":"levelo_inurba_marseille","lat":43.27616,"lon":5.3611,"is_reserved":false,"is_disabled":false,"rental_uris":{"android":"levelo://app?vid=fb24808e-3cb1-4168-bff7-af5400702ebb","ios":"levelo://app?vid=fb24808e-3cb1-4168-bff7-af5400702ebb"},"vehicle_type_id":"4","last_reported":1726762231,"current_range_meters":37600,"station_id":"ce4bgj92rcd13ifvqbe0","pricing_plan_id":"cebpf4jnsgd1na2vs0mg"},{"bike_id":"c32dc568-f10c-4010-ad55-d5f360cf461f","system_id":"levelo_inurba_marseille","lat":43.30537,"lon":5.36524,"is_reserved":false,"is_disabled":false,"rental_uris":{"android":"levelo://app?vid=c32dc568-f10c-4010-ad55-d5f360cf461f","ios":"levelo://app?vid=c32dc568-f10c-4010-ad55-d5f360cf461f"},"vehicle_type_id":"4","last_reported":1726762231,"current_range_meters":38000,"station_id":"ce4bgs12rcd13ifvqcag","pricing_plan_id":"cebpf4jnsgd1na2vs0mg"},{"bike_id":"aaeae615-2194-47c5-84e0-363507d6e824","system_id":"levelo_inurba_marseille","lat":43.32291,"lon":5.38268,"is_reserved":false,"is_disabled":false,"rental_uris":{"android":"levelo://app?vid=aaeae615-2194-47c5-84e0-363507d6e824","ios":"levelo://app?vid=aaeae615-2194-47c5-84e0-363507d6e824"},"vehicle_type_id":"4","last_reported":1726762231,"current_range_meters":25200,"station_id":"ce4bhr12rcd13ifvqhqg","pricing_plan_id":"cebpf4jnsgd1na2vs0mg"},{"bike_id":"498149d4-acab-4fc8-b3b3-bda0da3e2eab","system_id":"levelo_inurba_marseille","lat":43.31763,"lon":5.39011,"is_reserved":false,"is_disabled":false,"rental_uris":{"android":"levelo://app?vid=498149d4-acab-4fc8-b3b3-bda0da3e2eab","ios":"levelo://app?vid=498149d4-acab-4fc8-b3b3-bda0da3e2eab"},"vehicle_type_id":"4","last_reported":1726762231,"current_range_meters":7200,"station_id":"ce4bhqp2rcd13ifvqhng","pricing_plan_id":"cebpf4jnsgd1na2vs0mg"},{"bike_id":"f64a2612-1ba1-4eee-ae63-1a213f752c2d","system_id":"levelo_inurba_marseille","lat":43.29529,"lon":5.38544,"is_reserved":false,"is_disabled":false,"rental_uris":{"android":"levelo://app?vid=f64a2612-1ba1-4eee-ae63-1a213f752c2d","ios":"levelo://app?vid=f64a2612-1ba1-4eee-ae63-1a213f752c2d"},"vehicle_type_id":"4","last_reported":1726762231,"current_range_meters":25200,"station_id":"ce4bgih2rcd13ifvqba0","pricing_plan_id":"cebpf4jnsgd1na2vs0mg"},{"bike_id":"9b4a4749-10a4-40b9-9935-90a919cd5fdc","system_id":"levelo_inurba_marseille","lat":43.26211,"lon":5.37441,"is_reserved":false,"is_disabled":false,"rental_uris":{"android":"levelo://app?vid=9b4a4749-10a4-40b9-9935-90a919cd5fdc","ios":"levelo://app?vid=9b4a4749-10a4-40b9-9935-90a919cd5fdc"},"vehicle_type_id":"4","last_reported":1726762231,"current_range_meters":36000,"station_id":"ce4bhgp2rcd13ifvqfc0","pricing_plan_id":"cebpf4jnsgd1na2vs0mg"},{"bike_id":"1ea07208-1563-4fe1-a21a-971832852df4","system_id":"levelo_inurba_marseille","lat":43.33028,"lon":5.39046,"is_reserved":false,"is_disabled":false,"rental_uris":{"android":"levelo://app?vid=1ea07208-1563-4fe1-a21a-971832852df4","ios":"levelo://app?vid=1ea07208-1563-4fe1-a21a-971832852df4"},"vehicle_type_id":"4","last_reported":1726762231,"current_range_meters":28800,"station_id":"ce4bhr92rcd13ifvqhrg","pricing_plan_id":"cebpf4jnsgd1na2vs0mg"},{"bike_id":"31e454cb-9d59-4375-ab64-1fbf39c22a43","system_id":"levelo_inurba_marseille","lat":43.28458,"lon":5.35892,"is_reserved":false,"is_disabled":false,"rental_uris":{"android":"levelo://app?vid=31e454cb-9d59-4375-ab64-1fbf39c22a43","ios":"levelo://app?vid=31e454cb-9d59-4375-ab64-1fbf39c22a43"},"vehicle_type_id":"4","last_reported":1726762231,"current_range_meters":26000,"station_id":"ce4bhah2rcd13ifvqei0","pricing_plan_id":"cebpf4jnsgd1na2vs0mg"},{"bike_id":"6d9e1f77-61e5-4713-83c6-19f19ef780c4","system_id":"levelo_inurba_marseille","lat":43.29515,"lon":5.37507,"is_reserved":false,"is_disabled":false,"rental_uris":{"android":"levelo://app?vid=6d9e1f77-61e5-4713-83c6-19f19ef780c4","ios":"levelo://app?vid=6d9e1f77-61e5-4713-83c6-19f19ef780c4"},"vehicle_type_id":"4","last_reported":1726762231,"current_range_meters":26800,"station_id":"ce4bgkp2rcd13ifvqbmg","pricing_plan_id":"cebpf4jnsgd1na2vs0mg"},{"bike_id":"1d3b47bd-fee8-492b-9454-cfd096b53b68","system_id":"levelo_inurba_marseille","lat":43.30531,"lon":5.36543,"is_reserved":false,"is_disabled":false,"rental_uris":{"android":"levelo://app?vid=1d3b47bd-fee8-492b-9454-cfd096b53b68","ios":"levelo://app?vid=1d3b47bd-fee8-492b-9454-cfd096b53b68"},"vehicle_type_id":"4","last_reported":1726762231,"current_range_meters":32000,"station_id":"ce4bgs12rcd13ifvqcag","pricing_plan_id":"cebpf4jnsgd1na2vs0mg"},{"bike_id":"92706b24-1d9c-413f-a3c6-1aeb8dcbf369","system_id":"levelo_inurba_marseille","lat":43.2621,"lon":5.37931,"is_reserved":false,"is_disabled":false,"rental_uris":{"android":"levelo://app?vid=92706b24-1d9c-413f-a3c6-1aeb8dcbf369","ios":"levelo://app?vid=92706b24-1d9c-413f-a3c6-1aeb8dcbf369"},"vehicle_type_id":"4","last_reported":1726762231,"current_range_meters":34000,"station_id":"ce4bhjp2rcd13ifvqg90","pricing_plan_id":"cebpf4jnsgd1na2vs0mg"},{"bike_id":"fb56f3f6-c0a4-49a2-921f-a43bc28e2422","system_id":"levelo_inurba_marseille","lat":43.29369,"lon":5.3786,"is_reserved":false,"is_disabled":false,"rental_uris":{"android":"levelo://app?vid=fb56f3f6-c0a4-49a2-921f-a43bc28e2422","ios":"levelo://app?vid=fb56f3f6-c0a4-49a2-921f-a43bc28e2422"},"vehicle_type_id":"4","last_reported":1726762231,"current_range_meters":14000,"station_id":"ce4bgjh2rcd13ifvqbf0","pricing_plan_id":"cebpf4jnsgd1na2vs0mg"},{"bike_id":"f3f65950-da0c-4146-bc34-bac5e46e08f6","system_id":"levelo_inurba_marseille","lat":43.29519,"lon":5.37499,"is_reserved":false,"is_disabled":false,"rental_uris":{"android":"levelo://app?vid=f3f65950-da0c-4146-bc34-bac5e46e08f6","ios":"levelo://app?vid=f3f65950-da0c-4146-bc34-bac5e46e08f6"},"vehicle_type_id":"4","last_reported":1726762231,"current_range_meters":38400,"station_id":"ce4bgkp2rcd13ifvqbmg","pricing_plan_id":"cebpf4jnsgd1na2vs0mg"},{"bike_id":"fcd868b4-ba82-4e13-932e-0f4118808294","system_id":"levelo_inurba_marseille","lat":43.23196,"lon":5.35556,"is_reserved":false,"is_disabled":false,"rental_uris":{"android":"levelo://app?vid=fcd868b4-ba82-4e13-932e-0f4118808294","ios":"levelo://app?vid=fcd868b4-ba82-4e13-932e-0f4118808294"},"vehicle_type_id":"4","last_reported":1726762231,"current_range_meters":38800,"station_id":"ce4bhu92rcd13ifvqi70","pricing_plan_id":"cebpf4jnsgd1na2vs0mg"},{"bike_id":"77bb104f-7eb8-43ba-8175-262e29c438ce","system_id":"levelo_inurba_marseille","lat":43.3033,"lon":5.40443,"is_reserved":false,"is_disabled":false,"rental_uris":{"android":"levelo://app?vid=77bb104f-7eb8-43ba-8175-262e29c438ce","ios":"levelo://app?vid=77bb104f-7eb8-43ba-8175-262e29c438ce"},"vehicle_type_id":"4","last_reported":1726762231,"current_range_meters":38800,"station_id":"ce4bh012rcd13ifvqd10","pricing_plan_id":"cebpf4jnsgd1na2vs0mg"},{"bike_id":"f9acff57-1a1a-41c5-aaee-b0f9f9ef835f","system_id":"levelo_inurba_marseille","lat":43.29565,"lon":5.3753,"is_reserved":false,"is_disabled":false,"rental_uris":{"android":"levelo://app?vid=f9acff57-1a1a-41c5-aaee-b0f9f9ef835f","ios":"levelo://app?vid=f9acff57-1a1a-41c5-aaee-b0f9f9ef835f"},"vehicle_type_id":"4","last_reported":1726762231,"current_range_meters":24800,"station_id":"ce4bgh92rcd13ifvqb50","pricing_plan_id":"cebpf4jnsgd1na2vs0mg"},{"bike_id":"bd56da0e-5c4c-4230-9c3e-33756e157c86","system_id":"levelo_inurba_marseille","lat":43.29963,"lon":5.41325,"is_reserved":false,"is_disabled":false,"rental_uris":{"android":"levelo://app?vid=bd56da0e-5c4c-4230-9c3e-33756e157c86","ios":"levelo://app?vid=bd56da0e-5c4c-4230-9c3e-33756e157c86"},"vehicle_type_id":"4","last_reported":1726762231,"current_range_meters":16400,"station_id":"ce4bhp12rcd13ifvqh9g","pricing_plan_id":"cebpf4jnsgd1na2vs0mg"},{"bike_id":"c1137890-c747-42ed-80de-3544e09c9861","system_id":"levelo_inurba_marseille","lat":43.31085,"lon":5.42432,"is_reserved":false,"is_disabled":false,"rental_uris":{"android":"levelo://app?vid=c1137890-c747-42ed-80de-3544e09c9861","ios":"levelo://app?vid=c1137890-c747-42ed-80de-3544e09c9861"},"vehicle_type_id":"4","last_reported":1726762231,"current_range_meters":26800,"station_id":"ce4bhp92rcd13ifvqhag","pricing_plan_id":"cebpf4jnsgd1na2vs0mg"},{"bike_id":"4fa0ca0d-342c-4cd6-990b-f5e4ae40db2b","system_id":"levelo_inurba_marseille","lat":43.29966,"lon":5.41332,"is_reserved":false,"is_disabled":false,"rental_uris":{"android":"levelo://app?vid=4fa0ca0d-342c-4cd6-990b-f5e4ae40db2b","ios":"levelo://app?vid=4fa0ca0d-342c-4cd6-990b-f5e4ae40db2b"},"vehicle_type_id":"4","last_reported":1726762231,"current_range_meters":38800,"station_id":"ce4bhp12rcd13ifvqh9g","pricing_plan_id":"cebpf4jnsgd1na2vs0mg"},{"bike_id":"1b297945-7c8a-4e0e-b2c4-bc43a6c00be3","system_id":"levelo_inurba_marseille","lat":43.24649,"lon":5.388916,"is_reserved":false,"is_disabled":false,"rental_uris":{"android":"levelo://app?vid=1b297945-7c8a-4e0e-b2c4-bc43a6c00be3","ios":"levelo://app?vid=1b297945-7c8a-4e0e-b2c4-bc43a6c00be3"},"vehicle_type_id":"4","last_reported":1726762231,"current_range_meters":12800,"station_id":"ce4bhg12rcd13ifvqf60","pricing_plan_id":"cebpf4jnsgd1na2vs0mg"},{"bike_id":"a22866e3-141f-4b1c-8d6b-09e91b36870c","system_id":"levelo_inurba_marseille","lat":43.28361,"lon":5.38098,"is_reserved":false,"is_disabled":false,"rental_uris":{"android":"levelo://app?vid=a22866e3-141f-4b1c-8d6b-09e91b36870c","ios":"levelo://app?vid=a22866e3-141f-4b1c-8d6b-09e91b36870c"},"vehicle_type_id":"4","last_reported":1726762231,"current_range_meters":34000,"station_id":"ce4bh412rcd13ifvqdr0","pricing_plan_id":"cebpf4jnsgd1na2vs0mg"},{"bike_id":"42a53ba1-3670-4516-addc-ffe001720501","system_id":"levelo_inurba_marseille","lat":43.26652,"lon":5.39482,"is_reserved":false,"is_disabled":false,"rental_uris":{"android":"levelo://app?vid=42a53ba1-3670-4516-addc-ffe001720501","ios":"levelo://app?vid=42a53ba1-3670-4516-addc-ffe001720501"},"vehicle_type_id":"4","last_reported":1726762231,"current_range_meters":22000,"station_id":"","pricing_plan_id":"cebpf4jnsgd1na2vs0mg"},{"bike_id":"8cec0694-5753-4a2d-b633-441d0154d25f","system_id":"levelo_inurba_marseille","lat":43.29279,"lon":5.3844,"is_reserved":false,"is_disabled":false,"rental_uris":{"android":"levelo://app?vid=8cec0694-5753-4a2d-b633-441d0154d25f","ios":"levelo://app?vid=8cec0694-5753-4a2d-b633-441d0154d25f"},"vehicle_type_id":"4","last_reported":1726762231,"current_range_meters":0,"station_id":"ce4bh692rcd13ifvqea0","pricing_plan_id":"cebpf4jnsgd1na2vs0mg"},{"bike_id":"f0360181-c6a2-448e-a3d6-5969455ea861","system_id":"levelo_inurba_marseille","lat":43.29578,"lon":5.36736,"is_reserved":false,"is_disabled":false,"rental_uris":{"android":"levelo://app?vid=f0360181-c6a2-448e-a3d6-5969455ea861","ios":"levelo://app?vid=f0360181-c6a2-448e-a3d6-5969455ea861"},"vehicle_type_id":"4","last_reported":1726762231,"current_range_meters":30000,"station_id":"ce4bgph2rcd13ifvqc2g","pricing_plan_id":"cebpf4jnsgd1na2vs0mg"},{"bike_id":"7a8bbe88-8aec-4d3a-9d08-8e3914c01aae","system_id":"levelo_inurba_marseille","lat":43.29261,"lon":5.40908,"is_reserved":false,"is_disabled":false,"rental_uris":{"android":"levelo://app?vid=7a8bbe88-8aec-4d3a-9d08-8e3914c01aae","ios":"levelo://app?vid=7a8bbe88-8aec-4d3a-9d08-8e3914c01aae"},"vehicle_type_id":"4","last_reported":1726762231,"current_range_meters":2000,"station_id":"ce4bh192rcd13ifvqdc0","pricing_plan_id":"cebpf4jnsgd1na2vs0mg"},{"bike_id":"5705acbc-d503-4f36-a9f5-13b5f18aa34d","system_id":"levelo_inurba_marseille","lat":43.23964,"lon":5.3662,"is_reserved":false,"is_disabled":false,"rental_uris":{"android":"levelo://app?vid=5705acbc-d503-4f36-a9f5-13b5f18aa34d","ios":"levelo://app?vid=5705acbc-d503-4f36-a9f5-13b5f18aa34d"},"vehicle_type_id":"4","last_reported":1726762231,"current_range_meters":38400,"station_id":"ce4bhi12rcd13ifvqfp0","pricing_plan_id":"cebpf4jnsgd1na2vs0mg"},{"bike_id":"3b1cc003-9692-4283-9e4a-c0c431eec5b6","system_id":"levelo_inurba_marseille","lat":43.2988,"lon":5.38906,"is_reserved":false,"is_disabled":false,"rental_uris":{"android":"levelo://app?vid=3b1cc003-9692-4283-9e4a-c0c431eec5b6","ios":"levelo://app?vid=3b1cc003-9692-4283-9e4a-c0c431eec5b6"},"vehicle_type_id":"4","last_reported":1726762231,"current_range_meters":26800,"station_id":"ce4bh392rcd13ifvqdl0","pricing_plan_id":"cebpf4jnsgd1na2vs0mg"},{"bike_id":"c3bb4612-87eb-4ce3-ab7b-34b622241b99","system_id":"levelo_inurba_marseille","lat":43.302002,"lon":5.394429,"is_reserved":false,"is_disabled":false,"rental_uris":{"android":"levelo://app?vid=c3bb4612-87eb-4ce3-ab7b-34b622241b99","ios":"levelo://app?vid=c3bb4612-87eb-4ce3-ab7b-34b622241b99"},"vehicle_type_id":"4","last_reported":1726762231,"current_range_meters":36400,"station_id":"ce4bh0p2rcd13ifvqd70","pricing_plan_id":"cebpf4jnsgd1na2vs0mg"},{"bike_id":"3450e49a-3810-4469-8f17-4407126f60e1","system_id":"levelo_inurba_marseille","lat":43.27536,"lon":5.42621,"is_reserved":false,"is_disabled":false,"rental_uris":{"android":"levelo://app?vid=3450e49a-3810-4469-8f17-4407126f60e1","ios":"levelo://app?vid=3450e49a-3810-4469-8f17-4407126f60e1"},"vehicle_type_id":"4","last_reported":1726762231,"current_range_meters":3200,"station_id":"","pricing_plan_id":"cebpf4jnsgd1na2vs0mg"},{"bike_id":"7b9dd459-340b-4978-bfb0-6c163a5263e8","system_id":"levelo_inurba_marseille","lat":43.23195,"lon":5.35547,"is_reserved":false,"is_disabled":false,"rental_uris":{"android":"levelo://app?vid=7b9dd459-340b-4978-bfb0-6c163a5263e8","ios":"levelo://app?vid=7b9dd459-340b-4978-bfb0-6c163a5263e8"},"vehicle_type_id":"4","last_reported":1726762231,"current_range_meters":38800,"station_id":"ce4bhu92rcd13ifvqi70","pricing_plan_id":"cebpf4jnsgd1na2vs0mg"},{"bike_id":"cd8b2533-9628-47af-a4d2-168a9a46de98","system_id":"levelo_inurba_marseille","lat":43.31499,"lon":5.37313,"is_reserved":false,"is_disabled":false,"rental_uris":{"android":"levelo://app?vid=cd8b2533-9628-47af-a4d2-168a9a46de98","ios":"levelo://app?vid=cd8b2533-9628-47af-a4d2-168a9a46de98"},"vehicle_type_id":"4","last_reported":1726762231,"current_range_meters":19600,"station_id":"ce4bgt12rcd13ifvqcd0","pricing_plan_id":"cebpf4jnsgd1na2vs0mg"},{"bike_id":"a9f2b484-4710-4072-a5ec-9f2e4e8e1398","system_id":"levelo_inurba_marseille","lat":43.30412,"lon":5.41283,"is_reserved":false,"is_disabled":false,"rental_uris":{"android":"levelo://app?vid=a9f2b484-4710-4072-a5ec-9f2e4e8e1398","ios":"levelo://app?vid=a9f2b484-4710-4072-a5ec-9f2e4e8e1398"},"vehicle_type_id":"4","last_reported":1726762231,"current_range_meters":6800,"station_id":"ce4bhop2rcd13ifvqh8g","pricing_plan_id":"cebpf4jnsgd1na2vs0mg"},{"bike_id":"562f457a-aa29-4b68-a448-6fa3f2de5b36","system_id":"levelo_inurba_marseille","lat":43.23051,"lon":5.35487,"is_reserved":false,"is_disabled":false,"rental_uris":{"android":"levelo://app?vid=562f457a-aa29-4b68-a448-6fa3f2de5b36","ios":"levelo://app?vid=562f457a-aa29-4b68-a448-6fa3f2de5b36"},"vehicle_type_id":"4","last_reported":1726762231,"current_range_meters":36800,"station_id":"cpo3342slgdg3j2ifvpg","pricing_plan_id":"cebpf4jnsgd1na2vs0mg"},{"bike_id":"ce143dd8-0cd9-4934-ac0b-6fe09fae5359","system_id":"levelo_inurba_marseille","lat":43.25581,"lon":5.38228,"is_reserved":false,"is_disabled":false,"rental_uris":{"android":"levelo://app?vid=ce143dd8-0cd9-4934-ac0b-6fe09fae5359","ios":"levelo://app?vid=ce143dd8-0cd9-4934-ac0b-6fe09fae5359"},"vehicle_type_id":"4","last_reported":1726762231,"current_range_meters":23200,"station_id":"ce4bhih2rcd13ifvqfs0","pricing_plan_id":"cebpf4jnsgd1na2vs0mg"},{"bike_id":"b0360846-c9a6-4216-96f4-4bdf19368f93","system_id":"levelo_inurba_marseille","lat":43.25119,"lon":5.40316,"is_reserved":false,"is_disabled":false,"rental_uris":{"android":"levelo://app?vid=b0360846-c9a6-4216-96f4-4bdf19368f93","ios":"levelo://app?vid=b0360846-c9a6-4216-96f4-4bdf19368f93"},"vehicle_type_id":"4","last_reported":1726762231,"current_range_meters":28800,"station_id":"ce4bhlh2rcd13ifvqgig","pricing_plan_id":"cebpf4jnsgd1na2vs0mg"},{"bike_id":"4cc572f9-41df-45b8-9e85-bed4269ffad2","system_id":"levelo_inurba_marseille","lat":43.33025,"lon":5.39035,"is_reserved":false,"is_disabled":false,"rental_uris":{"android":"levelo://app?vid=4cc572f9-41df-45b8-9e85-bed4269ffad2","ios":"levelo://app?vid=4cc572f9-41df-45b8-9e85-bed4269ffad2"},"vehicle_type_id":"4","last_reported":1726762231,"current_range_meters":8000,"station_id":"ce4bhr92rcd13ifvqhrg","pricing_plan_id":"cebpf4jnsgd1na2vs0mg"},{"bike_id":"1319ed6d-a1f9-484a-9b5e-d29f4cfa34ce","system_id":"levelo_inurba_marseille","lat":43.29029,"lon":5.39965,"is_reserved":false,"is_disabled":false,"rental_uris":{"android":"levelo://app?vid=1319ed6d-a1f9-484a-9b5e-d29f4cfa34ce","ios":"levelo://app?vid=1319ed6d-a1f9-484a-9b5e-d29f4cfa34ce"},"vehicle_type_id":"4","last_reported":1726762231,"current_range_meters":36800,"station_id":"ce4bh392rcd13ifvqdm0","pricing_plan_id":"cebpf4jnsgd1na2vs0mg"},{"bike_id":"b6d36420-b26c-42b4-a16a-ada2d6d760b7","system_id":"levelo_inurba_marseille","lat":43.23063,"lon":5.3549,"is_reserved":false,"is_disabled":false,"rental_uris":{"android":"levelo://app?vid=b6d36420-b26c-42b4-a16a-ada2d6d760b7","ios":"levelo://app?vid=b6d36420-b26c-42b4-a16a-ada2d6d760b7"},"vehicle_type_id":"4","last_reported":1726762231,"current_range_meters":37600,"station_id":"cpo3342slgdg3j2ifvpg","pricing_plan_id":"cebpf4jnsgd1na2vs0mg"},{"bike_id":"9067796f-bbca-4343-8495-857f562cd69a","system_id":"levelo_inurba_marseille","lat":43.2481,"lon":5.37459,"is_reserved":false,"is_disabled":false,"rental_uris":{"android":"levelo://app?vid=9067796f-bbca-4343-8495-857f562cd69a","ios":"levelo://app?vid=9067796f-bbca-4343-8495-857f562cd69a"},"vehicle_type_id":"4","last_reported":1726762231,"current_range_meters":24000,"station_id":"ce4bhgh2rcd13ifvqfb0","pricing_plan_id":"cebpf4jnsgd1na2vs0mg"},{"bike_id":"c3de940e-f539-41f6-b632-60d1d8636341","system_id":"levelo_inurba_marseille","lat":43.25498,"lon":5.376491,"is_reserved":false,"is_disabled":false,"rental_uris":{"android":"levelo://app?vid=c3de940e-f539-41f6-b632-60d1d8636341","ios":"levelo://app?vid=c3de940e-f539-41f6-b632-60d1d8636341"},"vehicle_type_id":"4","last_reported":1726762231,"current_range_meters":16800,"station_id":"ce4bhh12rcd13ifvqff0","pricing_plan_id":"cebpf4jnsgd1na2vs0mg"},{"bike_id":"b0154446-30b1-4374-bfef-f6974c90099e","system_id":"levelo_inurba_marseille","lat":43.30549,"lon":5.36705,"is_reserved":false,"is_disabled":false,"rental_uris":{"android":"levelo://app?vid=b0154446-30b1-4374-bfef-f6974c90099e","ios":"levelo://app?vid=b0154446-30b1-4374-bfef-f6974c90099e"},"vehicle_type_id":"4","last_reported":1726762231,"current_range_meters":38800,"station_id":"ce4bgrp2rcd13ifvqc9g","pricing_plan_id":"cebpf4jnsgd1na2vs0mg"},{"bike_id":"aa55d8db-1e46-46ec-b2f2-aee0a84eb7b8","system_id":"levelo_inurba_marseille","lat":43.3059,"lon":5.3936,"is_reserved":false,"is_disabled":false,"rental_uris":{"android":"levelo://app?vid=aa55d8db-1e46-46ec-b2f2-aee0a84eb7b8","ios":"levelo://app?vid=aa55d8db-1e46-46ec-b2f2-aee0a84eb7b8"},"vehicle_type_id":"4","last_reported":1726762231,"current_range_meters":28400,"station_id":"ce4bh0p2rcd13ifvqd80","pricing_plan_id":"cebpf4jnsgd1na2vs0mg"},{"bike_id":"902190e7-1fe9-4270-9546-498dac581307","system_id":"levelo_inurba_marseille","lat":43.28008,"lon":5.40598,"is_reserved":false,"is_disabled":false,"rental_uris":{"android":"levelo://app?vid=902190e7-1fe9-4270-9546-498dac581307","ios":"levelo://app?vid=902190e7-1fe9-4270-9546-498dac581307"},"vehicle_type_id":"4","last_reported":1726762231,"current_range_meters":36000,"station_id":"","pricing_plan_id":"cebpf4jnsgd1na2vs0mg"},{"bike_id":"804b3646-259f-4a84-a03f-2f262500c2a5","system_id":"levelo_inurba_marseille","lat":43.31756,"lon":5.39014,"is_reserved":false,"is_disabled":false,"rental_uris":{"android":"levelo://app?vid=804b3646-259f-4a84-a03f-2f262500c2a5","ios":"levelo://app?vid=804b3646-259f-4a84-a03f-2f262500c2a5"},"vehicle_type_id":"4","last_reported":1726762231,"current_range_meters":38800,"station_id":"ce4bhqp2rcd13ifvqhng","pricing_plan_id":"cebpf4jnsgd1na2vs0mg"},{"bike_id":"6f2b60c4-292a-45ef-b9a3-bad241acd711","system_id":"levelo_inurba_marseille","lat":43.28658,"lon":5.36359,"is_reserved":false,"is_disabled":false,"rental_uris":{"android":"levelo://app?vid=6f2b60c4-292a-45ef-b9a3-bad241acd711","ios":"levelo://app?vid=6f2b60c4-292a-45ef-b9a3-bad241acd711"},"vehicle_type_id":"4","last_reported":1726762231,"current_range_meters":10800,"station_id":"ce4bhah2rcd13ifvqej0","pricing_plan_id":"cebpf4jnsgd1na2vs0mg"},{"bike_id":"5d2a1523-9c7a-415c-88cb-dab20c3db52c","system_id":"levelo_inurba_marseille","lat":43.31326,"lon":5.39692,"is_reserved":false,"is_disabled":false,"rental_uris":{"android":"levelo://app?vid=5d2a1523-9c7a-415c-88cb-dab20c3db52c","ios":"levelo://app?vid=5d2a1523-9c7a-415c-88cb-dab20c3db52c"},"vehicle_type_id":"4","last_reported":1726762231,"current_range_meters":33200,"station_id":"ce4bgvp2rcd13ifvqcu0","pricing_plan_id":"cebpf4jnsgd1na2vs0mg"},{"bike_id":"2649a3a7-9af5-4882-bda8-273100efa885","system_id":"levelo_inurba_marseille","lat":43.25104,"lon":5.40323,"is_reserved":false,"is_disabled":false,"rental_uris":{"android":"levelo://app?vid=2649a3a7-9af5-4882-bda8-273100efa885","ios":"levelo://app?vid=2649a3a7-9af5-4882-bda8-273100efa885"},"vehicle_type_id":"4","last_reported":1726762231,"current_range_meters":19600,"station_id":"ce4bhlh2rcd13ifvqgig","pricing_plan_id":"cebpf4jnsgd1na2vs0mg"},{"bike_id":"ed086b71-a08b-493a-a02b-bcab997a66c2","system_id":"levelo_inurba_marseille","lat":43.30211,"lon":5.39459,"is_reserved":false,"is_disabled":false,"rental_uris":{"android":"levelo://app?vid=ed086b71-a08b-493a-a02b-bcab997a66c2","ios":"levelo://app?vid=ed086b71-a08b-493a-a02b-bcab997a66c2"},"vehicle_type_id":"4","last_reported":1726762231,"current_range_meters":36000,"station_id":"ce4bh0p2rcd13ifvqd70","pricing_plan_id":"cebpf4jnsgd1na2vs0mg"},{"bike_id":"db5bed51-afb9-4548-98e9-7b7ae226c501","system_id":"levelo_inurba_marseille","lat":43.33756,"lon":5.37453,"is_reserved":false,"is_disabled":false,"rental_uris":{"android":"levelo://app?vid=db5bed51-afb9-4548-98e9-7b7ae226c501","ios":"levelo://app?vid=db5bed51-afb9-4548-98e9-7b7ae226c501"},"vehicle_type_id":"4","last_reported":1726762231,"current_range_meters":20800,"station_id":"","pricing_plan_id":"cebpf4jnsgd1na2vs0mg"},{"bike_id":"1c57cef5-da5b-470c-8d7e-d1c43bb83ab9","system_id":"levelo_inurba_marseille","lat":43.30249,"lon":5.40057,"is_reserved":false,"is_disabled":false,"rental_uris":{"android":"levelo://app?vid=1c57cef5-da5b-470c-8d7e-d1c43bb83ab9","ios":"levelo://app?vid=1c57cef5-da5b-470c-8d7e-d1c43bb83ab9"},"vehicle_type_id":"4","last_reported":1726762231,"current_range_meters":7200,"station_id":"ce4bgvh2rcd13ifvqcs0","pricing_plan_id":"cebpf4jnsgd1na2vs0mg"},{"bike_id":"7a34d43a-466e-43a0-bb66-c07047a3e85e","system_id":"levelo_inurba_marseille","lat":43.29255,"lon":5.40913,"is_reserved":false,"is_disabled":false,"rental_uris":{"android":"levelo://app?vid=7a34d43a-466e-43a0-bb66-c07047a3e85e","ios":"levelo://app?vid=7a34d43a-466e-43a0-bb66-c07047a3e85e"},"vehicle_type_id":"4","last_reported":1726762231,"current_range_meters":36400,"station_id":"ce4bh192rcd13ifvqdc0","pricing_plan_id":"cebpf4jnsgd1na2vs0mg"},{"bike_id":"c690f53d-4ecb-407c-93b0-7c806dae5289","system_id":"levelo_inurba_marseille","lat":43.309,"lon":5.37191,"is_reserved":false,"is_disabled":false,"rental_uris":{"android":"levelo://app?vid=c690f53d-4ecb-407c-93b0-7c806dae5289","ios":"levelo://app?vid=c690f53d-4ecb-407c-93b0-7c806dae5289"},"vehicle_type_id":"4","last_reported":1726762231,"current_range_meters":7200,"station_id":"ce4bguh2rcd13ifvqckg","pricing_plan_id":"cebpf4jnsgd1na2vs0mg"},{"bike_id":"69399783-5eae-4af9-ae4b-1495b2d249b1","system_id":"levelo_inurba_marseille","lat":43.24167,"lon":5.36391,"is_reserved":false,"is_disabled":false,"rental_uris":{"android":"levelo://app?vid=69399783-5eae-4af9-ae4b-1495b2d249b1","ios":"levelo://app?vid=69399783-5eae-4af9-ae4b-1495b2d249b1"},"vehicle_type_id":"4","last_reported":1726762231,"current_range_meters":32400,"station_id":"cpo36qri1sfpv3e86is0","pricing_plan_id":"cebpf4jnsgd1na2vs0mg"},{"bike_id":"00c2fe33-bc88-474e-82d4-11391c7e13e0","system_id":"levelo_inurba_marseille","lat":43.29529,"lon":5.39419,"is_reserved":false,"is_disabled":false,"rental_uris":{"android":"levelo://app?vid=00c2fe33-bc88-474e-82d4-11391c7e13e0","ios":"levelo://app?vid=00c2fe33-bc88-474e-82d4-11391c7e13e0"},"vehicle_type_id":"4","last_reported":1726762231,"current_range_meters":5600,"station_id":"ce4bh292rcd13ifvqdf0","pricing_plan_id":"cebpf4jnsgd1na2vs0mg"},{"bike_id":"fd75426b-0e96-48da-b6ce-2b8b120cdd08","system_id":"levelo_inurba_marseille","lat":43.29536,"lon":5.394,"is_reserved":false,"is_disabled":false,"rental_uris":{"android":"levelo://app?vid=fd75426b-0e96-48da-b6ce-2b8b120cdd08","ios":"levelo://app?vid=fd75426b-0e96-48da-b6ce-2b8b120cdd08"},"vehicle_type_id":"4","last_reported":1726762231,"current_range_meters":19200,"station_id":"ce4bh292rcd13ifvqdf0","pricing_plan_id":"cebpf4jnsgd1na2vs0mg"},{"bike_id":"1ea00979-3861-4145-b43d-7975e348f63b","system_id":"levelo_inurba_marseille","lat":43.3065,"lon":5.40086,"is_reserved":false,"is_disabled":false,"rental_uris":{"android":"levelo://app?vid=1ea00979-3861-4145-b43d-7975e348f63b","ios":"levelo://app?vid=1ea00979-3861-4145-b43d-7975e348f63b"},"vehicle_type_id":"4","last_reported":1726762231,"current_range_meters":19200,"station_id":"ce4bh112rcd13ifvqda0","pricing_plan_id":"cebpf4jnsgd1na2vs0mg"},{"bike_id":"cf22b7b1-30e6-4766-a06c-1fd06b1578cb","system_id":"levelo_inurba_marseille","lat":43.28938,"lon":5.36634,"is_reserved":false,"is_disabled":false,"rental_uris":{"android":"levelo://app?vid=cf22b7b1-30e6-4766-a06c-1fd06b1578cb","ios":"levelo://app?vid=cf22b7b1-30e6-4766-a06c-1fd06b1578cb"},"vehicle_type_id":"4","last_reported":1726762231,"current_range_meters":26000,"station_id":"ce4bhap2rcd13ifvqek0","pricing_plan_id":"cebpf4jnsgd1na2vs0mg"},{"bike_id":"d8f0b5ed-65b7-42da-8474-b44b658a7fac","system_id":"levelo_inurba_marseille","lat":43.29263,"lon":5.38453,"is_reserved":false,"is_disabled":false,"rental_uris":{"android":"levelo://app?vid=d8f0b5ed-65b7-42da-8474-b44b658a7fac","ios":"levelo://app?vid=d8f0b5ed-65b7-42da-8474-b44b658a7fac"},"vehicle_type_id":"4","last_reported":1726762231,"current_range_meters":24000,"station_id":"ce4bh692rcd13ifvqea0","pricing_plan_id":"cebpf4jnsgd1na2vs0mg"},{"bike_id":"58014cc6-4f39-4119-a8a0-cdc0e2507820","system_id":"levelo_inurba_marseille","lat":43.32289,"lon":5.3827,"is_reserved":false,"is_disabled":false,"rental_uris":{"android":"levelo://app?vid=58014cc6-4f39-4119-a8a0-cdc0e2507820","ios":"levelo://app?vid=58014cc6-4f39-4119-a8a0-cdc0e2507820"},"vehicle_type_id":"4","last_reported":1726762231,"current_range_meters":38800,"station_id":"ce4bhr12rcd13ifvqhqg","pricing_plan_id":"cebpf4jnsgd1na2vs0mg"},{"bike_id":"5d6c88fc-efc8-4249-8c5b-89110d08e918","system_id":"levelo_inurba_marseille","lat":43.30208,"lon":5.39467,"is_reserved":false,"is_disabled":false,"rental_uris":{"android":"levelo://app?vid=5d6c88fc-efc8-4249-8c5b-89110d08e918","ios":"levelo://app?vid=5d6c88fc-efc8-4249-8c5b-89110d08e918"},"vehicle_type_id":"4","last_reported":1726762231,"current_range_meters":38800,"station_id":"ce4bh0p2rcd13ifvqd70","pricing_plan_id":"cebpf4jnsgd1na2vs0mg"},{"bike_id":"bd02ec45-c171-4841-bc93-51ed71a9b811","system_id":"levelo_inurba_marseille","lat":43.31226,"lon":5.36859,"is_reserved":false,"is_disabled":false,"rental_uris":{"android":"levelo://app?vid=bd02ec45-c171-4841-bc93-51ed71a9b811","ios":"levelo://app?vid=bd02ec45-c171-4841-bc93-51ed71a9b811"},"vehicle_type_id":"4","last_reported":1726762231,"current_range_meters":22800,"station_id":"ce4bgl92rcd13ifvqbq0","pricing_plan_id":"cebpf4jnsgd1na2vs0mg"},{"bike_id":"bce83964-771d-421d-a795-c2b376c5b9dc","system_id":"levelo_inurba_marseille","lat":43.23188,"lon":5.35552,"is_reserved":false,"is_disabled":false,"rental_uris":{"android":"levelo://app?vid=bce83964-771d-421d-a795-c2b376c5b9dc","ios":"levelo://app?vid=bce83964-771d-421d-a795-c2b376c5b9dc"},"vehicle_type_id":"4","last_reported":1726762231,"current_range_meters":19200,"station_id":"ce4bhu92rcd13ifvqi70","pricing_plan_id":"cebpf4jnsgd1na2vs0mg"},{"bike_id":"96776dbc-18dc-4a34-bd8f-3bbca12398c1","system_id":"levelo_inurba_marseille","lat":43.32339,"lon":5.40621,"is_reserved":false,"is_disabled":false,"rental_uris":{"android":"levelo://app?vid=96776dbc-18dc-4a34-bd8f-3bbca12398c1","ios":"levelo://app?vid=96776dbc-18dc-4a34-bd8f-3bbca12398c1"},"vehicle_type_id":"4","last_reported":1726762231,"current_range_meters":4400,"station_id":"ce4bhq92rcd13ifvqhjg","pricing_plan_id":"cebpf4jnsgd1na2vs0mg"},{"bike_id":"f7cbb25a-4844-4c93-85ef-dcacc64050e9","system_id":"levelo_inurba_marseille","lat":43.26199,"lon":5.37454,"is_reserved":false,"is_disabled":false,"rental_uris":{"android":"levelo://app?vid=f7cbb25a-4844-4c93-85ef-dcacc64050e9","ios":"levelo://app?vid=f7cbb25a-4844-4c93-85ef-dcacc64050e9"},"vehicle_type_id":"4","last_reported":1726762231,"current_range_meters":26800,"station_id":"ce4bhgp2rcd13ifvqfc0","pricing_plan_id":"cebpf4jnsgd1na2vs0mg"},{"bike_id":"aff3f781-0b85-4632-b931-41379274a64a","system_id":"levelo_inurba_marseille","lat":43.28848,"lon":5.35857,"is_reserved":false,"is_disabled":false,"rental_uris":{"android":"levelo://app?vid=aff3f781-0b85-4632-b931-41379274a64a","ios":"levelo://app?vid=aff3f781-0b85-4632-b931-41379274a64a"},"vehicle_type_id":"4","last_reported":1726762231,"current_range_meters":38000,"station_id":"ce4bhb12rcd13ifvqem0","pricing_plan_id":"cebpf4jnsgd1na2vs0mg"},{"bike_id":"5c643d73-df91-4773-be66-12c4b540fa63","system_id":"levelo_inurba_marseille","lat":43.32364,"lon":5.38879,"is_reserved":false,"is_disabled":false,"rental_uris":{"android":"levelo://app?vid=5c643d73-df91-4773-be66-12c4b540fa63","ios":"levelo://app?vid=5c643d73-df91-4773-be66-12c4b540fa63"},"vehicle_type_id":"4","last_reported":1726762231,"current_range_meters":35200,"station_id":"ce4bhqp2rcd13ifvqhog","pricing_plan_id":"cebpf4jnsgd1na2vs0mg"},{"bike_id":"19212f0b-77c0-4046-9f6a-0fd27f910346","system_id":"levelo_inurba_marseille","lat":43.299622,"lon":5.384903,"is_reserved":false,"is_disabled":false,"rental_uris":{"android":"levelo://app?vid=19212f0b-77c0-4046-9f6a-0fd27f910346","ios":"levelo://app?vid=19212f0b-77c0-4046-9f6a-0fd27f910346"},"vehicle_type_id":"4","last_reported":1726762231,"current_range_meters":19600,"station_id":"ce4bh312rcd13ifvqdk0","pricing_plan_id":"cebpf4jnsgd1na2vs0mg"},{"bike_id":"b1ab4565-119f-404e-ac17-99dfc9fc3b01","system_id":"levelo_inurba_marseille","lat":43.3388,"lon":5.39164,"is_reserved":false,"is_disabled":false,"rental_uris":{"android":"levelo://app?vid=b1ab4565-119f-404e-ac17-99dfc9fc3b01","ios":"levelo://app?vid=b1ab4565-119f-404e-ac17-99dfc9fc3b01"},"vehicle_type_id":"4","last_reported":1726762231,"current_range_meters":3600,"station_id":"","pricing_plan_id":"cebpf4jnsgd1na2vs0mg"},{"bike_id":"dbc73900-1214-455b-a70c-e7e77f409cde","system_id":"levelo_inurba_marseille","lat":43.32337,"lon":5.40624,"is_reserved":false,"is_disabled":false,"rental_uris":{"android":"levelo://app?vid=dbc73900-1214-455b-a70c-e7e77f409cde","ios":"levelo://app?vid=dbc73900-1214-455b-a70c-e7e77f409cde"},"vehicle_type_id":"4","last_reported":1726762231,"current_range_meters":36800,"station_id":"ce4bhq92rcd13ifvqhjg","pricing_plan_id":"cebpf4jnsgd1na2vs0mg"},{"bike_id":"32bbeb01-2152-4bf2-9a30-206392d4c1a7","system_id":"levelo_inurba_marseille","lat":43.29194,"lon":5.3932,"is_reserved":false,"is_disabled":false,"rental_uris":{"android":"levelo://app?vid=32bbeb01-2152-4bf2-9a30-206392d4c1a7","ios":"levelo://app?vid=32bbeb01-2152-4bf2-9a30-206392d4c1a7"},"vehicle_type_id":"4","last_reported":1726762231,"current_range_meters":22400,"station_id":"ce4bh192rcd13ifvqdd0","pricing_plan_id":"cebpf4jnsgd1na2vs0mg"},{"bike_id":"63039587-8353-4dce-ad64-0dab60366a59","system_id":"levelo_inurba_marseille","lat":43.28425,"lon":5.34982,"is_reserved":false,"is_disabled":false,"rental_uris":{"android":"levelo://app?vid=63039587-8353-4dce-ad64-0dab60366a59","ios":"levelo://app?vid=63039587-8353-4dce-ad64-0dab60366a59"},"vehicle_type_id":"4","last_reported":1726762231,"current_range_meters":6000,"station_id":"ce4bhbh2rcd13ifvqepg","pricing_plan_id":"cebpf4jnsgd1na2vs0mg"},{"bike_id":"fa2e946d-01fe-4bb4-a2b0-55af60a0bcec","system_id":"levelo_inurba_marseille","lat":43.33723,"lon":5.39184,"is_reserved":false,"is_disabled":false,"rental_uris":{"android":"levelo://app?vid=fa2e946d-01fe-4bb4-a2b0-55af60a0bcec","ios":"levelo://app?vid=fa2e946d-01fe-4bb4-a2b0-55af60a0bcec"},"vehicle_type_id":"4","last_reported":1726762231,"current_range_meters":37600,"station_id":"ce4bhr92rcd13ifvqhsg","pricing_plan_id":"cebpf4jnsgd1na2vs0mg"},{"bike_id":"64b37499-15aa-49ff-b6c6-b9fdef91fac3","system_id":"levelo_inurba_marseille","lat":43.29064,"lon":5.37174,"is_reserved":false,"is_disabled":false,"rental_uris":{"android":"levelo://app?vid=64b37499-15aa-49ff-b6c6-b9fdef91fac3","ios":"levelo://app?vid=64b37499-15aa-49ff-b6c6-b9fdef91fac3"},"vehicle_type_id":"4","last_reported":1726762231,"current_range_meters":22000,"station_id":"ce4bh5p2rcd13ifvqe4g","pricing_plan_id":"cebpf4jnsgd1na2vs0mg"},{"bike_id":"132dc555-3f2f-4a90-8c3b-7e320397f84d","system_id":"levelo_inurba_marseille","lat":43.25089,"lon":5.39516,"is_reserved":false,"is_disabled":false,"rental_uris":{"android":"levelo://app?vid=132dc555-3f2f-4a90-8c3b-7e320397f84d","ios":"levelo://app?vid=132dc555-3f2f-4a90-8c3b-7e320397f84d"},"vehicle_type_id":"4","last_reported":1726762231,"current_range_meters":29600,"station_id":"ce4bhm12rcd13ifvqgkg","pricing_plan_id":"cebpf4jnsgd1na2vs0mg"},{"bike_id":"94a54d33-75c2-4d5c-8f83-0e110c11c6f6","system_id":"levelo_inurba_marseille","lat":43.30892,"lon":5.39654,"is_reserved":false,"is_disabled":false,"rental_uris":{"android":"levelo://app?vid=94a54d33-75c2-4d5c-8f83-0e110c11c6f6","ios":"levelo://app?vid=94a54d33-75c2-4d5c-8f83-0e110c11c6f6"},"vehicle_type_id":"4","last_reported":1726762231,"current_range_meters":38800,"station_id":"ce4bh012rcd13ifvqcv0","pricing_plan_id":"cebpf4jnsgd1na2vs0mg"},{"bike_id":"c3efcc70-3866-4029-b238-cc0dcca47200","system_id":"levelo_inurba_marseille","lat":43.295349,"lon":5.390387,"is_reserved":false,"is_disabled":false,"rental_uris":{"android":"levelo://app?vid=c3efcc70-3866-4029-b238-cc0dcca47200","ios":"levelo://app?vid=c3efcc70-3866-4029-b238-cc0dcca47200"},"vehicle_type_id":"4","last_reported":1726762231,"current_range_meters":6000,"station_id":"ce4bh3p2rcd13ifvqdp0","pricing_plan_id":"cebpf4jnsgd1na2vs0mg"},{"bike_id":"328d45f9-980e-4811-97c0-47d761861509","system_id":"levelo_inurba_marseille","lat":43.29847,"lon":5.37836,"is_reserved":false,"is_disabled":false,"rental_uris":{"android":"levelo://app?vid=328d45f9-980e-4811-97c0-47d761861509","ios":"levelo://app?vid=328d45f9-980e-4811-97c0-47d761861509"},"vehicle_type_id":"4","last_reported":1726762231,"current_range_meters":6000,"station_id":"","pricing_plan_id":"cebpf4jnsgd1na2vs0mg"},{"bike_id":"5def6e69-4f19-40d7-aa78-04c5a92dd2b9","system_id":"levelo_inurba_marseille","lat":43.2953,"lon":5.38544,"is_reserved":false,"is_disabled":false,"rental_uris":{"android":"levelo://app?vid=5def6e69-4f19-40d7-aa78-04c5a92dd2b9","ios":"levelo://app?vid=5def6e69-4f19-40d7-aa78-04c5a92dd2b9"},"vehicle_type_id":"4","last_reported":1726762231,"current_range_meters":9600,"station_id":"ce4bgih2rcd13ifvqba0","pricing_plan_id":"cebpf4jnsgd1na2vs0mg"},{"bike_id":"d08579c8-6424-4d65-a461-4be9b4d820d0","system_id":"levelo_inurba_marseille","lat":43.28723,"lon":5.36077,"is_reserved":false,"is_disabled":false,"rental_uris":{"android":"levelo://app?vid=d08579c8-6424-4d65-a461-4be9b4d820d0","ios":"levelo://app?vid=d08579c8-6424-4d65-a461-4be9b4d820d0"},"vehicle_type_id":"4","last_reported":1726762231,"current_range_meters":29600,"station_id":"cki0cbj6b192h4jlfktg","pricing_plan_id":"cebpf4jnsgd1na2vs0mg"},{"bike_id":"080da602-603d-4ef9-823d-8d93d1db983e","system_id":"levelo_inurba_marseille","lat":43.27203,"lon":5.39183,"is_reserved":false,"is_disabled":false,"rental_uris":{"android":"levelo://app?vid=080da602-603d-4ef9-823d-8d93d1db983e","ios":"levelo://app?vid=080da602-603d-4ef9-823d-8d93d1db983e"},"vehicle_type_id":"4","last_reported":1726762231,"current_range_meters":20400,"station_id":"ce4bhhp2rcd13ifvqfm0","pricing_plan_id":"cebpf4jnsgd1na2vs0mg"},{"bike_id":"5f586833-6175-4e7e-8332-6046bf96d96d","system_id":"levelo_inurba_marseille","lat":43.29531,"lon":5.38543,"is_reserved":false,"is_disabled":false,"rental_uris":{"android":"levelo://app?vid=5f586833-6175-4e7e-8332-6046bf96d96d","ios":"levelo://app?vid=5f586833-6175-4e7e-8332-6046bf96d96d"},"vehicle_type_id":"4","last_reported":1726762231,"current_range_meters":38800,"station_id":"ce4bgih2rcd13ifvqba0","pricing_plan_id":"cebpf4jnsgd1na2vs0mg"},{"bike_id":"7f74fc9e-b0a4-43d0-8b3e-945d61ceba2b","system_id":"levelo_inurba_marseille","lat":43.33023,"lon":5.39047,"is_reserved":false,"is_disabled":false,"rental_uris":{"android":"levelo://app?vid=7f74fc9e-b0a4-43d0-8b3e-945d61ceba2b","ios":"levelo://app?vid=7f74fc9e-b0a4-43d0-8b3e-945d61ceba2b"},"vehicle_type_id":"4","last_reported":1726762231,"current_range_meters":30000,"station_id":"ce4bhr92rcd13ifvqhrg","pricing_plan_id":"cebpf4jnsgd1na2vs0mg"},{"bike_id":"fa690805-233a-4a70-a9f3-33f1b67cdb1f","system_id":"levelo_inurba_marseille","lat":43.32281,"lon":5.3825,"is_reserved":false,"is_disabled":false,"rental_uris":{"android":"levelo://app?vid=fa690805-233a-4a70-a9f3-33f1b67cdb1f","ios":"levelo://app?vid=fa690805-233a-4a70-a9f3-33f1b67cdb1f"},"vehicle_type_id":"4","last_reported":1726762231,"current_range_meters":23200,"station_id":"ce4bhr12rcd13ifvqhqg","pricing_plan_id":"cebpf4jnsgd1na2vs0mg"},{"bike_id":"420921e3-ca07-47ef-b700-720645c9a2ac","system_id":"levelo_inurba_marseille","lat":43.239655,"lon":5.366212,"is_reserved":false,"is_disabled":false,"rental_uris":{"android":"levelo://app?vid=420921e3-ca07-47ef-b700-720645c9a2ac","ios":"levelo://app?vid=420921e3-ca07-47ef-b700-720645c9a2ac"},"vehicle_type_id":"4","last_reported":1726762231,"current_range_meters":8800,"station_id":"ce4bhi12rcd13ifvqfp0","pricing_plan_id":"cebpf4jnsgd1na2vs0mg"},{"bike_id":"b5aaf55d-317f-46e0-913d-5437f8a74d17","system_id":"levelo_inurba_marseille","lat":43.31714,"lon":5.43708,"is_reserved":false,"is_disabled":false,"rental_uris":{"android":"levelo://app?vid=b5aaf55d-317f-46e0-913d-5437f8a74d17","ios":"levelo://app?vid=b5aaf55d-317f-46e0-913d-5437f8a74d17"},"vehicle_type_id":"4","last_reported":1726762231,"current_range_meters":19200,"station_id":"ce4bhp92rcd13ifvqhcg","pricing_plan_id":"cebpf4jnsgd1na2vs0mg"},{"bike_id":"b6e39d2f-eb86-44b8-bdf5-f6748927fa48","system_id":"levelo_inurba_marseille","lat":43.31073,"lon":5.38361,"is_reserved":false,"is_disabled":false,"rental_uris":{"android":"levelo://app?vid=b6e39d2f-eb86-44b8-bdf5-f6748927fa48","ios":"levelo://app?vid=b6e39d2f-eb86-44b8-bdf5-f6748927fa48"},"vehicle_type_id":"4","last_reported":1726762231,"current_range_meters":2800,"station_id":"ce4bgv92rcd13ifvqcr0","pricing_plan_id":"cebpf4jnsgd1na2vs0mg"},{"bike_id":"bb9c3127-861f-42bc-8510-5ae19b874d18","system_id":"levelo_inurba_marseille","lat":43.26552,"lon":5.37286,"is_reserved":false,"is_disabled":false,"rental_uris":{"android":"levelo://app?vid=bb9c3127-861f-42bc-8510-5ae19b874d18","ios":"levelo://app?vid=bb9c3127-861f-42bc-8510-5ae19b874d18"},"vehicle_type_id":"4","last_reported":1726762231,"current_range_meters":12800,"station_id":"ce4bhg12rcd13ifvqf70","pricing_plan_id":"cebpf4jnsgd1na2vs0mg"},{"bike_id":"b2763354-ec6c-4733-8de6-6c4493759ae9","system_id":"levelo_inurba_marseille","lat":43.29083,"lon":5.40212,"is_reserved":false,"is_disabled":false,"rental_uris":{"android":"levelo://app?vid=b2763354-ec6c-4733-8de6-6c4493759ae9","ios":"levelo://app?vid=b2763354-ec6c-4733-8de6-6c4493759ae9"},"vehicle_type_id":"4","last_reported":1726762231,"current_range_meters":25600,"station_id":"","pricing_plan_id":"cebpf4jnsgd1na2vs0mg"},{"bike_id":"0e4159cd-4bed-43a8-93f5-9ac610d4cfe8","system_id":"levelo_inurba_marseille","lat":43.30143,"lon":5.38062,"is_reserved":false,"is_disabled":false,"rental_uris":{"android":"levelo://app?vid=0e4159cd-4bed-43a8-93f5-9ac610d4cfe8","ios":"levelo://app?vid=0e4159cd-4bed-43a8-93f5-9ac610d4cfe8"},"vehicle_type_id":"4","last_reported":1726762231,"current_range_meters":7200,"station_id":"ce4bgjp2rcd13ifvqbh0","pricing_plan_id":"cebpf4jnsgd1na2vs0mg"},{"bike_id":"7b769d3c-a1b4-4f68-9072-940fc4af48ea","system_id":"levelo_inurba_marseille","lat":43.28425,"lon":5.37503,"is_reserved":false,"is_disabled":false,"rental_uris":{"android":"levelo://app?vid=7b769d3c-a1b4-4f68-9072-940fc4af48ea","ios":"levelo://app?vid=7b769d3c-a1b4-4f68-9072-940fc4af48ea"},"vehicle_type_id":"4","last_reported":1726762231,"current_range_meters":10800,"station_id":"ce4bh412rcd13ifvqds0","pricing_plan_id":"cebpf4jnsgd1na2vs0mg"},{"bike_id":"c18c2a06-f2aa-42c8-b64f-08dadd1f4665","system_id":"levelo_inurba_marseille","lat":43.28727,"lon":5.36085,"is_reserved":false,"is_disabled":false,"rental_uris":{"android":"levelo://app?vid=c18c2a06-f2aa-42c8-b64f-08dadd1f4665","ios":"levelo://app?vid=c18c2a06-f2aa-42c8-b64f-08dadd1f4665"},"vehicle_type_id":"4","last_reported":1726762231,"current_range_meters":32800,"station_id":"cki0cbj6b192h4jlfktg","pricing_plan_id":"cebpf4jnsgd1na2vs0mg"},{"bike_id":"c1bcbf9f-90be-4cf5-a7d2-4edc635d330d","system_id":"levelo_inurba_marseille","lat":43.28066,"lon":5.39615,"is_reserved":false,"is_disabled":false,"rental_uris":{"android":"levelo://app?vid=c1bcbf9f-90be-4cf5-a7d2-4edc635d330d","ios":"levelo://app?vid=c1bcbf9f-90be-4cf5-a7d2-4edc635d330d"},"vehicle_type_id":"4","last_reported":1726762231,"current_range_meters":9200,"station_id":"ce4bho12rcd13ifvqh2g","pricing_plan_id":"cebpf4jnsgd1na2vs0mg"},{"bike_id":"ac1ab480-eb92-426b-ba9d-b2e950b769ae","system_id":"levelo_inurba_marseille","lat":43.308014,"lon":5.435253,"is_reserved":false,"is_disabled":false,"rental_uris":{"android":"levelo://app?vid=ac1ab480-eb92-426b-ba9d-b2e950b769ae","ios":"levelo://app?vid=ac1ab480-eb92-426b-ba9d-b2e950b769ae"},"vehicle_type_id":"4","last_reported":1726762231,"current_range_meters":24800,"station_id":"ce4bhph2rcd13ifvqheg","pricing_plan_id":"cebpf4jnsgd1na2vs0mg"},{"bike_id":"9b8fe04e-d5e7-4374-b89e-e64c6bfae679","system_id":"levelo_inurba_marseille","lat":43.27376,"lon":5.36251,"is_reserved":false,"is_disabled":false,"rental_uris":{"android":"levelo://app?vid=9b8fe04e-d5e7-4374-b89e-e64c6bfae679","ios":"levelo://app?vid=9b8fe04e-d5e7-4374-b89e-e64c6bfae679"},"vehicle_type_id":"4","last_reported":1726762231,"current_range_meters":26800,"station_id":"ce4bhbh2rcd13ifvqeo0","pricing_plan_id":"cebpf4jnsgd1na2vs0mg"},{"bike_id":"5210dd89-4d66-4c7d-8017-acaae5bad04b","system_id":"levelo_inurba_marseille","lat":43.254944,"lon":5.376475,"is_reserved":false,"is_disabled":false,"rental_uris":{"android":"levelo://app?vid=5210dd89-4d66-4c7d-8017-acaae5bad04b","ios":"levelo://app?vid=5210dd89-4d66-4c7d-8017-acaae5bad04b"},"vehicle_type_id":"4","last_reported":1726762231,"current_range_meters":32000,"station_id":"ce4bhh12rcd13ifvqff0","pricing_plan_id":"cebpf4jnsgd1na2vs0mg"},{"bike_id":"3b5c402c-27d5-4010-ae48-42592c44e1cb","system_id":"levelo_inurba_marseille","lat":43.29203,"lon":5.38266,"is_reserved":false,"is_disabled":false,"rental_uris":{"android":"levelo://app?vid=3b5c402c-27d5-4010-ae48-42592c44e1cb","ios":"levelo://app?vid=3b5c402c-27d5-4010-ae48-42592c44e1cb"},"vehicle_type_id":"4","last_reported":1726762231,"current_range_meters":31200,"station_id":"","pricing_plan_id":"cebpf4jnsgd1na2vs0mg"},{"bike_id":"dc55989a-d97b-409c-88e4-0b72d119e2a1","system_id":"levelo_inurba_marseille","lat":43.26957,"lon":5.38635,"is_reserved":false,"is_disabled":false,"rental_uris":{"android":"levelo://app?vid=dc55989a-d97b-409c-88e4-0b72d119e2a1","ios":"levelo://app?vid=dc55989a-d97b-409c-88e4-0b72d119e2a1"},"vehicle_type_id":"4","last_reported":1726762231,"current_range_meters":27600,"station_id":"ce4bhh92rcd13ifvqfh0","pricing_plan_id":"cebpf4jnsgd1na2vs0mg"},{"bike_id":"c2c9a555-6ec8-4b92-b33e-073571605c93","system_id":"levelo_inurba_marseille","lat":43.23193,"lon":5.35545,"is_reserved":false,"is_disabled":false,"rental_uris":{"android":"levelo://app?vid=c2c9a555-6ec8-4b92-b33e-073571605c93","ios":"levelo://app?vid=c2c9a555-6ec8-4b92-b33e-073571605c93"},"vehicle_type_id":"4","last_reported":1726762231,"current_range_meters":31200,"station_id":"ce4bhu92rcd13ifvqi70","pricing_plan_id":"cebpf4jnsgd1na2vs0mg"},{"bike_id":"8c437355-e87a-4ec8-8827-df7439096047","system_id":"levelo_inurba_marseille","lat":43.29555,"lon":5.42283,"is_reserved":false,"is_disabled":false,"rental_uris":{"android":"levelo://app?vid=8c437355-e87a-4ec8-8827-df7439096047","ios":"levelo://app?vid=8c437355-e87a-4ec8-8827-df7439096047"},"vehicle_type_id":"4","last_reported":1726762231,"current_range_meters":36000,"station_id":"ce4bhph2rcd13ifvqhdg","pricing_plan_id":"cebpf4jnsgd1na2vs0mg"},{"bike_id":"c2cd334c-caaf-4d61-b1b9-1b1e5c7860c6","system_id":"levelo_inurba_marseille","lat":43.29531,"lon":5.38535,"is_reserved":false,"is_disabled":false,"rental_uris":{"android":"levelo://app?vid=c2cd334c-caaf-4d61-b1b9-1b1e5c7860c6","ios":"levelo://app?vid=c2cd334c-caaf-4d61-b1b9-1b1e5c7860c6"},"vehicle_type_id":"4","last_reported":1726762231,"current_range_meters":14000,"station_id":"ce4bgih2rcd13ifvqba0","pricing_plan_id":"cebpf4jnsgd1na2vs0mg"},{"bike_id":"3ea8f54f-9145-4e7d-b8dd-375864b1fadc","system_id":"levelo_inurba_marseille","lat":43.31988,"lon":5.37196,"is_reserved":false,"is_disabled":false,"rental_uris":{"android":"levelo://app?vid=3ea8f54f-9145-4e7d-b8dd-375864b1fadc","ios":"levelo://app?vid=3ea8f54f-9145-4e7d-b8dd-375864b1fadc"},"vehicle_type_id":"4","last_reported":1726762231,"current_range_meters":18800,"station_id":"","pricing_plan_id":"cebpf4jnsgd1na2vs0mg"},{"bike_id":"d1bff2f1-3378-465c-82e5-bd812b5fe787","system_id":"levelo_inurba_marseille","lat":43.316999,"lon":5.377228,"is_reserved":false,"is_disabled":false,"rental_uris":{"android":"levelo://app?vid=d1bff2f1-3378-465c-82e5-bd812b5fe787","ios":"levelo://app?vid=d1bff2f1-3378-465c-82e5-bd812b5fe787"},"vehicle_type_id":"4","last_reported":1726762231,"current_range_meters":11200,"station_id":"ce4bgth2rcd13ifvqch0","pricing_plan_id":"cebpf4jnsgd1na2vs0mg"},{"bike_id":"f20cfc77-a79b-4077-a090-ff98c24ecc64","system_id":"levelo_inurba_marseille","lat":43.30545,"lon":5.367,"is_reserved":false,"is_disabled":false,"rental_uris":{"android":"levelo://app?vid=f20cfc77-a79b-4077-a090-ff98c24ecc64","ios":"levelo://app?vid=f20cfc77-a79b-4077-a090-ff98c24ecc64"},"vehicle_type_id":"4","last_reported":1726762231,"current_range_meters":29600,"station_id":"ce4bgrp2rcd13ifvqc9g","pricing_plan_id":"cebpf4jnsgd1na2vs0mg"},{"bike_id":"7a00d746-afe8-4e87-b7ae-4c02ed7e2eac","system_id":"levelo_inurba_marseille","lat":43.29524,"lon":5.39407,"is_reserved":false,"is_disabled":false,"rental_uris":{"android":"levelo://app?vid=7a00d746-afe8-4e87-b7ae-4c02ed7e2eac","ios":"levelo://app?vid=7a00d746-afe8-4e87-b7ae-4c02ed7e2eac"},"vehicle_type_id":"4","last_reported":1726762231,"current_range_meters":28000,"station_id":"ce4bh292rcd13ifvqdf0","pricing_plan_id":"cebpf4jnsgd1na2vs0mg"},{"bike_id":"bbecac4a-dca2-45df-9254-35d771dcd6b7","system_id":"levelo_inurba_marseille","lat":43.29538,"lon":5.37503,"is_reserved":false,"is_disabled":false,"rental_uris":{"android":"levelo://app?vid=bbecac4a-dca2-45df-9254-35d771dcd6b7","ios":"levelo://app?vid=bbecac4a-dca2-45df-9254-35d771dcd6b7"},"vehicle_type_id":"4","last_reported":1726762231,"current_range_meters":36400,"station_id":"ce4bgkp2rcd13ifvqbmg","pricing_plan_id":"cebpf4jnsgd1na2vs0mg"},{"bike_id":"1120a87e-f56f-4309-a214-8069889a3cc3","system_id":"levelo_inurba_marseille","lat":43.26191,"lon":5.3745,"is_reserved":false,"is_disabled":false,"rental_uris":{"android":"levelo://app?vid=1120a87e-f56f-4309-a214-8069889a3cc3","ios":"levelo://app?vid=1120a87e-f56f-4309-a214-8069889a3cc3"},"vehicle_type_id":"4","last_reported":1726762231,"current_range_meters":38800,"station_id":"ce4bhgp2rcd13ifvqfc0","pricing_plan_id":"cebpf4jnsgd1na2vs0mg"},{"bike_id":"e4323aca-ee3b-42de-9701-7ea43fdfc61d","system_id":"levelo_inurba_marseille","lat":43.26216,"lon":5.37442,"is_reserved":false,"is_disabled":false,"rental_uris":{"android":"levelo://app?vid=e4323aca-ee3b-42de-9701-7ea43fdfc61d","ios":"levelo://app?vid=e4323aca-ee3b-42de-9701-7ea43fdfc61d"},"vehicle_type_id":"4","last_reported":1726762231,"current_range_meters":28800,"station_id":"ce4bhgp2rcd13ifvqfc0","pricing_plan_id":"cebpf4jnsgd1na2vs0mg"},{"bike_id":"12577d8a-cb57-4194-96f2-1da7312c58d0","system_id":"levelo_inurba_marseille","lat":43.27812,"lon":5.40709,"is_reserved":false,"is_disabled":false,"rental_uris":{"android":"levelo://app?vid=12577d8a-cb57-4194-96f2-1da7312c58d0","ios":"levelo://app?vid=12577d8a-cb57-4194-96f2-1da7312c58d0"},"vehicle_type_id":"4","last_reported":1726762231,"current_range_meters":24400,"station_id":"ce4bhnh2rcd13ifvqgtg","pricing_plan_id":"cebpf4jnsgd1na2vs0mg"},{"bike_id":"1f447157-d7c9-407a-99a0-c18bbc96f0de","system_id":"levelo_inurba_marseille","lat":43.28409,"lon":5.37513,"is_reserved":false,"is_disabled":false,"rental_uris":{"android":"levelo://app?vid=1f447157-d7c9-407a-99a0-c18bbc96f0de","ios":"levelo://app?vid=1f447157-d7c9-407a-99a0-c18bbc96f0de"},"vehicle_type_id":"4","last_reported":1726762231,"current_range_meters":3200,"station_id":"ce4bh412rcd13ifvqds0","pricing_plan_id":"cebpf4jnsgd1na2vs0mg"},{"bike_id":"edeeb84e-d23d-408a-bc9a-7234bbcc70d0","system_id":"levelo_inurba_marseille","lat":43.28424,"lon":5.34981,"is_reserved":false,"is_disabled":false,"rental_uris":{"android":"levelo://app?vid=edeeb84e-d23d-408a-bc9a-7234bbcc70d0","ios":"levelo://app?vid=edeeb84e-d23d-408a-bc9a-7234bbcc70d0"},"vehicle_type_id":"4","last_reported":1726762231,"current_range_meters":8000,"station_id":"ce4bhbh2rcd13ifvqepg","pricing_plan_id":"cebpf4jnsgd1na2vs0mg"},{"bike_id":"2fbc0c1f-b2d3-426e-adbb-89cb9d4995b7","system_id":"levelo_inurba_marseille","lat":43.28418,"lon":5.34979,"is_reserved":false,"is_disabled":false,"rental_uris":{"android":"levelo://app?vid=2fbc0c1f-b2d3-426e-adbb-89cb9d4995b7","ios":"levelo://app?vid=2fbc0c1f-b2d3-426e-adbb-89cb9d4995b7"},"vehicle_type_id":"4","last_reported":1726762231,"current_range_meters":20400,"station_id":"ce4bhbh2rcd13ifvqepg","pricing_plan_id":"cebpf4jnsgd1na2vs0mg"},{"bike_id":"88068615-8377-4919-a422-c6e9bcaa3ab4","system_id":"levelo_inurba_marseille","lat":43.32288,"lon":5.38269,"is_reserved":false,"is_disabled":false,"rental_uris":{"android":"levelo://app?vid=88068615-8377-4919-a422-c6e9bcaa3ab4","ios":"levelo://app?vid=88068615-8377-4919-a422-c6e9bcaa3ab4"},"vehicle_type_id":"4","last_reported":1726762231,"current_range_meters":38800,"station_id":"ce4bhr12rcd13ifvqhqg","pricing_plan_id":"cebpf4jnsgd1na2vs0mg"},{"bike_id":"0c20ab6c-334d-49f2-88b1-a7741e392094","system_id":"levelo_inurba_marseille","lat":43.24543,"lon":5.39522,"is_reserved":false,"is_disabled":false,"rental_uris":{"android":"levelo://app?vid=0c20ab6c-334d-49f2-88b1-a7741e392094","ios":"levelo://app?vid=0c20ab6c-334d-49f2-88b1-a7741e392094"},"vehicle_type_id":"4","last_reported":1726762231,"current_range_meters":34800,"station_id":"ce4bhlp2rcd13ifvqgjg","pricing_plan_id":"cebpf4jnsgd1na2vs0mg"},{"bike_id":"4722ba9d-e474-4ce6-acc7-586090fe99fe","system_id":"levelo_inurba_marseille","lat":43.337444,"lon":5.374475,"is_reserved":false,"is_disabled":false,"rental_uris":{"android":"levelo://app?vid=4722ba9d-e474-4ce6-acc7-586090fe99fe","ios":"levelo://app?vid=4722ba9d-e474-4ce6-acc7-586090fe99fe"},"vehicle_type_id":"4","last_reported":1726762231,"current_range_meters":16000,"station_id":"","pricing_plan_id":"cebpf4jnsgd1na2vs0mg"},{"bike_id":"75b93ba7-eec2-4f7c-b126-88a0f3942a66","system_id":"levelo_inurba_marseille","lat":43.22932,"lon":5.35375,"is_reserved":false,"is_disabled":false,"rental_uris":{"android":"levelo://app?vid=75b93ba7-eec2-4f7c-b126-88a0f3942a66","ios":"levelo://app?vid=75b93ba7-eec2-4f7c-b126-88a0f3942a66"},"vehicle_type_id":"4","last_reported":1726762231,"current_range_meters":30000,"station_id":"cpo3532slgdg3j2ikp40","pricing_plan_id":"cebpf4jnsgd1na2vs0mg"},{"bike_id":"68159eba-e301-4077-943e-46befe1273f0","system_id":"levelo_inurba_marseille","lat":43.23191,"lon":5.35549,"is_reserved":false,"is_disabled":false,"rental_uris":{"android":"levelo://app?vid=68159eba-e301-4077-943e-46befe1273f0","ios":"levelo://app?vid=68159eba-e301-4077-943e-46befe1273f0"},"vehicle_type_id":"4","last_reported":1726762231,"current_range_meters":37600,"station_id":"ce4bhu92rcd13ifvqi70","pricing_plan_id":"cebpf4jnsgd1na2vs0mg"},{"bike_id":"686a7ca1-b460-40b5-9c68-158c7e315083","system_id":"levelo_inurba_marseille","lat":43.28611,"lon":5.35101,"is_reserved":false,"is_disabled":false,"rental_uris":{"android":"levelo://app?vid=686a7ca1-b460-40b5-9c68-158c7e315083","ios":"levelo://app?vid=686a7ca1-b460-40b5-9c68-158c7e315083"},"vehicle_type_id":"4","last_reported":1726762231,"current_range_meters":20000,"station_id":"ce4bhch2rcd13ifvqeug","pricing_plan_id":"cebpf4jnsgd1na2vs0mg"},{"bike_id":"3f34588a-afa9-47a5-8d99-03bd26070985","system_id":"levelo_inurba_marseille","lat":43.30253,"lon":5.40075,"is_reserved":false,"is_disabled":false,"rental_uris":{"android":"levelo://app?vid=3f34588a-afa9-47a5-8d99-03bd26070985","ios":"levelo://app?vid=3f34588a-afa9-47a5-8d99-03bd26070985"},"vehicle_type_id":"4","last_reported":1726762231,"current_range_meters":38800,"station_id":"ce4bgvh2rcd13ifvqcs0","pricing_plan_id":"cebpf4jnsgd1na2vs0mg"},{"bike_id":"f7abacbe-2286-42f0-8f19-2efed495672b","system_id":"levelo_inurba_marseille","lat":43.29285,"lon":5.40117,"is_reserved":false,"is_disabled":false,"rental_uris":{"android":"levelo://app?vid=f7abacbe-2286-42f0-8f19-2efed495672b","ios":"levelo://app?vid=f7abacbe-2286-42f0-8f19-2efed495672b"},"vehicle_type_id":"4","last_reported":1726762231,"current_range_meters":3200,"station_id":"ce4bh312rcd13ifvqdk0","pricing_plan_id":"cebpf4jnsgd1na2vs0mg"},{"bike_id":"0f9e353b-34be-4131-bc94-f528c8afe4b7","system_id":"levelo_inurba_marseille","lat":43.32484,"lon":5.36559,"is_reserved":false,"is_disabled":false,"rental_uris":{"android":"levelo://app?vid=0f9e353b-34be-4131-bc94-f528c8afe4b7","ios":"levelo://app?vid=0f9e353b-34be-4131-bc94-f528c8afe4b7"},"vehicle_type_id":"4","last_reported":1726762231,"current_range_meters":23200,"station_id":"ce4bhs12rcd13ifvqhvg","pricing_plan_id":"cebpf4jnsgd1na2vs0mg"},{"bike_id":"bce00908-476b-48ab-a54d-9b0f6ad0a5d7","system_id":"levelo_inurba_marseille","lat":43.25109,"lon":5.40323,"is_reserved":false,"is_disabled":false,"rental_uris":{"android":"levelo://app?vid=bce00908-476b-48ab-a54d-9b0f6ad0a5d7","ios":"levelo://app?vid=bce00908-476b-48ab-a54d-9b0f6ad0a5d7"},"vehicle_type_id":"4","last_reported":1726762231,"current_range_meters":30800,"station_id":"ce4bhlh2rcd13ifvqgig","pricing_plan_id":"cebpf4jnsgd1na2vs0mg"},{"bike_id":"39a278bb-e5de-4647-9df2-02254ef563cb","system_id":"levelo_inurba_marseille","lat":43.23155,"lon":5.4371,"is_reserved":false,"is_disabled":false,"rental_uris":{"android":"levelo://app?vid=39a278bb-e5de-4647-9df2-02254ef563cb","ios":"levelo://app?vid=39a278bb-e5de-4647-9df2-02254ef563cb"},"vehicle_type_id":"4","last_reported":1726762231,"current_range_meters":2000,"station_id":"ce4bhmp2rcd13ifvqgog","pricing_plan_id":"cebpf4jnsgd1na2vs0mg"},{"bike_id":"3807c0e3-c462-4c31-973f-e63efd2dc437","system_id":"levelo_inurba_marseille","lat":43.29899,"lon":5.4367,"is_reserved":false,"is_disabled":false,"rental_uris":{"android":"levelo://app?vid=3807c0e3-c462-4c31-973f-e63efd2dc437","ios":"levelo://app?vid=3807c0e3-c462-4c31-973f-e63efd2dc437"},"vehicle_type_id":"4","last_reported":1726762231,"current_range_meters":25200,"station_id":"ce4bhpp2rcd13ifvqhfg","pricing_plan_id":"cebpf4jnsgd1na2vs0mg"},{"bike_id":"fafa835d-b96d-43e6-853a-96c7a19bd5c5","system_id":"levelo_inurba_marseille","lat":43.31114,"lon":5.37776,"is_reserved":false,"is_disabled":false,"rental_uris":{"android":"levelo://app?vid=fafa835d-b96d-43e6-853a-96c7a19bd5c5","ios":"levelo://app?vid=fafa835d-b96d-43e6-853a-96c7a19bd5c5"},"vehicle_type_id":"4","last_reported":1726762231,"current_range_meters":36800,"station_id":"ce4bgt92rcd13ifvqcg0","pricing_plan_id":"cebpf4jnsgd1na2vs0mg"},{"bike_id":"acf44b62-d8c8-47a7-a8d1-9161d6244362","system_id":"levelo_inurba_marseille","lat":43.23195,"lon":5.35554,"is_reserved":false,"is_disabled":false,"rental_uris":{"android":"levelo://app?vid=acf44b62-d8c8-47a7-a8d1-9161d6244362","ios":"levelo://app?vid=acf44b62-d8c8-47a7-a8d1-9161d6244362"},"vehicle_type_id":"4","last_reported":1726762231,"current_range_meters":11600,"station_id":"ce4bhu92rcd13ifvqi70","pricing_plan_id":"cebpf4jnsgd1na2vs0mg"},{"bike_id":"91d05dc6-2556-439c-8ddd-e367dad76e91","system_id":"levelo_inurba_marseille","lat":43.32475,"lon":5.36561,"is_reserved":false,"is_disabled":false,"rental_uris":{"android":"levelo://app?vid=91d05dc6-2556-439c-8ddd-e367dad76e91","ios":"levelo://app?vid=91d05dc6-2556-439c-8ddd-e367dad76e91"},"vehicle_type_id":"4","last_reported":1726762231,"current_range_meters":25200,"station_id":"ce4bhs12rcd13ifvqhvg","pricing_plan_id":"cebpf4jnsgd1na2vs0mg"},{"bike_id":"c92c956f-ff68-47f5-b957-0b36b25bdd87","system_id":"levelo_inurba_marseille","lat":43.29578,"lon":5.36741,"is_reserved":false,"is_disabled":false,"rental_uris":{"android":"levelo://app?vid=c92c956f-ff68-47f5-b957-0b36b25bdd87","ios":"levelo://app?vid=c92c956f-ff68-47f5-b957-0b36b25bdd87"},"vehicle_type_id":"4","last_reported":1726762231,"current_range_meters":28000,"station_id":"ce4bgph2rcd13ifvqc2g","pricing_plan_id":"cebpf4jnsgd1na2vs0mg"},{"bike_id":"bc4b9275-5878-4de1-b7b8-176e480d6043","system_id":"levelo_inurba_marseille","lat":43.3247,"lon":5.36581,"is_reserved":false,"is_disabled":false,"rental_uris":{"android":"levelo://app?vid=bc4b9275-5878-4de1-b7b8-176e480d6043","ios":"levelo://app?vid=bc4b9275-5878-4de1-b7b8-176e480d6043"},"vehicle_type_id":"4","last_reported":1726762231,"current_range_meters":37600,"station_id":"ce4bhs12rcd13ifvqhvg","pricing_plan_id":"cebpf4jnsgd1na2vs0mg"},{"bike_id":"e2b38383-16c2-4b47-bc2f-0bcdac78c28e","system_id":"levelo_inurba_marseille","lat":43.25787,"lon":5.41069,"is_reserved":false,"is_disabled":false,"rental_uris":{"android":"levelo://app?vid=e2b38383-16c2-4b47-bc2f-0bcdac78c28e","ios":"levelo://app?vid=e2b38383-16c2-4b47-bc2f-0bcdac78c28e"},"vehicle_type_id":"4","last_reported":1726762231,"current_range_meters":24000,"station_id":"","pricing_plan_id":"cebpf4jnsgd1na2vs0mg"},{"bike_id":"d2940fab-b6cb-453e-bdff-e0b94f3daa40","system_id":"levelo_inurba_marseille","lat":43.27175,"lon":5.40994,"is_reserved":false,"is_disabled":false,"rental_uris":{"android":"levelo://app?vid=d2940fab-b6cb-453e-bdff-e0b94f3daa40","ios":"levelo://app?vid=d2940fab-b6cb-453e-bdff-e0b94f3daa40"},"vehicle_type_id":"4","last_reported":1726762231,"current_range_meters":28800,"station_id":"ce4bhl12rcd13ifvqgf0","pricing_plan_id":"cebpf4jnsgd1na2vs0mg"},{"bike_id":"1fb12d9e-0c72-47dd-8bcd-f75c9e5b2feb","system_id":"levelo_inurba_marseille","lat":43.28929,"lon":5.36644,"is_reserved":false,"is_disabled":false,"rental_uris":{"android":"levelo://app?vid=1fb12d9e-0c72-47dd-8bcd-f75c9e5b2feb","ios":"levelo://app?vid=1fb12d9e-0c72-47dd-8bcd-f75c9e5b2feb"},"vehicle_type_id":"4","last_reported":1726762231,"current_range_meters":32000,"station_id":"ce4bhap2rcd13ifvqek0","pricing_plan_id":"cebpf4jnsgd1na2vs0mg"},{"bike_id":"dd8173e3-f730-4301-8212-21af32cf0eba","system_id":"levelo_inurba_marseille","lat":43.26212,"lon":5.37441,"is_reserved":false,"is_disabled":false,"rental_uris":{"android":"levelo://app?vid=dd8173e3-f730-4301-8212-21af32cf0eba","ios":"levelo://app?vid=dd8173e3-f730-4301-8212-21af32cf0eba"},"vehicle_type_id":"4","last_reported":1726762231,"current_range_meters":31200,"station_id":"ce4bhgp2rcd13ifvqfc0","pricing_plan_id":"cebpf4jnsgd1na2vs0mg"},{"bike_id":"90c79945-ea56-420d-9f2d-ecec9aadbb4d","system_id":"levelo_inurba_marseille","lat":43.28616,"lon":5.35106,"is_reserved":false,"is_disabled":false,"rental_uris":{"android":"levelo://app?vid=90c79945-ea56-420d-9f2d-ecec9aadbb4d","ios":"levelo://app?vid=90c79945-ea56-420d-9f2d-ecec9aadbb4d"},"vehicle_type_id":"4","last_reported":1726762231,"current_range_meters":26000,"station_id":"ce4bhch2rcd13ifvqeug","pricing_plan_id":"cebpf4jnsgd1na2vs0mg"},{"bike_id":"19e113d2-14df-48a8-81d8-0596a20ecc50","system_id":"levelo_inurba_marseille","lat":43.28718,"lon":5.39999,"is_reserved":false,"is_disabled":false,"rental_uris":{"android":"levelo://app?vid=19e113d2-14df-48a8-81d8-0596a20ecc50","ios":"levelo://app?vid=19e113d2-14df-48a8-81d8-0596a20ecc50"},"vehicle_type_id":"4","last_reported":1726762231,"current_range_meters":28800,"station_id":"ce4bho92rcd13ifvqh3g","pricing_plan_id":"cebpf4jnsgd1na2vs0mg"},{"bike_id":"ecf5d7ce-58a9-409d-b0e2-5688f3553361","system_id":"levelo_inurba_marseille","lat":43.32291,"lon":5.38265,"is_reserved":false,"is_disabled":false,"rental_uris":{"android":"levelo://app?vid=ecf5d7ce-58a9-409d-b0e2-5688f3553361","ios":"levelo://app?vid=ecf5d7ce-58a9-409d-b0e2-5688f3553361"},"vehicle_type_id":"4","last_reported":1726762231,"current_range_meters":17600,"station_id":"ce4bhr12rcd13ifvqhqg","pricing_plan_id":"cebpf4jnsgd1na2vs0mg"},{"bike_id":"d2b78482-5cd1-4568-977b-a2b714ff16d0","system_id":"levelo_inurba_marseille","lat":43.2884,"lon":5.39322,"is_reserved":false,"is_disabled":false,"rental_uris":{"android":"levelo://app?vid=d2b78482-5cd1-4568-977b-a2b714ff16d0","ios":"levelo://app?vid=d2b78482-5cd1-4568-977b-a2b714ff16d0"},"vehicle_type_id":"4","last_reported":1726762231,"current_range_meters":8000,"station_id":"ce4bh2p2rcd13ifvqdi0","pricing_plan_id":"cebpf4jnsgd1na2vs0mg"},{"bike_id":"ab0b1402-f739-41a1-8767-80bad80cff24","system_id":"levelo_inurba_marseille","lat":43.28012,"lon":5.3591,"is_reserved":false,"is_disabled":false,"rental_uris":{"android":"levelo://app?vid=ab0b1402-f739-41a1-8767-80bad80cff24","ios":"levelo://app?vid=ab0b1402-f739-41a1-8767-80bad80cff24"},"vehicle_type_id":"4","last_reported":1726762231,"current_range_meters":11600,"station_id":"","pricing_plan_id":"cebpf4jnsgd1na2vs0mg"},{"bike_id":"aa7f9f8e-3c58-4747-89d8-63823a7b029a","system_id":"levelo_inurba_marseille","lat":43.29619,"lon":5.37719,"is_reserved":false,"is_disabled":false,"rental_uris":{"android":"levelo://app?vid=aa7f9f8e-3c58-4747-89d8-63823a7b029a","ios":"levelo://app?vid=aa7f9f8e-3c58-4747-89d8-63823a7b029a"},"vehicle_type_id":"4","last_reported":1726762231,"current_range_meters":22800,"station_id":"ce4bgi92rcd13ifvqb90","pricing_plan_id":"cebpf4jnsgd1na2vs0mg"},{"bike_id":"13785ee8-61ce-4f1c-bb85-4a9c1a01a108","system_id":"levelo_inurba_marseille","lat":43.29875,"lon":5.38904,"is_reserved":false,"is_disabled":false,"rental_uris":{"android":"levelo://app?vid=13785ee8-61ce-4f1c-bb85-4a9c1a01a108","ios":"levelo://app?vid=13785ee8-61ce-4f1c-bb85-4a9c1a01a108"},"vehicle_type_id":"4","last_reported":1726762231,"current_range_meters":20400,"station_id":"ce4bh392rcd13ifvqdl0","pricing_plan_id":"cebpf4jnsgd1na2vs0mg"},{"bike_id":"8af4d073-a6b9-458e-8683-c1720723e329","system_id":"levelo_inurba_marseille","lat":43.28427,"lon":5.37514,"is_reserved":false,"is_disabled":false,"rental_uris":{"android":"levelo://app?vid=8af4d073-a6b9-458e-8683-c1720723e329","ios":"levelo://app?vid=8af4d073-a6b9-458e-8683-c1720723e329"},"vehicle_type_id":"4","last_reported":1726762231,"current_range_meters":28000,"station_id":"ce4bh412rcd13ifvqds0","pricing_plan_id":"cebpf4jnsgd1na2vs0mg"},{"bike_id":"e67e264d-ef5d-4591-8201-a84b378945de","system_id":"levelo_inurba_marseille","lat":43.28946,"lon":5.36637,"is_reserved":false,"is_disabled":false,"rental_uris":{"android":"levelo://app?vid=e67e264d-ef5d-4591-8201-a84b378945de","ios":"levelo://app?vid=e67e264d-ef5d-4591-8201-a84b378945de"},"vehicle_type_id":"4","last_reported":1726762231,"current_range_meters":8000,"station_id":"ce4bhap2rcd13ifvqek0","pricing_plan_id":"cebpf4jnsgd1na2vs0mg"},{"bike_id":"4c1e819e-e007-4783-8a3d-623dcb0f7ba9","system_id":"levelo_inurba_marseille","lat":43.2794,"lon":5.41046,"is_reserved":false,"is_disabled":false,"rental_uris":{"android":"levelo://app?vid=4c1e819e-e007-4783-8a3d-623dcb0f7ba9","ios":"levelo://app?vid=4c1e819e-e007-4783-8a3d-623dcb0f7ba9"},"vehicle_type_id":"4","last_reported":1726762231,"current_range_meters":38400,"station_id":"ce4bhnp2rcd13ifvqh0g","pricing_plan_id":"cebpf4jnsgd1na2vs0mg"},{"bike_id":"58967e24-7d85-4e8e-8f5f-7399f775f4cb","system_id":"levelo_inurba_marseille","lat":43.29073,"lon":5.37169,"is_reserved":false,"is_disabled":false,"rental_uris":{"android":"levelo://app?vid=58967e24-7d85-4e8e-8f5f-7399f775f4cb","ios":"levelo://app?vid=58967e24-7d85-4e8e-8f5f-7399f775f4cb"},"vehicle_type_id":"4","last_reported":1726762231,"current_range_meters":17200,"station_id":"ce4bh5p2rcd13ifvqe4g","pricing_plan_id":"cebpf4jnsgd1na2vs0mg"},{"bike_id":"a9733a33-baf2-411e-a4a1-fd9011936c25","system_id":"levelo_inurba_marseille","lat":43.29711,"lon":5.37696,"is_reserved":false,"is_disabled":false,"rental_uris":{"android":"levelo://app?vid=a9733a33-baf2-411e-a4a1-fd9011936c25","ios":"levelo://app?vid=a9733a33-baf2-411e-a4a1-fd9011936c25"},"vehicle_type_id":"4","last_reported":1726762231,"current_range_meters":39200,"station_id":"ce4bgkh2rcd13ifvqbl0","pricing_plan_id":"cebpf4jnsgd1na2vs0mg"},{"bike_id":"f4b773d9-303a-4c6e-9592-f239e09ff34f","system_id":"levelo_inurba_marseille","lat":43.29266,"lon":5.38436,"is_reserved":false,"is_disabled":false,"rental_uris":{"android":"levelo://app?vid=f4b773d9-303a-4c6e-9592-f239e09ff34f","ios":"levelo://app?vid=f4b773d9-303a-4c6e-9592-f239e09ff34f"},"vehicle_type_id":"4","last_reported":1726762231,"current_range_meters":10800,"station_id":"ce4bh692rcd13ifvqea0","pricing_plan_id":"cebpf4jnsgd1na2vs0mg"},{"bike_id":"b3df9445-3a3b-48d8-ac2f-ece4efbc1c34","system_id":"levelo_inurba_marseille","lat":43.3095,"lon":5.39026,"is_reserved":false,"is_disabled":false,"rental_uris":{"android":"levelo://app?vid=b3df9445-3a3b-48d8-ac2f-ece4efbc1c34","ios":"levelo://app?vid=b3df9445-3a3b-48d8-ac2f-ece4efbc1c34"},"vehicle_type_id":"4","last_reported":1726762231,"current_range_meters":33200,"station_id":"ce4bgup2rcd13ifvqco0","pricing_plan_id":"cebpf4jnsgd1na2vs0mg"},{"bike_id":"340937da-c94d-4859-a4f3-88b19b135619","system_id":"levelo_inurba_marseille","lat":43.26767,"lon":5.384204,"is_reserved":false,"is_disabled":false,"rental_uris":{"android":"levelo://app?vid=340937da-c94d-4859-a4f3-88b19b135619","ios":"levelo://app?vid=340937da-c94d-4859-a4f3-88b19b135619"},"vehicle_type_id":"4","last_reported":1726762231,"current_range_meters":20000,"station_id":"cjm6bp8fraef2m0cb0m0","pricing_plan_id":"cebpf4jnsgd1na2vs0mg"},{"bike_id":"c9a6bb9c-3b18-4c4f-90a7-fc4f20ab5e61","system_id":"levelo_inurba_marseille","lat":43.29557,"lon":5.42294,"is_reserved":false,"is_disabled":false,"rental_uris":{"android":"levelo://app?vid=c9a6bb9c-3b18-4c4f-90a7-fc4f20ab5e61","ios":"levelo://app?vid=c9a6bb9c-3b18-4c4f-90a7-fc4f20ab5e61"},"vehicle_type_id":"4","last_reported":1726762231,"current_range_meters":38800,"station_id":"ce4bhph2rcd13ifvqhdg","pricing_plan_id":"cebpf4jnsgd1na2vs0mg"},{"bike_id":"e843f24c-636b-4ed1-87f6-89c1ac0856db","system_id":"levelo_inurba_marseille","lat":43.31497,"lon":5.37301,"is_reserved":false,"is_disabled":false,"rental_uris":{"android":"levelo://app?vid=e843f24c-636b-4ed1-87f6-89c1ac0856db","ios":"levelo://app?vid=e843f24c-636b-4ed1-87f6-89c1ac0856db"},"vehicle_type_id":"4","last_reported":1726762231,"current_range_meters":12400,"station_id":"ce4bgt12rcd13ifvqcd0","pricing_plan_id":"cebpf4jnsgd1na2vs0mg"},{"bike_id":"f7ab3940-83b6-4741-82ec-5424137a67e2","system_id":"levelo_inurba_marseille","lat":43.29191,"lon":5.35797,"is_reserved":false,"is_disabled":false,"rental_uris":{"android":"levelo://app?vid=f7ab3940-83b6-4741-82ec-5424137a67e2","ios":"levelo://app?vid=f7ab3940-83b6-4741-82ec-5424137a67e2"},"vehicle_type_id":"4","last_reported":1726762231,"current_range_meters":37600,"station_id":"ce4bhb12rcd13ifvqel0","pricing_plan_id":"cebpf4jnsgd1na2vs0mg"},{"bike_id":"fd73b92e-d102-465b-a0ca-5d6466b6a5b4","system_id":"levelo_inurba_marseille","lat":43.26211,"lon":5.37442,"is_reserved":false,"is_disabled":false,"rental_uris":{"android":"levelo://app?vid=fd73b92e-d102-465b-a0ca-5d6466b6a5b4","ios":"levelo://app?vid=fd73b92e-d102-465b-a0ca-5d6466b6a5b4"},"vehicle_type_id":"4","last_reported":1726762231,"current_range_meters":36400,"station_id":"ce4bhgp2rcd13ifvqfc0","pricing_plan_id":"cebpf4jnsgd1na2vs0mg"},{"bike_id":"cc046d70-c748-4aad-9ab0-df4f83ecce7e","system_id":"levelo_inurba_marseille","lat":43.2871,"lon":5.37401,"is_reserved":false,"is_disabled":false,"rental_uris":{"android":"levelo://app?vid=cc046d70-c748-4aad-9ab0-df4f83ecce7e","ios":"levelo://app?vid=cc046d70-c748-4aad-9ab0-df4f83ecce7e"},"vehicle_type_id":"4","last_reported":1726762231,"current_range_meters":33600,"station_id":"ce4bh3p2rcd13ifvqdq0","pricing_plan_id":"cebpf4jnsgd1na2vs0mg"},{"bike_id":"56fdb99b-14e1-483f-ad8b-679d3495dd7d","system_id":"levelo_inurba_marseille","lat":43.31076,"lon":5.38357,"is_reserved":false,"is_disabled":false,"rental_uris":{"android":"levelo://app?vid=56fdb99b-14e1-483f-ad8b-679d3495dd7d","ios":"levelo://app?vid=56fdb99b-14e1-483f-ad8b-679d3495dd7d"},"vehicle_type_id":"4","last_reported":1726762231,"current_range_meters":28800,"station_id":"ce4bgv92rcd13ifvqcr0","pricing_plan_id":"cebpf4jnsgd1na2vs0mg"},{"bike_id":"c6eb9851-d68a-4646-a216-88bbb5f466e4","system_id":"levelo_inurba_marseille","lat":43.26195,"lon":5.37446,"is_reserved":false,"is_disabled":false,"rental_uris":{"android":"levelo://app?vid=c6eb9851-d68a-4646-a216-88bbb5f466e4","ios":"levelo://app?vid=c6eb9851-d68a-4646-a216-88bbb5f466e4"},"vehicle_type_id":"4","last_reported":1726762231,"current_range_meters":32000,"station_id":"ce4bhgp2rcd13ifvqfc0","pricing_plan_id":"cebpf4jnsgd1na2vs0mg"},{"bike_id":"b0ae8366-d5d9-4639-9b1c-3e1a2b1c48cb","system_id":"levelo_inurba_marseille","lat":43.297,"lon":5.36624,"is_reserved":false,"is_disabled":false,"rental_uris":{"android":"levelo://app?vid=b0ae8366-d5d9-4639-9b1c-3e1a2b1c48cb","ios":"levelo://app?vid=b0ae8366-d5d9-4639-9b1c-3e1a2b1c48cb"},"vehicle_type_id":"4","last_reported":1726762231,"current_range_meters":6400,"station_id":"ce4bgn12rcd13ifvqbt0","pricing_plan_id":"cebpf4jnsgd1na2vs0mg"},{"bike_id":"534173ed-c7da-49ff-8f57-5d6e6781b1b9","system_id":"levelo_inurba_marseille","lat":43.23187,"lon":5.35538,"is_reserved":false,"is_disabled":false,"rental_uris":{"android":"levelo://app?vid=534173ed-c7da-49ff-8f57-5d6e6781b1b9","ios":"levelo://app?vid=534173ed-c7da-49ff-8f57-5d6e6781b1b9"},"vehicle_type_id":"4","last_reported":1726762231,"current_range_meters":38800,"station_id":"ce4bhu92rcd13ifvqi70","pricing_plan_id":"cebpf4jnsgd1na2vs0mg"},