{"last_updated":1722629356,"ttl":30,"version":"2.2","data":{"bikes":[{"bike_id":"31c7aa46-8aae-40fb-8eb1-9a72f17f0b23","system_id":"levelo_inurba_marseille","lat":43.313391,"lon":5.36706,"is_reserved":false,"is_disabled":false,"rental_uris":{"android":"levelo://app?vid=31c7aa46-8aae-40fb-8eb1-9a72f17f0b23","ios":"levelo://app?vid=31c7aa46-8aae-40fb-8eb1-9a72f17f0b23"},"vehicle_type_id":"4","last_reported":1722629356,"current_range_meters":13200,"station_id":"ce4bgr92rcd13ifvqc6g","pricing_plan_id":"cebpf4jnsgd1na2vs0mg"},{"bike_id":"7f4a6e5c-fbf1-4566-9d91-25a421632f47","system_id":"levelo_inurba_marseille","lat":43.312239,"lon":5.368562,"is_reserved":false,"is_disabled":false,"rental_uris":{"android":"levelo://app?vid=7f4a6e5c-fbf1-4566-9d91-25a421632f47","ios":"levelo://app?vid=7f4a6e5c-fbf1-4566-9d91-25a421632f47"},"vehicle_type_id":"4","last_reported":1722629356,"current_range_meters":15200,"station_id":"ce4bgl92rcd13ifvqbq0","pricing_plan_id":"cebpf4jnsgd1na2vs0mg"},{"bike_id":"9e59a929-8497-4ef5-8a16-1eb782e67cf8","system_id":"levelo_inurba_marseille","lat":43.314811,"lon":5.373103,"is_reserved":false,"is_disabled":false,"rental_uris":{"android":"levelo://app?vid=9e59a929-8497-4ef5-8a16-1eb782e67cf8","ios":"levelo://app?vid=9e59a929-8497-4ef5-8a16-1eb782e67cf8"},"vehicle_type_id":"4","last_reported":1722629356,"current_range_meters":12800,"station_id":"ce4bgt12rcd13ifvqcd0","pricing_plan_id":"cebpf4jnsgd1na2vs0mg"},{"bike_id":"5783854e-e368-48fc-8c07-c77bc05ba13a","system_id":"levelo_inurba_marseille","lat":43.314811,"lon":5.373103,"is_reserved":false,"is_disabled":false,"rental_uris":{"android":"levelo://app?vid=5783854e-e368-48fc-8c07-c77bc05ba13a","ios":"levelo://app?vid=5783854e-e368-48fc-8c07-c77bc05ba13a"},"vehicle_type_id":"4","last_reported":1722629356,"current_range_meters":25600,"station_id":"ce4bgt12rcd13ifvqcd0","pricing_plan_id":"cebpf4jnsgd1na2vs0mg"},{"bike_id":"aa24b17e-7d55-47b8-9eb7-1255d8959fe4","system_id":"levelo_inurba_marseille","lat":43.314811,"lon":5.373103,"is_reserved":false,"is_disabled":false,"rental_uris":{"android":"levelo://app?vid=aa24b17e-7d55-47b8-9eb7-1255d8959fe4","ios":"levelo://app?vid=aa24b17e-7d55-47b8-9eb7-1255d8959fe4"},"vehicle_type_id":"4","last_reported":1722629356,"current_range_meters":28800,"station_id":"ce4bgt12rcd13ifvqcd0","pricing_plan_id":"cebpf4jnsgd1na2vs0mg"},{"bike_id":"5fdd4327-432e-4e8f-b46f-a51c84f1b723","system_id":"levelo_inurba_marseille","lat":43.314811,"lon":5.373104,"is_reserved":false,"is_disabled":false,"rental_uris":{"android":"levelo://app?vid=5fdd4327-432e-4e8f-b46f-a51c84f1b723","ios":"levelo://app?vid=5fdd4327-432e-4e8f-b46f-a51c84f1b723"},"vehicle_type_id":"4","last_reported":1722629356,"current_range_meters":25200,"station_id":"ce4bgt12rcd13ifvqcd0","pricing_plan_id":"cebpf4jnsgd1na2vs0mg"},{"bike_id":"97c3799c-f403-4f65-8aa0-fa46bce266ff","system_id":"levelo_inurba_marseille","lat":43.314811,"lon":5.373104,"is_reserved":false,"is_disabled":false,"rental_uris":{"android":"levelo://app?vid=97c3799c-f403-4f65-8aa0-fa46bce266ff","ios":"levelo://app?vid=97c3799c-f403-4f65-8aa0-fa46bce266ff"},"vehicle_type_id":"4","last_reported":1722629356,"current_range_meters":2400,"station_id":"ce4bgt12rcd13ifvqcd0","pricing_plan_id":"cebpf4jnsgd1na2vs0mg"},{"bike_id":"9b5dfd01-f02f-48c6-99a7-132c2e0f4f4c","system_id":"levelo_inurba_marseille","lat":43.309039,"lon":5.371797,"is_reserved":false,"is_disabled":false,"rental_uris":{"android":"levelo://app?vid=9b5dfd01-f02f-48c6-99a7-132c2e0f4f4c","ios":"levelo://app?vid=9b5dfd01-f02f-48c6-99a7-132c2e0f4f4c"},"vehicle_type_id":"4","last_reported":1722629356,"current_range_meters":8800,"station_id":"ce4bguh2rcd13ifvqckg","pricing_plan_id":"cebpf4jnsgd1na2vs0mg"},{"bike_id":"efb89267-80e0-494e-8a15-cdbffd6a0a8b","system_id":"levelo_inurba_marseille","lat":43.309034,"lon":5.371783,"is_reserved":false,"is_disabled":false,"rental_uris":{"android":"levelo://app?vid=efb89267-80e0-494e-8a15-cdbffd6a0a8b","ios":"levelo://app?vid=efb89267-80e0-494e-8a15-cdbffd6a0a8b"},"vehicle_type_id":"4","last_reported":1722629356,"current_range_meters":19600,"station_id":"ce4bguh2rcd13ifvqckg","pricing_plan_id":"cebpf4jnsgd1na2vs0mg"},{"bike_id":"e06c0227-3688-44de-a303-c5ce6f6fb084","system_id":"levelo_inurba_marseille","lat":43.309034,"lon":5.371783,"is_reserved":false,"is_disabled":false,"rental_uris":{"android":"levelo://app?vid=e06c0227-3688-44de-a303-c5ce6f6fb084","ios":"levelo://app?vid=e06c0227-3688-44de-a303-c5ce6f6fb084"},"vehicle_type_id":"4","last_reported":1722629356,"current_range_meters":18000,"station_id":"ce4bguh2rcd13ifvqckg","pricing_plan_id":"cebpf4jnsgd1na2vs0mg"},{"bike_id":"3907efdf-2a0b-4725-9c86-d436faad1edd","system_id":"levelo_inurba_marseille","lat":43.309034,"lon":5.371783,"is_reserved":false,"is_disabled":false,"rental_uris":{"android":"levelo://app?vid=3907efdf-2a0b-4725-9c86-d436faad1edd","ios":"levelo://app?vid=3907efdf-2a0b-4725-9c86-d436faad1edd"},"vehicle_type_id":"4","last_reported":1722629356,"current_range_meters":12000,"station_id":"ce4bguh2rcd13ifvqckg","pricing_plan_id":"cebpf4jnsgd1na2vs0mg"},{"bike_id":"0829027b-d01a-4570-8177-ce3eaa24a35c","system_id":"levelo_inurba_marseille","lat":43.309034,"lon":5.371783,"is_reserved":false,"is_disabled":false,"rental_uris":{"android":"levelo://app?vid=0829027b-d01a-4570-8177-ce3eaa24a35c","ios":"levelo://app?vid=0829027b-d01a-4570-8177-ce3eaa24a35c"},"vehicle_type_id":"4","last_reported":1722629356,"current_range_meters":4400,"station_id":"ce4bguh2rcd13ifvqckg","pricing_plan_id":"cebpf4jnsgd1na2vs0mg"},{"bike_id":"69eebdea-6b88-4f2e-913a-0898de38fbcc","system_id":"levelo_inurba_marseille","lat":43.314062,"lon":5.37495,"is_reserved":false,"is_disabled":false,"rental_uris":{"android":"levelo://app?vid=69eebdea-6b88-4f2e-913a-0898de38fbcc","ios":"levelo://app?vid=69eebdea-6b88-4f2e-913a-0898de38fbcc"},"vehicle_type_id":"4","last_reported":1722629356,"current_range_meters":29600,"station_id":"","pricing_plan_id":"cebpf4jnsgd1na2vs0mg"},{"bike_id":"beb29842-ed55-4b2d-8381-0e77c72ff93f","system_id":"levelo_inurba_marseille","lat":43.30937,"lon":5.374823,"is_reserved":false,"is_disabled":false,"rental_uris":{"android":"levelo://app?vid=beb29842-ed55-4b2d-8381-0e77c72ff93f","ios":"levelo://app?vid=beb29842-ed55-4b2d-8381-0e77c72ff93f"},"vehicle_type_id":"4","last_reported":1722629356,"current_range_meters":20000,"station_id":"","pricing_plan_id":"cebpf4jnsgd1na2vs0mg"},{"bike_id":"cdea80ba-0e64-4912-a86b-8c5447e9e6ce","system_id":"levelo_inurba_marseille","lat":43.30537,"lon":5.367345,"is_reserved":false,"is_disabled":false,"rental_uris":{"android":"levelo://app?vid=cdea80ba-0e64-4912-a86b-8c5447e9e6ce","ios":"levelo://app?vid=cdea80ba-0e64-4912-a86b-8c5447e9e6ce"},"vehicle_type_id":"4","last_reported":1722629356,"current_range_meters":1200,"station_id":"ce4bgrp2rcd13ifvqc9g","pricing_plan_id":"cebpf4jnsgd1na2vs0mg"},{"bike_id":"eb1665d7-bd17-4eb4-8298-687a6e581a64","system_id":"levelo_inurba_marseille","lat":43.30537,"lon":5.367345,"is_reserved":false,"is_disabled":false,"rental_uris":{"android":"levelo://app?vid=eb1665d7-bd17-4eb4-8298-687a6e581a64","ios":"levelo://app?vid=eb1665d7-bd17-4eb4-8298-687a6e581a64"},"vehicle_type_id":"4","last_reported":1722629356,"current_range_meters":14000,"station_id":"ce4bgrp2rcd13ifvqc9g","pricing_plan_id":"cebpf4jnsgd1na2vs0mg"},{"bike_id":"a921e90f-496f-4e72-9c7a-a2c51c71b3a0","system_id":"levelo_inurba_marseille","lat":43.30539,"lon":5.36709,"is_reserved":false,"is_disabled":false,"rental_uris":{"android":"levelo://app?vid=a921e90f-496f-4e72-9c7a-a2c51c71b3a0","ios":"levelo://app?vid=a921e90f-496f-4e72-9c7a-a2c51c71b3a0"},"vehicle_type_id":"4","last_reported":1722629356,"current_range_meters":8400,"station_id":"ce4bgrp2rcd13ifvqc9g","pricing_plan_id":"cebpf4jnsgd1na2vs0mg"},{"bike_id":"ee59dbfb-ea31-44c9-8e44-f349973276ce","system_id":"levelo_inurba_marseille","lat":43.30537,"lon":5.367345,"is_reserved":false,"is_disabled":false,"rental_uris":{"android":"levelo://app?vid=ee59dbfb-ea31-44c9-8e44-f349973276ce","ios":"levelo://app?vid=ee59dbfb-ea31-44c9-8e44-f349973276ce"},"vehicle_type_id":"4","last_reported":1722629356,"current_range_meters":0,"station_id":"ce4bgrp2rcd13ifvqc9g","pricing_plan_id":"cebpf4jnsgd1na2vs0mg"},{"bike_id":"fc1216cf-d98e-451b-b386-f283ce2ccc92","system_id":"levelo_inurba_marseille","lat":43.305714,"lon":5.365633,"is_reserved":false,"is_disabled":false,"rental_uris":{"android":"levelo://app?vid=fc1216cf-d98e-451b-b386-f283ce2ccc92","ios":"levelo://app?vid=fc1216cf-d98e-451b-b386-f283ce2ccc92"},"vehicle_type_id":"4","last_reported":1722629356,"current_range_meters":26400,"station_id":"ce4bgs12rcd13ifvqcag","pricing_plan_id":"cebpf4jnsgd1na2vs0mg"},{"bike_id":"20ccabaf-6bd1-4cbb-b40b-ea5e986f1972","system_id":"levelo_inurba_marseille","lat":43.30537,"lon":5.367345,"is_reserved":false,"is_disabled":false,"rental_uris":{"android":"levelo://app?vid=20ccabaf-6bd1-4cbb-b40b-ea5e986f1972","ios":"levelo://app?vid=20ccabaf-6bd1-4cbb-b40b-ea5e986f1972"},"vehicle_type_id":"4","last_reported":1722629356,"current_range_meters":3200,"station_id":"ce4bgrp2rcd13ifvqc9g","pricing_plan_id":"cebpf4jnsgd1na2vs0mg"},{"bike_id":"adc3930e-ca25-444c-a0a0-f82644567a6d","system_id":"levelo_inurba_marseille","lat":43.305368,"lon":5.367343,"is_reserved":false,"is_disabled":false,"rental_uris":{"android":"levelo://app?vid=adc3930e-ca25-444c-a0a0-f82644567a6d","ios":"levelo://app?vid=adc3930e-ca25-444c-a0a0-f82644567a6d"},"vehicle_type_id":"4","last_reported":1722629356,"current_range_meters":29600,"station_id":"ce4bgrp2rcd13ifvqc9g","pricing_plan_id":"cebpf4jnsgd1na2vs0mg"},{"bike_id":"07b41be6-8cfe-4972-a67f-b26e2ac38402","system_id":"levelo_inurba_marseille","lat":43.305989,"lon":5.37225,"is_reserved":false,"is_disabled":false,"rental_uris":{"android":"levelo://app?vid=07b41be6-8cfe-4972-a67f-b26e2ac38402","ios":"levelo://app?vid=07b41be6-8cfe-4972-a67f-b26e2ac38402"},"vehicle_type_id":"4","last_reported":1722629356,"current_range_meters":16800,"station_id":"ce4bgqh2rcd13ifvqc4g","pricing_plan_id":"cebpf4jnsgd1na2vs0mg"},{"bike_id":"69423722-ba6e-4065-95d4-265a11b52e60","system_id":"levelo_inurba_marseille","lat":43.311125,"lon":5.377624,"is_reserved":false,"is_disabled":false,"rental_uris":{"android":"levelo://app?vid=69423722-ba6e-4065-95d4-265a11b52e60","ios":"levelo://app?vid=69423722-ba6e-4065-95d4-265a11b52e60"},"vehicle_type_id":"4","last_reported":1722629356,"current_range_meters":23200,"station_id":"ce4bgt92rcd13ifvqcg0","pricing_plan_id":"cebpf4jnsgd1na2vs0mg"},{"bike_id":"d4ccb4e5-2233-44aa-ae07-653b175044b5","system_id":"levelo_inurba_marseille","lat":43.31135,"lon":5.37771,"is_reserved":false,"is_disabled":false,"rental_uris":{"android":"levelo://app?vid=d4ccb4e5-2233-44aa-ae07-653b175044b5","ios":"levelo://app?vid=d4ccb4e5-2233-44aa-ae07-653b175044b5"},"vehicle_type_id":"4","last_reported":1722629356,"current_range_meters":31200,"station_id":"ce4bgt92rcd13ifvqcg0","pricing_plan_id":"cebpf4jnsgd1na2vs0mg"},{"bike_id":"842e953f-154b-4b1d-90a0-2b005cfc3865","system_id":"levelo_inurba_marseille","lat":43.311125,"lon":5.377624,"is_reserved":false,"is_disabled":false,"rental_uris":{"android":"levelo://app?vid=842e953f-154b-4b1d-90a0-2b005cfc3865","ios":"levelo://app?vid=842e953f-154b-4b1d-90a0-2b005cfc3865"},"vehicle_type_id":"4","last_reported":1722629356,"current_range_meters":19200,"station_id":"ce4bgt92rcd13ifvqcg0","pricing_plan_id":"cebpf4jnsgd1na2vs0mg"},{"bike_id":"e68295e3-25b4-41e6-8ef5-da16719c90c2","system_id":"levelo_inurba_marseille","lat":43.31131,"lon":5.37774,"is_reserved":false,"is_disabled":false,"rental_uris":{"android":"levelo://app?vid=e68295e3-25b4-41e6-8ef5-da16719c90c2","ios":"levelo://app?vid=e68295e3-25b4-41e6-8ef5-da16719c90c2"},"vehicle_type_id":"4","last_reported":1722629356,"current_range_meters":31200,"station_id":"ce4bgt92rcd13ifvqcg0","pricing_plan_id":"cebpf4jnsgd1na2vs0mg"},{"bike_id":"2c8a7dad-a7fc-40d6-ac24-5138d11f03e2","system_id":"levelo_inurba_marseille","lat":43.307945,"lon":5.376487,"is_reserved":false,"is_disabled":false,"rental_uris":{"android":"levelo://app?vid=2c8a7dad-a7fc-40d6-ac24-5138d11f03e2","ios":"levelo://app?vid=2c8a7dad-a7fc-40d6-ac24-5138d11f03e2"},"vehicle_type_id":"4","last_reported":1722629356,"current_range_meters":1200,"station_id":"ce4bgv92rcd13ifvqcq0","pricing_plan_id":"cebpf4jnsgd1na2vs0mg"},{"bike_id":"a0bf2e7d-349c-495c-b369-8622580995dd","system_id":"levelo_inurba_marseille","lat":43.317075,"lon":5.377367,"is_reserved":false,"is_disabled":false,"rental_uris":{"android":"levelo://app?vid=a0bf2e7d-349c-495c-b369-8622580995dd","ios":"levelo://app?vid=a0bf2e7d-349c-495c-b369-8622580995dd"},"vehicle_type_id":"4","last_reported":1722629356,"current_range_meters":7600,"station_id":"ce4bgth2rcd13ifvqch0","pricing_plan_id":"cebpf4jnsgd1na2vs0mg"},{"bike_id":"6ae84527-6147-4032-a8a5-335036cb429e","system_id":"levelo_inurba_marseille","lat":43.317075,"lon":5.377367,"is_reserved":false,"is_disabled":false,"rental_uris":{"android":"levelo://app?vid=6ae84527-6147-4032-a8a5-335036cb429e","ios":"levelo://app?vid=6ae84527-6147-4032-a8a5-335036cb429e"},"vehicle_type_id":"4","last_reported":1722629356,"current_range_meters":27600,"station_id":"ce4bgth2rcd13ifvqch0","pricing_plan_id":"cebpf4jnsgd1na2vs0mg"},{"bike_id":"7c14d4b9-0373-42f4-98ca-5464de42dfc1","system_id":"levelo_inurba_marseille","lat":43.315289,"lon":5.380349,"is_reserved":false,"is_disabled":false,"rental_uris":{"android":"levelo://app?vid=7c14d4b9-0373-42f4-98ca-5464de42dfc1","ios":"levelo://app?vid=7c14d4b9-0373-42f4-98ca-5464de42dfc1"},"vehicle_type_id":"4","last_reported":1722629356,"current_range_meters":1200,"station_id":"ce4bhsp2rcd13ifvqi50","pricing_plan_id":"cebpf4jnsgd1na2vs0mg"},{"bike_id":"cc7a1eb7-4039-4bf9-988c-0a49c889319f","system_id":"levelo_inurba_marseille","lat":43.30498,"lon":5.37522,"is_reserved":false,"is_disabled":false,"rental_uris":{"android":"levelo://app?vid=cc7a1eb7-4039-4bf9-988c-0a49c889319f","ios":"levelo://app?vid=cc7a1eb7-4039-4bf9-988c-0a49c889319f"},"vehicle_type_id":"4","last_reported":1722629356,"current_range_meters":8400,"station_id":"","pricing_plan_id":"cebpf4jnsgd1na2vs0mg"},{"bike_id":"72e5aef9-18dc-4670-90b3-3b4d9f66f1aa","system_id":"levelo_inurba_marseille","lat":43.315289,"lon":5.380349,"is_reserved":false,"is_disabled":false,"rental_uris":{"android":"levelo://app?vid=72e5aef9-18dc-4670-90b3-3b4d9f66f1aa","ios":"levelo://app?vid=72e5aef9-18dc-4670-90b3-3b4d9f66f1aa"},"vehicle_type_id":"4","last_reported":1722629356,"current_range_meters":6000,"station_id":"ce4bhsp2rcd13ifvqi50","pricing_plan_id":"cebpf4jnsgd1na2vs0mg"},{"bike_id":"d4d9da1b-07ea-4647-8603-83a09b7a9b13","system_id":"levelo_inurba_marseille","lat":43.315289,"lon":5.380349,"is_reserved":false,"is_disabled":false,"rental_uris":{"android":"levelo://app?vid=d4d9da1b-07ea-4647-8603-83a09b7a9b13","ios":"levelo://app?vid=d4d9da1b-07ea-4647-8603-83a09b7a9b13"},"vehicle_type_id":"4","last_reported":1722629356,"current_range_meters":0,"station_id":"ce4bhsp2rcd13ifvqi50","pricing_plan_id":"cebpf4jnsgd1na2vs0mg"},{"bike_id":"7d26f442-7c92-4f3d-8240-0ca62ad96ee4","system_id":"levelo_inurba_marseille","lat":43.32347,"lon":5.36478,"is_reserved":false,"is_disabled":false,"rental_uris":{"android":"levelo://app?vid=7d26f442-7c92-4f3d-8240-0ca62ad96ee4","ios":"levelo://app?vid=7d26f442-7c92-4f3d-8240-0ca62ad96ee4"},"vehicle_type_id":"4","last_reported":1722629356,"current_range_meters":29200,"station_id":"","pricing_plan_id":"cebpf4jnsgd1na2vs0mg"},{"bike_id":"cdd65cd0-c130-4ee4-8caa-d6305ba92498","system_id":"levelo_inurba_marseille","lat":43.301939,"lon":5.366286,"is_reserved":false,"is_disabled":false,"rental_uris":{"android":"levelo://app?vid=cdd65cd0-c130-4ee4-8caa-d6305ba92498","ios":"levelo://app?vid=cdd65cd0-c130-4ee4-8caa-d6305ba92498"},"vehicle_type_id":"4","last_reported":1722629356,"current_range_meters":18800,"station_id":"ce4bgrh2rcd13ifvqc8g","pricing_plan_id":"cebpf4jnsgd1na2vs0mg"},{"bike_id":"a7b780e9-42ef-41e1-a8d1-9acdd656f735","system_id":"levelo_inurba_marseille","lat":43.31624,"lon":5.38189,"is_reserved":false,"is_disabled":false,"rental_uris":{"android":"levelo://app?vid=a7b780e9-42ef-41e1-a8d1-9acdd656f735","ios":"levelo://app?vid=a7b780e9-42ef-41e1-a8d1-9acdd656f735"},"vehicle_type_id":"4","last_reported":1722629356,"current_range_meters":14800,"station_id":"","pricing_plan_id":"cebpf4jnsgd1na2vs0mg"},{"bike_id":"392be495-a6e2-4c2c-adf7-ff023ca2dcde","system_id":"levelo_inurba_marseille","lat":43.304606,"lon":5.379026,"is_reserved":false,"is_disabled":false,"rental_uris":{"android":"levelo://app?vid=392be495-a6e2-4c2c-adf7-ff023ca2dcde","ios":"levelo://app?vid=392be495-a6e2-4c2c-adf7-ff023ca2dcde"},"vehicle_type_id":"4","last_reported":1722629356,"current_range_meters":7600,"station_id":"ce4bgup2rcd13ifvqcn0","pricing_plan_id":"cebpf4jnsgd1na2vs0mg"},{"bike_id":"c14aeb51-646d-4522-9b8b-74f57a5c0a12","system_id":"levelo_inurba_marseille","lat":43.32475,"lon":5.36568,"is_reserved":false,"is_disabled":false,"rental_uris":{"android":"levelo://app?vid=c14aeb51-646d-4522-9b8b-74f57a5c0a12","ios":"levelo://app?vid=c14aeb51-646d-4522-9b8b-74f57a5c0a12"},"vehicle_type_id":"4","last_reported":1722629356,"current_range_meters":3600,"station_id":"ce4bhs12rcd13ifvqhvg","pricing_plan_id":"cebpf4jnsgd1na2vs0mg"},{"bike_id":"a40a97fe-8b2c-4e57-9687-bb54a2b0aca5","system_id":"levelo_inurba_marseille","lat":43.324771,"lon":5.36557,"is_reserved":false,"is_disabled":false,"rental_uris":{"android":"levelo://app?vid=a40a97fe-8b2c-4e57-9687-bb54a2b0aca5","ios":"levelo://app?vid=a40a97fe-8b2c-4e57-9687-bb54a2b0aca5"},"vehicle_type_id":"4","last_reported":1722629356,"current_range_meters":19200,"station_id":"ce4bhs12rcd13ifvqhvg","pricing_plan_id":"cebpf4jnsgd1na2vs0mg"},{"bike_id":"b950841e-a59c-47a5-8ded-1ed5f84f13f7","system_id":"levelo_inurba_marseille","lat":43.304606,"lon":5.379026,"is_reserved":false,"is_disabled":false,"rental_uris":{"android":"levelo://app?vid=b950841e-a59c-47a5-8ded-1ed5f84f13f7","ios":"levelo://app?vid=b950841e-a59c-47a5-8ded-1ed5f84f13f7"},"vehicle_type_id":"4","last_reported":1722629356,"current_range_meters":0,"station_id":"ce4bgup2rcd13ifvqcn0","pricing_plan_id":"cebpf4jnsgd1na2vs0mg"},{"bike_id":"cfbb5f88-214f-4b9d-a4eb-4496dbd9322a","system_id":"levelo_inurba_marseille","lat":43.324771,"lon":5.36557,"is_reserved":false,"is_disabled":false,"rental_uris":{"android":"levelo://app?vid=cfbb5f88-214f-4b9d-a4eb-4496dbd9322a","ios":"levelo://app?vid=cfbb5f88-214f-4b9d-a4eb-4496dbd9322a"},"vehicle_type_id":"4","last_reported":1722629356,"current_range_meters":31600,"station_id":"ce4bhs12rcd13ifvqhvg","pricing_plan_id":"cebpf4jnsgd1na2vs0mg"},{"bike_id":"beeda0f1-89e2-4af3-b385-14a3434487f0","system_id":"levelo_inurba_marseille","lat":43.324771,"lon":5.36557,"is_reserved":false,"is_disabled":false,"rental_uris":{"android":"levelo://app?vid=beeda0f1-89e2-4af3-b385-14a3434487f0","ios":"levelo://app?vid=beeda0f1-89e2-4af3-b385-14a3434487f0"},"vehicle_type_id":"4","last_reported":1722629356,"current_range_meters":24800,"station_id":"ce4bhs12rcd13ifvqhvg","pricing_plan_id":"cebpf4jnsgd1na2vs0mg"},{"bike_id":"d50f5eee-d5a0-407d-8e48-052c6677cd42","system_id":"levelo_inurba_marseille","lat":43.32482,"lon":5.36569,"is_reserved":false,"is_disabled":false,"rental_uris":{"android":"levelo://app?vid=d50f5eee-d5a0-407d-8e48-052c6677cd42","ios":"levelo://app?vid=d50f5eee-d5a0-407d-8e48-052c6677cd42"},"vehicle_type_id":"4","last_reported":1722629356,"current_range_meters":23200,"station_id":"ce4bhs12rcd13ifvqhvg","pricing_plan_id":"cebpf4jnsgd1na2vs0mg"},{"bike_id":"8e38401a-6489-4adf-a565-c28dd1fcc7d9","system_id":"levelo_inurba_marseille","lat":43.31078,"lon":5.3835,"is_reserved":false,"is_disabled":false,"rental_uris":{"android":"levelo://app?vid=8e38401a-6489-4adf-a565-c28dd1fcc7d9","ios":"levelo://app?vid=8e38401a-6489-4adf-a565-c28dd1fcc7d9"},"vehicle_type_id":"4","last_reported":1722629356,"current_range_meters":21600,"station_id":"ce4bgv92rcd13ifvqcr0","pricing_plan_id":"cebpf4jnsgd1na2vs0mg"},{"bike_id":"1716bffb-7402-4c05-945a-ce26edc0f792","system_id":"levelo_inurba_marseille","lat":43.310804,"lon":5.38359,"is_reserved":false,"is_disabled":false,"rental_uris":{"android":"levelo://app?vid=1716bffb-7402-4c05-945a-ce26edc0f792","ios":"levelo://app?vid=1716bffb-7402-4c05-945a-ce26edc0f792"},"vehicle_type_id":"4","last_reported":1722629356,"current_range_meters":31200,"station_id":"ce4bgv92rcd13ifvqcr0","pricing_plan_id":"cebpf4jnsgd1na2vs0mg"},{"bike_id":"a8a932b1-ef39-4ad8-a278-5a562fd76d5d","system_id":"levelo_inurba_marseille","lat":43.310804,"lon":5.38359,"is_reserved":false,"is_disabled":false,"rental_uris":{"android":"levelo://app?vid=a8a932b1-ef39-4ad8-a278-5a562fd76d5d","ios":"levelo://app?vid=a8a932b1-ef39-4ad8-a278-5a562fd76d5d"},"vehicle_type_id":"4","last_reported":1722629356,"current_range_meters":31200,"station_id":"ce4bgv92rcd13ifvqcr0","pricing_plan_id":"cebpf4jnsgd1na2vs0mg"},{"bike_id":"69e4f60e-0e77-4fbb-b661-9b209be5d48a","system_id":"levelo_inurba_marseille","lat":43.310804,"lon":5.38359,"is_reserved":false,"is_disabled":false,"rental_uris":{"android":"levelo://app?vid=69e4f60e-0e77-4fbb-b661-9b209be5d48a","ios":"levelo://app?vid=69e4f60e-0e77-4fbb-b661-9b209be5d48a"},"vehicle_type_id":"4","last_reported":1722629356,"current_range_meters":11600,"station_id":"ce4bgv92rcd13ifvqcr0","pricing_plan_id":"cebpf4jnsgd1na2vs0mg"},{"bike_id":"cebf02b4-ecd3-44e8-b53c-63d84276b4f2","system_id":"levelo_inurba_marseille","lat":43.310732,"lon":5.383547,"is_reserved":false,"is_disabled":false,"rental_uris":{"android":"levelo://app?vid=cebf02b4-ecd3-44e8-b53c-63d84276b4f2","ios":"levelo://app?vid=cebf02b4-ecd3-44e8-b53c-63d84276b4f2"},"vehicle_type_id":"4","last_reported":1722629356,"current_range_meters":11600,"station_id":"ce4bgv92rcd13ifvqcr0","pricing_plan_id":"cebpf4jnsgd1na2vs0mg"},{"bike_id":"b0f09116-7001-48a9-b184-056ef89c15a6","system_id":"levelo_inurba_marseille","lat":43.302784,"lon":5.377158,"is_reserved":false,"is_disabled":false,"rental_uris":{"android":"levelo://app?vid=b0f09116-7001-48a9-b184-056ef89c15a6","ios":"levelo://app?vid=b0f09116-7001-48a9-b184-056ef89c15a6"},"vehicle_type_id":"4","last_reported":1722629356,"current_range_meters":12000,"station_id":"ce4bguh2rcd13ifvqcj0","pricing_plan_id":"cebpf4jnsgd1na2vs0mg"},{"bike_id":"7226e6f7-ce5a-4ab3-b570-2612b16231fe","system_id":"levelo_inurba_marseille","lat":43.310804,"lon":5.38359,"is_reserved":false,"is_disabled":false,"rental_uris":{"android":"levelo://app?vid=7226e6f7-ce5a-4ab3-b570-2612b16231fe","ios":"levelo://app?vid=7226e6f7-ce5a-4ab3-b570-2612b16231fe"},"vehicle_type_id":"4","last_reported":1722629356,"current_range_meters":12000,"station_id":"ce4bgv92rcd13ifvqcr0","pricing_plan_id":"cebpf4jnsgd1na2vs0mg"},{"bike_id":"bf57a654-d4d3-4d02-b99a-362c42b413e6","system_id":"levelo_inurba_marseille","lat":43.31071,"lon":5.38365,"is_reserved":false,"is_disabled":false,"rental_uris":{"android":"levelo://app?vid=bf57a654-d4d3-4d02-b99a-362c42b413e6","ios":"levelo://app?vid=bf57a654-d4d3-4d02-b99a-362c42b413e6"},"vehicle_type_id":"4","last_reported":1722629356,"current_range_meters":5200,"station_id":"ce4bgv92rcd13ifvqcr0","pricing_plan_id":"cebpf4jnsgd1na2vs0mg"},{"bike_id":"31b560a9-0071-4770-bc5f-9e58b1787fd5","system_id":"levelo_inurba_marseille","lat":43.302784,"lon":5.377158,"is_reserved":false,"is_disabled":false,"rental_uris":{"android":"levelo://app?vid=31b560a9-0071-4770-bc5f-9e58b1787fd5","ios":"levelo://app?vid=31b560a9-0071-4770-bc5f-9e58b1787fd5"},"vehicle_type_id":"4","last_reported":1722629356,"current_range_meters":6400,"station_id":"ce4bguh2rcd13ifvqcj0","pricing_plan_id":"cebpf4jnsgd1na2vs0mg"},{"bike_id":"8e7b8d73-c3e3-4aec-b984-7bdee0571ab7","system_id":"levelo_inurba_marseille","lat":43.30143,"lon":5.37413,"is_reserved":false,"is_disabled":false,"rental_uris":{"android":"levelo://app?vid=8e7b8d73-c3e3-4aec-b984-7bdee0571ab7","ios":"levelo://app?vid=8e7b8d73-c3e3-4aec-b984-7bdee0571ab7"},"vehicle_type_id":"4","last_reported":1722629356,"current_range_meters":6400,"station_id":"ce4bgs92rcd13ifvqcc0","pricing_plan_id":"cebpf4jnsgd1na2vs0mg"},{"bike_id":"651886fa-3b61-4449-b3cd-96bbb9d06444","system_id":"levelo_inurba_marseille","lat":43.30143,"lon":5.37413,"is_reserved":false,"is_disabled":false,"rental_uris":{"android":"levelo://app?vid=651886fa-3b61-4449-b3cd-96bbb9d06444","ios":"levelo://app?vid=651886fa-3b61-4449-b3cd-96bbb9d06444"},"vehicle_type_id":"4","last_reported":1722629356,"current_range_meters":8800,"station_id":"ce4bgs92rcd13ifvqcc0","pricing_plan_id":"cebpf4jnsgd1na2vs0mg"},{"bike_id":"fad462a2-6e43-4d84-96cb-fb722545a036","system_id":"levelo_inurba_marseille","lat":43.319935,"lon":5.381699,"is_reserved":false,"is_disabled":false,"rental_uris":{"android":"levelo://app?vid=fad462a2-6e43-4d84-96cb-fb722545a036","ios":"levelo://app?vid=fad462a2-6e43-4d84-96cb-fb722545a036"},"vehicle_type_id":"4","last_reported":1722629356,"current_range_meters":4400,"station_id":"ce4bhr12rcd13ifvqhpg","pricing_plan_id":"cebpf4jnsgd1na2vs0mg"},{"bike_id":"f6f60429-f775-4eff-ad86-83602cab5b64","system_id":"levelo_inurba_marseille","lat":43.319935,"lon":5.381699,"is_reserved":false,"is_disabled":false,"rental_uris":{"android":"levelo://app?vid=f6f60429-f775-4eff-ad86-83602cab5b64","ios":"levelo://app?vid=f6f60429-f775-4eff-ad86-83602cab5b64"},"vehicle_type_id":"4","last_reported":1722629356,"current_range_meters":21600,"station_id":"ce4bhr12rcd13ifvqhpg","pricing_plan_id":"cebpf4jnsgd1na2vs0mg"},{"bike_id":"f5c05407-074e-4404-bcc6-0335e98c5850","system_id":"levelo_inurba_marseille","lat":43.319935,"lon":5.381699,"is_reserved":false,"is_disabled":false,"rental_uris":{"android":"levelo://app?vid=f5c05407-074e-4404-bcc6-0335e98c5850","ios":"levelo://app?vid=f5c05407-074e-4404-bcc6-0335e98c5850"},"vehicle_type_id":"4","last_reported":1722629356,"current_range_meters":22000,"station_id":"ce4bhr12rcd13ifvqhpg","pricing_plan_id":"cebpf4jnsgd1na2vs0mg"},{"bike_id":"468d1d5d-3fcc-4b92-9efc-c13d437ba07c","system_id":"levelo_inurba_marseille","lat":43.30612,"lon":5.3822,"is_reserved":false,"is_disabled":false,"rental_uris":{"android":"levelo://app?vid=468d1d5d-3fcc-4b92-9efc-c13d437ba07c","ios":"levelo://app?vid=468d1d5d-3fcc-4b92-9efc-c13d437ba07c"},"vehicle_type_id":"4","last_reported":1722629356,"current_range_meters":19600,"station_id":"","pricing_plan_id":"cebpf4jnsgd1na2vs0mg"},{"bike_id":"fa278f9c-60f8-4985-89af-c8214d663c7c","system_id":"levelo_inurba_marseille","lat":43.319935,"lon":5.381699,"is_reserved":false,"is_disabled":false,"rental_uris":{"android":"levelo://app?vid=fa278f9c-60f8-4985-89af-c8214d663c7c","ios":"levelo://app?vid=fa278f9c-60f8-4985-89af-c8214d663c7c"},"vehicle_type_id":"4","last_reported":1722629356,"current_range_meters":23600,"station_id":"ce4bhr12rcd13ifvqhpg","pricing_plan_id":"cebpf4jnsgd1na2vs0mg"},{"bike_id":"abec8c7c-7cb5-49db-bbbe-00f98045888f","system_id":"levelo_inurba_marseille","lat":43.294153,"lon":5.386305,"is_reserved":false,"is_disabled":false,"rental_uris":{"android":"levelo://app?vid=abec8c7c-7cb5-49db-bbbe-00f98045888f","ios":"levelo://app?vid=abec8c7c-7cb5-49db-bbbe-00f98045888f"},"vehicle_type_id":"4","last_reported":1722629356,"current_range_meters":6800,"station_id":"ce4bh2h2rcd13ifvqdh0","pricing_plan_id":"cebpf4jnsgd1na2vs0mg"},{"bike_id":"09399824-0237-4569-a4e8-dba15717b1bc","system_id":"levelo_inurba_marseille","lat":43.313571,"lon":5.384829,"is_reserved":false,"is_disabled":false,"rental_uris":{"android":"levelo://app?vid=09399824-0237-4569-a4e8-dba15717b1bc","ios":"levelo://app?vid=09399824-0237-4569-a4e8-dba15717b1bc"},"vehicle_type_id":"4","last_reported":1722629356,"current_range_meters":12000,"station_id":"ce4bgt92rcd13ifvqcf0","pricing_plan_id":"cebpf4jnsgd1na2vs0mg"},{"bike_id":"cc4707aa-6ddb-42e6-b9e3-51a1f40608fc","system_id":"levelo_inurba_marseille","lat":43.313571,"lon":5.384829,"is_reserved":false,"is_disabled":false,"rental_uris":{"android":"levelo://app?vid=cc4707aa-6ddb-42e6-b9e3-51a1f40608fc","ios":"levelo://app?vid=cc4707aa-6ddb-42e6-b9e3-51a1f40608fc"},"vehicle_type_id":"4","last_reported":1722629356,"current_range_meters":30800,"station_id":"ce4bgt92rcd13ifvqcf0","pricing_plan_id":"cebpf4jnsgd1na2vs0mg"},{"bike_id":"2f55cf8d-72d9-4153-8a83-7bbdb6b84753","system_id":"levelo_inurba_marseille","lat":43.313571,"lon":5.384829,"is_reserved":false,"is_disabled":false,"rental_uris":{"android":"levelo://app?vid=2f55cf8d-72d9-4153-8a83-7bbdb6b84753","ios":"levelo://app?vid=2f55cf8d-72d9-4153-8a83-7bbdb6b84753"},"vehicle_type_id":"4","last_reported":1722629356,"current_range_meters":10000,"station_id":"ce4bgt92rcd13ifvqcf0","pricing_plan_id":"cebpf4jnsgd1na2vs0mg"},{"bike_id":"b0e5661f-32be-4811-87ce-cacddebd43ec","system_id":"levelo_inurba_marseille","lat":43.31365,"lon":5.38491,"is_reserved":false,"is_disabled":false,"rental_uris":{"android":"levelo://app?vid=b0e5661f-32be-4811-87ce-cacddebd43ec","ios":"levelo://app?vid=b0e5661f-32be-4811-87ce-cacddebd43ec"},"vehicle_type_id":"4","last_reported":1722629356,"current_range_meters":12400,"station_id":"ce4bgt92rcd13ifvqcf0","pricing_plan_id":"cebpf4jnsgd1na2vs0mg"},{"bike_id":"7bf855f6-0189-40f2-8a8c-77d660e9cfa7","system_id":"levelo_inurba_marseille","lat":43.313571,"lon":5.384829,"is_reserved":false,"is_disabled":false,"rental_uris":{"android":"levelo://app?vid=7bf855f6-0189-40f2-8a8c-77d660e9cfa7","ios":"levelo://app?vid=7bf855f6-0189-40f2-8a8c-77d660e9cfa7"},"vehicle_type_id":"4","last_reported":1722629356,"current_range_meters":12400,"station_id":"ce4bgt92rcd13ifvqcf0","pricing_plan_id":"cebpf4jnsgd1na2vs0mg"},{"bike_id":"db0e6572-c961-4d00-ba05-d9939a1869f6","system_id":"levelo_inurba_marseille","lat":43.313571,"lon":5.384829,"is_reserved":false,"is_disabled":false,"rental_uris":{"android":"levelo://app?vid=db0e6572-c961-4d00-ba05-d9939a1869f6","ios":"levelo://app?vid=db0e6572-c961-4d00-ba05-d9939a1869f6"},"vehicle_type_id":"4","last_reported":1722629356,"current_range_meters":7600,"station_id":"ce4bgt92rcd13ifvqcf0","pricing_plan_id":"cebpf4jnsgd1na2vs0mg"},{"bike_id":"d8412952-053a-4864-aea5-7c9a5c16ebf2","system_id":"levelo_inurba_marseille","lat":43.313571,"lon":5.384829,"is_reserved":false,"is_disabled":false,"rental_uris":{"android":"levelo://app?vid=d8412952-053a-4864-aea5-7c9a5c16ebf2","ios":"levelo://app?vid=d8412952-053a-4864-aea5-7c9a5c16ebf2"},"vehicle_type_id":"4","last_reported":1722629356,"current_range_meters":6000,"station_id":"ce4bgt92rcd13ifvqcf0","pricing_plan_id":"cebpf4jnsgd1na2vs0mg"},{"bike_id":"7ba192ee-6965-4383-9ef5-f81117b78aa6","system_id":"levelo_inurba_marseille","lat":43.313571,"lon":5.384829,"is_reserved":false,"is_disabled":false,"rental_uris":{"android":"levelo://app?vid=7ba192ee-6965-4383-9ef5-f81117b78aa6","ios":"levelo://app?vid=7ba192ee-6965-4383-9ef5-f81117b78aa6"},"vehicle_type_id":"4","last_reported":1722629356,"current_range_meters":21600,"station_id":"ce4bgt92rcd13ifvqcf0","pricing_plan_id":"cebpf4jnsgd1na2vs0mg"},{"bike_id":"b8063fe8-8fd7-4dce-9e70-59b2996b9a85","system_id":"levelo_inurba_marseille","lat":43.3137,"lon":5.38498,"is_reserved":false,"is_disabled":false,"rental_uris":{"android":"levelo://app?vid=b8063fe8-8fd7-4dce-9e70-59b2996b9a85","ios":"levelo://app?vid=b8063fe8-8fd7-4dce-9e70-59b2996b9a85"},"vehicle_type_id":"4","last_reported":1722629356,"current_range_meters":4000,"station_id":"ce4bgt92rcd13ifvqcf0","pricing_plan_id":"cebpf4jnsgd1na2vs0mg"},{"bike_id":"b6dd07f6-eb76-49cd-b5bf-3928fb8d3663","system_id":"levelo_inurba_marseille","lat":43.313571,"lon":5.384829,"is_reserved":false,"is_disabled":false,"rental_uris":{"android":"levelo://app?vid=b6dd07f6-eb76-49cd-b5bf-3928fb8d3663","ios":"levelo://app?vid=b6dd07f6-eb76-49cd-b5bf-3928fb8d3663"},"vehicle_type_id":"4","last_reported":1722629356,"current_range_meters":19600,"station_id":"ce4bgt92rcd13ifvqcf0","pricing_plan_id":"cebpf4jnsgd1na2vs0mg"},{"bike_id":"c2aba0f4-0c4d-41b4-87eb-e6208d763908","system_id":"levelo_inurba_marseille","lat":43.31364,"lon":5.385,"is_reserved":false,"is_disabled":false,"rental_uris":{"android":"levelo://app?vid=c2aba0f4-0c4d-41b4-87eb-e6208d763908","ios":"levelo://app?vid=c2aba0f4-0c4d-41b4-87eb-e6208d763908"},"vehicle_type_id":"4","last_reported":1722629356,"current_range_meters":28000,"station_id":"ce4bgt92rcd13ifvqcf0","pricing_plan_id":"cebpf4jnsgd1na2vs0mg"},{"bike_id":"edc4c5e2-9384-41bc-8654-2c4cffed7988","system_id":"levelo_inurba_marseille","lat":43.299824,"lon":5.37175,"is_reserved":false,"is_disabled":false,"rental_uris":{"android":"levelo://app?vid=edc4c5e2-9384-41bc-8654-2c4cffed7988","ios":"levelo://app?vid=edc4c5e2-9384-41bc-8654-2c4cffed7988"},"vehicle_type_id":"4","last_reported":1722629356,"current_range_meters":0,"station_id":"ce4bgr92rcd13ifvqc7g","pricing_plan_id":"cebpf4jnsgd1na2vs0mg"},{"bike_id":"a02a3c08-9f9a-4182-9f4a-42b2d54b8138","system_id":"levelo_inurba_marseille","lat":43.299724,"lon":5.371829,"is_reserved":false,"is_disabled":false,"rental_uris":{"android":"levelo://app?vid=a02a3c08-9f9a-4182-9f4a-42b2d54b8138","ios":"levelo://app?vid=a02a3c08-9f9a-4182-9f4a-42b2d54b8138"},"vehicle_type_id":"4","last_reported":1722629356,"current_range_meters":18800,"station_id":"ce4bgr92rcd13ifvqc7g","pricing_plan_id":"cebpf4jnsgd1na2vs0mg"},{"bike_id":"5e946919-c196-4829-a0da-4736b747e886","system_id":"levelo_inurba_marseille","lat":43.299724,"lon":5.371829,"is_reserved":false,"is_disabled":false,"rental_uris":{"android":"levelo://app?vid=5e946919-c196-4829-a0da-4736b747e886","ios":"levelo://app?vid=5e946919-c196-4829-a0da-4736b747e886"},"vehicle_type_id":"4","last_reported":1722629356,"current_range_meters":30000,"station_id":"ce4bgr92rcd13ifvqc7g","pricing_plan_id":"cebpf4jnsgd1na2vs0mg"},{"bike_id":"4c306cd9-ac09-4afa-b2ea-321bc317bfed","system_id":"levelo_inurba_marseille","lat":43.319935,"lon":5.381699,"is_reserved":false,"is_disabled":false,"rental_uris":{"android":"levelo://app?vid=4c306cd9-ac09-4afa-b2ea-321bc317bfed","ios":"levelo://app?vid=4c306cd9-ac09-4afa-b2ea-321bc317bfed"},"vehicle_type_id":"4","last_reported":1722629356,"current_range_meters":28800,"station_id":"ce4bhr12rcd13ifvqhpg","pricing_plan_id":"cebpf4jnsgd1na2vs0mg"},{"bike_id":"4ee3ca25-3c30-4706-998b-27401ffdcaf8","system_id":"levelo_inurba_marseille","lat":43.299724,"lon":5.371829,"is_reserved":false,"is_disabled":false,"rental_uris":{"android":"levelo://app?vid=4ee3ca25-3c30-4706-998b-27401ffdcaf8","ios":"levelo://app?vid=4ee3ca25-3c30-4706-998b-27401ffdcaf8"},"vehicle_type_id":"4","last_reported":1722629356,"current_range_meters":6000,"station_id":"ce4bgr92rcd13ifvqc7g","pricing_plan_id":"cebpf4jnsgd1na2vs0mg"},{"bike_id":"ab93a79a-6d04-4172-a14d-96f8ef25893b","system_id":"levelo_inurba_marseille","lat":43.31343,"lon":5.38663,"is_reserved":false,"is_disabled":false,"rental_uris":{"android":"levelo://app?vid=ab93a79a-6d04-4172-a14d-96f8ef25893b","ios":"levelo://app?vid=ab93a79a-6d04-4172-a14d-96f8ef25893b"},"vehicle_type_id":"4","last_reported":1722629356,"current_range_meters":31200,"station_id":"","pricing_plan_id":"cebpf4jnsgd1na2vs0mg"},{"bike_id":"2771ab43-e4c9-4db5-83e0-954614254b27","system_id":"levelo_inurba_marseille","lat":43.298433,"lon":5.362774,"is_reserved":false,"is_disabled":false,"rental_uris":{"android":"levelo://app?vid=2771ab43-e4c9-4db5-83e0-954614254b27","ios":"levelo://app?vid=2771ab43-e4c9-4db5-83e0-954614254b27"},"vehicle_type_id":"4","last_reported":1722629356,"current_range_meters":0,"station_id":"ce4bgpp2rcd13ifvqc3g","pricing_plan_id":"cebpf4jnsgd1na2vs0mg"},{"bike_id":"e25ead24-5470-462e-b048-838aeac3b86d","system_id":"levelo_inurba_marseille","lat":43.298433,"lon":5.362774,"is_reserved":false,"is_disabled":false,"rental_uris":{"android":"levelo://app?vid=e25ead24-5470-462e-b048-838aeac3b86d","ios":"levelo://app?vid=e25ead24-5470-462e-b048-838aeac3b86d"},"vehicle_type_id":"4","last_reported":1722629356,"current_range_meters":0,"station_id":"ce4bgpp2rcd13ifvqc3g","pricing_plan_id":"cebpf4jnsgd1na2vs0mg"},{"bike_id":"ee47352c-8fb0-488a-ba36-480894efb0f6","system_id":"levelo_inurba_marseille","lat":43.305364,"lon":5.384119,"is_reserved":false,"is_disabled":false,"rental_uris":{"android":"levelo://app?vid=ee47352c-8fb0-488a-ba36-480894efb0f6","ios":"levelo://app?vid=ee47352c-8fb0-488a-ba36-480894efb0f6"},"vehicle_type_id":"4","last_reported":1722629356,"current_range_meters":5200,"station_id":"ce4bgg92rcd13ifvqb30","pricing_plan_id":"cebpf4jnsgd1na2vs0mg"},{"bike_id":"796d884b-caee-4ec7-8f7e-d1cc038cc7d9","system_id":"levelo_inurba_marseille","lat":43.299243,"lon":5.374807,"is_reserved":false,"is_disabled":false,"rental_uris":{"android":"levelo://app?vid=796d884b-caee-4ec7-8f7e-d1cc038cc7d9","ios":"levelo://app?vid=796d884b-caee-4ec7-8f7e-d1cc038cc7d9"},"vehicle_type_id":"4","last_reported":1722629356,"current_range_meters":30400,"station_id":"ce4bgjh2rcd13ifvqbg0","pricing_plan_id":"cebpf4jnsgd1na2vs0mg"},{"bike_id":"1ac0e0a3-1848-4246-ae85-b254291d7bf2","system_id":"levelo_inurba_marseille","lat":43.305364,"lon":5.384119,"is_reserved":false,"is_disabled":false,"rental_uris":{"android":"levelo://app?vid=1ac0e0a3-1848-4246-ae85-b254291d7bf2","ios":"levelo://app?vid=1ac0e0a3-1848-4246-ae85-b254291d7bf2"},"vehicle_type_id":"4","last_reported":1722629356,"current_range_meters":9600,"station_id":"ce4bgg92rcd13ifvqb30","pricing_plan_id":"cebpf4jnsgd1na2vs0mg"},{"bike_id":"b4cb6f7a-7728-448d-94aa-024bc5e107e5","system_id":"levelo_inurba_marseille","lat":43.311722,"lon":5.387247,"is_reserved":false,"is_disabled":false,"rental_uris":{"android":"levelo://app?vid=b4cb6f7a-7728-448d-94aa-024bc5e107e5","ios":"levelo://app?vid=b4cb6f7a-7728-448d-94aa-024bc5e107e5"},"vehicle_type_id":"4","last_reported":1722629356,"current_range_meters":5600,"station_id":"ce4bgv12rcd13ifvqcp0","pricing_plan_id":"cebpf4jnsgd1na2vs0mg"},{"bike_id":"18679b76-c0ec-4273-96bc-8a1ef4491dc4","system_id":"levelo_inurba_marseille","lat":43.311722,"lon":5.387247,"is_reserved":false,"is_disabled":false,"rental_uris":{"android":"levelo://app?vid=18679b76-c0ec-4273-96bc-8a1ef4491dc4","ios":"levelo://app?vid=18679b76-c0ec-4273-96bc-8a1ef4491dc4"},"vehicle_type_id":"4","last_reported":1722629356,"current_range_meters":31200,"station_id":"ce4bgv12rcd13ifvqcp0","pricing_plan_id":"cebpf4jnsgd1na2vs0mg"},{"bike_id":"825a5f53-7fda-4d42-ab8d-06fffc597a6b","system_id":"levelo_inurba_marseille","lat":43.311722,"lon":5.387247,"is_reserved":false,"is_disabled":false,"rental_uris":{"android":"levelo://app?vid=825a5f53-7fda-4d42-ab8d-06fffc597a6b","ios":"levelo://app?vid=825a5f53-7fda-4d42-ab8d-06fffc597a6b"},"vehicle_type_id":"4","last_reported":1722629356,"current_range_meters":26000,"station_id":"ce4bgv12rcd13ifvqcp0","pricing_plan_id":"cebpf4jnsgd1na2vs0mg"},{"bike_id":"1db1f782-6026-4e49-8b1c-11ece072fbd4","system_id":"levelo_inurba_marseille","lat":43.311722,"lon":5.387247,"is_reserved":false,"is_disabled":false,"rental_uris":{"android":"levelo://app?vid=1db1f782-6026-4e49-8b1c-11ece072fbd4","ios":"levelo://app?vid=1db1f782-6026-4e49-8b1c-11ece072fbd4"},"vehicle_type_id":"4","last_reported":1722629356,"current_range_meters":23200,"station_id":"ce4bgv12rcd13ifvqcp0","pricing_plan_id":"cebpf4jnsgd1na2vs0mg"},{"bike_id":"2f405d20-1a5a-43c4-91be-ababa2f6504d","system_id":"levelo_inurba_marseille","lat":43.311722,"lon":5.387247,"is_reserved":false,"is_disabled":false,"rental_uris":{"android":"levelo://app?vid=2f405d20-1a5a-43c4-91be-ababa2f6504d","ios":"levelo://app?vid=2f405d20-1a5a-43c4-91be-ababa2f6504d"},"vehicle_type_id":"4","last_reported":1722629356,"current_range_meters":23600,"station_id":"ce4bgv12rcd13ifvqcp0","pricing_plan_id":"cebpf4jnsgd1na2vs0mg"},{"bike_id":"34165e58-720d-442e-b352-9c978d4ee477","system_id":"levelo_inurba_marseille","lat":43.311722,"lon":5.387247,"is_reserved":false,"is_disabled":false,"rental_uris":{"android":"levelo://app?vid=34165e58-720d-442e-b352-9c978d4ee477","ios":"levelo://app?vid=34165e58-720d-442e-b352-9c978d4ee477"},"vehicle_type_id":"4","last_reported":1722629356,"current_range_meters":24400,"station_id":"ce4bgv12rcd13ifvqcp0","pricing_plan_id":"cebpf4jnsgd1na2vs0mg"},{"bike_id":"cb671d34-7884-4271-bccb-8d3a1c413876","system_id":"levelo_inurba_marseille","lat":43.3117,"lon":5.38711,"is_reserved":false,"is_disabled":false,"rental_uris":{"android":"levelo://app?vid=cb671d34-7884-4271-bccb-8d3a1c413876","ios":"levelo://app?vid=cb671d34-7884-4271-bccb-8d3a1c413876"},"vehicle_type_id":"4","last_reported":1722629356,"current_range_meters":22000,"station_id":"ce4bgv12rcd13ifvqcp0","pricing_plan_id":"cebpf4jnsgd1na2vs0mg"},{"bike_id":"0202d1c8-1e17-4de1-b483-3075ce04e1ce","system_id":"levelo_inurba_marseille","lat":43.311722,"lon":5.387247,"is_reserved":false,"is_disabled":false,"rental_uris":{"android":"levelo://app?vid=0202d1c8-1e17-4de1-b483-3075ce04e1ce","ios":"levelo://app?vid=0202d1c8-1e17-4de1-b483-3075ce04e1ce"},"vehicle_type_id":"4","last_reported":1722629356,"current_range_meters":14400,"station_id":"ce4bgv12rcd13ifvqcp0","pricing_plan_id":"cebpf4jnsgd1na2vs0mg"},{"bike_id":"e1e1a0c8-8462-421d-8c23-d3a8a746f891","system_id":"levelo_inurba_marseille","lat":43.311722,"lon":5.387247,"is_reserved":false,"is_disabled":false,"rental_uris":{"android":"levelo://app?vid=e1e1a0c8-8462-421d-8c23-d3a8a746f891","ios":"levelo://app?vid=e1e1a0c8-8462-421d-8c23-d3a8a746f891"},"vehicle_type_id":"4","last_reported":1722629356,"current_range_meters":0,"station_id":"ce4bgv12rcd13ifvqcp0","pricing_plan_id":"cebpf4jnsgd1na2vs0mg"},{"bike_id":"1b2fe4e0-3989-4b54-8b84-678492e9ab05","system_id":"levelo_inurba_marseille","lat":43.311722,"lon":5.387247,"is_reserved":false,"is_disabled":false,"rental_uris":{"android":"levelo://app?vid=1b2fe4e0-3989-4b54-8b84-678492e9ab05","ios":"levelo://app?vid=1b2fe4e0-3989-4b54-8b84-678492e9ab05"},"vehicle_type_id":"4","last_reported":1722629356,"current_range_meters":10000,"station_id":"ce4bgv12rcd13ifvqcp0","pricing_plan_id":"cebpf4jnsgd1na2vs0mg"},{"bike_id":"62c3c00b-23d9-4551-8990-1c79801f50ba","system_id":"levelo_inurba_marseille","lat":43.311722,"lon":5.387247,"is_reserved":false,"is_disabled":false,"rental_uris":{"android":"levelo://app?vid=62c3c00b-23d9-4551-8990-1c79801f50ba","ios":"levelo://app?vid=62c3c00b-23d9-4551-8990-1c79801f50ba"},"vehicle_type_id":"4","last_reported":1722629356,"current_range_meters":25600,"station_id":"ce4bgv12rcd13ifvqcp0","pricing_plan_id":"cebpf4jnsgd1na2vs0mg"},{"bike_id":"a5f9341a-5e60-4282-9e15-189af61d4bd9","system_id":"levelo_inurba_marseille","lat":43.29908,"lon":5.37469,"is_reserved":false,"is_disabled":false,"rental_uris":{"android":"levelo://app?vid=a5f9341a-5e60-4282-9e15-189af61d4bd9","ios":"levelo://app?vid=a5f9341a-5e60-4282-9e15-189af61d4bd9"},"vehicle_type_id":"4","last_reported":1722629356,"current_range_meters":6000,"station_id":"","pricing_plan_id":"cebpf4jnsgd1na2vs0mg"},{"bike_id":"246c6aa3-f921-4a27-a6e9-2199ce668ad4","system_id":"levelo_inurba_marseille","lat":43.31168,"lon":5.3872,"is_reserved":false,"is_disabled":false,"rental_uris":{"android":"levelo://app?vid=246c6aa3-f921-4a27-a6e9-2199ce668ad4","ios":"levelo://app?vid=246c6aa3-f921-4a27-a6e9-2199ce668ad4"},"vehicle_type_id":"4","last_reported":1722629356,"current_range_meters":5600,"station_id":"ce4bgv12rcd13ifvqcp0","pricing_plan_id":"cebpf4jnsgd1na2vs0mg"},{"bike_id":"b8bcb86d-fc2f-4748-8826-f155c533d77a","system_id":"levelo_inurba_marseille","lat":43.299243,"lon":5.37481,"is_reserved":false,"is_disabled":false,"rental_uris":{"android":"levelo://app?vid=b8bcb86d-fc2f-4748-8826-f155c533d77a","ios":"levelo://app?vid=b8bcb86d-fc2f-4748-8826-f155c533d77a"},"vehicle_type_id":"4","last_reported":1722629356,"current_range_meters":17600,"station_id":"ce4bgjh2rcd13ifvqbg0","pricing_plan_id":"cebpf4jnsgd1na2vs0mg"},{"bike_id":"604d3e3b-dcdf-4533-8054-51d50eeac1a6","system_id":"levelo_inurba_marseille","lat":43.299243,"lon":5.37481,"is_reserved":false,"is_disabled":false,"rental_uris":{"android":"levelo://app?vid=604d3e3b-dcdf-4533-8054-51d50eeac1a6","ios":"levelo://app?vid=604d3e3b-dcdf-4533-8054-51d50eeac1a6"},"vehicle_type_id":"4","last_reported":1722629356,"current_range_meters":9600,"station_id":"ce4bgjh2rcd13ifvqbg0","pricing_plan_id":"cebpf4jnsgd1na2vs0mg"},{"bike_id":"4dbd4007-c508-4fe1-958e-33cac9ea92a5","system_id":"levelo_inurba_marseille","lat":43.297794,"lon":5.370888,"is_reserved":false,"is_disabled":false,"rental_uris":{"android":"levelo://app?vid=4dbd4007-c508-4fe1-958e-33cac9ea92a5","ios":"levelo://app?vid=4dbd4007-c508-4fe1-958e-33cac9ea92a5"},"vehicle_type_id":"4","last_reported":1722629356,"current_range_meters":18400,"station_id":"ce4bgop2rcd13ifvqc1g","pricing_plan_id":"cebpf4jnsgd1na2vs0mg"},{"bike_id":"b5455404-2a92-4b7b-9391-258a73965290","system_id":"levelo_inurba_marseille","lat":43.297794,"lon":5.370888,"is_reserved":false,"is_disabled":false,"rental_uris":{"android":"levelo://app?vid=b5455404-2a92-4b7b-9391-258a73965290","ios":"levelo://app?vid=b5455404-2a92-4b7b-9391-258a73965290"},"vehicle_type_id":"4","last_reported":1722629356,"current_range_meters":7200,"station_id":"ce4bgop2rcd13ifvqc1g","pricing_plan_id":"cebpf4jnsgd1na2vs0mg"},{"bike_id":"3453c147-7163-4d1b-afbe-d9c939bc7e9c","system_id":"levelo_inurba_marseille","lat":43.297774,"lon":5.370875,"is_reserved":false,"is_disabled":false,"rental_uris":{"android":"levelo://app?vid=3453c147-7163-4d1b-afbe-d9c939bc7e9c","ios":"levelo://app?vid=3453c147-7163-4d1b-afbe-d9c939bc7e9c"},"vehicle_type_id":"4","last_reported":1722629356,"current_range_meters":30000,"station_id":"ce4bgop2rcd13ifvqc1g","pricing_plan_id":"cebpf4jnsgd1na2vs0mg"},{"bike_id":"54c1ea9a-8b4d-47e0-9eea-1b333c22e018","system_id":"levelo_inurba_marseille","lat":43.297774,"lon":5.370875,"is_reserved":false,"is_disabled":false,"rental_uris":{"android":"levelo://app?vid=54c1ea9a-8b4d-47e0-9eea-1b333c22e018","ios":"levelo://app?vid=54c1ea9a-8b4d-47e0-9eea-1b333c22e018"},"vehicle_type_id":"4","last_reported":1722629356,"current_range_meters":30400,"station_id":"ce4bgop2rcd13ifvqc1g","pricing_plan_id":"cebpf4jnsgd1na2vs0mg"},{"bike_id":"ff3fab80-9824-4d83-9bce-b4ee5568a7a1","system_id":"levelo_inurba_marseille","lat":43.297794,"lon":5.370888,"is_reserved":false,"is_disabled":false,"rental_uris":{"android":"levelo://app?vid=ff3fab80-9824-4d83-9bce-b4ee5568a7a1","ios":"levelo://app?vid=ff3fab80-9824-4d83-9bce-b4ee5568a7a1"},"vehicle_type_id":"4","last_reported":1722629356,"current_range_meters":18800,"station_id":"ce4bgop2rcd13ifvqc1g","pricing_plan_id":"cebpf4jnsgd1na2vs0mg"},{"bike_id":"789669c4-6018-4f86-a2b9-7b95673830ca","system_id":"levelo_inurba_marseille","lat":43.297774,"lon":5.370875,"is_reserved":false,"is_disabled":false,"rental_uris":{"android":"levelo://app?vid=789669c4-6018-4f86-a2b9-7b95673830ca","ios":"levelo://app?vid=789669c4-6018-4f86-a2b9-7b95673830ca"},"vehicle_type_id":"4","last_reported":1722629356,"current_range_meters":17200,"station_id":"ce4bgop2rcd13ifvqc1g","pricing_plan_id":"cebpf4jnsgd1na2vs0mg"},{"bike_id":"a67d0b96-2da3-4870-9693-9ef9c9372aa2","system_id":"levelo_inurba_marseille","lat":43.297774,"lon":5.370875,"is_reserved":false,"is_disabled":false,"rental_uris":{"android":"levelo://app?vid=a67d0b96-2da3-4870-9693-9ef9c9372aa2","ios":"levelo://app?vid=a67d0b96-2da3-4870-9693-9ef9c9372aa2"},"vehicle_type_id":"4","last_reported":1722629356,"current_range_meters":29600,"station_id":"ce4bgop2rcd13ifvqc1g","pricing_plan_id":"cebpf4jnsgd1na2vs0mg"},{"bike_id":"c3e3c541-04e9-44d8-9d54-a5eaa08e82da","system_id":"levelo_inurba_marseille","lat":43.322872,"lon":5.382756,"is_reserved":false,"is_disabled":false,"rental_uris":{"android":"levelo://app?vid=c3e3c541-04e9-44d8-9d54-a5eaa08e82da","ios":"levelo://app?vid=c3e3c541-04e9-44d8-9d54-a5eaa08e82da"},"vehicle_type_id":"4","last_reported":1722629356,"current_range_meters":14400,"station_id":"ce4bhr12rcd13ifvqhqg","pricing_plan_id":"cebpf4jnsgd1na2vs0mg"},{"bike_id":"0a4ec73d-4232-444e-8408-7461a9e59554","system_id":"levelo_inurba_marseille","lat":43.297168,"lon":5.36881,"is_reserved":false,"is_disabled":false,"rental_uris":{"android":"levelo://app?vid=0a4ec73d-4232-444e-8408-7461a9e59554","ios":"levelo://app?vid=0a4ec73d-4232-444e-8408-7461a9e59554"},"vehicle_type_id":"4","last_reported":1722629356,"current_range_meters":14000,"station_id":"","pricing_plan_id":"cebpf4jnsgd1na2vs0mg"},{"bike_id":"c983f42e-9f18-4509-9cf7-9e36dd6c65f2","system_id":"levelo_inurba_marseille","lat":43.297163,"lon":5.365866,"is_reserved":false,"is_disabled":false,"rental_uris":{"android":"levelo://app?vid=c983f42e-9f18-4509-9cf7-9e36dd6c65f2","ios":"levelo://app?vid=c983f42e-9f18-4509-9cf7-9e36dd6c65f2"},"vehicle_type_id":"4","last_reported":1722629356,"current_range_meters":5600,"station_id":"ce4bgn12rcd13ifvqbt0","pricing_plan_id":"cebpf4jnsgd1na2vs0mg"},{"bike_id":"f96f5575-2c2e-40ad-8c4b-1f1f929a2dd0","system_id":"levelo_inurba_marseille","lat":43.2968,"lon":5.37291,"is_reserved":false,"is_disabled":false,"rental_uris":{"android":"levelo://app?vid=f96f5575-2c2e-40ad-8c4b-1f1f929a2dd0","ios":"levelo://app?vid=f96f5575-2c2e-40ad-8c4b-1f1f929a2dd0"},"vehicle_type_id":"4","last_reported":1722629356,"current_range_meters":3600,"station_id":"ce4bgk12rcd13ifvqbj0","pricing_plan_id":"cebpf4jnsgd1na2vs0mg"},{"bike_id":"ba278402-3849-40c8-b932-35caf0cd1944","system_id":"levelo_inurba_marseille","lat":43.29652,"lon":5.37032,"is_reserved":false,"is_disabled":false,"rental_uris":{"android":"levelo://app?vid=ba278402-3849-40c8-b932-35caf0cd1944","ios":"levelo://app?vid=ba278402-3849-40c8-b932-35caf0cd1944"},"vehicle_type_id":"4","last_reported":1722629356,"current_range_meters":22800,"station_id":"","pricing_plan_id":"cebpf4jnsgd1na2vs0mg"},{"bike_id":"2914a6ce-7a25-4971-bc58-7eb345d80670","system_id":"levelo_inurba_marseille","lat":43.32936,"lon":5.36597,"is_reserved":false,"is_disabled":false,"rental_uris":{"android":"levelo://app?vid=2914a6ce-7a25-4971-bc58-7eb345d80670","ios":"levelo://app?vid=2914a6ce-7a25-4971-bc58-7eb345d80670"},"vehicle_type_id":"4","last_reported":1722629356,"current_range_meters":30800,"station_id":"","pricing_plan_id":"cebpf4jnsgd1na2vs0mg"},{"bike_id":"fd1e05d2-2d4d-42c9-a026-89c5630f8338","system_id":"levelo_inurba_marseille","lat":43.296131,"lon":5.370773,"is_reserved":false,"is_disabled":false,"rental_uris":{"android":"levelo://app?vid=fd1e05d2-2d4d-42c9-a026-89c5630f8338","ios":"levelo://app?vid=fd1e05d2-2d4d-42c9-a026-89c5630f8338"},"vehicle_type_id":"4","last_reported":1722629356,"current_range_meters":26400,"station_id":"ce4bgnh2rcd13ifvqc0g","pricing_plan_id":"cebpf4jnsgd1na2vs0mg"},{"bike_id":"24c3061b-e5b3-4e24-91a9-f3a8a6c08ecc","system_id":"levelo_inurba_marseille","lat":43.29573,"lon":5.367355,"is_reserved":false,"is_disabled":false,"rental_uris":{"android":"levelo://app?vid=24c3061b-e5b3-4e24-91a9-f3a8a6c08ecc","ios":"levelo://app?vid=24c3061b-e5b3-4e24-91a9-f3a8a6c08ecc"},"vehicle_type_id":"4","last_reported":1722629356,"current_range_meters":28800,"station_id":"ce4bgph2rcd13ifvqc2g","pricing_plan_id":"cebpf4jnsgd1na2vs0mg"},{"bike_id":"5b13836e-e6ef-4a56-9cae-fb30274cb7e3","system_id":"levelo_inurba_marseille","lat":43.29573,"lon":5.367355,"is_reserved":false,"is_disabled":false,"rental_uris":{"android":"levelo://app?vid=5b13836e-e6ef-4a56-9cae-fb30274cb7e3","ios":"levelo://app?vid=5b13836e-e6ef-4a56-9cae-fb30274cb7e3"},"vehicle_type_id":"4","last_reported":1722629356,"current_range_meters":9600,"station_id":"ce4bgph2rcd13ifvqc2g","pricing_plan_id":"cebpf4jnsgd1na2vs0mg"},{"bike_id":"2d49fa8f-ce56-41bb-99d9-ecadeba45b8c","system_id":"levelo_inurba_marseille","lat":43.29573,"lon":5.367355,"is_reserved":false,"is_disabled":false,"rental_uris":{"android":"levelo://app?vid=2d49fa8f-ce56-41bb-99d9-ecadeba45b8c","ios":"levelo://app?vid=2d49fa8f-ce56-41bb-99d9-ecadeba45b8c"},"vehicle_type_id":"4","last_reported":1722629356,"current_range_meters":13200,"station_id":"ce4bgph2rcd13ifvqc2g","pricing_plan_id":"cebpf4jnsgd1na2vs0mg"},{"bike_id":"176f20ec-0b85-4374-a85c-f95c1cd3e751","system_id":"levelo_inurba_marseille","lat":43.29573,"lon":5.367355,"is_reserved":false,"is_disabled":false,"rental_uris":{"android":"levelo://app?vid=176f20ec-0b85-4374-a85c-f95c1cd3e751","ios":"levelo://app?vid=176f20ec-0b85-4374-a85c-f95c1cd3e751"},"vehicle_type_id":"4","last_reported":1722629356,"current_range_meters":22400,"station_id":"ce4bgph2rcd13ifvqc2g","pricing_plan_id":"cebpf4jnsgd1na2vs0mg"},{"bike_id":"cd6bf046-5413-4906-b5cf-b855571e7eec","system_id":"levelo_inurba_marseille","lat":43.296935,"lon":5.376544,"is_reserved":false,"is_disabled":false,"rental_uris":{"android":"levelo://app?vid=cd6bf046-5413-4906-b5cf-b855571e7eec","ios":"levelo://app?vid=cd6bf046-5413-4906-b5cf-b855571e7eec"},"vehicle_type_id":"4","last_reported":1722629356,"current_range_meters":7200,"station_id":"ce4bgkh2rcd13ifvqbl0","pricing_plan_id":"cebpf4jnsgd1na2vs0mg"},{"bike_id":"11d774f2-73e3-41b3-803f-b391ffdf029b","system_id":"levelo_inurba_marseille","lat":43.30951,"lon":5.39016,"is_reserved":false,"is_disabled":false,"rental_uris":{"android":"levelo://app?vid=11d774f2-73e3-41b3-803f-b391ffdf029b","ios":"levelo://app?vid=11d774f2-73e3-41b3-803f-b391ffdf029b"},"vehicle_type_id":"4","last_reported":1722629356,"current_range_meters":17200,"station_id":"ce4bgup2rcd13ifvqco0","pricing_plan_id":"cebpf4jnsgd1na2vs0mg"},{"bike_id":"e7d9abef-f213-4a9f-b260-ac4742776d00","system_id":"levelo_inurba_marseille","lat":43.309589,"lon":5.390258,"is_reserved":false,"is_disabled":false,"rental_uris":{"android":"levelo://app?vid=e7d9abef-f213-4a9f-b260-ac4742776d00","ios":"levelo://app?vid=e7d9abef-f213-4a9f-b260-ac4742776d00"},"vehicle_type_id":"4","last_reported":1722629356,"current_range_meters":27200,"station_id":"ce4bgup2rcd13ifvqco0","pricing_plan_id":"cebpf4jnsgd1na2vs0mg"},{"bike_id":"b2de3611-56da-4c68-929c-7af4b7c13f2d","system_id":"levelo_inurba_marseille","lat":43.30957,"lon":5.39019,"is_reserved":false,"is_disabled":false,"rental_uris":{"android":"levelo://app?vid=b2de3611-56da-4c68-929c-7af4b7c13f2d","ios":"levelo://app?vid=b2de3611-56da-4c68-929c-7af4b7c13f2d"},"vehicle_type_id":"4","last_reported":1722629356,"current_range_meters":31200,"station_id":"ce4bgup2rcd13ifvqco0","pricing_plan_id":"cebpf4jnsgd1na2vs0mg"},{"bike_id":"af4c5504-79d9-4d78-8660-63b1744a8aef","system_id":"levelo_inurba_marseille","lat":43.30954,"lon":5.39019,"is_reserved":false,"is_disabled":false,"rental_uris":{"android":"levelo://app?vid=af4c5504-79d9-4d78-8660-63b1744a8aef","ios":"levelo://app?vid=af4c5504-79d9-4d78-8660-63b1744a8aef"},"vehicle_type_id":"4","last_reported":1722629356,"current_range_meters":28400,"station_id":"ce4bgup2rcd13ifvqco0","pricing_plan_id":"cebpf4jnsgd1na2vs0mg"},{"bike_id":"40335bf4-624b-4ae3-ae0e-385fea04b9f2","system_id":"levelo_inurba_marseille","lat":43.30945,"lon":5.39017,"is_reserved":false,"is_disabled":false,"rental_uris":{"android":"levelo://app?vid=40335bf4-624b-4ae3-ae0e-385fea04b9f2","ios":"levelo://app?vid=40335bf4-624b-4ae3-ae0e-385fea04b9f2"},"vehicle_type_id":"4","last_reported":1722629356,"current_range_meters":22400,"station_id":"ce4bgup2rcd13ifvqco0","pricing_plan_id":"cebpf4jnsgd1na2vs0mg"},{"bike_id":"cc788c81-2420-4ef7-9b58-7263170ff5cc","system_id":"levelo_inurba_marseille","lat":43.30954,"lon":5.3902,"is_reserved":false,"is_disabled":false,"rental_uris":{"android":"levelo://app?vid=cc788c81-2420-4ef7-9b58-7263170ff5cc","ios":"levelo://app?vid=cc788c81-2420-4ef7-9b58-7263170ff5cc"},"vehicle_type_id":"4","last_reported":1722629356,"current_range_meters":26800,"station_id":"ce4bgup2rcd13ifvqco0","pricing_plan_id":"cebpf4jnsgd1na2vs0mg"},{"bike_id":"4491ea77-e1f0-4320-8a37-cde172b99204","system_id":"levelo_inurba_marseille","lat":43.30954,"lon":5.3902,"is_reserved":false,"is_disabled":false,"rental_uris":{"android":"levelo://app?vid=4491ea77-e1f0-4320-8a37-cde172b99204","ios":"levelo://app?vid=4491ea77-e1f0-4320-8a37-cde172b99204"},"vehicle_type_id":"4","last_reported":1722629356,"current_range_meters":10000,"station_id":"ce4bgup2rcd13ifvqco0","pricing_plan_id":"cebpf4jnsgd1na2vs0mg"},{"bike_id":"cc93fdec-debf-465d-b73b-221750b33f45","system_id":"levelo_inurba_marseille","lat":43.30957,"lon":5.39021,"is_reserved":false,"is_disabled":false,"rental_uris":{"android":"levelo://app?vid=cc93fdec-debf-465d-b73b-221750b33f45","ios":"levelo://app?vid=cc93fdec-debf-465d-b73b-221750b33f45"},"vehicle_type_id":"4","last_reported":1722629356,"current_range_meters":22800,"station_id":"ce4bgup2rcd13ifvqco0","pricing_plan_id":"cebpf4jnsgd1na2vs0mg"},{"bike_id":"8fa413d0-a56a-40ed-ae4f-0257f99fb25c","system_id":"levelo_inurba_marseille","lat":43.296921,"lon":5.376579,"is_reserved":false,"is_disabled":false,"rental_uris":{"android":"levelo://app?vid=8fa413d0-a56a-40ed-ae4f-0257f99fb25c","ios":"levelo://app?vid=8fa413d0-a56a-40ed-ae4f-0257f99fb25c"},"vehicle_type_id":"4","last_reported":1722629356,"current_range_meters":24000,"station_id":"ce4bgkh2rcd13ifvqbl0","pricing_plan_id":"cebpf4jnsgd1na2vs0mg"},{"bike_id":"7e426212-efff-479c-af52-b04f96b63094","system_id":"levelo_inurba_marseille","lat":43.3096,"lon":5.39023,"is_reserved":false,"is_disabled":false,"rental_uris":{"android":"levelo://app?vid=7e426212-efff-479c-af52-b04f96b63094","ios":"levelo://app?vid=7e426212-efff-479c-af52-b04f96b63094"},"vehicle_type_id":"4","last_reported":1722629356,"current_range_meters":7600,"station_id":"ce4bgup2rcd13ifvqco0","pricing_plan_id":"cebpf4jnsgd1na2vs0mg"},{"bike_id":"50f9ae02-d4ce-45b1-a61e-c25b085525c7","system_id":"levelo_inurba_marseille","lat":43.30955,"lon":5.39022,"is_reserved":false,"is_disabled":false,"rental_uris":{"android":"levelo://app?vid=50f9ae02-d4ce-45b1-a61e-c25b085525c7","ios":"levelo://app?vid=50f9ae02-d4ce-45b1-a61e-c25b085525c7"},"vehicle_type_id":"4","last_reported":1722629356,"current_range_meters":28000,"station_id":"ce4bgup2rcd13ifvqco0","pricing_plan_id":"cebpf4jnsgd1na2vs0mg"},{"bike_id":"7df090f4-b07d-47b5-ac77-695a54029562","system_id":"levelo_inurba_marseille","lat":43.30957,"lon":5.39023,"is_reserved":false,"is_disabled":false,"rental_uris":{"android":"levelo://app?vid=7df090f4-b07d-47b5-ac77-695a54029562","ios":"levelo://app?vid=7df090f4-b07d-47b5-ac77-695a54029562"},"vehicle_type_id":"4","last_reported":1722629356,"current_range_meters":24800,"station_id":"ce4bgup2rcd13ifvqco0","pricing_plan_id":"cebpf4jnsgd1na2vs0mg"},{"bike_id":"20ff9c94-5e01-49a8-bbf0-c006d0200969","system_id":"levelo_inurba_marseille","lat":43.30953,"lon":5.39022,"is_reserved":false,"is_disabled":false,"rental_uris":{"android":"levelo://app?vid=20ff9c94-5e01-49a8-bbf0-c006d0200969","ios":"levelo://app?vid=20ff9c94-5e01-49a8-bbf0-c006d0200969"},"vehicle_type_id":"4","last_reported":1722629356,"current_range_meters":25200,"station_id":"ce4bgup2rcd13ifvqco0","pricing_plan_id":"cebpf4jnsgd1na2vs0mg"},{"bike_id":"a8f74b4d-5681-4dc6-a72f-9291bd36ecf3","system_id":"levelo_inurba_marseille","lat":43.296921,"lon":5.376579,"is_reserved":false,"is_disabled":false,"rental_uris":{"android":"levelo://app?vid=a8f74b4d-5681-4dc6-a72f-9291bd36ecf3","ios":"levelo://app?vid=a8f74b4d-5681-4dc6-a72f-9291bd36ecf3"},"vehicle_type_id":"4","last_reported":1722629356,"current_range_meters":1200,"station_id":"ce4bgkh2rcd13ifvqbl0","pricing_plan_id":"cebpf4jnsgd1na2vs0mg"},{"bike_id":"6e5523f5-34ef-4c45-8a02-4e4194664fe5","system_id":"levelo_inurba_marseille","lat":43.296935,"lon":5.376544,"is_reserved":false,"is_disabled":false,"rental_uris":{"android":"levelo://app?vid=6e5523f5-34ef-4c45-8a02-4e4194664fe5","ios":"levelo://app?vid=6e5523f5-34ef-4c45-8a02-4e4194664fe5"},"vehicle_type_id":"4","last_reported":1722629356,"current_range_meters":5200,"station_id":"ce4bgkh2rcd13ifvqbl0","pricing_plan_id":"cebpf4jnsgd1na2vs0mg"},{"bike_id":"93a178b6-6043-4436-9976-826f3ea35099","system_id":"levelo_inurba_marseille","lat":43.30956,"lon":5.39024,"is_reserved":false,"is_disabled":false,"rental_uris":{"android":"levelo://app?vid=93a178b6-6043-4436-9976-826f3ea35099","ios":"levelo://app?vid=93a178b6-6043-4436-9976-826f3ea35099"},"vehicle_type_id":"4","last_reported":1722629356,"current_range_meters":30800,"station_id":"ce4bgup2rcd13ifvqco0","pricing_plan_id":"cebpf4jnsgd1na2vs0mg"},{"bike_id":"246cd1e9-68d5-43cd-9e0d-76da18891f6b","system_id":"levelo_inurba_marseille","lat":43.30955,"lon":5.39024,"is_reserved":false,"is_disabled":false,"rental_uris":{"android":"levelo://app?vid=246cd1e9-68d5-43cd-9e0d-76da18891f6b","ios":"levelo://app?vid=246cd1e9-68d5-43cd-9e0d-76da18891f6b"},"vehicle_type_id":"4","last_reported":1722629356,"current_range_meters":31200,"station_id":"ce4bgup2rcd13ifvqco0","pricing_plan_id":"cebpf4jnsgd1na2vs0mg"},{"bike_id":"11cb74f7-108a-43ab-bcb2-0b90f9653c1a","system_id":"levelo_inurba_marseille","lat":43.309532,"lon":5.390252,"is_reserved":false,"is_disabled":false,"rental_uris":{"android":"levelo://app?vid=11cb74f7-108a-43ab-bcb2-0b90f9653c1a","ios":"levelo://app?vid=11cb74f7-108a-43ab-bcb2-0b90f9653c1a"},"vehicle_type_id":"4","last_reported":1722629356,"current_range_meters":27600,"station_id":"ce4bgup2rcd13ifvqco0","pricing_plan_id":"cebpf4jnsgd1na2vs0mg"},{"bike_id":"51f2958b-e731-4e7a-b16d-cc24b4646cce","system_id":"levelo_inurba_marseille","lat":43.30956,"lon":5.39026,"is_reserved":false,"is_disabled":false,"rental_uris":{"android":"levelo://app?vid=51f2958b-e731-4e7a-b16d-cc24b4646cce","ios":"levelo://app?vid=51f2958b-e731-4e7a-b16d-cc24b4646cce"},"vehicle_type_id":"4","last_reported":1722629356,"current_range_meters":27200,"station_id":"ce4bgup2rcd13ifvqco0","pricing_plan_id":"cebpf4jnsgd1na2vs0mg"},{"bike_id":"628a8de4-933f-4260-9fb5-a6bd26745f85","system_id":"levelo_inurba_marseille","lat":43.30952,"lon":5.39025,"is_reserved":false,"is_disabled":false,"rental_uris":{"android":"levelo://app?vid=628a8de4-933f-4260-9fb5-a6bd26745f85","ios":"levelo://app?vid=628a8de4-933f-4260-9fb5-a6bd26745f85"},"vehicle_type_id":"4","last_reported":1722629356,"current_range_meters":22400,"station_id":"ce4bgup2rcd13ifvqco0","pricing_plan_id":"cebpf4jnsgd1na2vs0mg"},{"bike_id":"d2493fd4-c995-49a6-a61f-7217989f6c19","system_id":"levelo_inurba_marseille","lat":43.30955,"lon":5.39026,"is_reserved":false,"is_disabled":false,"rental_uris":{"android":"levelo://app?vid=d2493fd4-c995-49a6-a61f-7217989f6c19","ios":"levelo://app?vid=d2493fd4-c995-49a6-a61f-7217989f6c19"},"vehicle_type_id":"4","last_reported":1722629356,"current_range_meters":25200,"station_id":"ce4bgup2rcd13ifvqco0","pricing_plan_id":"cebpf4jnsgd1na2vs0mg"},{"bike_id":"775fc78a-528f-4a16-9089-1e669eee3448","system_id":"levelo_inurba_marseille","lat":43.3096,"lon":5.39028,"is_reserved":false,"is_disabled":false,"rental_uris":{"android":"levelo://app?vid=775fc78a-528f-4a16-9089-1e669eee3448","ios":"levelo://app?vid=775fc78a-528f-4a16-9089-1e669eee3448"},"vehicle_type_id":"4","last_reported":1722629356,"current_range_meters":24400,"station_id":"ce4bgup2rcd13ifvqco0","pricing_plan_id":"cebpf4jnsgd1na2vs0mg"},{"bike_id":"4fa058fb-81d9-47a6-80fe-be441de87445","system_id":"levelo_inurba_marseille","lat":43.309589,"lon":5.390258,"is_reserved":false,"is_disabled":false,"rental_uris":{"android":"levelo://app?vid=4fa058fb-81d9-47a6-80fe-be441de87445","ios":"levelo://app?vid=4fa058fb-81d9-47a6-80fe-be441de87445"},"vehicle_type_id":"4","last_reported":1722629356,"current_range_meters":2800,"station_id":"ce4bgup2rcd13ifvqco0","pricing_plan_id":"cebpf4jnsgd1na2vs0mg"},{"bike_id":"36ec4dd8-4f15-4ac0-8273-aae43c3a7908","system_id":"levelo_inurba_marseille","lat":43.30955,"lon":5.39028,"is_reserved":false,"is_disabled":false,"rental_uris":{"android":"levelo://app?vid=36ec4dd8-4f15-4ac0-8273-aae43c3a7908","ios":"levelo://app?vid=36ec4dd8-4f15-4ac0-8273-aae43c3a7908"},"vehicle_type_id":"4","last_reported":1722629356,"current_range_meters":25600,"station_id":"ce4bgup2rcd13ifvqco0","pricing_plan_id":"cebpf4jnsgd1na2vs0mg"},{"bike_id":"56097baf-ff93-415c-8b09-7b238134ca52","system_id":"levelo_inurba_marseille","lat":43.30958,"lon":5.39029,"is_reserved":false,"is_disabled":false,"rental_uris":{"android":"levelo://app?vid=56097baf-ff93-415c-8b09-7b238134ca52","ios":"levelo://app?vid=56097baf-ff93-415c-8b09-7b238134ca52"},"vehicle_type_id":"4","last_reported":1722629356,"current_range_meters":13200,"station_id":"ce4bgup2rcd13ifvqco0","pricing_plan_id":"cebpf4jnsgd1na2vs0mg"},{"bike_id":"2ca389c5-21e6-45f7-a7b0-0bd853c780db","system_id":"levelo_inurba_marseille","lat":43.30956,"lon":5.39029,"is_reserved":false,"is_disabled":false,"rental_uris":{"android":"levelo://app?vid=2ca389c5-21e6-45f7-a7b0-0bd853c780db","ios":"levelo://app?vid=2ca389c5-21e6-45f7-a7b0-0bd853c780db"},"vehicle_type_id":"4","last_reported":1722629356,"current_range_meters":25600,"station_id":"ce4bgup2rcd13ifvqco0","pricing_plan_id":"cebpf4jnsgd1na2vs0mg"},{"bike_id":"8982449e-1fb2-4935-95ff-d20fd6efd3f6","system_id":"levelo_inurba_marseille","lat":43.296935,"lon":5.376544,"is_reserved":false,"is_disabled":false,"rental_uris":{"android":"levelo://app?vid=8982449e-1fb2-4935-95ff-d20fd6efd3f6","ios":"levelo://app?vid=8982449e-1fb2-4935-95ff-d20fd6efd3f6"},"vehicle_type_id":"4","last_reported":1722629356,"current_range_meters":26400,"station_id":"ce4bgkh2rcd13ifvqbl0","pricing_plan_id":"cebpf4jnsgd1na2vs0mg"},{"bike_id":"cf70bd58-2d31-4e92-adf4-f1b3b227559f","system_id":"levelo_inurba_marseille","lat":43.309589,"lon":5.390258,"is_reserved":false,"is_disabled":false,"rental_uris":{"android":"levelo://app?vid=cf70bd58-2d31-4e92-adf4-f1b3b227559f","ios":"levelo://app?vid=cf70bd58-2d31-4e92-adf4-f1b3b227559f"},"vehicle_type_id":"4","last_reported":1722629356,"current_range_meters":30000,"station_id":"ce4bgup2rcd13ifvqco0","pricing_plan_id":"cebpf4jnsgd1na2vs0mg"},{"bike_id":"d98e263c-504b-40b5-906b-7eb4f4941284","system_id":"levelo_inurba_marseille","lat":43.30953,"lon":5.39029,"is_reserved":false,"is_disabled":false,"rental_uris":{"android":"levelo://app?vid=d98e263c-504b-40b5-906b-7eb4f4941284","ios":"levelo://app?vid=d98e263c-504b-40b5-906b-7eb4f4941284"},"vehicle_type_id":"4","last_reported":1722629356,"current_range_meters":4400,"station_id":"ce4bgup2rcd13ifvqco0","pricing_plan_id":"cebpf4jnsgd1na2vs0mg"},{"bike_id":"237e475a-9670-4eea-96b2-d63cbf4712bf","system_id":"levelo_inurba_marseille","lat":43.309623,"lon":5.39032,"is_reserved":false,"is_disabled":false,"rental_uris":{"android":"levelo://app?vid=237e475a-9670-4eea-96b2-d63cbf4712bf","ios":"levelo://app?vid=237e475a-9670-4eea-96b2-d63cbf4712bf"},"vehicle_type_id":"4","last_reported":1722629356,"current_range_meters":16800,"station_id":"ce4bgup2rcd13ifvqco0","pricing_plan_id":"cebpf4jnsgd1na2vs0mg"},{"bike_id":"953870d6-f391-4c7f-8930-97c7da6e598b","system_id":"levelo_inurba_marseille","lat":43.30961,"lon":5.39032,"is_reserved":false,"is_disabled":false,"rental_uris":{"android":"levelo://app?vid=953870d6-f391-4c7f-8930-97c7da6e598b","ios":"levelo://app?vid=953870d6-f391-4c7f-8930-97c7da6e598b"},"vehicle_type_id":"4","last_reported":1722629356,"current_range_meters":31200,"station_id":"ce4bgup2rcd13ifvqco0","pricing_plan_id":"cebpf4jnsgd1na2vs0mg"},{"bike_id":"19285eb3-d850-4d60-993c-2752c3d1ead1","system_id":"levelo_inurba_marseille","lat":43.30954,"lon":5.39031,"is_reserved":false,"is_disabled":false,"rental_uris":{"android":"levelo://app?vid=19285eb3-d850-4d60-993c-2752c3d1ead1","ios":"levelo://app?vid=19285eb3-d850-4d60-993c-2752c3d1ead1"},"vehicle_type_id":"4","last_reported":1722629356,"current_range_meters":11600,"station_id":"ce4bgup2rcd13ifvqco0","pricing_plan_id":"cebpf4jnsgd1na2vs0mg"},{"bike_id":"689f0014-e821-4725-b298-96875190a183","system_id":"levelo_inurba_marseille","lat":43.309589,"lon":5.390258,"is_reserved":false,"is_disabled":false,"rental_uris":{"android":"levelo://app?vid=689f0014-e821-4725-b298-96875190a183","ios":"levelo://app?vid=689f0014-e821-4725-b298-96875190a183"},"vehicle_type_id":"4","last_reported":1722629356,"current_range_meters":25200,"station_id":"ce4bgup2rcd13ifvqco0","pricing_plan_id":"cebpf4jnsgd1na2vs0mg"},{"bike_id":"78eb6882-7798-48a8-b923-d63376f5eb2b","system_id":"levelo_inurba_marseille","lat":43.309589,"lon":5.390258,"is_reserved":false,"is_disabled":false,"rental_uris":{"android":"levelo://app?vid=78eb6882-7798-48a8-b923-d63376f5eb2b","ios":"levelo://app?vid=78eb6882-7798-48a8-b923-d63376f5eb2b"},"vehicle_type_id":"4","last_reported":1722629356,"current_range_meters":11600,"station_id":"ce4bgup2rcd13ifvqco0","pricing_plan_id":"cebpf4jnsgd1na2vs0mg"},{"bike_id":"774a297f-ffc1-4145-a0ae-a4fe56310b67","system_id":"levelo_inurba_marseille","lat":43.30946,"lon":5.39031,"is_reserved":false,"is_disabled":false,"rental_uris":{"android":"levelo://app?vid=774a297f-ffc1-4145-a0ae-a4fe56310b67","ios":"levelo://app?vid=774a297f-ffc1-4145-a0ae-a4fe56310b67"},"vehicle_type_id":"4","last_reported":1722629356,"current_range_meters":11600,"station_id":"ce4bgup2rcd13ifvqco0","pricing_plan_id":"cebpf4jnsgd1na2vs0mg"},{"bike_id":"fffc8b06-963b-4dfb-b256-b1090bab6369","system_id":"levelo_inurba_marseille","lat":43.30954,"lon":5.390343,"is_reserved":false,"is_disabled":false,"rental_uris":{"android":"levelo://app?vid=fffc8b06-963b-4dfb-b256-b1090bab6369","ios":"levelo://app?vid=fffc8b06-963b-4dfb-b256-b1090bab6369"},"vehicle_type_id":"4","last_reported":1722629356,"current_range_meters":2800,"station_id":"ce4bgup2rcd13ifvqco0","pricing_plan_id":"cebpf4jnsgd1na2vs0mg"},{"bike_id":"2ae8d666-01da-42c0-ab11-b926644bc09f","system_id":"levelo_inurba_marseille","lat":43.309589,"lon":5.390258,"is_reserved":false,"is_disabled":false,"rental_uris":{"android":"levelo://app?vid=2ae8d666-01da-42c0-ab11-b926644bc09f","ios":"levelo://app?vid=2ae8d666-01da-42c0-ab11-b926644bc09f"},"vehicle_type_id":"4","last_reported":1722629356,"current_range_meters":28800,"station_id":"ce4bgup2rcd13ifvqco0","pricing_plan_id":"cebpf4jnsgd1na2vs0mg"},{"bike_id":"909f248b-32a0-443c-9c6d-ae9446252353","system_id":"levelo_inurba_marseille","lat":43.30951,"lon":5.39034,"is_reserved":false,"is_disabled":false,"rental_uris":{"android":"levelo://app?vid=909f248b-32a0-443c-9c6d-ae9446252353","ios":"levelo://app?vid=909f248b-32a0-443c-9c6d-ae9446252353"},"vehicle_type_id":"4","last_reported":1722629356,"current_range_meters":2400,"station_id":"ce4bgup2rcd13ifvqco0","pricing_plan_id":"cebpf4jnsgd1na2vs0mg"},{"bike_id":"8f60ad01-8e2b-4364-a186-140470a53cc2","system_id":"levelo_inurba_marseille","lat":43.3095,"lon":5.39034,"is_reserved":false,"is_disabled":false,"rental_uris":{"android":"levelo://app?vid=8f60ad01-8e2b-4364-a186-140470a53cc2","ios":"levelo://app?vid=8f60ad01-8e2b-4364-a186-140470a53cc2"},"vehicle_type_id":"4","last_reported":1722629356,"current_range_meters":10800,"station_id":"ce4bgup2rcd13ifvqco0","pricing_plan_id":"cebpf4jnsgd1na2vs0mg"},{"bike_id":"d526a01b-ccdf-49cd-9788-5d3f634dfc4d","system_id":"levelo_inurba_marseille","lat":43.29904,"lon":5.38155,"is_reserved":false,"is_disabled":false,"rental_uris":{"android":"levelo://app?vid=d526a01b-ccdf-49cd-9788-5d3f634dfc4d","ios":"levelo://app?vid=d526a01b-ccdf-49cd-9788-5d3f634dfc4d"},"vehicle_type_id":"4","last_reported":1722629356,"current_range_meters":0,"station_id":"ce4bgj12rcd13ifvqbc0","pricing_plan_id":"cebpf4jnsgd1na2vs0mg"},{"bike_id":"854fbb72-89c7-4519-be4a-dd84f9b5f76b","system_id":"levelo_inurba_marseille","lat":43.30952,"lon":5.39036,"is_reserved":false,"is_disabled":false,"rental_uris":{"android":"levelo://app?vid=854fbb72-89c7-4519-be4a-dd84f9b5f76b","ios":"levelo://app?vid=854fbb72-89c7-4519-be4a-dd84f9b5f76b"},"vehicle_type_id":"4","last_reported":1722629356,"current_range_meters":3200,"station_id":"ce4bgup2rcd13ifvqco0","pricing_plan_id":"cebpf4jnsgd1na2vs0mg"},{"bike_id":"e7f8eabf-45b5-4bdb-9815-b2ecb3b0a97d","system_id":"levelo_inurba_marseille","lat":43.30951,"lon":5.39036,"is_reserved":false,"is_disabled":false,"rental_uris":{"android":"levelo://app?vid=e7f8eabf-45b5-4bdb-9815-b2ecb3b0a97d","ios":"levelo://app?vid=e7f8eabf-45b5-4bdb-9815-b2ecb3b0a97d"},"vehicle_type_id":"4","last_reported":1722629356,"current_range_meters":31200,"station_id":"ce4bgup2rcd13ifvqco0","pricing_plan_id":"cebpf4jnsgd1na2vs0mg"},{"bike_id":"99b1fd25-0c95-4ec5-920f-21ce059e2ef3","system_id":"levelo_inurba_marseille","lat":43.309589,"lon":5.390258,"is_reserved":false,"is_disabled":false,"rental_uris":{"android":"levelo://app?vid=99b1fd25-0c95-4ec5-920f-21ce059e2ef3","ios":"levelo://app?vid=99b1fd25-0c95-4ec5-920f-21ce059e2ef3"},"vehicle_type_id":"4","last_reported":1722629356,"current_range_meters":10000,"station_id":"ce4bgup2rcd13ifvqco0","pricing_plan_id":"cebpf4jnsgd1na2vs0mg"},{"bike_id":"c582b85d-2f20-4dfb-98f6-bae93ba13d5e","system_id":"levelo_inurba_marseille","lat":43.309589,"lon":5.390258,"is_reserved":false,"is_disabled":false,"rental_uris":{"android":"levelo://app?vid=c582b85d-2f20-4dfb-98f6-bae93ba13d5e","ios":"levelo://app?vid=c582b85d-2f20-4dfb-98f6-bae93ba13d5e"},"vehicle_type_id":"4","last_reported":1722629356,"current_range_meters":23200,"station_id":"ce4bgup2rcd13ifvqco0","pricing_plan_id":"cebpf4jnsgd1na2vs0mg"},{"bike_id":"86271625-0bce-40da-bf5b-2e8f6d62e3df","system_id":"levelo_inurba_marseille","lat":43.309589,"lon":5.390258,"is_reserved":false,"is_disabled":false,"rental_uris":{"android":"levelo://app?vid=86271625-0bce-40da-bf5b-2e8f6d62e3df","ios":"levelo://app?vid=86271625-0bce-40da-bf5b-2e8f6d62e3df"},"vehicle_type_id":"4","last_reported":1722629356,"current_range_meters":10400,"station_id":"ce4bgup2rcd13ifvqco0","pricing_plan_id":"cebpf4jnsgd1na2vs0mg"},{"bike_id":"3c9f107e-3601-4d6a-ae55-adbb998353c1","system_id":"levelo_inurba_marseille","lat":43.30956,"lon":5.39038,"is_reserved":false,"is_disabled":false,"rental_uris":{"android":"levelo://app?vid=3c9f107e-3601-4d6a-ae55-adbb998353c1","ios":"levelo://app?vid=3c9f107e-3601-4d6a-ae55-adbb998353c1"},"vehicle_type_id":"4","last_reported":1722629356,"current_range_meters":22400,"station_id":"ce4bgup2rcd13ifvqco0","pricing_plan_id":"cebpf4jnsgd1na2vs0mg"},{"bike_id":"087f7cdb-f04e-4bcf-8cb5-36ff7f76efb4","system_id":"levelo_inurba_marseille","lat":43.30948,"lon":5.39038,"is_reserved":false,"is_disabled":false,"rental_uris":{"android":"levelo://app?vid=087f7cdb-f04e-4bcf-8cb5-36ff7f76efb4","ios":"levelo://app?vid=087f7cdb-f04e-4bcf-8cb5-36ff7f76efb4"},"vehicle_type_id":"4","last_reported":1722629356,"current_range_meters":31200,"station_id":"ce4bgup2rcd13ifvqco0","pricing_plan_id":"cebpf4jnsgd1na2vs0mg"},{"bike_id":"b495903b-3c26-4953-9531-509f950f0ec9","system_id":"levelo_inurba_marseille","lat":43.309589,"lon":5.390258,"is_reserved":false,"is_disabled":false,"rental_uris":{"android":"levelo://app?vid=b495903b-3c26-4953-9531-509f950f0ec9","ios":"levelo://app?vid=b495903b-3c26-4953-9531-509f950f0ec9"},"vehicle_type_id":"4","last_reported":1722629356,"current_range_meters":15200,"station_id":"ce4bgup2rcd13ifvqco0","pricing_plan_id":"cebpf4jnsgd1na2vs0mg"},{"bike_id":"b5535162-de6f-49b2-815a-db9bc250a153","system_id":"levelo_inurba_marseille","lat":43.309589,"lon":5.390258,"is_reserved":false,"is_disabled":false,"rental_uris":{"android":"levelo://app?vid=b5535162-de6f-49b2-815a-db9bc250a153","ios":"levelo://app?vid=b5535162-de6f-49b2-815a-db9bc250a153"},"vehicle_type_id":"4","last_reported":1722629356,"current_range_meters":31200,"station_id":"ce4bgup2rcd13ifvqco0","pricing_plan_id":"cebpf4jnsgd1na2vs0mg"},{"bike_id":"d0dbf59d-c6ce-43d0-bf6e-343e8c4c095a","system_id":"levelo_inurba_marseille","lat":43.30957,"lon":5.39044,"is_reserved":false,"is_disabled":false,"rental_uris":{"android":"levelo://app?vid=d0dbf59d-c6ce-43d0-bf6e-343e8c4c095a","ios":"levelo://app?vid=d0dbf59d-c6ce-43d0-bf6e-343e8c4c095a"},"vehicle_type_id":"4","last_reported":1722629356,"current_range_meters":7200,"station_id":"ce4bgup2rcd13ifvqco0","pricing_plan_id":"cebpf4jnsgd1na2vs0mg"},{"bike_id":"b4a4a34b-42ed-44aa-b548-c8f0bc6c6223","system_id":"levelo_inurba_marseille","lat":43.30942,"lon":5.39041,"is_reserved":false,"is_disabled":false,"rental_uris":{"android":"levelo://app?vid=b4a4a34b-42ed-44aa-b548-c8f0bc6c6223","ios":"levelo://app?vid=b4a4a34b-42ed-44aa-b548-c8f0bc6c6223"},"vehicle_type_id":"4","last_reported":1722629356,"current_range_meters":24000,"station_id":"ce4bgup2rcd13ifvqco0","pricing_plan_id":"cebpf4jnsgd1na2vs0mg"},{"bike_id":"668adb6c-8cb5-4c06-bb03-9a913d4d8693","system_id":"levelo_inurba_marseille","lat":43.309589,"lon":5.390258,"is_reserved":false,"is_disabled":false,"rental_uris":{"android":"levelo://app?vid=668adb6c-8cb5-4c06-bb03-9a913d4d8693","ios":"levelo://app?vid=668adb6c-8cb5-4c06-bb03-9a913d4d8693"},"vehicle_type_id":"4","last_reported":1722629356,"current_range_meters":26800,"station_id":"ce4bgup2rcd13ifvqco0","pricing_plan_id":"cebpf4jnsgd1na2vs0mg"},{"bike_id":"132943f1-b5fc-42d7-b446-bfc0a422ca63","system_id":"levelo_inurba_marseille","lat":43.309589,"lon":5.390258,"is_reserved":false,"is_disabled":false,"rental_uris":{"android":"levelo://app?vid=132943f1-b5fc-42d7-b446-bfc0a422ca63","ios":"levelo://app?vid=132943f1-b5fc-42d7-b446-bfc0a422ca63"},"vehicle_type_id":"4","last_reported":1722629356,"current_range_meters":20800,"station_id":"ce4bgup2rcd13ifvqco0","pricing_plan_id":"cebpf4jnsgd1na2vs0mg"},{"bike_id":"eae31a12-3e72-42b2-b0c6-a379794f81d9","system_id":"levelo_inurba_marseille","lat":43.309589,"lon":5.390258,"is_reserved":false,"is_disabled":false,"rental_uris":{"android":"levelo://app?vid=eae31a12-3e72-42b2-b0c6-a379794f81d9","ios":"levelo://app?vid=eae31a12-3e72-42b2-b0c6-a379794f81d9"},"vehicle_type_id":"4","last_reported":1722629356,"current_range_meters":3600,"station_id":"ce4bgup2rcd13ifvqco0","pricing_plan_id":"cebpf4jnsgd1na2vs0mg"},{"bike_id":"a95d7059-5111-4d28-8401-c56681bd6c4a","system_id":"levelo_inurba_marseille","lat":43.309589,"lon":5.390258,"is_reserved":false,"is_disabled":false,"rental_uris":{"android":"levelo://app?vid=a95d7059-5111-4d28-8401-c56681bd6c4a","ios":"levelo://app?vid=a95d7059-5111-4d28-8401-c56681bd6c4a"},"vehicle_type_id":"4","last_reported":1722629356,"current_range_meters":3200,"station_id":"ce4bgup2rcd13ifvqco0","pricing_plan_id":"cebpf4jnsgd1na2vs0mg"},{"bike_id":"06d1947d-0a28-45e7-a121-d500b346ecf1","system_id":"levelo_inurba_marseille","lat":43.296921,"lon":5.376579,"is_reserved":false,"is_disabled":false,"rental_uris":{"android":"levelo://app?vid=06d1947d-0a28-45e7-a121-d500b346ecf1","ios":"levelo://app?vid=06d1947d-0a28-45e7-a121-d500b346ecf1"},"vehicle_type_id":"4","last_reported":1722629356,"current_range_meters":11600,"station_id":"ce4bgkh2rcd13ifvqbl0","pricing_plan_id":"cebpf4jnsgd1na2vs0mg"},{"bike_id":"a9ac9531-b567-42ea-a321-bc1cd2e11b5f","system_id":"levelo_inurba_marseille","lat":43.317557,"lon":5.390173,"is_reserved":false,"is_disabled":false,"rental_uris":{"android":"levelo://app?vid=a9ac9531-b567-42ea-a321-bc1cd2e11b5f","ios":"levelo://app?vid=a9ac9531-b567-42ea-a321-bc1cd2e11b5f"},"vehicle_type_id":"4","last_reported":1722629356,"current_range_meters":14800,"station_id":"ce4bhqp2rcd13ifvqhng","pricing_plan_id":"cebpf4jnsgd1na2vs0mg"},{"bike_id":"665c3c39-ca90-4488-b0b3-3ddd5d4d4d2f","system_id":"levelo_inurba_marseille","lat":43.295748,"lon":5.37522,"is_reserved":false,"is_disabled":false,"rental_uris":{"android":"levelo://app?vid=665c3c39-ca90-4488-b0b3-3ddd5d4d4d2f","ios":"levelo://app?vid=665c3c39-ca90-4488-b0b3-3ddd5d4d4d2f"},"vehicle_type_id":"4","last_reported":1722629356,"current_range_meters":4400,"station_id":"ce4bgh92rcd13ifvqb50","pricing_plan_id":"cebpf4jnsgd1na2vs0mg"},{"bike_id":"19ce7bff-4305-4162-9898-842575d9a48f","system_id":"levelo_inurba_marseille","lat":43.298037,"lon":5.381066,"is_reserved":false,"is_disabled":false,"rental_uris":{"android":"levelo://app?vid=19ce7bff-4305-4162-9898-842575d9a48f","ios":"levelo://app?vid=19ce7bff-4305-4162-9898-842575d9a48f"},"vehicle_type_id":"4","last_reported":1722629356,"current_range_meters":3200,"station_id":"ce4bgip2rcd13ifvqbb0","pricing_plan_id":"cebpf4jnsgd1na2vs0mg"},{"bike_id":"50f3ce8e-e537-4dae-aa67-d555c3ce5e22","system_id":"levelo_inurba_marseille","lat":43.29573,"lon":5.37502,"is_reserved":false,"is_disabled":false,"rental_uris":{"android":"levelo://app?vid=50f3ce8e-e537-4dae-aa67-d555c3ce5e22","ios":"levelo://app?vid=50f3ce8e-e537-4dae-aa67-d555c3ce5e22"},"vehicle_type_id":"4","last_reported":1722629356,"current_range_meters":18800,"station_id":"ce4bgh92rcd13ifvqb50","pricing_plan_id":"cebpf4jnsgd1na2vs0mg"},{"bike_id":"0a9c88cb-6750-4b8d-ad7c-60ce10889b95","system_id":"levelo_inurba_marseille","lat":43.298037,"lon":5.381066,"is_reserved":false,"is_disabled":false,"rental_uris":{"android":"levelo://app?vid=0a9c88cb-6750-4b8d-ad7c-60ce10889b95","ios":"levelo://app?vid=0a9c88cb-6750-4b8d-ad7c-60ce10889b95"},"vehicle_type_id":"4","last_reported":1722629356,"current_range_meters":1200,"station_id":"ce4bgip2rcd13ifvqbb0","pricing_plan_id":"cebpf4jnsgd1na2vs0mg"},{"bike_id":"1ef25a45-1cf8-4940-9c4f-1c13edc22386","system_id":"levelo_inurba_marseille","lat":43.304274,"lon":5.388873,"is_reserved":false,"is_disabled":false,"rental_uris":{"android":"levelo://app?vid=1ef25a45-1cf8-4940-9c4f-1c13edc22386","ios":"levelo://app?vid=1ef25a45-1cf8-4940-9c4f-1c13edc22386"},"vehicle_type_id":"4","last_reported":1722629356,"current_range_meters":0,"station_id":"ce4bgk12rcd13ifvqbi0","pricing_plan_id":"cebpf4jnsgd1na2vs0mg"},{"bike_id":"681cc565-feb1-47b6-8810-fa91b74bbf70","system_id":"levelo_inurba_marseille","lat":43.296883,"lon":5.378897,"is_reserved":false,"is_disabled":false,"rental_uris":{"android":"levelo://app?vid=681cc565-feb1-47b6-8810-fa91b74bbf70","ios":"levelo://app?vid=681cc565-feb1-47b6-8810-fa91b74bbf70"},"vehicle_type_id":"4","last_reported":1722629356,"current_range_meters":22800,"station_id":"","pricing_plan_id":"cebpf4jnsgd1na2vs0mg"},{"bike_id":"9bcdce15-2d12-4c1f-9646-cbebaec132c5","system_id":"levelo_inurba_marseille","lat":43.296277,"lon":5.377108,"is_reserved":false,"is_disabled":false,"rental_uris":{"android":"levelo://app?vid=9bcdce15-2d12-4c1f-9646-cbebaec132c5","ios":"levelo://app?vid=9bcdce15-2d12-4c1f-9646-cbebaec132c5"},"vehicle_type_id":"4","last_reported":1722629356,"current_range_meters":10000,"station_id":"ce4bgi92rcd13ifvqb90","pricing_plan_id":"cebpf4jnsgd1na2vs0mg"},{"bike_id":"bff9165f-f1c9-4ec4-afd6-383fa92a5e35","system_id":"levelo_inurba_marseille","lat":43.304278,"lon":5.388868,"is_reserved":false,"is_disabled":false,"rental_uris":{"android":"levelo://app?vid=bff9165f-f1c9-4ec4-afd6-383fa92a5e35","ios":"levelo://app?vid=bff9165f-f1c9-4ec4-afd6-383fa92a5e35"},"vehicle_type_id":"4","last_reported":1722629356,"current_range_meters":400,"station_id":"ce4bgk12rcd13ifvqbi0","pricing_plan_id":"cebpf4jnsgd1na2vs0mg"},{"bike_id":"9f63c36c-130e-4995-988d-465d91c36981","system_id":"levelo_inurba_marseille","lat":43.295748,"lon":5.37522,"is_reserved":false,"is_disabled":false,"rental_uris":{"android":"levelo://app?vid=9f63c36c-130e-4995-988d-465d91c36981","ios":"levelo://app?vid=9f63c36c-130e-4995-988d-465d91c36981"},"vehicle_type_id":"4","last_reported":1722629356,"current_range_meters":11200,"station_id":"ce4bgh92rcd13ifvqb50","pricing_plan_id":"cebpf4jnsgd1na2vs0mg"},{"bike_id":"797f35f3-4b3a-4307-9f1e-b2f53dcfd70c","system_id":"levelo_inurba_marseille","lat":43.295748,"lon":5.37522,"is_reserved":false,"is_disabled":false,"rental_uris":{"android":"levelo://app?vid=797f35f3-4b3a-4307-9f1e-b2f53dcfd70c","ios":"levelo://app?vid=797f35f3-4b3a-4307-9f1e-b2f53dcfd70c"},"vehicle_type_id":"4","last_reported":1722629356,"current_range_meters":25600,"station_id":"ce4bgh92rcd13ifvqb50","pricing_plan_id":"cebpf4jnsgd1na2vs0mg"},{"bike_id":"74ad7691-5e8d-427f-8447-a593f7466bf2","system_id":"levelo_inurba_marseille","lat":43.296277,"lon":5.377108,"is_reserved":false,"is_disabled":false,"rental_uris":{"android":"levelo://app?vid=74ad7691-5e8d-427f-8447-a593f7466bf2","ios":"levelo://app?vid=74ad7691-5e8d-427f-8447-a593f7466bf2"},"vehicle_type_id":"4","last_reported":1722629356,"current_range_meters":5200,"station_id":"ce4bgi92rcd13ifvqb90","pricing_plan_id":"cebpf4jnsgd1na2vs0mg"},{"bike_id":"7ee291d8-a0f9-4907-861c-c0ff3c5e0a86","system_id":"levelo_inurba_marseille","lat":43.296263,"lon":5.377094,"is_reserved":false,"is_disabled":false,"rental_uris":{"android":"levelo://app?vid=7ee291d8-a0f9-4907-861c-c0ff3c5e0a86","ios":"levelo://app?vid=7ee291d8-a0f9-4907-861c-c0ff3c5e0a86"},"vehicle_type_id":"4","last_reported":1722629356,"current_range_meters":0,"station_id":"ce4bgi92rcd13ifvqb90","pricing_plan_id":"cebpf4jnsgd1na2vs0mg"},{"bike_id":"86a66b87-bdee-4eef-bc29-ab0c013b6b21","system_id":"levelo_inurba_marseille","lat":43.299717,"lon":5.384845,"is_reserved":false,"is_disabled":false,"rental_uris":{"android":"levelo://app?vid=86a66b87-bdee-4eef-bc29-ab0c013b6b21","ios":"levelo://app?vid=86a66b87-bdee-4eef-bc29-ab0c013b6b21"},"vehicle_type_id":"4","last_reported":1722629356,"current_range_meters":10800,"station_id":"ce4bgj92rcd13ifvqbd0","pricing_plan_id":"cebpf4jnsgd1na2vs0mg"},{"bike_id":"11187ef8-e50e-474d-a7b7-53921db2923a","system_id":"levelo_inurba_marseille","lat":43.299717,"lon":5.384845,"is_reserved":false,"is_disabled":false,"rental_uris":{"android":"levelo://app?vid=11187ef8-e50e-474d-a7b7-53921db2923a","ios":"levelo://app?vid=11187ef8-e50e-474d-a7b7-53921db2923a"},"vehicle_type_id":"4","last_reported":1722629356,"current_range_meters":27600,"station_id":"ce4bgj92rcd13ifvqbd0","pricing_plan_id":"cebpf4jnsgd1na2vs0mg"},{"bike_id":"7e4e4b36-a438-4954-84d1-84be4a4911f6","system_id":"levelo_inurba_marseille","lat":43.299724,"lon":5.384848,"is_reserved":false,"is_disabled":false,"rental_uris":{"android":"levelo://app?vid=7e4e4b36-a438-4954-84d1-84be4a4911f6","ios":"levelo://app?vid=7e4e4b36-a438-4954-84d1-84be4a4911f6"},"vehicle_type_id":"4","last_reported":1722629356,"current_range_meters":23600,"station_id":"ce4bgj92rcd13ifvqbd0","pricing_plan_id":"cebpf4jnsgd1na2vs0mg"},{"bike_id":"f6a220f6-fdd6-4d36-9e7c-09322db21603","system_id":"levelo_inurba_marseille","lat":43.29867,"lon":5.38381,"is_reserved":false,"is_disabled":false,"rental_uris":{"android":"levelo://app?vid=f6a220f6-fdd6-4d36-9e7c-09322db21603","ios":"levelo://app?vid=f6a220f6-fdd6-4d36-9e7c-09322db21603"},"vehicle_type_id":"4","last_reported":1722629356,"current_range_meters":9600,"station_id":"","pricing_plan_id":"cebpf4jnsgd1na2vs0mg"},{"bike_id":"6dabb033-ac98-4f34-a651-d6be713fcb02","system_id":"levelo_inurba_marseille","lat":43.30957,"lon":5.3925,"is_reserved":false,"is_disabled":false,"rental_uris":{"android":"levelo://app?vid=6dabb033-ac98-4f34-a651-d6be713fcb02","ios":"levelo://app?vid=6dabb033-ac98-4f34-a651-d6be713fcb02"},"vehicle_type_id":"4","last_reported":1722629356,"current_range_meters":18800,"station_id":"","pricing_plan_id":"cebpf4jnsgd1na2vs0mg"},{"bike_id":"b7d7da8d-0c94-43d0-ab8f-369b4a34e5a8","system_id":"levelo_inurba_marseille","lat":43.29602,"lon":5.381084,"is_reserved":false,"is_disabled":false,"rental_uris":{"android":"levelo://app?vid=b7d7da8d-0c94-43d0-ab8f-369b4a34e5a8","ios":"levelo://app?vid=b7d7da8d-0c94-43d0-ab8f-369b4a34e5a8"},"vehicle_type_id":"4","last_reported":1722629356,"current_range_meters":22800,"station_id":"ce4bgl12rcd13ifvqbo0","pricing_plan_id":"cebpf4jnsgd1na2vs0mg"},{"bike_id":"8d04932c-f75b-4dd7-bfd1-0b427b029a05","system_id":"levelo_inurba_marseille","lat":43.32364,"lon":5.38878,"is_reserved":false,"is_disabled":false,"rental_uris":{"android":"levelo://app?vid=8d04932c-f75b-4dd7-bfd1-0b427b029a05","ios":"levelo://app?vid=8d04932c-f75b-4dd7-bfd1-0b427b029a05"},"vehicle_type_id":"4","last_reported":1722629356,"current_range_meters":4400,"station_id":"ce4bhqp2rcd13ifvqhog","pricing_plan_id":"cebpf4jnsgd1na2vs0mg"},{"bike_id":"210adf71-4422-43c7-a406-d97a87807f4f","system_id":"levelo_inurba_marseille","lat":43.32361,"lon":5.38882,"is_reserved":false,"is_disabled":false,"rental_uris":{"android":"levelo://app?vid=210adf71-4422-43c7-a406-d97a87807f4f","ios":"levelo://app?vid=210adf71-4422-43c7-a406-d97a87807f4f"},"vehicle_type_id":"4","last_reported":1722629356,"current_range_meters":31200,"station_id":"ce4bhqp2rcd13ifvqhog","pricing_plan_id":"cebpf4jnsgd1na2vs0mg"},{"bike_id":"a6e7aa3a-4bce-4f9d-bf35-603e015312e9","system_id":"levelo_inurba_marseille","lat":43.32363,"lon":5.38882,"is_reserved":false,"is_disabled":false,"rental_uris":{"android":"levelo://app?vid=a6e7aa3a-4bce-4f9d-bf35-603e015312e9","ios":"levelo://app?vid=a6e7aa3a-4bce-4f9d-bf35-603e015312e9"},"vehicle_type_id":"4","last_reported":1722629356,"current_range_meters":13200,"station_id":"ce4bhqp2rcd13ifvqhog","pricing_plan_id":"cebpf4jnsgd1na2vs0mg"},{"bike_id":"0009eb61-2553-4477-91e3-ab94c3850384","system_id":"levelo_inurba_marseille","lat":43.32365,"lon":5.38881,"is_reserved":false,"is_disabled":false,"rental_uris":{"android":"levelo://app?vid=0009eb61-2553-4477-91e3-ab94c3850384","ios":"levelo://app?vid=0009eb61-2553-4477-91e3-ab94c3850384"},"vehicle_type_id":"4","last_reported":1722629356,"current_range_meters":26800,"station_id":"ce4bhqp2rcd13ifvqhog","pricing_plan_id":"cebpf4jnsgd1na2vs0mg"},{"bike_id":"d3576489-c02b-4e30-bc4d-f34b1172b506","system_id":"levelo_inurba_marseille","lat":43.32365,"lon":5.38882,"is_reserved":false,"is_disabled":false,"rental_uris":{"android":"levelo://app?vid=d3576489-c02b-4e30-bc4d-f34b1172b506","ios":"levelo://app?vid=d3576489-c02b-4e30-bc4d-f34b1172b506"},"vehicle_type_id":"4","last_reported":1722629356,"current_range_meters":21200,"station_id":"ce4bhqp2rcd13ifvqhog","pricing_plan_id":"cebpf4jnsgd1na2vs0mg"},{"bike_id":"b8cf7acb-f378-4900-8cfe-63394b76ec47","system_id":"levelo_inurba_marseille","lat":43.32367,"lon":5.38881,"is_reserved":false,"is_disabled":false,"rental_uris":{"android":"levelo://app?vid=b8cf7acb-f378-4900-8cfe-63394b76ec47","ios":"levelo://app?vid=b8cf7acb-f378-4900-8cfe-63394b76ec47"},"vehicle_type_id":"4","last_reported":1722629356,"current_range_meters":26400,"station_id":"ce4bhqp2rcd13ifvqhog","pricing_plan_id":"cebpf4jnsgd1na2vs0mg"},{"bike_id":"2a7fdbca-6296-4df7-8529-49300be1471d","system_id":"levelo_inurba_marseille","lat":43.32367,"lon":5.388836,"is_reserved":false,"is_disabled":false,"rental_uris":{"android":"levelo://app?vid=2a7fdbca-6296-4df7-8529-49300be1471d","ios":"levelo://app?vid=2a7fdbca-6296-4df7-8529-49300be1471d"},"vehicle_type_id":"4","last_reported":1722629356,"current_range_meters":13600,"station_id":"ce4bhqp2rcd13ifvqhog","pricing_plan_id":"cebpf4jnsgd1na2vs0mg"},{"bike_id":"ce1d46c3-7a87-468d-93ef-7de440451ad5","system_id":"levelo_inurba_marseille","lat":43.32367,"lon":5.388836,"is_reserved":false,"is_disabled":false,"rental_uris":{"android":"levelo://app?vid=ce1d46c3-7a87-468d-93ef-7de440451ad5","ios":"levelo://app?vid=ce1d46c3-7a87-468d-93ef-7de440451ad5"},"vehicle_type_id":"4","last_reported":1722629356,"current_range_meters":17200,"station_id":"ce4bhqp2rcd13ifvqhog","pricing_plan_id":"cebpf4jnsgd1na2vs0mg"},{"bike_id":"982682db-6113-4510-95bd-4f274f8475f1","system_id":"levelo_inurba_marseille","lat":43.32366,"lon":5.38886,"is_reserved":false,"is_disabled":false,"rental_uris":{"android":"levelo://app?vid=982682db-6113-4510-95bd-4f274f8475f1","ios":"levelo://app?vid=982682db-6113-4510-95bd-4f274f8475f1"},"vehicle_type_id":"4","last_reported":1722629356,"current_range_meters":17200,"station_id":"ce4bhqp2rcd13ifvqhog","pricing_plan_id":"cebpf4jnsgd1na2vs0mg"},{"bike_id":"7687e921-eb70-40f3-b744-1095c933d12b","system_id":"levelo_inurba_marseille","lat":43.32367,"lon":5.388836,"is_reserved":false,"is_disabled":false,"rental_uris":{"android":"levelo://app?vid=7687e921-eb70-40f3-b744-1095c933d12b","ios":"levelo://app?vid=7687e921-eb70-40f3-b744-1095c933d12b"},"vehicle_type_id":"4","last_reported":1722629356,"current_range_meters":6800,"station_id":"ce4bhqp2rcd13ifvqhog","pricing_plan_id":"cebpf4jnsgd1na2vs0mg"},{"bike_id":"01801b45-c541-4fa6-b062-fd2602bec9ef","system_id":"levelo_inurba_marseille","lat":43.292749,"lon":5.368402,"is_reserved":false,"is_disabled":false,"rental_uris":{"android":"levelo://app?vid=01801b45-c541-4fa6-b062-fd2602bec9ef","ios":"levelo://app?vid=01801b45-c541-4fa6-b062-fd2602bec9ef"},"vehicle_type_id":"4","last_reported":1722629356,"current_range_meters":13200,"station_id":"ce4bhbp2rcd13ifvqesg","pricing_plan_id":"cebpf4jnsgd1na2vs0mg"},{"bike_id":"c4b5b60b-52c7-42c9-b641-b7be2e61c03c","system_id":"levelo_inurba_marseille","lat":43.293259,"lon":5.371586,"is_reserved":false,"is_disabled":false,"rental_uris":{"android":"levelo://app?vid=c4b5b60b-52c7-42c9-b641-b7be2e61c03c","ios":"levelo://app?vid=c4b5b60b-52c7-42c9-b641-b7be2e61c03c"},"vehicle_type_id":"4","last_reported":1722629356,"current_range_meters":7600,"station_id":"ce4bgh92rcd13ifvqb40","pricing_plan_id":"cebpf4jnsgd1na2vs0mg"},{"bike_id":"d39f46f0-5338-4981-94bf-3b103d93d51e","system_id":"levelo_inurba_marseille","lat":43.293259,"lon":5.371586,"is_reserved":false,"is_disabled":false,"rental_uris":{"android":"levelo://app?vid=d39f46f0-5338-4981-94bf-3b103d93d51e","ios":"levelo://app?vid=d39f46f0-5338-4981-94bf-3b103d93d51e"},"vehicle_type_id":"4","last_reported":1722629356,"current_range_meters":31600,"station_id":"ce4bgh92rcd13ifvqb40","pricing_plan_id":"cebpf4jnsgd1na2vs0mg"},{"bike_id":"df6af1c6-62b7-4692-a524-647de233e320","system_id":"levelo_inurba_marseille","lat":43.292749,"lon":5.368398,"is_reserved":false,"is_disabled":false,"rental_uris":{"android":"levelo://app?vid=df6af1c6-62b7-4692-a524-647de233e320","ios":"levelo://app?vid=df6af1c6-62b7-4692-a524-647de233e320"},"vehicle_type_id":"4","last_reported":1722629356,"current_range_meters":10800,"station_id":"ce4bhbp2rcd13ifvqesg","pricing_plan_id":"cebpf4jnsgd1na2vs0mg"},{"bike_id":"6a643c3b-8b6b-4ab8-8cb0-a0ac975cce3a","system_id":"levelo_inurba_marseille","lat":43.293009,"lon":5.374584,"is_reserved":false,"is_disabled":false,"rental_uris":{"android":"levelo://app?vid=6a643c3b-8b6b-4ab8-8cb0-a0ac975cce3a","ios":"levelo://app?vid=6a643c3b-8b6b-4ab8-8cb0-a0ac975cce3a"},"vehicle_type_id":"4","last_reported":1722629356,"current_range_meters":31600,"station_id":"ce4bgi12rcd13ifvqb70","pricing_plan_id":"cebpf4jnsgd1na2vs0mg"},{"bike_id":"d9d88a91-e8cc-450c-a09c-ce42feb14016","system_id":"levelo_inurba_marseille","lat":43.293009,"lon":5.374584,"is_reserved":false,"is_disabled":false,"rental_uris":{"android":"levelo://app?vid=d9d88a91-e8cc-450c-a09c-ce42feb14016","ios":"levelo://app?vid=d9d88a91-e8cc-450c-a09c-ce42feb14016"},"vehicle_type_id":"4","last_reported":1722629356,"current_range_meters":5600,"station_id":"ce4bgi12rcd13ifvqb70","pricing_plan_id":"cebpf4jnsgd1na2vs0mg"},{"bike_id":"c106f010-aeed-4f9d-b12a-313c533710fd","system_id":"levelo_inurba_marseille","lat":43.30607,"lon":5.39357,"is_reserved":false,"is_disabled":false,"rental_uris":{"android":"levelo://app?vid=c106f010-aeed-4f9d-b12a-313c533710fd","ios":"levelo://app?vid=c106f010-aeed-4f9d-b12a-313c533710fd"},"vehicle_type_id":"4","last_reported":1722629356,"current_range_meters":31600,"station_id":"ce4bh0p2rcd13ifvqd80","pricing_plan_id":"cebpf4jnsgd1na2vs0mg"},{"bike_id":"d4fa8d2e-f988-4b2e-b93d-f742123d937b","system_id":"levelo_inurba_marseille","lat":43.293009,"lon":5.374584,"is_reserved":false,"is_disabled":false,"rental_uris":{"android":"levelo://app?vid=d4fa8d2e-f988-4b2e-b93d-f742123d937b","ios":"levelo://app?vid=d4fa8d2e-f988-4b2e-b93d-f742123d937b"},"vehicle_type_id":"4","last_reported":1722629356,"current_range_meters":30400,"station_id":"ce4bgi12rcd13ifvqb70","pricing_plan_id":"cebpf4jnsgd1na2vs0mg"},{"bike_id":"bacc54a5-6074-41e4-be19-e98b631fe5cc","system_id":"levelo_inurba_marseille","lat":43.30606,"lon":5.39359,"is_reserved":false,"is_disabled":false,"rental_uris":{"android":"levelo://app?vid=bacc54a5-6074-41e4-be19-e98b631fe5cc","ios":"levelo://app?vid=bacc54a5-6074-41e4-be19-e98b631fe5cc"},"vehicle_type_id":"4","last_reported":1722629356,"current_range_meters":18400,"station_id":"ce4bh0p2rcd13ifvqd80","pricing_plan_id":"cebpf4jnsgd1na2vs0mg"},{"bike_id":"502bc9a7-a694-497f-acb5-6c837ac84988","system_id":"levelo_inurba_marseille","lat":43.305956,"lon":5.393574,"is_reserved":false,"is_disabled":false,"rental_uris":{"android":"levelo://app?vid=502bc9a7-a694-497f-acb5-6c837ac84988","ios":"levelo://app?vid=502bc9a7-a694-497f-acb5-6c837ac84988"},"vehicle_type_id":"4","last_reported":1722629356,"current_range_meters":31200,"station_id":"ce4bh0p2rcd13ifvqd80","pricing_plan_id":"cebpf4jnsgd1na2vs0mg"},{"bike_id":"fc2cfcb1-a161-4631-93d9-85390e3d65fa","system_id":"levelo_inurba_marseille","lat":43.293009,"lon":5.374584,"is_reserved":false,"is_disabled":false,"rental_uris":{"android":"levelo://app?vid=fc2cfcb1-a161-4631-93d9-85390e3d65fa","ios":"levelo://app?vid=fc2cfcb1-a161-4631-93d9-85390e3d65fa"},"vehicle_type_id":"4","last_reported":1722629356,"current_range_meters":6000,"station_id":"ce4bgi12rcd13ifvqb70","pricing_plan_id":"cebpf4jnsgd1na2vs0mg"},{"bike_id":"bab4ff6e-c62f-4bfa-a6bf-fb8d31e6f5d6","system_id":"levelo_inurba_marseille","lat":43.305994,"lon":5.393687,"is_reserved":false,"is_disabled":false,"rental_uris":{"android":"levelo://app?vid=bab4ff6e-c62f-4bfa-a6bf-fb8d31e6f5d6","ios":"levelo://app?vid=bab4ff6e-c62f-4bfa-a6bf-fb8d31e6f5d6"},"vehicle_type_id":"4","last_reported":1722629356,"current_range_meters":22800,"station_id":"ce4bh0p2rcd13ifvqd80","pricing_plan_id":"cebpf4jnsgd1na2vs0mg"},{"bike_id":"f146dd14-ce26-4491-a5e4-637929c6f91f","system_id":"levelo_inurba_marseille","lat":43.293009,"lon":5.374584,"is_reserved":false,"is_disabled":false,"rental_uris":{"android":"levelo://app?vid=f146dd14-ce26-4491-a5e4-637929c6f91f","ios":"levelo://app?vid=f146dd14-ce26-4491-a5e4-637929c6f91f"},"vehicle_type_id":"4","last_reported":1722629356,"current_range_meters":15200,"station_id":"ce4bgi12rcd13ifvqb70","pricing_plan_id":"cebpf4jnsgd1na2vs0mg"},{"bike_id":"69de66e4-9356-454e-addd-3e293526380e","system_id":"levelo_inurba_marseille","lat":43.32367,"lon":5.388836,"is_reserved":false,"is_disabled":false,"rental_uris":{"android":"levelo://app?vid=69de66e4-9356-454e-addd-3e293526380e","ios":"levelo://app?vid=69de66e4-9356-454e-addd-3e293526380e"},"vehicle_type_id":"4","last_reported":1722629356,"current_range_meters":0,"station_id":"ce4bhqp2rcd13ifvqhog","pricing_plan_id":"cebpf4jnsgd1na2vs0mg"},{"bike_id":"b8bf8681-2200-49f4-bc80-33c604435ea0","system_id":"levelo_inurba_marseille","lat":43.306027,"lon":5.393701,"is_reserved":false,"is_disabled":false,"rental_uris":{"android":"levelo://app?vid=b8bf8681-2200-49f4-bc80-33c604435ea0","ios":"levelo://app?vid=b8bf8681-2200-49f4-bc80-33c604435ea0"},"vehicle_type_id":"4","last_reported":1722629356,"current_range_meters":30400,"station_id":"ce4bh0p2rcd13ifvqd80","pricing_plan_id":"cebpf4jnsgd1na2vs0mg"},{"bike_id":"1cc258d1-c4a1-45b3-ad0a-4d5daa208d1d","system_id":"levelo_inurba_marseille","lat":43.305994,"lon":5.393687,"is_reserved":false,"is_disabled":false,"rental_uris":{"android":"levelo://app?vid=1cc258d1-c4a1-45b3-ad0a-4d5daa208d1d","ios":"levelo://app?vid=1cc258d1-c4a1-45b3-ad0a-4d5daa208d1d"},"vehicle_type_id":"4","last_reported":1722629356,"current_range_meters":31600,"station_id":"ce4bh0p2rcd13ifvqd80","pricing_plan_id":"cebpf4jnsgd1na2vs0mg"},{"bike_id":"e453776c-61dc-4859-98ce-51a0508ee243","system_id":"levelo_inurba_marseille","lat":43.305994,"lon":5.393687,"is_reserved":false,"is_disabled":false,"rental_uris":{"android":"levelo://app?vid=e453776c-61dc-4859-98ce-51a0508ee243","ios":"levelo://app?vid=e453776c-61dc-4859-98ce-51a0508ee243"},"vehicle_type_id":"4","last_reported":1722629356,"current_range_meters":28000,"station_id":"ce4bh0p2rcd13ifvqd80","pricing_plan_id":"cebpf4jnsgd1na2vs0mg"},{"bike_id":"db76fc2b-4fc1-4f13-9eee-a4c4c44a9a6f","system_id":"levelo_inurba_marseille","lat":43.2936,"lon":5.37835,"is_reserved":false,"is_disabled":false,"rental_uris":{"android":"levelo://app?vid=db76fc2b-4fc1-4f13-9eee-a4c4c44a9a6f","ios":"levelo://app?vid=db76fc2b-4fc1-4f13-9eee-a4c4c44a9a6f"},