{"last_updated":1706119766,"ttl":30,"version":"2.2","data":{"bikes":[{"bike_id":"4aab92d3-8617-460a-bbc4-b451ebbadc07","system_id":"levelo_inurba_marseille","lat":43.312239,"lon":5.368562,"is_reserved":false,"is_disabled":false,"rental_uris":{"android":"levelo://app?vid=4aab92d3-8617-460a-bbc4-b451ebbadc07","ios":"levelo://app?vid=4aab92d3-8617-460a-bbc4-b451ebbadc07"},"vehicle_type_id":"4","last_reported":1706119766,"current_range_meters":0,"station_id":"ce4bgl92rcd13ifvqbq0","pricing_plan_id":"free"},{"bike_id":"17a0ad7b-0691-4b43-98b4-9c1b34aecee2","system_id":"levelo_inurba_marseille","lat":43.309076,"lon":5.368465,"is_reserved":false,"is_disabled":false,"rental_uris":{"android":"levelo://app?vid=17a0ad7b-0691-4b43-98b4-9c1b34aecee2","ios":"levelo://app?vid=17a0ad7b-0691-4b43-98b4-9c1b34aecee2"},"vehicle_type_id":"4","last_reported":1706119766,"current_range_meters":6000,"station_id":"ce4bgn92rcd13ifvqbvg","pricing_plan_id":"free"},{"bike_id":"37ba6c71-8b93-4860-b484-d8e4b5ad0e59","system_id":"levelo_inurba_marseille","lat":43.314811,"lon":5.373104,"is_reserved":false,"is_disabled":false,"rental_uris":{"android":"levelo://app?vid=37ba6c71-8b93-4860-b484-d8e4b5ad0e59","ios":"levelo://app?vid=37ba6c71-8b93-4860-b484-d8e4b5ad0e59"},"vehicle_type_id":"4","last_reported":1706119766,"current_range_meters":22000,"station_id":"ce4bgt12rcd13ifvqcd0","pricing_plan_id":"free"},{"bike_id":"3059c1ab-4d1c-46da-a083-9964316de1ac","system_id":"levelo_inurba_marseille","lat":43.309034,"lon":5.371783,"is_reserved":false,"is_disabled":false,"rental_uris":{"android":"levelo://app?vid=3059c1ab-4d1c-46da-a083-9964316de1ac","ios":"levelo://app?vid=3059c1ab-4d1c-46da-a083-9964316de1ac"},"vehicle_type_id":"4","last_reported":1706119766,"current_range_meters":18800,"station_id":"ce4bguh2rcd13ifvqckg","pricing_plan_id":"free"},{"bike_id":"27c969a6-cc22-4fd4-b21d-79185a0b3c8c","system_id":"levelo_inurba_marseille","lat":43.311207,"lon":5.377569,"is_reserved":false,"is_disabled":false,"rental_uris":{"android":"levelo://app?vid=27c969a6-cc22-4fd4-b21d-79185a0b3c8c","ios":"levelo://app?vid=27c969a6-cc22-4fd4-b21d-79185a0b3c8c"},"vehicle_type_id":"4","last_reported":1706119766,"current_range_meters":0,"station_id":"ce4bgt92rcd13ifvqcg0","pricing_plan_id":"free"},{"bike_id":"21c7aeb1-6f28-4f6f-b5b0-967450ab27a4","system_id":"levelo_inurba_marseille","lat":43.311131,"lon":5.377651,"is_reserved":false,"is_disabled":false,"rental_uris":{"android":"levelo://app?vid=21c7aeb1-6f28-4f6f-b5b0-967450ab27a4","ios":"levelo://app?vid=21c7aeb1-6f28-4f6f-b5b0-967450ab27a4"},"vehicle_type_id":"4","last_reported":1706119766,"current_range_meters":14800,"station_id":"ce4bgt92rcd13ifvqcg0","pricing_plan_id":"free"},{"bike_id":"a7e24ec8-89fb-41bf-afaa-9c997afa5e01","system_id":"levelo_inurba_marseille","lat":43.317075,"lon":5.377367,"is_reserved":false,"is_disabled":false,"rental_uris":{"android":"levelo://app?vid=a7e24ec8-89fb-41bf-afaa-9c997afa5e01","ios":"levelo://app?vid=a7e24ec8-89fb-41bf-afaa-9c997afa5e01"},"vehicle_type_id":"4","last_reported":1706119766,"current_range_meters":11600,"station_id":"ce4bgth2rcd13ifvqch0","pricing_plan_id":"free"},{"bike_id":"07fd1f55-7b7b-46d8-a890-4cdac123bd51","system_id":"levelo_inurba_marseille","lat":43.317075,"lon":5.377367,"is_reserved":false,"is_disabled":false,"rental_uris":{"android":"levelo://app?vid=07fd1f55-7b7b-46d8-a890-4cdac123bd51","ios":"levelo://app?vid=07fd1f55-7b7b-46d8-a890-4cdac123bd51"},"vehicle_type_id":"4","last_reported":1706119766,"current_range_meters":17600,"station_id":"ce4bgth2rcd13ifvqch0","pricing_plan_id":"free"},{"bike_id":"3ae5e513-431c-4942-9d29-90a0a0e2d6f8","system_id":"levelo_inurba_marseille","lat":43.317075,"lon":5.377367,"is_reserved":false,"is_disabled":false,"rental_uris":{"android":"levelo://app?vid=3ae5e513-431c-4942-9d29-90a0a0e2d6f8","ios":"levelo://app?vid=3ae5e513-431c-4942-9d29-90a0a0e2d6f8"},"vehicle_type_id":"4","last_reported":1706119766,"current_range_meters":24400,"station_id":"ce4bgth2rcd13ifvqch0","pricing_plan_id":"free"},{"bike_id":"79ab339e-7c24-4705-8c50-872ce4154a67","system_id":"levelo_inurba_marseille","lat":43.317075,"lon":5.377367,"is_reserved":false,"is_disabled":false,"rental_uris":{"android":"levelo://app?vid=79ab339e-7c24-4705-8c50-872ce4154a67","ios":"levelo://app?vid=79ab339e-7c24-4705-8c50-872ce4154a67"},"vehicle_type_id":"4","last_reported":1706119766,"current_range_meters":13200,"station_id":"ce4bgth2rcd13ifvqch0","pricing_plan_id":"free"},{"bike_id":"b0e70b3c-5b98-4141-890f-78b2f83a390c","system_id":"levelo_inurba_marseille","lat":43.317097,"lon":5.377577,"is_reserved":false,"is_disabled":false,"rental_uris":{"android":"levelo://app?vid=b0e70b3c-5b98-4141-890f-78b2f83a390c","ios":"levelo://app?vid=b0e70b3c-5b98-4141-890f-78b2f83a390c"},"vehicle_type_id":"4","last_reported":1706119766,"current_range_meters":14800,"station_id":"ce4bgth2rcd13ifvqch0","pricing_plan_id":"free"},{"bike_id":"f79039be-4fca-47cf-8811-e268f16bee8a","system_id":"levelo_inurba_marseille","lat":43.317075,"lon":5.377367,"is_reserved":false,"is_disabled":false,"rental_uris":{"android":"levelo://app?vid=f79039be-4fca-47cf-8811-e268f16bee8a","ios":"levelo://app?vid=f79039be-4fca-47cf-8811-e268f16bee8a"},"vehicle_type_id":"4","last_reported":1706119766,"current_range_meters":1600,"station_id":"ce4bgth2rcd13ifvqch0","pricing_plan_id":"free"},{"bike_id":"45f244b7-9f6e-4661-a36c-8c9d18c51ff1","system_id":"levelo_inurba_marseille","lat":43.30304,"lon":5.368987,"is_reserved":false,"is_disabled":false,"rental_uris":{"android":"levelo://app?vid=45f244b7-9f6e-4661-a36c-8c9d18c51ff1","ios":"levelo://app?vid=45f244b7-9f6e-4661-a36c-8c9d18c51ff1"},"vehicle_type_id":"4","last_reported":1706119766,"current_range_meters":20800,"station_id":"ce4bgqh2rcd13ifvqc5g","pricing_plan_id":"free"},{"bike_id":"a1fcdf5c-22f8-4b12-ad9b-f39a6a930360","system_id":"levelo_inurba_marseille","lat":43.317701,"lon":5.379001,"is_reserved":false,"is_disabled":false,"rental_uris":{"android":"levelo://app?vid=a1fcdf5c-22f8-4b12-ad9b-f39a6a930360","ios":"levelo://app?vid=a1fcdf5c-22f8-4b12-ad9b-f39a6a930360"},"vehicle_type_id":"4","last_reported":1706119766,"current_range_meters":20800,"station_id":"","pricing_plan_id":"free"},{"bike_id":"0677b122-c1be-4686-b4c7-8611d6e37339","system_id":"levelo_inurba_marseille","lat":43.310566,"lon":5.3811,"is_reserved":false,"is_disabled":false,"rental_uris":{"android":"levelo://app?vid=0677b122-c1be-4686-b4c7-8611d6e37339","ios":"levelo://app?vid=0677b122-c1be-4686-b4c7-8611d6e37339"},"vehicle_type_id":"4","last_reported":1706119766,"current_range_meters":24800,"station_id":"","pricing_plan_id":"free"},{"bike_id":"09e233c5-d93c-4789-85bd-1f6ed55de216","system_id":"levelo_inurba_marseille","lat":43.301939,"lon":5.366286,"is_reserved":false,"is_disabled":false,"rental_uris":{"android":"levelo://app?vid=09e233c5-d93c-4789-85bd-1f6ed55de216","ios":"levelo://app?vid=09e233c5-d93c-4789-85bd-1f6ed55de216"},"vehicle_type_id":"4","last_reported":1706119766,"current_range_meters":800,"station_id":"ce4bgrh2rcd13ifvqc8g","pricing_plan_id":"free"},{"bike_id":"59daec89-c115-423a-989c-da3d4f9b4f19","system_id":"levelo_inurba_marseille","lat":43.308012,"lon":5.381511,"is_reserved":false,"is_disabled":false,"rental_uris":{"android":"levelo://app?vid=59daec89-c115-423a-989c-da3d4f9b4f19","ios":"levelo://app?vid=59daec89-c115-423a-989c-da3d4f9b4f19"},"vehicle_type_id":"4","last_reported":1706119766,"current_range_meters":1200,"station_id":"ce4bgt12rcd13ifvqce0","pricing_plan_id":"free"},{"bike_id":"f71a57f3-2158-41cf-8ef1-ac0080b54c6d","system_id":"levelo_inurba_marseille","lat":43.307979,"lon":5.381367,"is_reserved":false,"is_disabled":false,"rental_uris":{"android":"levelo://app?vid=f71a57f3-2158-41cf-8ef1-ac0080b54c6d","ios":"levelo://app?vid=f71a57f3-2158-41cf-8ef1-ac0080b54c6d"},"vehicle_type_id":"4","last_reported":1706119766,"current_range_meters":4400,"station_id":"ce4bgt12rcd13ifvqce0","pricing_plan_id":"free"},{"bike_id":"74f30289-3de5-4d31-9878-85f17471db4d","system_id":"levelo_inurba_marseille","lat":43.30812,"lon":5.38155,"is_reserved":false,"is_disabled":false,"rental_uris":{"android":"levelo://app?vid=74f30289-3de5-4d31-9878-85f17471db4d","ios":"levelo://app?vid=74f30289-3de5-4d31-9878-85f17471db4d"},"vehicle_type_id":"4","last_reported":1706119766,"current_range_meters":15200,"station_id":"ce4bgt12rcd13ifvqce0","pricing_plan_id":"free"},{"bike_id":"0a24e64c-9a65-4d0b-ab66-a26e188dff52","system_id":"levelo_inurba_marseille","lat":43.308012,"lon":5.381511,"is_reserved":false,"is_disabled":false,"rental_uris":{"android":"levelo://app?vid=0a24e64c-9a65-4d0b-ab66-a26e188dff52","ios":"levelo://app?vid=0a24e64c-9a65-4d0b-ab66-a26e188dff52"},"vehicle_type_id":"4","last_reported":1706119766,"current_range_meters":11600,"station_id":"ce4bgt12rcd13ifvqce0","pricing_plan_id":"free"},{"bike_id":"137b8fa3-6b64-4fdf-b7ed-5130c2948f27","system_id":"levelo_inurba_marseille","lat":43.304732,"lon":5.379107,"is_reserved":false,"is_disabled":false,"rental_uris":{"android":"levelo://app?vid=137b8fa3-6b64-4fdf-b7ed-5130c2948f27","ios":"levelo://app?vid=137b8fa3-6b64-4fdf-b7ed-5130c2948f27"},"vehicle_type_id":"4","last_reported":1706119766,"current_range_meters":24000,"station_id":"","pricing_plan_id":"free"},{"bike_id":"8d182b5f-4b08-4ae2-a906-9b7aed9aab28","system_id":"levelo_inurba_marseille","lat":43.283998,"lon":5.375062,"is_reserved":false,"is_disabled":false,"rental_uris":{"android":"levelo://app?vid=8d182b5f-4b08-4ae2-a906-9b7aed9aab28","ios":"levelo://app?vid=8d182b5f-4b08-4ae2-a906-9b7aed9aab28"},"vehicle_type_id":"4","last_reported":1706119766,"current_range_meters":9600,"station_id":"ce4bh412rcd13ifvqds0","pricing_plan_id":"free"},{"bike_id":"df267f90-38c9-41c4-8cd1-9755f36928ed","system_id":"levelo_inurba_marseille","lat":43.324771,"lon":5.36557,"is_reserved":false,"is_disabled":false,"rental_uris":{"android":"levelo://app?vid=df267f90-38c9-41c4-8cd1-9755f36928ed","ios":"levelo://app?vid=df267f90-38c9-41c4-8cd1-9755f36928ed"},"vehicle_type_id":"4","last_reported":1706119766,"current_range_meters":10400,"station_id":"ce4bhs12rcd13ifvqhvg","pricing_plan_id":"free"},{"bike_id":"abfa963f-3eaf-4252-821c-1f42b5240185","system_id":"levelo_inurba_marseille","lat":43.302784,"lon":5.377158,"is_reserved":false,"is_disabled":false,"rental_uris":{"android":"levelo://app?vid=abfa963f-3eaf-4252-821c-1f42b5240185","ios":"levelo://app?vid=abfa963f-3eaf-4252-821c-1f42b5240185"},"vehicle_type_id":"4","last_reported":1706119766,"current_range_meters":1200,"station_id":"ce4bguh2rcd13ifvqcj0","pricing_plan_id":"free"},{"bike_id":"89e06dc7-4ee4-46b8-ae62-7544f5754243","system_id":"levelo_inurba_marseille","lat":43.30143,"lon":5.37413,"is_reserved":false,"is_disabled":false,"rental_uris":{"android":"levelo://app?vid=89e06dc7-4ee4-46b8-ae62-7544f5754243","ios":"levelo://app?vid=89e06dc7-4ee4-46b8-ae62-7544f5754243"},"vehicle_type_id":"4","last_reported":1706119766,"current_range_meters":10800,"station_id":"ce4bgs92rcd13ifvqcc0","pricing_plan_id":"free"},{"bike_id":"3ce3e68d-0313-40cb-afa9-858c717ce4c9","system_id":"levelo_inurba_marseille","lat":43.319935,"lon":5.381699,"is_reserved":false,"is_disabled":false,"rental_uris":{"android":"levelo://app?vid=3ce3e68d-0313-40cb-afa9-858c717ce4c9","ios":"levelo://app?vid=3ce3e68d-0313-40cb-afa9-858c717ce4c9"},"vehicle_type_id":"4","last_reported":1706119766,"current_range_meters":18400,"station_id":"ce4bhr12rcd13ifvqhpg","pricing_plan_id":"free"},{"bike_id":"1c3bdad7-cfd7-48ef-9739-f87dfe802cb9","system_id":"levelo_inurba_marseille","lat":43.319935,"lon":5.381414,"is_reserved":false,"is_disabled":false,"rental_uris":{"android":"levelo://app?vid=1c3bdad7-cfd7-48ef-9739-f87dfe802cb9","ios":"levelo://app?vid=1c3bdad7-cfd7-48ef-9739-f87dfe802cb9"},"vehicle_type_id":"4","last_reported":1706119766,"current_range_meters":18800,"station_id":"ce4bhr12rcd13ifvqhpg","pricing_plan_id":"free"},{"bike_id":"cc49fb07-820d-4047-984c-6077647af278","system_id":"levelo_inurba_marseille","lat":43.31993,"lon":5.38145,"is_reserved":false,"is_disabled":false,"rental_uris":{"android":"levelo://app?vid=cc49fb07-820d-4047-984c-6077647af278","ios":"levelo://app?vid=cc49fb07-820d-4047-984c-6077647af278"},"vehicle_type_id":"4","last_reported":1706119766,"current_range_meters":17600,"station_id":"ce4bhr12rcd13ifvqhpg","pricing_plan_id":"free"},{"bike_id":"e8c597bb-73aa-4fd2-8517-e2a6a9010fa8","system_id":"levelo_inurba_marseille","lat":43.31992,"lon":5.38147,"is_reserved":false,"is_disabled":false,"rental_uris":{"android":"levelo://app?vid=e8c597bb-73aa-4fd2-8517-e2a6a9010fa8","ios":"levelo://app?vid=e8c597bb-73aa-4fd2-8517-e2a6a9010fa8"},"vehicle_type_id":"4","last_reported":1706119766,"current_range_meters":1200,"station_id":"ce4bhr12rcd13ifvqhpg","pricing_plan_id":"free"},{"bike_id":"fc51b747-b33f-40c9-9c2c-bd6f886bc3e2","system_id":"levelo_inurba_marseille","lat":43.31992,"lon":5.38148,"is_reserved":false,"is_disabled":false,"rental_uris":{"android":"levelo://app?vid=fc51b747-b33f-40c9-9c2c-bd6f886bc3e2","ios":"levelo://app?vid=fc51b747-b33f-40c9-9c2c-bd6f886bc3e2"},"vehicle_type_id":"4","last_reported":1706119766,"current_range_meters":22800,"station_id":"ce4bhr12rcd13ifvqhpg","pricing_plan_id":"free"},{"bike_id":"dc49a2bc-c54f-43f8-bdaf-bfb9096d0275","system_id":"levelo_inurba_marseille","lat":43.31999,"lon":5.38142,"is_reserved":false,"is_disabled":false,"rental_uris":{"android":"levelo://app?vid=dc49a2bc-c54f-43f8-bdaf-bfb9096d0275","ios":"levelo://app?vid=dc49a2bc-c54f-43f8-bdaf-bfb9096d0275"},"vehicle_type_id":"4","last_reported":1706119766,"current_range_meters":2000,"station_id":"ce4bhr12rcd13ifvqhpg","pricing_plan_id":"free"},{"bike_id":"db5640b8-520d-4779-8ec1-4a4bc253b2f8","system_id":"levelo_inurba_marseille","lat":43.319958,"lon":5.381476,"is_reserved":false,"is_disabled":false,"rental_uris":{"android":"levelo://app?vid=db5640b8-520d-4779-8ec1-4a4bc253b2f8","ios":"levelo://app?vid=db5640b8-520d-4779-8ec1-4a4bc253b2f8"},"vehicle_type_id":"4","last_reported":1706119766,"current_range_meters":5200,"station_id":"ce4bhr12rcd13ifvqhpg","pricing_plan_id":"free"},{"bike_id":"6cd522d9-2262-4fba-a455-a9f2a8ec87db","system_id":"levelo_inurba_marseille","lat":43.31994,"lon":5.3815,"is_reserved":false,"is_disabled":false,"rental_uris":{"android":"levelo://app?vid=6cd522d9-2262-4fba-a455-a9f2a8ec87db","ios":"levelo://app?vid=6cd522d9-2262-4fba-a455-a9f2a8ec87db"},"vehicle_type_id":"4","last_reported":1706119766,"current_range_meters":1600,"station_id":"ce4bhr12rcd13ifvqhpg","pricing_plan_id":"free"},{"bike_id":"efc906f1-6d07-435f-9e36-8719175d637b","system_id":"levelo_inurba_marseille","lat":43.31993,"lon":5.38153,"is_reserved":false,"is_disabled":false,"rental_uris":{"android":"levelo://app?vid=efc906f1-6d07-435f-9e36-8719175d637b","ios":"levelo://app?vid=efc906f1-6d07-435f-9e36-8719175d637b"},"vehicle_type_id":"4","last_reported":1706119766,"current_range_meters":30000,"station_id":"ce4bhr12rcd13ifvqhpg","pricing_plan_id":"free"},{"bike_id":"88483b5e-a393-4bfe-9800-1971f45b7e52","system_id":"levelo_inurba_marseille","lat":43.31997,"lon":5.3815,"is_reserved":false,"is_disabled":false,"rental_uris":{"android":"levelo://app?vid=88483b5e-a393-4bfe-9800-1971f45b7e52","ios":"levelo://app?vid=88483b5e-a393-4bfe-9800-1971f45b7e52"},"vehicle_type_id":"4","last_reported":1706119766,"current_range_meters":16000,"station_id":"ce4bhr12rcd13ifvqhpg","pricing_plan_id":"free"},{"bike_id":"fd388e30-6c90-4fbf-abdf-dd15ef425659","system_id":"levelo_inurba_marseille","lat":43.319967,"lon":5.381565,"is_reserved":false,"is_disabled":false,"rental_uris":{"android":"levelo://app?vid=fd388e30-6c90-4fbf-abdf-dd15ef425659","ios":"levelo://app?vid=fd388e30-6c90-4fbf-abdf-dd15ef425659"},"vehicle_type_id":"4","last_reported":1706119766,"current_range_meters":17200,"station_id":"ce4bhr12rcd13ifvqhpg","pricing_plan_id":"free"},{"bike_id":"5b2be266-740c-4a9a-b470-1d6a1fc3487d","system_id":"levelo_inurba_marseille","lat":43.31993,"lon":5.38162,"is_reserved":false,"is_disabled":false,"rental_uris":{"android":"levelo://app?vid=5b2be266-740c-4a9a-b470-1d6a1fc3487d","ios":"levelo://app?vid=5b2be266-740c-4a9a-b470-1d6a1fc3487d"},"vehicle_type_id":"4","last_reported":1706119766,"current_range_meters":20400,"station_id":"ce4bhr12rcd13ifvqhpg","pricing_plan_id":"free"},{"bike_id":"ec724fe8-b0de-4374-b92d-711f402b6fb5","system_id":"levelo_inurba_marseille","lat":43.31414,"lon":5.38457,"is_reserved":false,"is_disabled":false,"rental_uris":{"android":"levelo://app?vid=ec724fe8-b0de-4374-b92d-711f402b6fb5","ios":"levelo://app?vid=ec724fe8-b0de-4374-b92d-711f402b6fb5"},"vehicle_type_id":"4","last_reported":1706119766,"current_range_meters":30000,"station_id":"","pricing_plan_id":"free"},{"bike_id":"f16409ca-2958-487a-b741-6b6632000ed5","system_id":"levelo_inurba_marseille","lat":43.31355,"lon":5.38492,"is_reserved":false,"is_disabled":false,"rental_uris":{"android":"levelo://app?vid=f16409ca-2958-487a-b741-6b6632000ed5","ios":"levelo://app?vid=f16409ca-2958-487a-b741-6b6632000ed5"},"vehicle_type_id":"4","last_reported":1706119766,"current_range_meters":28000,"station_id":"ce4bgt92rcd13ifvqcf0","pricing_plan_id":"free"},{"bike_id":"b88f8cbc-cc03-4c15-ad0c-983c82bee705","system_id":"levelo_inurba_marseille","lat":43.313571,"lon":5.384829,"is_reserved":false,"is_disabled":false,"rental_uris":{"android":"levelo://app?vid=b88f8cbc-cc03-4c15-ad0c-983c82bee705","ios":"levelo://app?vid=b88f8cbc-cc03-4c15-ad0c-983c82bee705"},"vehicle_type_id":"4","last_reported":1706119766,"current_range_meters":26000,"station_id":"ce4bgt92rcd13ifvqcf0","pricing_plan_id":"free"},{"bike_id":"54148335-5640-49af-affd-9f98f28a2541","system_id":"levelo_inurba_marseille","lat":43.313571,"lon":5.384829,"is_reserved":false,"is_disabled":false,"rental_uris":{"android":"levelo://app?vid=54148335-5640-49af-affd-9f98f28a2541","ios":"levelo://app?vid=54148335-5640-49af-affd-9f98f28a2541"},"vehicle_type_id":"4","last_reported":1706119766,"current_range_meters":16400,"station_id":"ce4bgt92rcd13ifvqcf0","pricing_plan_id":"free"},{"bike_id":"aa67343c-a489-4b95-b783-7ec514ac53e0","system_id":"levelo_inurba_marseille","lat":43.313571,"lon":5.384829,"is_reserved":false,"is_disabled":false,"rental_uris":{"android":"levelo://app?vid=aa67343c-a489-4b95-b783-7ec514ac53e0","ios":"levelo://app?vid=aa67343c-a489-4b95-b783-7ec514ac53e0"},"vehicle_type_id":"4","last_reported":1706119766,"current_range_meters":20800,"station_id":"ce4bgt92rcd13ifvqcf0","pricing_plan_id":"free"},{"bike_id":"3ee9f803-da2f-49a3-a707-0914e4ed1fad","system_id":"levelo_inurba_marseille","lat":43.299724,"lon":5.371829,"is_reserved":false,"is_disabled":false,"rental_uris":{"android":"levelo://app?vid=3ee9f803-da2f-49a3-a707-0914e4ed1fad","ios":"levelo://app?vid=3ee9f803-da2f-49a3-a707-0914e4ed1fad"},"vehicle_type_id":"4","last_reported":1706119766,"current_range_meters":17200,"station_id":"ce4bgr92rcd13ifvqc7g","pricing_plan_id":"free"},{"bike_id":"fefa624a-83e9-4eaf-8747-282ca3c05e29","system_id":"levelo_inurba_marseille","lat":43.299724,"lon":5.371829,"is_reserved":false,"is_disabled":false,"rental_uris":{"android":"levelo://app?vid=fefa624a-83e9-4eaf-8747-282ca3c05e29","ios":"levelo://app?vid=fefa624a-83e9-4eaf-8747-282ca3c05e29"},"vehicle_type_id":"4","last_reported":1706119766,"current_range_meters":5600,"station_id":"ce4bgr92rcd13ifvqc7g","pricing_plan_id":"free"},{"bike_id":"5ae46e27-8659-4421-86e4-c58c9eba2cb4","system_id":"levelo_inurba_marseille","lat":43.299724,"lon":5.371829,"is_reserved":false,"is_disabled":false,"rental_uris":{"android":"levelo://app?vid=5ae46e27-8659-4421-86e4-c58c9eba2cb4","ios":"levelo://app?vid=5ae46e27-8659-4421-86e4-c58c9eba2cb4"},"vehicle_type_id":"4","last_reported":1706119766,"current_range_meters":26400,"station_id":"ce4bgr92rcd13ifvqc7g","pricing_plan_id":"free"},{"bike_id":"8205e0ef-d826-4ecb-a964-61e5cbfc6444","system_id":"levelo_inurba_marseille","lat":43.2936,"lon":5.37835,"is_reserved":false,"is_disabled":false,"rental_uris":{"android":"levelo://app?vid=8205e0ef-d826-4ecb-a964-61e5cbfc6444","ios":"levelo://app?vid=8205e0ef-d826-4ecb-a964-61e5cbfc6444"},"vehicle_type_id":"4","last_reported":1706119766,"current_range_meters":13200,"station_id":"ce4bgjh2rcd13ifvqbf0","pricing_plan_id":"free"},{"bike_id":"766c07d7-9260-4ced-aadf-a446ef1e3c06","system_id":"levelo_inurba_marseille","lat":43.305364,"lon":5.384119,"is_reserved":false,"is_disabled":false,"rental_uris":{"android":"levelo://app?vid=766c07d7-9260-4ced-aadf-a446ef1e3c06","ios":"levelo://app?vid=766c07d7-9260-4ced-aadf-a446ef1e3c06"},"vehicle_type_id":"4","last_reported":1706119766,"current_range_meters":18000,"station_id":"ce4bgg92rcd13ifvqb30","pricing_plan_id":"free"},{"bike_id":"968cf9a9-8b77-44d5-be8c-b5db94ec689f","system_id":"levelo_inurba_marseille","lat":43.305364,"lon":5.384119,"is_reserved":false,"is_disabled":false,"rental_uris":{"android":"levelo://app?vid=968cf9a9-8b77-44d5-be8c-b5db94ec689f","ios":"levelo://app?vid=968cf9a9-8b77-44d5-be8c-b5db94ec689f"},"vehicle_type_id":"4","last_reported":1706119766,"current_range_meters":7600,"station_id":"ce4bgg92rcd13ifvqb30","pricing_plan_id":"free"},{"bike_id":"07eb4e58-9587-4c60-b3b5-936f97b0a47c","system_id":"levelo_inurba_marseille","lat":43.298433,"lon":5.362774,"is_reserved":false,"is_disabled":false,"rental_uris":{"android":"levelo://app?vid=07eb4e58-9587-4c60-b3b5-936f97b0a47c","ios":"levelo://app?vid=07eb4e58-9587-4c60-b3b5-936f97b0a47c"},"vehicle_type_id":"4","last_reported":1706119766,"current_range_meters":0,"station_id":"ce4bgpp2rcd13ifvqc3g","pricing_plan_id":"free"},{"bike_id":"8bfa2d79-2b22-4bda-9b14-7a87d23c276e","system_id":"levelo_inurba_marseille","lat":43.311722,"lon":5.387247,"is_reserved":false,"is_disabled":false,"rental_uris":{"android":"levelo://app?vid=8bfa2d79-2b22-4bda-9b14-7a87d23c276e","ios":"levelo://app?vid=8bfa2d79-2b22-4bda-9b14-7a87d23c276e"},"vehicle_type_id":"4","last_reported":1706119766,"current_range_meters":17600,"station_id":"ce4bgv12rcd13ifvqcp0","pricing_plan_id":"free"},{"bike_id":"5c7dfa56-6cd5-4ba0-97e8-af9cbdd286a5","system_id":"levelo_inurba_marseille","lat":43.297794,"lon":5.370888,"is_reserved":false,"is_disabled":false,"rental_uris":{"android":"levelo://app?vid=5c7dfa56-6cd5-4ba0-97e8-af9cbdd286a5","ios":"levelo://app?vid=5c7dfa56-6cd5-4ba0-97e8-af9cbdd286a5"},"vehicle_type_id":"4","last_reported":1706119766,"current_range_meters":12000,"station_id":"ce4bgop2rcd13ifvqc1g","pricing_plan_id":"free"},{"bike_id":"a4181dc0-337b-4d25-b15a-fa48af530d21","system_id":"levelo_inurba_marseille","lat":43.297774,"lon":5.370875,"is_reserved":false,"is_disabled":false,"rental_uris":{"android":"levelo://app?vid=a4181dc0-337b-4d25-b15a-fa48af530d21","ios":"levelo://app?vid=a4181dc0-337b-4d25-b15a-fa48af530d21"},"vehicle_type_id":"4","last_reported":1706119766,"current_range_meters":0,"station_id":"ce4bgop2rcd13ifvqc1g","pricing_plan_id":"free"},{"bike_id":"ba2c69a9-3d24-4429-b88e-ff3f91cdf44f","system_id":"levelo_inurba_marseille","lat":43.322872,"lon":5.382756,"is_reserved":false,"is_disabled":false,"rental_uris":{"android":"levelo://app?vid=ba2c69a9-3d24-4429-b88e-ff3f91cdf44f","ios":"levelo://app?vid=ba2c69a9-3d24-4429-b88e-ff3f91cdf44f"},"vehicle_type_id":"4","last_reported":1706119766,"current_range_meters":5600,"station_id":"ce4bhr12rcd13ifvqhqg","pricing_plan_id":"free"},{"bike_id":"a5074ab2-a179-41af-ac1d-ee2d4b47f7c2","system_id":"levelo_inurba_marseille","lat":43.322872,"lon":5.382756,"is_reserved":false,"is_disabled":false,"rental_uris":{"android":"levelo://app?vid=a5074ab2-a179-41af-ac1d-ee2d4b47f7c2","ios":"levelo://app?vid=a5074ab2-a179-41af-ac1d-ee2d4b47f7c2"},"vehicle_type_id":"4","last_reported":1706119766,"current_range_meters":27200,"station_id":"ce4bhr12rcd13ifvqhqg","pricing_plan_id":"free"},{"bike_id":"dd25f71b-90eb-4e7e-9930-534e074f9287","system_id":"levelo_inurba_marseille","lat":43.322872,"lon":5.382756,"is_reserved":false,"is_disabled":false,"rental_uris":{"android":"levelo://app?vid=dd25f71b-90eb-4e7e-9930-534e074f9287","ios":"levelo://app?vid=dd25f71b-90eb-4e7e-9930-534e074f9287"},"vehicle_type_id":"4","last_reported":1706119766,"current_range_meters":24000,"station_id":"ce4bhr12rcd13ifvqhqg","pricing_plan_id":"free"},{"bike_id":"8b39830c-6acc-4e7e-913a-a1f2146b14cd","system_id":"levelo_inurba_marseille","lat":43.322872,"lon":5.382756,"is_reserved":false,"is_disabled":false,"rental_uris":{"android":"levelo://app?vid=8b39830c-6acc-4e7e-913a-a1f2146b14cd","ios":"levelo://app?vid=8b39830c-6acc-4e7e-913a-a1f2146b14cd"},"vehicle_type_id":"4","last_reported":1706119766,"current_range_meters":30800,"station_id":"ce4bhr12rcd13ifvqhqg","pricing_plan_id":"free"},{"bike_id":"212dcd97-91c3-4d0a-9fda-a78ac909beb8","system_id":"levelo_inurba_marseille","lat":43.322872,"lon":5.382756,"is_reserved":false,"is_disabled":false,"rental_uris":{"android":"levelo://app?vid=212dcd97-91c3-4d0a-9fda-a78ac909beb8","ios":"levelo://app?vid=212dcd97-91c3-4d0a-9fda-a78ac909beb8"},"vehicle_type_id":"4","last_reported":1706119766,"current_range_meters":4400,"station_id":"ce4bhr12rcd13ifvqhqg","pricing_plan_id":"free"},{"bike_id":"d92dadde-65e9-4914-b13a-401f37c46bb7","system_id":"levelo_inurba_marseille","lat":43.32824,"lon":5.36676,"is_reserved":false,"is_disabled":false,"rental_uris":{"android":"levelo://app?vid=d92dadde-65e9-4914-b13a-401f37c46bb7","ios":"levelo://app?vid=d92dadde-65e9-4914-b13a-401f37c46bb7"},"vehicle_type_id":"4","last_reported":1706119766,"current_range_meters":13200,"station_id":"ce4bhs92rcd13ifvqi0g","pricing_plan_id":"free"},{"bike_id":"572c30ca-2698-4ebb-9720-28d9ee8291d9","system_id":"levelo_inurba_marseille","lat":43.328242,"lon":5.366787,"is_reserved":false,"is_disabled":false,"rental_uris":{"android":"levelo://app?vid=572c30ca-2698-4ebb-9720-28d9ee8291d9","ios":"levelo://app?vid=572c30ca-2698-4ebb-9720-28d9ee8291d9"},"vehicle_type_id":"4","last_reported":1706119766,"current_range_meters":13200,"station_id":"ce4bhs92rcd13ifvqi0g","pricing_plan_id":"free"},{"bike_id":"ea0178f3-2c6b-4af6-b062-91b0b8dde1df","system_id":"levelo_inurba_marseille","lat":43.328258,"lon":5.366772,"is_reserved":false,"is_disabled":false,"rental_uris":{"android":"levelo://app?vid=ea0178f3-2c6b-4af6-b062-91b0b8dde1df","ios":"levelo://app?vid=ea0178f3-2c6b-4af6-b062-91b0b8dde1df"},"vehicle_type_id":"4","last_reported":1706119766,"current_range_meters":5200,"station_id":"ce4bhs92rcd13ifvqi0g","pricing_plan_id":"free"},{"bike_id":"6721428b-c74b-45c6-886b-c2d04f1acc8c","system_id":"levelo_inurba_marseille","lat":43.328276,"lon":5.3669,"is_reserved":false,"is_disabled":false,"rental_uris":{"android":"levelo://app?vid=6721428b-c74b-45c6-886b-c2d04f1acc8c","ios":"levelo://app?vid=6721428b-c74b-45c6-886b-c2d04f1acc8c"},"vehicle_type_id":"4","last_reported":1706119766,"current_range_meters":8400,"station_id":"ce4bhs92rcd13ifvqi0g","pricing_plan_id":"free"},{"bike_id":"73755ba0-1381-4d5d-8750-d3a07d3f4c75","system_id":"levelo_inurba_marseille","lat":43.32828,"lon":5.36677,"is_reserved":false,"is_disabled":false,"rental_uris":{"android":"levelo://app?vid=73755ba0-1381-4d5d-8750-d3a07d3f4c75","ios":"levelo://app?vid=73755ba0-1381-4d5d-8750-d3a07d3f4c75"},"vehicle_type_id":"4","last_reported":1706119766,"current_range_meters":5600,"station_id":"ce4bhs92rcd13ifvqi0g","pricing_plan_id":"free"},{"bike_id":"85cedcff-9e9a-415d-8415-195178ea3cb7","system_id":"levelo_inurba_marseille","lat":43.328281,"lon":5.36674,"is_reserved":false,"is_disabled":false,"rental_uris":{"android":"levelo://app?vid=85cedcff-9e9a-415d-8415-195178ea3cb7","ios":"levelo://app?vid=85cedcff-9e9a-415d-8415-195178ea3cb7"},"vehicle_type_id":"4","last_reported":1706119766,"current_range_meters":6800,"station_id":"ce4bhs92rcd13ifvqi0g","pricing_plan_id":"free"},{"bike_id":"6da9db5a-42ba-4fa8-afc9-4fdbb45498c1","system_id":"levelo_inurba_marseille","lat":43.328281,"lon":5.366773,"is_reserved":false,"is_disabled":false,"rental_uris":{"android":"levelo://app?vid=6da9db5a-42ba-4fa8-afc9-4fdbb45498c1","ios":"levelo://app?vid=6da9db5a-42ba-4fa8-afc9-4fdbb45498c1"},"vehicle_type_id":"4","last_reported":1706119766,"current_range_meters":13600,"station_id":"ce4bhs92rcd13ifvqi0g","pricing_plan_id":"free"},{"bike_id":"fc9820ec-57fc-43b3-89c8-7e10b070c0b6","system_id":"levelo_inurba_marseille","lat":43.328371,"lon":5.366912,"is_reserved":false,"is_disabled":false,"rental_uris":{"android":"levelo://app?vid=fc9820ec-57fc-43b3-89c8-7e10b070c0b6","ios":"levelo://app?vid=fc9820ec-57fc-43b3-89c8-7e10b070c0b6"},"vehicle_type_id":"4","last_reported":1706119766,"current_range_meters":14400,"station_id":"ce4bhs92rcd13ifvqi0g","pricing_plan_id":"free"},{"bike_id":"38d4b3c6-c1c4-4ada-b0ed-8e6826ac2770","system_id":"levelo_inurba_marseille","lat":43.328371,"lon":5.366912,"is_reserved":false,"is_disabled":false,"rental_uris":{"android":"levelo://app?vid=38d4b3c6-c1c4-4ada-b0ed-8e6826ac2770","ios":"levelo://app?vid=38d4b3c6-c1c4-4ada-b0ed-8e6826ac2770"},"vehicle_type_id":"4","last_reported":1706119766,"current_range_meters":12000,"station_id":"ce4bhs92rcd13ifvqi0g","pricing_plan_id":"free"},{"bike_id":"447532c0-56ca-46ac-9000-fea47d81b433","system_id":"levelo_inurba_marseille","lat":43.32829,"lon":5.36682,"is_reserved":false,"is_disabled":false,"rental_uris":{"android":"levelo://app?vid=447532c0-56ca-46ac-9000-fea47d81b433","ios":"levelo://app?vid=447532c0-56ca-46ac-9000-fea47d81b433"},"vehicle_type_id":"4","last_reported":1706119766,"current_range_meters":22000,"station_id":"ce4bhs92rcd13ifvqi0g","pricing_plan_id":"free"},{"bike_id":"d0053059-cf0c-492f-8c3d-472fc0c8eca3","system_id":"levelo_inurba_marseille","lat":43.328371,"lon":5.366909,"is_reserved":false,"is_disabled":false,"rental_uris":{"android":"levelo://app?vid=d0053059-cf0c-492f-8c3d-472fc0c8eca3","ios":"levelo://app?vid=d0053059-cf0c-492f-8c3d-472fc0c8eca3"},"vehicle_type_id":"4","last_reported":1706119766,"current_range_meters":26400,"station_id":"ce4bhs92rcd13ifvqi0g","pricing_plan_id":"free"},{"bike_id":"2de5d3f5-e0c4-4d29-a5d2-278faeda93bb","system_id":"levelo_inurba_marseille","lat":43.297163,"lon":5.365866,"is_reserved":false,"is_disabled":false,"rental_uris":{"android":"levelo://app?vid=2de5d3f5-e0c4-4d29-a5d2-278faeda93bb","ios":"levelo://app?vid=2de5d3f5-e0c4-4d29-a5d2-278faeda93bb"},"vehicle_type_id":"4","last_reported":1706119766,"current_range_meters":0,"station_id":"ce4bgn12rcd13ifvqbt0","pricing_plan_id":"free"},{"bike_id":"e92d083a-dfb9-464f-a2d7-ffc480709cb3","system_id":"levelo_inurba_marseille","lat":43.328371,"lon":5.366912,"is_reserved":false,"is_disabled":false,"rental_uris":{"android":"levelo://app?vid=e92d083a-dfb9-464f-a2d7-ffc480709cb3","ios":"levelo://app?vid=e92d083a-dfb9-464f-a2d7-ffc480709cb3"},"vehicle_type_id":"4","last_reported":1706119766,"current_range_meters":8800,"station_id":"ce4bhs92rcd13ifvqi0g","pricing_plan_id":"free"},{"bike_id":"d8b5260c-205c-4300-9784-22ead2fde86f","system_id":"levelo_inurba_marseille","lat":43.328371,"lon":5.366909,"is_reserved":false,"is_disabled":false,"rental_uris":{"android":"levelo://app?vid=d8b5260c-205c-4300-9784-22ead2fde86f","ios":"levelo://app?vid=d8b5260c-205c-4300-9784-22ead2fde86f"},"vehicle_type_id":"4","last_reported":1706119766,"current_range_meters":13600,"station_id":"ce4bhs92rcd13ifvqi0g","pricing_plan_id":"free"},{"bike_id":"96012ef5-e74f-4375-9b61-12f790002a3f","system_id":"levelo_inurba_marseille","lat":43.29981,"lon":5.37885,"is_reserved":false,"is_disabled":false,"rental_uris":{"android":"levelo://app?vid=96012ef5-e74f-4375-9b61-12f790002a3f","ios":"levelo://app?vid=96012ef5-e74f-4375-9b61-12f790002a3f"},"vehicle_type_id":"4","last_reported":1706119766,"current_range_meters":12000,"station_id":"","pricing_plan_id":"free"},{"bike_id":"5b7aaccd-f0dd-4bc4-a5b7-1581df3aca1d","system_id":"levelo_inurba_marseille","lat":43.328371,"lon":5.366909,"is_reserved":false,"is_disabled":false,"rental_uris":{"android":"levelo://app?vid=5b7aaccd-f0dd-4bc4-a5b7-1581df3aca1d","ios":"levelo://app?vid=5b7aaccd-f0dd-4bc4-a5b7-1581df3aca1d"},"vehicle_type_id":"4","last_reported":1706119766,"current_range_meters":10000,"station_id":"ce4bhs92rcd13ifvqi0g","pricing_plan_id":"free"},{"bike_id":"fb5c81e7-2e43-4803-b381-527ab4102689","system_id":"levelo_inurba_marseille","lat":43.328371,"lon":5.366912,"is_reserved":false,"is_disabled":false,"rental_uris":{"android":"levelo://app?vid=fb5c81e7-2e43-4803-b381-527ab4102689","ios":"levelo://app?vid=fb5c81e7-2e43-4803-b381-527ab4102689"},"vehicle_type_id":"4","last_reported":1706119766,"current_range_meters":27600,"station_id":"ce4bhs92rcd13ifvqi0g","pricing_plan_id":"free"},{"bike_id":"8e2e258c-9f25-408c-8291-bf6e5ba33180","system_id":"levelo_inurba_marseille","lat":43.328371,"lon":5.366909,"is_reserved":false,"is_disabled":false,"rental_uris":{"android":"levelo://app?vid=8e2e258c-9f25-408c-8291-bf6e5ba33180","ios":"levelo://app?vid=8e2e258c-9f25-408c-8291-bf6e5ba33180"},"vehicle_type_id":"4","last_reported":1706119766,"current_range_meters":24000,"station_id":"ce4bhs92rcd13ifvqi0g","pricing_plan_id":"free"},{"bike_id":"f529af8b-6eb5-4dad-b929-2be8fdbdd47b","system_id":"levelo_inurba_marseille","lat":43.328371,"lon":5.366909,"is_reserved":false,"is_disabled":false,"rental_uris":{"android":"levelo://app?vid=f529af8b-6eb5-4dad-b929-2be8fdbdd47b","ios":"levelo://app?vid=f529af8b-6eb5-4dad-b929-2be8fdbdd47b"},"vehicle_type_id":"4","last_reported":1706119766,"current_range_meters":24800,"station_id":"ce4bhs92rcd13ifvqi0g","pricing_plan_id":"free"},{"bike_id":"204738f6-469d-4db3-bd14-c2b38ef5e726","system_id":"levelo_inurba_marseille","lat":43.328371,"lon":5.366912,"is_reserved":false,"is_disabled":false,"rental_uris":{"android":"levelo://app?vid=204738f6-469d-4db3-bd14-c2b38ef5e726","ios":"levelo://app?vid=204738f6-469d-4db3-bd14-c2b38ef5e726"},"vehicle_type_id":"4","last_reported":1706119766,"current_range_meters":19600,"station_id":"ce4bhs92rcd13ifvqi0g","pricing_plan_id":"free"},{"bike_id":"79d2d98a-29f2-4ffd-ae01-bfd8a1fa05d5","system_id":"levelo_inurba_marseille","lat":43.328371,"lon":5.366912,"is_reserved":false,"is_disabled":false,"rental_uris":{"android":"levelo://app?vid=79d2d98a-29f2-4ffd-ae01-bfd8a1fa05d5","ios":"levelo://app?vid=79d2d98a-29f2-4ffd-ae01-bfd8a1fa05d5"},"vehicle_type_id":"4","last_reported":1706119766,"current_range_meters":25600,"station_id":"ce4bhs92rcd13ifvqi0g","pricing_plan_id":"free"},{"bike_id":"41137a7c-ffbe-4c6f-9b83-c10287326c78","system_id":"levelo_inurba_marseille","lat":43.297163,"lon":5.365866,"is_reserved":false,"is_disabled":false,"rental_uris":{"android":"levelo://app?vid=41137a7c-ffbe-4c6f-9b83-c10287326c78","ios":"levelo://app?vid=41137a7c-ffbe-4c6f-9b83-c10287326c78"},"vehicle_type_id":"4","last_reported":1706119766,"current_range_meters":0,"station_id":"ce4bgn12rcd13ifvqbt0","pricing_plan_id":"free"},{"bike_id":"c01d1354-bd8a-4f2a-b7c5-c1cbc5aad638","system_id":"levelo_inurba_marseille","lat":43.29582,"lon":5.36734,"is_reserved":false,"is_disabled":false,"rental_uris":{"android":"levelo://app?vid=c01d1354-bd8a-4f2a-b7c5-c1cbc5aad638","ios":"levelo://app?vid=c01d1354-bd8a-4f2a-b7c5-c1cbc5aad638"},"vehicle_type_id":"4","last_reported":1706119766,"current_range_meters":0,"station_id":"ce4bgph2rcd13ifvqc2g","pricing_plan_id":"free"},{"bike_id":"0b6932a4-5c42-4dbf-86bc-03711a7a1b36","system_id":"levelo_inurba_marseille","lat":43.309589,"lon":5.390258,"is_reserved":false,"is_disabled":false,"rental_uris":{"android":"levelo://app?vid=0b6932a4-5c42-4dbf-86bc-03711a7a1b36","ios":"levelo://app?vid=0b6932a4-5c42-4dbf-86bc-03711a7a1b36"},"vehicle_type_id":"4","last_reported":1706119766,"current_range_meters":1600,"station_id":"ce4bgup2rcd13ifvqco0","pricing_plan_id":"free"},{"bike_id":"526761f9-2597-4d9e-ad87-d8b7da1cc65b","system_id":"levelo_inurba_marseille","lat":43.299028,"lon":5.381509,"is_reserved":false,"is_disabled":false,"rental_uris":{"android":"levelo://app?vid=526761f9-2597-4d9e-ad87-d8b7da1cc65b","ios":"levelo://app?vid=526761f9-2597-4d9e-ad87-d8b7da1cc65b"},"vehicle_type_id":"4","last_reported":1706119766,"current_range_meters":12400,"station_id":"ce4bgj12rcd13ifvqbc0","pricing_plan_id":"free"},{"bike_id":"83deacad-a4d3-4544-a6f6-b34b821d69e8","system_id":"levelo_inurba_marseille","lat":43.31762,"lon":5.39009,"is_reserved":false,"is_disabled":false,"rental_uris":{"android":"levelo://app?vid=83deacad-a4d3-4544-a6f6-b34b821d69e8","ios":"levelo://app?vid=83deacad-a4d3-4544-a6f6-b34b821d69e8"},"vehicle_type_id":"4","last_reported":1706119766,"current_range_meters":31200,"station_id":"ce4bhqp2rcd13ifvqhng","pricing_plan_id":"free"},{"bike_id":"2e985d08-b0db-4565-9e10-fd0d33ba2268","system_id":"levelo_inurba_marseille","lat":43.317601,"lon":5.390133,"is_reserved":false,"is_disabled":false,"rental_uris":{"android":"levelo://app?vid=2e985d08-b0db-4565-9e10-fd0d33ba2268","ios":"levelo://app?vid=2e985d08-b0db-4565-9e10-fd0d33ba2268"},"vehicle_type_id":"4","last_reported":1706119766,"current_range_meters":11200,"station_id":"ce4bhqp2rcd13ifvqhng","pricing_plan_id":"free"},{"bike_id":"106195af-4a6e-4db4-b26c-2ee530a622c3","system_id":"levelo_inurba_marseille","lat":43.317611,"lon":5.390146,"is_reserved":false,"is_disabled":false,"rental_uris":{"android":"levelo://app?vid=106195af-4a6e-4db4-b26c-2ee530a622c3","ios":"levelo://app?vid=106195af-4a6e-4db4-b26c-2ee530a622c3"},"vehicle_type_id":"4","last_reported":1706119766,"current_range_meters":26000,"station_id":"ce4bhqp2rcd13ifvqhng","pricing_plan_id":"free"},{"bike_id":"fad7a006-9dda-4c7c-8a3e-8fb4a9fb9fe6","system_id":"levelo_inurba_marseille","lat":43.31758,"lon":5.3902,"is_reserved":false,"is_disabled":false,"rental_uris":{"android":"levelo://app?vid=fad7a006-9dda-4c7c-8a3e-8fb4a9fb9fe6","ios":"levelo://app?vid=fad7a006-9dda-4c7c-8a3e-8fb4a9fb9fe6"},"vehicle_type_id":"4","last_reported":1706119766,"current_range_meters":16000,"station_id":"ce4bhqp2rcd13ifvqhng","pricing_plan_id":"free"},{"bike_id":"9443e511-2e2d-41e7-a2cd-4c95bf03992f","system_id":"levelo_inurba_marseille","lat":43.31492,"lon":5.39129,"is_reserved":false,"is_disabled":false,"rental_uris":{"android":"levelo://app?vid=9443e511-2e2d-41e7-a2cd-4c95bf03992f","ios":"levelo://app?vid=9443e511-2e2d-41e7-a2cd-4c95bf03992f"},"vehicle_type_id":"4","last_reported":1706119766,"current_range_meters":28400,"station_id":"","pricing_plan_id":"free"},{"bike_id":"eed08407-e098-4d26-bc22-7318228ca1ad","system_id":"levelo_inurba_marseille","lat":43.298037,"lon":5.381066,"is_reserved":false,"is_disabled":false,"rental_uris":{"android":"levelo://app?vid=eed08407-e098-4d26-bc22-7318228ca1ad","ios":"levelo://app?vid=eed08407-e098-4d26-bc22-7318228ca1ad"},"vehicle_type_id":"4","last_reported":1706119766,"current_range_meters":26400,"station_id":"ce4bgip2rcd13ifvqbb0","pricing_plan_id":"free"},{"bike_id":"b719a19e-cde8-4ecd-bd62-f48b535ef904","system_id":"levelo_inurba_marseille","lat":43.298037,"lon":5.381066,"is_reserved":false,"is_disabled":false,"rental_uris":{"android":"levelo://app?vid=b719a19e-cde8-4ecd-bd62-f48b535ef904","ios":"levelo://app?vid=b719a19e-cde8-4ecd-bd62-f48b535ef904"},"vehicle_type_id":"4","last_reported":1706119766,"current_range_meters":6000,"station_id":"ce4bgip2rcd13ifvqbb0","pricing_plan_id":"free"},{"bike_id":"6c733361-40b1-4e59-9df9-bdabc0b193fb","system_id":"levelo_inurba_marseille","lat":43.304274,"lon":5.388873,"is_reserved":false,"is_disabled":false,"rental_uris":{"android":"levelo://app?vid=6c733361-40b1-4e59-9df9-bdabc0b193fb","ios":"levelo://app?vid=6c733361-40b1-4e59-9df9-bdabc0b193fb"},"vehicle_type_id":"4","last_reported":1706119766,"current_range_meters":0,"station_id":"ce4bgk12rcd13ifvqbi0","pricing_plan_id":"free"},{"bike_id":"1fb00ff4-8b1a-4ab1-ab3f-3c05286acfdb","system_id":"levelo_inurba_marseille","lat":43.30426,"lon":5.38882,"is_reserved":false,"is_disabled":false,"rental_uris":{"android":"levelo://app?vid=1fb00ff4-8b1a-4ab1-ab3f-3c05286acfdb","ios":"levelo://app?vid=1fb00ff4-8b1a-4ab1-ab3f-3c05286acfdb"},"vehicle_type_id":"4","last_reported":1706119766,"current_range_meters":400,"station_id":"ce4bgk12rcd13ifvqbi0","pricing_plan_id":"free"},{"bike_id":"9bb54382-7ee0-41f3-9618-07b81ce6f5e0","system_id":"levelo_inurba_marseille","lat":43.30434,"lon":5.3889,"is_reserved":false,"is_disabled":false,"rental_uris":{"android":"levelo://app?vid=9bb54382-7ee0-41f3-9618-07b81ce6f5e0","ios":"levelo://app?vid=9bb54382-7ee0-41f3-9618-07b81ce6f5e0"},"vehicle_type_id":"4","last_reported":1706119766,"current_range_meters":2800,"station_id":"ce4bgk12rcd13ifvqbi0","pricing_plan_id":"free"},{"bike_id":"777b35c1-b499-47dd-9f77-72e17f205b35","system_id":"levelo_inurba_marseille","lat":43.30433,"lon":5.38894,"is_reserved":false,"is_disabled":false,"rental_uris":{"android":"levelo://app?vid=777b35c1-b499-47dd-9f77-72e17f205b35","ios":"levelo://app?vid=777b35c1-b499-47dd-9f77-72e17f205b35"},"vehicle_type_id":"4","last_reported":1706119766,"current_range_meters":0,"station_id":"ce4bgk12rcd13ifvqbi0","pricing_plan_id":"free"},{"bike_id":"9ba1f237-1c0e-410c-9be0-1f4ea9226ac5","system_id":"levelo_inurba_marseille","lat":43.30428,"lon":5.38896,"is_reserved":false,"is_disabled":false,"rental_uris":{"android":"levelo://app?vid=9ba1f237-1c0e-410c-9be0-1f4ea9226ac5","ios":"levelo://app?vid=9ba1f237-1c0e-410c-9be0-1f4ea9226ac5"},"vehicle_type_id":"4","last_reported":1706119766,"current_range_meters":0,"station_id":"ce4bgk12rcd13ifvqbi0","pricing_plan_id":"free"},{"bike_id":"f2a40106-fb4f-4419-af13-569d8c53669e","system_id":"levelo_inurba_marseille","lat":43.30428,"lon":5.38908,"is_reserved":false,"is_disabled":false,"rental_uris":{"android":"levelo://app?vid=f2a40106-fb4f-4419-af13-569d8c53669e","ios":"levelo://app?vid=f2a40106-fb4f-4419-af13-569d8c53669e"},"vehicle_type_id":"4","last_reported":1706119766,"current_range_meters":400,"station_id":"ce4bgk12rcd13ifvqbi0","pricing_plan_id":"free"},{"bike_id":"a16f7552-9273-4bc0-aec9-d9e53bce618a","system_id":"levelo_inurba_marseille","lat":43.299707,"lon":5.384859,"is_reserved":false,"is_disabled":false,"rental_uris":{"android":"levelo://app?vid=a16f7552-9273-4bc0-aec9-d9e53bce618a","ios":"levelo://app?vid=a16f7552-9273-4bc0-aec9-d9e53bce618a"},"vehicle_type_id":"4","last_reported":1706119766,"current_range_meters":0,"station_id":"ce4bgj92rcd13ifvqbd0","pricing_plan_id":"free"},{"bike_id":"3ee18669-f199-40cb-93dc-a3c938f0f9db","system_id":"levelo_inurba_marseille","lat":43.29602,"lon":5.381084,"is_reserved":false,"is_disabled":false,"rental_uris":{"android":"levelo://app?vid=3ee18669-f199-40cb-93dc-a3c938f0f9db","ios":"levelo://app?vid=3ee18669-f199-40cb-93dc-a3c938f0f9db"},"vehicle_type_id":"4","last_reported":1706119766,"current_range_meters":19200,"station_id":"ce4bgl12rcd13ifvqbo0","pricing_plan_id":"free"},{"bike_id":"1cd49860-c923-47d0-8d01-e5335b7c9a86","system_id":"levelo_inurba_marseille","lat":43.293259,"lon":5.371586,"is_reserved":false,"is_disabled":false,"rental_uris":{"android":"levelo://app?vid=1cd49860-c923-47d0-8d01-e5335b7c9a86","ios":"levelo://app?vid=1cd49860-c923-47d0-8d01-e5335b7c9a86"},"vehicle_type_id":"4","last_reported":1706119766,"current_range_meters":3600,"station_id":"ce4bgh92rcd13ifvqb40","pricing_plan_id":"free"},{"bike_id":"bc3021e3-76fc-46ee-8ca7-9af767cad66d","system_id":"levelo_inurba_marseille","lat":43.292749,"lon":5.368402,"is_reserved":false,"is_disabled":false,"rental_uris":{"android":"levelo://app?vid=bc3021e3-76fc-46ee-8ca7-9af767cad66d","ios":"levelo://app?vid=bc3021e3-76fc-46ee-8ca7-9af767cad66d"},"vehicle_type_id":"4","last_reported":1706119766,"current_range_meters":17200,"station_id":"ce4bhbp2rcd13ifvqesg","pricing_plan_id":"free"},{"bike_id":"b03c978d-94a5-4c19-8dc8-ce7c7331f15f","system_id":"levelo_inurba_marseille","lat":43.293259,"lon":5.371586,"is_reserved":false,"is_disabled":false,"rental_uris":{"android":"levelo://app?vid=b03c978d-94a5-4c19-8dc8-ce7c7331f15f","ios":"levelo://app?vid=b03c978d-94a5-4c19-8dc8-ce7c7331f15f"},"vehicle_type_id":"4","last_reported":1706119766,"current_range_meters":13200,"station_id":"ce4bgh92rcd13ifvqb40","pricing_plan_id":"free"},{"bike_id":"8e6ec46f-e2bc-4fc2-be94-8c77aa630826","system_id":"levelo_inurba_marseille","lat":43.292749,"lon":5.368402,"is_reserved":false,"is_disabled":false,"rental_uris":{"android":"levelo://app?vid=8e6ec46f-e2bc-4fc2-be94-8c77aa630826","ios":"levelo://app?vid=8e6ec46f-e2bc-4fc2-be94-8c77aa630826"},"vehicle_type_id":"4","last_reported":1706119766,"current_range_meters":9200,"station_id":"ce4bhbp2rcd13ifvqesg","pricing_plan_id":"free"},{"bike_id":"c763d3d3-aff7-4ab1-8c92-9b1043d69484","system_id":"levelo_inurba_marseille","lat":43.30236,"lon":5.39053,"is_reserved":false,"is_disabled":false,"rental_uris":{"android":"levelo://app?vid=c763d3d3-aff7-4ab1-8c92-9b1043d69484","ios":"levelo://app?vid=c763d3d3-aff7-4ab1-8c92-9b1043d69484"},"vehicle_type_id":"4","last_reported":1706119766,"current_range_meters":13600,"station_id":"","pricing_plan_id":"free"},{"bike_id":"3dc1d8c3-1d77-4942-9682-2fd442db46a8","system_id":"levelo_inurba_marseille","lat":43.292749,"lon":5.368402,"is_reserved":false,"is_disabled":false,"rental_uris":{"android":"levelo://app?vid=3dc1d8c3-1d77-4942-9682-2fd442db46a8","ios":"levelo://app?vid=3dc1d8c3-1d77-4942-9682-2fd442db46a8"},"vehicle_type_id":"4","last_reported":1706119766,"current_range_meters":10400,"station_id":"ce4bhbp2rcd13ifvqesg","pricing_plan_id":"free"},{"bike_id":"b15b8088-81d7-4bc5-b864-bb14e9c78c9a","system_id":"levelo_inurba_marseille","lat":43.300852,"lon":5.390859,"is_reserved":false,"is_disabled":false,"rental_uris":{"android":"levelo://app?vid=b15b8088-81d7-4bc5-b864-bb14e9c78c9a","ios":"levelo://app?vid=b15b8088-81d7-4bc5-b864-bb14e9c78c9a"},"vehicle_type_id":"4","last_reported":1706119766,"current_range_meters":9600,"station_id":"ce4bh192rcd13ifvqdb0","pricing_plan_id":"free"},{"bike_id":"29f6edc4-fe0b-45e7-b8a9-bb692d777eef","system_id":"levelo_inurba_marseille","lat":43.30085,"lon":5.390856,"is_reserved":false,"is_disabled":false,"rental_uris":{"android":"levelo://app?vid=29f6edc4-fe0b-45e7-b8a9-bb692d777eef","ios":"levelo://app?vid=29f6edc4-fe0b-45e7-b8a9-bb692d777eef"},"vehicle_type_id":"4","last_reported":1706119766,"current_range_meters":0,"station_id":"ce4bh192rcd13ifvqdb0","pricing_plan_id":"free"},{"bike_id":"fb4d2117-0bbc-4563-b116-dfc17f358324","system_id":"levelo_inurba_marseille","lat":43.30085,"lon":5.390856,"is_reserved":false,"is_disabled":false,"rental_uris":{"android":"levelo://app?vid=fb4d2117-0bbc-4563-b116-dfc17f358324","ios":"levelo://app?vid=fb4d2117-0bbc-4563-b116-dfc17f358324"},"vehicle_type_id":"4","last_reported":1706119766,"current_range_meters":16000,"station_id":"ce4bh192rcd13ifvqdb0","pricing_plan_id":"free"},{"bike_id":"7b4f7eca-81eb-42c6-8862-4030e64dced8","system_id":"levelo_inurba_marseille","lat":43.29892,"lon":5.38903,"is_reserved":false,"is_disabled":false,"rental_uris":{"android":"levelo://app?vid=7b4f7eca-81eb-42c6-8862-4030e64dced8","ios":"levelo://app?vid=7b4f7eca-81eb-42c6-8862-4030e64dced8"},"vehicle_type_id":"4","last_reported":1706119766,"current_range_meters":0,"station_id":"ce4bh392rcd13ifvqdl0","pricing_plan_id":"free"},{"bike_id":"4891e7db-8b48-4b9f-9a75-eb463680cef6","system_id":"levelo_inurba_marseille","lat":43.298764,"lon":5.388973,"is_reserved":false,"is_disabled":false,"rental_uris":{"android":"levelo://app?vid=4891e7db-8b48-4b9f-9a75-eb463680cef6","ios":"levelo://app?vid=4891e7db-8b48-4b9f-9a75-eb463680cef6"},"vehicle_type_id":"4","last_reported":1706119766,"current_range_meters":0,"station_id":"ce4bh392rcd13ifvqdl0","pricing_plan_id":"free"},{"bike_id":"7424e2ef-37c0-4175-89a9-2970632cb9a7","system_id":"levelo_inurba_marseille","lat":43.298764,"lon":5.388973,"is_reserved":false,"is_disabled":false,"rental_uris":{"android":"levelo://app?vid=7424e2ef-37c0-4175-89a9-2970632cb9a7","ios":"levelo://app?vid=7424e2ef-37c0-4175-89a9-2970632cb9a7"},"vehicle_type_id":"4","last_reported":1706119766,"current_range_meters":3200,"station_id":"ce4bh392rcd13ifvqdl0","pricing_plan_id":"free"},{"bike_id":"5b804eff-d35b-44db-9524-23066c5b9903","system_id":"levelo_inurba_marseille","lat":43.291994,"lon":5.357886,"is_reserved":false,"is_disabled":false,"rental_uris":{"android":"levelo://app?vid=5b804eff-d35b-44db-9524-23066c5b9903","ios":"levelo://app?vid=5b804eff-d35b-44db-9524-23066c5b9903"},"vehicle_type_id":"4","last_reported":1706119766,"current_range_meters":10400,"station_id":"ce4bhb12rcd13ifvqel0","pricing_plan_id":"free"},{"bike_id":"9d19874b-c705-4750-8272-2f2d8d0eb8b4","system_id":"levelo_inurba_marseille","lat":43.291994,"lon":5.357886,"is_reserved":false,"is_disabled":false,"rental_uris":{"android":"levelo://app?vid=9d19874b-c705-4750-8272-2f2d8d0eb8b4","ios":"levelo://app?vid=9d19874b-c705-4750-8272-2f2d8d0eb8b4"},"vehicle_type_id":"4","last_reported":1706119766,"current_range_meters":0,"station_id":"ce4bhb12rcd13ifvqel0","pricing_plan_id":"free"},{"bike_id":"a1fcf3bf-bc11-40cb-964c-883d9dcceafb","system_id":"levelo_inurba_marseille","lat":43.291994,"lon":5.357886,"is_reserved":false,"is_disabled":false,"rental_uris":{"android":"levelo://app?vid=a1fcf3bf-bc11-40cb-964c-883d9dcceafb","ios":"levelo://app?vid=a1fcf3bf-bc11-40cb-964c-883d9dcceafb"},"vehicle_type_id":"4","last_reported":1706119766,"current_range_meters":8800,"station_id":"ce4bhb12rcd13ifvqel0","pricing_plan_id":"free"},{"bike_id":"d2dcd7a9-32a0-496a-9677-42bf13c644e7","system_id":"levelo_inurba_marseille","lat":43.313291,"lon":5.396838,"is_reserved":false,"is_disabled":false,"rental_uris":{"android":"levelo://app?vid=d2dcd7a9-32a0-496a-9677-42bf13c644e7","ios":"levelo://app?vid=d2dcd7a9-32a0-496a-9677-42bf13c644e7"},"vehicle_type_id":"4","last_reported":1706119766,"current_range_meters":12400,"station_id":"ce4bgvp2rcd13ifvqcu0","pricing_plan_id":"free"},{"bike_id":"0d56d34c-87b5-4f1a-8340-463eb773210a","system_id":"levelo_inurba_marseille","lat":43.31326,"lon":5.3969,"is_reserved":false,"is_disabled":false,"rental_uris":{"android":"levelo://app?vid=0d56d34c-87b5-4f1a-8340-463eb773210a","ios":"levelo://app?vid=0d56d34c-87b5-4f1a-8340-463eb773210a"},"vehicle_type_id":"4","last_reported":1706119766,"current_range_meters":26800,"station_id":"ce4bgvp2rcd13ifvqcu0","pricing_plan_id":"free"},{"bike_id":"47b2ffa9-d406-435d-bd83-b6cc36c3332f","system_id":"levelo_inurba_marseille","lat":43.313291,"lon":5.396838,"is_reserved":false,"is_disabled":false,"rental_uris":{"android":"levelo://app?vid=47b2ffa9-d406-435d-bd83-b6cc36c3332f","ios":"levelo://app?vid=47b2ffa9-d406-435d-bd83-b6cc36c3332f"},"vehicle_type_id":"4","last_reported":1706119766,"current_range_meters":15600,"station_id":"ce4bgvp2rcd13ifvqcu0","pricing_plan_id":"free"},{"bike_id":"013bea78-ac01-424d-ac89-ff2719b14871","system_id":"levelo_inurba_marseille","lat":43.309038,"lon":5.396546,"is_reserved":false,"is_disabled":false,"rental_uris":{"android":"levelo://app?vid=013bea78-ac01-424d-ac89-ff2719b14871","ios":"levelo://app?vid=013bea78-ac01-424d-ac89-ff2719b14871"},"vehicle_type_id":"4","last_reported":1706119766,"current_range_meters":10800,"station_id":"ce4bh012rcd13ifvqcv0","pricing_plan_id":"free"},{"bike_id":"3640a7f6-b483-41e7-82b9-2ca8e4826885","system_id":"levelo_inurba_marseille","lat":43.29529,"lon":5.385581,"is_reserved":false,"is_disabled":false,"rental_uris":{"android":"levelo://app?vid=3640a7f6-b483-41e7-82b9-2ca8e4826885","ios":"levelo://app?vid=3640a7f6-b483-41e7-82b9-2ca8e4826885"},"vehicle_type_id":"4","last_reported":1706119766,"current_range_meters":16400,"station_id":"ce4bgih2rcd13ifvqba0","pricing_plan_id":"free"},{"bike_id":"d7658ce5-bf93-4486-92b4-6699b1395385","system_id":"levelo_inurba_marseille","lat":43.29529,"lon":5.38535,"is_reserved":false,"is_disabled":false,"rental_uris":{"android":"levelo://app?vid=d7658ce5-bf93-4486-92b4-6699b1395385","ios":"levelo://app?vid=d7658ce5-bf93-4486-92b4-6699b1395385"},"vehicle_type_id":"4","last_reported":1706119766,"current_range_meters":0,"station_id":"ce4bgih2rcd13ifvqba0","pricing_plan_id":"free"},{"bike_id":"c18ccc65-4a86-42b2-afb7-bfe2cd5fc7a2","system_id":"levelo_inurba_marseille","lat":43.2953,"lon":5.38545,"is_reserved":false,"is_disabled":false,"rental_uris":{"android":"levelo://app?vid=c18ccc65-4a86-42b2-afb7-bfe2cd5fc7a2","ios":"levelo://app?vid=c18ccc65-4a86-42b2-afb7-bfe2cd5fc7a2"},"vehicle_type_id":"4","last_reported":1706119766,"current_range_meters":0,"station_id":"ce4bgih2rcd13ifvqba0","pricing_plan_id":"free"},{"bike_id":"33356fc4-7034-4405-9e42-64b36ff5a579","system_id":"levelo_inurba_marseille","lat":43.29529,"lon":5.385581,"is_reserved":false,"is_disabled":false,"rental_uris":{"android":"levelo://app?vid=33356fc4-7034-4405-9e42-64b36ff5a579","ios":"levelo://app?vid=33356fc4-7034-4405-9e42-64b36ff5a579"},"vehicle_type_id":"4","last_reported":1706119766,"current_range_meters":9600,"station_id":"ce4bgih2rcd13ifvqba0","pricing_plan_id":"free"},{"bike_id":"e16a8308-1ae3-4211-a983-b0c8c5cdc71d","system_id":"levelo_inurba_marseille","lat":43.29529,"lon":5.385581,"is_reserved":false,"is_disabled":false,"rental_uris":{"android":"levelo://app?vid=e16a8308-1ae3-4211-a983-b0c8c5cdc71d","ios":"levelo://app?vid=e16a8308-1ae3-4211-a983-b0c8c5cdc71d"},"vehicle_type_id":"4","last_reported":1706119766,"current_range_meters":17200,"station_id":"ce4bgih2rcd13ifvqba0","pricing_plan_id":"free"},{"bike_id":"a57527b4-2a1e-4c5b-8bbb-eaa848045e6c","system_id":"levelo_inurba_marseille","lat":43.309038,"lon":5.396546,"is_reserved":false,"is_disabled":false,"rental_uris":{"android":"levelo://app?vid=a57527b4-2a1e-4c5b-8bbb-eaa848045e6c","ios":"levelo://app?vid=a57527b4-2a1e-4c5b-8bbb-eaa848045e6c"},"vehicle_type_id":"4","last_reported":1706119766,"current_range_meters":10800,"station_id":"ce4bh012rcd13ifvqcv0","pricing_plan_id":"free"},{"bike_id":"2d2f4c04-8593-4a43-8de2-315bc0f9ff33","system_id":"levelo_inurba_marseille","lat":43.290779,"lon":5.371482,"is_reserved":false,"is_disabled":false,"rental_uris":{"android":"levelo://app?vid=2d2f4c04-8593-4a43-8de2-315bc0f9ff33","ios":"levelo://app?vid=2d2f4c04-8593-4a43-8de2-315bc0f9ff33"},"vehicle_type_id":"4","last_reported":1706119766,"current_range_meters":6000,"station_id":"ce4bh5p2rcd13ifvqe4g","pricing_plan_id":"free"},{"bike_id":"88424c25-d670-4591-9e93-2ec05bcdd13f","system_id":"levelo_inurba_marseille","lat":43.290779,"lon":5.371482,"is_reserved":false,"is_disabled":false,"rental_uris":{"android":"levelo://app?vid=88424c25-d670-4591-9e93-2ec05bcdd13f","ios":"levelo://app?vid=88424c25-d670-4591-9e93-2ec05bcdd13f"},"vehicle_type_id":"4","last_reported":1706119766,"current_range_meters":19200,"station_id":"ce4bh5p2rcd13ifvqe4g","pricing_plan_id":"free"},{"bike_id":"45f0cf16-e40e-4fbc-bfd8-c23683af1dab","system_id":"levelo_inurba_marseille","lat":43.290779,"lon":5.371482,"is_reserved":false,"is_disabled":false,"rental_uris":{"android":"levelo://app?vid=45f0cf16-e40e-4fbc-bfd8-c23683af1dab","ios":"levelo://app?vid=45f0cf16-e40e-4fbc-bfd8-c23683af1dab"},"vehicle_type_id":"4","last_reported":1706119766,"current_range_meters":2800,"station_id":"ce4bh5p2rcd13ifvqe4g","pricing_plan_id":"free"},{"bike_id":"61a67ab8-6f2b-4131-8b4f-f4a22d8fbfb5","system_id":"levelo_inurba_marseille","lat":43.290779,"lon":5.371482,"is_reserved":false,"is_disabled":false,"rental_uris":{"android":"levelo://app?vid=61a67ab8-6f2b-4131-8b4f-f4a22d8fbfb5","ios":"levelo://app?vid=61a67ab8-6f2b-4131-8b4f-f4a22d8fbfb5"},"vehicle_type_id":"4","last_reported":1706119766,"current_range_meters":20400,"station_id":"ce4bh5p2rcd13ifvqe4g","pricing_plan_id":"free"},{"bike_id":"748cf306-eedf-456c-94bc-5b3f0bca1ed0","system_id":"levelo_inurba_marseille","lat":43.290779,"lon":5.371482,"is_reserved":false,"is_disabled":false,"rental_uris":{"android":"levelo://app?vid=748cf306-eedf-456c-94bc-5b3f0bca1ed0","ios":"levelo://app?vid=748cf306-eedf-456c-94bc-5b3f0bca1ed0"},"vehicle_type_id":"4","last_reported":1706119766,"current_range_meters":20400,"station_id":"ce4bh5p2rcd13ifvqe4g","pricing_plan_id":"free"},{"bike_id":"40d8969f-86d0-430c-a0ab-0b6d3a69b5a5","system_id":"levelo_inurba_marseille","lat":43.302008,"lon":5.394694,"is_reserved":false,"is_disabled":false,"rental_uris":{"android":"levelo://app?vid=40d8969f-86d0-430c-a0ab-0b6d3a69b5a5","ios":"levelo://app?vid=40d8969f-86d0-430c-a0ab-0b6d3a69b5a5"},"vehicle_type_id":"4","last_reported":1706119766,"current_range_meters":5600,"station_id":"ce4bh0p2rcd13ifvqd70","pricing_plan_id":"free"},{"bike_id":"2e1d76eb-8aeb-4b4c-b3af-4432af733ad0","system_id":"levelo_inurba_marseille","lat":43.302008,"lon":5.394694,"is_reserved":false,"is_disabled":false,"rental_uris":{"android":"levelo://app?vid=2e1d76eb-8aeb-4b4c-b3af-4432af733ad0","ios":"levelo://app?vid=2e1d76eb-8aeb-4b4c-b3af-4432af733ad0"},"vehicle_type_id":"4","last_reported":1706119766,"current_range_meters":20400,"station_id":"ce4bh0p2rcd13ifvqd70","pricing_plan_id":"free"},{"bike_id":"abefd3ec-689d-4e4a-8a58-7c07ff1384a4","system_id":"levelo_inurba_marseille","lat":43.290624,"lon":5.359245,"is_reserved":false,"is_disabled":false,"rental_uris":{"android":"levelo://app?vid=abefd3ec-689d-4e4a-8a58-7c07ff1384a4","ios":"levelo://app?vid=abefd3ec-689d-4e4a-8a58-7c07ff1384a4"},"vehicle_type_id":"4","last_reported":1706119766,"current_range_meters":21200,"station_id":"ce4bha92rcd13ifvqeg0","pricing_plan_id":"free"},{"bike_id":"4d0b08ef-6e63-45d4-8c29-425607f684e0","system_id":"levelo_inurba_marseille","lat":43.290631,"lon":5.359244,"is_reserved":false,"is_disabled":false,"rental_uris":{"android":"levelo://app?vid=4d0b08ef-6e63-45d4-8c29-425607f684e0","ios":"levelo://app?vid=4d0b08ef-6e63-45d4-8c29-425607f684e0"},"vehicle_type_id":"4","last_reported":1706119766,"current_range_meters":15200,"station_id":"ce4bha92rcd13ifvqeg0","pricing_plan_id":"free"},{"bike_id":"7be4edf1-2619-4b27-9e64-e2dddf2c10b6","system_id":"levelo_inurba_marseille","lat":43.290624,"lon":5.359245,"is_reserved":false,"is_disabled":false,"rental_uris":{"android":"levelo://app?vid=7be4edf1-2619-4b27-9e64-e2dddf2c10b6","ios":"levelo://app?vid=7be4edf1-2619-4b27-9e64-e2dddf2c10b6"},"vehicle_type_id":"4","last_reported":1706119766,"current_range_meters":21600,"station_id":"ce4bha92rcd13ifvqeg0","pricing_plan_id":"free"},{"bike_id":"fe2ddb57-dbac-4bce-b7a6-de905e8f11b1","system_id":"levelo_inurba_marseille","lat":43.290319,"lon":5.375732,"is_reserved":false,"is_disabled":false,"rental_uris":{"android":"levelo://app?vid=fe2ddb57-dbac-4bce-b7a6-de905e8f11b1","ios":"levelo://app?vid=fe2ddb57-dbac-4bce-b7a6-de905e8f11b1"},"vehicle_type_id":"4","last_reported":1706119766,"current_range_meters":8800,"station_id":"ce4bh692rcd13ifvqe90","pricing_plan_id":"free"},{"bike_id":"3c02e743-640b-46dc-8aed-b8c8a9b1fcb6","system_id":"levelo_inurba_marseille","lat":43.294153,"lon":5.386305,"is_reserved":false,"is_disabled":false,"rental_uris":{"android":"levelo://app?vid=3c02e743-640b-46dc-8aed-b8c8a9b1fcb6","ios":"levelo://app?vid=3c02e743-640b-46dc-8aed-b8c8a9b1fcb6"},"vehicle_type_id":"4","last_reported":1706119766,"current_range_meters":18000,"station_id":"ce4bh2h2rcd13ifvqdh0","pricing_plan_id":"free"},{"bike_id":"4cbed360-5b68-411d-a078-a7493ec9a75a","system_id":"levelo_inurba_marseille","lat":43.290319,"lon":5.375732,"is_reserved":false,"is_disabled":false,"rental_uris":{"android":"levelo://app?vid=4cbed360-5b68-411d-a078-a7493ec9a75a","ios":"levelo://app?vid=4cbed360-5b68-411d-a078-a7493ec9a75a"},"vehicle_type_id":"4","last_reported":1706119766,"current_range_meters":19200,"station_id":"ce4bh692rcd13ifvqe90","pricing_plan_id":"free"},{"bike_id":"a5715f32-31d7-4620-9516-3ef68132dbd5","system_id":"levelo_inurba_marseille","lat":43.28943,"lon":5.36628,"is_reserved":false,"is_disabled":false,"rental_uris":{"android":"levelo://app?vid=a5715f32-31d7-4620-9516-3ef68132dbd5","ios":"levelo://app?vid=a5715f32-31d7-4620-9516-3ef68132dbd5"},"vehicle_type_id":"4","last_reported":1706119766,"current_range_meters":2800,"station_id":"ce4bhap2rcd13ifvqek0","pricing_plan_id":"free"},{"bike_id":"c969e506-45cd-4320-a5dd-b5c004bd26d8","system_id":"levelo_inurba_marseille","lat":43.289468,"lon":5.363719,"is_reserved":false,"is_disabled":false,"rental_uris":{"android":"levelo://app?vid=c969e506-45cd-4320-a5dd-b5c004bd26d8","ios":"levelo://app?vid=c969e506-45cd-4320-a5dd-b5c004bd26d8"},"vehicle_type_id":"4","last_reported":1706119766,"current_range_meters":12800,"station_id":"ce4bhc92rcd13ifvqetg","pricing_plan_id":"free"},{"bike_id":"5c99d90c-d4f3-40fa-ba79-3b8e3d16a631","system_id":"levelo_inurba_marseille","lat":43.289468,"lon":5.363719,"is_reserved":false,"is_disabled":false,"rental_uris":{"android":"levelo://app?vid=5c99d90c-d4f3-40fa-ba79-3b8e3d16a631","ios":"levelo://app?vid=5c99d90c-d4f3-40fa-ba79-3b8e3d16a631"},"vehicle_type_id":"4","last_reported":1706119766,"current_range_meters":16800,"station_id":"ce4bhc92rcd13ifvqetg","pricing_plan_id":"free"},{"bike_id":"a1c20441-eb6f-4dd2-8e0e-7bdb598ae5c2","system_id":"levelo_inurba_marseille","lat":43.289468,"lon":5.363719,"is_reserved":false,"is_disabled":false,"rental_uris":{"android":"levelo://app?vid=a1c20441-eb6f-4dd2-8e0e-7bdb598ae5c2","ios":"levelo://app?vid=a1c20441-eb6f-4dd2-8e0e-7bdb598ae5c2"},"vehicle_type_id":"4","last_reported":1706119766,"current_range_meters":0,"station_id":"ce4bhc92rcd13ifvqetg","pricing_plan_id":"free"},{"bike_id":"be0a19e5-8b9a-490f-9b5f-6604cc025677","system_id":"levelo_inurba_marseille","lat":43.292642,"lon":5.384254,"is_reserved":false,"is_disabled":false,"rental_uris":{"android":"levelo://app?vid=be0a19e5-8b9a-490f-9b5f-6604cc025677","ios":"levelo://app?vid=be0a19e5-8b9a-490f-9b5f-6604cc025677"},"vehicle_type_id":"4","last_reported":1706119766,"current_range_meters":4800,"station_id":"ce4bh692rcd13ifvqea0","pricing_plan_id":"free"},{"bike_id":"81b29532-b33a-4805-9ed9-f062dfbf583d","system_id":"levelo_inurba_marseille","lat":43.292708,"lon":5.384347,"is_reserved":false,"is_disabled":false,"rental_uris":{"android":"levelo://app?vid=81b29532-b33a-4805-9ed9-f062dfbf583d","ios":"levelo://app?vid=81b29532-b33a-4805-9ed9-f062dfbf583d"},"vehicle_type_id":"4","last_reported":1706119766,"current_range_meters":0,"station_id":"ce4bh692rcd13ifvqea0","pricing_plan_id":"free"},{"bike_id":"e2304b3c-4aca-4a34-a137-a8172b98e954","system_id":"levelo_inurba_marseille","lat":43.304296,"lon":5.397513,"is_reserved":false,"is_disabled":false,"rental_uris":{"android":"levelo://app?vid=e2304b3c-4aca-4a34-a137-a8172b98e954","ios":"levelo://app?vid=e2304b3c-4aca-4a34-a137-a8172b98e954"},"vehicle_type_id":"4","last_reported":1706119766,"current_range_meters":0,"station_id":"ce4bh092rcd13ifvqd20","pricing_plan_id":"free"},{"bike_id":"694ca70c-58e6-4b40-95bb-0e8a91e440c8","system_id":"levelo_inurba_marseille","lat":43.292642,"lon":5.384254,"is_reserved":false,"is_disabled":false,"rental_uris":{"android":"levelo://app?vid=694ca70c-58e6-4b40-95bb-0e8a91e440c8","ios":"levelo://app?vid=694ca70c-58e6-4b40-95bb-0e8a91e440c8"},"vehicle_type_id":"4","last_reported":1706119766,"current_range_meters":15600,"station_id":"ce4bh692rcd13ifvqea0","pricing_plan_id":"free"},{"bike_id":"1b79286c-eca9-49d3-8a57-68cfb07343b8","system_id":"levelo_inurba_marseille","lat":43.292644,"lon":5.384257,"is_reserved":false,"is_disabled":false,"rental_uris":{"android":"levelo://app?vid=1b79286c-eca9-49d3-8a57-68cfb07343b8","ios":"levelo://app?vid=1b79286c-eca9-49d3-8a57-68cfb07343b8"},"vehicle_type_id":"4","last_reported":1706119766,"current_range_meters":3600,"station_id":"ce4bh692rcd13ifvqea0","pricing_plan_id":"free"},{"bike_id":"150dde8c-e3b2-4985-ae6a-88ce26ee8935","system_id":"levelo_inurba_marseille","lat":43.29309,"lon":5.38529,"is_reserved":false,"is_disabled":false,"rental_uris":{"android":"levelo://app?vid=150dde8c-e3b2-4985-ae6a-88ce26ee8935","ios":"levelo://app?vid=150dde8c-e3b2-4985-ae6a-88ce26ee8935"},"vehicle_type_id":"4","last_reported":1706119766,"current_range_meters":0,"station_id":"","pricing_plan_id":"free"},{"bike_id":"6c16bf8b-7561-4a2e-9c13-1e65f7167442","system_id":"levelo_inurba_marseille","lat":43.304296,"lon":5.397513,"is_reserved":false,"is_disabled":false,"rental_uris":{"android":"levelo://app?vid=6c16bf8b-7561-4a2e-9c13-1e65f7167442","ios":"levelo://app?vid=6c16bf8b-7561-4a2e-9c13-1e65f7167442"},"vehicle_type_id":"4","last_reported":1706119766,"current_range_meters":5200,"station_id":"ce4bh092rcd13ifvqd20","pricing_plan_id":"free"},{"bike_id":"86c12259-8fa5-449b-bc67-b1627fcfb609","system_id":"levelo_inurba_marseille","lat":43.304274,"lon":5.397513,"is_reserved":false,"is_disabled":false,"rental_uris":{"android":"levelo://app?vid=86c12259-8fa5-449b-bc67-b1627fcfb609","ios":"levelo://app?vid=86c12259-8fa5-449b-bc67-b1627fcfb609"},"vehicle_type_id":"4","last_reported":1706119766,"current_range_meters":1200,"station_id":"ce4bh092rcd13ifvqd20","pricing_plan_id":"free"},{"bike_id":"4a4771a7-4605-49a8-8dd1-97191b0a9b37","system_id":"levelo_inurba_marseille","lat":43.292642,"lon":5.384254,"is_reserved":false,"is_disabled":false,"rental_uris":{"android":"levelo://app?vid=4a4771a7-4605-49a8-8dd1-97191b0a9b37","ios":"levelo://app?vid=4a4771a7-4605-49a8-8dd1-97191b0a9b37"},"vehicle_type_id":"4","last_reported":1706119766,"current_range_meters":0,"station_id":"ce4bh692rcd13ifvqea0","pricing_plan_id":"free"},{"bike_id":"76540885-84ae-4009-bdbc-0e0c6f4a164b","system_id":"levelo_inurba_marseille","lat":43.292642,"lon":5.384254,"is_reserved":false,"is_disabled":false,"rental_uris":{"android":"levelo://app?vid=76540885-84ae-4009-bdbc-0e0c6f4a164b","ios":"levelo://app?vid=76540885-84ae-4009-bdbc-0e0c6f4a164b"},"vehicle_type_id":"4","last_reported":1706119766,"current_range_meters":15600,"station_id":"ce4bh692rcd13ifvqea0","pricing_plan_id":"free"},{"bike_id":"26193d77-4666-49de-9626-00ddfe06c57d","system_id":"levelo_inurba_marseille","lat":43.290995,"lon":5.381361,"is_reserved":false,"is_disabled":false,"rental_uris":{"android":"levelo://app?vid=26193d77-4666-49de-9626-00ddfe06c57d","ios":"levelo://app?vid=26193d77-4666-49de-9626-00ddfe06c57d"},"vehicle_type_id":"4","last_reported":1706119766,"current_range_meters":10800,"station_id":"ce4bh512rcd13ifvqe2g","pricing_plan_id":"free"},{"bike_id":"2428a292-6758-4466-9f34-9cab82cc9935","system_id":"levelo_inurba_marseille","lat":43.290995,"lon":5.381361,"is_reserved":false,"is_disabled":false,"rental_uris":{"android":"levelo://app?vid=2428a292-6758-4466-9f34-9cab82cc9935","ios":"levelo://app?vid=2428a292-6758-4466-9f34-9cab82cc9935"},"vehicle_type_id":"4","last_reported":1706119766,"current_range_meters":14800,"station_id":"ce4bh512rcd13ifvqe2g","pricing_plan_id":"free"},{"bike_id":"3bd75a11-a132-45ce-8988-c3564ee4ef3d","system_id":"levelo_inurba_marseille","lat":43.295169,"lon":5.390426,"is_reserved":false,"is_disabled":false,"rental_uris":{"android":"levelo://app?vid=3bd75a11-a132-45ce-8988-c3564ee4ef3d","ios":"levelo://app?vid=3bd75a11-a132-45ce-8988-c3564ee4ef3d"},"vehicle_type_id":"4","last_reported":1706119766,"current_range_meters":20800,"station_id":"ce4bh3p2rcd13ifvqdp0","pricing_plan_id":"free"},{"bike_id":"a24a5c82-ae01-490a-ad7e-fe870a9f6d04","system_id":"levelo_inurba_marseille","lat":43.297815,"lon":5.393548,"is_reserved":false,"is_disabled":false,"rental_uris":{"android":"levelo://app?vid=a24a5c82-ae01-490a-ad7e-fe870a9f6d04","ios":"levelo://app?vid=a24a5c82-ae01-490a-ad7e-fe870a9f6d04"},"vehicle_type_id":"4","last_reported":1706119766,"current_range_meters":0,"station_id":"chh1huq6cuj3fo74tm60","pricing_plan_id":"free"},{"bike_id":"d3c1f160-f110-4d2a-8ac0-f2ae05aaf5d2","system_id":"levelo_inurba_marseille","lat":43.330442,"lon":5.389148,"is_reserved":false,"is_disabled":false,"rental_uris":{"android":"levelo://app?vid=d3c1f160-f110-4d2a-8ac0-f2ae05aaf5d2","ios":"levelo://app?vid=d3c1f160-f110-4d2a-8ac0-f2ae05aaf5d2"},"vehicle_type_id":"4","last_reported":1706119766,"current_range_meters":8800,"station_id":"ce4bhr92rcd13ifvqhrg","pricing_plan_id":"free"},{"bike_id":"fd8ebaab-c59a-482d-9f97-2d678682e31a","system_id":"levelo_inurba_marseille","lat":43.307184,"lon":5.399748,"is_reserved":false,"is_disabled":false,"rental_uris":{"android":"levelo://app?vid=fd8ebaab-c59a-482d-9f97-2d678682e31a","ios":"levelo://app?vid=fd8ebaab-c59a-482d-9f97-2d678682e31a"},"vehicle_type_id":"4","last_reported":1706119766,"current_range_meters":3200,"station_id":"","pricing_plan_id":"free"},{"bike_id":"6154e2e1-2ace-4c95-94f7-6cf31f594c11","system_id":"levelo_inurba_marseille","lat":43.2901,"lon":5.381269,"is_reserved":false,"is_disabled":false,"rental_uris":{"android":"levelo://app?vid=6154e2e1-2ace-4c95-94f7-6cf31f594c11","ios":"levelo://app?vid=6154e2e1-2ace-4c95-94f7-6cf31f594c11"},"vehicle_type_id":"4","last_reported":1706119766,"current_range_meters":24400,"station_id":"ce4bh4p2rcd13ifvqe1g","pricing_plan_id":"free"},{"bike_id":"e9a49af8-a513-4fff-85e8-27e1d4f6571c","system_id":"levelo_inurba_marseille","lat":43.2901,"lon":5.381269,"is_reserved":false,"is_disabled":false,"rental_uris":{"android":"levelo://app?vid=e9a49af8-a513-4fff-85e8-27e1d4f6571c","ios":"levelo://app?vid=e9a49af8-a513-4fff-85e8-27e1d4f6571c"},"vehicle_type_id":"4","last_reported":1706119766,"current_range_meters":4400,"station_id":"ce4bh4p2rcd13ifvqe1g","pricing_plan_id":"free"},{"bike_id":"a4cb2ee3-2d30-4215-b67b-0bc8945cdf74","system_id":"levelo_inurba_marseille","lat":43.290094,"lon":5.381264,"is_reserved":false,"is_disabled":false,"rental_uris":{"android":"levelo://app?vid=a4cb2ee3-2d30-4215-b67b-0bc8945cdf74","ios":"levelo://app?vid=a4cb2ee3-2d30-4215-b67b-0bc8945cdf74"},"vehicle_type_id":"4","last_reported":1706119766,"current_range_meters":23600,"station_id":"ce4bh4p2rcd13ifvqe1g","pricing_plan_id":"free"},{"bike_id":"bec6752d-894e-4bd9-8aaf-76e2487b8820","system_id":"levelo_inurba_marseille","lat":43.28856,"lon":5.358371,"is_reserved":false,"is_disabled":false,"rental_uris":{"android":"levelo://app?vid=bec6752d-894e-4bd9-8aaf-76e2487b8820","ios":"levelo://app?vid=bec6752d-894e-4bd9-8aaf-76e2487b8820"},"vehicle_type_id":"4","last_reported":1706119766,"current_range_meters":3200,"station_id":"ce4bhb12rcd13ifvqem0","pricing_plan_id":"free"},{"bike_id":"378b7f83-2666-4542-a37d-80c84a37ff01","system_id":"levelo_inurba_marseille","lat":43.28856,"lon":5.358371,"is_reserved":false,"is_disabled":false,"rental_uris":{"android":"levelo://app?vid=378b7f83-2666-4542-a37d-80c84a37ff01","ios":"levelo://app?vid=378b7f83-2666-4542-a37d-80c84a37ff01"},"vehicle_type_id":"4","last_reported":1706119766,"current_range_meters":16400,"station_id":"ce4bhb12rcd13ifvqem0","pricing_plan_id":"free"},{"bike_id":"4678203a-8012-4397-9c04-d9a7df3a95e0","system_id":"levelo_inurba_marseille","lat":43.312609,"lon":5.401662,"is_reserved":false,"is_disabled":false,"rental_uris":{"android":"levelo://app?vid=4678203a-8012-4397-9c04-d9a7df3a95e0","ios":"levelo://app?vid=4678203a-8012-4397-9c04-d9a7df3a95e0"},"vehicle_type_id":"4","last_reported":1706119766,"current_range_meters":10000,"station_id":"ce4bh092rcd13ifvqd30","pricing_plan_id":"free"},{"bike_id":"b9edeea4-3230-43da-bd20-07a2cd360178","system_id":"levelo_inurba_marseille","lat":43.290345,"lon":5.38646,"is_reserved":false,"is_disabled":false,"rental_uris":{"android":"levelo://app?vid=b9edeea4-3230-43da-bd20-07a2cd360178","ios":"levelo://app?vid=b9edeea4-3230-43da-bd20-07a2cd360178"},"vehicle_type_id":"4","last_reported":1706119766,"current_range_meters":4800,"station_id":"ce4bh4p2rcd13ifvqe0g","pricing_plan_id":"free"},{"bike_id":"f6269f2f-870e-4960-b0e7-813122735480","system_id":"levelo_inurba_marseille","lat":43.309371,"lon":5.401449,"is_reserved":false,"is_disabled":false,"rental_uris":{"android":"levelo://app?vid=f6269f2f-870e-4960-b0e7-813122735480","ios":"levelo://app?vid=f6269f2f-870e-4960-b0e7-813122735480"},"vehicle_type_id":"4","last_reported":1706119766,"current_range_meters":13600,"station_id":"ce4bgvp2rcd13ifvqct0","pricing_plan_id":"free"},{"bike_id":"f34f4d3e-3aa8-487f-b2f5-43a6cc1fab53","system_id":"levelo_inurba_marseille","lat":43.309371,"lon":5.401449,"is_reserved":false,"is_disabled":false,"rental_uris":{"android":"levelo://app?vid=f34f4d3e-3aa8-487f-b2f5-43a6cc1fab53","ios":"levelo://app?vid=f34f4d3e-3aa8-487f-b2f5-43a6cc1fab53"},"vehicle_type_id":"4","last_reported":1706119766,"current_range_meters":3200,"station_id":"ce4bgvp2rcd13ifvqct0","pricing_plan_id":"free"},{"bike_id":"7de77a5f-55b4-48f9-9567-e5629b3dbc5a","system_id":"levelo_inurba_marseille","lat":43.33747,"lon":5.37445,"is_reserved":false,"is_disabled":false,"rental_uris":{"android":"levelo://app?vid=7de77a5f-55b4-48f9-9567-e5629b3dbc5a","ios":"levelo://app?vid=7de77a5f-55b4-48f9-9567-e5629b3dbc5a"},"vehicle_type_id":"4","last_reported":1706119766,"current_range_meters":6000,"station_id":"","pricing_plan_id":"free"},{"bike_id":"8b083e36-d781-4707-ab4f-1377d2d34e43","system_id":"levelo_inurba_marseille","lat":43.33749,"lon":5.37434,"is_reserved":false,"is_disabled":false,"rental_uris":{"android":"levelo://app?vid=8b083e36-d781-4707-ab4f-1377d2d34e43","ios":"levelo://app?vid=8b083e36-d781-4707-ab4f-1377d2d34e43"},"vehicle_type_id":"4","last_reported":1706119766,"current_range_meters":8800,"station_id":"","pricing_plan_id":"free"},{"bike_id":"31ebfcb4-a5db-4cfc-97c0-6cf31d42830d","system_id":"levelo_inurba_marseille","lat":43.309371,"lon":5.401449,"is_reserved":false,"is_disabled":false,"rental_uris":{"android":"levelo://app?vid=31ebfcb4-a5db-4cfc-97c0-6cf31d42830d","ios":"levelo://app?vid=31ebfcb4-a5db-4cfc-97c0-6cf31d42830d"},"vehicle_type_id":"4","last_reported":1706119766,"current_range_meters":10400,"station_id":"ce4bgvp2rcd13ifvqct0","pricing_plan_id":"free"},{"bike_id":"8d784896-187a-4173-a1ae-2dd2bcf5e6a6","system_id":"levelo_inurba_marseille","lat":43.3375,"lon":5.37446,"is_reserved":false,"is_disabled":false,"rental_uris":{"android":"levelo://app?vid=8d784896-187a-4173-a1ae-2dd2bcf5e6a6","ios":"levelo://app?vid=8d784896-187a-4173-a1ae-2dd2bcf5e6a6"},"vehicle_type_id":"4","last_reported":1706119766,"current_range_meters":19600,"station_id":"","pricing_plan_id":"free"},{"bike_id":"29a63f45-0fb5-46b3-912b-26597dc230ce","system_id":"levelo_inurba_marseille","lat":43.309371,"lon":5.401449,"is_reserved":false,"is_disabled":false,"rental_uris":{"android":"levelo://app?vid=29a63f45-0fb5-46b3-912b-26597dc230ce","ios":"levelo://app?vid=29a63f45-0fb5-46b3-912b-26597dc230ce"},"vehicle_type_id":"4","last_reported":1706119766,"current_range_meters":26400,"station_id":"ce4bgvp2rcd13ifvqct0","pricing_plan_id":"free"},{"bike_id":"cb6b4a37-708c-4c32-9c06-07bb56dc0e50","system_id":"levelo_inurba_marseille","lat":43.30642,"lon":5.401031,"is_reserved":false,"is_disabled":false,"rental_uris":{"android":"levelo://app?vid=cb6b4a37-708c-4c32-9c06-07bb56dc0e50","ios":"levelo://app?vid=cb6b4a37-708c-4c32-9c06-07bb56dc0e50"},"vehicle_type_id":"4","last_reported":1706119766,"current_range_meters":0,"station_id":"ce4bh112rcd13ifvqda0","pricing_plan_id":"free"},{"bike_id":"1272b756-69dc-411f-99af-131444d0c09c","system_id":"levelo_inurba_marseille","lat":43.337601,"lon":5.374584,"is_reserved":false,"is_disabled":false,"rental_uris":{"android":"levelo://app?vid=1272b756-69dc-411f-99af-131444d0c09c","ios":"levelo://app?vid=1272b756-69dc-411f-99af-131444d0c09c"},"vehicle_type_id":"4","last_reported":1706119766,"current_range_meters":29600,"station_id":"","pricing_plan_id":"free"},{"bike_id":"0ed826e1-93c3-492c-a4f9-6ffec3f21b6a","system_id":"levelo_inurba_marseille","lat":43.306412,"lon":5.401035,"is_reserved":false,"is_disabled":false,"rental_uris":{"android":"levelo://app?vid=0ed826e1-93c3-492c-a4f9-6ffec3f21b6a","ios":"levelo://app?vid=0ed826e1-93c3-492c-a4f9-6ffec3f21b6a"},"vehicle_type_id":"4","last_reported":1706119766,"current_range_meters":0,"station_id":"ce4bh112rcd13ifvqda0","pricing_plan_id":"free"},{"bike_id":"82b09141-82d9-41b6-b2f4-25dca246c694","system_id":"levelo_inurba_marseille","lat":43.30141,"lon":5.39861,"is_reserved":false,"is_disabled":false,"rental_uris":{"android":"levelo://app?vid=82b09141-82d9-41b6-b2f4-25dca246c694","ios":"levelo://app?vid=82b09141-82d9-41b6-b2f4-25dca246c694"},"vehicle_type_id":"4","last_reported":1706119766,"current_range_meters":14000,"station_id":"ce4bh0h2rcd13ifvqd40","pricing_plan_id":"free"},{"bike_id":"28e05122-018c-4399-b520-109cc1ec0d40","system_id":"levelo_inurba_marseille","lat":43.301117,"lon":5.398795,"is_reserved":false,"is_disabled":false,"rental_uris":{"android":"levelo://app?vid=28e05122-018c-4399-b520-109cc1ec0d40","ios":"levelo://app?vid=28e05122-018c-4399-b520-109cc1ec0d40"},"vehicle_type_id":"4","last_reported":1706119766,"current_range_meters":0,"station_id":"ce4bh0h2rcd13ifvqd40","pricing_plan_id":"free"},{"bike_id":"78ef36ee-ab73-4c4e-9439-79afa0cbd203","system_id":"levelo_inurba_marseille","lat":43.301117,"lon":5.398795,"is_reserved":false,"is_disabled":false,"rental_uris":{"android":"levelo://app?vid=78ef36ee-ab73-4c4e-9439-79afa0cbd203","ios":"levelo://app?vid=78ef36ee-ab73-4c4e-9439-79afa0cbd203"},"vehicle_type_id":"4","last_reported":1706119766,"current_range_meters":5600,"station_id":"ce4bh0h2rcd13ifvqd40","pricing_plan_id":"free"},{"bike_id":"b67e8537-3295-4977-9802-4000a8116246","system_id":"levelo_inurba_marseille","lat":43.301117,"lon":5.398795,"is_reserved":false,"is_disabled":false,"rental_uris":{"android":"levelo://app?vid=b67e8537-3295-4977-9802-4000a8116246","ios":"levelo://app?vid=b67e8537-3295-4977-9802-4000a8116246"},"vehicle_type_id":"4","last_reported":1706119766,"current_range_meters":10000,"station_id":"ce4bh0h2rcd13ifvqd40","pricing_plan_id":"free"},{"bike_id":"c0146292-fcea-4b0b-9b52-2c0997d488e3","system_id":"levelo_inurba_marseille","lat":43.301117,"lon":5.398795,"is_reserved":false,"is_disabled":false,"rental_uris":{"android":"levelo://app?vid=c0146292-fcea-4b0b-9b52-2c0997d488e3","ios":"levelo://app?vid=c0146292-fcea-4b0b-9b52-2c0997d488e3"},"vehicle_type_id":"4","last_reported":1706119766,"current_range_meters":10400,"station_id":"ce4bh0h2rcd13ifvqd40","pricing_plan_id":"free"},{"bike_id":"aa46c06a-3731-4415-8080-f5feee424e5c","system_id":"levelo_inurba_marseille","lat":43.298681,"lon":5.397225,"is_reserved":false,"is_disabled":false,"rental_uris":{"android":"levelo://app?vid=aa46c06a-3731-4415-8080-f5feee424e5c","ios":"levelo://app?vid=aa46c06a-3731-4415-8080-f5feee424e5c"},"vehicle_type_id":"4","last_reported":1706119766,"current_range_meters":26400,"station_id":"ce4bh0h2rcd13ifvqd50","pricing_plan_id":"free"},{"bike_id":"6fdfe021-dd57-4996-a548-ebb9c8706397","system_id":"levelo_inurba_marseille","lat":43.298681,"lon":5.397225,"is_reserved":false,"is_disabled":false,"rental_uris":{"android":"levelo://app?vid=6fdfe021-dd57-4996-a548-ebb9c8706397","ios":"levelo://app?vid=6fdfe021-dd57-4996-a548-ebb9c8706397"},"vehicle_type_id":"4","last_reported":1706119766,"current_range_meters":25200,"station_id":"ce4bh0h2rcd13ifvqd50","pricing_plan_id":"free"},{"bike_id":"095f6c4d-2099-4e43-9869-7ffe1a980bc9","system_id":"levelo_inurba_marseille","lat":43.298681,"lon":5.397225,"is_reserved":false,"is_disabled":false,"rental_uris":{"android":"levelo://app?vid=095f6c4d-2099-4e43-9869-7ffe1a980bc9","ios":"levelo://app?vid=095f6c4d-2099-4e43-9869-7ffe1a980bc9"},"vehicle_type_id":"4","last_reported":1706119766,"current_range_meters":10400,"station_id":"ce4bh0h2rcd13ifvqd50","pricing_plan_id":"free"},{"bike_id":"8914f9c5-5804-4a38-a6c3-aa1f2b7ae39f","system_id":"levelo_inurba_marseille","lat":43.286961,"lon":5.373785,"is_reserved":false,"is_disabled":false,"rental_uris":{"android":"levelo://app?vid=8914f9c5-5804-4a38-a6c3-aa1f2b7ae39f","ios":"levelo://app?vid=8914f9c5-5804-4a38-a6c3-aa1f2b7ae39f"},"vehicle_type_id":"4","last_reported":1706119766,"current_range_meters":6400,"station_id":"ce4bh3p2rcd13ifvqdq0","pricing_plan_id":"free"},{"bike_id":"2f8922bc-e38f-4543-848a-08e6a5e1bbe8","system_id":"levelo_inurba_marseille","lat":43.286591,"lon":5.363346,"is_reserved":false,"is_disabled":false,"rental_uris":{"android":"levelo://app?vid=2f8922bc-e38f-4543-848a-08e6a5e1bbe8","ios":"levelo://app?vid=2f8922bc-e38f-4543-848a-08e6a5e1bbe8"},"vehicle_type_id":"4","last_reported":1706119766,"current_range_meters":1200,"station_id":"ce4bhah2rcd13ifvqej0","pricing_plan_id":"free"},{"bike_id":"e618e8f3-4e75-4b03-9132-3f324f9db02b","system_id":"levelo_inurba_marseille","lat":43.286961,"lon":5.373785,"is_reserved":false,"is_disabled":false,"rental_uris":{"android":"levelo://app?vid=e618e8f3-4e75-4b03-9132-3f324f9db02b","ios":"levelo://app?vid=e618e8f3-4e75-4b03-9132-3f324f9db02b"},"vehicle_type_id":"4","last_reported":1706119766,"current_range_meters":11600,"station_id":"ce4bh3p2rcd13ifvqdq0","pricing_plan_id":"free"},{"bike_id":"2b4eff5f-25db-4f6b-abc5-5fd7e1e4aa0d","system_id":"levelo_inurba_marseille","lat":43.286961,"lon":5.373785,"is_reserved":false,"is_disabled":false,"rental_uris":{"android":"levelo://app?vid=2b4eff5f-25db-4f6b-abc5-5fd7e1e4aa0d","ios":"levelo://app?vid=2b4eff5f-25db-4f6b-abc5-5fd7e1e4aa0d"},"vehicle_type_id":"4","last_reported":1706119766,"current_range_meters":10400,"station_id":"ce4bh3p2rcd13ifvqdq0","pricing_plan_id":"free"},{"bike_id":"ea21a75a-0ef6-4172-99e2-f4c05d5dccf2","system_id":"levelo_inurba_marseille","lat":43.286961,"lon":5.373785,"is_reserved":false,"is_disabled":false,"rental_uris":{"android":"levelo://app?vid=ea21a75a-0ef6-4172-99e2-f4c05d5dccf2","ios":"levelo://app?vid=ea21a75a-0ef6-4172-99e2-f4c05d5dccf2"},"vehicle_type_id":"4","last_reported":1706119766,"current_range_meters":7600,"station_id":"ce4bh3p2rcd13ifvqdq0","pricing_plan_id":"free"},{"bike_id":"3d0858a4-0f20-489a-805e-ba4f44b65d33","system_id":"levelo_inurba_marseille","lat":43.295196,"lon":5.39397,"is_reserved":false,"is_disabled":false,"rental_uris":{"android":"levelo://app?vid=3d0858a4-0f20-489a-805e-ba4f44b65d33","ios":"levelo://app?vid=3d0858a4-0f20-489a-805e-ba4f44b65d33"},"vehicle_type_id":"4","last_reported":1706119766,"current_range_meters":12800,"station_id":"ce4bh292rcd13ifvqdf0","pricing_plan_id":"free"},{"bike_id":"3377edaa-526e-41fe-a6e2-4d876bade872","system_id":"levelo_inurba_marseille","lat":43.295194,"lon":5.39397,"is_reserved":false,"is_disabled":false,"rental_uris":{"android":"levelo://app?vid=3377edaa-526e-41fe-a6e2-4d876bade872","ios":"levelo://app?vid=3377edaa-526e-41fe-a6e2-4d876bade872"},"vehicle_type_id":"4","last_reported":1706119766,"current_range_meters":8800,"station_id":"ce4bh292rcd13ifvqdf0","pricing_plan_id":"free"},{"bike_id":"a0185863-8ec5-4515-b097-f1a591d9a913","system_id":"levelo_inurba_marseille","lat":43.29523,"lon":5.39401,"is_reserved":false,"is_disabled":false,"rental_uris":{"android":"levelo://app?vid=a0185863-8ec5-4515-b097-f1a591d9a913","ios":"levelo://app?vid=a0185863-8ec5-4515-b097-f1a591d9a913"},"vehicle_type_id":"4","last_reported":1706119766,"current_range_meters":0,"station_id":"ce4bh292rcd13ifvqdf0","pricing_plan_id":"free"},{"bike_id":"545d3013-0660-40f0-9327-99134954dbb8","system_id":"levelo_inurba_marseille","lat":43.29521,"lon":5.39402,"is_reserved":false,"is_disabled":false,"rental_uris":{"android":"levelo://app?vid=545d3013-0660-40f0-9327-99134954dbb8","ios":"levelo://app?vid=545d3013-0660-40f0-9327-99134954dbb8"},"vehicle_type_id":"4","last_reported":1706119766,"current_range_meters":0,"station_id":"ce4bh292rcd13ifvqdf0","pricing_plan_id":"free"},{"bike_id":"c3b4f438-fb8f-4f78-80ec-2b9c95bcc7cd","system_id":"levelo_inurba_marseille","lat":43.290345,"lon":5.38646,"is_reserved":false,"is_disabled":false,"rental_uris":{"android":"levelo://app?vid=c3b4f438-fb8f-4f78-80ec-2b9c95bcc7cd","ios":"levelo://app?vid=c3b4f438-fb8f-4f78-80ec-2b9c95bcc7cd"},"vehicle_type_id":"4","last_reported":1706119766,"current_range_meters":18000,"station_id":"ce4bh4p2rcd13ifvqe0g","pricing_plan_id":"free"},{"bike_id":"2a39a14f-9b70-4e8a-b56a-259743847183","system_id":"levelo_inurba_marseille","lat":43.302759,"lon":5.400793,"is_reserved":false,"is_disabled":false,"rental_uris":{"android":"levelo://app?vid=2a39a14f-9b70-4e8a-b56a-259743847183","ios":"levelo://app?vid=2a39a14f-9b70-4e8a-b56a-259743847183"},"vehicle_type_id":"4","last_reported":1706119766,"current_range_meters":18400,"station_id":"ce4bgvh2rcd13ifvqcs0","pricing_plan_id":"free"},{"bike_id":"9b3934e1-848d-45c7-84c4-17f6fc5fed87","system_id":"levelo_inurba_marseille","lat":43.30255,"lon":5.40055,"is_reserved":false,"is_disabled":false,"rental_uris":{"android":"levelo://app?vid=9b3934e1-848d-45c7-84c4-17f6fc5fed87","ios":"levelo://app?vid=9b3934e1-848d-45c7-84c4-17f6fc5fed87"},"vehicle_type_id":"4","last_reported":1706119766,"current_range_meters":4000,"station_id":"ce4bgvh2rcd13ifvqcs0","pricing_plan_id":"free"},{"bike_id":"02f493e7-bdc2-4bc3-a263-c600e8703426","system_id":"levelo_inurba_marseille","lat":43.302759,"lon":5.400793,"is_reserved":false,"is_disabled":false,"rental_uris":{"android":"levelo://app?vid=02f493e7-bdc2-4bc3-a263-c600e8703426","ios":"levelo://app?vid=02f493e7-bdc2-4bc3-a263-c600e8703426"},"vehicle_type_id":"4","last_reported":1706119766,"current_range_meters":14400,"station_id":"ce4bgvh2rcd13ifvqcs0","pricing_plan_id":"free"},{"bike_id":"f4c15150-bce2-42c7-8f88-c6e2ac1eb76d","system_id":"levelo_inurba_marseille","lat":43.302759,"lon":5.400793,"is_reserved":false,"is_disabled":false,"rental_uris":{"android":"levelo://app?vid=f4c15150-bce2-42c7-8f88-c6e2ac1eb76d","ios":"levelo://app?vid=f4c15150-bce2-42c7-8f88-c6e2ac1eb76d"},"vehicle_type_id":"4","last_reported":1706119766,"current_range_meters":2800,"station_id":"ce4bgvh2rcd13ifvqcs0","pricing_plan_id":"free"},{"bike_id":"5d1e6f98-9f08-4d17-b7c4-c7c129a94f6c","system_id":"levelo_inurba_marseille","lat":43.290336,"lon":5.386425,"is_reserved":false,"is_disabled":false,"rental_uris":{"android":"levelo://app?vid=5d1e6f98-9f08-4d17-b7c4-c7c129a94f6c","ios":"levelo://app?vid=5d1e6f98-9f08-4d17-b7c4-c7c129a94f6c"},"vehicle_type_id":"4","last_reported":1706119766,"current_range_meters":25200,"station_id":"ce4bh4p2rcd13ifvqe0g","pricing_plan_id":"free"},{"bike_id":"f1a6bbee-b0a0-4507-bb89-fba68d0add4c","system_id":"levelo_inurba_marseille","lat":43.290336,"lon":5.386425,"is_reserved":false,"is_disabled":false,"rental_uris":{"android":"levelo://app?vid=f1a6bbee-b0a0-4507-bb89-fba68d0add4c","ios":"levelo://app?vid=f1a6bbee-b0a0-4507-bb89-fba68d0add4c"},"vehicle_type_id":"4","last_reported":1706119766,"current_range_meters":20800,"station_id":"ce4bh4p2rcd13ifvqe0g","pricing_plan_id":"free"},{"bike_id":"587edfce-a792-4300-8ad8-ca20ce2c5684","system_id":"levelo_inurba_marseille","lat":43.302759,"lon":5.400793,"is_reserved":false,"is_disabled":false,"rental_uris":{"android":"levelo://app?vid=587edfce-a792-4300-8ad8-ca20ce2c5684","ios":"levelo://app?vid=587edfce-a792-4300-8ad8-ca20ce2c5684"},"vehicle_type_id":"4","last_reported":1706119766,"current_range_meters":12400,"station_id":"ce4bgvh2rcd13ifvqcs0","pricing_plan_id":"free"},{"bike_id":"30106c12-d5ee-41ff-9663-6935271d3376","system_id":"levelo_inurba_marseille","lat":43.302759,"lon":5.400793,"is_reserved":false,"is_disabled":false,"rental_uris":{"android":"levelo://app?vid=30106c12-d5ee-41ff-9663-6935271d3376","ios":"levelo://app?vid=30106c12-d5ee-41ff-9663-6935271d3376"},"vehicle_type_id":"4","last_reported":1706119766,"current_range_meters":4400,"station_id":"ce4bgvh2rcd13ifvqcs0","pricing_plan_id":"free"},{"bike_id":"baf6f6eb-c54b-412f-bfda-8a8ff892e437","system_id":"levelo_inurba_marseille","lat":43.287287,"lon":5.352132,"is_reserved":false,"is_disabled":false,"rental_uris":{"android":"levelo://app?vid=baf6f6eb-c54b-412f-bfda-8a8ff892e437","ios":"levelo://app?vid=baf6f6eb-c54b-412f-bfda-8a8ff892e437"},"vehicle_type_id":"4","last_reported":1706119766,"current_range_meters":20000,"station_id":"","pricing_plan_id":"free"},{"bike_id":"9d151400-2585-426f-9a7d-d5b329f80bfb","system_id":"levelo_inurba_marseille","lat":43.316828,"lon":5.404723,"is_reserved":false,"is_disabled":false,"rental_uris":{"android":"levelo://app?vid=9d151400-2585-426f-9a7d-d5b329f80bfb","ios":"levelo://app?vid=9d151400-2585-426f-9a7d-d5b329f80bfb"},"vehicle_type_id":"4","last_reported":1706119766,"current_range_meters":1600,"station_id":"ce4bh012rcd13ifvqd00","pricing_plan_id":"free"},{"bike_id":"67514b2b-6f98-4326-85ff-2aa4099c2d5d","system_id":"levelo_inurba_marseille","lat":43.316821,"lon":5.404737,"is_reserved":false,"is_disabled":false,"rental_uris":{"android":"levelo://app?vid=67514b2b-6f98-4326-85ff-2aa4099c2d5d","ios":"levelo://app?vid=67514b2b-6f98-4326-85ff-2aa4099c2d5d"},"vehicle_type_id":"4","last_reported":1706119766,"current_range_meters":24400,"station_id":"ce4bh012rcd13ifvqd00","pricing_plan_id":"free"},{"bike_id":"fa09eb6e-0a3c-43b8-acf4-8fa737575d9c","system_id":"levelo_inurba_marseille","lat":43.291994,"lon":5.392907,"is_reserved":false,"is_disabled":false,"rental_uris":{"android":"levelo://app?vid=fa09eb6e-0a3c-43b8-acf4-8fa737575d9c","ios":"levelo://app?vid=fa09eb6e-0a3c-43b8-acf4-8fa737575d9c"},"vehicle_type_id":"4","last_reported":1706119766,"current_range_meters":0,"station_id":"ce4bh192rcd13ifvqdd0","pricing_plan_id":"free"},{"bike_id":"f0f7f740-6616-41f3-bac4-6512cd23d977","system_id":"levelo_inurba_marseille","lat":43.291994,"lon":5.392907,"is_reserved":false,"is_disabled":false,"rental_uris":{"android":"levelo://app?vid=f0f7f740-6616-41f3-bac4-6512cd23d977","ios":"levelo://app?vid=f0f7f740-6616-41f3-bac4-6512cd23d977"},"vehicle_type_id":"4","last_reported":1706119766,"current_range_meters":4000,"station_id":"ce4bh192rcd13ifvqdd0","pricing_plan_id":"free"},{"bike_id":"d46139d7-4c90-41a2-8968-fa0ac56044e2","system_id":"levelo_inurba_marseille","lat":43.291994,"lon":5.392907,"is_reserved":false,"is_disabled":false,"rental_uris":{"android":"levelo://app?vid=d46139d7-4c90-41a2-8968-fa0ac56044e2","ios":"levelo://app?vid=d46139d7-4c90-41a2-8968-fa0ac56044e2"},"vehicle_type_id":"4","last_reported":1706119766,"current_range_meters":12800,"station_id":"ce4bh192rcd13ifvqdd0","pricing_plan_id":"free"},{"bike_id":"45ec31e5-afcd-4e7e-b069-8da343c658a9","system_id":"levelo_inurba_marseille","lat":43.28466,"lon":5.359,"is_reserved":false,"is_disabled":false,"rental_uris":{"android":"levelo://app?vid=45ec31e5-afcd-4e7e-b069-8da343c658a9","ios":"levelo://app?vid=45ec31e5-afcd-4e7e-b069-8da343c658a9"},"vehicle_type_id":"4","last_reported":1706119766,"current_range_meters":4400,"station_id":"","pricing_plan_id":"free"},{"bike_id":"48096993-2113-47df-a5ec-0ce56c5122e2","system_id":"levelo_inurba_marseille","lat":43.284538,"lon":5.358657,"is_reserved":false,"is_disabled":false,"rental_uris":{"android":"levelo://app?vid=48096993-2113-47df-a5ec-0ce56c5122e2","ios":"levelo://app?vid=48096993-2113-47df-a5ec-0ce56c5122e2"},"vehicle_type_id":"4","last_reported":1706119766,"current_range_meters":9200,"station_id":"ce4bhah2rcd13ifvqei0","pricing_plan_id":"free"},{"bike_id":"a74e8a8f-fd31-4e92-8214-292cc6045108","system_id":"levelo_inurba_marseille","lat":43.284534,"lon":5.358662,"is_reserved":false,"is_disabled":false,"rental_uris":{"android":"levelo://app?vid=a74e8a8f-fd31-4e92-8214-292cc6045108","ios":"levelo://app?vid=a74e8a8f-fd31-4e92-8214-292cc6045108"},"vehicle_type_id":"4","last_reported":1706119766,"current_range_meters":4400,"station_id":"ce4bhah2rcd13ifvqei0","pricing_plan_id":"free"},{"bike_id":"69f8d698-ef72-4227-9b11-6949dcd95b68","system_id":"levelo_inurba_marseille","lat":43.284534,"lon":5.358662,"is_reserved":false,"is_disabled":false,"rental_uris":{"android":"levelo://app?vid=69f8d698-ef72-4227-9b11-6949dcd95b68","ios":"levelo://app?vid=69f8d698-ef72-4227-9b11-6949dcd95b68"},"vehicle_type_id":"4","last_reported":1706119766,"current_range_meters":4400,"station_id":"ce4bhah2rcd13ifvqei0","pricing_plan_id":"free"},{"bike_id":"d622f740-d21f-46d2-b2f9-9f4016616c2c","system_id":"levelo_inurba_marseille","lat":43.284534,"lon":5.358662,"is_reserved":false,"is_disabled":false,"rental_uris":{"android":"levelo://app?vid=d622f740-d21f-46d2-b2f9-9f4016616c2c","ios":"levelo://app?vid=d622f740-d21f-46d2-b2f9-9f4016616c2c"},"vehicle_type_id":"4","last_reported":1706119766,"current_range_meters":17600,"station_id":"ce4bhah2rcd13ifvqei0","pricing_plan_id":"free"},{"bike_id":"098d8393-f76b-478b-90f0-27be1239a3c4","system_id":"levelo_inurba_marseille","lat":43.284534,"lon":5.358662,"is_reserved":false,"is_disabled":false,"rental_uris":{"android":"levelo://app?vid=098d8393-f76b-478b-90f0-27be1239a3c4","ios":"levelo://app?vid=098d8393-f76b-478b-90f0-27be1239a3c4"},"vehicle_type_id":"4","last_reported":1706119766,"current_range_meters":6400,"station_id":"ce4bhah2rcd13ifvqei0","pricing_plan_id":"free"},{"bike_id":"73333085-9ee0-4dff-bee2-c3f59c2b633b","system_id":"levelo_inurba_marseille","lat":43.294314,"lon":5.397498,"is_reserved":false,"is_disabled":false,"rental_uris":{"android":"levelo://app?vid=73333085-9ee0-4dff-bee2-c3f59c2b633b","ios":"levelo://app?vid=73333085-9ee0-4dff-bee2-c3f59c2b633b"},"vehicle_type_id":"4","last_reported":1706119766,"current_range_meters":11600,"station_id":"ce4bh3h2rcd13ifvqdo0","pricing_plan_id":"free"},{"bike_id":"ee817d50-e91c-4382-913c-e76df497f1cf","system_id":"levelo_inurba_marseille","lat":43.284534,"lon":5.358662,"is_reserved":false,"is_disabled":false,"rental_uris":{"android":"levelo://app?vid=ee817d50-e91c-4382-913c-e76df497f1cf","ios":"levelo://app?vid=ee817d50-e91c-4382-913c-e76df497f1cf"},"vehicle_type_id":"4","last_reported":1706119766,"current_range_meters":22400,"station_id":"ce4bhah2rcd13ifvqei0","pricing_plan_id":"free"},{"bike_id":"c4df2dbc-f80f-4b3b-b9ee-0baf7a057780","system_id":"levelo_inurba_marseille","lat":43.284534,"lon":5.358662,"is_reserved":false,"is_disabled":false,"rental_uris":{"android":"levelo://app?vid=c4df2dbc-f80f-4b3b-b9ee-0baf7a057780","ios":"levelo://app?vid=c4df2dbc-f80f-4b3b-b9ee-0baf7a057780"},"vehicle_type_id":"4","last_reported":1706119766,"current_range_meters":27600,"station_id":"ce4bhah2rcd13ifvqei0","pricing_plan_id":"free"},{"bike_id":"3f072299-263b-42b5-878f-87bfb3214d07","system_id":"levelo_inurba_marseille","lat":43.29445,"lon":5.39763,"is_reserved":false,"is_disabled":false,"rental_uris":{"android":"levelo://app?vid=3f072299-263b-42b5-878f-87bfb3214d07","ios":"levelo://app?vid=3f072299-263b-42b5-878f-87bfb3214d07"},"vehicle_type_id":"4","last_reported":1706119766,"current_range_meters":18000,"station_id":"ce4bh3h2rcd13ifvqdo0","pricing_plan_id":"free"},{"bike_id":"420ca9f2-5ccd-418c-a103-b3364f6476a4","system_id":"levelo_inurba_marseille","lat":43.28621,"lon":5.35104,"is_reserved":false,"is_disabled":false,"rental_uris":{"android":"levelo://app?vid=420ca9f2-5ccd-418c-a103-b3364f6476a4","ios":"levelo://app?vid=420ca9f2-5ccd-418c-a103-b3364f6476a4"},"vehicle_type_id":"4","last_reported":1706119766,"current_range_meters":4800,"station_id":"ce4bhch2rcd13ifvqeug","pricing_plan_id":"free"},{"bike_id":"fe32d8ac-1cdd-4f7b-9cf2-cf6660c89d0f","system_id":"levelo_inurba_marseille","lat":43.286202,"lon":5.351055,"is_reserved":false,"is_disabled":false,"rental_uris":{"android":"levelo://app?vid=fe32d8ac-1cdd-4f7b-9cf2-cf6660c89d0f","ios":"levelo://app?vid=fe32d8ac-1cdd-4f7b-9cf2-cf6660c89d0f"},"vehicle_type_id":"4","last_reported":1706119766,"current_range_meters":25200,"station_id":"ce4bhch2rcd13ifvqeug","pricing_plan_id":"free"},{"bike_id":"b386563c-c78d-4990-a677-55f86ea547e6","system_id":"levelo_inurba_marseille","lat":43.28619,"lon":5.35102,"is_reserved":false,"is_disabled":false,"rental_uris":{"android":"levelo://app?vid=b386563c-c78d-4990-a677-55f86ea547e6","ios":"levelo://app?vid=b386563c-c78d-4990-a677-55f86ea547e6"},"vehicle_type_id":"4","last_reported":1706119766,"current_range_meters":30400,"station_id":"ce4bhch2rcd13ifvqeug","pricing_plan_id":"free"},{"bike_id":"576d5b90-29a9-45f4-bdbe-7b865ccc97f4","system_id":"levelo_inurba_marseille","lat":43.28617,"lon":5.35107,"is_reserved":false,"is_disabled":false,"rental_uris":{"android":"levelo://app?vid=576d5b90-29a9-45f4-bdbe-7b865ccc97f4","ios":"levelo://app?vid=576d5b90-29a9-45f4-bdbe-7b865ccc97f4"},"vehicle_type_id":"4","last_reported":1706119766,"current_range_meters":10000,"station_id":"ce4bhch2rcd13ifvqeug","pricing_plan_id":"free"},{"bike_id":"39a9ad77-84c1-4945-80c3-beb71030a863","system_id":"levelo_inurba_marseille","lat":43.28617,"lon":5.35102,"is_reserved":false,"is_disabled":false,"rental_uris":{"android":"levelo://app?vid=39a9ad77-84c1-4945-80c3-beb71030a863","ios":"levelo://app?vid=39a9ad77-84c1-4945-80c3-beb71030a863"},"vehicle_type_id":"4","last_reported":1706119766,"current_range_meters":20400,"station_id":"ce4bhch2rcd13ifvqeug","pricing_plan_id":"free"},{"bike_id":"b89c9e53-e1a6-463e-a029-47f5c0dd3600","system_id":"levelo_inurba_marseille","lat":43.28615,"lon":5.35107,"is_reserved":false,"is_disabled":false,"rental_uris":{"android":"levelo://app?vid=b89c9e53-e1a6-463e-a029-47f5c0dd3600","ios":"levelo://app?vid=b89c9e53-e1a6-463e-a029-47f5c0dd3600"},"vehicle_type_id":"4","last_reported":1706119766,"current_range_meters":12400,"station_id":"ce4bhch2rcd13ifvqeug","pricing_plan_id":"free"},{"bike_id":"ffb40e3d-2df2-4069-8445-8af7b5f0eda0","system_id":"levelo_inurba_marseille","lat":43.285848,"lon":5.350787,"is_reserved":false,"is_disabled":false,"rental_uris":{"android":"levelo://app?vid=ffb40e3d-2df2-4069-8445-8af7b5f0eda0","ios":"levelo://app?vid=ffb40e3d-2df2-4069-8445-8af7b5f0eda0"},"vehicle_type_id":"4","last_reported":1706119766,"current_range_meters":16800,"station_id":"ce4bhch2rcd13ifvqeug","pricing_plan_id":"free"},{"bike_id":"d10eefd0-c297-4d98-9c87-04c0c5f28bf6","system_id":"levelo_inurba_marseille","lat":43.28612,"lon":5.35105,"is_reserved":false,"is_disabled":false,"rental_uris":{"android":"levelo://app?vid=d10eefd0-c297-4d98-9c87-04c0c5f28bf6","ios":"levelo://app?vid=d10eefd0-c297-4d98-9c87-04c0c5f28bf6"},"vehicle_type_id":"4","last_reported":1706119766,"current_range_meters":800,"station_id":"ce4bhch2rcd13ifvqeug","pricing_plan_id":"free"},{"bike_id":"3df3fe79-5e2c-4f55-b8e0-77667b46c92e","system_id":"levelo_inurba_marseille","lat":43.28614,"lon":5.35098,"is_reserved":false,"is_disabled":false,"rental_uris":{"android":"levelo://app?vid=3df3fe79-5e2c-4f55-b8e0-77667b46c92e","ios":"levelo://app?vid=3df3fe79-5e2c-4f55-b8e0-77667b46c92e"},"vehicle_type_id":"4","last_reported":1706119766,"current_range_meters":0,"station_id":"ce4bhch2rcd13ifvqeug","pricing_plan_id":"free"},{"bike_id":"d5b48314-a654-4ba9-ad65-cbcddbd7d96a","system_id":"levelo_inurba_marseille","lat":43.285848,"lon":5.350787,"is_reserved":false,"is_disabled":false,"rental_uris":{"android":"levelo://app?vid=d5b48314-a654-4ba9-ad65-cbcddbd7d96a","ios":"levelo://app?vid=d5b48314-a654-4ba9-ad65-cbcddbd7d96a"},"vehicle_type_id":"4","last_reported":1706119766,"current_range_meters":26800,"station_id":"ce4bhch2rcd13ifvqeug","pricing_plan_id":"free"},{"bike_id":"932849fb-de5a-40a0-9708-aeb1a70c9551","system_id":"levelo_inurba_marseille","lat":43.295713,"lon":5.399639,"is_reserved":false,"is_disabled":false,"rental_uris":{"android":"levelo://app?vid=932849fb-de5a-40a0-9708-aeb1a70c9551","ios":"levelo://app?vid=932849fb-de5a-40a0-9708-aeb1a70c9551"},"vehicle_type_id":"4","last_reported":1706119766,"current_range_meters":0,"station_id":"ce4bh312rcd13ifvqdj0","pricing_plan_id":"free"},{"bike_id":"d488138a-0d0f-4464-b6ee-c6615dfac517","system_id":"levelo_inurba_marseille","lat":43.32995,"lon":5.39993,"is_reserved":false,"is_disabled":false,"rental_uris":{"android":"levelo://app?vid=d488138a-0d0f-4464-b6ee-c6615dfac517","ios":"levelo://app?vid=d488138a-0d0f-4464-b6ee-c6615dfac517"},"vehicle_type_id":"4","last_reported":1706119766,"current_range_meters":9600,"station_id":"","pricing_plan_id":"free"},{"bike_id":"3ab20399-898d-4759-9875-02d57e4c09a6","system_id":"levelo_inurba_marseille","lat":43.286595,"lon":5.386795,"is_reserved":false,"is_disabled":false,"rental_uris":{"android":"levelo://app?vid=3ab20399-898d-4759-9875-02d57e4c09a6","ios":"levelo://app?vid=3ab20399-898d-4759-9875-02d57e4c09a6"},"vehicle_type_id":"4","last_reported":1706119766,"current_range_meters":10000,"station_id":"ce4bh492rcd13ifvqdug","pricing_plan_id":"free"},