{"last_updated":1768497839,"ttl":60,"version":"2.2","data":{"bikes":[{"bike_id":"d0b267f6-f914-42a7-9362-552b1e3f772c","system_id":"levelo_inurba_marseille","lat":43.25862,"lon":5.39912,"is_reserved":false,"is_disabled":false,"rental_uris":{"android":"levelo://app?vid=d0b267f6-f914-42a7-9362-552b1e3f772c","ios":"levelo://app?vid=d0b267f6-f914-42a7-9362-552b1e3f772c"},"vehicle_type_id":"4","last_reported":1768497841,"current_range_meters":2800,"station_id":"ce4bhl92rcd13ifvqghg","pricing_plan_id":"cebpf4jnsgd1na2vs0mg"},{"bike_id":"a50c7459-5599-4a58-8d9b-08fca700f66b","system_id":"levelo_inurba_marseille","lat":43.29173,"lon":5.37153,"is_reserved":false,"is_disabled":false,"rental_uris":{"android":"levelo://app?vid=a50c7459-5599-4a58-8d9b-08fca700f66b","ios":"levelo://app?vid=a50c7459-5599-4a58-8d9b-08fca700f66b"},"vehicle_type_id":"4","last_reported":1768497841,"current_range_meters":2800,"station_id":"ce4bha92rcd13ifvqeh0","pricing_plan_id":"cebpf4jnsgd1na2vs0mg"},{"bike_id":"458b8111-0b4f-47b4-a25e-904a27733d5e","system_id":"levelo_inurba_marseille","lat":43.24176,"lon":5.39729,"is_reserved":false,"is_disabled":false,"rental_uris":{"android":"levelo://app?vid=458b8111-0b4f-47b4-a25e-904a27733d5e","ios":"levelo://app?vid=458b8111-0b4f-47b4-a25e-904a27733d5e"},"vehicle_type_id":"4","last_reported":1768497841,"current_range_meters":2800,"station_id":"","pricing_plan_id":"cebpf4jnsgd1na2vs0mg"},{"bike_id":"bc17f6e8-30be-4dfb-93fd-4127c7a3cbcb","system_id":"levelo_inurba_marseille","lat":43.29258,"lon":5.38444,"is_reserved":false,"is_disabled":false,"rental_uris":{"android":"levelo://app?vid=bc17f6e8-30be-4dfb-93fd-4127c7a3cbcb","ios":"levelo://app?vid=bc17f6e8-30be-4dfb-93fd-4127c7a3cbcb"},"vehicle_type_id":"4","last_reported":1768497841,"current_range_meters":2800,"station_id":"ce4bh692rcd13ifvqea0","pricing_plan_id":"cebpf4jnsgd1na2vs0mg"},{"bike_id":"814f5b63-651e-4c1f-9b87-d173b8fea52b","system_id":"levelo_inurba_marseille","lat":43.2619,"lon":5.37451,"is_reserved":false,"is_disabled":false,"rental_uris":{"android":"levelo://app?vid=814f5b63-651e-4c1f-9b87-d173b8fea52b","ios":"levelo://app?vid=814f5b63-651e-4c1f-9b87-d173b8fea52b"},"vehicle_type_id":"4","last_reported":1768497841,"current_range_meters":2800,"station_id":"ce4bhgp2rcd13ifvqfc0","pricing_plan_id":"cebpf4jnsgd1na2vs0mg"},{"bike_id":"7758f877-0a12-4ab8-bbae-f4af5be42b59","system_id":"levelo_inurba_marseille","lat":43.30304,"lon":5.36909,"is_reserved":false,"is_disabled":false,"rental_uris":{"android":"levelo://app?vid=7758f877-0a12-4ab8-bbae-f4af5be42b59","ios":"levelo://app?vid=7758f877-0a12-4ab8-bbae-f4af5be42b59"},"vehicle_type_id":"4","last_reported":1768497841,"current_range_meters":2800,"station_id":"ce4bgqh2rcd13ifvqc5g","pricing_plan_id":"cebpf4jnsgd1na2vs0mg"},{"bike_id":"54fca5cc-2de5-4f5e-b18d-72ff2710c299","system_id":"levelo_inurba_marseille","lat":43.27806,"lon":5.40712,"is_reserved":false,"is_disabled":false,"rental_uris":{"android":"levelo://app?vid=54fca5cc-2de5-4f5e-b18d-72ff2710c299","ios":"levelo://app?vid=54fca5cc-2de5-4f5e-b18d-72ff2710c299"},"vehicle_type_id":"4","last_reported":1768497841,"current_range_meters":2800,"station_id":"ce4bhnh2rcd13ifvqgtg","pricing_plan_id":"cebpf4jnsgd1na2vs0mg"},{"bike_id":"699c6bb0-1655-47f0-86fb-78256d649744","system_id":"levelo_inurba_marseille","lat":43.27823,"lon":5.40714,"is_reserved":false,"is_disabled":false,"rental_uris":{"android":"levelo://app?vid=699c6bb0-1655-47f0-86fb-78256d649744","ios":"levelo://app?vid=699c6bb0-1655-47f0-86fb-78256d649744"},"vehicle_type_id":"4","last_reported":1768497841,"current_range_meters":2800,"station_id":"ce4bhnh2rcd13ifvqgtg","pricing_plan_id":"cebpf4jnsgd1na2vs0mg"},{"bike_id":"ae1d99b1-82a1-460d-bd96-dc1d194fe893","system_id":"levelo_inurba_marseille","lat":43.29823,"lon":5.37648,"is_reserved":false,"is_disabled":false,"rental_uris":{"android":"levelo://app?vid=ae1d99b1-82a1-460d-bd96-dc1d194fe893","ios":"levelo://app?vid=ae1d99b1-82a1-460d-bd96-dc1d194fe893"},"vehicle_type_id":"4","last_reported":1768497841,"current_range_meters":2800,"station_id":"","pricing_plan_id":"cebpf4jnsgd1na2vs0mg"},{"bike_id":"ce966620-ac5c-46fc-962d-69acdbc55692","system_id":"levelo_inurba_marseille","lat":43.21745,"lon":5.34603,"is_reserved":false,"is_disabled":false,"rental_uris":{"android":"levelo://app?vid=ce966620-ac5c-46fc-962d-69acdbc55692","ios":"levelo://app?vid=ce966620-ac5c-46fc-962d-69acdbc55692"},"vehicle_type_id":"4","last_reported":1768497841,"current_range_meters":2800,"station_id":"st_cvj6r9ubvosntc0bgbag","pricing_plan_id":"cebpf4jnsgd1na2vs0mg"},{"bike_id":"86a0886b-862a-494a-9c9d-2bdf086c6c19","system_id":"levelo_inurba_marseille","lat":43.28228,"lon":5.3907,"is_reserved":false,"is_disabled":false,"rental_uris":{"android":"levelo://app?vid=86a0886b-862a-494a-9c9d-2bdf086c6c19","ios":"levelo://app?vid=86a0886b-862a-494a-9c9d-2bdf086c6c19"},"vehicle_type_id":"4","last_reported":1768497841,"current_range_meters":3200,"station_id":"ce4bhn92rcd13ifvqgsg","pricing_plan_id":"cebpf4jnsgd1na2vs0mg"},{"bike_id":"c75b139b-6977-457c-8fab-86c172554976","system_id":"levelo_inurba_marseille","lat":43.25103,"lon":5.40455,"is_reserved":false,"is_disabled":false,"rental_uris":{"android":"levelo://app?vid=c75b139b-6977-457c-8fab-86c172554976","ios":"levelo://app?vid=c75b139b-6977-457c-8fab-86c172554976"},"vehicle_type_id":"4","last_reported":1768497841,"current_range_meters":3200,"station_id":"","pricing_plan_id":"cebpf4jnsgd1na2vs0mg"},{"bike_id":"25b85b18-57fc-41e9-9a16-dc90f53ce58a","system_id":"levelo_inurba_marseille","lat":43.25579,"lon":5.3824,"is_reserved":false,"is_disabled":false,"rental_uris":{"android":"levelo://app?vid=25b85b18-57fc-41e9-9a16-dc90f53ce58a","ios":"levelo://app?vid=25b85b18-57fc-41e9-9a16-dc90f53ce58a"},"vehicle_type_id":"4","last_reported":1768497841,"current_range_meters":3200,"station_id":"ce4bhih2rcd13ifvqfs0","pricing_plan_id":"cebpf4jnsgd1na2vs0mg"},{"bike_id":"2058eaae-5229-4634-8d2d-6396621cb5c8","system_id":"levelo_inurba_marseille","lat":43.24809,"lon":5.37438,"is_reserved":false,"is_disabled":false,"rental_uris":{"android":"levelo://app?vid=2058eaae-5229-4634-8d2d-6396621cb5c8","ios":"levelo://app?vid=2058eaae-5229-4634-8d2d-6396621cb5c8"},"vehicle_type_id":"4","last_reported":1768497841,"current_range_meters":3200,"station_id":"ce4bhgh2rcd13ifvqfb0","pricing_plan_id":"cebpf4jnsgd1na2vs0mg"},{"bike_id":"87fc7f8f-913b-438f-b743-47e7c313cb82","system_id":"levelo_inurba_marseille","lat":43.29195,"lon":5.39325,"is_reserved":false,"is_disabled":false,"rental_uris":{"android":"levelo://app?vid=87fc7f8f-913b-438f-b743-47e7c313cb82","ios":"levelo://app?vid=87fc7f8f-913b-438f-b743-47e7c313cb82"},"vehicle_type_id":"4","last_reported":1768497841,"current_range_meters":3200,"station_id":"ce4bh192rcd13ifvqdd0","pricing_plan_id":"cebpf4jnsgd1na2vs0mg"},{"bike_id":"723f8fbb-6d2b-48f3-95aa-66e692ab7748","system_id":"levelo_inurba_marseille","lat":43.31082,"lon":5.38356,"is_reserved":false,"is_disabled":false,"rental_uris":{"android":"levelo://app?vid=723f8fbb-6d2b-48f3-95aa-66e692ab7748","ios":"levelo://app?vid=723f8fbb-6d2b-48f3-95aa-66e692ab7748"},"vehicle_type_id":"4","last_reported":1768497841,"current_range_meters":3200,"station_id":"ce4bgv92rcd13ifvqcr0","pricing_plan_id":"cebpf4jnsgd1na2vs0mg"},{"bike_id":"52dc7a23-02b1-49ea-88fe-a1d65ef8f548","system_id":"levelo_inurba_marseille","lat":43.22927,"lon":5.35383,"is_reserved":false,"is_disabled":false,"rental_uris":{"android":"levelo://app?vid=52dc7a23-02b1-49ea-88fe-a1d65ef8f548","ios":"levelo://app?vid=52dc7a23-02b1-49ea-88fe-a1d65ef8f548"},"vehicle_type_id":"4","last_reported":1768497841,"current_range_meters":3200,"station_id":"cpo3532slgdg3j2ikp40","pricing_plan_id":"cebpf4jnsgd1na2vs0mg"},{"bike_id":"88f66720-5dd6-4f1b-a1cb-385103a725dc","system_id":"levelo_inurba_marseille","lat":43.276659,"lon":5.38865,"is_reserved":false,"is_disabled":false,"rental_uris":{"android":"levelo://app?vid=88f66720-5dd6-4f1b-a1cb-385103a725dc","ios":"levelo://app?vid=88f66720-5dd6-4f1b-a1cb-385103a725dc"},"vehicle_type_id":"4","last_reported":1768497841,"current_range_meters":3200,"station_id":"ce4bhi12rcd13ifvqfo0","pricing_plan_id":"cebpf4jnsgd1na2vs0mg"},{"bike_id":"ab4c7e8d-c082-49f2-ad38-3b04b1436978","system_id":"levelo_inurba_marseille","lat":43.22569,"lon":5.41639,"is_reserved":false,"is_disabled":false,"rental_uris":{"android":"levelo://app?vid=ab4c7e8d-c082-49f2-ad38-3b04b1436978","ios":"levelo://app?vid=ab4c7e8d-c082-49f2-ad38-3b04b1436978"},"vehicle_type_id":"4","last_reported":1768497841,"current_range_meters":3200,"station_id":"st_d2o4gvlbi1j2169b742g","pricing_plan_id":"cebpf4jnsgd1na2vs0mg"},{"bike_id":"e57bc3bf-f6fd-4ed4-aff6-38512c6d7ab8","system_id":"levelo_inurba_marseille","lat":43.28666,"lon":5.36351,"is_reserved":false,"is_disabled":false,"rental_uris":{"android":"levelo://app?vid=e57bc3bf-f6fd-4ed4-aff6-38512c6d7ab8","ios":"levelo://app?vid=e57bc3bf-f6fd-4ed4-aff6-38512c6d7ab8"},"vehicle_type_id":"4","last_reported":1768497841,"current_range_meters":3200,"station_id":"ce4bhah2rcd13ifvqej0","pricing_plan_id":"cebpf4jnsgd1na2vs0mg"},{"bike_id":"86aaef4b-aac1-4248-ac79-0d9f37b8c62f","system_id":"levelo_inurba_marseille","lat":43.27317,"lon":5.41682,"is_reserved":false,"is_disabled":false,"rental_uris":{"android":"levelo://app?vid=86aaef4b-aac1-4248-ac79-0d9f37b8c62f","ios":"levelo://app?vid=86aaef4b-aac1-4248-ac79-0d9f37b8c62f"},"vehicle_type_id":"4","last_reported":1768497841,"current_range_meters":3200,"station_id":"","pricing_plan_id":"cebpf4jnsgd1na2vs0mg"},{"bike_id":"3a9dc9f5-15c7-4553-b0c0-12fe71099f91","system_id":"levelo_inurba_marseille","lat":43.24655,"lon":5.38166,"is_reserved":false,"is_disabled":false,"rental_uris":{"android":"levelo://app?vid=3a9dc9f5-15c7-4553-b0c0-12fe71099f91","ios":"levelo://app?vid=3a9dc9f5-15c7-4553-b0c0-12fe71099f91"},"vehicle_type_id":"4","last_reported":1768497841,"current_range_meters":3200,"station_id":"ce4bhih2rcd13ifvqfr0","pricing_plan_id":"cebpf4jnsgd1na2vs0mg"},{"bike_id":"8567c33a-3f80-472d-ae9c-796adb3cc41b","system_id":"levelo_inurba_marseille","lat":43.318803,"lon":5.407351,"is_reserved":false,"is_disabled":false,"rental_uris":{"android":"levelo://app?vid=8567c33a-3f80-472d-ae9c-796adb3cc41b","ios":"levelo://app?vid=8567c33a-3f80-472d-ae9c-796adb3cc41b"},"vehicle_type_id":"4","last_reported":1768497841,"current_range_meters":3200,"station_id":"ce4bhq12rcd13ifvqhig","pricing_plan_id":"cebpf4jnsgd1na2vs0mg"},{"bike_id":"2d2f6720-3cab-4e46-abaa-16b75b1bc797","system_id":"levelo_inurba_marseille","lat":43.2783,"lon":5.40731,"is_reserved":false,"is_disabled":false,"rental_uris":{"android":"levelo://app?vid=2d2f6720-3cab-4e46-abaa-16b75b1bc797","ios":"levelo://app?vid=2d2f6720-3cab-4e46-abaa-16b75b1bc797"},"vehicle_type_id":"4","last_reported":1768497841,"current_range_meters":3200,"station_id":"ce4bhnh2rcd13ifvqgtg","pricing_plan_id":"cebpf4jnsgd1na2vs0mg"},{"bike_id":"20806965-4be2-4bb9-b7bd-ab9b030bd0da","system_id":"levelo_inurba_marseille","lat":43.27806,"lon":5.40689,"is_reserved":false,"is_disabled":false,"rental_uris":{"android":"levelo://app?vid=20806965-4be2-4bb9-b7bd-ab9b030bd0da","ios":"levelo://app?vid=20806965-4be2-4bb9-b7bd-ab9b030bd0da"},"vehicle_type_id":"4","last_reported":1768497841,"current_range_meters":3200,"station_id":"ce4bhnh2rcd13ifvqgtg","pricing_plan_id":"cebpf4jnsgd1na2vs0mg"},{"bike_id":"bd4b15a9-002c-4633-885a-3535a5835aff","system_id":"levelo_inurba_marseille","lat":43.27316,"lon":5.39942,"is_reserved":false,"is_disabled":false,"rental_uris":{"android":"levelo://app?vid=bd4b15a9-002c-4633-885a-3535a5835aff","ios":"levelo://app?vid=bd4b15a9-002c-4633-885a-3535a5835aff"},"vehicle_type_id":"4","last_reported":1768497841,"current_range_meters":3200,"station_id":"","pricing_plan_id":"cebpf4jnsgd1na2vs0mg"},{"bike_id":"c9da9704-aa7d-4d50-9151-9b3f8b89d8e5","system_id":"levelo_inurba_marseille","lat":43.2606,"lon":5.39401,"is_reserved":false,"is_disabled":false,"rental_uris":{"android":"levelo://app?vid=c9da9704-aa7d-4d50-9151-9b3f8b89d8e5","ios":"levelo://app?vid=c9da9704-aa7d-4d50-9151-9b3f8b89d8e5"},"vehicle_type_id":"4","last_reported":1768497841,"current_range_meters":3200,"station_id":"ce4bhh92rcd13ifvqfj0","pricing_plan_id":"cebpf4jnsgd1na2vs0mg"},{"bike_id":"2f317efe-a01b-468a-9036-21dfc4cc3358","system_id":"levelo_inurba_marseille","lat":43.25813,"lon":5.39437,"is_reserved":false,"is_disabled":false,"rental_uris":{"android":"levelo://app?vid=2f317efe-a01b-468a-9036-21dfc4cc3358","ios":"levelo://app?vid=2f317efe-a01b-468a-9036-21dfc4cc3358"},"vehicle_type_id":"4","last_reported":1768497841,"current_range_meters":3600,"station_id":"ce4bhip2rcd13ifvqft0","pricing_plan_id":"cebpf4jnsgd1na2vs0mg"},{"bike_id":"f85c8422-ff4b-4acf-b9d4-e099acaab618","system_id":"levelo_inurba_marseille","lat":43.24664,"lon":5.38162,"is_reserved":false,"is_disabled":false,"rental_uris":{"android":"levelo://app?vid=f85c8422-ff4b-4acf-b9d4-e099acaab618","ios":"levelo://app?vid=f85c8422-ff4b-4acf-b9d4-e099acaab618"},"vehicle_type_id":"4","last_reported":1768497841,"current_range_meters":3600,"station_id":"ce4bhih2rcd13ifvqfr0","pricing_plan_id":"cebpf4jnsgd1na2vs0mg"},{"bike_id":"025ad45e-82e1-4749-a92d-0503bae76ddf","system_id":"levelo_inurba_marseille","lat":43.29036,"lon":5.35905,"is_reserved":false,"is_disabled":false,"rental_uris":{"android":"levelo://app?vid=025ad45e-82e1-4749-a92d-0503bae76ddf","ios":"levelo://app?vid=025ad45e-82e1-4749-a92d-0503bae76ddf"},"vehicle_type_id":"4","last_reported":1768497841,"current_range_meters":3600,"station_id":"ce4bha92rcd13ifvqeg0","pricing_plan_id":"cebpf4jnsgd1na2vs0mg"},{"bike_id":"5410fd45-b8b4-470d-9bd7-ad1acafbc363","system_id":"levelo_inurba_marseille","lat":43.28477,"lon":5.48396,"is_reserved":false,"is_disabled":false,"rental_uris":{"android":"levelo://app?vid=5410fd45-b8b4-470d-9bd7-ad1acafbc363","ios":"levelo://app?vid=5410fd45-b8b4-470d-9bd7-ad1acafbc363"},"vehicle_type_id":"4","last_reported":1768497841,"current_range_meters":3600,"station_id":"","pricing_plan_id":"cebpf4jnsgd1na2vs0mg"},{"bike_id":"e11889a7-dd00-4680-82ad-dc48c0a7f8b9","system_id":"levelo_inurba_marseille","lat":43.25522,"lon":5.37642,"is_reserved":false,"is_disabled":false,"rental_uris":{"android":"levelo://app?vid=e11889a7-dd00-4680-82ad-dc48c0a7f8b9","ios":"levelo://app?vid=e11889a7-dd00-4680-82ad-dc48c0a7f8b9"},"vehicle_type_id":"4","last_reported":1768497841,"current_range_meters":3600,"station_id":"ce4bhh12rcd13ifvqff0","pricing_plan_id":"cebpf4jnsgd1na2vs0mg"},{"bike_id":"16a6f94e-c148-4449-bb02-40c0272d02ae","system_id":"levelo_inurba_marseille","lat":43.26501,"lon":5.3954,"is_reserved":false,"is_disabled":false,"rental_uris":{"android":"levelo://app?vid=16a6f94e-c148-4449-bb02-40c0272d02ae","ios":"levelo://app?vid=16a6f94e-c148-4449-bb02-40c0272d02ae"},"vehicle_type_id":"4","last_reported":1768497841,"current_range_meters":3600,"station_id":"ce4bhi12rcd13ifvqfq0","pricing_plan_id":"cebpf4jnsgd1na2vs0mg"},{"bike_id":"7e7c59fe-953c-4d41-8bd8-2cfdc1f30a95","system_id":"levelo_inurba_marseille","lat":43.31491,"lon":5.37298,"is_reserved":false,"is_disabled":false,"rental_uris":{"android":"levelo://app?vid=7e7c59fe-953c-4d41-8bd8-2cfdc1f30a95","ios":"levelo://app?vid=7e7c59fe-953c-4d41-8bd8-2cfdc1f30a95"},"vehicle_type_id":"4","last_reported":1768497841,"current_range_meters":3600,"station_id":"ce4bgt12rcd13ifvqcd0","pricing_plan_id":"cebpf4jnsgd1na2vs0mg"},{"bike_id":"0eca7224-40c8-4bfd-a855-7c82a8a6184a","system_id":"levelo_inurba_marseille","lat":43.243896,"lon":5.370839,"is_reserved":false,"is_disabled":false,"rental_uris":{"android":"levelo://app?vid=0eca7224-40c8-4bfd-a855-7c82a8a6184a","ios":"levelo://app?vid=0eca7224-40c8-4bfd-a855-7c82a8a6184a"},"vehicle_type_id":"4","last_reported":1768497841,"current_range_meters":3600,"station_id":"ce4bhhh2rcd13ifvqfk0","pricing_plan_id":"cebpf4jnsgd1na2vs0mg"},{"bike_id":"7a1738ff-82b0-4846-b8fc-c413570bfdbc","system_id":"levelo_inurba_marseille","lat":43.28945,"lon":5.36399,"is_reserved":false,"is_disabled":false,"rental_uris":{"android":"levelo://app?vid=7a1738ff-82b0-4846-b8fc-c413570bfdbc","ios":"levelo://app?vid=7a1738ff-82b0-4846-b8fc-c413570bfdbc"},"vehicle_type_id":"4","last_reported":1768497841,"current_range_meters":3600,"station_id":"ce4bhc92rcd13ifvqetg","pricing_plan_id":"cebpf4jnsgd1na2vs0mg"},{"bike_id":"28ba458d-aa9e-40a4-b41c-7ebb2f0153e2","system_id":"levelo_inurba_marseille","lat":43.28728,"lon":5.36088,"is_reserved":false,"is_disabled":false,"rental_uris":{"android":"levelo://app?vid=28ba458d-aa9e-40a4-b41c-7ebb2f0153e2","ios":"levelo://app?vid=28ba458d-aa9e-40a4-b41c-7ebb2f0153e2"},"vehicle_type_id":"4","last_reported":1768497841,"current_range_meters":3600,"station_id":"cki0cbj6b192h4jlfktg","pricing_plan_id":"cebpf4jnsgd1na2vs0mg"},{"bike_id":"fdc3b3d1-d0bd-402d-af0c-b8192365a376","system_id":"levelo_inurba_marseille","lat":43.25502,"lon":5.37649,"is_reserved":false,"is_disabled":false,"rental_uris":{"android":"levelo://app?vid=fdc3b3d1-d0bd-402d-af0c-b8192365a376","ios":"levelo://app?vid=fdc3b3d1-d0bd-402d-af0c-b8192365a376"},"vehicle_type_id":"4","last_reported":1768497841,"current_range_meters":4000,"station_id":"ce4bhh12rcd13ifvqff0","pricing_plan_id":"cebpf4jnsgd1na2vs0mg"},{"bike_id":"3b326f81-b0c4-4b16-a9c9-f528a517d078","system_id":"levelo_inurba_marseille","lat":43.23192,"lon":5.3554,"is_reserved":false,"is_disabled":false,"rental_uris":{"android":"levelo://app?vid=3b326f81-b0c4-4b16-a9c9-f528a517d078","ios":"levelo://app?vid=3b326f81-b0c4-4b16-a9c9-f528a517d078"},"vehicle_type_id":"4","last_reported":1768497841,"current_range_meters":4000,"station_id":"ce4bhu92rcd13ifvqi70","pricing_plan_id":"cebpf4jnsgd1na2vs0mg"},{"bike_id":"554c04e7-941a-4c22-b472-97e077e3a312","system_id":"levelo_inurba_marseille","lat":43.301337,"lon":5.403835,"is_reserved":false,"is_disabled":false,"rental_uris":{"android":"levelo://app?vid=554c04e7-941a-4c22-b472-97e077e3a312","ios":"levelo://app?vid=554c04e7-941a-4c22-b472-97e077e3a312"},"vehicle_type_id":"4","last_reported":1768497841,"current_range_meters":4000,"station_id":"","pricing_plan_id":"cebpf4jnsgd1na2vs0mg"},{"bike_id":"1a1c0da4-c565-40bd-ac37-a0ef441f8de6","system_id":"levelo_inurba_marseille","lat":43.290295,"lon":5.386424,"is_reserved":false,"is_disabled":false,"rental_uris":{"android":"levelo://app?vid=1a1c0da4-c565-40bd-ac37-a0ef441f8de6","ios":"levelo://app?vid=1a1c0da4-c565-40bd-ac37-a0ef441f8de6"},"vehicle_type_id":"4","last_reported":1768497841,"current_range_meters":4000,"station_id":"ce4bh4p2rcd13ifvqe0g","pricing_plan_id":"cebpf4jnsgd1na2vs0mg"},{"bike_id":"a5554301-94fb-4e83-84e6-e9313c93b256","system_id":"levelo_inurba_marseille","lat":43.29514,"lon":5.36289,"is_reserved":false,"is_disabled":false,"rental_uris":{"android":"levelo://app?vid=a5554301-94fb-4e83-84e6-e9313c93b256","ios":"levelo://app?vid=a5554301-94fb-4e83-84e6-e9313c93b256"},"vehicle_type_id":"4","last_reported":1768497841,"current_range_meters":4000,"station_id":"","pricing_plan_id":"cebpf4jnsgd1na2vs0mg"},{"bike_id":"3aecb5d6-35c0-429b-bf45-983beadab213","system_id":"levelo_inurba_marseille","lat":43.2257,"lon":5.41636,"is_reserved":false,"is_disabled":false,"rental_uris":{"android":"levelo://app?vid=3aecb5d6-35c0-429b-bf45-983beadab213","ios":"levelo://app?vid=3aecb5d6-35c0-429b-bf45-983beadab213"},"vehicle_type_id":"4","last_reported":1768497841,"current_range_meters":4000,"station_id":"st_d2o4gvlbi1j2169b742g","pricing_plan_id":"cebpf4jnsgd1na2vs0mg"},{"bike_id":"fef1458c-bfb1-459a-ba32-9643a02f17e6","system_id":"levelo_inurba_marseille","lat":43.28275,"lon":5.35066,"is_reserved":false,"is_disabled":false,"rental_uris":{"android":"levelo://app?vid=fef1458c-bfb1-459a-ba32-9643a02f17e6","ios":"levelo://app?vid=fef1458c-bfb1-459a-ba32-9643a02f17e6"},"vehicle_type_id":"4","last_reported":1768497841,"current_range_meters":4000,"station_id":"ce4bhbp2rcd13ifvqerg","pricing_plan_id":"cebpf4jnsgd1na2vs0mg"},{"bike_id":"6d05d8e2-3fcb-4612-b5ef-50514af528e9","system_id":"levelo_inurba_marseille","lat":43.324884,"lon":5.3656,"is_reserved":false,"is_disabled":false,"rental_uris":{"android":"levelo://app?vid=6d05d8e2-3fcb-4612-b5ef-50514af528e9","ios":"levelo://app?vid=6d05d8e2-3fcb-4612-b5ef-50514af528e9"},"vehicle_type_id":"4","last_reported":1768497841,"current_range_meters":4400,"station_id":"ce4bhs12rcd13ifvqhvg","pricing_plan_id":"cebpf4jnsgd1na2vs0mg"},{"bike_id":"634a5032-07c2-4ad0-b886-0e21c013fdce","system_id":"levelo_inurba_marseille","lat":43.25565,"lon":5.38242,"is_reserved":false,"is_disabled":false,"rental_uris":{"android":"levelo://app?vid=634a5032-07c2-4ad0-b886-0e21c013fdce","ios":"levelo://app?vid=634a5032-07c2-4ad0-b886-0e21c013fdce"},"vehicle_type_id":"4","last_reported":1768497841,"current_range_meters":4400,"station_id":"ce4bhih2rcd13ifvqfs0","pricing_plan_id":"cebpf4jnsgd1na2vs0mg"},{"bike_id":"5821fb8b-7f61-4ccc-a772-aecacfcd04ed","system_id":"levelo_inurba_marseille","lat":43.30805,"lon":5.38171,"is_reserved":false,"is_disabled":false,"rental_uris":{"android":"levelo://app?vid=5821fb8b-7f61-4ccc-a772-aecacfcd04ed","ios":"levelo://app?vid=5821fb8b-7f61-4ccc-a772-aecacfcd04ed"},"vehicle_type_id":"4","last_reported":1768497841,"current_range_meters":4400,"station_id":"ce4bgt12rcd13ifvqce0","pricing_plan_id":"cebpf4jnsgd1na2vs0mg"},{"bike_id":"8a7d8b1c-8b32-43cd-bc73-7c88be42b8ec","system_id":"levelo_inurba_marseille","lat":43.25576,"lon":5.38229,"is_reserved":false,"is_disabled":false,"rental_uris":{"android":"levelo://app?vid=8a7d8b1c-8b32-43cd-bc73-7c88be42b8ec","ios":"levelo://app?vid=8a7d8b1c-8b32-43cd-bc73-7c88be42b8ec"},"vehicle_type_id":"4","last_reported":1768497841,"current_range_meters":4400,"station_id":"ce4bhih2rcd13ifvqfs0","pricing_plan_id":"cebpf4jnsgd1na2vs0mg"},{"bike_id":"7e9c80da-de39-4aa5-b4ff-293329b5cd81","system_id":"levelo_inurba_marseille","lat":43.24664,"lon":5.38129,"is_reserved":false,"is_disabled":false,"rental_uris":{"android":"levelo://app?vid=7e9c80da-de39-4aa5-b4ff-293329b5cd81","ios":"levelo://app?vid=7e9c80da-de39-4aa5-b4ff-293329b5cd81"},"vehicle_type_id":"4","last_reported":1768497841,"current_range_meters":4400,"station_id":"ce4bhih2rcd13ifvqfr0","pricing_plan_id":"cebpf4jnsgd1na2vs0mg"},{"bike_id":"a4da9ea2-54d7-4eff-acfa-eb96e683d156","system_id":"levelo_inurba_marseille","lat":43.24995,"lon":5.38936,"is_reserved":false,"is_disabled":false,"rental_uris":{"android":"levelo://app?vid=a4da9ea2-54d7-4eff-acfa-eb96e683d156","ios":"levelo://app?vid=a4da9ea2-54d7-4eff-acfa-eb96e683d156"},"vehicle_type_id":"4","last_reported":1768497841,"current_range_meters":4400,"station_id":"ce4bhgp2rcd13ifvqfd0","pricing_plan_id":"cebpf4jnsgd1na2vs0mg"},{"bike_id":"966d954a-871e-43eb-acaa-1ca431e7fdad","system_id":"levelo_inurba_marseille","lat":43.26785,"lon":5.39414,"is_reserved":false,"is_disabled":false,"rental_uris":{"android":"levelo://app?vid=966d954a-871e-43eb-acaa-1ca431e7fdad","ios":"levelo://app?vid=966d954a-871e-43eb-acaa-1ca431e7fdad"},"vehicle_type_id":"4","last_reported":1768497841,"current_range_meters":4400,"station_id":"ce4bhh12rcd13ifvqfg0","pricing_plan_id":"cebpf4jnsgd1na2vs0mg"},{"bike_id":"fddda18f-99f4-4884-a97b-bf6c23a77b79","system_id":"levelo_inurba_marseille","lat":43.30303,"lon":5.39216,"is_reserved":false,"is_disabled":false,"rental_uris":{"android":"levelo://app?vid=fddda18f-99f4-4884-a97b-bf6c23a77b79","ios":"levelo://app?vid=fddda18f-99f4-4884-a97b-bf6c23a77b79"},"vehicle_type_id":"4","last_reported":1768497841,"current_range_meters":4400,"station_id":"ce4bgkh2rcd13ifvqbk0","pricing_plan_id":"cebpf4jnsgd1na2vs0mg"},{"bike_id":"0cb4e287-3b5c-4f27-9531-3ee061bd4a7c","system_id":"levelo_inurba_marseille","lat":43.2534,"lon":5.42165,"is_reserved":false,"is_disabled":false,"rental_uris":{"android":"levelo://app?vid=0cb4e287-3b5c-4f27-9531-3ee061bd4a7c","ios":"levelo://app?vid=0cb4e287-3b5c-4f27-9531-3ee061bd4a7c"},"vehicle_type_id":"4","last_reported":1768497841,"current_range_meters":4400,"station_id":"st_d2m65c5bi1j21697t3ng","pricing_plan_id":"cebpf4jnsgd1na2vs0mg"},{"bike_id":"5d81fdf6-6d6e-47ff-a533-c465e43ce753","system_id":"levelo_inurba_marseille","lat":43.27208,"lon":5.39159,"is_reserved":false,"is_disabled":false,"rental_uris":{"android":"levelo://app?vid=5d81fdf6-6d6e-47ff-a533-c465e43ce753","ios":"levelo://app?vid=5d81fdf6-6d6e-47ff-a533-c465e43ce753"},"vehicle_type_id":"4","last_reported":1768497841,"current_range_meters":4400,"station_id":"ce4bhhp2rcd13ifvqfm0","pricing_plan_id":"cebpf4jnsgd1na2vs0mg"},{"bike_id":"ac798af9-54d2-4a14-a172-f6992a8b4758","system_id":"levelo_inurba_marseille","lat":43.24161,"lon":5.3641,"is_reserved":false,"is_disabled":false,"rental_uris":{"android":"levelo://app?vid=ac798af9-54d2-4a14-a172-f6992a8b4758","ios":"levelo://app?vid=ac798af9-54d2-4a14-a172-f6992a8b4758"},"vehicle_type_id":"4","last_reported":1768497841,"current_range_meters":4400,"station_id":"cpo36qri1sfpv3e86is0","pricing_plan_id":"cebpf4jnsgd1na2vs0mg"},{"bike_id":"1101a624-f1e0-4faf-9577-e174df8f6a91","system_id":"levelo_inurba_marseille","lat":43.290169,"lon":5.366389,"is_reserved":false,"is_disabled":false,"rental_uris":{"android":"levelo://app?vid=1101a624-f1e0-4faf-9577-e174df8f6a91","ios":"levelo://app?vid=1101a624-f1e0-4faf-9577-e174df8f6a91"},"vehicle_type_id":"4","last_reported":1768497841,"current_range_meters":4400,"station_id":"ce4bhap2rcd13ifvqek0","pricing_plan_id":"cebpf4jnsgd1na2vs0mg"},{"bike_id":"b3817e2e-cdb9-4c8a-ac4e-2553b766e5fa","system_id":"levelo_inurba_marseille","lat":43.27803,"lon":5.4072,"is_reserved":false,"is_disabled":false,"rental_uris":{"android":"levelo://app?vid=b3817e2e-cdb9-4c8a-ac4e-2553b766e5fa","ios":"levelo://app?vid=b3817e2e-cdb9-4c8a-ac4e-2553b766e5fa"},"vehicle_type_id":"4","last_reported":1768497841,"current_range_meters":4800,"station_id":"ce4bhnh2rcd13ifvqgtg","pricing_plan_id":"cebpf4jnsgd1na2vs0mg"},{"bike_id":"d8b52035-9107-4203-ba3b-8ab85229defc","system_id":"levelo_inurba_marseille","lat":43.25627,"lon":5.40029,"is_reserved":false,"is_disabled":false,"rental_uris":{"android":"levelo://app?vid=d8b52035-9107-4203-ba3b-8ab85229defc","ios":"levelo://app?vid=d8b52035-9107-4203-ba3b-8ab85229defc"},"vehicle_type_id":"4","last_reported":1768497841,"current_range_meters":4800,"station_id":"","pricing_plan_id":"cebpf4jnsgd1na2vs0mg"},{"bike_id":"6f5bac51-1804-4cd4-beeb-e05c41221d16","system_id":"levelo_inurba_marseille","lat":43.30528,"lon":5.36684,"is_reserved":false,"is_disabled":false,"rental_uris":{"android":"levelo://app?vid=6f5bac51-1804-4cd4-beeb-e05c41221d16","ios":"levelo://app?vid=6f5bac51-1804-4cd4-beeb-e05c41221d16"},"vehicle_type_id":"4","last_reported":1768497841,"current_range_meters":4800,"station_id":"ce4bgrp2rcd13ifvqc9g","pricing_plan_id":"cebpf4jnsgd1na2vs0mg"},{"bike_id":"6d5b743f-0d0d-4728-9aac-92cae33bf20c","system_id":"levelo_inurba_marseille","lat":43.25578,"lon":5.38241,"is_reserved":false,"is_disabled":false,"rental_uris":{"android":"levelo://app?vid=6d5b743f-0d0d-4728-9aac-92cae33bf20c","ios":"levelo://app?vid=6d5b743f-0d0d-4728-9aac-92cae33bf20c"},"vehicle_type_id":"4","last_reported":1768497841,"current_range_meters":4800,"station_id":"ce4bhih2rcd13ifvqfs0","pricing_plan_id":"cebpf4jnsgd1na2vs0mg"},{"bike_id":"b4f1b3bf-108e-45c2-9d7f-ab08acca7206","system_id":"levelo_inurba_marseille","lat":43.29561,"lon":5.39951,"is_reserved":false,"is_disabled":false,"rental_uris":{"android":"levelo://app?vid=b4f1b3bf-108e-45c2-9d7f-ab08acca7206","ios":"levelo://app?vid=b4f1b3bf-108e-45c2-9d7f-ab08acca7206"},"vehicle_type_id":"4","last_reported":1768497841,"current_range_meters":4800,"station_id":"ce4bh312rcd13ifvqdj0","pricing_plan_id":"cebpf4jnsgd1na2vs0mg"},{"bike_id":"0cc13f42-9562-48d5-8ba3-b1844f9cd1ea","system_id":"levelo_inurba_marseille","lat":43.30505,"lon":5.37336,"is_reserved":false,"is_disabled":false,"rental_uris":{"android":"levelo://app?vid=0cc13f42-9562-48d5-8ba3-b1844f9cd1ea","ios":"levelo://app?vid=0cc13f42-9562-48d5-8ba3-b1844f9cd1ea"},"vehicle_type_id":"4","last_reported":1768497841,"current_range_meters":4800,"station_id":"","pricing_plan_id":"cebpf4jnsgd1na2vs0mg"},{"bike_id":"f880bc6b-a5e7-442b-9dc3-15311575575e","system_id":"levelo_inurba_marseille","lat":43.24806,"lon":5.37454,"is_reserved":false,"is_disabled":false,"rental_uris":{"android":"levelo://app?vid=f880bc6b-a5e7-442b-9dc3-15311575575e","ios":"levelo://app?vid=f880bc6b-a5e7-442b-9dc3-15311575575e"},"vehicle_type_id":"4","last_reported":1768497841,"current_range_meters":4800,"station_id":"ce4bhgh2rcd13ifvqfb0","pricing_plan_id":"cebpf4jnsgd1na2vs0mg"},{"bike_id":"10bcf7d8-a573-460b-beaa-e1b583f07805","system_id":"levelo_inurba_marseille","lat":43.29801,"lon":5.40409,"is_reserved":false,"is_disabled":false,"rental_uris":{"android":"levelo://app?vid=10bcf7d8-a573-460b-beaa-e1b583f07805","ios":"levelo://app?vid=10bcf7d8-a573-460b-beaa-e1b583f07805"},"vehicle_type_id":"4","last_reported":1768497841,"current_range_meters":4800,"station_id":"ce4bh112rcd13ifvqd90","pricing_plan_id":"cebpf4jnsgd1na2vs0mg"},{"bike_id":"443a1700-f797-41e6-ab04-b0b091c9b627","system_id":"levelo_inurba_marseille","lat":43.291979,"lon":5.393167,"is_reserved":false,"is_disabled":false,"rental_uris":{"android":"levelo://app?vid=443a1700-f797-41e6-ab04-b0b091c9b627","ios":"levelo://app?vid=443a1700-f797-41e6-ab04-b0b091c9b627"},"vehicle_type_id":"4","last_reported":1768497841,"current_range_meters":4800,"station_id":"ce4bh192rcd13ifvqdd0","pricing_plan_id":"cebpf4jnsgd1na2vs0mg"},{"bike_id":"3cb9bfe3-e855-40cf-bc47-135640a26327","system_id":"levelo_inurba_marseille","lat":43.3017,"lon":5.38097,"is_reserved":false,"is_disabled":false,"rental_uris":{"android":"levelo://app?vid=3cb9bfe3-e855-40cf-bc47-135640a26327","ios":"levelo://app?vid=3cb9bfe3-e855-40cf-bc47-135640a26327"},"vehicle_type_id":"4","last_reported":1768497841,"current_range_meters":4800,"station_id":"ce4bgjp2rcd13ifvqbh0","pricing_plan_id":"cebpf4jnsgd1na2vs0mg"},{"bike_id":"7692950d-05dc-4d69-92ae-63e5eb8b1fa8","system_id":"levelo_inurba_marseille","lat":43.272042,"lon":5.391493,"is_reserved":false,"is_disabled":false,"rental_uris":{"android":"levelo://app?vid=7692950d-05dc-4d69-92ae-63e5eb8b1fa8","ios":"levelo://app?vid=7692950d-05dc-4d69-92ae-63e5eb8b1fa8"},"vehicle_type_id":"4","last_reported":1768497841,"current_range_meters":4800,"station_id":"ce4bhhp2rcd13ifvqfm0","pricing_plan_id":"cebpf4jnsgd1na2vs0mg"},{"bike_id":"03bea929-ded9-4f0a-b535-3ced67ddbf39","system_id":"levelo_inurba_marseille","lat":43.24643,"lon":5.43124,"is_reserved":false,"is_disabled":false,"rental_uris":{"android":"levelo://app?vid=03bea929-ded9-4f0a-b535-3ced67ddbf39","ios":"levelo://app?vid=03bea929-ded9-4f0a-b535-3ced67ddbf39"},"vehicle_type_id":"4","last_reported":1768497841,"current_range_meters":4800,"station_id":"st_d2m6c4gdas8pm72e190g","pricing_plan_id":"cebpf4jnsgd1na2vs0mg"},{"bike_id":"79610a7d-c8f1-4bd3-8545-3078b7ba8758","system_id":"levelo_inurba_marseille","lat":43.278351,"lon":5.392055,"is_reserved":false,"is_disabled":false,"rental_uris":{"android":"levelo://app?vid=79610a7d-c8f1-4bd3-8545-3078b7ba8758","ios":"levelo://app?vid=79610a7d-c8f1-4bd3-8545-3078b7ba8758"},"vehicle_type_id":"4","last_reported":1768497841,"current_range_meters":4800,"station_id":"ce4bhjp2rcd13ifvqga0","pricing_plan_id":"cebpf4jnsgd1na2vs0mg"},{"bike_id":"62f88f8a-2fa4-4dc7-b96b-5613aa23459e","system_id":"levelo_inurba_marseille","lat":43.25031,"lon":5.38955,"is_reserved":false,"is_disabled":false,"rental_uris":{"android":"levelo://app?vid=62f88f8a-2fa4-4dc7-b96b-5613aa23459e","ios":"levelo://app?vid=62f88f8a-2fa4-4dc7-b96b-5613aa23459e"},"vehicle_type_id":"4","last_reported":1768497841,"current_range_meters":4800,"station_id":"ce4bhgp2rcd13ifvqfd0","pricing_plan_id":"cebpf4jnsgd1na2vs0mg"},{"bike_id":"6da68625-e4b7-41aa-96a7-da86f228b8ba","system_id":"levelo_inurba_marseille","lat":43.30535,"lon":5.36699,"is_reserved":false,"is_disabled":false,"rental_uris":{"android":"levelo://app?vid=6da68625-e4b7-41aa-96a7-da86f228b8ba","ios":"levelo://app?vid=6da68625-e4b7-41aa-96a7-da86f228b8ba"},"vehicle_type_id":"4","last_reported":1768497841,"current_range_meters":4800,"station_id":"ce4bgrp2rcd13ifvqc9g","pricing_plan_id":"cebpf4jnsgd1na2vs0mg"},{"bike_id":"56790d27-8ddf-41a2-b5b3-583677679935","system_id":"levelo_inurba_marseille","lat":43.24817,"lon":5.37444,"is_reserved":false,"is_disabled":false,"rental_uris":{"android":"levelo://app?vid=56790d27-8ddf-41a2-b5b3-583677679935","ios":"levelo://app?vid=56790d27-8ddf-41a2-b5b3-583677679935"},"vehicle_type_id":"4","last_reported":1768497841,"current_range_meters":4800,"station_id":"ce4bhgh2rcd13ifvqfb0","pricing_plan_id":"cebpf4jnsgd1na2vs0mg"},{"bike_id":"68ae23aa-b332-4f3e-8a51-bb845df82b9e","system_id":"levelo_inurba_marseille","lat":43.25577,"lon":5.38236,"is_reserved":false,"is_disabled":false,"rental_uris":{"android":"levelo://app?vid=68ae23aa-b332-4f3e-8a51-bb845df82b9e","ios":"levelo://app?vid=68ae23aa-b332-4f3e-8a51-bb845df82b9e"},"vehicle_type_id":"4","last_reported":1768497841,"current_range_meters":4800,"station_id":"","pricing_plan_id":"cebpf4jnsgd1na2vs0mg"},{"bike_id":"879d7f80-20c3-4410-a76f-0140628b443c","system_id":"levelo_inurba_marseille","lat":43.30655,"lon":5.40077,"is_reserved":false,"is_disabled":false,"rental_uris":{"android":"levelo://app?vid=879d7f80-20c3-4410-a76f-0140628b443c","ios":"levelo://app?vid=879d7f80-20c3-4410-a76f-0140628b443c"},"vehicle_type_id":"4","last_reported":1768497841,"current_range_meters":4800,"station_id":"ce4bh112rcd13ifvqda0","pricing_plan_id":"cebpf4jnsgd1na2vs0mg"},{"bike_id":"f546a598-b504-471e-9b6d-f4786269b128","system_id":"levelo_inurba_marseille","lat":43.25194,"lon":5.38051,"is_reserved":false,"is_disabled":false,"rental_uris":{"android":"levelo://app?vid=f546a598-b504-471e-9b6d-f4786269b128","ios":"levelo://app?vid=f546a598-b504-471e-9b6d-f4786269b128"},"vehicle_type_id":"4","last_reported":1768497841,"current_range_meters":4800,"station_id":"","pricing_plan_id":"cebpf4jnsgd1na2vs0mg"},{"bike_id":"eaf68dad-dd6d-4721-bc6f-d7e731f5553c","system_id":"levelo_inurba_marseille","lat":43.296256,"lon":5.37717,"is_reserved":false,"is_disabled":false,"rental_uris":{"android":"levelo://app?vid=eaf68dad-dd6d-4721-bc6f-d7e731f5553c","ios":"levelo://app?vid=eaf68dad-dd6d-4721-bc6f-d7e731f5553c"},"vehicle_type_id":"4","last_reported":1768497841,"current_range_meters":4800,"station_id":"ce4bgi92rcd13ifvqb90","pricing_plan_id":"cebpf4jnsgd1na2vs0mg"},{"bike_id":"0a3fe00f-38d0-43b6-a016-635022657667","system_id":"levelo_inurba_marseille","lat":43.262085,"lon":5.393269,"is_reserved":false,"is_disabled":false,"rental_uris":{"android":"levelo://app?vid=0a3fe00f-38d0-43b6-a016-635022657667","ios":"levelo://app?vid=0a3fe00f-38d0-43b6-a016-635022657667"},"vehicle_type_id":"4","last_reported":1768497841,"current_range_meters":4800,"station_id":"ce4bhh92rcd13ifvqfj0","pricing_plan_id":"cebpf4jnsgd1na2vs0mg"},{"bike_id":"b02e7b3d-bfa1-4a73-bfb4-3a8d24b24cf4","system_id":"levelo_inurba_marseille","lat":43.25507,"lon":5.37657,"is_reserved":false,"is_disabled":false,"rental_uris":{"android":"levelo://app?vid=b02e7b3d-bfa1-4a73-bfb4-3a8d24b24cf4","ios":"levelo://app?vid=b02e7b3d-bfa1-4a73-bfb4-3a8d24b24cf4"},"vehicle_type_id":"4","last_reported":1768497841,"current_range_meters":5600,"station_id":"ce4bhh12rcd13ifvqff0","pricing_plan_id":"cebpf4jnsgd1na2vs0mg"},{"bike_id":"044d60fd-3d97-43e7-9d2d-c8c63162cc46","system_id":"levelo_inurba_marseille","lat":43.28855,"lon":5.35856,"is_reserved":false,"is_disabled":false,"rental_uris":{"android":"levelo://app?vid=044d60fd-3d97-43e7-9d2d-c8c63162cc46","ios":"levelo://app?vid=044d60fd-3d97-43e7-9d2d-c8c63162cc46"},"vehicle_type_id":"4","last_reported":1768497841,"current_range_meters":5600,"station_id":"ce4bhb12rcd13ifvqem0","pricing_plan_id":"cebpf4jnsgd1na2vs0mg"},{"bike_id":"b0cacd3d-3a03-4c78-8bc5-ff94339dbc81","system_id":"levelo_inurba_marseille","lat":43.30539,"lon":5.36555,"is_reserved":false,"is_disabled":false,"rental_uris":{"android":"levelo://app?vid=b0cacd3d-3a03-4c78-8bc5-ff94339dbc81","ios":"levelo://app?vid=b0cacd3d-3a03-4c78-8bc5-ff94339dbc81"},"vehicle_type_id":"4","last_reported":1768497841,"current_range_meters":5600,"station_id":"ce4bgs12rcd13ifvqcag","pricing_plan_id":"cebpf4jnsgd1na2vs0mg"},{"bike_id":"2bae9f67-b649-4326-9db5-076d835a5d1d","system_id":"levelo_inurba_marseille","lat":43.24633,"lon":5.43152,"is_reserved":false,"is_disabled":false,"rental_uris":{"android":"levelo://app?vid=2bae9f67-b649-4326-9db5-076d835a5d1d","ios":"levelo://app?vid=2bae9f67-b649-4326-9db5-076d835a5d1d"},"vehicle_type_id":"4","last_reported":1768497841,"current_range_meters":5600,"station_id":"st_d2m6c4gdas8pm72e190g","pricing_plan_id":"cebpf4jnsgd1na2vs0mg"},{"bike_id":"222f605e-e511-4c2f-8d26-96fa5c0e2898","system_id":"levelo_inurba_marseille","lat":43.26215,"lon":5.40454,"is_reserved":false,"is_disabled":false,"rental_uris":{"android":"levelo://app?vid=222f605e-e511-4c2f-8d26-96fa5c0e2898","ios":"levelo://app?vid=222f605e-e511-4c2f-8d26-96fa5c0e2898"},"vehicle_type_id":"4","last_reported":1768497841,"current_range_meters":5600,"station_id":"ce4bhmh2rcd13ifvqgmg","pricing_plan_id":"cebpf4jnsgd1na2vs0mg"},{"bike_id":"8be361d1-171b-4ab9-af93-e6c62720e7e8","system_id":"levelo_inurba_marseille","lat":43.28283,"lon":5.35067,"is_reserved":false,"is_disabled":true,"rental_uris":{"android":"levelo://app?vid=8be361d1-171b-4ab9-af93-e6c62720e7e8","ios":"levelo://app?vid=8be361d1-171b-4ab9-af93-e6c62720e7e8"},"vehicle_type_id":"4","last_reported":1768497841,"current_range_meters":5600,"station_id":"ce4bhbp2rcd13ifvqerg","pricing_plan_id":"cebpf4jnsgd1na2vs0mg"},{"bike_id":"89ec615c-cc4d-4269-9d95-17d05f385f32","system_id":"levelo_inurba_marseille","lat":43.26497,"lon":5.39545,"is_reserved":false,"is_disabled":false,"rental_uris":{"android":"levelo://app?vid=89ec615c-cc4d-4269-9d95-17d05f385f32","ios":"levelo://app?vid=89ec615c-cc4d-4269-9d95-17d05f385f32"},"vehicle_type_id":"4","last_reported":1768497841,"current_range_meters":5600,"station_id":"ce4bhi12rcd13ifvqfq0","pricing_plan_id":"cebpf4jnsgd1na2vs0mg"},{"bike_id":"26e05d3c-6761-4b77-951f-c864124fa018","system_id":"levelo_inurba_marseille","lat":43.25002,"lon":5.38919,"is_reserved":false,"is_disabled":true,"rental_uris":{"android":"levelo://app?vid=26e05d3c-6761-4b77-951f-c864124fa018","ios":"levelo://app?vid=26e05d3c-6761-4b77-951f-c864124fa018"},"vehicle_type_id":"4","last_reported":1768497841,"current_range_meters":5600,"station_id":"ce4bhgp2rcd13ifvqfd0","pricing_plan_id":"cebpf4jnsgd1na2vs0mg"},{"bike_id":"798e08a4-ace8-4b22-a367-3c6648afdf4d","system_id":"levelo_inurba_marseille","lat":43.33607,"lon":5.41038,"is_reserved":false,"is_disabled":false,"rental_uris":{"android":"levelo://app?vid=798e08a4-ace8-4b22-a367-3c6648afdf4d","ios":"levelo://app?vid=798e08a4-ace8-4b22-a367-3c6648afdf4d"},"vehicle_type_id":"4","last_reported":1768497841,"current_range_meters":5600,"station_id":"ce4bhqh2rcd13ifvqhmg","pricing_plan_id":"cebpf4jnsgd1na2vs0mg"},{"bike_id":"45560b8c-0e05-4e12-aadd-6d4f84ae2310","system_id":"levelo_inurba_marseille","lat":43.2687,"lon":5.38911,"is_reserved":false,"is_disabled":false,"rental_uris":{"android":"levelo://app?vid=45560b8c-0e05-4e12-aadd-6d4f84ae2310","ios":"levelo://app?vid=45560b8c-0e05-4e12-aadd-6d4f84ae2310"},"vehicle_type_id":"4","last_reported":1768497841,"current_range_meters":5600,"station_id":"","pricing_plan_id":"cebpf4jnsgd1na2vs0mg"},{"bike_id":"f1d328ec-8a2c-4647-8162-9531bcbcb299","system_id":"levelo_inurba_marseille","lat":43.24456,"lon":5.41091,"is_reserved":false,"is_disabled":false,"rental_uris":{"android":"levelo://app?vid=f1d328ec-8a2c-4647-8162-9531bcbcb299","ios":"levelo://app?vid=f1d328ec-8a2c-4647-8162-9531bcbcb299"},"vehicle_type_id":"4","last_reported":1768497841,"current_range_meters":5600,"station_id":"","pricing_plan_id":"cebpf4jnsgd1na2vs0mg"},{"bike_id":"583b1240-5276-4d78-99b6-39da6b6bdd92","system_id":"levelo_inurba_marseille","lat":43.274218,"lon":5.394253,"is_reserved":false,"is_disabled":false,"rental_uris":{"android":"levelo://app?vid=583b1240-5276-4d78-99b6-39da6b6bdd92","ios":"levelo://app?vid=583b1240-5276-4d78-99b6-39da6b6bdd92"},"vehicle_type_id":"4","last_reported":1768497841,"current_range_meters":5600,"station_id":"ce4bhdp2rcd13ifvqf20","pricing_plan_id":"cebpf4jnsgd1na2vs0mg"},{"bike_id":"5ba4793e-90f1-43cc-835d-0a8c217999d2","system_id":"levelo_inurba_marseille","lat":43.28439,"lon":5.39208,"is_reserved":false,"is_disabled":false,"rental_uris":{"android":"levelo://app?vid=5ba4793e-90f1-43cc-835d-0a8c217999d2","ios":"levelo://app?vid=5ba4793e-90f1-43cc-835d-0a8c217999d2"},"vehicle_type_id":"4","last_reported":1768497841,"current_range_meters":5600,"station_id":"ce4bhoh2rcd13ifvqh5g","pricing_plan_id":"cebpf4jnsgd1na2vs0mg"},{"bike_id":"41bcc576-3262-4c06-a0fd-4f105ce774f7","system_id":"levelo_inurba_marseille","lat":43.28,"lon":5.40005,"is_reserved":false,"is_disabled":false,"rental_uris":{"android":"levelo://app?vid=41bcc576-3262-4c06-a0fd-4f105ce774f7","ios":"levelo://app?vid=41bcc576-3262-4c06-a0fd-4f105ce774f7"},"vehicle_type_id":"4","last_reported":1768497841,"current_range_meters":6000,"station_id":"ce4bho92rcd13ifvqh4g","pricing_plan_id":"cebpf4jnsgd1na2vs0mg"},{"bike_id":"d1e672bf-278c-464a-bc4d-44ecadfd03e1","system_id":"levelo_inurba_marseille","lat":43.26559,"lon":5.40318,"is_reserved":false,"is_disabled":false,"rental_uris":{"android":"levelo://app?vid=d1e672bf-278c-464a-bc4d-44ecadfd03e1","ios":"levelo://app?vid=d1e672bf-278c-464a-bc4d-44ecadfd03e1"},"vehicle_type_id":"4","last_reported":1768497841,"current_range_meters":6000,"station_id":"ce4bhmp2rcd13ifvqgng","pricing_plan_id":"cebpf4jnsgd1na2vs0mg"},{"bike_id":"5cfd03cf-24a1-4762-9fb7-26a053abe44f","system_id":"levelo_inurba_marseille","lat":43.25838,"lon":5.39431,"is_reserved":false,"is_disabled":false,"rental_uris":{"android":"levelo://app?vid=5cfd03cf-24a1-4762-9fb7-26a053abe44f","ios":"levelo://app?vid=5cfd03cf-24a1-4762-9fb7-26a053abe44f"},"vehicle_type_id":"4","last_reported":1768497841,"current_range_meters":6000,"station_id":"ce4bhip2rcd13ifvqft0","pricing_plan_id":"cebpf4jnsgd1na2vs0mg"},{"bike_id":"a3a68054-3a27-4a78-8534-42fd98fd0061","system_id":"levelo_inurba_marseille","lat":43.255758,"lon":5.382227,"is_reserved":false,"is_disabled":false,"rental_uris":{"android":"levelo://app?vid=a3a68054-3a27-4a78-8534-42fd98fd0061","ios":"levelo://app?vid=a3a68054-3a27-4a78-8534-42fd98fd0061"},"vehicle_type_id":"4","last_reported":1768497841,"current_range_meters":6000,"station_id":"ce4bhih2rcd13ifvqfs0","pricing_plan_id":"cebpf4jnsgd1na2vs0mg"},{"bike_id":"7a5c08cf-d90b-408e-a297-6ea242ed66a8","system_id":"levelo_inurba_marseille","lat":43.25508,"lon":5.37646,"is_reserved":false,"is_disabled":false,"rental_uris":{"android":"levelo://app?vid=7a5c08cf-d90b-408e-a297-6ea242ed66a8","ios":"levelo://app?vid=7a5c08cf-d90b-408e-a297-6ea242ed66a8"},"vehicle_type_id":"4","last_reported":1768497841,"current_range_meters":6000,"station_id":"ce4bhh12rcd13ifvqff0","pricing_plan_id":"cebpf4jnsgd1na2vs0mg"},{"bike_id":"ceb127dd-c990-4e84-9bd5-10a36add8b4c","system_id":"levelo_inurba_marseille","lat":43.27998,"lon":5.40007,"is_reserved":false,"is_disabled":false,"rental_uris":{"android":"levelo://app?vid=ceb127dd-c990-4e84-9bd5-10a36add8b4c","ios":"levelo://app?vid=ceb127dd-c990-4e84-9bd5-10a36add8b4c"},"vehicle_type_id":"4","last_reported":1768497841,"current_range_meters":6000,"station_id":"ce4bho92rcd13ifvqh4g","pricing_plan_id":"cebpf4jnsgd1na2vs0mg"},{"bike_id":"578071a8-3faf-416d-9a38-168dfcd8fe76","system_id":"levelo_inurba_marseille","lat":43.31755,"lon":5.39021,"is_reserved":false,"is_disabled":false,"rental_uris":{"android":"levelo://app?vid=578071a8-3faf-416d-9a38-168dfcd8fe76","ios":"levelo://app?vid=578071a8-3faf-416d-9a38-168dfcd8fe76"},"vehicle_type_id":"4","last_reported":1768497841,"current_range_meters":6000,"station_id":"ce4bhqp2rcd13ifvqhng","pricing_plan_id":"cebpf4jnsgd1na2vs0mg"},{"bike_id":"b145202a-bcf6-4da7-8256-830a303f491a","system_id":"levelo_inurba_marseille","lat":43.2418,"lon":5.39734,"is_reserved":false,"is_disabled":false,"rental_uris":{"android":"levelo://app?vid=b145202a-bcf6-4da7-8256-830a303f491a","ios":"levelo://app?vid=b145202a-bcf6-4da7-8256-830a303f491a"},"vehicle_type_id":"4","last_reported":1768497841,"current_range_meters":6000,"station_id":"ce4bhn12rcd13ifvqgpg","pricing_plan_id":"cebpf4jnsgd1na2vs0mg"},{"bike_id":"d2f4351d-0abf-486f-98e0-68aa4a52287a","system_id":"levelo_inurba_marseille","lat":43.303217,"lon":5.404307,"is_reserved":false,"is_disabled":false,"rental_uris":{"android":"levelo://app?vid=d2f4351d-0abf-486f-98e0-68aa4a52287a","ios":"levelo://app?vid=d2f4351d-0abf-486f-98e0-68aa4a52287a"},"vehicle_type_id":"4","last_reported":1768497841,"current_range_meters":6000,"station_id":"ce4bh012rcd13ifvqd10","pricing_plan_id":"cebpf4jnsgd1na2vs0mg"},{"bike_id":"0ee86fbd-f336-4fa2-9d2f-87a204dd1042","system_id":"levelo_inurba_marseille","lat":43.28567,"lon":5.39501,"is_reserved":false,"is_disabled":false,"rental_uris":{"android":"levelo://app?vid=0ee86fbd-f336-4fa2-9d2f-87a204dd1042","ios":"levelo://app?vid=0ee86fbd-f336-4fa2-9d2f-87a204dd1042"},"vehicle_type_id":"4","last_reported":1768497841,"current_range_meters":6000,"station_id":"ce4bh292rcd13ifvqdg0","pricing_plan_id":"cebpf4jnsgd1na2vs0mg"},{"bike_id":"74a4c1be-f772-4faa-a862-60153238ccf5","system_id":"levelo_inurba_marseille","lat":43.29932,"lon":5.36542,"is_reserved":false,"is_disabled":false,"rental_uris":{"android":"levelo://app?vid=74a4c1be-f772-4faa-a862-60153238ccf5","ios":"levelo://app?vid=74a4c1be-f772-4faa-a862-60153238ccf5"},"vehicle_type_id":"4","last_reported":1768497841,"current_range_meters":6000,"station_id":"ce4bgm92rcd13ifvqbr0","pricing_plan_id":"cebpf4jnsgd1na2vs0mg"},{"bike_id":"23a8f33f-9f7e-4074-b861-0544da58b59d","system_id":"levelo_inurba_marseille","lat":43.29257,"lon":5.40919,"is_reserved":false,"is_disabled":false,"rental_uris":{"android":"levelo://app?vid=23a8f33f-9f7e-4074-b861-0544da58b59d","ios":"levelo://app?vid=23a8f33f-9f7e-4074-b861-0544da58b59d"},"vehicle_type_id":"4","last_reported":1768497841,"current_range_meters":6000,"station_id":"ce4bh192rcd13ifvqdc0","pricing_plan_id":"cebpf4jnsgd1na2vs0mg"},{"bike_id":"e98ee8ce-442d-481a-a94e-5aeaf27a4770","system_id":"levelo_inurba_marseille","lat":43.24383,"lon":5.37052,"is_reserved":false,"is_disabled":false,"rental_uris":{"android":"levelo://app?vid=e98ee8ce-442d-481a-a94e-5aeaf27a4770","ios":"levelo://app?vid=e98ee8ce-442d-481a-a94e-5aeaf27a4770"},"vehicle_type_id":"4","last_reported":1768497841,"current_range_meters":6000,"station_id":"ce4bhhh2rcd13ifvqfk0","pricing_plan_id":"cebpf4jnsgd1na2vs0mg"},{"bike_id":"956118d2-c599-411c-9568-6233049680d4","system_id":"levelo_inurba_marseille","lat":43.2892,"lon":5.38401,"is_reserved":false,"is_disabled":false,"rental_uris":{"android":"levelo://app?vid=956118d2-c599-411c-9568-6233049680d4","ios":"levelo://app?vid=956118d2-c599-411c-9568-6233049680d4"},"vehicle_type_id":"4","last_reported":1768497841,"current_range_meters":6000,"station_id":"ce4bh612rcd13ifvqe6g","pricing_plan_id":"cebpf4jnsgd1na2vs0mg"},{"bike_id":"b5ad29a0-462d-4d07-9a18-d87946a4398c","system_id":"levelo_inurba_marseille","lat":43.31146,"lon":5.38057,"is_reserved":false,"is_disabled":false,"rental_uris":{"android":"levelo://app?vid=b5ad29a0-462d-4d07-9a18-d87946a4398c","ios":"levelo://app?vid=b5ad29a0-462d-4d07-9a18-d87946a4398c"},"vehicle_type_id":"4","last_reported":1768497841,"current_range_meters":6000,"station_id":"","pricing_plan_id":"cebpf4jnsgd1na2vs0mg"},{"bike_id":"a33c3167-3eca-46a2-91bd-5ae48b614622","system_id":"levelo_inurba_marseille","lat":43.24809,"lon":5.37457,"is_reserved":false,"is_disabled":false,"rental_uris":{"android":"levelo://app?vid=a33c3167-3eca-46a2-91bd-5ae48b614622","ios":"levelo://app?vid=a33c3167-3eca-46a2-91bd-5ae48b614622"},"vehicle_type_id":"4","last_reported":1768497841,"current_range_meters":6400,"station_id":"ce4bhgh2rcd13ifvqfb0","pricing_plan_id":"cebpf4jnsgd1na2vs0mg"},{"bike_id":"1665fbb0-027c-4469-9a12-f7bda2614b3b","system_id":"levelo_inurba_marseille","lat":43.24812,"lon":5.37461,"is_reserved":false,"is_disabled":false,"rental_uris":{"android":"levelo://app?vid=1665fbb0-027c-4469-9a12-f7bda2614b3b","ios":"levelo://app?vid=1665fbb0-027c-4469-9a12-f7bda2614b3b"},"vehicle_type_id":"4","last_reported":1768497841,"current_range_meters":6400,"station_id":"ce4bhgh2rcd13ifvqfb0","pricing_plan_id":"cebpf4jnsgd1na2vs0mg"},{"bike_id":"c03cd309-c737-47c4-a7e9-06a2667d9dfa","system_id":"levelo_inurba_marseille","lat":43.285347,"lon":5.440894,"is_reserved":false,"is_disabled":false,"rental_uris":{"android":"levelo://app?vid=c03cd309-c737-47c4-a7e9-06a2667d9dfa","ios":"levelo://app?vid=c03cd309-c737-47c4-a7e9-06a2667d9dfa"},"vehicle_type_id":"4","last_reported":1768497841,"current_range_meters":6400,"station_id":"st_d3j3df2ikq2c7380ej80","pricing_plan_id":"cebpf4jnsgd1na2vs0mg"},{"bike_id":"333678ab-48ed-467f-be49-f68e59ac50d3","system_id":"levelo_inurba_marseille","lat":43.2821,"lon":5.39049,"is_reserved":false,"is_disabled":false,"rental_uris":{"android":"levelo://app?vid=333678ab-48ed-467f-be49-f68e59ac50d3","ios":"levelo://app?vid=333678ab-48ed-467f-be49-f68e59ac50d3"},"vehicle_type_id":"4","last_reported":1768497841,"current_range_meters":6400,"station_id":"ce4bhn92rcd13ifvqgsg","pricing_plan_id":"cebpf4jnsgd1na2vs0mg"},{"bike_id":"b0af1aeb-c4d6-4641-bc9e-da7e6c1db235","system_id":"levelo_inurba_marseille","lat":43.32092,"lon":5.36832,"is_reserved":false,"is_disabled":false,"rental_uris":{"android":"levelo://app?vid=b0af1aeb-c4d6-4641-bc9e-da7e6c1db235","ios":"levelo://app?vid=b0af1aeb-c4d6-4641-bc9e-da7e6c1db235"},"vehicle_type_id":"4","last_reported":1768497841,"current_range_meters":6400,"station_id":"","pricing_plan_id":"cebpf4jnsgd1na2vs0mg"},{"bike_id":"4e981350-d422-4d88-8d0a-9e430628504e","system_id":"levelo_inurba_marseille","lat":43.25726,"lon":5.41108,"is_reserved":false,"is_disabled":false,"rental_uris":{"android":"levelo://app?vid=4e981350-d422-4d88-8d0a-9e430628504e","ios":"levelo://app?vid=4e981350-d422-4d88-8d0a-9e430628504e"},"vehicle_type_id":"4","last_reported":1768497841,"current_range_meters":6400,"station_id":"ce4bhkp2rcd13ifvqgd0","pricing_plan_id":"cebpf4jnsgd1na2vs0mg"},{"bike_id":"572264a2-bc3c-4a91-9f0d-c28c5d2b089c","system_id":"levelo_inurba_marseille","lat":43.31326,"lon":5.3675,"is_reserved":false,"is_disabled":false,"rental_uris":{"android":"levelo://app?vid=572264a2-bc3c-4a91-9f0d-c28c5d2b089c","ios":"levelo://app?vid=572264a2-bc3c-4a91-9f0d-c28c5d2b089c"},"vehicle_type_id":"4","last_reported":1768497841,"current_range_meters":6400,"station_id":"ce4bgr92rcd13ifvqc6g","pricing_plan_id":"cebpf4jnsgd1na2vs0mg"},{"bike_id":"d26833e0-1ed3-45d6-8b3c-35f2f781bd04","system_id":"levelo_inurba_marseille","lat":43.26224,"lon":5.40452,"is_reserved":false,"is_disabled":false,"rental_uris":{"android":"levelo://app?vid=d26833e0-1ed3-45d6-8b3c-35f2f781bd04","ios":"levelo://app?vid=d26833e0-1ed3-45d6-8b3c-35f2f781bd04"},"vehicle_type_id":"4","last_reported":1768497841,"current_range_meters":6400,"station_id":"ce4bhmh2rcd13ifvqgmg","pricing_plan_id":"cebpf4jnsgd1na2vs0mg"},{"bike_id":"b16db95a-1eae-47ad-b2e3-882874b3d4d4","system_id":"levelo_inurba_marseille","lat":43.28482,"lon":5.48385,"is_reserved":false,"is_disabled":false,"rental_uris":{"android":"levelo://app?vid=b16db95a-1eae-47ad-b2e3-882874b3d4d4","ios":"levelo://app?vid=b16db95a-1eae-47ad-b2e3-882874b3d4d4"},"vehicle_type_id":"4","last_reported":1768497841,"current_range_meters":6400,"station_id":"st_d3svhcjqgbts73a3dn0g","pricing_plan_id":"cebpf4jnsgd1na2vs0mg"},{"bike_id":"23694f2c-b2d4-4d58-b373-d1c7186e4244","system_id":"levelo_inurba_marseille","lat":43.29761,"lon":5.42767,"is_reserved":false,"is_disabled":false,"rental_uris":{"android":"levelo://app?vid=23694f2c-b2d4-4d58-b373-d1c7186e4244","ios":"levelo://app?vid=23694f2c-b2d4-4d58-b373-d1c7186e4244"},"vehicle_type_id":"4","last_reported":1768497841,"current_range_meters":6400,"station_id":"st_d3md5207bmas73dh9klg","pricing_plan_id":"cebpf4jnsgd1na2vs0mg"},{"bike_id":"153daeb6-1ced-443a-8511-9ccae5c5d53f","system_id":"levelo_inurba_marseille","lat":43.3175,"lon":5.3758,"is_reserved":false,"is_disabled":false,"rental_uris":{"android":"levelo://app?vid=153daeb6-1ced-443a-8511-9ccae5c5d53f","ios":"levelo://app?vid=153daeb6-1ced-443a-8511-9ccae5c5d53f"},"vehicle_type_id":"4","last_reported":1768497841,"current_range_meters":6400,"station_id":"","pricing_plan_id":"cebpf4jnsgd1na2vs0mg"},{"bike_id":"c3322278-dd1d-4edb-aa8d-b49c22c304c2","system_id":"levelo_inurba_marseille","lat":43.24186,"lon":5.39728,"is_reserved":false,"is_disabled":false,"rental_uris":{"android":"levelo://app?vid=c3322278-dd1d-4edb-aa8d-b49c22c304c2","ios":"levelo://app?vid=c3322278-dd1d-4edb-aa8d-b49c22c304c2"},"vehicle_type_id":"4","last_reported":1768497841,"current_range_meters":6400,"station_id":"ce4bhn12rcd13ifvqgpg","pricing_plan_id":"cebpf4jnsgd1na2vs0mg"},{"bike_id":"43cdb756-6b0b-4875-ac22-5b272da7be5c","system_id":"levelo_inurba_marseille","lat":43.29252,"lon":5.4091,"is_reserved":false,"is_disabled":false,"rental_uris":{"android":"levelo://app?vid=43cdb756-6b0b-4875-ac22-5b272da7be5c","ios":"levelo://app?vid=43cdb756-6b0b-4875-ac22-5b272da7be5c"},"vehicle_type_id":"4","last_reported":1768497841,"current_range_meters":6400,"station_id":"ce4bh192rcd13ifvqdc0","pricing_plan_id":"cebpf4jnsgd1na2vs0mg"},{"bike_id":"19459cb6-edee-4ffd-9e72-3a88428f5842","system_id":"levelo_inurba_marseille","lat":43.297972,"lon":5.380925,"is_reserved":false,"is_disabled":false,"rental_uris":{"android":"levelo://app?vid=19459cb6-edee-4ffd-9e72-3a88428f5842","ios":"levelo://app?vid=19459cb6-edee-4ffd-9e72-3a88428f5842"},"vehicle_type_id":"4","last_reported":1768497841,"current_range_meters":6400,"station_id":"ce4bgip2rcd13ifvqbb0","pricing_plan_id":"cebpf4jnsgd1na2vs0mg"},{"bike_id":"355900c9-c5a7-4f1d-8b9e-bbb8ef9128e7","system_id":"levelo_inurba_marseille","lat":43.29649,"lon":5.40584,"is_reserved":false,"is_disabled":false,"rental_uris":{"android":"levelo://app?vid=355900c9-c5a7-4f1d-8b9e-bbb8ef9128e7","ios":"levelo://app?vid=355900c9-c5a7-4f1d-8b9e-bbb8ef9128e7"},"vehicle_type_id":"4","last_reported":1768497841,"current_range_meters":6400,"station_id":"ce4bh0h2rcd13ifvqd60","pricing_plan_id":"cebpf4jnsgd1na2vs0mg"},{"bike_id":"1c9762d0-99c2-407e-affd-fe0880429a32","system_id":"levelo_inurba_marseille","lat":43.24628,"lon":5.43149,"is_reserved":false,"is_disabled":false,"rental_uris":{"android":"levelo://app?vid=1c9762d0-99c2-407e-affd-fe0880429a32","ios":"levelo://app?vid=1c9762d0-99c2-407e-affd-fe0880429a32"},"vehicle_type_id":"4","last_reported":1768497841,"current_range_meters":6400,"station_id":"st_d2m6c4gdas8pm72e190g","pricing_plan_id":"cebpf4jnsgd1na2vs0mg"},{"bike_id":"1647898a-7e44-47a9-947d-d61611f1f7c8","system_id":"levelo_inurba_marseille","lat":43.23963,"lon":5.36642,"is_reserved":false,"is_disabled":false,"rental_uris":{"android":"levelo://app?vid=1647898a-7e44-47a9-947d-d61611f1f7c8","ios":"levelo://app?vid=1647898a-7e44-47a9-947d-d61611f1f7c8"},"vehicle_type_id":"4","last_reported":1768497841,"current_range_meters":6400,"station_id":"ce4bhi12rcd13ifvqfp0","pricing_plan_id":"cebpf4jnsgd1na2vs0mg"},{"bike_id":"a2e878cb-dea0-44dc-8e59-36e32ae15eba","system_id":"levelo_inurba_marseille","lat":43.2866,"lon":5.386921,"is_reserved":false,"is_disabled":false,"rental_uris":{"android":"levelo://app?vid=a2e878cb-dea0-44dc-8e59-36e32ae15eba","ios":"levelo://app?vid=a2e878cb-dea0-44dc-8e59-36e32ae15eba"},"vehicle_type_id":"4","last_reported":1768497841,"current_range_meters":6400,"station_id":"ce4bh492rcd13ifvqdug","pricing_plan_id":"cebpf4jnsgd1na2vs0mg"},{"bike_id":"bbca5a78-1ee0-4dab-ba7e-f05d9beea402","system_id":"levelo_inurba_marseille","lat":43.24454,"lon":5.42509,"is_reserved":false,"is_disabled":false,"rental_uris":{"android":"levelo://app?vid=bbca5a78-1ee0-4dab-ba7e-f05d9beea402","ios":"levelo://app?vid=bbca5a78-1ee0-4dab-ba7e-f05d9beea402"},"vehicle_type_id":"4","last_reported":1768497841,"current_range_meters":6400,"station_id":"st_d4a3vfp97mjs738cd8kg","pricing_plan_id":"cebpf4jnsgd1na2vs0mg"},{"bike_id":"1cf1d73f-36a2-42b9-915b-ffbb10694e01","system_id":"levelo_inurba_marseille","lat":43.30875,"lon":5.39661,"is_reserved":false,"is_disabled":false,"rental_uris":{"android":"levelo://app?vid=1cf1d73f-36a2-42b9-915b-ffbb10694e01","ios":"levelo://app?vid=1cf1d73f-36a2-42b9-915b-ffbb10694e01"},"vehicle_type_id":"4","last_reported":1768497841,"current_range_meters":6400,"station_id":"ce4bh012rcd13ifvqcv0","pricing_plan_id":"cebpf4jnsgd1na2vs0mg"},{"bike_id":"5d238bbe-be0f-4e2a-9430-c688a97feaa7","system_id":"levelo_inurba_marseille","lat":43.282626,"lon":5.350687,"is_reserved":false,"is_disabled":false,"rental_uris":{"android":"levelo://app?vid=5d238bbe-be0f-4e2a-9430-c688a97feaa7","ios":"levelo://app?vid=5d238bbe-be0f-4e2a-9430-c688a97feaa7"},"vehicle_type_id":"4","last_reported":1768497841,"current_range_meters":6400,"station_id":"ce4bhbp2rcd13ifvqerg","pricing_plan_id":"cebpf4jnsgd1na2vs0mg"},{"bike_id":"8f4aa133-ae11-46d2-a195-de79e370e5fa","system_id":"levelo_inurba_marseille","lat":43.27624,"lon":5.36096,"is_reserved":false,"is_disabled":false,"rental_uris":{"android":"levelo://app?vid=8f4aa133-ae11-46d2-a195-de79e370e5fa","ios":"levelo://app?vid=8f4aa133-ae11-46d2-a195-de79e370e5fa"},"vehicle_type_id":"4","last_reported":1768497841,"current_range_meters":6800,"station_id":"ce4bgj92rcd13ifvqbe0","pricing_plan_id":"cebpf4jnsgd1na2vs0mg"},{"bike_id":"9efccfe8-7aee-441d-af1a-ef790807e0fd","system_id":"levelo_inurba_marseille","lat":43.30245,"lon":5.40054,"is_reserved":false,"is_disabled":false,"rental_uris":{"android":"levelo://app?vid=9efccfe8-7aee-441d-af1a-ef790807e0fd","ios":"levelo://app?vid=9efccfe8-7aee-441d-af1a-ef790807e0fd"},"vehicle_type_id":"4","last_reported":1768497841,"current_range_meters":6800,"station_id":"ce4bgvh2rcd13ifvqcs0","pricing_plan_id":"cebpf4jnsgd1na2vs0mg"},{"bike_id":"045e9d48-83b4-464f-9465-7c29bf6ec9c6","system_id":"levelo_inurba_marseille","lat":43.28535,"lon":5.44104,"is_reserved":false,"is_disabled":false,"rental_uris":{"android":"levelo://app?vid=045e9d48-83b4-464f-9465-7c29bf6ec9c6","ios":"levelo://app?vid=045e9d48-83b4-464f-9465-7c29bf6ec9c6"},"vehicle_type_id":"4","last_reported":1768497841,"current_range_meters":6800,"station_id":"st_d3j3df2ikq2c7380ej80","pricing_plan_id":"cebpf4jnsgd1na2vs0mg"},{"bike_id":"82b87168-267f-432c-a609-70f7b40ac901","system_id":"levelo_inurba_marseille","lat":43.277312,"lon":5.407714,"is_reserved":false,"is_disabled":false,"rental_uris":{"android":"levelo://app?vid=82b87168-267f-432c-a609-70f7b40ac901","ios":"levelo://app?vid=82b87168-267f-432c-a609-70f7b40ac901"},"vehicle_type_id":"4","last_reported":1768497841,"current_range_meters":6800,"station_id":"","pricing_plan_id":"cebpf4jnsgd1na2vs0mg"},{"bike_id":"225b8a96-3b7f-4730-8d36-1bf4c29be5d3","system_id":"levelo_inurba_marseille","lat":43.2951,"lon":5.36299,"is_reserved":false,"is_disabled":false,"rental_uris":{"android":"levelo://app?vid=225b8a96-3b7f-4730-8d36-1bf4c29be5d3","ios":"levelo://app?vid=225b8a96-3b7f-4730-8d36-1bf4c29be5d3"},"vehicle_type_id":"4","last_reported":1768497841,"current_range_meters":6800,"station_id":"","pricing_plan_id":"cebpf4jnsgd1na2vs0mg"},{"bike_id":"d2e7c418-98e9-43fc-924f-02faade244ed","system_id":"levelo_inurba_marseille","lat":43.292,"lon":5.35808,"is_reserved":false,"is_disabled":false,"rental_uris":{"android":"levelo://app?vid=d2e7c418-98e9-43fc-924f-02faade244ed","ios":"levelo://app?vid=d2e7c418-98e9-43fc-924f-02faade244ed"},"vehicle_type_id":"4","last_reported":1768497841,"current_range_meters":6800,"station_id":"ce4bhb12rcd13ifvqel0","pricing_plan_id":"cebpf4jnsgd1na2vs0mg"},{"bike_id":"5f7d7ab8-22eb-44f4-b629-9cb567806cf8","system_id":"levelo_inurba_marseille","lat":43.22927,"lon":5.35381,"is_reserved":false,"is_disabled":false,"rental_uris":{"android":"levelo://app?vid=5f7d7ab8-22eb-44f4-b629-9cb567806cf8","ios":"levelo://app?vid=5f7d7ab8-22eb-44f4-b629-9cb567806cf8"},"vehicle_type_id":"4","last_reported":1768497841,"current_range_meters":6800,"station_id":"cpo3532slgdg3j2ikp40","pricing_plan_id":"cebpf4jnsgd1na2vs0mg"},{"bike_id":"74f564d0-c5a4-483e-b6a3-619ac7e2071b","system_id":"levelo_inurba_marseille","lat":43.29043,"lon":5.35913,"is_reserved":false,"is_disabled":false,"rental_uris":{"android":"levelo://app?vid=74f564d0-c5a4-483e-b6a3-619ac7e2071b","ios":"levelo://app?vid=74f564d0-c5a4-483e-b6a3-619ac7e2071b"},"vehicle_type_id":"4","last_reported":1768497841,"current_range_meters":6800,"station_id":"ce4bha92rcd13ifvqeg0","pricing_plan_id":"cebpf4jnsgd1na2vs0mg"},{"bike_id":"ecf0d209-53b9-47e3-8f9f-faa8b0ad9eb4","system_id":"levelo_inurba_marseille","lat":43.24967,"lon":5.40487,"is_reserved":false,"is_disabled":false,"rental_uris":{"android":"levelo://app?vid=ecf0d209-53b9-47e3-8f9f-faa8b0ad9eb4","ios":"levelo://app?vid=ecf0d209-53b9-47e3-8f9f-faa8b0ad9eb4"},"vehicle_type_id":"4","last_reported":1768497841,"current_range_meters":6800,"station_id":"st_d2ngiaodas8pm72gd1h0","pricing_plan_id":"cebpf4jnsgd1na2vs0mg"},{"bike_id":"b8049dce-74e4-4e4d-8a8b-d3ebaaca31da","system_id":"levelo_inurba_marseille","lat":43.24632,"lon":5.43144,"is_reserved":false,"is_disabled":false,"rental_uris":{"android":"levelo://app?vid=b8049dce-74e4-4e4d-8a8b-d3ebaaca31da","ios":"levelo://app?vid=b8049dce-74e4-4e4d-8a8b-d3ebaaca31da"},"vehicle_type_id":"4","last_reported":1768497841,"current_range_meters":6800,"station_id":"st_d2m6c4gdas8pm72e190g","pricing_plan_id":"cebpf4jnsgd1na2vs0mg"},{"bike_id":"e47ab0bb-05c4-4c4d-b559-956137effe55","system_id":"levelo_inurba_marseille","lat":43.29931,"lon":5.37487,"is_reserved":false,"is_disabled":false,"rental_uris":{"android":"levelo://app?vid=e47ab0bb-05c4-4c4d-b559-956137effe55","ios":"levelo://app?vid=e47ab0bb-05c4-4c4d-b559-956137effe55"},"vehicle_type_id":"4","last_reported":1768497841,"current_range_meters":6800,"station_id":"ce4bgjh2rcd13ifvqbg0","pricing_plan_id":"cebpf4jnsgd1na2vs0mg"},{"bike_id":"bc3c387c-8c40-42e3-93c3-5c14834e3a59","system_id":"levelo_inurba_marseille","lat":43.2318,"lon":5.39995,"is_reserved":false,"is_disabled":false,"rental_uris":{"android":"levelo://app?vid=bc3c387c-8c40-42e3-93c3-5c14834e3a59","ios":"levelo://app?vid=bc3c387c-8c40-42e3-93c3-5c14834e3a59"},"vehicle_type_id":"4","last_reported":1768497841,"current_range_meters":6800,"station_id":"ce4bhn12rcd13ifvqgqg","pricing_plan_id":"cebpf4jnsgd1na2vs0mg"},{"bike_id":"421c9dbc-b1ff-4b83-bdb5-722f5acc6763","system_id":"levelo_inurba_marseille","lat":43.24466,"lon":5.42536,"is_reserved":false,"is_disabled":false,"rental_uris":{"android":"levelo://app?vid=421c9dbc-b1ff-4b83-bdb5-722f5acc6763","ios":"levelo://app?vid=421c9dbc-b1ff-4b83-bdb5-722f5acc6763"},"vehicle_type_id":"4","last_reported":1768497841,"current_range_meters":6800,"station_id":"st_d4a3vfp97mjs738cd8kg","pricing_plan_id":"cebpf4jnsgd1na2vs0mg"},{"bike_id":"c6bf212f-e26c-44c6-815d-5c41c64df852","system_id":"levelo_inurba_marseille","lat":43.29782,"lon":5.39343,"is_reserved":false,"is_disabled":false,"rental_uris":{"android":"levelo://app?vid=c6bf212f-e26c-44c6-815d-5c41c64df852","ios":"levelo://app?vid=c6bf212f-e26c-44c6-815d-5c41c64df852"},"vehicle_type_id":"4","last_reported":1768497841,"current_range_meters":6800,"station_id":"chh1huq6cuj3fo74tm60","pricing_plan_id":"cebpf4jnsgd1na2vs0mg"},{"bike_id":"691d5fc0-c268-4d2b-9f44-44b515ba68ce","system_id":"levelo_inurba_marseille","lat":43.2533,"lon":5.42173,"is_reserved":false,"is_disabled":false,"rental_uris":{"android":"levelo://app?vid=691d5fc0-c268-4d2b-9f44-44b515ba68ce","ios":"levelo://app?vid=691d5fc0-c268-4d2b-9f44-44b515ba68ce"},"vehicle_type_id":"4","last_reported":1768497841,"current_range_meters":6800,"station_id":"st_d2m65c5bi1j21697t3ng","pricing_plan_id":"cebpf4jnsgd1na2vs0mg"},{"bike_id":"7482c87b-6416-419f-a96f-4c187fbb8fd9","system_id":"levelo_inurba_marseille","lat":43.29022,"lon":5.38125,"is_reserved":false,"is_disabled":false,"rental_uris":{"android":"levelo://app?vid=7482c87b-6416-419f-a96f-4c187fbb8fd9","ios":"levelo://app?vid=7482c87b-6416-419f-a96f-4c187fbb8fd9"},"vehicle_type_id":"4","last_reported":1768497841,"current_range_meters":6800,"station_id":"ce4bh4p2rcd13ifvqe1g","pricing_plan_id":"cebpf4jnsgd1na2vs0mg"},{"bike_id":"d78a48ea-39a0-4d9b-b0e7-f144e9acb1ee","system_id":"levelo_inurba_marseille","lat":43.25531,"lon":5.37683,"is_reserved":false,"is_disabled":false,"rental_uris":{"android":"levelo://app?vid=d78a48ea-39a0-4d9b-b0e7-f144e9acb1ee","ios":"levelo://app?vid=d78a48ea-39a0-4d9b-b0e7-f144e9acb1ee"},"vehicle_type_id":"4","last_reported":1768497841,"current_range_meters":6800,"station_id":"ce4bhh12rcd13ifvqff0","pricing_plan_id":"cebpf4jnsgd1na2vs0mg"},{"bike_id":"766b6315-d0e9-4f21-99cc-ac73caf0d81f","system_id":"levelo_inurba_marseille","lat":43.267778,"lon":5.394489,"is_reserved":false,"is_disabled":false,"rental_uris":{"android":"levelo://app?vid=766b6315-d0e9-4f21-99cc-ac73caf0d81f","ios":"levelo://app?vid=766b6315-d0e9-4f21-99cc-ac73caf0d81f"},"vehicle_type_id":"4","last_reported":1768497841,"current_range_meters":6800,"station_id":"","pricing_plan_id":"cebpf4jnsgd1na2vs0mg"},{"bike_id":"91dbe188-56c8-4fce-a414-d6e43ed9eb6b","system_id":"levelo_inurba_marseille","lat":43.26719,"lon":5.3996,"is_reserved":false,"is_disabled":false,"rental_uris":{"android":"levelo://app?vid=91dbe188-56c8-4fce-a414-d6e43ed9eb6b","ios":"levelo://app?vid=91dbe188-56c8-4fce-a414-d6e43ed9eb6b"},"vehicle_type_id":"4","last_reported":1768497841,"current_range_meters":7200,"station_id":"","pricing_plan_id":"cebpf4jnsgd1na2vs0mg"},{"bike_id":"d1437624-7325-4411-87ce-3009f56ae813","system_id":"levelo_inurba_marseille","lat":43.27812,"lon":5.40717,"is_reserved":false,"is_disabled":false,"rental_uris":{"android":"levelo://app?vid=d1437624-7325-4411-87ce-3009f56ae813","ios":"levelo://app?vid=d1437624-7325-4411-87ce-3009f56ae813"},"vehicle_type_id":"4","last_reported":1768497841,"current_range_meters":7200,"station_id":"ce4bhnh2rcd13ifvqgtg","pricing_plan_id":"cebpf4jnsgd1na2vs0mg"},{"bike_id":"0cdf751e-50be-4213-adcd-ec4933b84284","system_id":"levelo_inurba_marseille","lat":43.28537,"lon":5.44102,"is_reserved":false,"is_disabled":false,"rental_uris":{"android":"levelo://app?vid=0cdf751e-50be-4213-adcd-ec4933b84284","ios":"levelo://app?vid=0cdf751e-50be-4213-adcd-ec4933b84284"},"vehicle_type_id":"4","last_reported":1768497841,"current_range_meters":7200,"station_id":"st_d3j3df2ikq2c7380ej80","pricing_plan_id":"cebpf4jnsgd1na2vs0mg"},{"bike_id":"05e16fb9-c29b-478d-98b3-025d2b880cd6","system_id":"levelo_inurba_marseille","lat":43.250524,"lon":5.396941,"is_reserved":false,"is_disabled":false,"rental_uris":{"android":"levelo://app?vid=05e16fb9-c29b-478d-98b3-025d2b880cd6","ios":"levelo://app?vid=05e16fb9-c29b-478d-98b3-025d2b880cd6"},"vehicle_type_id":"4","last_reported":1768497841,"current_range_meters":7200,"station_id":"","pricing_plan_id":"cebpf4jnsgd1na2vs0mg"},{"bike_id":"55ca926a-74e8-4d75-948c-be9d1d94f87e","system_id":"levelo_inurba_marseille","lat":43.29073,"lon":5.37156,"is_reserved":false,"is_disabled":false,"rental_uris":{"android":"levelo://app?vid=55ca926a-74e8-4d75-948c-be9d1d94f87e","ios":"levelo://app?vid=55ca926a-74e8-4d75-948c-be9d1d94f87e"},"vehicle_type_id":"4","last_reported":1768497841,"current_range_meters":7200,"station_id":"ce4bh5p2rcd13ifvqe4g","pricing_plan_id":"cebpf4jnsgd1na2vs0mg"},{"bike_id":"75422019-3005-404c-b749-06eb292054c7","system_id":"levelo_inurba_marseille","lat":43.24999,"lon":5.38929,"is_reserved":false,"is_disabled":false,"rental_uris":{"android":"levelo://app?vid=75422019-3005-404c-b749-06eb292054c7","ios":"levelo://app?vid=75422019-3005-404c-b749-06eb292054c7"},"vehicle_type_id":"4","last_reported":1768497841,"current_range_meters":7200,"station_id":"ce4bhgp2rcd13ifvqfd0","pricing_plan_id":"cebpf4jnsgd1na2vs0mg"},{"bike_id":"de053820-f473-4d4f-8be6-7eb46f3d1ea3","system_id":"levelo_inurba_marseille","lat":43.31039,"lon":5.39332,"is_reserved":false,"is_disabled":false,"rental_uris":{"android":"levelo://app?vid=de053820-f473-4d4f-8be6-7eb46f3d1ea3","ios":"levelo://app?vid=de053820-f473-4d4f-8be6-7eb46f3d1ea3"},"vehicle_type_id":"4","last_reported":1768497841,"current_range_meters":7200,"station_id":"","pricing_plan_id":"cebpf4jnsgd1na2vs0mg"},{"bike_id":"5d23d321-6b04-488a-b069-ff835b92b3e9","system_id":"levelo_inurba_marseille","lat":43.29163,"lon":5.37168,"is_reserved":false,"is_disabled":false,"rental_uris":{"android":"levelo://app?vid=5d23d321-6b04-488a-b069-ff835b92b3e9","ios":"levelo://app?vid=5d23d321-6b04-488a-b069-ff835b92b3e9"},"vehicle_type_id":"4","last_reported":1768497841,"current_range_meters":7200,"station_id":"ce4bha92rcd13ifvqeh0","pricing_plan_id":"cebpf4jnsgd1na2vs0mg"},{"bike_id":"f4bc8881-cafb-4d21-83b9-8e903d2e8cd8","system_id":"levelo_inurba_marseille","lat":43.33162,"lon":5.37685,"is_reserved":false,"is_disabled":false,"rental_uris":{"android":"levelo://app?vid=f4bc8881-cafb-4d21-83b9-8e903d2e8cd8","ios":"levelo://app?vid=f4bc8881-cafb-4d21-83b9-8e903d2e8cd8"},"vehicle_type_id":"4","last_reported":1768497841,"current_range_meters":7200,"station_id":"st_d46cu089ee8s73dldbu0","pricing_plan_id":"cebpf4jnsgd1na2vs0mg"},{"bike_id":"2ffaf0c9-9016-4c67-8314-b46e32a838a9","system_id":"levelo_inurba_marseille","lat":43.243865,"lon":5.370525,"is_reserved":false,"is_disabled":false,"rental_uris":{"android":"levelo://app?vid=2ffaf0c9-9016-4c67-8314-b46e32a838a9","ios":"levelo://app?vid=2ffaf0c9-9016-4c67-8314-b46e32a838a9"},"vehicle_type_id":"4","last_reported":1768497841,"current_range_meters":7200,"station_id":"ce4bhhh2rcd13ifvqfk0","pricing_plan_id":"cebpf4jnsgd1na2vs0mg"},{"bike_id":"8ea47e76-4d6f-4a78-83f5-ab0a1828073d","system_id":"levelo_inurba_marseille","lat":43.22557,"lon":5.41646,"is_reserved":false,"is_disabled":false,"rental_uris":{"android":"levelo://app?vid=8ea47e76-4d6f-4a78-83f5-ab0a1828073d","ios":"levelo://app?vid=8ea47e76-4d6f-4a78-83f5-ab0a1828073d"},"vehicle_type_id":"4","last_reported":1768497841,"current_range_meters":7200,"station_id":"st_d2o4gvlbi1j2169b742g","pricing_plan_id":"cebpf4jnsgd1na2vs0mg"},{"bike_id":"7a9311fa-fadc-4243-b7da-d05b0b15a747","system_id":"levelo_inurba_marseille","lat":43.26053,"lon":5.39399,"is_reserved":false,"is_disabled":false,"rental_uris":{"android":"levelo://app?vid=7a9311fa-fadc-4243-b7da-d05b0b15a747","ios":"levelo://app?vid=7a9311fa-fadc-4243-b7da-d05b0b15a747"},"vehicle_type_id":"4","last_reported":1768497841,"current_range_meters":7200,"station_id":"ce4bhh92rcd13ifvqfj0","pricing_plan_id":"cebpf4jnsgd1na2vs0mg"},{"bike_id":"a98ea1f7-5de9-495d-9bc6-c9a34468d831","system_id":"levelo_inurba_marseille","lat":43.27834,"lon":5.4074,"is_reserved":false,"is_disabled":true,"rental_uris":{"android":"levelo://app?vid=a98ea1f7-5de9-495d-9bc6-c9a34468d831","ios":"levelo://app?vid=a98ea1f7-5de9-495d-9bc6-c9a34468d831"},"vehicle_type_id":"4","last_reported":1768497841,"current_range_meters":7200,"station_id":"ce4bhnh2rcd13ifvqgtg","pricing_plan_id":"cebpf4jnsgd1na2vs0mg"},{"bike_id":"f6681264-0c23-4057-943f-1af4d2980810","system_id":"levelo_inurba_marseille","lat":43.27409,"lon":5.39022,"is_reserved":false,"is_disabled":false,"rental_uris":{"android":"levelo://app?vid=f6681264-0c23-4057-943f-1af4d2980810","ios":"levelo://app?vid=f6681264-0c23-4057-943f-1af4d2980810"},"vehicle_type_id":"4","last_reported":1768497841,"current_range_meters":7200,"station_id":"","pricing_plan_id":"cebpf4jnsgd1na2vs0mg"},{"bike_id":"9f723a71-81e9-451b-ba91-732dfd8dde9f","system_id":"levelo_inurba_marseille","lat":43.2465,"lon":5.38891,"is_reserved":false,"is_disabled":false,"rental_uris":{"android":"levelo://app?vid=9f723a71-81e9-451b-ba91-732dfd8dde9f","ios":"levelo://app?vid=9f723a71-81e9-451b-ba91-732dfd8dde9f"},"vehicle_type_id":"4","last_reported":1768497841,"current_range_meters":7200,"station_id":"ce4bhg12rcd13ifvqf60","pricing_plan_id":"cebpf4jnsgd1na2vs0mg"},{"bike_id":"d14c563e-7d81-4312-b6b2-f8e7e772a5f6","system_id":"levelo_inurba_marseille","lat":43.24469,"lon":5.42538,"is_reserved":false,"is_disabled":false,"rental_uris":{"android":"levelo://app?vid=d14c563e-7d81-4312-b6b2-f8e7e772a5f6","ios":"levelo://app?vid=d14c563e-7d81-4312-b6b2-f8e7e772a5f6"},"vehicle_type_id":"4","last_reported":1768497841,"current_range_meters":7200,"station_id":"st_d4a3vfp97mjs738cd8kg","pricing_plan_id":"cebpf4jnsgd1na2vs0mg"},{"bike_id":"dc9172d8-3375-487f-951f-1603e61e4fb0","system_id":"levelo_inurba_marseille","lat":43.32286,"lon":5.38277,"is_reserved":false,"is_disabled":false,"rental_uris":{"android":"levelo://app?vid=dc9172d8-3375-487f-951f-1603e61e4fb0","ios":"levelo://app?vid=dc9172d8-3375-487f-951f-1603e61e4fb0"},"vehicle_type_id":"4","last_reported":1768497841,"current_range_meters":8000,"station_id":"ce4bhr12rcd13ifvqhqg","pricing_plan_id":"cebpf4jnsgd1na2vs0mg"},{"bike_id":"1928aed7-d89a-49d9-ac05-7ca26226eed2","system_id":"levelo_inurba_marseille","lat":43.289393,"lon":5.366432,"is_reserved":false,"is_disabled":false,"rental_uris":{"android":"levelo://app?vid=1928aed7-d89a-49d9-ac05-7ca26226eed2","ios":"levelo://app?vid=1928aed7-d89a-49d9-ac05-7ca26226eed2"},"vehicle_type_id":"4","last_reported":1768497841,"current_range_meters":8000,"station_id":"ce4bhap2rcd13ifvqek0","pricing_plan_id":"cebpf4jnsgd1na2vs0mg"},{"bike_id":"a8bdd6a5-2050-4a4f-a20e-af94da53b1ee","system_id":"levelo_inurba_marseille","lat":43.248062,"lon":5.374594,"is_reserved":false,"is_disabled":false,"rental_uris":{"android":"levelo://app?vid=a8bdd6a5-2050-4a4f-a20e-af94da53b1ee","ios":"levelo://app?vid=a8bdd6a5-2050-4a4f-a20e-af94da53b1ee"},"vehicle_type_id":"4","last_reported":1768497841,"current_range_meters":8000,"station_id":"ce4bhgh2rcd13ifvqfb0","pricing_plan_id":"cebpf4jnsgd1na2vs0mg"},{"bike_id":"736ec16a-dc55-4587-9b1c-c917e562c9fe","system_id":"levelo_inurba_marseille","lat":43.25497,"lon":5.37688,"is_reserved":false,"is_disabled":false,"rental_uris":{"android":"levelo://app?vid=736ec16a-dc55-4587-9b1c-c917e562c9fe","ios":"levelo://app?vid=736ec16a-dc55-4587-9b1c-c917e562c9fe"},"vehicle_type_id":"4","last_reported":1768497841,"current_range_meters":8000,"station_id":"ce4bhh12rcd13ifvqff0","pricing_plan_id":"cebpf4jnsgd1na2vs0mg"},{"bike_id":"195cdf0c-c221-4097-9ec2-9dd7407b57b3","system_id":"levelo_inurba_marseille","lat":43.287159,"lon":5.379367,"is_reserved":false,"is_disabled":false,"rental_uris":{"android":"levelo://app?vid=195cdf0c-c221-4097-9ec2-9dd7407b57b3","ios":"levelo://app?vid=195cdf0c-c221-4097-9ec2-9dd7407b57b3"},"vehicle_type_id":"4","last_reported":1768497841,"current_range_meters":8000,"station_id":"ce4bh9p2rcd13ifvqec0","pricing_plan_id":"cebpf4jnsgd1na2vs0mg"},{"bike_id":"311fd6a9-6bc8-41d0-ac40-a89fb207f919","system_id":"levelo_inurba_marseille","lat":43.26951,"lon":5.40258,"is_reserved":false,"is_disabled":false,"rental_uris":{"android":"levelo://app?vid=311fd6a9-6bc8-41d0-ac40-a89fb207f919","ios":"levelo://app?vid=311fd6a9-6bc8-41d0-ac40-a89fb207f919"},"vehicle_type_id":"4","last_reported":1768497841,"current_range_meters":8000,"station_id":"cjm6bp8fraef2m0cb0m0","pricing_plan_id":"cebpf4jnsgd1na2vs0mg"},{"bike_id":"0cd1e779-26e9-49c5-b773-f088de1cb9ab","system_id":"levelo_inurba_marseille","lat":43.26066,"lon":5.38523,"is_reserved":false,"is_disabled":false,"rental_uris":{"android":"levelo://app?vid=0cd1e779-26e9-49c5-b773-f088de1cb9ab","ios":"levelo://app?vid=0cd1e779-26e9-49c5-b773-f088de1cb9ab"},"vehicle_type_id":"4","last_reported":1768497841,"current_range_meters":8000,"station_id":"","pricing_plan_id":"cebpf4jnsgd1na2vs0mg"},{"bike_id":"fbca656e-02c6-47d2-8a61-af26f7f00021","system_id":"levelo_inurba_marseille","lat":43.25861,"lon":5.39907,"is_reserved":false,"is_disabled":false,"rental_uris":{"android":"levelo://app?vid=fbca656e-02c6-47d2-8a61-af26f7f00021","ios":"levelo://app?vid=fbca656e-02c6-47d2-8a61-af26f7f00021"},"vehicle_type_id":"4","last_reported":1768497841,"current_range_meters":8000,"station_id":"ce4bhl92rcd13ifvqghg","pricing_plan_id":"cebpf4jnsgd1na2vs0mg"},{"bike_id":"dbcf6ef4-a784-430e-9991-3e608cc1669e","system_id":"levelo_inurba_marseille","lat":43.22563,"lon":5.41634,"is_reserved":false,"is_disabled":false,"rental_uris":{"android":"levelo://app?vid=dbcf6ef4-a784-430e-9991-3e608cc1669e","ios":"levelo://app?vid=dbcf6ef4-a784-430e-9991-3e608cc1669e"},"vehicle_type_id":"4","last_reported":1768497841,"current_range_meters":8000,"station_id":"st_d2o4gvlbi1j2169b742g","pricing_plan_id":"cebpf4jnsgd1na2vs0mg"},{"bike_id":"4f71435e-9f66-45a6-b444-ab3ea4eefd65","system_id":"levelo_inurba_marseille","lat":43.26562,"lon":5.40322,"is_reserved":false,"is_disabled":false,"rental_uris":{"android":"levelo://app?vid=4f71435e-9f66-45a6-b444-ab3ea4eefd65","ios":"levelo://app?vid=4f71435e-9f66-45a6-b444-ab3ea4eefd65"},"vehicle_type_id":"4","last_reported":1768497841,"current_range_meters":8000,"station_id":"ce4bhmp2rcd13ifvqgng","pricing_plan_id":"cebpf4jnsgd1na2vs0mg"},{"bike_id":"d5da8c5d-f223-47a2-82a8-97bc3f77a232","system_id":"levelo_inurba_marseille","lat":43.27556,"lon":5.3842,"is_reserved":false,"is_disabled":false,"rental_uris":{"android":"levelo://app?vid=d5da8c5d-f223-47a2-82a8-97bc3f77a232","ios":"levelo://app?vid=d5da8c5d-f223-47a2-82a8-97bc3f77a232"},"vehicle_type_id":"4","last_reported":1768497841,"current_range_meters":8000,"station_id":"ce4bhh92rcd13ifvqfi0","pricing_plan_id":"cebpf4jnsgd1na2vs0mg"},{"bike_id":"7eedaf4f-655c-4afc-b28a-f546048e11bf","system_id":"levelo_inurba_marseille","lat":43.29877,"lon":5.37674,"is_reserved":false,"is_disabled":false,"rental_uris":{"android":"levelo://app?vid=7eedaf4f-655c-4afc-b28a-f546048e11bf","ios":"levelo://app?vid=7eedaf4f-655c-4afc-b28a-f546048e11bf"},"vehicle_type_id":"4","last_reported":1768497841,"current_range_meters":8000,"station_id":"","pricing_plan_id":"cebpf4jnsgd1na2vs0mg"},{"bike_id":"89166432-a97b-49a2-8638-26a28937b8a4","system_id":"levelo_inurba_marseille","lat":43.30138,"lon":5.38777,"is_reserved":false,"is_disabled":false,"rental_uris":{"android":"levelo://app?vid=89166432-a97b-49a2-8638-26a28937b8a4","ios":"levelo://app?vid=89166432-a97b-49a2-8638-26a28937b8a4"},"vehicle_type_id":"4","last_reported":1768497841,"current_range_meters":8000,"station_id":"ce4bghh2rcd13ifvqb60","pricing_plan_id":"cebpf4jnsgd1na2vs0mg"},{"bike_id":"41f2c66d-225b-4c9d-afb1-667ed56334e5","system_id":"levelo_inurba_marseille","lat":43.31704,"lon":5.40463,"is_reserved":false,"is_disabled":false,"rental_uris":{"android":"levelo://app?vid=41f2c66d-225b-4c9d-afb1-667ed56334e5","ios":"levelo://app?vid=41f2c66d-225b-4c9d-afb1-667ed56334e5"},"vehicle_type_id":"4","last_reported":1768497841,"current_range_meters":8000,"station_id":"ce4bh012rcd13ifvqd00","pricing_plan_id":"cebpf4jnsgd1na2vs0mg"},{"bike_id":"95ada5cd-ee56-4e56-9a72-ac2de36f3aef","system_id":"levelo_inurba_marseille","lat":43.28259,"lon":5.35085,"is_reserved":false,"is_disabled":false,"rental_uris":{"android":"levelo://app?vid=95ada5cd-ee56-4e56-9a72-ac2de36f3aef","ios":"levelo://app?vid=95ada5cd-ee56-4e56-9a72-ac2de36f3aef"},"vehicle_type_id":"4","last_reported":1768497841,"current_range_meters":8000,"station_id":"ce4bhbp2rcd13ifvqerg","pricing_plan_id":"cebpf4jnsgd1na2vs0mg"},{"bike_id":"5c91d87f-943a-4ae7-a47e-d03ded27d073","system_id":"levelo_inurba_marseille","lat":43.303793,"lon":5.418798,"is_reserved":false,"is_disabled":false,"rental_uris":{"android":"levelo://app?vid=5c91d87f-943a-4ae7-a47e-d03ded27d073","ios":"levelo://app?vid=5c91d87f-943a-4ae7-a47e-d03ded27d073"},"vehicle_type_id":"4","last_reported":1768497841,"current_range_meters":8000,"station_id":"ce4bha92rcd13ifvqeh0","pricing_plan_id":"cebpf4jnsgd1na2vs0mg"},{"bike_id":"f0f77a0a-fb63-466f-8221-ca4aa28e90e6","system_id":"levelo_inurba_marseille","lat":43.24802,"lon":5.37453,"is_reserved":false,"is_disabled":false,"rental_uris":{"android":"levelo://app?vid=f0f77a0a-fb63-466f-8221-ca4aa28e90e6","ios":"levelo://app?vid=f0f77a0a-fb63-466f-8221-ca4aa28e90e6"},"vehicle_type_id":"4","last_reported":1768497841,"current_range_meters":8400,"station_id":"ce4bhgh2rcd13ifvqfb0","pricing_plan_id":"cebpf4jnsgd1na2vs0mg"},{"bike_id":"9798252a-9361-46ce-9695-59458b1329bc","system_id":"levelo_inurba_marseille","lat":43.23188,"lon":5.3556,"is_reserved":false,"is_disabled":false,"rental_uris":{"android":"levelo://app?vid=9798252a-9361-46ce-9695-59458b1329bc","ios":"levelo://app?vid=9798252a-9361-46ce-9695-59458b1329bc"},"vehicle_type_id":"4","last_reported":1768497841,"current_range_meters":8400,"station_id":"ce4bhu92rcd13ifvqi70","pricing_plan_id":"cebpf4jnsgd1na2vs0mg"},{"bike_id":"fe760492-f7f6-4e9b-8605-bd507140d798","system_id":"levelo_inurba_marseille","lat":43.301213,"lon":5.431132,"is_reserved":false,"is_disabled":false,"rental_uris":{"android":"levelo://app?vid=fe760492-f7f6-4e9b-8605-bd507140d798","ios":"levelo://app?vid=fe760492-f7f6-4e9b-8605-bd507140d798"},"vehicle_type_id":"4","last_reported":1768497841,"current_range_meters":8400,"station_id":"st_d3js3co5814s73ftftug","pricing_plan_id":"cebpf4jnsgd1na2vs0mg"},{"bike_id":"f2c787eb-1b36-4e92-b487-3132386b8e37","system_id":"levelo_inurba_marseille","lat":43.248086,"lon":5.37455,"is_reserved":false,"is_disabled":false,"rental_uris":{"android":"levelo://app?vid=f2c787eb-1b36-4e92-b487-3132386b8e37","ios":"levelo://app?vid=f2c787eb-1b36-4e92-b487-3132386b8e37"},"vehicle_type_id":"4","last_reported":1768497841,"current_range_meters":8400,"station_id":"ce4bhgh2rcd13ifvqfb0","pricing_plan_id":"cebpf4jnsgd1na2vs0mg"},{"bike_id":"599cc64d-7492-4f45-b2f5-312b0bd4aa12","system_id":"levelo_inurba_marseille","lat":43.28466,"lon":5.35884,"is_reserved":false,"is_disabled":false,"rental_uris":{"android":"levelo://app?vid=599cc64d-7492-4f45-b2f5-312b0bd4aa12","ios":"levelo://app?vid=599cc64d-7492-4f45-b2f5-312b0bd4aa12"},"vehicle_type_id":"4","last_reported":1768497841,"current_range_meters":8400,"station_id":"ce4bhah2rcd13ifvqei0","pricing_plan_id":"cebpf4jnsgd1na2vs0mg"},{"bike_id":"c242e646-f282-457f-a670-771ea65dbddf","system_id":"levelo_inurba_marseille","lat":43.321004,"lon":5.367788,"is_reserved":false,"is_disabled":false,"rental_uris":{"android":"levelo://app?vid=c242e646-f282-457f-a670-771ea65dbddf","ios":"levelo://app?vid=c242e646-f282-457f-a670-771ea65dbddf"},"vehicle_type_id":"4","last_reported":1768497841,"current_range_meters":8400,"station_id":"ce4bhrh2rcd13ifvqhug","pricing_plan_id":"cebpf4jnsgd1na2vs0mg"},{"bike_id":"d2d2d908-ffb6-4c0a-97f2-e5e034e39816","system_id":"levelo_inurba_marseille","lat":43.27932,"lon":5.40405,"is_reserved":false,"is_disabled":false,"rental_uris":{"android":"levelo://app?vid=d2d2d908-ffb6-4c0a-97f2-e5e034e39816","ios":"levelo://app?vid=d2d2d908-ffb6-4c0a-97f2-e5e034e39816"},"vehicle_type_id":"4","last_reported":1768497841,"current_range_meters":8400,"station_id":"","pricing_plan_id":"cebpf4jnsgd1na2vs0mg"},{"bike_id":"753ccbc1-bc1b-4429-8a43-0dcf4c26b7fc","system_id":"levelo_inurba_marseille","lat":43.3316,"lon":5.37709,"is_reserved":false,"is_disabled":false,"rental_uris":{"android":"levelo://app?vid=753ccbc1-bc1b-4429-8a43-0dcf4c26b7fc","ios":"levelo://app?vid=753ccbc1-bc1b-4429-8a43-0dcf4c26b7fc"},"vehicle_type_id":"4","last_reported":1768497841,"current_range_meters":8400,"station_id":"st_d46cu089ee8s73dldbu0","pricing_plan_id":"cebpf4jnsgd1na2vs0mg"},{"bike_id":"0fe23f40-caad-46ad-b558-32f62e0f76ac","system_id":"levelo_inurba_marseille","lat":43.31125,"lon":5.3982,"is_reserved":false,"is_disabled":false,"rental_uris":{"android":"levelo://app?vid=0fe23f40-caad-46ad-b558-32f62e0f76ac","ios":"levelo://app?vid=0fe23f40-caad-46ad-b558-32f62e0f76ac"},"vehicle_type_id":"4","last_reported":1768497841,"current_range_meters":8400,"station_id":"","pricing_plan_id":"cebpf4jnsgd1na2vs0mg"},{"bike_id":"e5aa787f-c7e4-4b02-b6ed-ac65ac7744ea","system_id":"levelo_inurba_marseille","lat":43.23192,"lon":5.39995,"is_reserved":false,"is_disabled":false,"rental_uris":{"android":"levelo://app?vid=e5aa787f-c7e4-4b02-b6ed-ac65ac7744ea","ios":"levelo://app?vid=e5aa787f-c7e4-4b02-b6ed-ac65ac7744ea"},"vehicle_type_id":"4","last_reported":1768497841,"current_range_meters":8400,"station_id":"ce4bhn12rcd13ifvqgqg","pricing_plan_id":"cebpf4jnsgd1na2vs0mg"},{"bike_id":"8a9c8e19-0485-48d1-8b64-257ddb3efc73","system_id":"levelo_inurba_marseille","lat":43.29919,"lon":5.37478,"is_reserved":false,"is_disabled":false,"rental_uris":{"android":"levelo://app?vid=8a9c8e19-0485-48d1-8b64-257ddb3efc73","ios":"levelo://app?vid=8a9c8e19-0485-48d1-8b64-257ddb3efc73"},"vehicle_type_id":"4","last_reported":1768497841,"current_range_meters":8400,"station_id":"","pricing_plan_id":"cebpf4jnsgd1na2vs0mg"},{"bike_id":"5be52990-7c0d-470e-bcfb-8b526cbd244d","system_id":"levelo_inurba_marseille","lat":43.290039,"lon":5.356186,"is_reserved":false,"is_disabled":false,"rental_uris":{"android":"levelo://app?vid=5be52990-7c0d-470e-bcfb-8b526cbd244d","ios":"levelo://app?vid=5be52990-7c0d-470e-bcfb-8b526cbd244d"},"vehicle_type_id":"4","last_reported":1768497841,"current_range_meters":8400,"station_id":"ce4bhb92rcd13ifvqen0","pricing_plan_id":"cebpf4jnsgd1na2vs0mg"},{"bike_id":"a64862b7-7fb6-4e06-afb6-d51a9970bf2e","system_id":"levelo_inurba_marseille","lat":43.24806,"lon":5.37456,"is_reserved":false,"is_disabled":false,"rental_uris":{"android":"levelo://app?vid=a64862b7-7fb6-4e06-afb6-d51a9970bf2e","ios":"levelo://app?vid=a64862b7-7fb6-4e06-afb6-d51a9970bf2e"},"vehicle_type_id":"4","last_reported":1768497841,"current_range_meters":8400,"station_id":"ce4bhgh2rcd13ifvqfb0","pricing_plan_id":"cebpf4jnsgd1na2vs0mg"},{"bike_id":"3b06d8ac-0c0e-4815-baae-3f6b7bfae72e","system_id":"levelo_inurba_marseille","lat":43.34164,"lon":5.36048,"is_reserved":false,"is_disabled":false,"rental_uris":{"android":"levelo://app?vid=3b06d8ac-0c0e-4815-baae-3f6b7bfae72e","ios":"levelo://app?vid=3b06d8ac-0c0e-4815-baae-3f6b7bfae72e"},"vehicle_type_id":"4","last_reported":1768497841,"current_range_meters":8400,"station_id":"","pricing_plan_id":"cebpf4jnsgd1na2vs0mg"},{"bike_id":"d573dea0-84f2-4278-9343-3e80901c823b","system_id":"levelo_inurba_marseille","lat":43.31506,"lon":5.37866,"is_reserved":false,"is_disabled":false,"rental_uris":{"android":"levelo://app?vid=d573dea0-84f2-4278-9343-3e80901c823b","ios":"levelo://app?vid=d573dea0-84f2-4278-9343-3e80901c823b"},"vehicle_type_id":"4","last_reported":1768497841,"current_range_meters":8400,"station_id":"","pricing_plan_id":"cebpf4jnsgd1na2vs0mg"},{"bike_id":"8782c85b-4cd2-4d16-816f-ea9c0e380452","system_id":"levelo_inurba_marseille","lat":43.28113,"lon":5.40433,"is_reserved":false,"is_disabled":false,"rental_uris":{"android":"levelo://app?vid=8782c85b-4cd2-4d16-816f-ea9c0e380452","ios":"levelo://app?vid=8782c85b-4cd2-4d16-816f-ea9c0e380452"},"vehicle_type_id":"4","last_reported":1768497841,"current_range_meters":8400,"station_id":"","pricing_plan_id":"cebpf4jnsgd1na2vs0mg"},{"bike_id":"2679b503-6f51-4017-ab95-bd7c00586482","system_id":"levelo_inurba_marseille","lat":43.28857,"lon":5.35857,"is_reserved":false,"is_disabled":false,"rental_uris":{"android":"levelo://app?vid=2679b503-6f51-4017-ab95-bd7c00586482","ios":"levelo://app?vid=2679b503-6f51-4017-ab95-bd7c00586482"},"vehicle_type_id":"4","last_reported":1768497841,"current_range_meters":8400,"station_id":"ce4bhb12rcd13ifvqem0","pricing_plan_id":"cebpf4jnsgd1na2vs0mg"},{"bike_id":"5379f5ed-da06-4adb-b823-51e71e531df4","system_id":"levelo_inurba_marseille","lat":43.24631,"lon":5.4315,"is_reserved":false,"is_disabled":false,"rental_uris":{"android":"levelo://app?vid=5379f5ed-da06-4adb-b823-51e71e531df4","ios":"levelo://app?vid=5379f5ed-da06-4adb-b823-51e71e531df4"},"vehicle_type_id":"4","last_reported":1768497841,"current_range_meters":8400,"station_id":"st_d2m6c4gdas8pm72e190g","pricing_plan_id":"cebpf4jnsgd1na2vs0mg"},{"bike_id":"7465de0c-3252-438c-a1d0-10a150ee4d72","system_id":"levelo_inurba_marseille","lat":43.22936,"lon":5.35378,"is_reserved":false,"is_disabled":false,"rental_uris":{"android":"levelo://app?vid=7465de0c-3252-438c-a1d0-10a150ee4d72","ios":"levelo://app?vid=7465de0c-3252-438c-a1d0-10a150ee4d72"},"vehicle_type_id":"4","last_reported":1768497841,"current_range_meters":8400,"station_id":"cpo3532slgdg3j2ikp40","pricing_plan_id":"cebpf4jnsgd1na2vs0mg"},{"bike_id":"bab07f90-2c35-46c0-b940-8cf794150a22","system_id":"levelo_inurba_marseille","lat":43.26563,"lon":5.39011,"is_reserved":false,"is_disabled":false,"rental_uris":{"android":"levelo://app?vid=bab07f90-2c35-46c0-b940-8cf794150a22","ios":"levelo://app?vid=bab07f90-2c35-46c0-b940-8cf794150a22"},"vehicle_type_id":"4","last_reported":1768497841,"current_range_meters":8400,"station_id":"ce4bhe12rcd13ifvqf30","pricing_plan_id":"cebpf4jnsgd1na2vs0mg"},{"bike_id":"8ac29141-6985-4b16-8504-2238bb54b54a","system_id":"levelo_inurba_marseille","lat":43.243892,"lon":5.370598,"is_reserved":false,"is_disabled":false,"rental_uris":{"android":"levelo://app?vid=8ac29141-6985-4b16-8504-2238bb54b54a","ios":"levelo://app?vid=8ac29141-6985-4b16-8504-2238bb54b54a"},"vehicle_type_id":"4","last_reported":1768497841,"current_range_meters":8800,"station_id":"ce4bhhh2rcd13ifvqfk0","pricing_plan_id":"cebpf4jnsgd1na2vs0mg"},{"bike_id":"ebcf6039-9112-431f-ab62-d4b37e6ca05a","system_id":"levelo_inurba_marseille","lat":43.31722,"lon":5.42397,"is_reserved":false,"is_disabled":false,"rental_uris":{"android":"levelo://app?vid=ebcf6039-9112-431f-ab62-d4b37e6ca05a","ios":"levelo://app?vid=ebcf6039-9112-431f-ab62-d4b37e6ca05a"},"vehicle_type_id":"4","last_reported":1768497841,"current_range_meters":8800,"station_id":"ce4bhp92rcd13ifvqhbg","pricing_plan_id":"cebpf4jnsgd1na2vs0mg"},{"bike_id":"d10c0024-e2ec-401f-bf30-95042a990a73","system_id":"levelo_inurba_marseille","lat":43.28115,"lon":5.42601,"is_reserved":false,"is_disabled":false,"rental_uris":{"android":"levelo://app?vid=d10c0024-e2ec-401f-bf30-95042a990a73","ios":"levelo://app?vid=d10c0024-e2ec-401f-bf30-95042a990a73"},"vehicle_type_id":"4","last_reported":1768497841,"current_range_meters":8800,"station_id":"","pricing_plan_id":"cebpf4jnsgd1na2vs0mg"},{"bike_id":"7163724e-7d88-4ab5-909f-51d27f65f7d8","system_id":"levelo_inurba_marseille","lat":43.28531,"lon":5.44099,"is_reserved":false,"is_disabled":false,"rental_uris":{"android":"levelo://app?vid=7163724e-7d88-4ab5-909f-51d27f65f7d8","ios":"levelo://app?vid=7163724e-7d88-4ab5-909f-51d27f65f7d8"},"vehicle_type_id":"4","last_reported":1768497841,"current_range_meters":8800,"station_id":"st_d3j3df2ikq2c7380ej80","pricing_plan_id":"cebpf4jnsgd1na2vs0mg"},{"bike_id":"86430984-52a8-4294-bf9b-e390e1fe3299","system_id":"levelo_inurba_marseille","lat":43.26929,"lon":5.38929,"is_reserved":false,"is_disabled":false,"rental_uris":{"android":"levelo://app?vid=86430984-52a8-4294-bf9b-e390e1fe3299","ios":"levelo://app?vid=86430984-52a8-4294-bf9b-e390e1fe3299"},"vehicle_type_id":"4","last_reported":1768497841,"current_range_meters":8800,"station_id":"ce4bhhh2rcd13ifvqfl0","pricing_plan_id":"cebpf4jnsgd1na2vs0mg"},{"bike_id":"04445095-b038-41a3-a0ad-fec8f36b4c83","system_id":"levelo_inurba_marseille","lat":43.258196,"lon":5.394387,"is_reserved":false,"is_disabled":false,"rental_uris":{"android":"levelo://app?vid=04445095-b038-41a3-a0ad-fec8f36b4c83","ios":"levelo://app?vid=04445095-b038-41a3-a0ad-fec8f36b4c83"},"vehicle_type_id":"4","last_reported":1768497841,"current_range_meters":8800,"station_id":"ce4bhip2rcd13ifvqft0","pricing_plan_id":"cebpf4jnsgd1na2vs0mg"},{"bike_id":"a6efb7b3-8c44-4a6c-92e4-ed7eb57f41e2","system_id":"levelo_inurba_marseille","lat":43.28442,"lon":5.36743,"is_reserved":false,"is_disabled":false,"rental_uris":{"android":"levelo://app?vid=a6efb7b3-8c44-4a6c-92e4-ed7eb57f41e2","ios":"levelo://app?vid=a6efb7b3-8c44-4a6c-92e4-ed7eb57f41e2"},"vehicle_type_id":"4","last_reported":1768497841,"current_range_meters":8800,"station_id":"","pricing_plan_id":"cebpf4jnsgd1na2vs0mg"},{"bike_id":"76ccc45f-eecb-4b66-a683-3de8756449f2","system_id":"levelo_inurba_marseille","lat":43.311584,"lon":5.387274,"is_reserved":false,"is_disabled":false,"rental_uris":{"android":"levelo://app?vid=76ccc45f-eecb-4b66-a683-3de8756449f2","ios":"levelo://app?vid=76ccc45f-eecb-4b66-a683-3de8756449f2"},"vehicle_type_id":"4","last_reported":1768497841,"current_range_meters":8800,"station_id":"ce4bgv12rcd13ifvqcp0","pricing_plan_id":"cebpf4jnsgd1na2vs0mg"},{"bike_id":"dcba5e0d-8e79-44d0-8827-5e7dfb547664","system_id":"levelo_inurba_marseille","lat":43.285355,"lon":5.441081,"is_reserved":false,"is_disabled":false,"rental_uris":{"android":"levelo://app?vid=dcba5e0d-8e79-44d0-8827-5e7dfb547664","ios":"levelo://app?vid=dcba5e0d-8e79-44d0-8827-5e7dfb547664"},"vehicle_type_id":"4","last_reported":1768497841,"current_range_meters":8800,"station_id":"st_d3j3df2ikq2c7380ej80","pricing_plan_id":"cebpf4jnsgd1na2vs0mg"},{"bike_id":"6b8adf29-789b-4fef-8989-1f317427262b","system_id":"levelo_inurba_marseille","lat":43.30923,"lon":5.36866,"is_reserved":false,"is_disabled":false,"rental_uris":{"android":"levelo://app?vid=6b8adf29-789b-4fef-8989-1f317427262b","ios":"levelo://app?vid=6b8adf29-789b-4fef-8989-1f317427262b"},"vehicle_type_id":"4","last_reported":1768497841,"current_range_meters":8800,"station_id":"ce4bgn92rcd13ifvqbvg","pricing_plan_id":"cebpf4jnsgd1na2vs0mg"},{"bike_id":"13c7c20f-0feb-4e4c-b067-68cfe4794af8","system_id":"levelo_inurba_marseille","lat":43.28871,"lon":5.38426,"is_reserved":false,"is_disabled":false,"rental_uris":{"android":"levelo://app?vid=13c7c20f-0feb-4e4c-b067-68cfe4794af8","ios":"levelo://app?vid=13c7c20f-0feb-4e4c-b067-68cfe4794af8"},"vehicle_type_id":"4","last_reported":1768497841,"current_range_meters":8800,"station_id":"","pricing_plan_id":"cebpf4jnsgd1na2vs0mg"},{"bike_id":"436eadf7-ff16-4732-946c-e33568d77044","system_id":"levelo_inurba_marseille","lat":43.27826,"lon":5.40709,"is_reserved":false,"is_disabled":false,"rental_uris":{"android":"levelo://app?vid=436eadf7-ff16-4732-946c-e33568d77044","ios":"levelo://app?vid=436eadf7-ff16-4732-946c-e33568d77044"},"vehicle_type_id":"4","last_reported":1768497841,"current_range_meters":8800,"station_id":"ce4bhnh2rcd13ifvqgtg","pricing_plan_id":"cebpf4jnsgd1na2vs0mg"},{"bike_id":"0ce3cc02-2962-4286-804f-4dc1590de945","system_id":"levelo_inurba_marseille","lat":43.25575,"lon":5.38234,"is_reserved":false,"is_disabled":false,"rental_uris":{"android":"levelo://app?vid=0ce3cc02-2962-4286-804f-4dc1590de945","ios":"levelo://app?vid=0ce3cc02-2962-4286-804f-4dc1590de945"},"vehicle_type_id":"4","last_reported":1768497841,"current_range_meters":8800,"station_id":"ce4bhih2rcd13ifvqfs0","pricing_plan_id":"cebpf4jnsgd1na2vs0mg"},{"bike_id":"2feea6da-16f8-4530-b8c8-54959725e67d","system_id":"levelo_inurba_marseille","lat":43.24809,"lon":5.37455,"is_reserved":false,"is_disabled":false,"rental_uris":{"android":"levelo://app?vid=2feea6da-16f8-4530-b8c8-54959725e67d","ios":"levelo://app?vid=2feea6da-16f8-4530-b8c8-54959725e67d"},"vehicle_type_id":"4","last_reported":1768497841,"current_range_meters":8800,"station_id":"ce4bhgh2rcd13ifvqfb0","pricing_plan_id":"cebpf4jnsgd1na2vs0mg"},{"bike_id":"e80cd4b9-49c2-4c4e-8725-62995e08c2ff","system_id":"levelo_inurba_marseille","lat":43.2781,"lon":5.40716,"is_reserved":false,"is_disabled":false,"rental_uris":{"android":"levelo://app?vid=e80cd4b9-49c2-4c4e-8725-62995e08c2ff","ios":"levelo://app?vid=e80cd4b9-49c2-4c4e-8725-62995e08c2ff"},"vehicle_type_id":"4","last_reported":1768497841,"current_range_meters":8800,"station_id":"ce4bhnh2rcd13ifvqgtg","pricing_plan_id":"cebpf4jnsgd1na2vs0mg"},{"bike_id":"20b041ae-5c2c-4445-a9a6-c071c7402c9b","system_id":"levelo_inurba_marseille","lat":43.29708,"lon":5.36619,"is_reserved":false,"is_disabled":false,"rental_uris":{"android":"levelo://app?vid=20b041ae-5c2c-4445-a9a6-c071c7402c9b","ios":"levelo://app?vid=20b041ae-5c2c-4445-a9a6-c071c7402c9b"},"vehicle_type_id":"4","last_reported":1768497841,"current_range_meters":8800,"station_id":"ce4bgn12rcd13ifvqbt0","pricing_plan_id":"cebpf4jnsgd1na2vs0mg"},{"bike_id":"6abf8a46-f540-4848-8617-65edd2aabe92","system_id":"levelo_inurba_marseille","lat":43.31773,"lon":5.39739,"is_reserved":false,"is_disabled":false,"rental_uris":{"android":"levelo://app?vid=6abf8a46-f540-4848-8617-65edd2aabe92","ios":"levelo://app?vid=6abf8a46-f540-4848-8617-65edd2aabe92"},"vehicle_type_id":"4","last_reported":1768497841,"current_range_meters":8800,"station_id":"","pricing_plan_id":"cebpf4jnsgd1na2vs0mg"},{"bike_id":"5291f3d8-0803-4f3a-8dc1-7ab7065c5f36","system_id":"levelo_inurba_marseille","lat":43.2656,"lon":5.39006,"is_reserved":false,"is_disabled":false,"rental_uris":{"android":"levelo://app?vid=5291f3d8-0803-4f3a-8dc1-7ab7065c5f36","ios":"levelo://app?vid=5291f3d8-0803-4f3a-8dc1-7ab7065c5f36"},"vehicle_type_id":"4","last_reported":1768497841,"current_range_meters":8800,"station_id":"ce4bhe12rcd13ifvqf30","pricing_plan_id":"cebpf4jnsgd1na2vs0mg"},{"bike_id":"90218040-6582-4aa2-8913-05c76010fcbf","system_id":"levelo_inurba_marseille","lat":43.23786,"lon":5.36642,"is_reserved":false,"is_disabled":false,"rental_uris":{"android":"levelo://app?vid=90218040-6582-4aa2-8913-05c76010fcbf","ios":"levelo://app?vid=90218040-6582-4aa2-8913-05c76010fcbf"},"vehicle_type_id":"4","last_reported":1768497841,"current_range_meters":8800,"station_id":"st_d3nk18o9ro0c73en2l3g","pricing_plan_id":"cebpf4jnsgd1na2vs0mg"},{"bike_id":"37faa26e-f328-4315-a505-4a796c4b29c7","system_id":"levelo_inurba_marseille","lat":43.3143,"lon":5.36967,"is_reserved":false,"is_disabled":true,"rental_uris":{"android":"levelo://app?vid=37faa26e-f328-4315-a505-4a796c4b29c7","ios":"levelo://app?vid=37faa26e-f328-4315-a505-4a796c4b29c7"},"vehicle_type_id":"4","last_reported":1768497841,"current_range_meters":9200,"station_id":"","pricing_plan_id":"cebpf4jnsgd1na2vs0mg"},{"bike_id":"f453663f-1a0f-42e4-b339-7ae16233dc9e","system_id":"levelo_inurba_marseille","lat":43.25583,"lon":5.3823,"is_reserved":false,"is_disabled":false,"rental_uris":{"android":"levelo://app?vid=f453663f-1a0f-42e4-b339-7ae16233dc9e","ios":"levelo://app?vid=f453663f-1a0f-42e4-b339-7ae16233dc9e"},"vehicle_type_id":"4","last_reported":1768497841,"current_range_meters":9200,"station_id":"ce4bhih2rcd13ifvqfs0","pricing_plan_id":"cebpf4jnsgd1na2vs0mg"},{"bike_id":"38c3b80e-0308-46b2-9a29-2654b96d87d9","system_id":"levelo_inurba_marseille","lat":43.29992,"lon":5.37274,"is_reserved":false,"is_disabled":false,"rental_uris":{"android":"levelo://app?vid=38c3b80e-0308-46b2-9a29-2654b96d87d9","ios":"levelo://app?vid=38c3b80e-0308-46b2-9a29-2654b96d87d9"},"vehicle_type_id":"4","last_reported":1768497841,"current_range_meters":9200,"station_id":"","pricing_plan_id":"cebpf4jnsgd1na2vs0mg"},{"bike_id":"0aaffd21-6317-47b2-85da-6b9bfa421a46","system_id":"levelo_inurba_marseille","lat":43.29824,"lon":5.37664,"is_reserved":false,"is_disabled":false,"rental_uris":{"android":"levelo://app?vid=0aaffd21-6317-47b2-85da-6b9bfa421a46","ios":"levelo://app?vid=0aaffd21-6317-47b2-85da-6b9bfa421a46"},"vehicle_type_id":"4","last_reported":1768497841,"current_range_meters":9200,"station_id":"","pricing_plan_id":"cebpf4jnsgd1na2vs0mg"},{"bike_id":"402c254a-8482-40a9-8598-b52a02763541","system_id":"levelo_inurba_marseille","lat":43.24981,"lon":5.3897,"is_reserved":false,"is_disabled":false,"rental_uris":{"android":"levelo://app?vid=402c254a-8482-40a9-8598-b52a02763541","ios":"levelo://app?vid=402c254a-8482-40a9-8598-b52a02763541"},"vehicle_type_id":"4","last_reported":1768497841,"current_range_meters":9200,"station_id":"ce4bhgp2rcd13ifvqfd0","pricing_plan_id":"cebpf4jnsgd1na2vs0mg"},