{"last_updated":1736442512,"ttl":60,"version":"2.2","data":{"bikes":[{"bike_id":"175eb1ed-57de-42b2-9775-f5cfa15929a6","system_id":"levelo_inurba_marseille","lat":43.27068,"lon":5.42286,"is_reserved":false,"is_disabled":false,"rental_uris":{"android":"levelo://app?vid=175eb1ed-57de-42b2-9775-f5cfa15929a6","ios":"levelo://app?vid=175eb1ed-57de-42b2-9775-f5cfa15929a6"},"vehicle_type_id":"4","last_reported":1736442512,"current_range_meters":35600,"station_id":"ce4bhk92rcd13ifvqgb0","pricing_plan_id":"cebpf4jnsgd1na2vs0mg"},{"bike_id":"452cd929-9f46-45c7-84ee-5aa82d70cce0","system_id":"levelo_inurba_marseille","lat":43.31165,"lon":5.38719,"is_reserved":false,"is_disabled":false,"rental_uris":{"android":"levelo://app?vid=452cd929-9f46-45c7-84ee-5aa82d70cce0","ios":"levelo://app?vid=452cd929-9f46-45c7-84ee-5aa82d70cce0"},"vehicle_type_id":"4","last_reported":1736442512,"current_range_meters":37600,"station_id":"ce4bgv12rcd13ifvqcp0","pricing_plan_id":"cebpf4jnsgd1na2vs0mg"},{"bike_id":"0d5fd85b-fa8e-4af5-bce7-42c80f3e8027","system_id":"levelo_inurba_marseille","lat":43.32331,"lon":5.40619,"is_reserved":false,"is_disabled":false,"rental_uris":{"android":"levelo://app?vid=0d5fd85b-fa8e-4af5-bce7-42c80f3e8027","ios":"levelo://app?vid=0d5fd85b-fa8e-4af5-bce7-42c80f3e8027"},"vehicle_type_id":"4","last_reported":1736442512,"current_range_meters":38400,"station_id":"ce4bhq92rcd13ifvqhjg","pricing_plan_id":"cebpf4jnsgd1na2vs0mg"},{"bike_id":"87c59741-1f05-4e3d-8c14-38f01f8816a9","system_id":"levelo_inurba_marseille","lat":43.23205,"lon":5.35545,"is_reserved":false,"is_disabled":false,"rental_uris":{"android":"levelo://app?vid=87c59741-1f05-4e3d-8c14-38f01f8816a9","ios":"levelo://app?vid=87c59741-1f05-4e3d-8c14-38f01f8816a9"},"vehicle_type_id":"4","last_reported":1736442512,"current_range_meters":14800,"station_id":"ce4bhu92rcd13ifvqi70","pricing_plan_id":"cebpf4jnsgd1na2vs0mg"},{"bike_id":"e3ed715f-8540-4a0c-8d1a-84fadaf0dd0f","system_id":"levelo_inurba_marseille","lat":43.34159,"lon":5.37759,"is_reserved":false,"is_disabled":false,"rental_uris":{"android":"levelo://app?vid=e3ed715f-8540-4a0c-8d1a-84fadaf0dd0f","ios":"levelo://app?vid=e3ed715f-8540-4a0c-8d1a-84fadaf0dd0f"},"vehicle_type_id":"4","last_reported":1736442512,"current_range_meters":38400,"station_id":"","pricing_plan_id":"cebpf4jnsgd1na2vs0mg"},{"bike_id":"079a2489-d193-414b-8b47-82e93bfb4b65","system_id":"levelo_inurba_marseille","lat":43.288922,"lon":5.380049,"is_reserved":false,"is_disabled":false,"rental_uris":{"android":"levelo://app?vid=079a2489-d193-414b-8b47-82e93bfb4b65","ios":"levelo://app?vid=079a2489-d193-414b-8b47-82e93bfb4b65"},"vehicle_type_id":"4","last_reported":1736442512,"current_range_meters":32000,"station_id":"","pricing_plan_id":"cebpf4jnsgd1na2vs0mg"},{"bike_id":"55a02019-1e86-4005-a9d2-298fc0cff8d0","system_id":"levelo_inurba_marseille","lat":43.29783,"lon":5.39352,"is_reserved":false,"is_disabled":false,"rental_uris":{"android":"levelo://app?vid=55a02019-1e86-4005-a9d2-298fc0cff8d0","ios":"levelo://app?vid=55a02019-1e86-4005-a9d2-298fc0cff8d0"},"vehicle_type_id":"4","last_reported":1736442512,"current_range_meters":8000,"station_id":"chh1huq6cuj3fo74tm60","pricing_plan_id":"cebpf4jnsgd1na2vs0mg"},{"bike_id":"7c2f842c-8af7-43b5-bc96-0c630b6a0cdd","system_id":"levelo_inurba_marseille","lat":43.29265,"lon":5.4013,"is_reserved":false,"is_disabled":false,"rental_uris":{"android":"levelo://app?vid=7c2f842c-8af7-43b5-bc96-0c630b6a0cdd","ios":"levelo://app?vid=7c2f842c-8af7-43b5-bc96-0c630b6a0cdd"},"vehicle_type_id":"4","last_reported":1736442512,"current_range_meters":12800,"station_id":"ce4bh312rcd13ifvqdk0","pricing_plan_id":"cebpf4jnsgd1na2vs0mg"},{"bike_id":"2198fdbe-bd96-42ce-875f-87e37e7c9b47","system_id":"levelo_inurba_marseille","lat":43.30147,"lon":5.37424,"is_reserved":false,"is_disabled":false,"rental_uris":{"android":"levelo://app?vid=2198fdbe-bd96-42ce-875f-87e37e7c9b47","ios":"levelo://app?vid=2198fdbe-bd96-42ce-875f-87e37e7c9b47"},"vehicle_type_id":"4","last_reported":1736442512,"current_range_meters":26800,"station_id":"ce4bgs92rcd13ifvqcc0","pricing_plan_id":"cebpf4jnsgd1na2vs0mg"},{"bike_id":"6af0759c-03f2-4a75-87f1-e643cfb0c5d7","system_id":"levelo_inurba_marseille","lat":43.28155,"lon":5.42645,"is_reserved":false,"is_disabled":false,"rental_uris":{"android":"levelo://app?vid=6af0759c-03f2-4a75-87f1-e643cfb0c5d7","ios":"levelo://app?vid=6af0759c-03f2-4a75-87f1-e643cfb0c5d7"},"vehicle_type_id":"4","last_reported":1736442512,"current_range_meters":20400,"station_id":"ce4bhnh2rcd13ifvqgug","pricing_plan_id":"cebpf4jnsgd1na2vs0mg"},{"bike_id":"b1346f2c-7cab-41f4-b9e9-053904c9fb2b","system_id":"levelo_inurba_marseille","lat":43.23961,"lon":5.36636,"is_reserved":false,"is_disabled":false,"rental_uris":{"android":"levelo://app?vid=b1346f2c-7cab-41f4-b9e9-053904c9fb2b","ios":"levelo://app?vid=b1346f2c-7cab-41f4-b9e9-053904c9fb2b"},"vehicle_type_id":"4","last_reported":1736442512,"current_range_meters":10800,"station_id":"ce4bhi12rcd13ifvqfp0","pricing_plan_id":"cebpf4jnsgd1na2vs0mg"},{"bike_id":"e3caf4fe-1067-47fd-8fc1-7a292d695a1f","system_id":"levelo_inurba_marseille","lat":43.30142,"lon":5.39861,"is_reserved":false,"is_disabled":false,"rental_uris":{"android":"levelo://app?vid=e3caf4fe-1067-47fd-8fc1-7a292d695a1f","ios":"levelo://app?vid=e3caf4fe-1067-47fd-8fc1-7a292d695a1f"},"vehicle_type_id":"4","last_reported":1736442512,"current_range_meters":29600,"station_id":"ce4bh0h2rcd13ifvqd40","pricing_plan_id":"cebpf4jnsgd1na2vs0mg"},{"bike_id":"5f37a5ad-585d-4dc3-8240-998274b8bd9d","system_id":"levelo_inurba_marseille","lat":43.28437,"lon":5.39189,"is_reserved":false,"is_disabled":true,"rental_uris":{"android":"levelo://app?vid=5f37a5ad-585d-4dc3-8240-998274b8bd9d","ios":"levelo://app?vid=5f37a5ad-585d-4dc3-8240-998274b8bd9d"},"vehicle_type_id":"4","last_reported":1736442512,"current_range_meters":10000,"station_id":"ce4bhoh2rcd13ifvqh5g","pricing_plan_id":"cebpf4jnsgd1na2vs0mg"},{"bike_id":"4f439c6b-4554-4213-8983-cec78740d5f8","system_id":"levelo_inurba_marseille","lat":43.232,"lon":5.35544,"is_reserved":false,"is_disabled":false,"rental_uris":{"android":"levelo://app?vid=4f439c6b-4554-4213-8983-cec78740d5f8","ios":"levelo://app?vid=4f439c6b-4554-4213-8983-cec78740d5f8"},"vehicle_type_id":"4","last_reported":1736442512,"current_range_meters":25200,"station_id":"ce4bhu92rcd13ifvqi70","pricing_plan_id":"cebpf4jnsgd1na2vs0mg"},{"bike_id":"ece82557-6569-4215-9027-5b44a37fe52e","system_id":"levelo_inurba_marseille","lat":43.29093,"lon":5.38033,"is_reserved":false,"is_disabled":true,"rental_uris":{"android":"levelo://app?vid=ece82557-6569-4215-9027-5b44a37fe52e","ios":"levelo://app?vid=ece82557-6569-4215-9027-5b44a37fe52e"},"vehicle_type_id":"4","last_reported":1736442512,"current_range_meters":0,"station_id":"","pricing_plan_id":"cebpf4jnsgd1na2vs0mg"},{"bike_id":"59a35a73-6ae7-442c-a363-368385de2e33","system_id":"levelo_inurba_marseille","lat":43.28354,"lon":5.38103,"is_reserved":false,"is_disabled":false,"rental_uris":{"android":"levelo://app?vid=59a35a73-6ae7-442c-a363-368385de2e33","ios":"levelo://app?vid=59a35a73-6ae7-442c-a363-368385de2e33"},"vehicle_type_id":"4","last_reported":1736442512,"current_range_meters":16800,"station_id":"ce4bh412rcd13ifvqdr0","pricing_plan_id":"cebpf4jnsgd1na2vs0mg"},{"bike_id":"30d6c180-e28d-4523-9d09-090fed8919b6","system_id":"levelo_inurba_marseille","lat":43.29788,"lon":5.37096,"is_reserved":false,"is_disabled":false,"rental_uris":{"android":"levelo://app?vid=30d6c180-e28d-4523-9d09-090fed8919b6","ios":"levelo://app?vid=30d6c180-e28d-4523-9d09-090fed8919b6"},"vehicle_type_id":"4","last_reported":1736442512,"current_range_meters":30000,"station_id":"ce4bgop2rcd13ifvqc1g","pricing_plan_id":"cebpf4jnsgd1na2vs0mg"},{"bike_id":"563c4a7d-5391-46eb-ab20-093cc97fac26","system_id":"levelo_inurba_marseille","lat":43.28459,"lon":5.35887,"is_reserved":false,"is_disabled":false,"rental_uris":{"android":"levelo://app?vid=563c4a7d-5391-46eb-ab20-093cc97fac26","ios":"levelo://app?vid=563c4a7d-5391-46eb-ab20-093cc97fac26"},"vehicle_type_id":"4","last_reported":1736442512,"current_range_meters":12000,"station_id":"ce4bhah2rcd13ifvqei0","pricing_plan_id":"cebpf4jnsgd1na2vs0mg"},{"bike_id":"4bf95e96-add7-4b29-a56b-49a43054368a","system_id":"levelo_inurba_marseille","lat":43.24805,"lon":5.37458,"is_reserved":false,"is_disabled":false,"rental_uris":{"android":"levelo://app?vid=4bf95e96-add7-4b29-a56b-49a43054368a","ios":"levelo://app?vid=4bf95e96-add7-4b29-a56b-49a43054368a"},"vehicle_type_id":"4","last_reported":1736442512,"current_range_meters":38800,"station_id":"ce4bhgh2rcd13ifvqfb0","pricing_plan_id":"cebpf4jnsgd1na2vs0mg"},{"bike_id":"004c2ac5-7f25-4e48-8a80-9a02537f6ba6","system_id":"levelo_inurba_marseille","lat":43.3213,"lon":5.3676,"is_reserved":false,"is_disabled":false,"rental_uris":{"android":"levelo://app?vid=004c2ac5-7f25-4e48-8a80-9a02537f6ba6","ios":"levelo://app?vid=004c2ac5-7f25-4e48-8a80-9a02537f6ba6"},"vehicle_type_id":"4","last_reported":1736442512,"current_range_meters":38800,"station_id":"ce4bhrh2rcd13ifvqhug","pricing_plan_id":"cebpf4jnsgd1na2vs0mg"},{"bike_id":"9184ee18-3001-4287-8915-b2600547b9c3","system_id":"levelo_inurba_marseille","lat":43.29579,"lon":5.36742,"is_reserved":false,"is_disabled":false,"rental_uris":{"android":"levelo://app?vid=9184ee18-3001-4287-8915-b2600547b9c3","ios":"levelo://app?vid=9184ee18-3001-4287-8915-b2600547b9c3"},"vehicle_type_id":"4","last_reported":1736442512,"current_range_meters":38800,"station_id":"ce4bgph2rcd13ifvqc2g","pricing_plan_id":"cebpf4jnsgd1na2vs0mg"},{"bike_id":"4b667f03-2bfe-4631-89d5-73e440fc6586","system_id":"levelo_inurba_marseille","lat":43.26932,"lon":5.38933,"is_reserved":false,"is_disabled":false,"rental_uris":{"android":"levelo://app?vid=4b667f03-2bfe-4631-89d5-73e440fc6586","ios":"levelo://app?vid=4b667f03-2bfe-4631-89d5-73e440fc6586"},"vehicle_type_id":"4","last_reported":1736442512,"current_range_meters":22800,"station_id":"ce4bhhh2rcd13ifvqfl0","pricing_plan_id":"cebpf4jnsgd1na2vs0mg"},{"bike_id":"305ce375-1638-4ad5-bcf6-c0bd423563b7","system_id":"levelo_inurba_marseille","lat":43.28707,"lon":5.37406,"is_reserved":false,"is_disabled":false,"rental_uris":{"android":"levelo://app?vid=305ce375-1638-4ad5-bcf6-c0bd423563b7","ios":"levelo://app?vid=305ce375-1638-4ad5-bcf6-c0bd423563b7"},"vehicle_type_id":"4","last_reported":1736442512,"current_range_meters":8000,"station_id":"ce4bh3p2rcd13ifvqdq0","pricing_plan_id":"cebpf4jnsgd1na2vs0mg"},{"bike_id":"113f64f1-a260-4baf-b60d-0d484295cc60","system_id":"levelo_inurba_marseille","lat":43.28846,"lon":5.39309,"is_reserved":false,"is_disabled":false,"rental_uris":{"android":"levelo://app?vid=113f64f1-a260-4baf-b60d-0d484295cc60","ios":"levelo://app?vid=113f64f1-a260-4baf-b60d-0d484295cc60"},"vehicle_type_id":"4","last_reported":1736442512,"current_range_meters":21600,"station_id":"ce4bh2p2rcd13ifvqdi0","pricing_plan_id":"cebpf4jnsgd1na2vs0mg"},{"bike_id":"8a0df70f-3b60-4510-bdf9-1eb41a2abb80","system_id":"levelo_inurba_marseille","lat":43.33608,"lon":5.41034,"is_reserved":false,"is_disabled":true,"rental_uris":{"android":"levelo://app?vid=8a0df70f-3b60-4510-bdf9-1eb41a2abb80","ios":"levelo://app?vid=8a0df70f-3b60-4510-bdf9-1eb41a2abb80"},"vehicle_type_id":"4","last_reported":1736442512,"current_range_meters":0,"station_id":"ce4bhqh2rcd13ifvqhmg","pricing_plan_id":"cebpf4jnsgd1na2vs0mg"},{"bike_id":"c75d4175-c9eb-4dc6-a6fe-60d1e39a072b","system_id":"levelo_inurba_marseille","lat":43.2745,"lon":5.39371,"is_reserved":false,"is_disabled":false,"rental_uris":{"android":"levelo://app?vid=c75d4175-c9eb-4dc6-a6fe-60d1e39a072b","ios":"levelo://app?vid=c75d4175-c9eb-4dc6-a6fe-60d1e39a072b"},"vehicle_type_id":"4","last_reported":1736442512,"current_range_meters":31200,"station_id":"","pricing_plan_id":"cebpf4jnsgd1na2vs0mg"},{"bike_id":"5a3c79ac-7cc7-4e27-8309-dce7a64267e1","system_id":"levelo_inurba_marseille","lat":43.29583,"lon":5.37509,"is_reserved":false,"is_disabled":false,"rental_uris":{"android":"levelo://app?vid=5a3c79ac-7cc7-4e27-8309-dce7a64267e1","ios":"levelo://app?vid=5a3c79ac-7cc7-4e27-8309-dce7a64267e1"},"vehicle_type_id":"4","last_reported":1736442512,"current_range_meters":38800,"station_id":"ce4bgh92rcd13ifvqb50","pricing_plan_id":"cebpf4jnsgd1na2vs0mg"},{"bike_id":"f9c7acbd-5345-46d3-af4c-70b33f8a316e","system_id":"levelo_inurba_marseille","lat":43.27995,"lon":5.41647,"is_reserved":false,"is_disabled":true,"rental_uris":{"android":"levelo://app?vid=f9c7acbd-5345-46d3-af4c-70b33f8a316e","ios":"levelo://app?vid=f9c7acbd-5345-46d3-af4c-70b33f8a316e"},"vehicle_type_id":"4","last_reported":1736442512,"current_range_meters":16800,"station_id":"ce4bho12rcd13ifvqh1g","pricing_plan_id":"cebpf4jnsgd1na2vs0mg"},{"bike_id":"59d88061-2f40-4129-98a5-dddb6efadd91","system_id":"levelo_inurba_marseille","lat":43.323608,"lon":5.367598,"is_reserved":false,"is_disabled":false,"rental_uris":{"android":"levelo://app?vid=59d88061-2f40-4129-98a5-dddb6efadd91","ios":"levelo://app?vid=59d88061-2f40-4129-98a5-dddb6efadd91"},"vehicle_type_id":"4","last_reported":1736442512,"current_range_meters":8400,"station_id":"ce4bhsh2rcd13ifvqi2g","pricing_plan_id":"cebpf4jnsgd1na2vs0mg"},{"bike_id":"9d5535df-7edb-47f9-ac14-54793dd626e0","system_id":"levelo_inurba_marseille","lat":43.22934,"lon":5.35374,"is_reserved":false,"is_disabled":false,"rental_uris":{"android":"levelo://app?vid=9d5535df-7edb-47f9-ac14-54793dd626e0","ios":"levelo://app?vid=9d5535df-7edb-47f9-ac14-54793dd626e0"},"vehicle_type_id":"4","last_reported":1736442512,"current_range_meters":27600,"station_id":"cpo3532slgdg3j2ikp40","pricing_plan_id":"cebpf4jnsgd1na2vs0mg"},{"bike_id":"30dba63a-a770-457b-9ff6-ffd38dfa754b","system_id":"levelo_inurba_marseille","lat":43.26988,"lon":5.39973,"is_reserved":false,"is_disabled":false,"rental_uris":{"android":"levelo://app?vid=30dba63a-a770-457b-9ff6-ffd38dfa754b","ios":"levelo://app?vid=30dba63a-a770-457b-9ff6-ffd38dfa754b"},"vehicle_type_id":"4","last_reported":1736442512,"current_range_meters":4800,"station_id":"","pricing_plan_id":"cebpf4jnsgd1na2vs0mg"},{"bike_id":"985f4a98-88ce-44df-a377-306817541fa4","system_id":"levelo_inurba_marseille","lat":43.28616,"lon":5.35104,"is_reserved":false,"is_disabled":false,"rental_uris":{"android":"levelo://app?vid=985f4a98-88ce-44df-a377-306817541fa4","ios":"levelo://app?vid=985f4a98-88ce-44df-a377-306817541fa4"},"vehicle_type_id":"4","last_reported":1736442512,"current_range_meters":8400,"station_id":"ce4bhch2rcd13ifvqeug","pricing_plan_id":"cebpf4jnsgd1na2vs0mg"},{"bike_id":"feeeae9a-4bcc-477a-bc8c-e9391fa8aedd","system_id":"levelo_inurba_marseille","lat":43.29191,"lon":5.39321,"is_reserved":false,"is_disabled":true,"rental_uris":{"android":"levelo://app?vid=feeeae9a-4bcc-477a-bc8c-e9391fa8aedd","ios":"levelo://app?vid=feeeae9a-4bcc-477a-bc8c-e9391fa8aedd"},"vehicle_type_id":"4","last_reported":1736442512,"current_range_meters":0,"station_id":"ce4bh192rcd13ifvqdd0","pricing_plan_id":"cebpf4jnsgd1na2vs0mg"},{"bike_id":"bbb42691-618e-438b-93dc-2acd2c34e075","system_id":"levelo_inurba_marseille","lat":43.30809,"lon":5.43519,"is_reserved":false,"is_disabled":false,"rental_uris":{"android":"levelo://app?vid=bbb42691-618e-438b-93dc-2acd2c34e075","ios":"levelo://app?vid=bbb42691-618e-438b-93dc-2acd2c34e075"},"vehicle_type_id":"4","last_reported":1736442512,"current_range_meters":38800,"station_id":"ce4bhph2rcd13ifvqheg","pricing_plan_id":"cebpf4jnsgd1na2vs0mg"},{"bike_id":"dbe4d7d2-95f9-4a28-b000-f9ac7c3f52eb","system_id":"levelo_inurba_marseille","lat":43.29184,"lon":5.39325,"is_reserved":false,"is_disabled":true,"rental_uris":{"android":"levelo://app?vid=dbe4d7d2-95f9-4a28-b000-f9ac7c3f52eb","ios":"levelo://app?vid=dbe4d7d2-95f9-4a28-b000-f9ac7c3f52eb"},"vehicle_type_id":"4","last_reported":1736442512,"current_range_meters":0,"station_id":"ce4bh192rcd13ifvqdd0","pricing_plan_id":"cebpf4jnsgd1na2vs0mg"},{"bike_id":"4073b882-f1ba-42d6-9723-fc4a0aa0ddc2","system_id":"levelo_inurba_marseille","lat":43.2842,"lon":5.37515,"is_reserved":false,"is_disabled":false,"rental_uris":{"android":"levelo://app?vid=4073b882-f1ba-42d6-9723-fc4a0aa0ddc2","ios":"levelo://app?vid=4073b882-f1ba-42d6-9723-fc4a0aa0ddc2"},"vehicle_type_id":"4","last_reported":1736442512,"current_range_meters":8400,"station_id":"ce4bh412rcd13ifvqds0","pricing_plan_id":"cebpf4jnsgd1na2vs0mg"},{"bike_id":"eca7a5b1-1c13-45d5-bc15-676f4a40b60c","system_id":"levelo_inurba_marseille","lat":43.30132,"lon":5.39887,"is_reserved":false,"is_disabled":false,"rental_uris":{"android":"levelo://app?vid=eca7a5b1-1c13-45d5-bc15-676f4a40b60c","ios":"levelo://app?vid=eca7a5b1-1c13-45d5-bc15-676f4a40b60c"},"vehicle_type_id":"4","last_reported":1736442512,"current_range_meters":37600,"station_id":"ce4bh0h2rcd13ifvqd40","pricing_plan_id":"cebpf4jnsgd1na2vs0mg"},{"bike_id":"07c90b21-9c92-40ca-aeb8-1fb90e4f473c","system_id":"levelo_inurba_marseille","lat":43.29268,"lon":5.38443,"is_reserved":false,"is_disabled":false,"rental_uris":{"android":"levelo://app?vid=07c90b21-9c92-40ca-aeb8-1fb90e4f473c","ios":"levelo://app?vid=07c90b21-9c92-40ca-aeb8-1fb90e4f473c"},"vehicle_type_id":"4","last_reported":1736442512,"current_range_meters":30800,"station_id":"ce4bh692rcd13ifvqea0","pricing_plan_id":"cebpf4jnsgd1na2vs0mg"},{"bike_id":"8f5d15a7-1f43-4088-9920-355f90b3927e","system_id":"levelo_inurba_marseille","lat":43.31882,"lon":5.40735,"is_reserved":false,"is_disabled":false,"rental_uris":{"android":"levelo://app?vid=8f5d15a7-1f43-4088-9920-355f90b3927e","ios":"levelo://app?vid=8f5d15a7-1f43-4088-9920-355f90b3927e"},"vehicle_type_id":"4","last_reported":1736442512,"current_range_meters":20800,"station_id":"ce4bhq12rcd13ifvqhig","pricing_plan_id":"cebpf4jnsgd1na2vs0mg"},{"bike_id":"6d907632-b7a4-409f-98d5-031bae93ab87","system_id":"levelo_inurba_marseille","lat":43.23964,"lon":5.3663,"is_reserved":false,"is_disabled":false,"rental_uris":{"android":"levelo://app?vid=6d907632-b7a4-409f-98d5-031bae93ab87","ios":"levelo://app?vid=6d907632-b7a4-409f-98d5-031bae93ab87"},"vehicle_type_id":"4","last_reported":1736442512,"current_range_meters":10800,"station_id":"ce4bhi12rcd13ifvqfp0","pricing_plan_id":"cebpf4jnsgd1na2vs0mg"},{"bike_id":"009bdef0-274f-471f-a20d-651393c6de7a","system_id":"levelo_inurba_marseille","lat":43.31499,"lon":5.37313,"is_reserved":false,"is_disabled":false,"rental_uris":{"android":"levelo://app?vid=009bdef0-274f-471f-a20d-651393c6de7a","ios":"levelo://app?vid=009bdef0-274f-471f-a20d-651393c6de7a"},"vehicle_type_id":"4","last_reported":1736442512,"current_range_meters":30800,"station_id":"ce4bgt12rcd13ifvqcd0","pricing_plan_id":"cebpf4jnsgd1na2vs0mg"},{"bike_id":"a816258e-3246-4099-b421-3c9b784b731d","system_id":"levelo_inurba_marseille","lat":43.24181,"lon":5.39736,"is_reserved":false,"is_disabled":false,"rental_uris":{"android":"levelo://app?vid=a816258e-3246-4099-b421-3c9b784b731d","ios":"levelo://app?vid=a816258e-3246-4099-b421-3c9b784b731d"},"vehicle_type_id":"4","last_reported":1736442512,"current_range_meters":38800,"station_id":"ce4bhn12rcd13ifvqgpg","pricing_plan_id":"cebpf4jnsgd1na2vs0mg"},{"bike_id":"af2bd5d9-fb31-42c2-8449-805e98f22fe2","system_id":"levelo_inurba_marseille","lat":43.2953,"lon":5.38534,"is_reserved":false,"is_disabled":false,"rental_uris":{"android":"levelo://app?vid=af2bd5d9-fb31-42c2-8449-805e98f22fe2","ios":"levelo://app?vid=af2bd5d9-fb31-42c2-8449-805e98f22fe2"},"vehicle_type_id":"4","last_reported":1736442512,"current_range_meters":39200,"station_id":"ce4bgih2rcd13ifvqba0","pricing_plan_id":"cebpf4jnsgd1na2vs0mg"},{"bike_id":"20daafc9-4aaa-4b54-8b79-eac236f93e15","system_id":"levelo_inurba_marseille","lat":43.27916,"lon":5.39589,"is_reserved":false,"is_disabled":false,"rental_uris":{"android":"levelo://app?vid=20daafc9-4aaa-4b54-8b79-eac236f93e15","ios":"levelo://app?vid=20daafc9-4aaa-4b54-8b79-eac236f93e15"},"vehicle_type_id":"4","last_reported":1736442512,"current_range_meters":16400,"station_id":"ce4bhf92rcd13ifvqf40","pricing_plan_id":"cebpf4jnsgd1na2vs0mg"},{"bike_id":"8fe05cd3-a784-46ac-b769-4a3bb713f28f","system_id":"levelo_inurba_marseille","lat":43.23187,"lon":5.39984,"is_reserved":false,"is_disabled":false,"rental_uris":{"android":"levelo://app?vid=8fe05cd3-a784-46ac-b769-4a3bb713f28f","ios":"levelo://app?vid=8fe05cd3-a784-46ac-b769-4a3bb713f28f"},"vehicle_type_id":"4","last_reported":1736442512,"current_range_meters":39200,"station_id":"ce4bhn12rcd13ifvqgqg","pricing_plan_id":"cebpf4jnsgd1na2vs0mg"},{"bike_id":"38d0c53e-a765-4eb8-9fcf-204c9744ffd4","system_id":"levelo_inurba_marseille","lat":43.26179,"lon":5.37945,"is_reserved":false,"is_disabled":false,"rental_uris":{"android":"levelo://app?vid=38d0c53e-a765-4eb8-9fcf-204c9744ffd4","ios":"levelo://app?vid=38d0c53e-a765-4eb8-9fcf-204c9744ffd4"},"vehicle_type_id":"4","last_reported":1736442512,"current_range_meters":28400,"station_id":"ce4bhjp2rcd13ifvqg90","pricing_plan_id":"cebpf4jnsgd1na2vs0mg"},{"bike_id":"794cab6d-552d-4b45-9267-381086e398d3","system_id":"levelo_inurba_marseille","lat":43.29257,"lon":5.40905,"is_reserved":false,"is_disabled":false,"rental_uris":{"android":"levelo://app?vid=794cab6d-552d-4b45-9267-381086e398d3","ios":"levelo://app?vid=794cab6d-552d-4b45-9267-381086e398d3"},"vehicle_type_id":"4","last_reported":1736442512,"current_range_meters":35200,"station_id":"ce4bh192rcd13ifvqdc0","pricing_plan_id":"cebpf4jnsgd1na2vs0mg"},{"bike_id":"186c0656-c3a1-4dc6-ac13-b0cf18574d83","system_id":"levelo_inurba_marseille","lat":43.29433,"lon":5.39753,"is_reserved":false,"is_disabled":false,"rental_uris":{"android":"levelo://app?vid=186c0656-c3a1-4dc6-ac13-b0cf18574d83","ios":"levelo://app?vid=186c0656-c3a1-4dc6-ac13-b0cf18574d83"},"vehicle_type_id":"4","last_reported":1736442512,"current_range_meters":14400,"station_id":"ce4bh3h2rcd13ifvqdo0","pricing_plan_id":"cebpf4jnsgd1na2vs0mg"},{"bike_id":"3965b4bc-83b0-48b6-8bba-edbef38dd6c5","system_id":"levelo_inurba_marseille","lat":43.29419,"lon":5.38612,"is_reserved":false,"is_disabled":false,"rental_uris":{"android":"levelo://app?vid=3965b4bc-83b0-48b6-8bba-edbef38dd6c5","ios":"levelo://app?vid=3965b4bc-83b0-48b6-8bba-edbef38dd6c5"},"vehicle_type_id":"4","last_reported":1736442512,"current_range_meters":36800,"station_id":"ce4bh2h2rcd13ifvqdh0","pricing_plan_id":"cebpf4jnsgd1na2vs0mg"},{"bike_id":"24181dd3-0787-4379-b3c6-dd5adf68524c","system_id":"levelo_inurba_marseille","lat":43.30431,"lon":5.38884,"is_reserved":false,"is_disabled":false,"rental_uris":{"android":"levelo://app?vid=24181dd3-0787-4379-b3c6-dd5adf68524c","ios":"levelo://app?vid=24181dd3-0787-4379-b3c6-dd5adf68524c"},"vehicle_type_id":"4","last_reported":1736442512,"current_range_meters":32000,"station_id":"ce4bgk12rcd13ifvqbi0","pricing_plan_id":"cebpf4jnsgd1na2vs0mg"},{"bike_id":"f5ca1267-8796-4e04-ae34-eb0613d65667","system_id":"levelo_inurba_marseille","lat":43.29615,"lon":5.3771,"is_reserved":false,"is_disabled":true,"rental_uris":{"android":"levelo://app?vid=f5ca1267-8796-4e04-ae34-eb0613d65667","ios":"levelo://app?vid=f5ca1267-8796-4e04-ae34-eb0613d65667"},"vehicle_type_id":"4","last_reported":1736442512,"current_range_meters":19200,"station_id":"ce4bgi92rcd13ifvqb90","pricing_plan_id":"cebpf4jnsgd1na2vs0mg"},{"bike_id":"504bed46-08f0-4ffb-9e9c-6c94eef36729","system_id":"levelo_inurba_marseille","lat":43.28358,"lon":5.38631,"is_reserved":false,"is_disabled":false,"rental_uris":{"android":"levelo://app?vid=504bed46-08f0-4ffb-9e9c-6c94eef36729","ios":"levelo://app?vid=504bed46-08f0-4ffb-9e9c-6c94eef36729"},"vehicle_type_id":"4","last_reported":1736442512,"current_range_meters":38400,"station_id":"ce4bh492rcd13ifvqdvg","pricing_plan_id":"cebpf4jnsgd1na2vs0mg"},{"bike_id":"e74bade2-655e-4dd9-b587-2816d139261b","system_id":"levelo_inurba_marseille","lat":43.300935,"lon":5.390777,"is_reserved":false,"is_disabled":false,"rental_uris":{"android":"levelo://app?vid=e74bade2-655e-4dd9-b587-2816d139261b","ios":"levelo://app?vid=e74bade2-655e-4dd9-b587-2816d139261b"},"vehicle_type_id":"4","last_reported":1736442512,"current_range_meters":12400,"station_id":"ce4bh192rcd13ifvqdb0","pricing_plan_id":"cebpf4jnsgd1na2vs0mg"},{"bike_id":"75c353d2-7733-4b6e-844f-a2e3dc8186c0","system_id":"levelo_inurba_marseille","lat":43.28428,"lon":5.39206,"is_reserved":false,"is_disabled":false,"rental_uris":{"android":"levelo://app?vid=75c353d2-7733-4b6e-844f-a2e3dc8186c0","ios":"levelo://app?vid=75c353d2-7733-4b6e-844f-a2e3dc8186c0"},"vehicle_type_id":"4","last_reported":1736442512,"current_range_meters":7200,"station_id":"ce4bhoh2rcd13ifvqh5g","pricing_plan_id":"cebpf4jnsgd1na2vs0mg"},{"bike_id":"a0df9193-55f6-4a03-826a-744e803b6ed4","system_id":"levelo_inurba_marseille","lat":43.2468,"lon":5.3814,"is_reserved":false,"is_disabled":false,"rental_uris":{"android":"levelo://app?vid=a0df9193-55f6-4a03-826a-744e803b6ed4","ios":"levelo://app?vid=a0df9193-55f6-4a03-826a-744e803b6ed4"},"vehicle_type_id":"4","last_reported":1736442512,"current_range_meters":32000,"station_id":"ce4bhih2rcd13ifvqfr0","pricing_plan_id":"cebpf4jnsgd1na2vs0mg"},{"bike_id":"152140e4-535c-422d-bc8d-7b1f264d6fb4","system_id":"levelo_inurba_marseille","lat":43.31686,"lon":5.40477,"is_reserved":false,"is_disabled":false,"rental_uris":{"android":"levelo://app?vid=152140e4-535c-422d-bc8d-7b1f264d6fb4","ios":"levelo://app?vid=152140e4-535c-422d-bc8d-7b1f264d6fb4"},"vehicle_type_id":"4","last_reported":1736442512,"current_range_meters":20400,"station_id":"ce4bh012rcd13ifvqd00","pricing_plan_id":"cebpf4jnsgd1na2vs0mg"},{"bike_id":"bc1badfe-1b4e-4677-9a54-6f29db91c6e7","system_id":"levelo_inurba_marseille","lat":43.26198,"lon":5.37934,"is_reserved":false,"is_disabled":false,"rental_uris":{"android":"levelo://app?vid=bc1badfe-1b4e-4677-9a54-6f29db91c6e7","ios":"levelo://app?vid=bc1badfe-1b4e-4677-9a54-6f29db91c6e7"},"vehicle_type_id":"4","last_reported":1736442512,"current_range_meters":9200,"station_id":"ce4bhjp2rcd13ifvqg90","pricing_plan_id":"cebpf4jnsgd1na2vs0mg"},{"bike_id":"7909dce7-0807-45d0-a4fd-24a9830cf08d","system_id":"levelo_inurba_marseille","lat":43.2836,"lon":5.38639,"is_reserved":false,"is_disabled":false,"rental_uris":{"android":"levelo://app?vid=7909dce7-0807-45d0-a4fd-24a9830cf08d","ios":"levelo://app?vid=7909dce7-0807-45d0-a4fd-24a9830cf08d"},"vehicle_type_id":"4","last_reported":1736442512,"current_range_meters":32800,"station_id":"ce4bh492rcd13ifvqdvg","pricing_plan_id":"cebpf4jnsgd1na2vs0mg"},{"bike_id":"2265611f-d5d9-449a-9b3f-b3fd2fa0d0b4","system_id":"levelo_inurba_marseille","lat":43.31687,"lon":5.40474,"is_reserved":false,"is_disabled":false,"rental_uris":{"android":"levelo://app?vid=2265611f-d5d9-449a-9b3f-b3fd2fa0d0b4","ios":"levelo://app?vid=2265611f-d5d9-449a-9b3f-b3fd2fa0d0b4"},"vehicle_type_id":"4","last_reported":1736442512,"current_range_meters":30800,"station_id":"ce4bh012rcd13ifvqd00","pricing_plan_id":"cebpf4jnsgd1na2vs0mg"},{"bike_id":"7e24f12c-a150-458f-96d7-546ec49f77da","system_id":"levelo_inurba_marseille","lat":43.30154,"lon":5.3809,"is_reserved":false,"is_disabled":false,"rental_uris":{"android":"levelo://app?vid=7e24f12c-a150-458f-96d7-546ec49f77da","ios":"levelo://app?vid=7e24f12c-a150-458f-96d7-546ec49f77da"},"vehicle_type_id":"4","last_reported":1736442512,"current_range_meters":38000,"station_id":"ce4bgjp2rcd13ifvqbh0","pricing_plan_id":"cebpf4jnsgd1na2vs0mg"},{"bike_id":"6f350ce5-d059-48a9-a90e-2ae70aae492e","system_id":"levelo_inurba_marseille","lat":43.29415,"lon":5.38624,"is_reserved":false,"is_disabled":false,"rental_uris":{"android":"levelo://app?vid=6f350ce5-d059-48a9-a90e-2ae70aae492e","ios":"levelo://app?vid=6f350ce5-d059-48a9-a90e-2ae70aae492e"},"vehicle_type_id":"4","last_reported":1736442512,"current_range_meters":14000,"station_id":"ce4bh2h2rcd13ifvqdh0","pricing_plan_id":"cebpf4jnsgd1na2vs0mg"},{"bike_id":"a8166972-deeb-4c46-b17f-df94affd7600","system_id":"levelo_inurba_marseille","lat":43.27202,"lon":5.39188,"is_reserved":false,"is_disabled":false,"rental_uris":{"android":"levelo://app?vid=a8166972-deeb-4c46-b17f-df94affd7600","ios":"levelo://app?vid=a8166972-deeb-4c46-b17f-df94affd7600"},"vehicle_type_id":"4","last_reported":1736442512,"current_range_meters":26000,"station_id":"ce4bhhp2rcd13ifvqfm0","pricing_plan_id":"cebpf4jnsgd1na2vs0mg"},{"bike_id":"fc4ed2fc-d7eb-499b-be6f-c30a387a8991","system_id":"levelo_inurba_marseille","lat":43.29908,"lon":5.38142,"is_reserved":false,"is_disabled":false,"rental_uris":{"android":"levelo://app?vid=fc4ed2fc-d7eb-499b-be6f-c30a387a8991","ios":"levelo://app?vid=fc4ed2fc-d7eb-499b-be6f-c30a387a8991"},"vehicle_type_id":"4","last_reported":1736442512,"current_range_meters":38800,"station_id":"ce4bgj12rcd13ifvqbc0","pricing_plan_id":"cebpf4jnsgd1na2vs0mg"},{"bike_id":"fccbecdc-7f6b-4c85-b510-cd5a92912b79","system_id":"levelo_inurba_marseille","lat":43.29692,"lon":5.37285,"is_reserved":false,"is_disabled":false,"rental_uris":{"android":"levelo://app?vid=fccbecdc-7f6b-4c85-b510-cd5a92912b79","ios":"levelo://app?vid=fccbecdc-7f6b-4c85-b510-cd5a92912b79"},"vehicle_type_id":"4","last_reported":1736442512,"current_range_meters":38800,"station_id":"ce4bgk12rcd13ifvqbj0","pricing_plan_id":"cebpf4jnsgd1na2vs0mg"},{"bike_id":"dd95b172-24fd-4056-9bb1-1ba37d74b460","system_id":"levelo_inurba_marseille","lat":43.25582,"lon":5.38216,"is_reserved":false,"is_disabled":false,"rental_uris":{"android":"levelo://app?vid=dd95b172-24fd-4056-9bb1-1ba37d74b460","ios":"levelo://app?vid=dd95b172-24fd-4056-9bb1-1ba37d74b460"},"vehicle_type_id":"4","last_reported":1736442512,"current_range_meters":19600,"station_id":"ce4bhih2rcd13ifvqfs0","pricing_plan_id":"cebpf4jnsgd1na2vs0mg"},{"bike_id":"0bbc859e-e283-4bab-84ca-62723c8ed104","system_id":"levelo_inurba_marseille","lat":43.30099,"lon":5.39885,"is_reserved":false,"is_disabled":false,"rental_uris":{"android":"levelo://app?vid=0bbc859e-e283-4bab-84ca-62723c8ed104","ios":"levelo://app?vid=0bbc859e-e283-4bab-84ca-62723c8ed104"},"vehicle_type_id":"4","last_reported":1736442512,"current_range_meters":8400,"station_id":"ce4bh0h2rcd13ifvqd40","pricing_plan_id":"cebpf4jnsgd1na2vs0mg"},{"bike_id":"c6c08f57-1b2b-4d53-aabf-26763484169b","system_id":"levelo_inurba_marseille","lat":43.26558,"lon":5.39005,"is_reserved":false,"is_disabled":true,"rental_uris":{"android":"levelo://app?vid=c6c08f57-1b2b-4d53-aabf-26763484169b","ios":"levelo://app?vid=c6c08f57-1b2b-4d53-aabf-26763484169b"},"vehicle_type_id":"4","last_reported":1736442512,"current_range_meters":800,"station_id":"ce4bhe12rcd13ifvqf30","pricing_plan_id":"cebpf4jnsgd1na2vs0mg"},{"bike_id":"3b4478aa-aa08-44e3-8c3e-0ca0badb5e7a","system_id":"levelo_inurba_marseille","lat":43.31566,"lon":5.38927,"is_reserved":false,"is_disabled":false,"rental_uris":{"android":"levelo://app?vid=3b4478aa-aa08-44e3-8c3e-0ca0badb5e7a","ios":"levelo://app?vid=3b4478aa-aa08-44e3-8c3e-0ca0badb5e7a"},"vehicle_type_id":"4","last_reported":1736442512,"current_range_meters":38800,"station_id":"","pricing_plan_id":"cebpf4jnsgd1na2vs0mg"},{"bike_id":"e5ceed7d-dfa5-4f3a-a355-e663e88297a4","system_id":"levelo_inurba_marseille","lat":43.28271,"lon":5.35055,"is_reserved":false,"is_disabled":false,"rental_uris":{"android":"levelo://app?vid=e5ceed7d-dfa5-4f3a-a355-e663e88297a4","ios":"levelo://app?vid=e5ceed7d-dfa5-4f3a-a355-e663e88297a4"},"vehicle_type_id":"4","last_reported":1736442512,"current_range_meters":20400,"station_id":"ce4bhbp2rcd13ifvqerg","pricing_plan_id":"cebpf4jnsgd1na2vs0mg"},{"bike_id":"8bae5f33-78f7-4346-b7d2-3626418fa38c","system_id":"levelo_inurba_marseille","lat":43.23203,"lon":5.35541,"is_reserved":false,"is_disabled":false,"rental_uris":{"android":"levelo://app?vid=8bae5f33-78f7-4346-b7d2-3626418fa38c","ios":"levelo://app?vid=8bae5f33-78f7-4346-b7d2-3626418fa38c"},"vehicle_type_id":"4","last_reported":1736442512,"current_range_meters":38800,"station_id":"ce4bhu92rcd13ifvqi70","pricing_plan_id":"cebpf4jnsgd1na2vs0mg"},{"bike_id":"53ccd377-19f9-4c29-a370-dffa4003fa03","system_id":"levelo_inurba_marseille","lat":43.24678,"lon":5.38157,"is_reserved":false,"is_disabled":true,"rental_uris":{"android":"levelo://app?vid=53ccd377-19f9-4c29-a370-dffa4003fa03","ios":"levelo://app?vid=53ccd377-19f9-4c29-a370-dffa4003fa03"},"vehicle_type_id":"4","last_reported":1736442512,"current_range_meters":400,"station_id":"ce4bhih2rcd13ifvqfr0","pricing_plan_id":"cebpf4jnsgd1na2vs0mg"},{"bike_id":"58318a90-7640-4f3f-b193-62a2764b3df1","system_id":"levelo_inurba_marseille","lat":43.23189,"lon":5.35558,"is_reserved":false,"is_disabled":false,"rental_uris":{"android":"levelo://app?vid=58318a90-7640-4f3f-b193-62a2764b3df1","ios":"levelo://app?vid=58318a90-7640-4f3f-b193-62a2764b3df1"},"vehicle_type_id":"4","last_reported":1736442512,"current_range_meters":12000,"station_id":"ce4bhu92rcd13ifvqi70","pricing_plan_id":"cebpf4jnsgd1na2vs0mg"},{"bike_id":"5aee579e-4d1a-4cdd-b13b-286ee35e83d9","system_id":"levelo_inurba_marseille","lat":43.2595,"lon":5.40895,"is_reserved":false,"is_disabled":true,"rental_uris":{"android":"levelo://app?vid=5aee579e-4d1a-4cdd-b13b-286ee35e83d9","ios":"levelo://app?vid=5aee579e-4d1a-4cdd-b13b-286ee35e83d9"},"vehicle_type_id":"4","last_reported":1736442512,"current_range_meters":400,"station_id":"ce4bhm92rcd13ifvqglg","pricing_plan_id":"cebpf4jnsgd1na2vs0mg"},{"bike_id":"d04238ad-9e9e-4c50-9a35-4e5c39e4b335","system_id":"levelo_inurba_marseille","lat":43.30146,"lon":5.38077,"is_reserved":false,"is_disabled":false,"rental_uris":{"android":"levelo://app?vid=d04238ad-9e9e-4c50-9a35-4e5c39e4b335","ios":"levelo://app?vid=d04238ad-9e9e-4c50-9a35-4e5c39e4b335"},"vehicle_type_id":"4","last_reported":1736442512,"current_range_meters":19600,"station_id":"ce4bgjp2rcd13ifvqbh0","pricing_plan_id":"cebpf4jnsgd1na2vs0mg"},{"bike_id":"36435023-15d2-44c3-9410-0d2b25524aaf","system_id":"levelo_inurba_marseille","lat":43.26934,"lon":5.38915,"is_reserved":false,"is_disabled":false,"rental_uris":{"android":"levelo://app?vid=36435023-15d2-44c3-9410-0d2b25524aaf","ios":"levelo://app?vid=36435023-15d2-44c3-9410-0d2b25524aaf"},"vehicle_type_id":"4","last_reported":1736442512,"current_range_meters":7200,"station_id":"ce4bhhh2rcd13ifvqfl0","pricing_plan_id":"cebpf4jnsgd1na2vs0mg"},{"bike_id":"a023b9e2-2413-4b3d-a218-b9727e7097b5","system_id":"levelo_inurba_marseille","lat":43.292991,"lon":5.374633,"is_reserved":false,"is_disabled":true,"rental_uris":{"android":"levelo://app?vid=a023b9e2-2413-4b3d-a218-b9727e7097b5","ios":"levelo://app?vid=a023b9e2-2413-4b3d-a218-b9727e7097b5"},"vehicle_type_id":"4","last_reported":1736442512,"current_range_meters":28800,"station_id":"ce4bgi12rcd13ifvqb70","pricing_plan_id":"cebpf4jnsgd1na2vs0mg"},{"bike_id":"0674d2ef-86ed-4426-8d32-8e7450b119f1","system_id":"levelo_inurba_marseille","lat":43.33021,"lon":5.39041,"is_reserved":false,"is_disabled":false,"rental_uris":{"android":"levelo://app?vid=0674d2ef-86ed-4426-8d32-8e7450b119f1","ios":"levelo://app?vid=0674d2ef-86ed-4426-8d32-8e7450b119f1"},"vehicle_type_id":"4","last_reported":1736442512,"current_range_meters":24800,"station_id":"ce4bhr92rcd13ifvqhrg","pricing_plan_id":"cebpf4jnsgd1na2vs0mg"},{"bike_id":"b61410a3-14e1-4aff-ac94-d44098cd6c7f","system_id":"levelo_inurba_marseille","lat":43.31362,"lon":5.38499,"is_reserved":false,"is_disabled":false,"rental_uris":{"android":"levelo://app?vid=b61410a3-14e1-4aff-ac94-d44098cd6c7f","ios":"levelo://app?vid=b61410a3-14e1-4aff-ac94-d44098cd6c7f"},"vehicle_type_id":"4","last_reported":1736442512,"current_range_meters":38800,"station_id":"ce4bgt92rcd13ifvqcf0","pricing_plan_id":"cebpf4jnsgd1na2vs0mg"},{"bike_id":"205f2137-8395-4cb7-bca0-efc24bb31e80","system_id":"levelo_inurba_marseille","lat":43.30124,"lon":5.39877,"is_reserved":false,"is_disabled":false,"rental_uris":{"android":"levelo://app?vid=205f2137-8395-4cb7-bca0-efc24bb31e80","ios":"levelo://app?vid=205f2137-8395-4cb7-bca0-efc24bb31e80"},"vehicle_type_id":"4","last_reported":1736442512,"current_range_meters":21600,"station_id":"ce4bh0h2rcd13ifvqd40","pricing_plan_id":"cebpf4jnsgd1na2vs0mg"},{"bike_id":"dca00bba-2f39-40a8-ad4d-72c38ee8461a","system_id":"levelo_inurba_marseille","lat":43.2743,"lon":5.39376,"is_reserved":false,"is_disabled":false,"rental_uris":{"android":"levelo://app?vid=dca00bba-2f39-40a8-ad4d-72c38ee8461a","ios":"levelo://app?vid=dca00bba-2f39-40a8-ad4d-72c38ee8461a"},"vehicle_type_id":"4","last_reported":1736442512,"current_range_meters":32400,"station_id":"ce4bhdp2rcd13ifvqf20","pricing_plan_id":"cebpf4jnsgd1na2vs0mg"},{"bike_id":"86f399e6-48cb-4022-8f6f-33787a9e807a","system_id":"levelo_inurba_marseille","lat":43.29444,"lon":5.39763,"is_reserved":false,"is_disabled":false,"rental_uris":{"android":"levelo://app?vid=86f399e6-48cb-4022-8f6f-33787a9e807a","ios":"levelo://app?vid=86f399e6-48cb-4022-8f6f-33787a9e807a"},"vehicle_type_id":"4","last_reported":1736442512,"current_range_meters":35600,"station_id":"ce4bh3h2rcd13ifvqdo0","pricing_plan_id":"cebpf4jnsgd1na2vs0mg"},{"bike_id":"d1f1a38d-ffc5-45d8-bb7b-5e810c833bf4","system_id":"levelo_inurba_marseille","lat":43.2919,"lon":5.35816,"is_reserved":false,"is_disabled":false,"rental_uris":{"android":"levelo://app?vid=d1f1a38d-ffc5-45d8-bb7b-5e810c833bf4","ios":"levelo://app?vid=d1f1a38d-ffc5-45d8-bb7b-5e810c833bf4"},"vehicle_type_id":"4","last_reported":1736442512,"current_range_meters":33600,"station_id":"ce4bhb12rcd13ifvqel0","pricing_plan_id":"cebpf4jnsgd1na2vs0mg"},{"bike_id":"5aa46582-8066-4fee-8988-4c6252810ea1","system_id":"levelo_inurba_marseille","lat":43.32403,"lon":5.38841,"is_reserved":false,"is_disabled":false,"rental_uris":{"android":"levelo://app?vid=5aa46582-8066-4fee-8988-4c6252810ea1","ios":"levelo://app?vid=5aa46582-8066-4fee-8988-4c6252810ea1"},"vehicle_type_id":"4","last_reported":1736442512,"current_range_meters":17600,"station_id":"ce4bhqp2rcd13ifvqhog","pricing_plan_id":"cebpf4jnsgd1na2vs0mg"},{"bike_id":"b27eae9a-606a-4286-9c84-4aeaf11fc820","system_id":"levelo_inurba_marseille","lat":43.25005,"lon":5.38926,"is_reserved":false,"is_disabled":false,"rental_uris":{"android":"levelo://app?vid=b27eae9a-606a-4286-9c84-4aeaf11fc820","ios":"levelo://app?vid=b27eae9a-606a-4286-9c84-4aeaf11fc820"},"vehicle_type_id":"4","last_reported":1736442512,"current_range_meters":22400,"station_id":"ce4bhgp2rcd13ifvqfd0","pricing_plan_id":"cebpf4jnsgd1na2vs0mg"},{"bike_id":"06aebe23-d0ba-4889-8d80-e2e08e15cb11","system_id":"levelo_inurba_marseille","lat":43.2592,"lon":5.40872,"is_reserved":false,"is_disabled":false,"rental_uris":{"android":"levelo://app?vid=06aebe23-d0ba-4889-8d80-e2e08e15cb11","ios":"levelo://app?vid=06aebe23-d0ba-4889-8d80-e2e08e15cb11"},"vehicle_type_id":"4","last_reported":1736442512,"current_range_meters":6400,"station_id":"ce4bhm92rcd13ifvqglg","pricing_plan_id":"cebpf4jnsgd1na2vs0mg"},{"bike_id":"e093acb4-ebd5-4f75-8923-79b74544f994","system_id":"levelo_inurba_marseille","lat":43.29029,"lon":5.38643,"is_reserved":false,"is_disabled":false,"rental_uris":{"android":"levelo://app?vid=e093acb4-ebd5-4f75-8923-79b74544f994","ios":"levelo://app?vid=e093acb4-ebd5-4f75-8923-79b74544f994"},"vehicle_type_id":"4","last_reported":1736442512,"current_range_meters":14800,"station_id":"ce4bh4p2rcd13ifvqe0g","pricing_plan_id":"cebpf4jnsgd1na2vs0mg"},{"bike_id":"7a0a8a69-615c-43f3-a001-073b74f4a57b","system_id":"levelo_inurba_marseille","lat":43.25569,"lon":5.38238,"is_reserved":false,"is_disabled":false,"rental_uris":{"android":"levelo://app?vid=7a0a8a69-615c-43f3-a001-073b74f4a57b","ios":"levelo://app?vid=7a0a8a69-615c-43f3-a001-073b74f4a57b"},"vehicle_type_id":"4","last_reported":1736442512,"current_range_meters":29600,"station_id":"ce4bhih2rcd13ifvqfs0","pricing_plan_id":"cebpf4jnsgd1na2vs0mg"},{"bike_id":"8e9b7426-4337-4cd7-9c5d-8fb0e8d9b77e","system_id":"levelo_inurba_marseille","lat":43.25867,"lon":5.39916,"is_reserved":false,"is_disabled":true,"rental_uris":{"android":"levelo://app?vid=8e9b7426-4337-4cd7-9c5d-8fb0e8d9b77e","ios":"levelo://app?vid=8e9b7426-4337-4cd7-9c5d-8fb0e8d9b77e"},"vehicle_type_id":"4","last_reported":1736442512,"current_range_meters":800,"station_id":"ce4bhl92rcd13ifvqghg","pricing_plan_id":"cebpf4jnsgd1na2vs0mg"},{"bike_id":"ad744619-fbc5-4026-9541-81b1adebd4d3","system_id":"levelo_inurba_marseille","lat":43.260287,"lon":5.375583,"is_reserved":false,"is_disabled":true,"rental_uris":{"android":"levelo://app?vid=ad744619-fbc5-4026-9541-81b1adebd4d3","ios":"levelo://app?vid=ad744619-fbc5-4026-9541-81b1adebd4d3"},"vehicle_type_id":"4","last_reported":1736442512,"current_range_meters":38800,"station_id":"ce4bhgh2rcd13ifvqfa0","pricing_plan_id":"cebpf4jnsgd1na2vs0mg"},{"bike_id":"2b68127b-8c99-46f9-b65f-98bf288dc9b7","system_id":"levelo_inurba_marseille","lat":43.25587,"lon":5.38215,"is_reserved":false,"is_disabled":false,"rental_uris":{"android":"levelo://app?vid=2b68127b-8c99-46f9-b65f-98bf288dc9b7","ios":"levelo://app?vid=2b68127b-8c99-46f9-b65f-98bf288dc9b7"},"vehicle_type_id":"4","last_reported":1736442512,"current_range_meters":9600,"station_id":"ce4bhih2rcd13ifvqfs0","pricing_plan_id":"cebpf4jnsgd1na2vs0mg"},{"bike_id":"158ce550-9027-4eb4-a6f3-847091d6ac12","system_id":"levelo_inurba_marseille","lat":43.29414,"lon":5.38627,"is_reserved":false,"is_disabled":false,"rental_uris":{"android":"levelo://app?vid=158ce550-9027-4eb4-a6f3-847091d6ac12","ios":"levelo://app?vid=158ce550-9027-4eb4-a6f3-847091d6ac12"},"vehicle_type_id":"4","last_reported":1736442512,"current_range_meters":4800,"station_id":"ce4bh2h2rcd13ifvqdh0","pricing_plan_id":"cebpf4jnsgd1na2vs0mg"},{"bike_id":"ec319423-7fa8-45ee-b7f8-ab3cf86bce10","system_id":"levelo_inurba_marseille","lat":43.29952,"lon":5.3654,"is_reserved":false,"is_disabled":false,"rental_uris":{"android":"levelo://app?vid=ec319423-7fa8-45ee-b7f8-ab3cf86bce10","ios":"levelo://app?vid=ec319423-7fa8-45ee-b7f8-ab3cf86bce10"},"vehicle_type_id":"4","last_reported":1736442512,"current_range_meters":38800,"station_id":"ce4bgm92rcd13ifvqbr0","pricing_plan_id":"cebpf4jnsgd1na2vs0mg"},{"bike_id":"55fea5e7-e440-416a-842c-fc1fe848fa87","system_id":"levelo_inurba_marseille","lat":43.30808,"lon":5.43527,"is_reserved":false,"is_disabled":false,"rental_uris":{"android":"levelo://app?vid=55fea5e7-e440-416a-842c-fc1fe848fa87","ios":"levelo://app?vid=55fea5e7-e440-416a-842c-fc1fe848fa87"},"vehicle_type_id":"4","last_reported":1736442512,"current_range_meters":9200,"station_id":"ce4bhph2rcd13ifvqheg","pricing_plan_id":"cebpf4jnsgd1na2vs0mg"},{"bike_id":"5d684afe-3749-41c9-ace1-e345b0530b92","system_id":"levelo_inurba_marseille","lat":43.31482,"lon":5.37306,"is_reserved":false,"is_disabled":true,"rental_uris":{"android":"levelo://app?vid=5d684afe-3749-41c9-ace1-e345b0530b92","ios":"levelo://app?vid=5d684afe-3749-41c9-ace1-e345b0530b92"},"vehicle_type_id":"4","last_reported":1736442512,"current_range_meters":400,"station_id":"ce4bgt12rcd13ifvqcd0","pricing_plan_id":"cebpf4jnsgd1na2vs0mg"},{"bike_id":"e93f83ab-0e3e-4fd9-8d9e-6775678c8e02","system_id":"levelo_inurba_marseille","lat":43.33026,"lon":5.39032,"is_reserved":false,"is_disabled":false,"rental_uris":{"android":"levelo://app?vid=e93f83ab-0e3e-4fd9-8d9e-6775678c8e02","ios":"levelo://app?vid=e93f83ab-0e3e-4fd9-8d9e-6775678c8e02"},"vehicle_type_id":"4","last_reported":1736442512,"current_range_meters":38800,"station_id":"ce4bhr92rcd13ifvqhrg","pricing_plan_id":"cebpf4jnsgd1na2vs0mg"},{"bike_id":"93328267-bd22-4e29-9e8f-103a6c6d683f","system_id":"levelo_inurba_marseille","lat":43.266667,"lon":5.3896,"is_reserved":false,"is_disabled":false,"rental_uris":{"android":"levelo://app?vid=93328267-bd22-4e29-9e8f-103a6c6d683f","ios":"levelo://app?vid=93328267-bd22-4e29-9e8f-103a6c6d683f"},"vehicle_type_id":"4","last_reported":1736442512,"current_range_meters":13600,"station_id":"ce4bhe12rcd13ifvqf30","pricing_plan_id":"cebpf4jnsgd1na2vs0mg"},{"bike_id":"380532f5-9862-43e2-9bc8-8d4dae90d2a6","system_id":"levelo_inurba_marseille","lat":43.29818,"lon":5.40389,"is_reserved":false,"is_disabled":false,"rental_uris":{"android":"levelo://app?vid=380532f5-9862-43e2-9bc8-8d4dae90d2a6","ios":"levelo://app?vid=380532f5-9862-43e2-9bc8-8d4dae90d2a6"},"vehicle_type_id":"4","last_reported":1736442512,"current_range_meters":38800,"station_id":"ce4bh112rcd13ifvqd90","pricing_plan_id":"cebpf4jnsgd1na2vs0mg"},{"bike_id":"a47fe619-f905-4b0f-bfbd-d4d8421462e1","system_id":"levelo_inurba_marseille","lat":43.26559,"lon":5.3728,"is_reserved":false,"is_disabled":false,"rental_uris":{"android":"levelo://app?vid=a47fe619-f905-4b0f-bfbd-d4d8421462e1","ios":"levelo://app?vid=a47fe619-f905-4b0f-bfbd-d4d8421462e1"},"vehicle_type_id":"4","last_reported":1736442512,"current_range_meters":29600,"station_id":"ce4bhg12rcd13ifvqf70","pricing_plan_id":"cebpf4jnsgd1na2vs0mg"},{"bike_id":"62c6b563-ee4d-4e11-8319-cdc61329d480","system_id":"levelo_inurba_marseille","lat":43.30597,"lon":5.37234,"is_reserved":false,"is_disabled":true,"rental_uris":{"android":"levelo://app?vid=62c6b563-ee4d-4e11-8319-cdc61329d480","ios":"levelo://app?vid=62c6b563-ee4d-4e11-8319-cdc61329d480"},"vehicle_type_id":"4","last_reported":1736442512,"current_range_meters":0,"station_id":"ce4bgqh2rcd13ifvqc4g","pricing_plan_id":"cebpf4jnsgd1na2vs0mg"},{"bike_id":"311bf08e-a19d-4e7d-943e-5fc878bd6ab7","system_id":"levelo_inurba_marseille","lat":43.30649,"lon":5.401,"is_reserved":false,"is_disabled":false,"rental_uris":{"android":"levelo://app?vid=311bf08e-a19d-4e7d-943e-5fc878bd6ab7","ios":"levelo://app?vid=311bf08e-a19d-4e7d-943e-5fc878bd6ab7"},"vehicle_type_id":"4","last_reported":1736442512,"current_range_meters":38800,"station_id":"ce4bh112rcd13ifvqda0","pricing_plan_id":"cebpf4jnsgd1na2vs0mg"},{"bike_id":"0d8dcbec-8a47-4c1f-aa7d-6e0b3dded342","system_id":"levelo_inurba_marseille","lat":43.2506,"lon":5.39423,"is_reserved":false,"is_disabled":false,"rental_uris":{"android":"levelo://app?vid=0d8dcbec-8a47-4c1f-aa7d-6e0b3dded342","ios":"levelo://app?vid=0d8dcbec-8a47-4c1f-aa7d-6e0b3dded342"},"vehicle_type_id":"4","last_reported":1736442512,"current_range_meters":38800,"station_id":"ce4bhih2rcd13ifvqfs0","pricing_plan_id":"cebpf4jnsgd1na2vs0mg"},{"bike_id":"9c034c72-3b9e-49ce-9a4d-4c4d5e20e5dd","system_id":"levelo_inurba_marseille","lat":43.3303,"lon":5.3901,"is_reserved":false,"is_disabled":false,"rental_uris":{"android":"levelo://app?vid=9c034c72-3b9e-49ce-9a4d-4c4d5e20e5dd","ios":"levelo://app?vid=9c034c72-3b9e-49ce-9a4d-4c4d5e20e5dd"},"vehicle_type_id":"4","last_reported":1736442512,"current_range_meters":12800,"station_id":"ce4bhr92rcd13ifvqhrg","pricing_plan_id":"cebpf4jnsgd1na2vs0mg"},{"bike_id":"8d76f085-dd4b-4e5f-95cf-95c832662045","system_id":"levelo_inurba_marseille","lat":43.33026,"lon":5.39037,"is_reserved":false,"is_disabled":false,"rental_uris":{"android":"levelo://app?vid=8d76f085-dd4b-4e5f-95cf-95c832662045","ios":"levelo://app?vid=8d76f085-dd4b-4e5f-95cf-95c832662045"},"vehicle_type_id":"4","last_reported":1736442512,"current_range_meters":24000,"station_id":"ce4bhr92rcd13ifvqhrg","pricing_plan_id":"cebpf4jnsgd1na2vs0mg"},{"bike_id":"93346242-85d0-4ee5-9226-52bb853d801a","system_id":"levelo_inurba_marseille","lat":43.27917,"lon":5.39576,"is_reserved":false,"is_disabled":false,"rental_uris":{"android":"levelo://app?vid=93346242-85d0-4ee5-9226-52bb853d801a","ios":"levelo://app?vid=93346242-85d0-4ee5-9226-52bb853d801a"},"vehicle_type_id":"4","last_reported":1736442512,"current_range_meters":24800,"station_id":"ce4bhf92rcd13ifvqf40","pricing_plan_id":"cebpf4jnsgd1na2vs0mg"},{"bike_id":"37d8e1ef-d932-49d7-b893-49542cf44d13","system_id":"levelo_inurba_marseille","lat":43.32345,"lon":5.40629,"is_reserved":false,"is_disabled":true,"rental_uris":{"android":"levelo://app?vid=37d8e1ef-d932-49d7-b893-49542cf44d13","ios":"levelo://app?vid=37d8e1ef-d932-49d7-b893-49542cf44d13"},"vehicle_type_id":"4","last_reported":1736442512,"current_range_meters":0,"station_id":"ce4bhq92rcd13ifvqhjg","pricing_plan_id":"cebpf4jnsgd1na2vs0mg"},{"bike_id":"458c3d58-e6a5-4d1a-8df2-05d9cb3e0072","system_id":"levelo_inurba_marseille","lat":43.25584,"lon":5.38216,"is_reserved":false,"is_disabled":false,"rental_uris":{"android":"levelo://app?vid=458c3d58-e6a5-4d1a-8df2-05d9cb3e0072","ios":"levelo://app?vid=458c3d58-e6a5-4d1a-8df2-05d9cb3e0072"},"vehicle_type_id":"4","last_reported":1736442512,"current_range_meters":20000,"station_id":"ce4bhih2rcd13ifvqfs0","pricing_plan_id":"cebpf4jnsgd1na2vs0mg"},{"bike_id":"9a4f5b41-60a6-4eaa-b293-4af55f6b32ed","system_id":"levelo_inurba_marseille","lat":43.24663,"lon":5.38167,"is_reserved":false,"is_disabled":false,"rental_uris":{"android":"levelo://app?vid=9a4f5b41-60a6-4eaa-b293-4af55f6b32ed","ios":"levelo://app?vid=9a4f5b41-60a6-4eaa-b293-4af55f6b32ed"},"vehicle_type_id":"4","last_reported":1736442512,"current_range_meters":30400,"station_id":"ce4bhih2rcd13ifvqfr0","pricing_plan_id":"cebpf4jnsgd1na2vs0mg"},{"bike_id":"265ccaa9-677e-4387-a485-17aa67c4f6fa","system_id":"levelo_inurba_marseille","lat":43.29228,"lon":5.37189,"is_reserved":false,"is_disabled":false,"rental_uris":{"android":"levelo://app?vid=265ccaa9-677e-4387-a485-17aa67c4f6fa","ios":"levelo://app?vid=265ccaa9-677e-4387-a485-17aa67c4f6fa"},"vehicle_type_id":"4","last_reported":1736442512,"current_range_meters":30000,"station_id":"","pricing_plan_id":"cebpf4jnsgd1na2vs0mg"},{"bike_id":"a2b8733f-18d3-4c7f-a699-4ad1eee082fe","system_id":"levelo_inurba_marseille","lat":43.31724,"lon":5.42393,"is_reserved":false,"is_disabled":false,"rental_uris":{"android":"levelo://app?vid=a2b8733f-18d3-4c7f-a699-4ad1eee082fe","ios":"levelo://app?vid=a2b8733f-18d3-4c7f-a699-4ad1eee082fe"},"vehicle_type_id":"4","last_reported":1736442512,"current_range_meters":39200,"station_id":"ce4bhp92rcd13ifvqhbg","pricing_plan_id":"cebpf4jnsgd1na2vs0mg"},{"bike_id":"22024e6f-fc7c-4967-97cf-e9d63a44e8f1","system_id":"levelo_inurba_marseille","lat":43.29529,"lon":5.38539,"is_reserved":false,"is_disabled":false,"rental_uris":{"android":"levelo://app?vid=22024e6f-fc7c-4967-97cf-e9d63a44e8f1","ios":"levelo://app?vid=22024e6f-fc7c-4967-97cf-e9d63a44e8f1"},"vehicle_type_id":"4","last_reported":1736442512,"current_range_meters":38800,"station_id":"ce4bgih2rcd13ifvqba0","pricing_plan_id":"cebpf4jnsgd1na2vs0mg"},{"bike_id":"385264b1-4061-488d-8853-f978ac44f3cb","system_id":"levelo_inurba_marseille","lat":43.29246,"lon":5.40905,"is_reserved":false,"is_disabled":false,"rental_uris":{"android":"levelo://app?vid=385264b1-4061-488d-8853-f978ac44f3cb","ios":"levelo://app?vid=385264b1-4061-488d-8853-f978ac44f3cb"},"vehicle_type_id":"4","last_reported":1736442512,"current_range_meters":39200,"station_id":"ce4bh192rcd13ifvqdc0","pricing_plan_id":"cebpf4jnsgd1na2vs0mg"},{"bike_id":"4b9552e7-7313-44cc-ba72-6ebb3cfea997","system_id":"levelo_inurba_marseille","lat":43.260574,"lon":5.393973,"is_reserved":false,"is_disabled":false,"rental_uris":{"android":"levelo://app?vid=4b9552e7-7313-44cc-ba72-6ebb3cfea997","ios":"levelo://app?vid=4b9552e7-7313-44cc-ba72-6ebb3cfea997"},"vehicle_type_id":"4","last_reported":1736442512,"current_range_meters":39200,"station_id":"ce4bhh92rcd13ifvqfj0","pricing_plan_id":"cebpf4jnsgd1na2vs0mg"},{"bike_id":"c150f8af-fc8f-4eb5-ac98-0b06dadf4ce0","system_id":"levelo_inurba_marseille","lat":43.25579,"lon":5.38234,"is_reserved":false,"is_disabled":false,"rental_uris":{"android":"levelo://app?vid=c150f8af-fc8f-4eb5-ac98-0b06dadf4ce0","ios":"levelo://app?vid=c150f8af-fc8f-4eb5-ac98-0b06dadf4ce0"},"vehicle_type_id":"4","last_reported":1736442512,"current_range_meters":36800,"station_id":"ce4bhih2rcd13ifvqfs0","pricing_plan_id":"cebpf4jnsgd1na2vs0mg"},{"bike_id":"98516c6c-770c-419d-b009-47d399b69de8","system_id":"levelo_inurba_marseille","lat":43.28034,"lon":5.3695,"is_reserved":false,"is_disabled":false,"rental_uris":{"android":"levelo://app?vid=98516c6c-770c-419d-b009-47d399b69de8","ios":"levelo://app?vid=98516c6c-770c-419d-b009-47d399b69de8"},"vehicle_type_id":"4","last_reported":1736442512,"current_range_meters":34800,"station_id":"ce4bha12rcd13ifvqef0","pricing_plan_id":"cebpf4jnsgd1na2vs0mg"},{"bike_id":"3802f60b-1086-4694-a9f7-3c1f6de2582f","system_id":"levelo_inurba_marseille","lat":43.24814,"lon":5.37455,"is_reserved":false,"is_disabled":false,"rental_uris":{"android":"levelo://app?vid=3802f60b-1086-4694-a9f7-3c1f6de2582f","ios":"levelo://app?vid=3802f60b-1086-4694-a9f7-3c1f6de2582f"},"vehicle_type_id":"4","last_reported":1736442512,"current_range_meters":28000,"station_id":"ce4bhgh2rcd13ifvqfb0","pricing_plan_id":"cebpf4jnsgd1na2vs0mg"},{"bike_id":"9caba344-1b60-4f14-b9c5-939ad8d184c2","system_id":"levelo_inurba_marseille","lat":43.29908,"lon":5.38166,"is_reserved":false,"is_disabled":false,"rental_uris":{"android":"levelo://app?vid=9caba344-1b60-4f14-b9c5-939ad8d184c2","ios":"levelo://app?vid=9caba344-1b60-4f14-b9c5-939ad8d184c2"},"vehicle_type_id":"4","last_reported":1736442512,"current_range_meters":30000,"station_id":"ce4bgj12rcd13ifvqbc0","pricing_plan_id":"cebpf4jnsgd1na2vs0mg"},{"bike_id":"367ad41e-531f-426e-a46f-dfd4081444de","system_id":"levelo_inurba_marseille","lat":43.29555,"lon":5.42281,"is_reserved":false,"is_disabled":false,"rental_uris":{"android":"levelo://app?vid=367ad41e-531f-426e-a46f-dfd4081444de","ios":"levelo://app?vid=367ad41e-531f-426e-a46f-dfd4081444de"},"vehicle_type_id":"4","last_reported":1736442512,"current_range_meters":20800,"station_id":"ce4bhph2rcd13ifvqhdg","pricing_plan_id":"cebpf4jnsgd1na2vs0mg"},{"bike_id":"ec65900d-5592-4626-ae29-b76514ea5fd9","system_id":"levelo_inurba_marseille","lat":43.289406,"lon":5.366448,"is_reserved":false,"is_disabled":false,"rental_uris":{"android":"levelo://app?vid=ec65900d-5592-4626-ae29-b76514ea5fd9","ios":"levelo://app?vid=ec65900d-5592-4626-ae29-b76514ea5fd9"},"vehicle_type_id":"4","last_reported":1736442512,"current_range_meters":24400,"station_id":"ce4bhap2rcd13ifvqek0","pricing_plan_id":"cebpf4jnsgd1na2vs0mg"},{"bike_id":"60ce1b70-e47d-4caf-abee-52e7d5bfe299","system_id":"levelo_inurba_marseille","lat":43.24647,"lon":5.38882,"is_reserved":false,"is_disabled":false,"rental_uris":{"android":"levelo://app?vid=60ce1b70-e47d-4caf-abee-52e7d5bfe299","ios":"levelo://app?vid=60ce1b70-e47d-4caf-abee-52e7d5bfe299"},"vehicle_type_id":"4","last_reported":1736442512,"current_range_meters":37600,"station_id":"ce4bhg12rcd13ifvqf60","pricing_plan_id":"cebpf4jnsgd1na2vs0mg"},{"bike_id":"7627c0f8-e30b-4018-a991-3dd21750fc78","system_id":"levelo_inurba_marseille","lat":43.28711,"lon":5.37946,"is_reserved":false,"is_disabled":true,"rental_uris":{"android":"levelo://app?vid=7627c0f8-e30b-4018-a991-3dd21750fc78","ios":"levelo://app?vid=7627c0f8-e30b-4018-a991-3dd21750fc78"},"vehicle_type_id":"4","last_reported":1736442512,"current_range_meters":38800,"station_id":"ce4bh9p2rcd13ifvqec0","pricing_plan_id":"cebpf4jnsgd1na2vs0mg"},{"bike_id":"bf34816d-cef3-45df-a814-b99e8dc67c6d","system_id":"levelo_inurba_marseille","lat":43.2319,"lon":5.39978,"is_reserved":false,"is_disabled":false,"rental_uris":{"android":"levelo://app?vid=bf34816d-cef3-45df-a814-b99e8dc67c6d","ios":"levelo://app?vid=bf34816d-cef3-45df-a814-b99e8dc67c6d"},"vehicle_type_id":"4","last_reported":1736442512,"current_range_meters":37600,"station_id":"ce4bhn12rcd13ifvqgqg","pricing_plan_id":"cebpf4jnsgd1na2vs0mg"},{"bike_id":"fdd1c975-72e3-4a95-84d0-3b98dbe8418d","system_id":"levelo_inurba_marseille","lat":43.27814,"lon":5.40718,"is_reserved":false,"is_disabled":false,"rental_uris":{"android":"levelo://app?vid=fdd1c975-72e3-4a95-84d0-3b98dbe8418d","ios":"levelo://app?vid=fdd1c975-72e3-4a95-84d0-3b98dbe8418d"},"vehicle_type_id":"4","last_reported":1736442512,"current_range_meters":38400,"station_id":"ce4bhnh2rcd13ifvqgtg","pricing_plan_id":"cebpf4jnsgd1na2vs0mg"},{"bike_id":"b7fa7034-b1b7-4432-81ad-7cd9060b906d","system_id":"levelo_inurba_marseille","lat":43.30135,"lon":5.39869,"is_reserved":false,"is_disabled":false,"rental_uris":{"android":"levelo://app?vid=b7fa7034-b1b7-4432-81ad-7cd9060b906d","ios":"levelo://app?vid=b7fa7034-b1b7-4432-81ad-7cd9060b906d"},"vehicle_type_id":"4","last_reported":1736442512,"current_range_meters":38000,"station_id":"ce4bh0h2rcd13ifvqd40","pricing_plan_id":"cebpf4jnsgd1na2vs0mg"},{"bike_id":"8c6d6f56-7adb-499b-ab21-821886c854fe","system_id":"levelo_inurba_marseille","lat":43.28703,"lon":5.37385,"is_reserved":false,"is_disabled":false,"rental_uris":{"android":"levelo://app?vid=8c6d6f56-7adb-499b-ab21-821886c854fe","ios":"levelo://app?vid=8c6d6f56-7adb-499b-ab21-821886c854fe"},"vehicle_type_id":"4","last_reported":1736442512,"current_range_meters":32000,"station_id":"ce4bh3p2rcd13ifvqdq0","pricing_plan_id":"cebpf4jnsgd1na2vs0mg"},{"bike_id":"4b4165a2-cf34-497a-a955-c9336504b59d","system_id":"levelo_inurba_marseille","lat":43.29203,"lon":5.35806,"is_reserved":false,"is_disabled":false,"rental_uris":{"android":"levelo://app?vid=4b4165a2-cf34-497a-a955-c9336504b59d","ios":"levelo://app?vid=4b4165a2-cf34-497a-a955-c9336504b59d"},"vehicle_type_id":"4","last_reported":1736442512,"current_range_meters":39200,"station_id":"ce4bhb12rcd13ifvqel0","pricing_plan_id":"cebpf4jnsgd1na2vs0mg"},{"bike_id":"cad4a6a5-5208-47dd-a17d-ca38efa63f22","system_id":"levelo_inurba_marseille","lat":43.31065,"lon":5.38208,"is_reserved":false,"is_disabled":true,"rental_uris":{"android":"levelo://app?vid=cad4a6a5-5208-47dd-a17d-ca38efa63f22","ios":"levelo://app?vid=cad4a6a5-5208-47dd-a17d-ca38efa63f22"},"vehicle_type_id":"4","last_reported":1736442512,"current_range_meters":29600,"station_id":"","pricing_plan_id":"cebpf4jnsgd1na2vs0mg"},{"bike_id":"59680959-993e-49d5-827b-d5b17bfefc71","system_id":"levelo_inurba_marseille","lat":43.27827,"lon":5.3921,"is_reserved":false,"is_disabled":false,"rental_uris":{"android":"levelo://app?vid=59680959-993e-49d5-827b-d5b17bfefc71","ios":"levelo://app?vid=59680959-993e-49d5-827b-d5b17bfefc71"},"vehicle_type_id":"4","last_reported":1736442512,"current_range_meters":5600,"station_id":"ce4bhjp2rcd13ifvqga0","pricing_plan_id":"cebpf4jnsgd1na2vs0mg"},{"bike_id":"3cbd5e48-3669-47e0-a3b4-efb92db61728","system_id":"levelo_inurba_marseille","lat":43.28023,"lon":5.3696,"is_reserved":false,"is_disabled":false,"rental_uris":{"android":"levelo://app?vid=3cbd5e48-3669-47e0-a3b4-efb92db61728","ios":"levelo://app?vid=3cbd5e48-3669-47e0-a3b4-efb92db61728"},"vehicle_type_id":"4","last_reported":1736442512,"current_range_meters":38800,"station_id":"ce4bha12rcd13ifvqef0","pricing_plan_id":"cebpf4jnsgd1na2vs0mg"},{"bike_id":"6c9daffc-e174-4a9a-8b3e-30a6cf4027c8","system_id":"levelo_inurba_marseille","lat":43.32106,"lon":5.36768,"is_reserved":false,"is_disabled":false,"rental_uris":{"android":"levelo://app?vid=6c9daffc-e174-4a9a-8b3e-30a6cf4027c8","ios":"levelo://app?vid=6c9daffc-e174-4a9a-8b3e-30a6cf4027c8"},"vehicle_type_id":"4","last_reported":1736442512,"current_range_meters":38800,"station_id":"ce4bhrh2rcd13ifvqhug","pricing_plan_id":"cebpf4jnsgd1na2vs0mg"},{"bike_id":"feb1c606-2341-4918-8abd-da8a12f4e1f7","system_id":"levelo_inurba_marseille","lat":43.31356,"lon":5.38485,"is_reserved":false,"is_disabled":false,"rental_uris":{"android":"levelo://app?vid=feb1c606-2341-4918-8abd-da8a12f4e1f7","ios":"levelo://app?vid=feb1c606-2341-4918-8abd-da8a12f4e1f7"},"vehicle_type_id":"4","last_reported":1736442512,"current_range_meters":36400,"station_id":"ce4bgt92rcd13ifvqcf0","pricing_plan_id":"cebpf4jnsgd1na2vs0mg"},{"bike_id":"7475f743-fa68-4b23-ab37-60e01b01184f","system_id":"levelo_inurba_marseille","lat":43.32114,"lon":5.36773,"is_reserved":false,"is_disabled":false,"rental_uris":{"android":"levelo://app?vid=7475f743-fa68-4b23-ab37-60e01b01184f","ios":"levelo://app?vid=7475f743-fa68-4b23-ab37-60e01b01184f"},"vehicle_type_id":"4","last_reported":1736442512,"current_range_meters":36000,"station_id":"ce4bhrh2rcd13ifvqhug","pricing_plan_id":"cebpf4jnsgd1na2vs0mg"},{"bike_id":"32e4f23c-4681-4116-80d2-6e73c5fc5a79","system_id":"levelo_inurba_marseille","lat":43.28449,"lon":5.35895,"is_reserved":false,"is_disabled":false,"rental_uris":{"android":"levelo://app?vid=32e4f23c-4681-4116-80d2-6e73c5fc5a79","ios":"levelo://app?vid=32e4f23c-4681-4116-80d2-6e73c5fc5a79"},"vehicle_type_id":"4","last_reported":1736442512,"current_range_meters":30800,"station_id":"ce4bhah2rcd13ifvqei0","pricing_plan_id":"cebpf4jnsgd1na2vs0mg"},{"bike_id":"3d97d3e0-d45c-47c2-9a56-3b2182dc5b15","system_id":"levelo_inurba_marseille","lat":43.27968,"lon":5.38757,"is_reserved":false,"is_disabled":true,"rental_uris":{"android":"levelo://app?vid=3d97d3e0-d45c-47c2-9a56-3b2182dc5b15","ios":"levelo://app?vid=3d97d3e0-d45c-47c2-9a56-3b2182dc5b15"},"vehicle_type_id":"4","last_reported":1736442512,"current_range_meters":0,"station_id":"ce4bhg12rcd13ifvqf80","pricing_plan_id":"cebpf4jnsgd1na2vs0mg"},{"bike_id":"f516a8b7-129a-496d-a7e8-2ccdd1309a72","system_id":"levelo_inurba_marseille","lat":43.27998,"lon":5.40004,"is_reserved":false,"is_disabled":false,"rental_uris":{"android":"levelo://app?vid=f516a8b7-129a-496d-a7e8-2ccdd1309a72","ios":"levelo://app?vid=f516a8b7-129a-496d-a7e8-2ccdd1309a72"},"vehicle_type_id":"4","last_reported":1736442512,"current_range_meters":8000,"station_id":"ce4bho92rcd13ifvqh4g","pricing_plan_id":"cebpf4jnsgd1na2vs0mg"},{"bike_id":"2eb264c8-1e8d-4f17-a831-3cda07857865","system_id":"levelo_inurba_marseille","lat":43.32105,"lon":5.36786,"is_reserved":false,"is_disabled":false,"rental_uris":{"android":"levelo://app?vid=2eb264c8-1e8d-4f17-a831-3cda07857865","ios":"levelo://app?vid=2eb264c8-1e8d-4f17-a831-3cda07857865"},"vehicle_type_id":"4","last_reported":1736442512,"current_range_meters":37600,"station_id":"ce4bhrh2rcd13ifvqhug","pricing_plan_id":"cebpf4jnsgd1na2vs0mg"},{"bike_id":"2b1b2556-ca63-4d38-9b24-f9d37c6eb9fa","system_id":"levelo_inurba_marseille","lat":43.28265,"lon":5.35072,"is_reserved":false,"is_disabled":false,"rental_uris":{"android":"levelo://app?vid=2b1b2556-ca63-4d38-9b24-f9d37c6eb9fa","ios":"levelo://app?vid=2b1b2556-ca63-4d38-9b24-f9d37c6eb9fa"},"vehicle_type_id":"4","last_reported":1736442512,"current_range_meters":6000,"station_id":"ce4bhbp2rcd13ifvqerg","pricing_plan_id":"cebpf4jnsgd1na2vs0mg"},{"bike_id":"1e2223a2-c032-49e7-8dbf-982df86a0520","system_id":"levelo_inurba_marseille","lat":43.22925,"lon":5.35377,"is_reserved":false,"is_disabled":false,"rental_uris":{"android":"levelo://app?vid=1e2223a2-c032-49e7-8dbf-982df86a0520","ios":"levelo://app?vid=1e2223a2-c032-49e7-8dbf-982df86a0520"},"vehicle_type_id":"4","last_reported":1736442512,"current_range_meters":36400,"station_id":"cpo3532slgdg3j2ikp40","pricing_plan_id":"cebpf4jnsgd1na2vs0mg"},{"bike_id":"c0a11323-0163-4287-8d31-2cc033ba97db","system_id":"levelo_inurba_marseille","lat":43.29279,"lon":5.40119,"is_reserved":false,"is_disabled":false,"rental_uris":{"android":"levelo://app?vid=c0a11323-0163-4287-8d31-2cc033ba97db","ios":"levelo://app?vid=c0a11323-0163-4287-8d31-2cc033ba97db"},"vehicle_type_id":"4","last_reported":1736442512,"current_range_meters":13600,"station_id":"ce4bh312rcd13ifvqdk0","pricing_plan_id":"cebpf4jnsgd1na2vs0mg"},{"bike_id":"d46f057d-b699-44ae-990e-92298c2b7139","system_id":"levelo_inurba_marseille","lat":43.23151,"lon":5.43713,"is_reserved":false,"is_disabled":false,"rental_uris":{"android":"levelo://app?vid=d46f057d-b699-44ae-990e-92298c2b7139","ios":"levelo://app?vid=d46f057d-b699-44ae-990e-92298c2b7139"},"vehicle_type_id":"4","last_reported":1736442512,"current_range_meters":19200,"station_id":"ce4bhmp2rcd13ifvqgog","pricing_plan_id":"cebpf4jnsgd1na2vs0mg"},{"bike_id":"be8a233f-ad85-41b2-af03-bfa1e3033438","system_id":"levelo_inurba_marseille","lat":43.23198,"lon":5.35547,"is_reserved":false,"is_disabled":false,"rental_uris":{"android":"levelo://app?vid=be8a233f-ad85-41b2-af03-bfa1e3033438","ios":"levelo://app?vid=be8a233f-ad85-41b2-af03-bfa1e3033438"},"vehicle_type_id":"4","last_reported":1736442512,"current_range_meters":27600,"station_id":"ce4bhu92rcd13ifvqi70","pricing_plan_id":"cebpf4jnsgd1na2vs0mg"},{"bike_id":"b124ca2f-2fd0-4c56-960f-1b8a90949c3b","system_id":"levelo_inurba_marseille","lat":43.29549,"lon":5.37497,"is_reserved":false,"is_disabled":true,"rental_uris":{"android":"levelo://app?vid=b124ca2f-2fd0-4c56-960f-1b8a90949c3b","ios":"levelo://app?vid=b124ca2f-2fd0-4c56-960f-1b8a90949c3b"},"vehicle_type_id":"4","last_reported":1736442512,"current_range_meters":28400,"station_id":"ce4bgkp2rcd13ifvqbmg","pricing_plan_id":"cebpf4jnsgd1na2vs0mg"},{"bike_id":"4e961a78-0f5c-4fc7-98ca-40069191b9f0","system_id":"levelo_inurba_marseille","lat":43.28428,"lon":5.34986,"is_reserved":false,"is_disabled":false,"rental_uris":{"android":"levelo://app?vid=4e961a78-0f5c-4fc7-98ca-40069191b9f0","ios":"levelo://app?vid=4e961a78-0f5c-4fc7-98ca-40069191b9f0"},"vehicle_type_id":"4","last_reported":1736442512,"current_range_meters":36800,"station_id":"ce4bhbh2rcd13ifvqepg","pricing_plan_id":"cebpf4jnsgd1na2vs0mg"},{"bike_id":"4a81f761-3baa-44bb-afbb-77dc9fa67de3","system_id":"levelo_inurba_marseille","lat":43.30247,"lon":5.40058,"is_reserved":false,"is_disabled":true,"rental_uris":{"android":"levelo://app?vid=4a81f761-3baa-44bb-afbb-77dc9fa67de3","ios":"levelo://app?vid=4a81f761-3baa-44bb-afbb-77dc9fa67de3"},"vehicle_type_id":"4","last_reported":1736442512,"current_range_meters":1200,"station_id":"ce4bgvh2rcd13ifvqcs0","pricing_plan_id":"cebpf4jnsgd1na2vs0mg"},{"bike_id":"2bf137df-75b1-44ad-8782-8d7ae5906911","system_id":"levelo_inurba_marseille","lat":43.3045,"lon":5.38891,"is_reserved":false,"is_disabled":false,"rental_uris":{"android":"levelo://app?vid=2bf137df-75b1-44ad-8782-8d7ae5906911","ios":"levelo://app?vid=2bf137df-75b1-44ad-8782-8d7ae5906911"},"vehicle_type_id":"4","last_reported":1736442512,"current_range_meters":36800,"station_id":"ce4bgk12rcd13ifvqbi0","pricing_plan_id":"cebpf4jnsgd1na2vs0mg"},{"bike_id":"ea0719f3-eceb-440b-85a2-c16b31e4d610","system_id":"levelo_inurba_marseille","lat":43.292178,"lon":5.360719,"is_reserved":false,"is_disabled":false,"rental_uris":{"android":"levelo://app?vid=ea0719f3-eceb-440b-85a2-c16b31e4d610","ios":"levelo://app?vid=ea0719f3-eceb-440b-85a2-c16b31e4d610"},"vehicle_type_id":"4","last_reported":1736442512,"current_range_meters":38800,"station_id":"ce4bhbh2rcd13ifvqeqg","pricing_plan_id":"cebpf4jnsgd1na2vs0mg"},{"bike_id":"d85f28c7-d3a2-47fc-8fc7-067b6a5a5b57","system_id":"levelo_inurba_marseille","lat":43.29074,"lon":5.38097,"is_reserved":false,"is_disabled":true,"rental_uris":{"android":"levelo://app?vid=d85f28c7-d3a2-47fc-8fc7-067b6a5a5b57","ios":"levelo://app?vid=d85f28c7-d3a2-47fc-8fc7-067b6a5a5b57"},"vehicle_type_id":"4","last_reported":1736442512,"current_range_meters":30800,"station_id":"ce4bh512rcd13ifvqe2g","pricing_plan_id":"cebpf4jnsgd1na2vs0mg"},{"bike_id":"bf9f8dc0-fe29-4988-b195-24737592967a","system_id":"levelo_inurba_marseille","lat":43.23184,"lon":5.39983,"is_reserved":false,"is_disabled":false,"rental_uris":{"android":"levelo://app?vid=bf9f8dc0-fe29-4988-b195-24737592967a","ios":"levelo://app?vid=bf9f8dc0-fe29-4988-b195-24737592967a"},"vehicle_type_id":"4","last_reported":1736442512,"current_range_meters":28000,"station_id":"ce4bhn12rcd13ifvqgqg","pricing_plan_id":"cebpf4jnsgd1na2vs0mg"},{"bike_id":"661421ef-43d8-4a9a-9b63-a317032c4e73","system_id":"levelo_inurba_marseille","lat":43.3015,"lon":5.38804,"is_reserved":false,"is_disabled":true,"rental_uris":{"android":"levelo://app?vid=661421ef-43d8-4a9a-9b63-a317032c4e73","ios":"levelo://app?vid=661421ef-43d8-4a9a-9b63-a317032c4e73"},"vehicle_type_id":"4","last_reported":1736442512,"current_range_meters":38800,"station_id":"ce4bghh2rcd13ifvqb60","pricing_plan_id":"cebpf4jnsgd1na2vs0mg"},{"bike_id":"d72e0a36-626b-4bfe-8710-79b936ad8a8d","system_id":"levelo_inurba_marseille","lat":43.264961,"lon":5.395411,"is_reserved":false,"is_disabled":false,"rental_uris":{"android":"levelo://app?vid=d72e0a36-626b-4bfe-8710-79b936ad8a8d","ios":"levelo://app?vid=d72e0a36-626b-4bfe-8710-79b936ad8a8d"},"vehicle_type_id":"4","last_reported":1736442512,"current_range_meters":20000,"station_id":"ce4bhi12rcd13ifvqfq0","pricing_plan_id":"cebpf4jnsgd1na2vs0mg"},{"bike_id":"fc9288ed-9da0-4c7f-9aba-d64070cdbf51","system_id":"levelo_inurba_marseille","lat":43.23154,"lon":5.43678,"is_reserved":false,"is_disabled":false,"rental_uris":{"android":"levelo://app?vid=fc9288ed-9da0-4c7f-9aba-d64070cdbf51","ios":"levelo://app?vid=fc9288ed-9da0-4c7f-9aba-d64070cdbf51"},"vehicle_type_id":"4","last_reported":1736442512,"current_range_meters":38800,"station_id":"ce4bhmp2rcd13ifvqgog","pricing_plan_id":"cebpf4jnsgd1na2vs0mg"},{"bike_id":"ad28bd53-1c8c-44ea-9a1c-1e5a5b2498fe","system_id":"levelo_inurba_marseille","lat":43.24163,"lon":5.36407,"is_reserved":false,"is_disabled":false,"rental_uris":{"android":"levelo://app?vid=ad28bd53-1c8c-44ea-9a1c-1e5a5b2498fe","ios":"levelo://app?vid=ad28bd53-1c8c-44ea-9a1c-1e5a5b2498fe"},"vehicle_type_id":"4","last_reported":1736442512,"current_range_meters":14000,"station_id":"cpo36qri1sfpv3e86is0","pricing_plan_id":"cebpf4jnsgd1na2vs0mg"},{"bike_id":"87a749b8-ab4c-447d-a002-baf94ef61f7c","system_id":"levelo_inurba_marseille","lat":43.323121,"lon":5.406223,"is_reserved":false,"is_disabled":false,"rental_uris":{"android":"levelo://app?vid=87a749b8-ab4c-447d-a002-baf94ef61f7c","ios":"levelo://app?vid=87a749b8-ab4c-447d-a002-baf94ef61f7c"},"vehicle_type_id":"4","last_reported":1736442512,"current_range_meters":12400,"station_id":"ce4bhq92rcd13ifvqhjg","pricing_plan_id":"cebpf4jnsgd1na2vs0mg"},{"bike_id":"70cf5f70-3165-478f-95fb-d62f1d0e738e","system_id":"levelo_inurba_marseille","lat":43.24078,"lon":5.37749,"is_reserved":false,"is_disabled":false,"rental_uris":{"android":"levelo://app?vid=70cf5f70-3165-478f-95fb-d62f1d0e738e","ios":"levelo://app?vid=70cf5f70-3165-478f-95fb-d62f1d0e738e"},"vehicle_type_id":"4","last_reported":1736442512,"current_range_meters":28000,"station_id":"ce4bhnp2rcd13ifvqgvg","pricing_plan_id":"cebpf4jnsgd1na2vs0mg"},{"bike_id":"2755269b-0944-494f-aaba-5d693ca0249a","system_id":"levelo_inurba_marseille","lat":43.27994,"lon":5.40006,"is_reserved":false,"is_disabled":false,"rental_uris":{"android":"levelo://app?vid=2755269b-0944-494f-aaba-5d693ca0249a","ios":"levelo://app?vid=2755269b-0944-494f-aaba-5d693ca0249a"},"vehicle_type_id":"4","last_reported":1736442512,"current_range_meters":16000,"station_id":"ce4bho92rcd13ifvqh4g","pricing_plan_id":"cebpf4jnsgd1na2vs0mg"},{"bike_id":"bc23334c-7da1-4900-9336-f7ef08391abc","system_id":"levelo_inurba_marseille","lat":43.26201,"lon":5.37931,"is_reserved":false,"is_disabled":false,"rental_uris":{"android":"levelo://app?vid=bc23334c-7da1-4900-9336-f7ef08391abc","ios":"levelo://app?vid=bc23334c-7da1-4900-9336-f7ef08391abc"},"vehicle_type_id":"4","last_reported":1736442512,"current_range_meters":13600,"station_id":"ce4bhjp2rcd13ifvqg90","pricing_plan_id":"cebpf4jnsgd1na2vs0mg"},{"bike_id":"37aa6440-0a1c-4740-a2e8-d43ac09bb6c8","system_id":"levelo_inurba_marseille","lat":43.29049,"lon":5.39964,"is_reserved":false,"is_disabled":true,"rental_uris":{"android":"levelo://app?vid=37aa6440-0a1c-4740-a2e8-d43ac09bb6c8","ios":"levelo://app?vid=37aa6440-0a1c-4740-a2e8-d43ac09bb6c8"},"vehicle_type_id":"4","last_reported":1736442512,"current_range_meters":400,"station_id":"ce4bh392rcd13ifvqdm0","pricing_plan_id":"cebpf4jnsgd1na2vs0mg"},{"bike_id":"69193c43-77f1-4f09-92b5-288a5a6474bb","system_id":"levelo_inurba_marseille","lat":43.29198,"lon":5.35812,"is_reserved":false,"is_disabled":false,"rental_uris":{"android":"levelo://app?vid=69193c43-77f1-4f09-92b5-288a5a6474bb","ios":"levelo://app?vid=69193c43-77f1-4f09-92b5-288a5a6474bb"},"vehicle_type_id":"4","last_reported":1736442512,"current_range_meters":26800,"station_id":"ce4bhb12rcd13ifvqel0","pricing_plan_id":"cebpf4jnsgd1na2vs0mg"},{"bike_id":"07dcd04f-5292-4f48-b5f6-7d5b224659a1","system_id":"levelo_inurba_marseille","lat":43.26681,"lon":5.38274,"is_reserved":false,"is_disabled":false,"rental_uris":{"android":"levelo://app?vid=07dcd04f-5292-4f48-b5f6-7d5b224659a1","ios":"levelo://app?vid=07dcd04f-5292-4f48-b5f6-7d5b224659a1"},"vehicle_type_id":"4","last_reported":1736442512,"current_range_meters":38800,"station_id":"ce4bhg92rcd13ifvqf90","pricing_plan_id":"cebpf4jnsgd1na2vs0mg"},{"bike_id":"c902759d-31fa-4fe7-9231-8edf18e8650a","system_id":"levelo_inurba_marseille","lat":43.31172,"lon":5.38711,"is_reserved":false,"is_disabled":false,"rental_uris":{"android":"levelo://app?vid=c902759d-31fa-4fe7-9231-8edf18e8650a","ios":"levelo://app?vid=c902759d-31fa-4fe7-9231-8edf18e8650a"},"vehicle_type_id":"4","last_reported":1736442512,"current_range_meters":37600,"station_id":"ce4bgv12rcd13ifvqcp0","pricing_plan_id":"cebpf4jnsgd1na2vs0mg"},{"bike_id":"b8acbba0-a715-4ced-a2aa-0517db10ac9d","system_id":"levelo_inurba_marseille","lat":43.22929,"lon":5.3538,"is_reserved":false,"is_disabled":false,"rental_uris":{"android":"levelo://app?vid=b8acbba0-a715-4ced-a2aa-0517db10ac9d","ios":"levelo://app?vid=b8acbba0-a715-4ced-a2aa-0517db10ac9d"},"vehicle_type_id":"4","last_reported":1736442512,"current_range_meters":10800,"station_id":"cpo3532slgdg3j2ikp40","pricing_plan_id":"cebpf4jnsgd1na2vs0mg"},{"bike_id":"24310845-dd7b-4d25-a99d-65d599b0ee35","system_id":"levelo_inurba_marseille","lat":43.26034,"lon":5.37539,"is_reserved":false,"is_disabled":false,"rental_uris":{"android":"levelo://app?vid=24310845-dd7b-4d25-a99d-65d599b0ee35","ios":"levelo://app?vid=24310845-dd7b-4d25-a99d-65d599b0ee35"},"vehicle_type_id":"4","last_reported":1736442512,"current_range_meters":39200,"station_id":"ce4bhgh2rcd13ifvqfa0","pricing_plan_id":"cebpf4jnsgd1na2vs0mg"},{"bike_id":"0f0f0a85-94d4-4492-9f5c-ef28136c27ab","system_id":"levelo_inurba_marseille","lat":43.29623,"lon":5.37173,"is_reserved":false,"is_disabled":false,"rental_uris":{"android":"levelo://app?vid=0f0f0a85-94d4-4492-9f5c-ef28136c27ab","ios":"levelo://app?vid=0f0f0a85-94d4-4492-9f5c-ef28136c27ab"},"vehicle_type_id":"4","last_reported":1736442512,"current_range_meters":22400,"station_id":"ce4bgnh2rcd13ifvqc0g","pricing_plan_id":"cebpf4jnsgd1na2vs0mg"},{"bike_id":"d737799b-828d-4d58-a7bb-17d7756d364f","system_id":"levelo_inurba_marseille","lat":43.28939,"lon":5.36637,"is_reserved":false,"is_disabled":false,"rental_uris":{"android":"levelo://app?vid=d737799b-828d-4d58-a7bb-17d7756d364f","ios":"levelo://app?vid=d737799b-828d-4d58-a7bb-17d7756d364f"},"vehicle_type_id":"4","last_reported":1736442512,"current_range_meters":24000,"station_id":"ce4bhap2rcd13ifvqek0","pricing_plan_id":"cebpf4jnsgd1na2vs0mg"},{"bike_id":"9f45806b-0439-44e8-9147-35b59088d5f3","system_id":"levelo_inurba_marseille","lat":43.24175,"lon":5.364,"is_reserved":false,"is_disabled":false,"rental_uris":{"android":"levelo://app?vid=9f45806b-0439-44e8-9147-35b59088d5f3","ios":"levelo://app?vid=9f45806b-0439-44e8-9147-35b59088d5f3"},"vehicle_type_id":"4","last_reported":1736442512,"current_range_meters":18000,"station_id":"cpo36qri1sfpv3e86is0","pricing_plan_id":"cebpf4jnsgd1na2vs0mg"},{"bike_id":"74e35f42-f972-4234-b7e5-b2d2317b4f8a","system_id":"levelo_inurba_marseille","lat":43.32367,"lon":5.3888,"is_reserved":false,"is_disabled":false,"rental_uris":{"android":"levelo://app?vid=74e35f42-f972-4234-b7e5-b2d2317b4f8a","ios":"levelo://app?vid=74e35f42-f972-4234-b7e5-b2d2317b4f8a"},"vehicle_type_id":"4","last_reported":1736442512,"current_range_meters":26000,"station_id":"ce4bhqp2rcd13ifvqhog","pricing_plan_id":"cebpf4jnsgd1na2vs0mg"},{"bike_id":"70b52b49-e7f2-4c40-9788-23935a75eb6c","system_id":"levelo_inurba_marseille","lat":43.26802,"lon":5.40268,"is_reserved":false,"is_disabled":false,"rental_uris":{"android":"levelo://app?vid=70b52b49-e7f2-4c40-9788-23935a75eb6c","ios":"levelo://app?vid=70b52b49-e7f2-4c40-9788-23935a75eb6c"},"vehicle_type_id":"4","last_reported":1736442512,"current_range_meters":21600,"station_id":"ce501612rcd8frsf0b60","pricing_plan_id":"cebpf4jnsgd1na2vs0mg"},{"bike_id":"0817ea51-0c13-4480-a970-245f94c0e118","system_id":"levelo_inurba_marseille","lat":43.31493,"lon":5.37296,"is_reserved":false,"is_disabled":false,"rental_uris":{"android":"levelo://app?vid=0817ea51-0c13-4480-a970-245f94c0e118","ios":"levelo://app?vid=0817ea51-0c13-4480-a970-245f94c0e118"},"vehicle_type_id":"4","last_reported":1736442512,"current_range_meters":38800,"station_id":"ce4bgt12rcd13ifvqcd0","pricing_plan_id":"cebpf4jnsgd1na2vs0mg"},{"bike_id":"dd96a230-8e2a-4b38-9822-56caa338e1b7","system_id":"levelo_inurba_marseille","lat":43.29281,"lon":5.36844,"is_reserved":false,"is_disabled":false,"rental_uris":{"android":"levelo://app?vid=dd96a230-8e2a-4b38-9822-56caa338e1b7","ios":"levelo://app?vid=dd96a230-8e2a-4b38-9822-56caa338e1b7"},"vehicle_type_id":"4","last_reported":1736442512,"current_range_meters":30400,"station_id":"ce4bhbp2rcd13ifvqesg","pricing_plan_id":"cebpf4jnsgd1na2vs0mg"},{"bike_id":"f1e79450-eeb9-4c5e-b16c-26862838f493","system_id":"levelo_inurba_marseille","lat":43.262753,"lon":5.376775,"is_reserved":false,"is_disabled":false,"rental_uris":{"android":"levelo://app?vid=f1e79450-eeb9-4c5e-b16c-26862838f493","ios":"levelo://app?vid=f1e79450-eeb9-4c5e-b16c-26862838f493"},"vehicle_type_id":"4","last_reported":1736442512,"current_range_meters":18800,"station_id":"ce4bhgp2rcd13ifvqfc0","pricing_plan_id":"cebpf4jnsgd1na2vs0mg"},{"bike_id":"147d128a-e84d-44e9-9122-f2ae79c41bd3","system_id":"levelo_inurba_marseille","lat":43.30552,"lon":5.36526,"is_reserved":false,"is_disabled":false,"rental_uris":{"android":"levelo://app?vid=147d128a-e84d-44e9-9122-f2ae79c41bd3","ios":"levelo://app?vid=147d128a-e84d-44e9-9122-f2ae79c41bd3"},"vehicle_type_id":"4","last_reported":1736442512,"current_range_meters":38800,"station_id":"ce4bgs12rcd13ifvqcag","pricing_plan_id":"cebpf4jnsgd1na2vs0mg"},{"bike_id":"cc93c07f-c34c-4113-92b1-28f8b781782c","system_id":"levelo_inurba_marseille","lat":43.3005,"lon":5.37335,"is_reserved":false,"is_disabled":false,"rental_uris":{"android":"levelo://app?vid=cc93c07f-c34c-4113-92b1-28f8b781782c","ios":"levelo://app?vid=cc93c07f-c34c-4113-92b1-28f8b781782c"},"vehicle_type_id":"4","last_reported":1736442512,"current_range_meters":35200,"station_id":"","pricing_plan_id":"cebpf4jnsgd1na2vs0mg"},{"bike_id":"6370fb8f-48fb-4e22-88ec-13fb6cf5b32d","system_id":"levelo_inurba_marseille","lat":43.29166,"lon":5.37153,"is_reserved":false,"is_disabled":false,"rental_uris":{"android":"levelo://app?vid=6370fb8f-48fb-4e22-88ec-13fb6cf5b32d","ios":"levelo://app?vid=6370fb8f-48fb-4e22-88ec-13fb6cf5b32d"},"vehicle_type_id":"4","last_reported":1736442512,"current_range_meters":35200,"station_id":"ce4bha92rcd13ifvqeh0","pricing_plan_id":"cebpf4jnsgd1na2vs0mg"},{"bike_id":"a02335ae-6ecf-4558-a33e-05dce8c3b768","system_id":"levelo_inurba_marseille","lat":43.29553,"lon":5.42289,"is_reserved":false,"is_disabled":false,"rental_uris":{"android":"levelo://app?vid=a02335ae-6ecf-4558-a33e-05dce8c3b768","ios":"levelo://app?vid=a02335ae-6ecf-4558-a33e-05dce8c3b768"},"vehicle_type_id":"4","last_reported":1736442512,"current_range_meters":14400,"station_id":"ce4bhph2rcd13ifvqhdg","pricing_plan_id":"cebpf4jnsgd1na2vs0mg"},{"bike_id":"1833e273-8048-4f75-a79f-9175ba5fb25a","system_id":"levelo_inurba_marseille","lat":43.26485,"lon":5.39555,"is_reserved":false,"is_disabled":false,"rental_uris":{"android":"levelo://app?vid=1833e273-8048-4f75-a79f-9175ba5fb25a","ios":"levelo://app?vid=1833e273-8048-4f75-a79f-9175ba5fb25a"},"vehicle_type_id":"4","last_reported":1736442512,"current_range_meters":11200,"station_id":"ce4bhi12rcd13ifvqfq0","pricing_plan_id":"cebpf4jnsgd1na2vs0mg"},{"bike_id":"120707c0-5393-4234-948d-b3372bf31b12","system_id":"levelo_inurba_marseille","lat":43.28751,"lon":5.39021,"is_reserved":false,"is_disabled":false,"rental_uris":{"android":"levelo://app?vid=120707c0-5393-4234-948d-b3372bf31b12","ios":"levelo://app?vid=120707c0-5393-4234-948d-b3372bf31b12"},"vehicle_type_id":"4","last_reported":1736442512,"current_range_meters":38800,"station_id":"ce4bh292rcd13ifvqdg0","pricing_plan_id":"cebpf4jnsgd1na2vs0mg"},{"bike_id":"522f8f33-6ce1-444d-954f-85b296770c9d","system_id":"levelo_inurba_marseille","lat":43.30297,"lon":5.39213,"is_reserved":false,"is_disabled":true,"rental_uris":{"android":"levelo://app?vid=522f8f33-6ce1-444d-954f-85b296770c9d","ios":"levelo://app?vid=522f8f33-6ce1-444d-954f-85b296770c9d"},"vehicle_type_id":"4","last_reported":1736442512,"current_range_meters":38000,"station_id":"ce4bgkh2rcd13ifvqbk0","pricing_plan_id":"cebpf4jnsgd1na2vs0mg"},{"bike_id":"ca186c50-0f19-4dfb-8d6a-f5c0cec7459e","system_id":"levelo_inurba_marseille","lat":43.27801,"lon":5.40727,"is_reserved":false,"is_disabled":false,"rental_uris":{"android":"levelo://app?vid=ca186c50-0f19-4dfb-8d6a-f5c0cec7459e","ios":"levelo://app?vid=ca186c50-0f19-4dfb-8d6a-f5c0cec7459e"},"vehicle_type_id":"4","last_reported":1736442512,"current_range_meters":29600,"station_id":"ce4bhnh2rcd13ifvqgtg","pricing_plan_id":"cebpf4jnsgd1na2vs0mg"},{"bike_id":"10837590-8cff-4e9e-a42f-5348f2c9d3bc","system_id":"levelo_inurba_marseille","lat":43.26899,"lon":5.38884,"is_reserved":false,"is_disabled":true,"rental_uris":{"android":"levelo://app?vid=10837590-8cff-4e9e-a42f-5348f2c9d3bc","ios":"levelo://app?vid=10837590-8cff-4e9e-a42f-5348f2c9d3bc"},"vehicle_type_id":"4","last_reported":1736442512,"current_range_meters":0,"station_id":"","pricing_plan_id":"cebpf4jnsgd1na2vs0mg"},{"bike_id":"f714926f-208a-48d8-a796-ed36ca75c707","system_id":"levelo_inurba_marseille","lat":43.28347,"lon":5.38106,"is_reserved":false,"is_disabled":true,"rental_uris":{"android":"levelo://app?vid=f714926f-208a-48d8-a796-ed36ca75c707","ios":"levelo://app?vid=f714926f-208a-48d8-a796-ed36ca75c707"},"vehicle_type_id":"4","last_reported":1736442512,"current_range_meters":800,"station_id":"ce4bh412rcd13ifvqdr0","pricing_plan_id":"cebpf4jnsgd1na2vs0mg"},{"bike_id":"c3a1c8c5-50fd-426a-8619-274e52648066","system_id":"levelo_inurba_marseille","lat":43.28854,"lon":5.35849,"is_reserved":false,"is_disabled":false,"rental_uris":{"android":"levelo://app?vid=c3a1c8c5-50fd-426a-8619-274e52648066","ios":"levelo://app?vid=c3a1c8c5-50fd-426a-8619-274e52648066"},"vehicle_type_id":"4","last_reported":1736442512,"current_range_meters":38800,"station_id":"ce4bhb12rcd13ifvqem0","pricing_plan_id":"cebpf4jnsgd1na2vs0mg"},{"bike_id":"644f53a2-1cc4-4b75-8551-0f7e809980a1","system_id":"levelo_inurba_marseille","lat":43.29708,"lon":5.37745,"is_reserved":false,"is_disabled":false,"rental_uris":{"android":"levelo://app?vid=644f53a2-1cc4-4b75-8551-0f7e809980a1","ios":"levelo://app?vid=644f53a2-1cc4-4b75-8551-0f7e809980a1"},"vehicle_type_id":"4","last_reported":1736442512,"current_range_meters":36800,"station_id":"ce4bgkh2rcd13ifvqbl0","pricing_plan_id":"cebpf4jnsgd1na2vs0mg"},{"bike_id":"b9d90f1c-44e2-459b-80d9-37f91fa508d2","system_id":"levelo_inurba_marseille","lat":43.28945,"lon":5.39623,"is_reserved":false,"is_disabled":true,"rental_uris":{"android":"levelo://app?vid=b9d90f1c-44e2-459b-80d9-37f91fa508d2","ios":"levelo://app?vid=b9d90f1c-44e2-459b-80d9-37f91fa508d2"},"vehicle_type_id":"4","last_reported":1736442512,"current_range_meters":8400,"station_id":"ce4bh3h2rcd13ifvqdn0","pricing_plan_id":"cebpf4jnsgd1na2vs0mg"},{"bike_id":"38ec2d78-1560-45d3-9b5e-ba07ecd8a536","system_id":"levelo_inurba_marseille","lat":43.30244,"lon":5.40058,"is_reserved":false,"is_disabled":false,"rental_uris":{"android":"levelo://app?vid=38ec2d78-1560-45d3-9b5e-ba07ecd8a536","ios":"levelo://app?vid=38ec2d78-1560-45d3-9b5e-ba07ecd8a536"},"vehicle_type_id":"4","last_reported":1736442512,"current_range_meters":9200,"station_id":"ce4bgvh2rcd13ifvqcs0","pricing_plan_id":"cebpf4jnsgd1na2vs0mg"},{"bike_id":"1984d69d-51c2-4a8e-b8a7-26501036581d","system_id":"levelo_inurba_marseille","lat":43.30985,"lon":5.39349,"is_reserved":false,"is_disabled":false,"rental_uris":{"android":"levelo://app?vid=1984d69d-51c2-4a8e-b8a7-26501036581d","ios":"levelo://app?vid=1984d69d-51c2-4a8e-b8a7-26501036581d"},"vehicle_type_id":"4","last_reported":1736442512,"current_range_meters":39200,"station_id":"","pricing_plan_id":"cebpf4jnsgd1na2vs0mg"},{"bike_id":"5e2da4b4-7468-4fc9-8056-f6cd433354bd","system_id":"levelo_inurba_marseille","lat":43.27834,"lon":5.39196,"is_reserved":false,"is_disabled":false,"rental_uris":{"android":"levelo://app?vid=5e2da4b4-7468-4fc9-8056-f6cd433354bd","ios":"levelo://app?vid=5e2da4b4-7468-4fc9-8056-f6cd433354bd"},"vehicle_type_id":"4","last_reported":1736442512,"current_range_meters":6400,"station_id":"ce4bhjp2rcd13ifvqga0","pricing_plan_id":"cebpf4jnsgd1na2vs0mg"},{"bike_id":"99221101-f620-4ae6-82ab-30be18b01e8b","system_id":"levelo_inurba_marseille","lat":43.31743,"lon":5.40448,"is_reserved":false,"is_disabled":false,"rental_uris":{"android":"levelo://app?vid=99221101-f620-4ae6-82ab-30be18b01e8b","ios":"levelo://app?vid=99221101-f620-4ae6-82ab-30be18b01e8b"},"vehicle_type_id":"4","last_reported":1736442512,"current_range_meters":12000,"station_id":"ce4bh012rcd13ifvqd00","pricing_plan_id":"cebpf4jnsgd1na2vs0mg"},{"bike_id":"3a5f28e5-f7b2-41b6-b28b-a404d2699b60","system_id":"levelo_inurba_marseille","lat":43.2603,"lon":5.37546,"is_reserved":false,"is_disabled":false,"rental_uris":{"android":"levelo://app?vid=3a5f28e5-f7b2-41b6-b28b-a404d2699b60","ios":"levelo://app?vid=3a5f28e5-f7b2-41b6-b28b-a404d2699b60"},"vehicle_type_id":"4","last_reported":1736442512,"current_range_meters":38400,"station_id":"ce4bhgh2rcd13ifvqfa0","pricing_plan_id":"cebpf4jnsgd1na2vs0mg"},{"bike_id":"fc2c2ad5-9b09-443d-98de-9a001b050f74","system_id":"levelo_inurba_marseille","lat":43.28028,"lon":5.36949,"is_reserved":false,"is_disabled":false,"rental_uris":{"android":"levelo://app?vid=fc2c2ad5-9b09-443d-98de-9a001b050f74","ios":"levelo://app?vid=fc2c2ad5-9b09-443d-98de-9a001b050f74"},"vehicle_type_id":"4","last_reported":1736442512,"current_range_meters":38800,"station_id":"ce4bha12rcd13ifvqef0","pricing_plan_id":"cebpf4jnsgd1na2vs0mg"},{"bike_id":"b47332c8-9cc2-45e1-94e1-a71f886d9abf","system_id":"levelo_inurba_marseille","lat":43.29189,"lon":5.35802,"is_reserved":false,"is_disabled":false,"rental_uris":{"android":"levelo://app?vid=b47332c8-9cc2-45e1-94e1-a71f886d9abf","ios":"levelo://app?vid=b47332c8-9cc2-45e1-94e1-a71f886d9abf"},"vehicle_type_id":"4","last_reported":1736442512,"current_range_meters":38400,"station_id":"ce4bhb12rcd13ifvqel0","pricing_plan_id":"cebpf4jnsgd1na2vs0mg"},{"bike_id":"d3b812e4-3b48-438b-b728-04b759ebd6da","system_id":"levelo_inurba_marseille","lat":43.31268,"lon":5.40171,"is_reserved":false,"is_disabled":false,"rental_uris":{"android":"levelo://app?vid=d3b812e4-3b48-438b-b728-04b759ebd6da","ios":"levelo://app?vid=d3b812e4-3b48-438b-b728-04b759ebd6da"},"vehicle_type_id":"4","last_reported":1736442512,"current_range_meters":24400,"station_id":"ce4bh092rcd13ifvqd30","pricing_plan_id":"cebpf4jnsgd1na2vs0mg"},{"bike_id":"2ebecfb5-aacb-40cc-8513-b11fed842990","system_id":"levelo_inurba_marseille","lat":43.28344,"lon":5.38098,"is_reserved":false,"is_disabled":false,"rental_uris":{"android":"levelo://app?vid=2ebecfb5-aacb-40cc-8513-b11fed842990","ios":"levelo://app?vid=2ebecfb5-aacb-40cc-8513-b11fed842990"},"vehicle_type_id":"4","last_reported":1736442512,"current_range_meters":24000,"station_id":"ce4bh412rcd13ifvqdr0","pricing_plan_id":"cebpf4jnsgd1na2vs0mg"},{"bike_id":"9ffb6ab5-089c-4696-942a-613be0f6d42a","system_id":"levelo_inurba_marseille","lat":43.28698,"lon":5.37395,"is_reserved":false,"is_disabled":false,"rental_uris":{"android":"levelo://app?vid=9ffb6ab5-089c-4696-942a-613be0f6d42a","ios":"levelo://app?vid=9ffb6ab5-089c-4696-942a-613be0f6d42a"},"vehicle_type_id":"4","last_reported":1736442512,"current_range_meters":5600,"station_id":"ce4bh3p2rcd13ifvqdq0","pricing_plan_id":"cebpf4jnsgd1na2vs0mg"},{"bike_id":"d0516708-d8b9-43ac-a730-58bf662db873","system_id":"levelo_inurba_marseille","lat":43.26565,"lon":5.39011,"is_reserved":false,"is_disabled":false,"rental_uris":{"android":"levelo://app?vid=d0516708-d8b9-43ac-a730-58bf662db873","ios":"levelo://app?vid=d0516708-d8b9-43ac-a730-58bf662db873"},"vehicle_type_id":"4","last_reported":1736442512,"current_range_meters":34000,"station_id":"ce4bhe12rcd13ifvqf30","pricing_plan_id":"cebpf4jnsgd1na2vs0mg"},{"bike_id":"ef9fafda-4a78-4798-96c7-dbb7328be18d","system_id":"levelo_inurba_marseille","lat":43.27615,"lon":5.36107,"is_reserved":false,"is_disabled":false,"rental_uris":{"android":"levelo://app?vid=ef9fafda-4a78-4798-96c7-dbb7328be18d","ios":"levelo://app?vid=ef9fafda-4a78-4798-96c7-dbb7328be18d"},"vehicle_type_id":"4","last_reported":1736442512,"current_range_meters":38800,"station_id":"ce4bgj92rcd13ifvqbe0","pricing_plan_id":"cebpf4jnsgd1na2vs0mg"},{"bike_id":"2ff52220-e124-4b7f-8a63-e8d137b306d7","system_id":"levelo_inurba_marseille","lat":43.28617,"lon":5.35106,"is_reserved":false,"is_disabled":false,"rental_uris":{"android":"levelo://app?vid=2ff52220-e124-4b7f-8a63-e8d137b306d7","ios":"levelo://app?vid=2ff52220-e124-4b7f-8a63-e8d137b306d7"},"vehicle_type_id":"4","last_reported":1736442512,"current_range_meters":19200,"station_id":"ce4bhch2rcd13ifvqeug","pricing_plan_id":"cebpf4jnsgd1na2vs0mg"},{"bike_id":"45760529-d74d-4686-86e3-8b5027991782","system_id":"levelo_inurba_marseille","lat":43.2847,"lon":5.38411,"is_reserved":false,"is_disabled":false,"rental_uris":{"android":"levelo://app?vid=45760529-d74d-4686-86e3-8b5027991782","ios":"levelo://app?vid=45760529-d74d-4686-86e3-8b5027991782"},"vehicle_type_id":"4","last_reported":1736442512,"current_range_meters":20400,"station_id":"ce4bh512rcd13ifvqe3g","pricing_plan_id":"cebpf4jnsgd1na2vs0mg"},{"bike_id":"e13a679b-e5e3-49dc-bdd4-556d8786fccc","system_id":"levelo_inurba_marseille","lat":43.28704,"lon":5.37388,"is_reserved":false,"is_disabled":false,"rental_uris":{"android":"levelo://app?vid=e13a679b-e5e3-49dc-bdd4-556d8786fccc","ios":"levelo://app?vid=e13a679b-e5e3-49dc-bdd4-556d8786fccc"},"vehicle_type_id":"4","last_reported":1736442512,"current_range_meters":24400,"station_id":"ce4bh3p2rcd13ifvqdq0","pricing_plan_id":"cebpf4jnsgd1na2vs0mg"},{"bike_id":"6fdecff2-2545-405f-8c66-4d246590b289","system_id":"levelo_inurba_marseille","lat":43.241687,"lon":5.363913,"is_reserved":false,"is_disabled":false,"rental_uris":{"android":"levelo://app?vid=6fdecff2-2545-405f-8c66-4d246590b289","ios":"levelo://app?vid=6fdecff2-2545-405f-8c66-4d246590b289"},"vehicle_type_id":"4","last_reported":1736442512,"current_range_meters":18000,"station_id":"cpo36qri1sfpv3e86is0","pricing_plan_id":"cebpf4jnsgd1na2vs0mg"},{"bike_id":"687bd3b9-65bd-49f0-a39b-76dcbac74042","system_id":"levelo_inurba_marseille","lat":43.26027,"lon":5.37554,"is_reserved":false,"is_disabled":true,"rental_uris":{"android":"levelo://app?vid=687bd3b9-65bd-49f0-a39b-76dcbac74042","ios":"levelo://app?vid=687bd3b9-65bd-49f0-a39b-76dcbac74042"},"vehicle_type_id":"4","last_reported":1736442512,"current_range_meters":0,"station_id":"ce4bhgh2rcd13ifvqfa0","pricing_plan_id":"cebpf4jnsgd1na2vs0mg"},{"bike_id":"d77b0996-cd40-4dd5-8139-1fbe64417362","system_id":"levelo_inurba_marseille","lat":43.24665,"lon":5.38168,"is_reserved":false,"is_disabled":false,"rental_uris":{"android":"levelo://app?vid=d77b0996-cd40-4dd5-8139-1fbe64417362","ios":"levelo://app?vid=d77b0996-cd40-4dd5-8139-1fbe64417362"},"vehicle_type_id":"4","last_reported":1736442512,"current_range_meters":38000,"station_id":"ce4bhih2rcd13ifvqfr0","pricing_plan_id":"cebpf4jnsgd1na2vs0mg"},{"bike_id":"1acc10bb-92aa-490e-94b3-b87b3e0f8e36","system_id":"levelo_inurba_marseille","lat":43.28074,"lon":5.3964,"is_reserved":false,"is_disabled":false,"rental_uris":{"android":"levelo://app?vid=1acc10bb-92aa-490e-94b3-b87b3e0f8e36","ios":"levelo://app?vid=1acc10bb-92aa-490e-94b3-b87b3e0f8e36"},"vehicle_type_id":"4","last_reported":1736442512,"current_range_meters":39200,"station_id":"ce4bho12rcd13ifvqh2g","pricing_plan_id":"cebpf4jnsgd1na2vs0mg"},{"bike_id":"3a06e7f4-475c-4216-928b-eb1c3f895c8f","system_id":"levelo_inurba_marseille","lat":43.30262,"lon":5.37723,"is_reserved":false,"is_disabled":true,"rental_uris":{"android":"levelo://app?vid=3a06e7f4-475c-4216-928b-eb1c3f895c8f","ios":"levelo://app?vid=3a06e7f4-475c-4216-928b-eb1c3f895c8f"},"vehicle_type_id":"4","last_reported":1736442512,"current_range_meters":0,"station_id":"ce4bguh2rcd13ifvqcj0","pricing_plan_id":"cebpf4jnsgd1na2vs0mg"},{"bike_id":"33889370-48ad-4f7e-af16-3e701144d4b3","system_id":"levelo_inurba_marseille","lat":43.2846,"lon":5.35889,"is_reserved":false,"is_disabled":false,"rental_uris":{"android":"levelo://app?vid=33889370-48ad-4f7e-af16-3e701144d4b3","ios":"levelo://app?vid=33889370-48ad-4f7e-af16-3e701144d4b3"},"vehicle_type_id":"4","last_reported":1736442512,"current_range_meters":22800,"station_id":"ce4bhah2rcd13ifvqei0","pricing_plan_id":"cebpf4jnsgd1na2vs0mg"},{"bike_id":"5e47f1b1-7605-40c9-889d-ce9e68cb2b01","system_id":"levelo_inurba_marseille","lat":43.28614,"lon":5.37044,"is_reserved":false,"is_disabled":false,"rental_uris":{"android":"levelo://app?vid=5e47f1b1-7605-40c9-889d-ce9e68cb2b01","ios":"levelo://app?vid=5e47f1b1-7605-40c9-889d-ce9e68cb2b01"},"vehicle_type_id":"4","last_reported":1736442512,"current_range_meters":8800,"station_id":"ce4bht12rcd13ifvqi60","pricing_plan_id":"cebpf4jnsgd1na2vs0mg"},{"bike_id":"5ec4e627-a4b5-4147-87a0-d835eaaf4516","system_id":"levelo_inurba_marseille","lat":43.26049,"lon":5.39396,"is_reserved":false,"is_disabled":false,"rental_uris":{"android":"levelo://app?vid=5ec4e627-a4b5-4147-87a0-d835eaaf4516","ios":"levelo://app?vid=5ec4e627-a4b5-4147-87a0-d835eaaf4516"},"vehicle_type_id":"4","last_reported":1736442512,"current_range_meters":30000,"station_id":"ce4bhh92rcd13ifvqfj0","pricing_plan_id":"cebpf4jnsgd1na2vs0mg"},{"bike_id":"3db8f160-4d97-4ba7-b3ce-530802db90dd","system_id":"levelo_inurba_marseille","lat":43.33023,"lon":5.39039,"is_reserved":false,"is_disabled":false,"rental_uris":{"android":"levelo://app?vid=3db8f160-4d97-4ba7-b3ce-530802db90dd","ios":"levelo://app?vid=3db8f160-4d97-4ba7-b3ce-530802db90dd"},"vehicle_type_id":"4","last_reported":1736442512,"current_range_meters":28400,"station_id":"ce4bhr92rcd13ifvqhrg","pricing_plan_id":"cebpf4jnsgd1na2vs0mg"},{"bike_id":"32dfb154-32bb-4313-9c36-cac451680366","system_id":"levelo_inurba_marseille","lat":43.31327,"lon":5.39681,"is_reserved":false,"is_disabled":false,"rental_uris":{"android":"levelo://app?vid=32dfb154-32bb-4313-9c36-cac451680366","ios":"levelo://app?vid=32dfb154-32bb-4313-9c36-cac451680366"},"vehicle_type_id":"4","last_reported":1736442512,"current_range_meters":14000,"station_id":"ce4bgvp2rcd13ifvqcu0","pricing_plan_id":"cebpf4jnsgd1na2vs0mg"},{"bike_id":"b0d66df1-2b6e-4bea-8fa5-c00fde2949c2","system_id":"levelo_inurba_marseille","lat":43.28458,"lon":5.35902,"is_reserved":false,"is_disabled":true,"rental_uris":{"android":"levelo://app?vid=b0d66df1-2b6e-4bea-8fa5-c00fde2949c2","ios":"levelo://app?vid=b0d66df1-2b6e-4bea-8fa5-c00fde2949c2"},"vehicle_type_id":"4","last_reported":1736442512,"current_range_meters":20400,"station_id":"ce4bhah2rcd13ifvqei0","pricing_plan_id":"cebpf4jnsgd1na2vs0mg"},{"bike_id":"31c5a65d-19bb-49f4-a10f-43ee6b8a1557","system_id":"levelo_inurba_marseille","lat":43.31077,"lon":5.37493,"is_reserved":false,"is_disabled":false,"rental_uris":{"android":"levelo://app?vid=31c5a65d-19bb-49f4-a10f-43ee6b8a1557","ios":"levelo://app?vid=31c5a65d-19bb-49f4-a10f-43ee6b8a1557"},"vehicle_type_id":"4","last_reported":1736442512,"current_range_meters":17200,"station_id":"","pricing_plan_id":"cebpf4jnsgd1na2vs0mg"},{"bike_id":"250fb972-3f05-4306-a906-59bcd7b40747","system_id":"levelo_inurba_marseille","lat":43.29162,"lon":5.39324,"is_reserved":false,"is_disabled":true,"rental_uris":{"android":"levelo://app?vid=250fb972-3f05-4306-a906-59bcd7b40747","ios":"levelo://app?vid=250fb972-3f05-4306-a906-59bcd7b40747"},"vehicle_type_id":"4","last_reported":1736442512,"current_range_meters":0,"station_id":"","pricing_plan_id":"cebpf4jnsgd1na2vs0mg"},{"bike_id":"ec91e197-8d08-4c31-8a92-a3aaabf5d383","system_id":"levelo_inurba_marseille","lat":43.30884,"lon":5.39637,"is_reserved":false,"is_disabled":false,"rental_uris":{"android":"levelo://app?vid=ec91e197-8d08-4c31-8a92-a3aaabf5d383","ios":"levelo://app?vid=ec91e197-8d08-4c31-8a92-a3aaabf5d383"},"vehicle_type_id":"4","last_reported":1736442512,"current_range_meters":23200,"station_id":"ce4bh012rcd13ifvqcv0","pricing_plan_id":"cebpf4jnsgd1na2vs0mg"},{"bike_id":"7da5d34e-5ec1-41ea-b324-6b2f74e6478d","system_id":"levelo_inurba_marseille","lat":43.31326,"lon":5.39689,"is_reserved":false,"is_disabled":false,"rental_uris":{"android":"levelo://app?vid=7da5d34e-5ec1-41ea-b324-6b2f74e6478d","ios":"levelo://app?vid=7da5d34e-5ec1-41ea-b324-6b2f74e6478d"},"vehicle_type_id":"4","last_reported":1736442512,"current_range_meters":16000,"station_id":"ce4bgvp2rcd13ifvqcu0","pricing_plan_id":"cebpf4jnsgd1na2vs0mg"},{"bike_id":"1da43c03-8ed4-489d-ac3b-79c1f9c0ffdc","system_id":"levelo_inurba_marseille","lat":43.307979,"lon":5.396346,"is_reserved":false,"is_disabled":false,"rental_uris":{"android":"levelo://app?vid=1da43c03-8ed4-489d-ac3b-79c1f9c0ffdc","ios":"levelo://app?vid=1da43c03-8ed4-489d-ac3b-79c1f9c0ffdc"},"vehicle_type_id":"4","last_reported":1736442512,"current_range_meters":32000,"station_id":"ce4bh012rcd13ifvqcv0","pricing_plan_id":"cebpf4jnsgd1na2vs0mg"},{"bike_id":"8a0ecd2e-4be0-4ea8-8cf7-eb37d3e491ad","system_id":"levelo_inurba_marseille","lat":43.25575,"lon":5.38232,"is_reserved":false,"is_disabled":false,"rental_uris":{"android":"levelo://app?vid=8a0ecd2e-4be0-4ea8-8cf7-eb37d3e491ad","ios":"levelo://app?vid=8a0ecd2e-4be0-4ea8-8cf7-eb37d3e491ad"},"vehicle_type_id":"4","last_reported":1736442512,"current_range_meters":36000,"station_id":"ce4bhih2rcd13ifvqfs0","pricing_plan_id":"cebpf4jnsgd1na2vs0mg"},{"bike_id":"54de2ad9-5662-4710-b543-cbc1533fae6e","system_id":"levelo_inurba_marseille","lat":43.28854,"lon":5.35844,"is_reserved":false,"is_disabled":false,"rental_uris":{"android":"levelo://app?vid=54de2ad9-5662-4710-b543-cbc1533fae6e","ios":"levelo://app?vid=54de2ad9-5662-4710-b543-cbc1533fae6e"},"vehicle_type_id":"4","last_reported":1736442512,"current_range_meters":16000,"station_id":"ce4bhb12rcd13ifvqem0","pricing_plan_id":"cebpf4jnsgd1na2vs0mg"},{"bike_id":"047af256-00cf-433e-99dc-12f5bf46de37","system_id":"levelo_inurba_marseille","lat":43.31273,"lon":5.40157,"is_reserved":false,"is_disabled":false,"rental_uris":{"android":"levelo://app?vid=047af256-00cf-433e-99dc-12f5bf46de37","ios":"levelo://app?vid=047af256-00cf-433e-99dc-12f5bf46de37"},"vehicle_type_id":"4","last_reported":1736442512,"current_range_meters":33200,"station_id":"ce4bh092rcd13ifvqd30","pricing_plan_id":"cebpf4jnsgd1na2vs0mg"},{"bike_id":"c41f9bb6-b9ea-432d-824a-d8859ab1581e","system_id":"levelo_inurba_marseille","lat":43.24168,"lon":5.36397,"is_reserved":false,"is_disabled":false,"rental_uris":{"android":"levelo://app?vid=c41f9bb6-b9ea-432d-824a-d8859ab1581e","ios":"levelo://app?vid=c41f9bb6-b9ea-432d-824a-d8859ab1581e"},"vehicle_type_id":"4","last_reported":1736442512,"current_range_meters":22800,"station_id":"cpo36qri1sfpv3e86is0","pricing_plan_id":"cebpf4jnsgd1na2vs0mg"},{"bike_id":"cd414fcd-7ece-4bec-9adc-cd7b88f91272","system_id":"levelo_inurba_marseille","lat":43.26496,"lon":5.3954,"is_reserved":false,"is_disabled":false,"rental_uris":{"android":"levelo://app?vid=cd414fcd-7ece-4bec-9adc-cd7b88f91272","ios":"levelo://app?vid=cd414fcd-7ece-4bec-9adc-cd7b88f91272"},"vehicle_type_id":"4","last_reported":1736442512,"current_range_meters":38000,"station_id":"ce4bhi12rcd13ifvqfq0","pricing_plan_id":"cebpf4jnsgd1na2vs0mg"},{"bike_id":"d16707cb-7102-490f-a191-f2ef09ae899e","system_id":"levelo_inurba_marseille","lat":43.28927,"lon":5.38392,"is_reserved":false,"is_disabled":true,"rental_uris":{"android":"levelo://app?vid=d16707cb-7102-490f-a191-f2ef09ae899e","ios":"levelo://app?vid=d16707cb-7102-490f-a191-f2ef09ae899e"},"vehicle_type_id":"4","last_reported":1736442512,"current_range_meters":0,"station_id":"ce4bh612rcd13ifvqe6g","pricing_plan_id":"cebpf4jnsgd1na2vs0mg"},