{"last_updated":1703019943,"ttl":30,"version":"2.2","data":{"bikes":[{"bike_id":"9d52a925-323b-4a5e-9c24-9e0718f8c66b","system_id":"levelo_inurba_marseille","lat":43.313391,"lon":5.36706,"is_reserved":false,"is_disabled":false,"rental_uris":{"android":"levelo://app?vid=9d52a925-323b-4a5e-9c24-9e0718f8c66b","ios":"levelo://app?vid=9d52a925-323b-4a5e-9c24-9e0718f8c66b"},"vehicle_type_id":"4","last_reported":1703019943,"current_range_meters":25200,"station_id":"ce4bgr92rcd13ifvqc6g","pricing_plan_id":"free"},{"bike_id":"64aa3a78-c4dd-4629-b0e4-3f18232139b5","system_id":"levelo_inurba_marseille","lat":43.313391,"lon":5.36706,"is_reserved":false,"is_disabled":false,"rental_uris":{"android":"levelo://app?vid=64aa3a78-c4dd-4629-b0e4-3f18232139b5","ios":"levelo://app?vid=64aa3a78-c4dd-4629-b0e4-3f18232139b5"},"vehicle_type_id":"4","last_reported":1703019943,"current_range_meters":28400,"station_id":"ce4bgr92rcd13ifvqc6g","pricing_plan_id":"free"},{"bike_id":"15c7edea-86ab-4b62-9286-30eaeca9bae0","system_id":"levelo_inurba_marseille","lat":43.31341,"lon":5.367098,"is_reserved":false,"is_disabled":false,"rental_uris":{"android":"levelo://app?vid=15c7edea-86ab-4b62-9286-30eaeca9bae0","ios":"levelo://app?vid=15c7edea-86ab-4b62-9286-30eaeca9bae0"},"vehicle_type_id":"4","last_reported":1703019943,"current_range_meters":30000,"station_id":"ce4bgr92rcd13ifvqc6g","pricing_plan_id":"free"},{"bike_id":"440f7f17-c77e-4878-9430-dfdee0958ec8","system_id":"levelo_inurba_marseille","lat":43.314811,"lon":5.373103,"is_reserved":false,"is_disabled":false,"rental_uris":{"android":"levelo://app?vid=440f7f17-c77e-4878-9430-dfdee0958ec8","ios":"levelo://app?vid=440f7f17-c77e-4878-9430-dfdee0958ec8"},"vehicle_type_id":"4","last_reported":1703019943,"current_range_meters":0,"station_id":"ce4bgt12rcd13ifvqcd0","pricing_plan_id":"free"},{"bike_id":"dbc05aaf-d7cf-4120-b642-7f61140a9031","system_id":"levelo_inurba_marseille","lat":43.309039,"lon":5.371797,"is_reserved":false,"is_disabled":false,"rental_uris":{"android":"levelo://app?vid=dbc05aaf-d7cf-4120-b642-7f61140a9031","ios":"levelo://app?vid=dbc05aaf-d7cf-4120-b642-7f61140a9031"},"vehicle_type_id":"4","last_reported":1703019943,"current_range_meters":23600,"station_id":"ce4bguh2rcd13ifvqckg","pricing_plan_id":"free"},{"bike_id":"552ba36c-d8df-4de7-8b00-ec79817acd6f","system_id":"levelo_inurba_marseille","lat":43.309039,"lon":5.371797,"is_reserved":false,"is_disabled":false,"rental_uris":{"android":"levelo://app?vid=552ba36c-d8df-4de7-8b00-ec79817acd6f","ios":"levelo://app?vid=552ba36c-d8df-4de7-8b00-ec79817acd6f"},"vehicle_type_id":"4","last_reported":1703019943,"current_range_meters":18400,"station_id":"ce4bguh2rcd13ifvqckg","pricing_plan_id":"free"},{"bike_id":"aa3eb507-db67-47ed-a100-b64174be716f","system_id":"levelo_inurba_marseille","lat":43.309039,"lon":5.371797,"is_reserved":false,"is_disabled":false,"rental_uris":{"android":"levelo://app?vid=aa3eb507-db67-47ed-a100-b64174be716f","ios":"levelo://app?vid=aa3eb507-db67-47ed-a100-b64174be716f"},"vehicle_type_id":"4","last_reported":1703019943,"current_range_meters":31200,"station_id":"ce4bguh2rcd13ifvqckg","pricing_plan_id":"free"},{"bike_id":"83a970d2-4dad-4606-a915-0c981652887e","system_id":"levelo_inurba_marseille","lat":43.305989,"lon":5.37225,"is_reserved":false,"is_disabled":false,"rental_uris":{"android":"levelo://app?vid=83a970d2-4dad-4606-a915-0c981652887e","ios":"levelo://app?vid=83a970d2-4dad-4606-a915-0c981652887e"},"vehicle_type_id":"4","last_reported":1703019943,"current_range_meters":26000,"station_id":"ce4bgqh2rcd13ifvqc4g","pricing_plan_id":"free"},{"bike_id":"26cb33a4-2125-4adc-8e57-c1d0591b176e","system_id":"levelo_inurba_marseille","lat":43.311125,"lon":5.377624,"is_reserved":false,"is_disabled":false,"rental_uris":{"android":"levelo://app?vid=26cb33a4-2125-4adc-8e57-c1d0591b176e","ios":"levelo://app?vid=26cb33a4-2125-4adc-8e57-c1d0591b176e"},"vehicle_type_id":"4","last_reported":1703019943,"current_range_meters":26800,"station_id":"ce4bgt92rcd13ifvqcg0","pricing_plan_id":"free"},{"bike_id":"fb74d142-6edf-4703-8418-c4a237dd5b96","system_id":"levelo_inurba_marseille","lat":43.311125,"lon":5.377624,"is_reserved":false,"is_disabled":false,"rental_uris":{"android":"levelo://app?vid=fb74d142-6edf-4703-8418-c4a237dd5b96","ios":"levelo://app?vid=fb74d142-6edf-4703-8418-c4a237dd5b96"},"vehicle_type_id":"4","last_reported":1703019943,"current_range_meters":18000,"station_id":"ce4bgt92rcd13ifvqcg0","pricing_plan_id":"free"},{"bike_id":"434ac7bc-c4ee-4178-8066-57cd65d9dfc7","system_id":"levelo_inurba_marseille","lat":43.31337,"lon":5.37931,"is_reserved":false,"is_disabled":false,"rental_uris":{"android":"levelo://app?vid=434ac7bc-c4ee-4178-8066-57cd65d9dfc7","ios":"levelo://app?vid=434ac7bc-c4ee-4178-8066-57cd65d9dfc7"},"vehicle_type_id":"4","last_reported":1703019943,"current_range_meters":2000,"station_id":"","pricing_plan_id":"free"},{"bike_id":"e13812dd-7c22-4e7d-861c-303bffdef8d1","system_id":"levelo_inurba_marseille","lat":43.30304,"lon":5.368987,"is_reserved":false,"is_disabled":false,"rental_uris":{"android":"levelo://app?vid=e13812dd-7c22-4e7d-861c-303bffdef8d1","ios":"levelo://app?vid=e13812dd-7c22-4e7d-861c-303bffdef8d1"},"vehicle_type_id":"4","last_reported":1703019943,"current_range_meters":12000,"station_id":"ce4bgqh2rcd13ifvqc5g","pricing_plan_id":"free"},{"bike_id":"2a94edd3-c991-4bb5-8159-6330f0f5ef75","system_id":"levelo_inurba_marseille","lat":43.303046,"lon":5.368981,"is_reserved":false,"is_disabled":false,"rental_uris":{"android":"levelo://app?vid=2a94edd3-c991-4bb5-8159-6330f0f5ef75","ios":"levelo://app?vid=2a94edd3-c991-4bb5-8159-6330f0f5ef75"},"vehicle_type_id":"4","last_reported":1703019943,"current_range_meters":18400,"station_id":"ce4bgqh2rcd13ifvqc5g","pricing_plan_id":"free"},{"bike_id":"73ec7247-bcd3-4193-9351-c056112d3952","system_id":"levelo_inurba_marseille","lat":43.319935,"lon":5.381699,"is_reserved":false,"is_disabled":false,"rental_uris":{"android":"levelo://app?vid=73ec7247-bcd3-4193-9351-c056112d3952","ios":"levelo://app?vid=73ec7247-bcd3-4193-9351-c056112d3952"},"vehicle_type_id":"4","last_reported":1703019943,"current_range_meters":29600,"station_id":"ce4bhr12rcd13ifvqhpg","pricing_plan_id":"free"},{"bike_id":"ff61b42d-58ff-4b73-913b-03f3caec66e0","system_id":"levelo_inurba_marseille","lat":43.319935,"lon":5.381699,"is_reserved":false,"is_disabled":false,"rental_uris":{"android":"levelo://app?vid=ff61b42d-58ff-4b73-913b-03f3caec66e0","ios":"levelo://app?vid=ff61b42d-58ff-4b73-913b-03f3caec66e0"},"vehicle_type_id":"4","last_reported":1703019943,"current_range_meters":25600,"station_id":"ce4bhr12rcd13ifvqhpg","pricing_plan_id":"free"},{"bike_id":"1d47b93b-fec2-43c7-b08d-ef8c42c093e5","system_id":"levelo_inurba_marseille","lat":43.319935,"lon":5.381699,"is_reserved":false,"is_disabled":false,"rental_uris":{"android":"levelo://app?vid=1d47b93b-fec2-43c7-b08d-ef8c42c093e5","ios":"levelo://app?vid=1d47b93b-fec2-43c7-b08d-ef8c42c093e5"},"vehicle_type_id":"4","last_reported":1703019943,"current_range_meters":24400,"station_id":"ce4bhr12rcd13ifvqhpg","pricing_plan_id":"free"},{"bike_id":"a11de423-f1d7-45b1-894b-01454f92bdb6","system_id":"levelo_inurba_marseille","lat":43.320003,"lon":5.381501,"is_reserved":false,"is_disabled":false,"rental_uris":{"android":"levelo://app?vid=a11de423-f1d7-45b1-894b-01454f92bdb6","ios":"levelo://app?vid=a11de423-f1d7-45b1-894b-01454f92bdb6"},"vehicle_type_id":"4","last_reported":1703019943,"current_range_meters":800,"station_id":"ce4bhr12rcd13ifvqhpg","pricing_plan_id":"free"},{"bike_id":"85e96247-b9d4-4964-9935-76c50a973acb","system_id":"levelo_inurba_marseille","lat":43.313571,"lon":5.384829,"is_reserved":false,"is_disabled":false,"rental_uris":{"android":"levelo://app?vid=85e96247-b9d4-4964-9935-76c50a973acb","ios":"levelo://app?vid=85e96247-b9d4-4964-9935-76c50a973acb"},"vehicle_type_id":"4","last_reported":1703019943,"current_range_meters":25600,"station_id":"ce4bgt92rcd13ifvqcf0","pricing_plan_id":"free"},{"bike_id":"da5460fd-25e7-4594-bb1a-3be3518b6305","system_id":"levelo_inurba_marseille","lat":43.313571,"lon":5.384829,"is_reserved":false,"is_disabled":false,"rental_uris":{"android":"levelo://app?vid=da5460fd-25e7-4594-bb1a-3be3518b6305","ios":"levelo://app?vid=da5460fd-25e7-4594-bb1a-3be3518b6305"},"vehicle_type_id":"4","last_reported":1703019943,"current_range_meters":14400,"station_id":"ce4bgt92rcd13ifvqcf0","pricing_plan_id":"free"},{"bike_id":"b94bc742-e48d-40ea-9ed4-e39890955bc0","system_id":"levelo_inurba_marseille","lat":43.31361,"lon":5.38494,"is_reserved":false,"is_disabled":false,"rental_uris":{"android":"levelo://app?vid=b94bc742-e48d-40ea-9ed4-e39890955bc0","ios":"levelo://app?vid=b94bc742-e48d-40ea-9ed4-e39890955bc0"},"vehicle_type_id":"4","last_reported":1703019943,"current_range_meters":26000,"station_id":"ce4bgt92rcd13ifvqcf0","pricing_plan_id":"free"},{"bike_id":"49e6fbff-48ad-4699-b140-c3ec3f3115ad","system_id":"levelo_inurba_marseille","lat":43.31362,"lon":5.384954,"is_reserved":false,"is_disabled":false,"rental_uris":{"android":"levelo://app?vid=49e6fbff-48ad-4699-b140-c3ec3f3115ad","ios":"levelo://app?vid=49e6fbff-48ad-4699-b140-c3ec3f3115ad"},"vehicle_type_id":"4","last_reported":1703019943,"current_range_meters":25200,"station_id":"ce4bgt92rcd13ifvqcf0","pricing_plan_id":"free"},{"bike_id":"9d72f84c-e239-4de9-a8d1-b1964ce4b190","system_id":"levelo_inurba_marseille","lat":43.31365,"lon":5.38497,"is_reserved":false,"is_disabled":false,"rental_uris":{"android":"levelo://app?vid=9d72f84c-e239-4de9-a8d1-b1964ce4b190","ios":"levelo://app?vid=9d72f84c-e239-4de9-a8d1-b1964ce4b190"},"vehicle_type_id":"4","last_reported":1703019943,"current_range_meters":29200,"station_id":"ce4bgt92rcd13ifvqcf0","pricing_plan_id":"free"},{"bike_id":"1d405565-81fe-483d-b06d-9ddd014114e3","system_id":"levelo_inurba_marseille","lat":43.3137,"lon":5.38497,"is_reserved":false,"is_disabled":false,"rental_uris":{"android":"levelo://app?vid=1d405565-81fe-483d-b06d-9ddd014114e3","ios":"levelo://app?vid=1d405565-81fe-483d-b06d-9ddd014114e3"},"vehicle_type_id":"4","last_reported":1703019943,"current_range_meters":31200,"station_id":"ce4bgt92rcd13ifvqcf0","pricing_plan_id":"free"},{"bike_id":"8fc63f90-e42f-45a5-8ef8-f3e9aca8ac5d","system_id":"levelo_inurba_marseille","lat":43.31365,"lon":5.38498,"is_reserved":false,"is_disabled":false,"rental_uris":{"android":"levelo://app?vid=8fc63f90-e42f-45a5-8ef8-f3e9aca8ac5d","ios":"levelo://app?vid=8fc63f90-e42f-45a5-8ef8-f3e9aca8ac5d"},"vehicle_type_id":"4","last_reported":1703019943,"current_range_meters":24400,"station_id":"ce4bgt92rcd13ifvqcf0","pricing_plan_id":"free"},{"bike_id":"8fae39fe-f351-4775-bf17-ce9800288018","system_id":"levelo_inurba_marseille","lat":43.31366,"lon":5.38502,"is_reserved":false,"is_disabled":false,"rental_uris":{"android":"levelo://app?vid=8fae39fe-f351-4775-bf17-ce9800288018","ios":"levelo://app?vid=8fae39fe-f351-4775-bf17-ce9800288018"},"vehicle_type_id":"4","last_reported":1703019943,"current_range_meters":31200,"station_id":"ce4bgt92rcd13ifvqcf0","pricing_plan_id":"free"},{"bike_id":"01ee7429-cfde-4b62-856f-75cf388216af","system_id":"levelo_inurba_marseille","lat":43.31366,"lon":5.385027,"is_reserved":false,"is_disabled":false,"rental_uris":{"android":"levelo://app?vid=01ee7429-cfde-4b62-856f-75cf388216af","ios":"levelo://app?vid=01ee7429-cfde-4b62-856f-75cf388216af"},"vehicle_type_id":"4","last_reported":1703019943,"current_range_meters":28000,"station_id":"ce4bgt92rcd13ifvqcf0","pricing_plan_id":"free"},{"bike_id":"70eb36af-de42-4fb1-a432-324b2faa8d96","system_id":"levelo_inurba_marseille","lat":43.31354,"lon":5.38504,"is_reserved":false,"is_disabled":false,"rental_uris":{"android":"levelo://app?vid=70eb36af-de42-4fb1-a432-324b2faa8d96","ios":"levelo://app?vid=70eb36af-de42-4fb1-a432-324b2faa8d96"},"vehicle_type_id":"4","last_reported":1703019943,"current_range_meters":22800,"station_id":"ce4bgt92rcd13ifvqcf0","pricing_plan_id":"free"},{"bike_id":"93e3f275-51de-4ff5-beb2-171840114c6c","system_id":"levelo_inurba_marseille","lat":43.31356,"lon":5.38507,"is_reserved":false,"is_disabled":false,"rental_uris":{"android":"levelo://app?vid=93e3f275-51de-4ff5-beb2-171840114c6c","ios":"levelo://app?vid=93e3f275-51de-4ff5-beb2-171840114c6c"},"vehicle_type_id":"4","last_reported":1703019943,"current_range_meters":20000,"station_id":"ce4bgt92rcd13ifvqcf0","pricing_plan_id":"free"},{"bike_id":"0a642dae-3b2d-4243-9cf0-efd13da575ba","system_id":"levelo_inurba_marseille","lat":43.299222,"lon":5.365554,"is_reserved":false,"is_disabled":false,"rental_uris":{"android":"levelo://app?vid=0a642dae-3b2d-4243-9cf0-efd13da575ba","ios":"levelo://app?vid=0a642dae-3b2d-4243-9cf0-efd13da575ba"},"vehicle_type_id":"4","last_reported":1703019943,"current_range_meters":5200,"station_id":"ce4bgm92rcd13ifvqbr0","pricing_plan_id":"free"},{"bike_id":"f9e9d90d-cee6-4b67-9dd6-ef63f32b1c93","system_id":"levelo_inurba_marseille","lat":43.299724,"lon":5.371829,"is_reserved":false,"is_disabled":false,"rental_uris":{"android":"levelo://app?vid=f9e9d90d-cee6-4b67-9dd6-ef63f32b1c93","ios":"levelo://app?vid=f9e9d90d-cee6-4b67-9dd6-ef63f32b1c93"},"vehicle_type_id":"4","last_reported":1703019943,"current_range_meters":13600,"station_id":"ce4bgr92rcd13ifvqc7g","pricing_plan_id":"free"},{"bike_id":"fd692a31-51c6-4305-8051-c90af483fe12","system_id":"levelo_inurba_marseille","lat":43.305364,"lon":5.384119,"is_reserved":false,"is_disabled":false,"rental_uris":{"android":"levelo://app?vid=fd692a31-51c6-4305-8051-c90af483fe12","ios":"levelo://app?vid=fd692a31-51c6-4305-8051-c90af483fe12"},"vehicle_type_id":"4","last_reported":1703019943,"current_range_meters":10000,"station_id":"ce4bgg92rcd13ifvqb30","pricing_plan_id":"free"},{"bike_id":"45cc6009-a587-4fd0-bf50-c97d16a6cd28","system_id":"levelo_inurba_marseille","lat":43.299243,"lon":5.374807,"is_reserved":false,"is_disabled":false,"rental_uris":{"android":"levelo://app?vid=45cc6009-a587-4fd0-bf50-c97d16a6cd28","ios":"levelo://app?vid=45cc6009-a587-4fd0-bf50-c97d16a6cd28"},"vehicle_type_id":"4","last_reported":1703019943,"current_range_meters":0,"station_id":"ce4bgjh2rcd13ifvqbg0","pricing_plan_id":"free"},{"bike_id":"c87853fb-14eb-4bda-b52e-c8913e6670eb","system_id":"levelo_inurba_marseille","lat":43.311722,"lon":5.387247,"is_reserved":false,"is_disabled":false,"rental_uris":{"android":"levelo://app?vid=c87853fb-14eb-4bda-b52e-c8913e6670eb","ios":"levelo://app?vid=c87853fb-14eb-4bda-b52e-c8913e6670eb"},"vehicle_type_id":"4","last_reported":1703019943,"current_range_meters":21600,"station_id":"ce4bgv12rcd13ifvqcp0","pricing_plan_id":"free"},{"bike_id":"ca0834b0-077b-48e5-8d61-d563b65c06e3","system_id":"levelo_inurba_marseille","lat":43.305469,"lon":5.384561,"is_reserved":false,"is_disabled":false,"rental_uris":{"android":"levelo://app?vid=ca0834b0-077b-48e5-8d61-d563b65c06e3","ios":"levelo://app?vid=ca0834b0-077b-48e5-8d61-d563b65c06e3"},"vehicle_type_id":"4","last_reported":1703019943,"current_range_meters":1200,"station_id":"ce4bgg92rcd13ifvqb30","pricing_plan_id":"free"},{"bike_id":"55b7bdce-f270-4ee7-8a23-96f05df61019","system_id":"levelo_inurba_marseille","lat":43.311722,"lon":5.387247,"is_reserved":false,"is_disabled":false,"rental_uris":{"android":"levelo://app?vid=55b7bdce-f270-4ee7-8a23-96f05df61019","ios":"levelo://app?vid=55b7bdce-f270-4ee7-8a23-96f05df61019"},"vehicle_type_id":"4","last_reported":1703019943,"current_range_meters":8000,"station_id":"ce4bgv12rcd13ifvqcp0","pricing_plan_id":"free"},{"bike_id":"1f2c67f0-15a4-4ee2-b5e2-58311f7a5d86","system_id":"levelo_inurba_marseille","lat":43.311722,"lon":5.387247,"is_reserved":false,"is_disabled":false,"rental_uris":{"android":"levelo://app?vid=1f2c67f0-15a4-4ee2-b5e2-58311f7a5d86","ios":"levelo://app?vid=1f2c67f0-15a4-4ee2-b5e2-58311f7a5d86"},"vehicle_type_id":"4","last_reported":1703019943,"current_range_meters":12800,"station_id":"ce4bgv12rcd13ifvqcp0","pricing_plan_id":"free"},{"bike_id":"e46b80e7-77fe-4041-a871-d80685c89d06","system_id":"levelo_inurba_marseille","lat":43.311722,"lon":5.387247,"is_reserved":false,"is_disabled":false,"rental_uris":{"android":"levelo://app?vid=e46b80e7-77fe-4041-a871-d80685c89d06","ios":"levelo://app?vid=e46b80e7-77fe-4041-a871-d80685c89d06"},"vehicle_type_id":"4","last_reported":1703019943,"current_range_meters":22400,"station_id":"ce4bgv12rcd13ifvqcp0","pricing_plan_id":"free"},{"bike_id":"65af709a-db4b-40ee-93f5-e7767d49b3ef","system_id":"levelo_inurba_marseille","lat":43.311722,"lon":5.387247,"is_reserved":false,"is_disabled":false,"rental_uris":{"android":"levelo://app?vid=65af709a-db4b-40ee-93f5-e7767d49b3ef","ios":"levelo://app?vid=65af709a-db4b-40ee-93f5-e7767d49b3ef"},"vehicle_type_id":"4","last_reported":1703019943,"current_range_meters":6000,"station_id":"ce4bgv12rcd13ifvqcp0","pricing_plan_id":"free"},{"bike_id":"06f7ecc2-a81a-445d-91c4-92fc3a1d9ef2","system_id":"levelo_inurba_marseille","lat":43.297774,"lon":5.370875,"is_reserved":false,"is_disabled":false,"rental_uris":{"android":"levelo://app?vid=06f7ecc2-a81a-445d-91c4-92fc3a1d9ef2","ios":"levelo://app?vid=06f7ecc2-a81a-445d-91c4-92fc3a1d9ef2"},"vehicle_type_id":"4","last_reported":1703019943,"current_range_meters":1200,"station_id":"ce4bgop2rcd13ifvqc1g","pricing_plan_id":"free"},{"bike_id":"6d8b549e-42d9-4719-91d8-1e5ca3294adc","system_id":"levelo_inurba_marseille","lat":43.297794,"lon":5.370888,"is_reserved":false,"is_disabled":false,"rental_uris":{"android":"levelo://app?vid=6d8b549e-42d9-4719-91d8-1e5ca3294adc","ios":"levelo://app?vid=6d8b549e-42d9-4719-91d8-1e5ca3294adc"},"vehicle_type_id":"4","last_reported":1703019943,"current_range_meters":9600,"station_id":"ce4bgop2rcd13ifvqc1g","pricing_plan_id":"free"},{"bike_id":"3bed26bb-0ada-42b3-9c7f-dfbaac3937fa","system_id":"levelo_inurba_marseille","lat":43.322872,"lon":5.382756,"is_reserved":false,"is_disabled":false,"rental_uris":{"android":"levelo://app?vid=3bed26bb-0ada-42b3-9c7f-dfbaac3937fa","ios":"levelo://app?vid=3bed26bb-0ada-42b3-9c7f-dfbaac3937fa"},"vehicle_type_id":"4","last_reported":1703019943,"current_range_meters":28400,"station_id":"ce4bhr12rcd13ifvqhqg","pricing_plan_id":"free"},{"bike_id":"873a287b-4e8b-4542-834f-91bce629838e","system_id":"levelo_inurba_marseille","lat":43.32292,"lon":5.38273,"is_reserved":false,"is_disabled":false,"rental_uris":{"android":"levelo://app?vid=873a287b-4e8b-4542-834f-91bce629838e","ios":"levelo://app?vid=873a287b-4e8b-4542-834f-91bce629838e"},"vehicle_type_id":"4","last_reported":1703019943,"current_range_meters":24400,"station_id":"ce4bhr12rcd13ifvqhqg","pricing_plan_id":"free"},{"bike_id":"eb8ebe7d-6983-4780-997c-9447c3c0c6e2","system_id":"levelo_inurba_marseille","lat":43.32823,"lon":5.36682,"is_reserved":false,"is_disabled":false,"rental_uris":{"android":"levelo://app?vid=eb8ebe7d-6983-4780-997c-9447c3c0c6e2","ios":"levelo://app?vid=eb8ebe7d-6983-4780-997c-9447c3c0c6e2"},"vehicle_type_id":"4","last_reported":1703019943,"current_range_meters":31200,"station_id":"ce4bhs92rcd13ifvqi0g","pricing_plan_id":"free"},{"bike_id":"cb97846c-9508-4ec4-82fd-1a637ef7dd90","system_id":"levelo_inurba_marseille","lat":43.328371,"lon":5.366909,"is_reserved":false,"is_disabled":false,"rental_uris":{"android":"levelo://app?vid=cb97846c-9508-4ec4-82fd-1a637ef7dd90","ios":"levelo://app?vid=cb97846c-9508-4ec4-82fd-1a637ef7dd90"},"vehicle_type_id":"4","last_reported":1703019943,"current_range_meters":4000,"station_id":"ce4bhs92rcd13ifvqi0g","pricing_plan_id":"free"},{"bike_id":"c22e4b9f-ba20-4a7c-a7c8-fd0a73d903e0","system_id":"levelo_inurba_marseille","lat":43.328371,"lon":5.366909,"is_reserved":false,"is_disabled":false,"rental_uris":{"android":"levelo://app?vid=c22e4b9f-ba20-4a7c-a7c8-fd0a73d903e0","ios":"levelo://app?vid=c22e4b9f-ba20-4a7c-a7c8-fd0a73d903e0"},"vehicle_type_id":"4","last_reported":1703019943,"current_range_meters":26000,"station_id":"ce4bhs92rcd13ifvqi0g","pricing_plan_id":"free"},{"bike_id":"c12df297-168e-4ca3-95d9-a300ff1ffbd9","system_id":"levelo_inurba_marseille","lat":43.328371,"lon":5.366909,"is_reserved":false,"is_disabled":false,"rental_uris":{"android":"levelo://app?vid=c12df297-168e-4ca3-95d9-a300ff1ffbd9","ios":"levelo://app?vid=c12df297-168e-4ca3-95d9-a300ff1ffbd9"},"vehicle_type_id":"4","last_reported":1703019943,"current_range_meters":31200,"station_id":"ce4bhs92rcd13ifvqi0g","pricing_plan_id":"free"},{"bike_id":"48ebe570-3797-4c11-9550-8036b565ccb1","system_id":"levelo_inurba_marseille","lat":43.328371,"lon":5.366909,"is_reserved":false,"is_disabled":false,"rental_uris":{"android":"levelo://app?vid=48ebe570-3797-4c11-9550-8036b565ccb1","ios":"levelo://app?vid=48ebe570-3797-4c11-9550-8036b565ccb1"},"vehicle_type_id":"4","last_reported":1703019943,"current_range_meters":30000,"station_id":"ce4bhs92rcd13ifvqi0g","pricing_plan_id":"free"},{"bike_id":"4f9c7a8d-2008-43b1-b77b-15fa4e5785f4","system_id":"levelo_inurba_marseille","lat":43.297163,"lon":5.365866,"is_reserved":false,"is_disabled":false,"rental_uris":{"android":"levelo://app?vid=4f9c7a8d-2008-43b1-b77b-15fa4e5785f4","ios":"levelo://app?vid=4f9c7a8d-2008-43b1-b77b-15fa4e5785f4"},"vehicle_type_id":"4","last_reported":1703019943,"current_range_meters":27600,"station_id":"ce4bgn12rcd13ifvqbt0","pricing_plan_id":"free"},{"bike_id":"2d6bd33e-29ad-45d5-a122-eb9cb8817f7d","system_id":"levelo_inurba_marseille","lat":43.297163,"lon":5.365866,"is_reserved":false,"is_disabled":false,"rental_uris":{"android":"levelo://app?vid=2d6bd33e-29ad-45d5-a122-eb9cb8817f7d","ios":"levelo://app?vid=2d6bd33e-29ad-45d5-a122-eb9cb8817f7d"},"vehicle_type_id":"4","last_reported":1703019943,"current_range_meters":10800,"station_id":"ce4bgn12rcd13ifvqbt0","pricing_plan_id":"free"},{"bike_id":"b63799f0-0b9a-492f-a83c-f819b8da861d","system_id":"levelo_inurba_marseille","lat":43.297163,"lon":5.365866,"is_reserved":false,"is_disabled":false,"rental_uris":{"android":"levelo://app?vid=b63799f0-0b9a-492f-a83c-f819b8da861d","ios":"levelo://app?vid=b63799f0-0b9a-492f-a83c-f819b8da861d"},"vehicle_type_id":"4","last_reported":1703019943,"current_range_meters":19200,"station_id":"ce4bgn12rcd13ifvqbt0","pricing_plan_id":"free"},{"bike_id":"13e9a3c6-9c71-40da-9199-1d9ca373ba82","system_id":"levelo_inurba_marseille","lat":43.29601,"lon":5.36567,"is_reserved":false,"is_disabled":false,"rental_uris":{"android":"levelo://app?vid=13e9a3c6-9c71-40da-9199-1d9ca373ba82","ios":"levelo://app?vid=13e9a3c6-9c71-40da-9199-1d9ca373ba82"},"vehicle_type_id":"4","last_reported":1703019943,"current_range_meters":27600,"station_id":"","pricing_plan_id":"free"},{"bike_id":"263d6afd-74bf-40a1-972e-6e0e762b7bf5","system_id":"levelo_inurba_marseille","lat":43.29573,"lon":5.367355,"is_reserved":false,"is_disabled":false,"rental_uris":{"android":"levelo://app?vid=263d6afd-74bf-40a1-972e-6e0e762b7bf5","ios":"levelo://app?vid=263d6afd-74bf-40a1-972e-6e0e762b7bf5"},"vehicle_type_id":"4","last_reported":1703019943,"current_range_meters":27200,"station_id":"ce4bgph2rcd13ifvqc2g","pricing_plan_id":"free"},{"bike_id":"cf8537c8-3faf-4362-a7a9-75a8a09fbacd","system_id":"levelo_inurba_marseille","lat":43.29573,"lon":5.367355,"is_reserved":false,"is_disabled":false,"rental_uris":{"android":"levelo://app?vid=cf8537c8-3faf-4362-a7a9-75a8a09fbacd","ios":"levelo://app?vid=cf8537c8-3faf-4362-a7a9-75a8a09fbacd"},"vehicle_type_id":"4","last_reported":1703019943,"current_range_meters":23600,"station_id":"ce4bgph2rcd13ifvqc2g","pricing_plan_id":"free"},{"bike_id":"a640540a-377d-4af2-859b-cc7a97669cc1","system_id":"levelo_inurba_marseille","lat":43.309589,"lon":5.390258,"is_reserved":false,"is_disabled":false,"rental_uris":{"android":"levelo://app?vid=a640540a-377d-4af2-859b-cc7a97669cc1","ios":"levelo://app?vid=a640540a-377d-4af2-859b-cc7a97669cc1"},"vehicle_type_id":"4","last_reported":1703019943,"current_range_meters":25600,"station_id":"ce4bgup2rcd13ifvqco0","pricing_plan_id":"free"},{"bike_id":"257aab3e-3864-497c-bcf4-88a6516f4d1d","system_id":"levelo_inurba_marseille","lat":43.309589,"lon":5.390258,"is_reserved":false,"is_disabled":false,"rental_uris":{"android":"levelo://app?vid=257aab3e-3864-497c-bcf4-88a6516f4d1d","ios":"levelo://app?vid=257aab3e-3864-497c-bcf4-88a6516f4d1d"},"vehicle_type_id":"4","last_reported":1703019943,"current_range_meters":28400,"station_id":"ce4bgup2rcd13ifvqco0","pricing_plan_id":"free"},{"bike_id":"360a3f56-011b-4494-b054-b56c3c75c0e4","system_id":"levelo_inurba_marseille","lat":43.317557,"lon":5.390173,"is_reserved":false,"is_disabled":false,"rental_uris":{"android":"levelo://app?vid=360a3f56-011b-4494-b054-b56c3c75c0e4","ios":"levelo://app?vid=360a3f56-011b-4494-b054-b56c3c75c0e4"},"vehicle_type_id":"4","last_reported":1703019943,"current_range_meters":4000,"station_id":"ce4bhqp2rcd13ifvqhng","pricing_plan_id":"free"},{"bike_id":"8c4fa6df-927a-41b1-8fb1-9dac069dd028","system_id":"levelo_inurba_marseille","lat":43.317557,"lon":5.390173,"is_reserved":false,"is_disabled":false,"rental_uris":{"android":"levelo://app?vid=8c4fa6df-927a-41b1-8fb1-9dac069dd028","ios":"levelo://app?vid=8c4fa6df-927a-41b1-8fb1-9dac069dd028"},"vehicle_type_id":"4","last_reported":1703019943,"current_range_meters":30400,"station_id":"ce4bhqp2rcd13ifvqhng","pricing_plan_id":"free"},{"bike_id":"76d47860-82dc-4abd-a29d-51face51d019","system_id":"levelo_inurba_marseille","lat":43.317557,"lon":5.390173,"is_reserved":false,"is_disabled":false,"rental_uris":{"android":"levelo://app?vid=76d47860-82dc-4abd-a29d-51face51d019","ios":"levelo://app?vid=76d47860-82dc-4abd-a29d-51face51d019"},"vehicle_type_id":"4","last_reported":1703019943,"current_range_meters":13600,"station_id":"ce4bhqp2rcd13ifvqhng","pricing_plan_id":"free"},{"bike_id":"94c41750-2032-45a7-b721-92352b43f925","system_id":"levelo_inurba_marseille","lat":43.317557,"lon":5.390173,"is_reserved":false,"is_disabled":false,"rental_uris":{"android":"levelo://app?vid=94c41750-2032-45a7-b721-92352b43f925","ios":"levelo://app?vid=94c41750-2032-45a7-b721-92352b43f925"},"vehicle_type_id":"4","last_reported":1703019943,"current_range_meters":6400,"station_id":"ce4bhqp2rcd13ifvqhng","pricing_plan_id":"free"},{"bike_id":"40554fe8-87bf-41d5-b75a-7fd0e2ec929c","system_id":"levelo_inurba_marseille","lat":43.317557,"lon":5.390173,"is_reserved":false,"is_disabled":false,"rental_uris":{"android":"levelo://app?vid=40554fe8-87bf-41d5-b75a-7fd0e2ec929c","ios":"levelo://app?vid=40554fe8-87bf-41d5-b75a-7fd0e2ec929c"},"vehicle_type_id":"4","last_reported":1703019943,"current_range_meters":31600,"station_id":"ce4bhqp2rcd13ifvqhng","pricing_plan_id":"free"},{"bike_id":"5eb2bd39-1f40-4daa-aef3-38b62445e1a4","system_id":"levelo_inurba_marseille","lat":43.317557,"lon":5.390173,"is_reserved":false,"is_disabled":false,"rental_uris":{"android":"levelo://app?vid=5eb2bd39-1f40-4daa-aef3-38b62445e1a4","ios":"levelo://app?vid=5eb2bd39-1f40-4daa-aef3-38b62445e1a4"},"vehicle_type_id":"4","last_reported":1703019943,"current_range_meters":4400,"station_id":"ce4bhqp2rcd13ifvqhng","pricing_plan_id":"free"},{"bike_id":"a2f80d1b-d1bc-46a6-88f4-e08ae3a05d5b","system_id":"levelo_inurba_marseille","lat":43.304274,"lon":5.388873,"is_reserved":false,"is_disabled":false,"rental_uris":{"android":"levelo://app?vid=a2f80d1b-d1bc-46a6-88f4-e08ae3a05d5b","ios":"levelo://app?vid=a2f80d1b-d1bc-46a6-88f4-e08ae3a05d5b"},"vehicle_type_id":"4","last_reported":1703019943,"current_range_meters":31200,"station_id":"ce4bgk12rcd13ifvqbi0","pricing_plan_id":"free"},{"bike_id":"4e60205b-afd9-4a07-b3dc-d54ef9b2b8f4","system_id":"levelo_inurba_marseille","lat":43.304278,"lon":5.388868,"is_reserved":false,"is_disabled":false,"rental_uris":{"android":"levelo://app?vid=4e60205b-afd9-4a07-b3dc-d54ef9b2b8f4","ios":"levelo://app?vid=4e60205b-afd9-4a07-b3dc-d54ef9b2b8f4"},"vehicle_type_id":"4","last_reported":1703019943,"current_range_meters":10400,"station_id":"ce4bgk12rcd13ifvqbi0","pricing_plan_id":"free"},{"bike_id":"89bb32ba-f4f1-4e04-a15e-1100a210c696","system_id":"levelo_inurba_marseille","lat":43.295748,"lon":5.37522,"is_reserved":false,"is_disabled":false,"rental_uris":{"android":"levelo://app?vid=89bb32ba-f4f1-4e04-a15e-1100a210c696","ios":"levelo://app?vid=89bb32ba-f4f1-4e04-a15e-1100a210c696"},"vehicle_type_id":"4","last_reported":1703019943,"current_range_meters":4000,"station_id":"ce4bgh92rcd13ifvqb50","pricing_plan_id":"free"},{"bike_id":"a2980077-f766-47fc-99f0-0c5306841b68","system_id":"levelo_inurba_marseille","lat":43.299717,"lon":5.384845,"is_reserved":false,"is_disabled":false,"rental_uris":{"android":"levelo://app?vid=a2980077-f766-47fc-99f0-0c5306841b68","ios":"levelo://app?vid=a2980077-f766-47fc-99f0-0c5306841b68"},"vehicle_type_id":"4","last_reported":1703019943,"current_range_meters":4800,"station_id":"ce4bgj92rcd13ifvqbd0","pricing_plan_id":"free"},{"bike_id":"22a4fc37-cd0c-439a-9715-4a11508bb4b3","system_id":"levelo_inurba_marseille","lat":43.32367,"lon":5.388836,"is_reserved":false,"is_disabled":false,"rental_uris":{"android":"levelo://app?vid=22a4fc37-cd0c-439a-9715-4a11508bb4b3","ios":"levelo://app?vid=22a4fc37-cd0c-439a-9715-4a11508bb4b3"},"vehicle_type_id":"4","last_reported":1703019943,"current_range_meters":22400,"station_id":"ce4bhqp2rcd13ifvqhog","pricing_plan_id":"free"},{"bike_id":"f6c944ac-76c5-4af7-bad2-2080808a45f4","system_id":"levelo_inurba_marseille","lat":43.32367,"lon":5.388836,"is_reserved":false,"is_disabled":false,"rental_uris":{"android":"levelo://app?vid=f6c944ac-76c5-4af7-bad2-2080808a45f4","ios":"levelo://app?vid=f6c944ac-76c5-4af7-bad2-2080808a45f4"},"vehicle_type_id":"4","last_reported":1703019943,"current_range_meters":30800,"station_id":"ce4bhqp2rcd13ifvqhog","pricing_plan_id":"free"},{"bike_id":"70fda661-87d6-419e-9b40-f9c4076436b5","system_id":"levelo_inurba_marseille","lat":43.32367,"lon":5.388836,"is_reserved":false,"is_disabled":false,"rental_uris":{"android":"levelo://app?vid=70fda661-87d6-419e-9b40-f9c4076436b5","ios":"levelo://app?vid=70fda661-87d6-419e-9b40-f9c4076436b5"},"vehicle_type_id":"4","last_reported":1703019943,"current_range_meters":30800,"station_id":"ce4bhqp2rcd13ifvqhog","pricing_plan_id":"free"},{"bike_id":"7c03a238-fc96-4db4-a06f-3cdb69495303","system_id":"levelo_inurba_marseille","lat":43.293009,"lon":5.374584,"is_reserved":false,"is_disabled":false,"rental_uris":{"android":"levelo://app?vid=7c03a238-fc96-4db4-a06f-3cdb69495303","ios":"levelo://app?vid=7c03a238-fc96-4db4-a06f-3cdb69495303"},"vehicle_type_id":"4","last_reported":1703019943,"current_range_meters":0,"station_id":"ce4bgi12rcd13ifvqb70","pricing_plan_id":"free"},{"bike_id":"d2eb1a09-9483-4e5f-8196-fea706c21e8c","system_id":"levelo_inurba_marseille","lat":43.293009,"lon":5.374584,"is_reserved":false,"is_disabled":false,"rental_uris":{"android":"levelo://app?vid=d2eb1a09-9483-4e5f-8196-fea706c21e8c","ios":"levelo://app?vid=d2eb1a09-9483-4e5f-8196-fea706c21e8c"},"vehicle_type_id":"4","last_reported":1703019943,"current_range_meters":6800,"station_id":"ce4bgi12rcd13ifvqb70","pricing_plan_id":"free"},{"bike_id":"efc24c3e-b92a-4eb5-938f-90b693740d4c","system_id":"levelo_inurba_marseille","lat":43.300852,"lon":5.390859,"is_reserved":false,"is_disabled":false,"rental_uris":{"android":"levelo://app?vid=efc24c3e-b92a-4eb5-938f-90b693740d4c","ios":"levelo://app?vid=efc24c3e-b92a-4eb5-938f-90b693740d4c"},"vehicle_type_id":"4","last_reported":1703019943,"current_range_meters":14800,"station_id":"ce4bh192rcd13ifvqdb0","pricing_plan_id":"free"},{"bike_id":"f35b82aa-3009-49c8-aea5-e763a930bb4c","system_id":"levelo_inurba_marseille","lat":43.300852,"lon":5.390859,"is_reserved":false,"is_disabled":false,"rental_uris":{"android":"levelo://app?vid=f35b82aa-3009-49c8-aea5-e763a930bb4c","ios":"levelo://app?vid=f35b82aa-3009-49c8-aea5-e763a930bb4c"},"vehicle_type_id":"4","last_reported":1703019943,"current_range_meters":8000,"station_id":"ce4bh192rcd13ifvqdb0","pricing_plan_id":"free"},{"bike_id":"14fdd7dc-6f80-4b49-9d83-04a821351b28","system_id":"levelo_inurba_marseille","lat":43.300852,"lon":5.390859,"is_reserved":false,"is_disabled":false,"rental_uris":{"android":"levelo://app?vid=14fdd7dc-6f80-4b49-9d83-04a821351b28","ios":"levelo://app?vid=14fdd7dc-6f80-4b49-9d83-04a821351b28"},"vehicle_type_id":"4","last_reported":1703019943,"current_range_meters":28800,"station_id":"ce4bh192rcd13ifvqdb0","pricing_plan_id":"free"},{"bike_id":"3aae2b91-aff2-45cf-98d0-4096be38d29a","system_id":"levelo_inurba_marseille","lat":43.300961,"lon":5.390836,"is_reserved":false,"is_disabled":false,"rental_uris":{"android":"levelo://app?vid=3aae2b91-aff2-45cf-98d0-4096be38d29a","ios":"levelo://app?vid=3aae2b91-aff2-45cf-98d0-4096be38d29a"},"vehicle_type_id":"4","last_reported":1703019943,"current_range_meters":27600,"station_id":"","pricing_plan_id":"free"},{"bike_id":"87dfdd56-b92b-46de-b182-b73a46f440ce","system_id":"levelo_inurba_marseille","lat":43.30085,"lon":5.390856,"is_reserved":false,"is_disabled":false,"rental_uris":{"android":"levelo://app?vid=87dfdd56-b92b-46de-b182-b73a46f440ce","ios":"levelo://app?vid=87dfdd56-b92b-46de-b182-b73a46f440ce"},"vehicle_type_id":"4","last_reported":1703019943,"current_range_meters":30400,"station_id":"ce4bh192rcd13ifvqdb0","pricing_plan_id":"free"},{"bike_id":"67dbc710-e248-4701-92da-b94e6f063a32","system_id":"levelo_inurba_marseille","lat":43.322976,"lon":5.392464,"is_reserved":false,"is_disabled":false,"rental_uris":{"android":"levelo://app?vid=67dbc710-e248-4701-92da-b94e6f063a32","ios":"levelo://app?vid=67dbc710-e248-4701-92da-b94e6f063a32"},"vehicle_type_id":"4","last_reported":1703019943,"current_range_meters":7600,"station_id":"","pricing_plan_id":"free"},{"bike_id":"4d58e6f0-9efe-4656-9012-bc6cc6bcee5b","system_id":"levelo_inurba_marseille","lat":43.29878,"lon":5.38901,"is_reserved":false,"is_disabled":false,"rental_uris":{"android":"levelo://app?vid=4d58e6f0-9efe-4656-9012-bc6cc6bcee5b","ios":"levelo://app?vid=4d58e6f0-9efe-4656-9012-bc6cc6bcee5b"},"vehicle_type_id":"4","last_reported":1703019943,"current_range_meters":2800,"station_id":"","pricing_plan_id":"free"},{"bike_id":"942a356d-735b-4fb1-ba1b-b18af9f90271","system_id":"levelo_inurba_marseille","lat":43.29865,"lon":5.38907,"is_reserved":false,"is_disabled":false,"rental_uris":{"android":"levelo://app?vid=942a356d-735b-4fb1-ba1b-b18af9f90271","ios":"levelo://app?vid=942a356d-735b-4fb1-ba1b-b18af9f90271"},"vehicle_type_id":"4","last_reported":1703019943,"current_range_meters":14800,"station_id":"","pricing_plan_id":"free"},{"bike_id":"f2410063-9401-44bb-9627-6471ca1f9221","system_id":"levelo_inurba_marseille","lat":43.309038,"lon":5.396546,"is_reserved":false,"is_disabled":false,"rental_uris":{"android":"levelo://app?vid=f2410063-9401-44bb-9627-6471ca1f9221","ios":"levelo://app?vid=f2410063-9401-44bb-9627-6471ca1f9221"},"vehicle_type_id":"4","last_reported":1703019943,"current_range_meters":28000,"station_id":"ce4bh012rcd13ifvqcv0","pricing_plan_id":"free"},{"bike_id":"f5079527-0dca-4ebe-bbbb-7bc2e62b1226","system_id":"levelo_inurba_marseille","lat":43.309038,"lon":5.396546,"is_reserved":false,"is_disabled":false,"rental_uris":{"android":"levelo://app?vid=f5079527-0dca-4ebe-bbbb-7bc2e62b1226","ios":"levelo://app?vid=f5079527-0dca-4ebe-bbbb-7bc2e62b1226"},"vehicle_type_id":"4","last_reported":1703019943,"current_range_meters":17600,"station_id":"ce4bh012rcd13ifvqcv0","pricing_plan_id":"free"},{"bike_id":"9fef07b5-f14a-447a-b396-eeadc64a5474","system_id":"levelo_inurba_marseille","lat":43.309047,"lon":5.396551,"is_reserved":false,"is_disabled":false,"rental_uris":{"android":"levelo://app?vid=9fef07b5-f14a-447a-b396-eeadc64a5474","ios":"levelo://app?vid=9fef07b5-f14a-447a-b396-eeadc64a5474"},"vehicle_type_id":"4","last_reported":1703019943,"current_range_meters":13200,"station_id":"ce4bh012rcd13ifvqcv0","pricing_plan_id":"free"},{"bike_id":"71f40a5e-c9f4-43c3-8ccd-542905db1e5a","system_id":"levelo_inurba_marseille","lat":43.313291,"lon":5.396838,"is_reserved":false,"is_disabled":false,"rental_uris":{"android":"levelo://app?vid=71f40a5e-c9f4-43c3-8ccd-542905db1e5a","ios":"levelo://app?vid=71f40a5e-c9f4-43c3-8ccd-542905db1e5a"},"vehicle_type_id":"4","last_reported":1703019943,"current_range_meters":7600,"station_id":"ce4bgvp2rcd13ifvqcu0","pricing_plan_id":"free"},{"bike_id":"c376ed8d-7d11-4af4-96fa-774d41172371","system_id":"levelo_inurba_marseille","lat":43.313291,"lon":5.396838,"is_reserved":false,"is_disabled":false,"rental_uris":{"android":"levelo://app?vid=c376ed8d-7d11-4af4-96fa-774d41172371","ios":"levelo://app?vid=c376ed8d-7d11-4af4-96fa-774d41172371"},"vehicle_type_id":"4","last_reported":1703019943,"current_range_meters":31200,"station_id":"ce4bgvp2rcd13ifvqcu0","pricing_plan_id":"free"},{"bike_id":"269c9be6-1557-4ea6-9a7e-6b575d4289f4","system_id":"levelo_inurba_marseille","lat":43.309047,"lon":5.396551,"is_reserved":false,"is_disabled":false,"rental_uris":{"android":"levelo://app?vid=269c9be6-1557-4ea6-9a7e-6b575d4289f4","ios":"levelo://app?vid=269c9be6-1557-4ea6-9a7e-6b575d4289f4"},"vehicle_type_id":"4","last_reported":1703019943,"current_range_meters":31600,"station_id":"ce4bh012rcd13ifvqcv0","pricing_plan_id":"free"},{"bike_id":"f01b7913-d3e2-4790-84af-919cebf057d0","system_id":"levelo_inurba_marseille","lat":43.313291,"lon":5.396838,"is_reserved":false,"is_disabled":false,"rental_uris":{"android":"levelo://app?vid=f01b7913-d3e2-4790-84af-919cebf057d0","ios":"levelo://app?vid=f01b7913-d3e2-4790-84af-919cebf057d0"},"vehicle_type_id":"4","last_reported":1703019943,"current_range_meters":2800,"station_id":"ce4bgvp2rcd13ifvqcu0","pricing_plan_id":"free"},{"bike_id":"123f6846-4316-4d20-a0b1-d9640ea3a43d","system_id":"levelo_inurba_marseille","lat":43.313291,"lon":5.396838,"is_reserved":false,"is_disabled":false,"rental_uris":{"android":"levelo://app?vid=123f6846-4316-4d20-a0b1-d9640ea3a43d","ios":"levelo://app?vid=123f6846-4316-4d20-a0b1-d9640ea3a43d"},"vehicle_type_id":"4","last_reported":1703019943,"current_range_meters":31600,"station_id":"ce4bgvp2rcd13ifvqcu0","pricing_plan_id":"free"},{"bike_id":"4d3ce14d-6692-40a8-8b80-e3a11365aabd","system_id":"levelo_inurba_marseille","lat":43.291994,"lon":5.357886,"is_reserved":false,"is_disabled":false,"rental_uris":{"android":"levelo://app?vid=4d3ce14d-6692-40a8-8b80-e3a11365aabd","ios":"levelo://app?vid=4d3ce14d-6692-40a8-8b80-e3a11365aabd"},"vehicle_type_id":"4","last_reported":1703019943,"current_range_meters":13600,"station_id":"ce4bhb12rcd13ifvqel0","pricing_plan_id":"free"},{"bike_id":"268830cf-306d-4685-acaf-b31b982c6bce","system_id":"levelo_inurba_marseille","lat":43.309038,"lon":5.396546,"is_reserved":false,"is_disabled":false,"rental_uris":{"android":"levelo://app?vid=268830cf-306d-4685-acaf-b31b982c6bce","ios":"levelo://app?vid=268830cf-306d-4685-acaf-b31b982c6bce"},"vehicle_type_id":"4","last_reported":1703019943,"current_range_meters":17200,"station_id":"ce4bh012rcd13ifvqcv0","pricing_plan_id":"free"},{"bike_id":"71ccdf22-e951-42c0-bdfb-c1282a8d3baf","system_id":"levelo_inurba_marseille","lat":43.309038,"lon":5.396546,"is_reserved":false,"is_disabled":false,"rental_uris":{"android":"levelo://app?vid=71ccdf22-e951-42c0-bdfb-c1282a8d3baf","ios":"levelo://app?vid=71ccdf22-e951-42c0-bdfb-c1282a8d3baf"},"vehicle_type_id":"4","last_reported":1703019943,"current_range_meters":12800,"station_id":"ce4bh012rcd13ifvqcv0","pricing_plan_id":"free"},{"bike_id":"bf09b181-7345-4b08-828c-88048df105c6","system_id":"levelo_inurba_marseille","lat":43.29529,"lon":5.385581,"is_reserved":false,"is_disabled":false,"rental_uris":{"android":"levelo://app?vid=bf09b181-7345-4b08-828c-88048df105c6","ios":"levelo://app?vid=bf09b181-7345-4b08-828c-88048df105c6"},"vehicle_type_id":"4","last_reported":1703019943,"current_range_meters":22400,"station_id":"ce4bgih2rcd13ifvqba0","pricing_plan_id":"free"},{"bike_id":"4c2d9781-ff7d-4d22-b389-dbee36e272c3","system_id":"levelo_inurba_marseille","lat":43.29529,"lon":5.385581,"is_reserved":false,"is_disabled":false,"rental_uris":{"android":"levelo://app?vid=4c2d9781-ff7d-4d22-b389-dbee36e272c3","ios":"levelo://app?vid=4c2d9781-ff7d-4d22-b389-dbee36e272c3"},"vehicle_type_id":"4","last_reported":1703019943,"current_range_meters":9600,"station_id":"ce4bgih2rcd13ifvqba0","pricing_plan_id":"free"},{"bike_id":"091c991f-5efc-4e6a-809d-356a17bcbe9d","system_id":"levelo_inurba_marseille","lat":43.29529,"lon":5.385581,"is_reserved":false,"is_disabled":false,"rental_uris":{"android":"levelo://app?vid=091c991f-5efc-4e6a-809d-356a17bcbe9d","ios":"levelo://app?vid=091c991f-5efc-4e6a-809d-356a17bcbe9d"},"vehicle_type_id":"4","last_reported":1703019943,"current_range_meters":11200,"station_id":"ce4bgih2rcd13ifvqba0","pricing_plan_id":"free"},{"bike_id":"1c6865ab-ca21-47bf-af2c-4ab4096b87b5","system_id":"levelo_inurba_marseille","lat":43.29529,"lon":5.385581,"is_reserved":false,"is_disabled":false,"rental_uris":{"android":"levelo://app?vid=1c6865ab-ca21-47bf-af2c-4ab4096b87b5","ios":"levelo://app?vid=1c6865ab-ca21-47bf-af2c-4ab4096b87b5"},"vehicle_type_id":"4","last_reported":1703019943,"current_range_meters":5600,"station_id":"ce4bgih2rcd13ifvqba0","pricing_plan_id":"free"},{"bike_id":"8d430670-7b83-4666-8b03-e7025f070d07","system_id":"levelo_inurba_marseille","lat":43.29529,"lon":5.385581,"is_reserved":false,"is_disabled":false,"rental_uris":{"android":"levelo://app?vid=8d430670-7b83-4666-8b03-e7025f070d07","ios":"levelo://app?vid=8d430670-7b83-4666-8b03-e7025f070d07"},"vehicle_type_id":"4","last_reported":1703019943,"current_range_meters":14000,"station_id":"ce4bgih2rcd13ifvqba0","pricing_plan_id":"free"},{"bike_id":"4ca1de24-ffe3-407b-b75b-ee729bbdefc7","system_id":"levelo_inurba_marseille","lat":43.302008,"lon":5.394694,"is_reserved":false,"is_disabled":false,"rental_uris":{"android":"levelo://app?vid=4ca1de24-ffe3-407b-b75b-ee729bbdefc7","ios":"levelo://app?vid=4ca1de24-ffe3-407b-b75b-ee729bbdefc7"},"vehicle_type_id":"4","last_reported":1703019943,"current_range_meters":4800,"station_id":"ce4bh0p2rcd13ifvqd70","pricing_plan_id":"free"},{"bike_id":"4f23b705-0e47-4d86-a093-95d8f175e4ef","system_id":"levelo_inurba_marseille","lat":43.302008,"lon":5.394694,"is_reserved":false,"is_disabled":false,"rental_uris":{"android":"levelo://app?vid=4f23b705-0e47-4d86-a093-95d8f175e4ef","ios":"levelo://app?vid=4f23b705-0e47-4d86-a093-95d8f175e4ef"},"vehicle_type_id":"4","last_reported":1703019943,"current_range_meters":14400,"station_id":"ce4bh0p2rcd13ifvqd70","pricing_plan_id":"free"},{"bike_id":"64ec1676-ee24-4129-ac5f-ac905cd2f8ef","system_id":"levelo_inurba_marseille","lat":43.290624,"lon":5.359245,"is_reserved":false,"is_disabled":false,"rental_uris":{"android":"levelo://app?vid=64ec1676-ee24-4129-ac5f-ac905cd2f8ef","ios":"levelo://app?vid=64ec1676-ee24-4129-ac5f-ac905cd2f8ef"},"vehicle_type_id":"4","last_reported":1703019943,"current_range_meters":1200,"station_id":"ce4bha92rcd13ifvqeg0","pricing_plan_id":"free"},{"bike_id":"db5a3bec-6094-4f22-832d-d86ea56da303","system_id":"levelo_inurba_marseille","lat":43.290327,"lon":5.375711,"is_reserved":false,"is_disabled":false,"rental_uris":{"android":"levelo://app?vid=db5a3bec-6094-4f22-832d-d86ea56da303","ios":"levelo://app?vid=db5a3bec-6094-4f22-832d-d86ea56da303"},"vehicle_type_id":"4","last_reported":1703019943,"current_range_meters":15600,"station_id":"ce4bh692rcd13ifvqe90","pricing_plan_id":"free"},{"bike_id":"36cdd471-4dd8-4963-963f-7d51654ac62e","system_id":"levelo_inurba_marseille","lat":43.294162,"lon":5.386292,"is_reserved":false,"is_disabled":false,"rental_uris":{"android":"levelo://app?vid=36cdd471-4dd8-4963-963f-7d51654ac62e","ios":"levelo://app?vid=36cdd471-4dd8-4963-963f-7d51654ac62e"},"vehicle_type_id":"4","last_reported":1703019943,"current_range_meters":0,"station_id":"ce4bh2h2rcd13ifvqdh0","pricing_plan_id":"free"},{"bike_id":"97e1702f-5411-4ad3-8d18-0864147f895c","system_id":"levelo_inurba_marseille","lat":43.294153,"lon":5.386305,"is_reserved":false,"is_disabled":false,"rental_uris":{"android":"levelo://app?vid=97e1702f-5411-4ad3-8d18-0864147f895c","ios":"levelo://app?vid=97e1702f-5411-4ad3-8d18-0864147f895c"},"vehicle_type_id":"4","last_reported":1703019943,"current_range_meters":2400,"station_id":"ce4bh2h2rcd13ifvqdh0","pricing_plan_id":"free"},{"bike_id":"0875be4d-7cca-4daf-a925-0f29755b9b8d","system_id":"levelo_inurba_marseille","lat":43.294153,"lon":5.386305,"is_reserved":false,"is_disabled":false,"rental_uris":{"android":"levelo://app?vid=0875be4d-7cca-4daf-a925-0f29755b9b8d","ios":"levelo://app?vid=0875be4d-7cca-4daf-a925-0f29755b9b8d"},"vehicle_type_id":"4","last_reported":1703019943,"current_range_meters":9600,"station_id":"ce4bh2h2rcd13ifvqdh0","pricing_plan_id":"free"},{"bike_id":"267db500-57a9-4857-898b-ef92b9c5a9cf","system_id":"levelo_inurba_marseille","lat":43.289468,"lon":5.363719,"is_reserved":false,"is_disabled":false,"rental_uris":{"android":"levelo://app?vid=267db500-57a9-4857-898b-ef92b9c5a9cf","ios":"levelo://app?vid=267db500-57a9-4857-898b-ef92b9c5a9cf"},"vehicle_type_id":"4","last_reported":1703019943,"current_range_meters":29200,"station_id":"ce4bhc92rcd13ifvqetg","pricing_plan_id":"free"},{"bike_id":"6c0d014c-0c5b-4586-aac6-6404ea481682","system_id":"levelo_inurba_marseille","lat":43.292642,"lon":5.384254,"is_reserved":false,"is_disabled":false,"rental_uris":{"android":"levelo://app?vid=6c0d014c-0c5b-4586-aac6-6404ea481682","ios":"levelo://app?vid=6c0d014c-0c5b-4586-aac6-6404ea481682"},"vehicle_type_id":"4","last_reported":1703019943,"current_range_meters":13600,"station_id":"ce4bh692rcd13ifvqea0","pricing_plan_id":"free"},{"bike_id":"08713e9f-88e3-4ab7-ab92-99565626cb49","system_id":"levelo_inurba_marseille","lat":43.30296,"lon":5.39689,"is_reserved":false,"is_disabled":false,"rental_uris":{"android":"levelo://app?vid=08713e9f-88e3-4ab7-ab92-99565626cb49","ios":"levelo://app?vid=08713e9f-88e3-4ab7-ab92-99565626cb49"},"vehicle_type_id":"4","last_reported":1703019943,"current_range_meters":20400,"station_id":"","pricing_plan_id":"free"},{"bike_id":"08bc5949-3096-45c9-8d3f-58d7e8ed0c24","system_id":"levelo_inurba_marseille","lat":43.330442,"lon":5.389148,"is_reserved":false,"is_disabled":false,"rental_uris":{"android":"levelo://app?vid=08bc5949-3096-45c9-8d3f-58d7e8ed0c24","ios":"levelo://app?vid=08bc5949-3096-45c9-8d3f-58d7e8ed0c24"},"vehicle_type_id":"4","last_reported":1703019943,"current_range_meters":4800,"station_id":"ce4bhr92rcd13ifvqhrg","pricing_plan_id":"free"},{"bike_id":"256fbe47-cb36-4ed4-9f8d-cfa2dbfc3a59","system_id":"levelo_inurba_marseille","lat":43.290103,"lon":5.356114,"is_reserved":false,"is_disabled":false,"rental_uris":{"android":"levelo://app?vid=256fbe47-cb36-4ed4-9f8d-cfa2dbfc3a59","ios":"levelo://app?vid=256fbe47-cb36-4ed4-9f8d-cfa2dbfc3a59"},"vehicle_type_id":"4","last_reported":1703019943,"current_range_meters":11200,"station_id":"ce4bhb92rcd13ifvqen0","pricing_plan_id":"free"},{"bike_id":"f9de8fb0-d0f9-4855-8451-afff0b454db2","system_id":"levelo_inurba_marseille","lat":43.330442,"lon":5.389148,"is_reserved":false,"is_disabled":false,"rental_uris":{"android":"levelo://app?vid=f9de8fb0-d0f9-4855-8451-afff0b454db2","ios":"levelo://app?vid=f9de8fb0-d0f9-4855-8451-afff0b454db2"},"vehicle_type_id":"4","last_reported":1703019943,"current_range_meters":26400,"station_id":"ce4bhr92rcd13ifvqhrg","pricing_plan_id":"free"},{"bike_id":"2fb71484-fd85-4cf1-841b-c6fa44a405e2","system_id":"levelo_inurba_marseille","lat":43.330442,"lon":5.389148,"is_reserved":false,"is_disabled":false,"rental_uris":{"android":"levelo://app?vid=2fb71484-fd85-4cf1-841b-c6fa44a405e2","ios":"levelo://app?vid=2fb71484-fd85-4cf1-841b-c6fa44a405e2"},"vehicle_type_id":"4","last_reported":1703019943,"current_range_meters":1600,"station_id":"ce4bhr92rcd13ifvqhrg","pricing_plan_id":"free"},{"bike_id":"7ce82c8b-e8cc-4ee9-ae39-6c00230f93d9","system_id":"levelo_inurba_marseille","lat":43.33046,"lon":5.38919,"is_reserved":false,"is_disabled":false,"rental_uris":{"android":"levelo://app?vid=7ce82c8b-e8cc-4ee9-ae39-6c00230f93d9","ios":"levelo://app?vid=7ce82c8b-e8cc-4ee9-ae39-6c00230f93d9"},"vehicle_type_id":"4","last_reported":1703019943,"current_range_meters":5200,"station_id":"ce4bhr92rcd13ifvqhrg","pricing_plan_id":"free"},{"bike_id":"db58a451-a7fa-439b-a2dc-c0430587b8bb","system_id":"levelo_inurba_marseille","lat":43.290995,"lon":5.381361,"is_reserved":false,"is_disabled":false,"rental_uris":{"android":"levelo://app?vid=db58a451-a7fa-439b-a2dc-c0430587b8bb","ios":"levelo://app?vid=db58a451-a7fa-439b-a2dc-c0430587b8bb"},"vehicle_type_id":"4","last_reported":1703019943,"current_range_meters":27600,"station_id":"ce4bh512rcd13ifvqe2g","pricing_plan_id":"free"},{"bike_id":"108feb64-518b-4f26-b757-35cece86d672","system_id":"levelo_inurba_marseille","lat":43.29536,"lon":5.39031,"is_reserved":false,"is_disabled":false,"rental_uris":{"android":"levelo://app?vid=108feb64-518b-4f26-b757-35cece86d672","ios":"levelo://app?vid=108feb64-518b-4f26-b757-35cece86d672"},"vehicle_type_id":"4","last_reported":1703019943,"current_range_meters":8800,"station_id":"ce4bh3p2rcd13ifvqdp0","pricing_plan_id":"free"},{"bike_id":"989d8d42-4c1f-4cb7-b01a-25185bf1fe2e","system_id":"levelo_inurba_marseille","lat":43.297815,"lon":5.393548,"is_reserved":false,"is_disabled":false,"rental_uris":{"android":"levelo://app?vid=989d8d42-4c1f-4cb7-b01a-25185bf1fe2e","ios":"levelo://app?vid=989d8d42-4c1f-4cb7-b01a-25185bf1fe2e"},"vehicle_type_id":"4","last_reported":1703019943,"current_range_meters":22400,"station_id":"chh1huq6cuj3fo74tm60","pricing_plan_id":"free"},{"bike_id":"e93db64a-1e8f-4755-8ffc-e2fd08f6ee1a","system_id":"levelo_inurba_marseille","lat":43.29535,"lon":5.39038,"is_reserved":false,"is_disabled":false,"rental_uris":{"android":"levelo://app?vid=e93db64a-1e8f-4755-8ffc-e2fd08f6ee1a","ios":"levelo://app?vid=e93db64a-1e8f-4755-8ffc-e2fd08f6ee1a"},"vehicle_type_id":"4","last_reported":1703019943,"current_range_meters":6800,"station_id":"ce4bh3p2rcd13ifvqdp0","pricing_plan_id":"free"},{"bike_id":"fcf0f1ae-bd14-42a7-a0c3-3cd8a0c0b6c2","system_id":"levelo_inurba_marseille","lat":43.295169,"lon":5.390426,"is_reserved":false,"is_disabled":false,"rental_uris":{"android":"levelo://app?vid=fcf0f1ae-bd14-42a7-a0c3-3cd8a0c0b6c2","ios":"levelo://app?vid=fcf0f1ae-bd14-42a7-a0c3-3cd8a0c0b6c2"},"vehicle_type_id":"4","last_reported":1703019943,"current_range_meters":0,"station_id":"ce4bh3p2rcd13ifvqdp0","pricing_plan_id":"free"},{"bike_id":"efc8b483-666b-48da-afa0-0447382868fd","system_id":"levelo_inurba_marseille","lat":43.33734,"lon":5.37473,"is_reserved":false,"is_disabled":false,"rental_uris":{"android":"levelo://app?vid=efc8b483-666b-48da-afa0-0447382868fd","ios":"levelo://app?vid=efc8b483-666b-48da-afa0-0447382868fd"},"vehicle_type_id":"4","last_reported":1703019943,"current_range_meters":24800,"station_id":"","pricing_plan_id":"free"},{"bike_id":"25d32a4e-2431-4469-aff9-239e16262af8","system_id":"levelo_inurba_marseille","lat":43.309371,"lon":5.401449,"is_reserved":false,"is_disabled":false,"rental_uris":{"android":"levelo://app?vid=25d32a4e-2431-4469-aff9-239e16262af8","ios":"levelo://app?vid=25d32a4e-2431-4469-aff9-239e16262af8"},"vehicle_type_id":"4","last_reported":1703019943,"current_range_meters":24400,"station_id":"ce4bgvp2rcd13ifvqct0","pricing_plan_id":"free"},{"bike_id":"2054c906-6809-49e3-931b-c23603bf0296","system_id":"levelo_inurba_marseille","lat":43.30923,"lon":5.401417,"is_reserved":false,"is_disabled":false,"rental_uris":{"android":"levelo://app?vid=2054c906-6809-49e3-931b-c23603bf0296","ios":"levelo://app?vid=2054c906-6809-49e3-931b-c23603bf0296"},"vehicle_type_id":"4","last_reported":1703019943,"current_range_meters":0,"station_id":"ce4bgvp2rcd13ifvqct0","pricing_plan_id":"free"},{"bike_id":"f59218f1-058e-4fe9-888d-e80063101f69","system_id":"levelo_inurba_marseille","lat":43.309371,"lon":5.401449,"is_reserved":false,"is_disabled":false,"rental_uris":{"android":"levelo://app?vid=f59218f1-058e-4fe9-888d-e80063101f69","ios":"levelo://app?vid=f59218f1-058e-4fe9-888d-e80063101f69"},"vehicle_type_id":"4","last_reported":1703019943,"current_range_meters":8000,"station_id":"ce4bgvp2rcd13ifvqct0","pricing_plan_id":"free"},{"bike_id":"bbd56e66-609e-4f3d-a9d6-4b214f571635","system_id":"levelo_inurba_marseille","lat":43.33752,"lon":5.374356,"is_reserved":false,"is_disabled":false,"rental_uris":{"android":"levelo://app?vid=bbd56e66-609e-4f3d-a9d6-4b214f571635","ios":"levelo://app?vid=bbd56e66-609e-4f3d-a9d6-4b214f571635"},"vehicle_type_id":"4","last_reported":1703019943,"current_range_meters":24800,"station_id":"","pricing_plan_id":"free"},{"bike_id":"4ec3578a-a5b4-4bad-af64-fa1a231c0de3","system_id":"levelo_inurba_marseille","lat":43.309371,"lon":5.401449,"is_reserved":false,"is_disabled":false,"rental_uris":{"android":"levelo://app?vid=4ec3578a-a5b4-4bad-af64-fa1a231c0de3","ios":"levelo://app?vid=4ec3578a-a5b4-4bad-af64-fa1a231c0de3"},"vehicle_type_id":"4","last_reported":1703019943,"current_range_meters":16400,"station_id":"ce4bgvp2rcd13ifvqct0","pricing_plan_id":"free"},{"bike_id":"9a6099ab-a40d-4b6a-8582-715d207e2801","system_id":"levelo_inurba_marseille","lat":43.309371,"lon":5.401449,"is_reserved":false,"is_disabled":false,"rental_uris":{"android":"levelo://app?vid=9a6099ab-a40d-4b6a-8582-715d207e2801","ios":"levelo://app?vid=9a6099ab-a40d-4b6a-8582-715d207e2801"},"vehicle_type_id":"4","last_reported":1703019943,"current_range_meters":30400,"station_id":"ce4bgvp2rcd13ifvqct0","pricing_plan_id":"free"},{"bike_id":"f45ce3b5-af32-4ddb-a1ff-10c5533ea990","system_id":"levelo_inurba_marseille","lat":43.302992,"lon":5.392136,"is_reserved":false,"is_disabled":false,"rental_uris":{"android":"levelo://app?vid=f45ce3b5-af32-4ddb-a1ff-10c5533ea990","ios":"levelo://app?vid=f45ce3b5-af32-4ddb-a1ff-10c5533ea990"},"vehicle_type_id":"4","last_reported":1703019943,"current_range_meters":8800,"station_id":"ce4bgkh2rcd13ifvqbk0","pricing_plan_id":"free"},{"bike_id":"f2e2d772-8917-4548-9b6e-fef35e4d712b","system_id":"levelo_inurba_marseille","lat":43.30642,"lon":5.401031,"is_reserved":false,"is_disabled":false,"rental_uris":{"android":"levelo://app?vid=f2e2d772-8917-4548-9b6e-fef35e4d712b","ios":"levelo://app?vid=f2e2d772-8917-4548-9b6e-fef35e4d712b"},"vehicle_type_id":"4","last_reported":1703019943,"current_range_meters":24400,"station_id":"ce4bh112rcd13ifvqda0","pricing_plan_id":"free"},{"bike_id":"19cfd516-a736-4af7-b0ce-b2a57c2bdc2d","system_id":"levelo_inurba_marseille","lat":43.306412,"lon":5.401035,"is_reserved":false,"is_disabled":false,"rental_uris":{"android":"levelo://app?vid=19cfd516-a736-4af7-b0ce-b2a57c2bdc2d","ios":"levelo://app?vid=19cfd516-a736-4af7-b0ce-b2a57c2bdc2d"},"vehicle_type_id":"4","last_reported":1703019943,"current_range_meters":29600,"station_id":"ce4bh112rcd13ifvqda0","pricing_plan_id":"free"},{"bike_id":"b928e8f0-5cfc-4105-a69d-8b07fd154e70","system_id":"levelo_inurba_marseille","lat":43.33758,"lon":5.37468,"is_reserved":false,"is_disabled":false,"rental_uris":{"android":"levelo://app?vid=b928e8f0-5cfc-4105-a69d-8b07fd154e70","ios":"levelo://app?vid=b928e8f0-5cfc-4105-a69d-8b07fd154e70"},"vehicle_type_id":"4","last_reported":1703019943,"current_range_meters":30400,"station_id":"","pricing_plan_id":"free"},{"bike_id":"c3c3cbbb-aa08-4874-94d9-d40777882ceb","system_id":"levelo_inurba_marseille","lat":43.337659,"lon":5.374251,"is_reserved":false,"is_disabled":false,"rental_uris":{"android":"levelo://app?vid=c3c3cbbb-aa08-4874-94d9-d40777882ceb","ios":"levelo://app?vid=c3c3cbbb-aa08-4874-94d9-d40777882ceb"},"vehicle_type_id":"4","last_reported":1703019943,"current_range_meters":7600,"station_id":"","pricing_plan_id":"free"},{"bike_id":"3873cd9d-0dad-4022-aaf9-5cd4b6535c11","system_id":"levelo_inurba_marseille","lat":43.306412,"lon":5.401035,"is_reserved":false,"is_disabled":false,"rental_uris":{"android":"levelo://app?vid=3873cd9d-0dad-4022-aaf9-5cd4b6535c11","ios":"levelo://app?vid=3873cd9d-0dad-4022-aaf9-5cd4b6535c11"},"vehicle_type_id":"4","last_reported":1703019943,"current_range_meters":29200,"station_id":"ce4bh112rcd13ifvqda0","pricing_plan_id":"free"},{"bike_id":"5fa020a0-b1b2-46a1-84ac-c939d0ea5e1f","system_id":"levelo_inurba_marseille","lat":43.30642,"lon":5.401031,"is_reserved":false,"is_disabled":false,"rental_uris":{"android":"levelo://app?vid=5fa020a0-b1b2-46a1-84ac-c939d0ea5e1f","ios":"levelo://app?vid=5fa020a0-b1b2-46a1-84ac-c939d0ea5e1f"},"vehicle_type_id":"4","last_reported":1703019943,"current_range_meters":15600,"station_id":"ce4bh112rcd13ifvqda0","pricing_plan_id":"free"},{"bike_id":"e280059d-869f-4060-96a6-679d3ac88c32","system_id":"levelo_inurba_marseille","lat":43.3013,"lon":5.3987,"is_reserved":false,"is_disabled":false,"rental_uris":{"android":"levelo://app?vid=e280059d-869f-4060-96a6-679d3ac88c32","ios":"levelo://app?vid=e280059d-869f-4060-96a6-679d3ac88c32"},"vehicle_type_id":"4","last_reported":1703019943,"current_range_meters":4800,"station_id":"ce4bh0h2rcd13ifvqd40","pricing_plan_id":"free"},{"bike_id":"ca435372-d267-478e-b653-8396709afa5b","system_id":"levelo_inurba_marseille","lat":43.301348,"lon":5.398753,"is_reserved":false,"is_disabled":false,"rental_uris":{"android":"levelo://app?vid=ca435372-d267-478e-b653-8396709afa5b","ios":"levelo://app?vid=ca435372-d267-478e-b653-8396709afa5b"},"vehicle_type_id":"4","last_reported":1703019943,"current_range_meters":400,"station_id":"ce4bh0h2rcd13ifvqd40","pricing_plan_id":"free"},{"bike_id":"187a5928-1dea-4a55-a57b-8dc0877abe4d","system_id":"levelo_inurba_marseille","lat":43.301374,"lon":5.398791,"is_reserved":false,"is_disabled":false,"rental_uris":{"android":"levelo://app?vid=187a5928-1dea-4a55-a57b-8dc0877abe4d","ios":"levelo://app?vid=187a5928-1dea-4a55-a57b-8dc0877abe4d"},"vehicle_type_id":"4","last_reported":1703019943,"current_range_meters":0,"station_id":"ce4bh0h2rcd13ifvqd40","pricing_plan_id":"free"},{"bike_id":"088146c4-68d1-4d15-964b-03879b0208c3","system_id":"levelo_inurba_marseille","lat":43.28727,"lon":5.36078,"is_reserved":false,"is_disabled":false,"rental_uris":{"android":"levelo://app?vid=088146c4-68d1-4d15-964b-03879b0208c3","ios":"levelo://app?vid=088146c4-68d1-4d15-964b-03879b0208c3"},"vehicle_type_id":"4","last_reported":1703019943,"current_range_meters":20000,"station_id":"cki0cbj6b192h4jlfktg","pricing_plan_id":"free"},{"bike_id":"765426f4-36f4-4c64-842a-1d28ae82cd2b","system_id":"levelo_inurba_marseille","lat":43.298681,"lon":5.397225,"is_reserved":false,"is_disabled":false,"rental_uris":{"android":"levelo://app?vid=765426f4-36f4-4c64-842a-1d28ae82cd2b","ios":"levelo://app?vid=765426f4-36f4-4c64-842a-1d28ae82cd2b"},"vehicle_type_id":"4","last_reported":1703019943,"current_range_meters":14400,"station_id":"ce4bh0h2rcd13ifvqd50","pricing_plan_id":"free"},{"bike_id":"01eee4d5-f7e7-46f8-acf2-259b84eeb2b0","system_id":"levelo_inurba_marseille","lat":43.298681,"lon":5.397225,"is_reserved":false,"is_disabled":false,"rental_uris":{"android":"levelo://app?vid=01eee4d5-f7e7-46f8-acf2-259b84eeb2b0","ios":"levelo://app?vid=01eee4d5-f7e7-46f8-acf2-259b84eeb2b0"},"vehicle_type_id":"4","last_reported":1703019943,"current_range_meters":30000,"station_id":"ce4bh0h2rcd13ifvqd50","pricing_plan_id":"free"},{"bike_id":"d968e840-2fbe-45e3-9b75-7bc3ca959097","system_id":"levelo_inurba_marseille","lat":43.295194,"lon":5.39397,"is_reserved":false,"is_disabled":false,"rental_uris":{"android":"levelo://app?vid=d968e840-2fbe-45e3-9b75-7bc3ca959097","ios":"levelo://app?vid=d968e840-2fbe-45e3-9b75-7bc3ca959097"},"vehicle_type_id":"4","last_reported":1703019943,"current_range_meters":0,"station_id":"ce4bh292rcd13ifvqdf0","pricing_plan_id":"free"},{"bike_id":"e8c74391-524b-4871-901b-202c4952c71e","system_id":"levelo_inurba_marseille","lat":43.289307,"lon":5.38406,"is_reserved":false,"is_disabled":false,"rental_uris":{"android":"levelo://app?vid=e8c74391-524b-4871-901b-202c4952c71e","ios":"levelo://app?vid=e8c74391-524b-4871-901b-202c4952c71e"},"vehicle_type_id":"4","last_reported":1703019943,"current_range_meters":22400,"station_id":"ce4bh612rcd13ifvqe6g","pricing_plan_id":"free"},{"bike_id":"92d191cb-b6d0-4e28-8537-e4bbbc02e601","system_id":"levelo_inurba_marseille","lat":43.302759,"lon":5.400793,"is_reserved":false,"is_disabled":false,"rental_uris":{"android":"levelo://app?vid=92d191cb-b6d0-4e28-8537-e4bbbc02e601","ios":"levelo://app?vid=92d191cb-b6d0-4e28-8537-e4bbbc02e601"},"vehicle_type_id":"4","last_reported":1703019943,"current_range_meters":10400,"station_id":"ce4bgvh2rcd13ifvqcs0","pricing_plan_id":"free"},{"bike_id":"dd4d805a-cb06-4d21-9fe6-494f9b6b3f1e","system_id":"levelo_inurba_marseille","lat":43.302759,"lon":5.400793,"is_reserved":false,"is_disabled":false,"rental_uris":{"android":"levelo://app?vid=dd4d805a-cb06-4d21-9fe6-494f9b6b3f1e","ios":"levelo://app?vid=dd4d805a-cb06-4d21-9fe6-494f9b6b3f1e"},"vehicle_type_id":"4","last_reported":1703019943,"current_range_meters":23200,"station_id":"ce4bgvh2rcd13ifvqcs0","pricing_plan_id":"free"},{"bike_id":"9bef25cd-88ab-4b9f-8d00-91cbd7007a44","system_id":"levelo_inurba_marseille","lat":43.302759,"lon":5.400793,"is_reserved":false,"is_disabled":false,"rental_uris":{"android":"levelo://app?vid=9bef25cd-88ab-4b9f-8d00-91cbd7007a44","ios":"levelo://app?vid=9bef25cd-88ab-4b9f-8d00-91cbd7007a44"},"vehicle_type_id":"4","last_reported":1703019943,"current_range_meters":0,"station_id":"ce4bgvh2rcd13ifvqcs0","pricing_plan_id":"free"},{"bike_id":"72586fa1-7c49-43a9-bc7b-f5c8eb87adff","system_id":"levelo_inurba_marseille","lat":43.302759,"lon":5.400793,"is_reserved":false,"is_disabled":false,"rental_uris":{"android":"levelo://app?vid=72586fa1-7c49-43a9-bc7b-f5c8eb87adff","ios":"levelo://app?vid=72586fa1-7c49-43a9-bc7b-f5c8eb87adff"},"vehicle_type_id":"4","last_reported":1703019943,"current_range_meters":30000,"station_id":"ce4bgvh2rcd13ifvqcs0","pricing_plan_id":"free"},{"bike_id":"8f903639-8eae-4028-a1e8-25556c652eb1","system_id":"levelo_inurba_marseille","lat":43.302759,"lon":5.400793,"is_reserved":false,"is_disabled":false,"rental_uris":{"android":"levelo://app?vid=8f903639-8eae-4028-a1e8-25556c652eb1","ios":"levelo://app?vid=8f903639-8eae-4028-a1e8-25556c652eb1"},"vehicle_type_id":"4","last_reported":1703019943,"current_range_meters":18400,"station_id":"ce4bgvh2rcd13ifvqcs0","pricing_plan_id":"free"},{"bike_id":"de2b0f7f-2e51-4dbb-8ff3-ca6bc6811c64","system_id":"levelo_inurba_marseille","lat":43.302759,"lon":5.400793,"is_reserved":false,"is_disabled":false,"rental_uris":{"android":"levelo://app?vid=de2b0f7f-2e51-4dbb-8ff3-ca6bc6811c64","ios":"levelo://app?vid=de2b0f7f-2e51-4dbb-8ff3-ca6bc6811c64"},"vehicle_type_id":"4","last_reported":1703019943,"current_range_meters":11600,"station_id":"ce4bgvh2rcd13ifvqcs0","pricing_plan_id":"free"},{"bike_id":"3bf2ea02-e0bd-4c5e-b18d-455712b7549f","system_id":"levelo_inurba_marseille","lat":43.302759,"lon":5.400793,"is_reserved":false,"is_disabled":false,"rental_uris":{"android":"levelo://app?vid=3bf2ea02-e0bd-4c5e-b18d-455712b7549f","ios":"levelo://app?vid=3bf2ea02-e0bd-4c5e-b18d-455712b7549f"},"vehicle_type_id":"4","last_reported":1703019943,"current_range_meters":27600,"station_id":"ce4bgvh2rcd13ifvqcs0","pricing_plan_id":"free"},{"bike_id":"4eadb2dd-f471-42b5-bae1-77698aaa0ab6","system_id":"levelo_inurba_marseille","lat":43.289307,"lon":5.38406,"is_reserved":false,"is_disabled":false,"rental_uris":{"android":"levelo://app?vid=4eadb2dd-f471-42b5-bae1-77698aaa0ab6","ios":"levelo://app?vid=4eadb2dd-f471-42b5-bae1-77698aaa0ab6"},"vehicle_type_id":"4","last_reported":1703019943,"current_range_meters":27200,"station_id":"ce4bh612rcd13ifvqe6g","pricing_plan_id":"free"},{"bike_id":"06b064c1-de8e-49ad-a24f-4f2182e02d63","system_id":"levelo_inurba_marseille","lat":43.302759,"lon":5.400793,"is_reserved":false,"is_disabled":false,"rental_uris":{"android":"levelo://app?vid=06b064c1-de8e-49ad-a24f-4f2182e02d63","ios":"levelo://app?vid=06b064c1-de8e-49ad-a24f-4f2182e02d63"},"vehicle_type_id":"4","last_reported":1703019943,"current_range_meters":2000,"station_id":"ce4bgvh2rcd13ifvqcs0","pricing_plan_id":"free"},{"bike_id":"de063bfa-a518-4a27-8130-9aa920c1fc2f","system_id":"levelo_inurba_marseille","lat":43.302759,"lon":5.400793,"is_reserved":false,"is_disabled":false,"rental_uris":{"android":"levelo://app?vid=de063bfa-a518-4a27-8130-9aa920c1fc2f","ios":"levelo://app?vid=de063bfa-a518-4a27-8130-9aa920c1fc2f"},"vehicle_type_id":"4","last_reported":1703019943,"current_range_meters":22000,"station_id":"ce4bgvh2rcd13ifvqcs0","pricing_plan_id":"free"},{"bike_id":"1bed3da6-3289-4ea8-95d4-669c9afe5002","system_id":"levelo_inurba_marseille","lat":43.302759,"lon":5.400793,"is_reserved":false,"is_disabled":false,"rental_uris":{"android":"levelo://app?vid=1bed3da6-3289-4ea8-95d4-669c9afe5002","ios":"levelo://app?vid=1bed3da6-3289-4ea8-95d4-669c9afe5002"},"vehicle_type_id":"4","last_reported":1703019943,"current_range_meters":27600,"station_id":"ce4bgvh2rcd13ifvqcs0","pricing_plan_id":"free"},{"bike_id":"dde628e6-7da8-42bf-8404-e1df8d234e44","system_id":"levelo_inurba_marseille","lat":43.302759,"lon":5.400793,"is_reserved":false,"is_disabled":false,"rental_uris":{"android":"levelo://app?vid=dde628e6-7da8-42bf-8404-e1df8d234e44","ios":"levelo://app?vid=dde628e6-7da8-42bf-8404-e1df8d234e44"},"vehicle_type_id":"4","last_reported":1703019943,"current_range_meters":2800,"station_id":"ce4bgvh2rcd13ifvqcs0","pricing_plan_id":"free"},{"bike_id":"538be743-59db-4ed2-9eeb-58486bd39976","system_id":"levelo_inurba_marseille","lat":43.302759,"lon":5.400793,"is_reserved":false,"is_disabled":false,"rental_uris":{"android":"levelo://app?vid=538be743-59db-4ed2-9eeb-58486bd39976","ios":"levelo://app?vid=538be743-59db-4ed2-9eeb-58486bd39976"},"vehicle_type_id":"4","last_reported":1703019943,"current_range_meters":19200,"station_id":"ce4bgvh2rcd13ifvqcs0","pricing_plan_id":"free"},{"bike_id":"a5ab0f6e-cb1e-43c6-8bca-1c02e17f1b90","system_id":"levelo_inurba_marseille","lat":43.286039,"lon":5.370679,"is_reserved":false,"is_disabled":false,"rental_uris":{"android":"levelo://app?vid=a5ab0f6e-cb1e-43c6-8bca-1c02e17f1b90","ios":"levelo://app?vid=a5ab0f6e-cb1e-43c6-8bca-1c02e17f1b90"},"vehicle_type_id":"4","last_reported":1703019943,"current_range_meters":30000,"station_id":"ce4bht12rcd13ifvqi60","pricing_plan_id":"free"},{"bike_id":"0e9227c8-2894-4098-b3bd-6c8bbe4c7bf5","system_id":"levelo_inurba_marseille","lat":43.287185,"lon":5.379373,"is_reserved":false,"is_disabled":false,"rental_uris":{"android":"levelo://app?vid=0e9227c8-2894-4098-b3bd-6c8bbe4c7bf5","ios":"levelo://app?vid=0e9227c8-2894-4098-b3bd-6c8bbe4c7bf5"},"vehicle_type_id":"4","last_reported":1703019943,"current_range_meters":2800,"station_id":"ce4bh9p2rcd13ifvqec0","pricing_plan_id":"free"},{"bike_id":"5ff770d4-30b4-422d-9d3c-b068bbc6ef2b","system_id":"levelo_inurba_marseille","lat":43.316828,"lon":5.404723,"is_reserved":false,"is_disabled":false,"rental_uris":{"android":"levelo://app?vid=5ff770d4-30b4-422d-9d3c-b068bbc6ef2b","ios":"levelo://app?vid=5ff770d4-30b4-422d-9d3c-b068bbc6ef2b"},"vehicle_type_id":"4","last_reported":1703019943,"current_range_meters":21600,"station_id":"ce4bh012rcd13ifvqd00","pricing_plan_id":"free"},{"bike_id":"18f5d6a8-288d-46db-8899-351082875d82","system_id":"levelo_inurba_marseille","lat":43.316828,"lon":5.404723,"is_reserved":false,"is_disabled":false,"rental_uris":{"android":"levelo://app?vid=18f5d6a8-288d-46db-8899-351082875d82","ios":"levelo://app?vid=18f5d6a8-288d-46db-8899-351082875d82"},"vehicle_type_id":"4","last_reported":1703019943,"current_range_meters":24800,"station_id":"ce4bh012rcd13ifvqd00","pricing_plan_id":"free"},{"bike_id":"672406b4-1d0b-40dd-b0df-9eec67ee92cc","system_id":"levelo_inurba_marseille","lat":43.284534,"lon":5.358662,"is_reserved":false,"is_disabled":false,"rental_uris":{"android":"levelo://app?vid=672406b4-1d0b-40dd-b0df-9eec67ee92cc","ios":"levelo://app?vid=672406b4-1d0b-40dd-b0df-9eec67ee92cc"},"vehicle_type_id":"4","last_reported":1703019943,"current_range_meters":8000,"station_id":"ce4bhah2rcd13ifvqei0","pricing_plan_id":"free"},{"bike_id":"2a1492ad-9c02-4403-b6db-92a45723e300","system_id":"levelo_inurba_marseille","lat":43.284538,"lon":5.358657,"is_reserved":false,"is_disabled":false,"rental_uris":{"android":"levelo://app?vid=2a1492ad-9c02-4403-b6db-92a45723e300","ios":"levelo://app?vid=2a1492ad-9c02-4403-b6db-92a45723e300"},"vehicle_type_id":"4","last_reported":1703019943,"current_range_meters":4400,"station_id":"ce4bhah2rcd13ifvqei0","pricing_plan_id":"free"},{"bike_id":"25666abb-82b7-4c89-9f21-bcfb78b3bfde","system_id":"levelo_inurba_marseille","lat":43.284534,"lon":5.358662,"is_reserved":false,"is_disabled":false,"rental_uris":{"android":"levelo://app?vid=25666abb-82b7-4c89-9f21-bcfb78b3bfde","ios":"levelo://app?vid=25666abb-82b7-4c89-9f21-bcfb78b3bfde"},"vehicle_type_id":"4","last_reported":1703019943,"current_range_meters":8000,"station_id":"ce4bhah2rcd13ifvqei0","pricing_plan_id":"free"},{"bike_id":"9336a5e7-eda6-454b-b363-20141663bb32","system_id":"levelo_inurba_marseille","lat":43.294314,"lon":5.397498,"is_reserved":false,"is_disabled":false,"rental_uris":{"android":"levelo://app?vid=9336a5e7-eda6-454b-b363-20141663bb32","ios":"levelo://app?vid=9336a5e7-eda6-454b-b363-20141663bb32"},"vehicle_type_id":"4","last_reported":1703019943,"current_range_meters":27600,"station_id":"ce4bh3h2rcd13ifvqdo0","pricing_plan_id":"free"},{"bike_id":"e4d010c6-dcf5-43b9-acca-1eec9c2e54cc","system_id":"levelo_inurba_marseille","lat":43.294314,"lon":5.397498,"is_reserved":false,"is_disabled":false,"rental_uris":{"android":"levelo://app?vid=e4d010c6-dcf5-43b9-acca-1eec9c2e54cc","ios":"levelo://app?vid=e4d010c6-dcf5-43b9-acca-1eec9c2e54cc"},"vehicle_type_id":"4","last_reported":1703019943,"current_range_meters":28800,"station_id":"ce4bh3h2rcd13ifvqdo0","pricing_plan_id":"free"},{"bike_id":"07f7c081-6f04-4157-b0db-1eececa16aa5","system_id":"levelo_inurba_marseille","lat":43.285856,"lon":5.350771,"is_reserved":false,"is_disabled":false,"rental_uris":{"android":"levelo://app?vid=07f7c081-6f04-4157-b0db-1eececa16aa5","ios":"levelo://app?vid=07f7c081-6f04-4157-b0db-1eececa16aa5"},"vehicle_type_id":"4","last_reported":1703019943,"current_range_meters":12400,"station_id":"ce4bhch2rcd13ifvqeug","pricing_plan_id":"free"},{"bike_id":"4a3bf0b1-66fa-4ba1-95be-5c0a76ccad27","system_id":"levelo_inurba_marseille","lat":43.285856,"lon":5.350771,"is_reserved":false,"is_disabled":false,"rental_uris":{"android":"levelo://app?vid=4a3bf0b1-66fa-4ba1-95be-5c0a76ccad27","ios":"levelo://app?vid=4a3bf0b1-66fa-4ba1-95be-5c0a76ccad27"},"vehicle_type_id":"4","last_reported":1703019943,"current_range_meters":22400,"station_id":"ce4bhch2rcd13ifvqeug","pricing_plan_id":"free"},{"bike_id":"36cf4d02-bd22-413f-a81d-3c2efead6ba1","system_id":"levelo_inurba_marseille","lat":43.285856,"lon":5.350771,"is_reserved":false,"is_disabled":false,"rental_uris":{"android":"levelo://app?vid=36cf4d02-bd22-413f-a81d-3c2efead6ba1","ios":"levelo://app?vid=36cf4d02-bd22-413f-a81d-3c2efead6ba1"},"vehicle_type_id":"4","last_reported":1703019943,"current_range_meters":18000,"station_id":"ce4bhch2rcd13ifvqeug","pricing_plan_id":"free"},{"bike_id":"50a15c4b-e449-4648-8e85-935cca8d8f78","system_id":"levelo_inurba_marseille","lat":43.28618,"lon":5.351,"is_reserved":false,"is_disabled":false,"rental_uris":{"android":"levelo://app?vid=50a15c4b-e449-4648-8e85-935cca8d8f78","ios":"levelo://app?vid=50a15c4b-e449-4648-8e85-935cca8d8f78"},"vehicle_type_id":"4","last_reported":1703019943,"current_range_meters":800,"station_id":"ce4bhch2rcd13ifvqeug","pricing_plan_id":"free"},{"bike_id":"2eb52441-f2b5-4053-a57b-7908913c3b82","system_id":"levelo_inurba_marseille","lat":43.285856,"lon":5.350771,"is_reserved":false,"is_disabled":false,"rental_uris":{"android":"levelo://app?vid=2eb52441-f2b5-4053-a57b-7908913c3b82","ios":"levelo://app?vid=2eb52441-f2b5-4053-a57b-7908913c3b82"},"vehicle_type_id":"4","last_reported":1703019943,"current_range_meters":15200,"station_id":"ce4bhch2rcd13ifvqeug","pricing_plan_id":"free"},{"bike_id":"f3b85f34-8342-42b3-9689-e6718d9bce90","system_id":"levelo_inurba_marseille","lat":43.285856,"lon":5.350771,"is_reserved":false,"is_disabled":false,"rental_uris":{"android":"levelo://app?vid=f3b85f34-8342-42b3-9689-e6718d9bce90","ios":"levelo://app?vid=f3b85f34-8342-42b3-9689-e6718d9bce90"},"vehicle_type_id":"4","last_reported":1703019943,"current_range_meters":13200,"station_id":"ce4bhch2rcd13ifvqeug","pricing_plan_id":"free"},{"bike_id":"aaa07f64-d8ff-4e64-be71-7ab399227c99","system_id":"levelo_inurba_marseille","lat":43.285856,"lon":5.350771,"is_reserved":false,"is_disabled":false,"rental_uris":{"android":"levelo://app?vid=aaa07f64-d8ff-4e64-be71-7ab399227c99","ios":"levelo://app?vid=aaa07f64-d8ff-4e64-be71-7ab399227c99"},"vehicle_type_id":"4","last_reported":1703019943,"current_range_meters":2000,"station_id":"ce4bhch2rcd13ifvqeug","pricing_plan_id":"free"},{"bike_id":"05435e1e-93de-4800-ade7-2ab5b5ccd9cc","system_id":"levelo_inurba_marseille","lat":43.285856,"lon":5.350771,"is_reserved":false,"is_disabled":false,"rental_uris":{"android":"levelo://app?vid=05435e1e-93de-4800-ade7-2ab5b5ccd9cc","ios":"levelo://app?vid=05435e1e-93de-4800-ade7-2ab5b5ccd9cc"},"vehicle_type_id":"4","last_reported":1703019943,"current_range_meters":20400,"station_id":"ce4bhch2rcd13ifvqeug","pricing_plan_id":"free"},{"bike_id":"9dff4441-a854-4674-a47d-e39ba7a4e0f5","system_id":"levelo_inurba_marseille","lat":43.283998,"lon":5.375062,"is_reserved":false,"is_disabled":false,"rental_uris":{"android":"levelo://app?vid=9dff4441-a854-4674-a47d-e39ba7a4e0f5","ios":"levelo://app?vid=9dff4441-a854-4674-a47d-e39ba7a4e0f5"},"vehicle_type_id":"4","last_reported":1703019943,"current_range_meters":16800,"station_id":"ce4bh412rcd13ifvqds0","pricing_plan_id":"free"},{"bike_id":"8538e6dd-dbef-4a5a-a119-9a857fd021ad","system_id":"levelo_inurba_marseille","lat":43.33218,"lon":5.397067,"is_reserved":false,"is_disabled":false,"rental_uris":{"android":"levelo://app?vid=8538e6dd-dbef-4a5a-a119-9a857fd021ad","ios":"levelo://app?vid=8538e6dd-dbef-4a5a-a119-9a857fd021ad"},"vehicle_type_id":"4","last_reported":1703019943,"current_range_meters":0,"station_id":"","pricing_plan_id":"free"},{"bike_id":"6ef1931b-9751-4a0e-9f83-360587689828","system_id":"levelo_inurba_marseille","lat":43.319179,"lon":5.407725,"is_reserved":false,"is_disabled":false,"rental_uris":{"android":"levelo://app?vid=6ef1931b-9751-4a0e-9f83-360587689828","ios":"levelo://app?vid=6ef1931b-9751-4a0e-9f83-360587689828"},"vehicle_type_id":"4","last_reported":1703019943,"current_range_meters":31200,"station_id":"ce4bhq12rcd13ifvqhig","pricing_plan_id":"free"},{"bike_id":"27628269-9f0b-4c51-9659-7fb830c4871d","system_id":"levelo_inurba_marseille","lat":43.323464,"lon":5.406297,"is_reserved":false,"is_disabled":false,"rental_uris":{"android":"levelo://app?vid=27628269-9f0b-4c51-9659-7fb830c4871d","ios":"levelo://app?vid=27628269-9f0b-4c51-9659-7fb830c4871d"},"vehicle_type_id":"4","last_reported":1703019943,"current_range_meters":28800,"station_id":"ce4bhq92rcd13ifvqhjg","pricing_plan_id":"free"},{"bike_id":"78de0d5e-f0df-44f0-842e-ef4a7843febc","system_id":"levelo_inurba_marseille","lat":43.284793,"lon":5.384113,"is_reserved":false,"is_disabled":false,"rental_uris":{"android":"levelo://app?vid=78de0d5e-f0df-44f0-842e-ef4a7843febc","ios":"levelo://app?vid=78de0d5e-f0df-44f0-842e-ef4a7843febc"},"vehicle_type_id":"4","last_reported":1703019943,"current_range_meters":12000,"station_id":"ce4bh512rcd13ifvqe3g","pricing_plan_id":"free"},{"bike_id":"f5332b34-8259-4323-952e-7bd465eb247c","system_id":"levelo_inurba_marseille","lat":43.29795,"lon":5.404086,"is_reserved":false,"is_disabled":false,"rental_uris":{"android":"levelo://app?vid=f5332b34-8259-4323-952e-7bd465eb247c","ios":"levelo://app?vid=f5332b34-8259-4323-952e-7bd465eb247c"},"vehicle_type_id":"4","last_reported":1703019943,"current_range_meters":0,"station_id":"ce4bh112rcd13ifvqd90","pricing_plan_id":"free"},{"bike_id":"9bc6b43b-3d8a-4b67-b597-23d274b4736f","system_id":"levelo_inurba_marseille","lat":43.283498,"lon":5.380948,"is_reserved":false,"is_disabled":false,"rental_uris":{"android":"levelo://app?vid=9bc6b43b-3d8a-4b67-b597-23d274b4736f","ios":"levelo://app?vid=9bc6b43b-3d8a-4b67-b597-23d274b4736f"},"vehicle_type_id":"4","last_reported":1703019943,"current_range_meters":24000,"station_id":"ce4bh412rcd13ifvqdr0","pricing_plan_id":"free"},{"bike_id":"eed03dce-e6cc-46b1-8527-45439af6f114","system_id":"levelo_inurba_marseille","lat":43.284214,"lon":5.349706,"is_reserved":false,"is_disabled":false,"rental_uris":{"android":"levelo://app?vid=eed03dce-e6cc-46b1-8527-45439af6f114","ios":"levelo://app?vid=eed03dce-e6cc-46b1-8527-45439af6f114"},"vehicle_type_id":"4","last_reported":1703019943,"current_range_meters":23600,"station_id":"ce4bhbh2rcd13ifvqepg","pricing_plan_id":"free"},{"bike_id":"35e5c977-c3ec-4302-85e4-7f44ba15ca6f","system_id":"levelo_inurba_marseille","lat":43.306412,"lon":5.401035,"is_reserved":false,"is_disabled":false,"rental_uris":{"android":"levelo://app?vid=35e5c977-c3ec-4302-85e4-7f44ba15ca6f","ios":"levelo://app?vid=35e5c977-c3ec-4302-85e4-7f44ba15ca6f"},"vehicle_type_id":"4","last_reported":1703019943,"current_range_meters":22000,"station_id":"ce4bh112rcd13ifvqda0","pricing_plan_id":"free"},{"bike_id":"a53f681d-51b5-4ecc-bca6-1cb8d12861b1","system_id":"levelo_inurba_marseille","lat":43.282744,"lon":5.350533,"is_reserved":false,"is_disabled":false,"rental_uris":{"android":"levelo://app?vid=a53f681d-51b5-4ecc-bca6-1cb8d12861b1","ios":"levelo://app?vid=a53f681d-51b5-4ecc-bca6-1cb8d12861b1"},"vehicle_type_id":"4","last_reported":1703019943,"current_range_meters":6400,"station_id":"ce4bhbp2rcd13ifvqerg","pricing_plan_id":"free"},{"bike_id":"725c62a2-53d1-4c72-8be5-a3f6a6bd9459","system_id":"levelo_inurba_marseille","lat":43.282744,"lon":5.350533,"is_reserved":false,"is_disabled":false,"rental_uris":{"android":"levelo://app?vid=725c62a2-53d1-4c72-8be5-a3f6a6bd9459","ios":"levelo://app?vid=725c62a2-53d1-4c72-8be5-a3f6a6bd9459"},"vehicle_type_id":"4","last_reported":1703019943,"current_range_meters":28800,"station_id":"ce4bhbp2rcd13ifvqerg","pricing_plan_id":"free"},{"bike_id":"3c7e21be-52ca-4f31-b25a-94d45be13004","system_id":"levelo_inurba_marseille","lat":43.282695,"lon":5.350845,"is_reserved":false,"is_disabled":false,"rental_uris":{"android":"levelo://app?vid=3c7e21be-52ca-4f31-b25a-94d45be13004","ios":"levelo://app?vid=3c7e21be-52ca-4f31-b25a-94d45be13004"},"vehicle_type_id":"4","last_reported":1703019943,"current_range_meters":1600,"station_id":"ce4bhbp2rcd13ifvqerg","pricing_plan_id":"free"},{"bike_id":"0e8450fc-4728-4f42-b9cb-7289fc4b47d9","system_id":"levelo_inurba_marseille","lat":43.283502,"lon":5.386471,"is_reserved":false,"is_disabled":false,"rental_uris":{"android":"levelo://app?vid=0e8450fc-4728-4f42-b9cb-7289fc4b47d9","ios":"levelo://app?vid=0e8450fc-4728-4f42-b9cb-7289fc4b47d9"},"vehicle_type_id":"4","last_reported":1703019943,"current_range_meters":12000,"station_id":"ce4bh492rcd13ifvqdvg","pricing_plan_id":"free"},{"bike_id":"7415b361-4875-4231-90b5-c9caee2a9d88","system_id":"levelo_inurba_marseille","lat":43.282754,"lon":5.350519,"is_reserved":false,"is_disabled":false,"rental_uris":{"android":"levelo://app?vid=7415b361-4875-4231-90b5-c9caee2a9d88","ios":"levelo://app?vid=7415b361-4875-4231-90b5-c9caee2a9d88"},"vehicle_type_id":"4","last_reported":1703019943,"current_range_meters":9200,"station_id":"ce4bhbp2rcd13ifvqerg","pricing_plan_id":"free"},{"bike_id":"7a9c501a-a88f-4b20-a3be-0f05afe0b8e1","system_id":"levelo_inurba_marseille","lat":43.282754,"lon":5.350519,"is_reserved":false,"is_disabled":false,"rental_uris":{"android":"levelo://app?vid=7a9c501a-a88f-4b20-a3be-0f05afe0b8e1","ios":"levelo://app?vid=7a9c501a-a88f-4b20-a3be-0f05afe0b8e1"},"vehicle_type_id":"4","last_reported":1703019943,"current_range_meters":25600,"station_id":"ce4bhbp2rcd13ifvqerg","pricing_plan_id":"free"},{"bike_id":"e0c25713-1560-4b21-b76c-295eef2c9ae1","system_id":"levelo_inurba_marseille","lat":43.283502,"lon":5.386471,"is_reserved":false,"is_disabled":false,"rental_uris":{"android":"levelo://app?vid=e0c25713-1560-4b21-b76c-295eef2c9ae1","ios":"levelo://app?vid=e0c25713-1560-4b21-b76c-295eef2c9ae1"},"vehicle_type_id":"4","last_reported":1703019943,"current_range_meters":30000,"station_id":"ce4bh492rcd13ifvqdvg","pricing_plan_id":"free"},{"bike_id":"2fe4c2f8-c94b-46f7-b569-e5e3379780c6","system_id":"levelo_inurba_marseille","lat":43.282754,"lon":5.350519,"is_reserved":false,"is_disabled":false,"rental_uris":{"android":"levelo://app?vid=2fe4c2f8-c94b-46f7-b569-e5e3379780c6","ios":"levelo://app?vid=2fe4c2f8-c94b-46f7-b569-e5e3379780c6"},"vehicle_type_id":"4","last_reported":1703019943,"current_range_meters":11200,"station_id":"ce4bhbp2rcd13ifvqerg","pricing_plan_id":"free"},{"bike_id":"f93b9b08-462a-45e1-b20a-7bf6d9e0f690","system_id":"levelo_inurba_marseille","lat":43.28039,"lon":5.369297,"is_reserved":false,"is_disabled":false,"rental_uris":{"android":"levelo://app?vid=f93b9b08-462a-45e1-b20a-7bf6d9e0f690","ios":"levelo://app?vid=f93b9b08-462a-45e1-b20a-7bf6d9e0f690"},"vehicle_type_id":"4","last_reported":1703019943,"current_range_meters":19600,"station_id":"ce4bha12rcd13ifvqef0","pricing_plan_id":"free"},{"bike_id":"2a57214e-3f96-4a9b-8638-201ae3fd5599","system_id":"levelo_inurba_marseille","lat":43.281044,"lon":5.378308,"is_reserved":false,"is_disabled":false,"rental_uris":{"android":"levelo://app?vid=2a57214e-3f96-4a9b-8638-201ae3fd5599","ios":"levelo://app?vid=2a57214e-3f96-4a9b-8638-201ae3fd5599"},"vehicle_type_id":"4","last_reported":1703019943,"current_range_meters":24800,"station_id":"ce4bha12rcd13ifvqee0","pricing_plan_id":"free"},{"bike_id":"a676e6a6-767f-4dc1-918c-9e3d1159a689","system_id":"levelo_inurba_marseille","lat":43.281044,"lon":5.378308,"is_reserved":false,"is_disabled":false,"rental_uris":{"android":"levelo://app?vid=a676e6a6-767f-4dc1-918c-9e3d1159a689","ios":"levelo://app?vid=a676e6a6-767f-4dc1-918c-9e3d1159a689"},"vehicle_type_id":"4","last_reported":1703019943,"current_range_meters":17600,"station_id":"ce4bha12rcd13ifvqee0","pricing_plan_id":"free"},{"bike_id":"814a0043-9bcf-4ad2-9482-84b8b6c084c5","system_id":"levelo_inurba_marseille","lat":43.281044,"lon":5.378308,"is_reserved":false,"is_disabled":false,"rental_uris":{"android":"levelo://app?vid=814a0043-9bcf-4ad2-9482-84b8b6c084c5","ios":"levelo://app?vid=814a0043-9bcf-4ad2-9482-84b8b6c084c5"},"vehicle_type_id":"4","last_reported":1703019943,"current_range_meters":27200,"station_id":"ce4bha12rcd13ifvqee0","pricing_plan_id":"free"},{"bike_id":"a61f137e-5761-4df0-bc22-2f4cf22a985c","system_id":"levelo_inurba_marseille","lat":43.284462,"lon":5.392121,"is_reserved":false,"is_disabled":false,"rental_uris":{"android":"levelo://app?vid=a61f137e-5761-4df0-bc22-2f4cf22a985c","ios":"levelo://app?vid=a61f137e-5761-4df0-bc22-2f4cf22a985c"},"vehicle_type_id":"4","last_reported":1703019943,"current_range_meters":30400,"station_id":"ce4bhoh2rcd13ifvqh5g","pricing_plan_id":"free"},{"bike_id":"714cf04f-cdd7-45a6-ac51-b262dbb9c513","system_id":"levelo_inurba_marseille","lat":43.284462,"lon":5.392121,"is_reserved":false,"is_disabled":false,"rental_uris":{"android":"levelo://app?vid=714cf04f-cdd7-45a6-ac51-b262dbb9c513","ios":"levelo://app?vid=714cf04f-cdd7-45a6-ac51-b262dbb9c513"},"vehicle_type_id":"4","last_reported":1703019943,"current_range_meters":19600,"station_id":"ce4bhoh2rcd13ifvqh5g","pricing_plan_id":"free"},{"bike_id":"0bcf7cfc-dd9e-440a-9c84-8469e575e6c2","system_id":"levelo_inurba_marseille","lat":43.285742,"lon":5.395004,"is_reserved":false,"is_disabled":false,"rental_uris":{"android":"levelo://app?vid=0bcf7cfc-dd9e-440a-9c84-8469e575e6c2","ios":"levelo://app?vid=0bcf7cfc-dd9e-440a-9c84-8469e575e6c2"},"vehicle_type_id":"4","last_reported":1703019943,"current_range_meters":8000,"station_id":"ce4bh292rcd13ifvqdg0","pricing_plan_id":"free"},{"bike_id":"cb91fd1d-514e-49e4-9bf1-9c562b38ed19","system_id":"levelo_inurba_marseille","lat":43.28573,"lon":5.394992,"is_reserved":false,"is_disabled":false,"rental_uris":{"android":"levelo://app?vid=cb91fd1d-514e-49e4-9bf1-9c562b38ed19","ios":"levelo://app?vid=cb91fd1d-514e-49e4-9bf1-9c562b38ed19"},"vehicle_type_id":"4","last_reported":1703019943,"current_range_meters":26800,"station_id":"ce4bh292rcd13ifvqdg0","pricing_plan_id":"free"},{"bike_id":"4921e6f3-00dd-4725-a3f4-cc834bf35371","system_id":"levelo_inurba_marseille","lat":43.284462,"lon":5.392121,"is_reserved":false,"is_disabled":false,"rental_uris":{"android":"levelo://app?vid=4921e6f3-00dd-4725-a3f4-cc834bf35371","ios":"levelo://app?vid=4921e6f3-00dd-4725-a3f4-cc834bf35371"},"vehicle_type_id":"4","last_reported":1703019943,"current_range_meters":7200,"station_id":"ce4bhoh2rcd13ifvqh5g","pricing_plan_id":"free"},{"bike_id":"76766414-64bd-486e-9f6e-12db196b260e","system_id":"levelo_inurba_marseille","lat":43.287154,"lon":5.399979,"is_reserved":false,"is_disabled":false,"rental_uris":{"android":"levelo://app?vid=76766414-64bd-486e-9f6e-12db196b260e","ios":"levelo://app?vid=76766414-64bd-486e-9f6e-12db196b260e"},"vehicle_type_id":"4","last_reported":1703019943,"current_range_meters":26400,"station_id":"ce4bho92rcd13ifvqh3g","pricing_plan_id":"free"},{"bike_id":"cb0668d4-d46c-4efe-a7e0-185ebe495ab4","system_id":"levelo_inurba_marseille","lat":43.280482,"lon":5.389146,"is_reserved":false,"is_disabled":false,"rental_uris":{"android":"levelo://app?vid=cb0668d4-d46c-4efe-a7e0-185ebe495ab4","ios":"levelo://app?vid=cb0668d4-d46c-4efe-a7e0-185ebe495ab4"},"vehicle_type_id":"4","last_reported":1703019943,"current_range_meters":10800,"station_id":"","pricing_plan_id":"free"},{"bike_id":"f068336b-a53e-49a2-9b92-252a744cc888","system_id":"levelo_inurba_marseille","lat":43.27976,"lon":5.38741,"is_reserved":false,"is_disabled":false,"rental_uris":{"android":"levelo://app?vid=f068336b-a53e-49a2-9b92-252a744cc888","ios":"levelo://app?vid=f068336b-a53e-49a2-9b92-252a744cc888"},"vehicle_type_id":"4","last_reported":1703019943,"current_range_meters":21600,"station_id":"ce4bhg12rcd13ifvqf80","pricing_plan_id":"free"},{"bike_id":"ed666c76-d01e-47c5-890c-74c334b30ae6","system_id":"levelo_inurba_marseille","lat":43.27618,"lon":5.361009,"is_reserved":false,"is_disabled":false,"rental_uris":{"android":"levelo://app?vid=ed666c76-d01e-47c5-890c-74c334b30ae6","ios":"levelo://app?vid=ed666c76-d01e-47c5-890c-74c334b30ae6"},"vehicle_type_id":"4","last_reported":1703019943,"current_range_meters":4000,"station_id":"ce4bgj92rcd13ifvqbe0","pricing_plan_id":"free"},{"bike_id":"0121c00f-66de-4472-970c-6ae9ae14cf86","system_id":"levelo_inurba_marseille","lat":43.276179,"lon":5.361009,"is_reserved":false,"is_disabled":false,"rental_uris":{"android":"levelo://app?vid=0121c00f-66de-4472-970c-6ae9ae14cf86","ios":"levelo://app?vid=0121c00f-66de-4472-970c-6ae9ae14cf86"},"vehicle_type_id":"4","last_reported":1703019943,"current_range_meters":4000,"station_id":"ce4bgj92rcd13ifvqbe0","pricing_plan_id":"free"},{"bike_id":"1abc6eed-38ce-451a-9c9d-4262d661e40f","system_id":"levelo_inurba_marseille","lat":43.280784,"lon":5.396622,"is_reserved":false,"is_disabled":false,"rental_uris":{"android":"levelo://app?vid=1abc6eed-38ce-451a-9c9d-4262d661e40f","ios":"levelo://app?vid=1abc6eed-38ce-451a-9c9d-4262d661e40f"},"vehicle_type_id":"4","last_reported":1703019943,"current_range_meters":26800,"station_id":"ce4bho12rcd13ifvqh2g","pricing_plan_id":"free"},{"bike_id":"fc0f043f-04d0-4948-8537-6116d736ec20","system_id":"levelo_inurba_marseille","lat":43.278401,"lon":5.392152,"is_reserved":false,"is_disabled":false,"rental_uris":{"android":"levelo://app?vid=fc0f043f-04d0-4948-8537-6116d736ec20","ios":"levelo://app?vid=fc0f043f-04d0-4948-8537-6116d736ec20"},"vehicle_type_id":"4","last_reported":1703019943,"current_range_meters":26000,"station_id":"ce4bhjp2rcd13ifvqga0","pricing_plan_id":"free"},{"bike_id":"3cf11b1d-a06e-48a7-a075-343af492dd10","system_id":"levelo_inurba_marseille","lat":43.27832,"lon":5.39198,"is_reserved":false,"is_disabled":false,"rental_uris":{"android":"levelo://app?vid=3cf11b1d-a06e-48a7-a075-343af492dd10","ios":"levelo://app?vid=3cf11b1d-a06e-48a7-a075-343af492dd10"},"vehicle_type_id":"4","last_reported":1703019943,"current_range_meters":0,"station_id":"ce4bhjp2rcd13ifvqga0","pricing_plan_id":"free"},{"bike_id":"36af9a1f-d2f4-411c-bb09-6306beff53ec","system_id":"levelo_inurba_marseille","lat":43.278401,"lon":5.392152,"is_reserved":false,"is_disabled":false,"rental_uris":{"android":"levelo://app?vid=36af9a1f-d2f4-411c-bb09-6306beff53ec","ios":"levelo://app?vid=36af9a1f-d2f4-411c-bb09-6306beff53ec"},"vehicle_type_id":"4","last_reported":1703019943,"current_range_meters":31200,"station_id":"ce4bhjp2rcd13ifvqga0","pricing_plan_id":"free"},{"bike_id":"a453e506-6946-4623-9512-82735d696064","system_id":"levelo_inurba_marseille","lat":43.273609,"lon":5.362708,"is_reserved":false,"is_disabled":false,"rental_uris":{"android":"levelo://app?vid=a453e506-6946-4623-9512-82735d696064","ios":"levelo://app?vid=a453e506-6946-4623-9512-82735d696064"},"vehicle_type_id":"4","last_reported":1703019943,"current_range_meters":28000,"station_id":"ce4bhbh2rcd13ifvqeo0","pricing_plan_id":"free"},{"bike_id":"3dcf97fd-44a8-42eb-bc8a-faaaf7e19bd7","system_id":"levelo_inurba_marseille","lat":43.275625,"lon":5.384392,"is_reserved":false,"is_disabled":false,"rental_uris":{"android":"levelo://app?vid=3dcf97fd-44a8-42eb-bc8a-faaaf7e19bd7","ios":"levelo://app?vid=3dcf97fd-44a8-42eb-bc8a-faaaf7e19bd7"},"vehicle_type_id":"4","last_reported":1703019943,"current_range_meters":13200,"station_id":"ce4bhh92rcd13ifvqfi0","pricing_plan_id":"free"},{"bike_id":"8aaafce3-32e4-45e5-9f96-e6fe6d7e4f5b","system_id":"levelo_inurba_marseille","lat":43.317183,"lon":5.423925,"is_reserved":false,"is_disabled":false,"rental_uris":{"android":"levelo://app?vid=8aaafce3-32e4-45e5-9f96-e6fe6d7e4f5b","ios":"levelo://app?vid=8aaafce3-32e4-45e5-9f96-e6fe6d7e4f5b"},"vehicle_type_id":"4","last_reported":1703019943,"current_range_meters":19200,"station_id":"ce4bhp92rcd13ifvqhbg","pricing_plan_id":"free"},{"bike_id":"905a6c74-af0c-489d-930a-338c6f3bbfd5","system_id":"levelo_inurba_marseille","lat":43.317179,"lon":5.423955,"is_reserved":false,"is_disabled":false,"rental_uris":{"android":"levelo://app?vid=905a6c74-af0c-489d-930a-338c6f3bbfd5","ios":"levelo://app?vid=905a6c74-af0c-489d-930a-338c6f3bbfd5"},"vehicle_type_id":"4","last_reported":1703019943,"current_range_meters":10800,"station_id":"ce4bhp92rcd13ifvqhbg","pricing_plan_id":"free"},{"bike_id":"6aeb72c6-7795-421e-8c99-8e89a08bfac6","system_id":"levelo_inurba_marseille","lat":43.317121,"lon":5.423936,"is_reserved":false,"is_disabled":false,"rental_uris":{"android":"levelo://app?vid=6aeb72c6-7795-421e-8c99-8e89a08bfac6","ios":"levelo://app?vid=6aeb72c6-7795-421e-8c99-8e89a08bfac6"},"vehicle_type_id":"4","last_reported":1703019943,"current_range_meters":30000,"station_id":"ce4bhp92rcd13ifvqhbg","pricing_plan_id":"free"},{"bike_id":"af2bfa4a-dd0b-4ea4-a7b9-5a41e65701bc","system_id":"levelo_inurba_marseille","lat":43.340804,"lon":5.410219,"is_reserved":false,"is_disabled":false,"rental_uris":{"android":"levelo://app?vid=af2bfa4a-dd0b-4ea4-a7b9-5a41e65701bc","ios":"levelo://app?vid=af2bfa4a-dd0b-4ea4-a7b9-5a41e65701bc"},"vehicle_type_id":"4","last_reported":1703019943,"current_range_meters":20000,"station_id":"ce4bhqh2rcd13ifvqhlg","pricing_plan_id":"free"},{"bike_id":"974dc7db-ff3c-4554-8964-132f9db52d9b","system_id":"levelo_inurba_marseille","lat":43.276092,"lon":5.395289,"is_reserved":false,"is_disabled":false,"rental_uris":{"android":"levelo://app?vid=974dc7db-ff3c-4554-8964-132f9db52d9b","ios":"levelo://app?vid=974dc7db-ff3c-4554-8964-132f9db52d9b"},"vehicle_type_id":"4","last_reported":1703019943,"current_range_meters":6000,"station_id":"","pricing_plan_id":"free"},{"bike_id":"ca314493-3848-477b-95b3-e1722a7aef04","system_id":"levelo_inurba_marseille","lat":43.295161,"lon":5.42265,"is_reserved":false,"is_disabled":false,"rental_uris":{"android":"levelo://app?vid=ca314493-3848-477b-95b3-e1722a7aef04","ios":"levelo://app?vid=ca314493-3848-477b-95b3-e1722a7aef04"},"vehicle_type_id":"4","last_reported":1703019943,"current_range_meters":14400,"station_id":"ce4bhph2rcd13ifvqhdg","pricing_plan_id":"free"},{"bike_id":"3596ffe6-624b-4dc7-9170-dafc2adf1848","system_id":"levelo_inurba_marseille","lat":43.27188,"lon":5.39224,"is_reserved":false,"is_disabled":false,"rental_uris":{"android":"levelo://app?vid=3596ffe6-624b-4dc7-9170-dafc2adf1848","ios":"levelo://app?vid=3596ffe6-624b-4dc7-9170-dafc2adf1848"},"vehicle_type_id":"4","last_reported":1703019943,"current_range_meters":9200,"station_id":"ce4bhhp2rcd13ifvqfm0","pricing_plan_id":"free"},{"bike_id":"a8fcc8a6-5665-4904-b944-4f0d966a182a","system_id":"levelo_inurba_marseille","lat":43.278128,"lon":5.407195,"is_reserved":false,"is_disabled":false,"rental_uris":{"android":"levelo://app?vid=a8fcc8a6-5665-4904-b944-4f0d966a182a","ios":"levelo://app?vid=a8fcc8a6-5665-4904-b944-4f0d966a182a"},"vehicle_type_id":"4","last_reported":1703019943,"current_range_meters":18800,"station_id":"ce4bhnh2rcd13ifvqgtg","pricing_plan_id":"free"},{"bike_id":"3d2db7ca-e45f-4741-8115-12effce8f3e1","system_id":"levelo_inurba_marseille","lat":43.278128,"lon":5.407195,"is_reserved":false,"is_disabled":false,"rental_uris":{"android":"levelo://app?vid=3d2db7ca-e45f-4741-8115-12effce8f3e1","ios":"levelo://app?vid=3d2db7ca-e45f-4741-8115-12effce8f3e1"},"vehicle_type_id":"4","last_reported":1703019943,"current_range_meters":17600,"station_id":"ce4bhnh2rcd13ifvqgtg","pricing_plan_id":"free"},{"bike_id":"d2b95e8a-c18d-44c4-ab96-4e53aa3122fa","system_id":"levelo_inurba_marseille","lat":43.278128,"lon":5.407195,"is_reserved":false,"is_disabled":false,"rental_uris":{"android":"levelo://app?vid=d2b95e8a-c18d-44c4-ab96-4e53aa3122fa","ios":"levelo://app?vid=d2b95e8a-c18d-44c4-ab96-4e53aa3122fa"},"vehicle_type_id":"4","last_reported":1703019943,"current_range_meters":4000,"station_id":"ce4bhnh2rcd13ifvqgtg","pricing_plan_id":"free"},{"bike_id":"5d867448-98d0-4e2b-944c-5162c0127a25","system_id":"levelo_inurba_marseille","lat":43.269467,"lon":5.386439,"is_reserved":false,"is_disabled":false,"rental_uris":{"android":"levelo://app?vid=5d867448-98d0-4e2b-944c-5162c0127a25","ios":"levelo://app?vid=5d867448-98d0-4e2b-944c-5162c0127a25"},"vehicle_type_id":"4","last_reported":1703019943,"current_range_meters":10000,"station_id":"ce4bhh92rcd13ifvqfh0","pricing_plan_id":"free"},{"bike_id":"64d42a38-e793-4840-bb5e-3e89f57f67dc","system_id":"levelo_inurba_marseille","lat":43.279465,"lon":5.410561,"is_reserved":false,"is_disabled":false,"rental_uris":{"android":"levelo://app?vid=64d42a38-e793-4840-bb5e-3e89f57f67dc","ios":"levelo://app?vid=64d42a38-e793-4840-bb5e-3e89f57f67dc"},"vehicle_type_id":"4","last_reported":1703019943,"current_range_meters":15200,"station_id":"ce4bhnp2rcd13ifvqh0g","pricing_plan_id":"free"},{"bike_id":"a60eb8e6-1fd3-4a90-bcec-66a6d038ae4a","system_id":"levelo_inurba_marseille","lat":43.27946,"lon":5.41052,"is_reserved":false,"is_disabled":false,"rental_uris":{"android":"levelo://app?vid=a60eb8e6-1fd3-4a90-bcec-66a6d038ae4a","ios":"levelo://app?vid=a60eb8e6-1fd3-4a90-bcec-66a6d038ae4a"},"vehicle_type_id":"4","last_reported":1703019943,"current_range_meters":0,"station_id":"ce4bhnp2rcd13ifvqh0g","pricing_plan_id":"free"},{"bike_id":"02c55a47-17fb-4a62-ae38-c5e925a326f0","system_id":"levelo_inurba_marseille","lat":43.26465,"lon":5.36911,"is_reserved":false,"is_disabled":false,"rental_uris":{"android":"levelo://app?vid=02c55a47-17fb-4a62-ae38-c5e925a326f0","ios":"levelo://app?vid=02c55a47-17fb-4a62-ae38-c5e925a326f0"},"vehicle_type_id":"4","last_reported":1703019943,"current_range_meters":10400,"station_id":"","pricing_plan_id":"free"},{"bike_id":"f6c58b39-cac9-4df9-a569-e67efd876faa","system_id":"levelo_inurba_marseille","lat":43.308051,"lon":5.43527,"is_reserved":false,"is_disabled":false,"rental_uris":{"android":"levelo://app?vid=f6c58b39-cac9-4df9-a569-e67efd876faa","ios":"levelo://app?vid=f6c58b39-cac9-4df9-a569-e67efd876faa"},"vehicle_type_id":"4","last_reported":1703019943,"current_range_meters":24000,"station_id":"ce4bhph2rcd13ifvqheg","pricing_plan_id":"free"},{"bike_id":"49deb57a-511d-4ea6-92ca-0778a719f902","system_id":"levelo_inurba_marseille","lat":43.308051,"lon":5.43527,"is_reserved":false,"is_disabled":false,"rental_uris":{"android":"levelo://app?vid=49deb57a-511d-4ea6-92ca-0778a719f902","ios":"levelo://app?vid=49deb57a-511d-4ea6-92ca-0778a719f902"},"vehicle_type_id":"4","last_reported":1703019943,"current_range_meters":18800,"station_id":"ce4bhph2rcd13ifvqheg","pricing_plan_id":"free"},{"bike_id":"70395d88-0341-4ebf-9ce2-9c7c6fcc5d3d","system_id":"levelo_inurba_marseille","lat":43.308051,"lon":5.43527,"is_reserved":false,"is_disabled":false,"rental_uris":{"android":"levelo://app?vid=70395d88-0341-4ebf-9ce2-9c7c6fcc5d3d","ios":"levelo://app?vid=70395d88-0341-4ebf-9ce2-9c7c6fcc5d3d"},"vehicle_type_id":"4","last_reported":1703019943,"current_range_meters":30800,"station_id":"ce4bhph2rcd13ifvqheg","pricing_plan_id":"free"},{"bike_id":"9fc62822-8fc4-4b3c-b14e-3e241bb31245","system_id":"levelo_inurba_marseille","lat":43.265571,"lon":5.390032,"is_reserved":false,"is_disabled":false,"rental_uris":{"android":"levelo://app?vid=9fc62822-8fc4-4b3c-b14e-3e241bb31245","ios":"levelo://app?vid=9fc62822-8fc4-4b3c-b14e-3e241bb31245"},"vehicle_type_id":"4","last_reported":1703019943,"current_range_meters":0,"station_id":"ce4bhe12rcd13ifvqf30","pricing_plan_id":"free"},{"bike_id":"8a80415f-c97a-4218-a2ef-b79455f4bc69","system_id":"levelo_inurba_marseille","lat":43.308051,"lon":5.43527,"is_reserved":false,"is_disabled":false,"rental_uris":{"android":"levelo://app?vid=8a80415f-c97a-4218-a2ef-b79455f4bc69","ios":"levelo://app?vid=8a80415f-c97a-4218-a2ef-b79455f4bc69"},"vehicle_type_id":"4","last_reported":1703019943,"current_range_meters":31600,"station_id":"ce4bhph2rcd13ifvqheg","pricing_plan_id":"free"},{"bike_id":"0269a4d0-7666-4c01-bd93-4dc8039ecaaa","system_id":"levelo_inurba_marseille","lat":43.26569,"lon":5.38998,"is_reserved":false,"is_disabled":false,"rental_uris":{"android":"levelo://app?vid=0269a4d0-7666-4c01-bd93-4dc8039ecaaa","ios":"levelo://app?vid=0269a4d0-7666-4c01-bd93-4dc8039ecaaa"},"vehicle_type_id":"4","last_reported":1703019943,"current_range_meters":0,"station_id":"ce4bhe12rcd13ifvqf30","pricing_plan_id":"free"},{"bike_id":"214dcafd-d629-4a24-bb69-f4875fe807ed","system_id":"levelo_inurba_marseille","lat":43.26565,"lon":5.38998,"is_reserved":false,"is_disabled":false,"rental_uris":{"android":"levelo://app?vid=214dcafd-d629-4a24-bb69-f4875fe807ed","ios":"levelo://app?vid=214dcafd-d629-4a24-bb69-f4875fe807ed"},"vehicle_type_id":"4","last_reported":1703019943,"current_range_meters":0,"station_id":"ce4bhe12rcd13ifvqf30","pricing_plan_id":"free"},{"bike_id":"19e5778a-0fec-4ae7-941a-1e270733f352","system_id":"levelo_inurba_marseille","lat":43.265571,"lon":5.390032,"is_reserved":false,"is_disabled":false,"rental_uris":{"android":"levelo://app?vid=19e5778a-0fec-4ae7-941a-1e270733f352","ios":"levelo://app?vid=19e5778a-0fec-4ae7-941a-1e270733f352"},"vehicle_type_id":"4","last_reported":1703019943,"current_range_meters":0,"station_id":"ce4bhe12rcd13ifvqf30","pricing_plan_id":"free"},{"bike_id":"a73b7a63-e980-4b88-bf40-f2e9740622bb","system_id":"levelo_inurba_marseille","lat":43.261782,"lon":5.374515,"is_reserved":false,"is_disabled":false,"rental_uris":{"android":"levelo://app?vid=a73b7a63-e980-4b88-bf40-f2e9740622bb","ios":"levelo://app?vid=a73b7a63-e980-4b88-bf40-f2e9740622bb"},"vehicle_type_id":"4","last_reported":1703019943,"current_range_meters":19200,"station_id":"ce4bhgp2rcd13ifvqfc0","pricing_plan_id":"free"},{"bike_id":"bc54356b-f69e-4f4b-bbb9-f87d1a9d5de7","system_id":"levelo_inurba_marseille","lat":43.261782,"lon":5.374515,"is_reserved":false,"is_disabled":false,"rental_uris":{"android":"levelo://app?vid=bc54356b-f69e-4f4b-bbb9-f87d1a9d5de7","ios":"levelo://app?vid=bc54356b-f69e-4f4b-bbb9-f87d1a9d5de7"},