{"last_updated":1737969057,"ttl":60,"version":"2.2","data":{"bikes":[{"bike_id":"b51734ac-0d9a-4bb1-9c1a-e7766c25d7f1","system_id":"levelo_inurba_marseille","lat":43.28999,"lon":5.35622,"is_reserved":false,"is_disabled":true,"rental_uris":{"android":"levelo://app?vid=b51734ac-0d9a-4bb1-9c1a-e7766c25d7f1","ios":"levelo://app?vid=b51734ac-0d9a-4bb1-9c1a-e7766c25d7f1"},"vehicle_type_id":"4","last_reported":1737969057,"current_range_meters":800,"station_id":"ce4bhb92rcd13ifvqen0","pricing_plan_id":"cebpf4jnsgd1na2vs0mg"},{"bike_id":"cb675d55-e5c8-4982-aca6-2a4540f10435","system_id":"levelo_inurba_marseille","lat":43.298287,"lon":5.362719,"is_reserved":false,"is_disabled":false,"rental_uris":{"android":"levelo://app?vid=cb675d55-e5c8-4982-aca6-2a4540f10435","ios":"levelo://app?vid=cb675d55-e5c8-4982-aca6-2a4540f10435"},"vehicle_type_id":"4","last_reported":1737969057,"current_range_meters":16800,"station_id":"ce4bgpp2rcd13ifvqc3g","pricing_plan_id":"cebpf4jnsgd1na2vs0mg"},{"bike_id":"437b4119-4c95-43d5-a637-fa77eb57e74a","system_id":"levelo_inurba_marseille","lat":43.30471,"lon":5.37901,"is_reserved":false,"is_disabled":false,"rental_uris":{"android":"levelo://app?vid=437b4119-4c95-43d5-a637-fa77eb57e74a","ios":"levelo://app?vid=437b4119-4c95-43d5-a637-fa77eb57e74a"},"vehicle_type_id":"4","last_reported":1737969057,"current_range_meters":26000,"station_id":"ce4bgup2rcd13ifvqcn0","pricing_plan_id":"cebpf4jnsgd1na2vs0mg"},{"bike_id":"e95125c1-cd97-49f2-acf5-2baeadab5edb","system_id":"levelo_inurba_marseille","lat":43.29176,"lon":5.37156,"is_reserved":false,"is_disabled":false,"rental_uris":{"android":"levelo://app?vid=e95125c1-cd97-49f2-acf5-2baeadab5edb","ios":"levelo://app?vid=e95125c1-cd97-49f2-acf5-2baeadab5edb"},"vehicle_type_id":"4","last_reported":1737969057,"current_range_meters":14800,"station_id":"ce4bha92rcd13ifvqeh0","pricing_plan_id":"cebpf4jnsgd1na2vs0mg"},{"bike_id":"22fdda07-29f7-4097-aa7c-457566d3caba","system_id":"levelo_inurba_marseille","lat":43.25083,"lon":5.39552,"is_reserved":false,"is_disabled":false,"rental_uris":{"android":"levelo://app?vid=22fdda07-29f7-4097-aa7c-457566d3caba","ios":"levelo://app?vid=22fdda07-29f7-4097-aa7c-457566d3caba"},"vehicle_type_id":"4","last_reported":1737969057,"current_range_meters":22800,"station_id":"ce4bhm12rcd13ifvqgkg","pricing_plan_id":"cebpf4jnsgd1na2vs0mg"},{"bike_id":"f9ea3b7d-3e08-41ce-9f28-17237eb201ee","system_id":"levelo_inurba_marseille","lat":43.27489,"lon":5.42463,"is_reserved":false,"is_disabled":true,"rental_uris":{"android":"levelo://app?vid=f9ea3b7d-3e08-41ce-9f28-17237eb201ee","ios":"levelo://app?vid=f9ea3b7d-3e08-41ce-9f28-17237eb201ee"},"vehicle_type_id":"4","last_reported":1737969057,"current_range_meters":800,"station_id":"ce4bhn92rcd13ifvqgrg","pricing_plan_id":"cebpf4jnsgd1na2vs0mg"},{"bike_id":"4857b4cf-decd-41a9-ade3-4c571462c146","system_id":"levelo_inurba_marseille","lat":43.25375,"lon":5.41938,"is_reserved":false,"is_disabled":true,"rental_uris":{"android":"levelo://app?vid=4857b4cf-decd-41a9-ade3-4c571462c146","ios":"levelo://app?vid=4857b4cf-decd-41a9-ade3-4c571462c146"},"vehicle_type_id":"4","last_reported":1737969057,"current_range_meters":0,"station_id":"","pricing_plan_id":"cebpf4jnsgd1na2vs0mg"},{"bike_id":"dee161fe-82c1-4855-9bd7-e7193193e749","system_id":"levelo_inurba_marseille","lat":43.31708,"lon":5.43727,"is_reserved":false,"is_disabled":false,"rental_uris":{"android":"levelo://app?vid=dee161fe-82c1-4855-9bd7-e7193193e749","ios":"levelo://app?vid=dee161fe-82c1-4855-9bd7-e7193193e749"},"vehicle_type_id":"4","last_reported":1737969057,"current_range_meters":38000,"station_id":"ce4bhp92rcd13ifvqhcg","pricing_plan_id":"cebpf4jnsgd1na2vs0mg"},{"bike_id":"58d9e3df-28a3-4560-b2cd-4d33fefbd544","system_id":"levelo_inurba_marseille","lat":43.283427,"lon":5.381127,"is_reserved":false,"is_disabled":true,"rental_uris":{"android":"levelo://app?vid=58d9e3df-28a3-4560-b2cd-4d33fefbd544","ios":"levelo://app?vid=58d9e3df-28a3-4560-b2cd-4d33fefbd544"},"vehicle_type_id":"4","last_reported":1737969057,"current_range_meters":12400,"station_id":"ce4bh412rcd13ifvqdr0","pricing_plan_id":"cebpf4jnsgd1na2vs0mg"},{"bike_id":"fa5cc696-fa74-45d7-9894-bb340f9342a9","system_id":"levelo_inurba_marseille","lat":43.2867,"lon":5.36351,"is_reserved":false,"is_disabled":true,"rental_uris":{"android":"levelo://app?vid=fa5cc696-fa74-45d7-9894-bb340f9342a9","ios":"levelo://app?vid=fa5cc696-fa74-45d7-9894-bb340f9342a9"},"vehicle_type_id":"4","last_reported":1737969057,"current_range_meters":14000,"station_id":"ce4bhah2rcd13ifvqej0","pricing_plan_id":"cebpf4jnsgd1na2vs0mg"},{"bike_id":"335ad0c5-146e-43f1-8438-de35e0cad150","system_id":"levelo_inurba_marseille","lat":43.28352,"lon":5.38105,"is_reserved":false,"is_disabled":false,"rental_uris":{"android":"levelo://app?vid=335ad0c5-146e-43f1-8438-de35e0cad150","ios":"levelo://app?vid=335ad0c5-146e-43f1-8438-de35e0cad150"},"vehicle_type_id":"4","last_reported":1737969057,"current_range_meters":27200,"station_id":"ce4bh412rcd13ifvqdr0","pricing_plan_id":"cebpf4jnsgd1na2vs0mg"},{"bike_id":"5ccff8f5-a6d3-41d2-b523-50a98221b0f7","system_id":"levelo_inurba_marseille","lat":43.31364,"lon":5.36704,"is_reserved":false,"is_disabled":false,"rental_uris":{"android":"levelo://app?vid=5ccff8f5-a6d3-41d2-b523-50a98221b0f7","ios":"levelo://app?vid=5ccff8f5-a6d3-41d2-b523-50a98221b0f7"},"vehicle_type_id":"4","last_reported":1737969057,"current_range_meters":9600,"station_id":"ce4bgr92rcd13ifvqc6g","pricing_plan_id":"cebpf4jnsgd1na2vs0mg"},{"bike_id":"9942578d-7fdb-4216-a909-426abfac46b6","system_id":"levelo_inurba_marseille","lat":43.337444,"lon":5.374475,"is_reserved":false,"is_disabled":false,"rental_uris":{"android":"levelo://app?vid=9942578d-7fdb-4216-a909-426abfac46b6","ios":"levelo://app?vid=9942578d-7fdb-4216-a909-426abfac46b6"},"vehicle_type_id":"4","last_reported":1737969057,"current_range_meters":29600,"station_id":"","pricing_plan_id":"cebpf4jnsgd1na2vs0mg"},{"bike_id":"a4507d79-f6e4-4541-ac8c-43ccf3587389","system_id":"levelo_inurba_marseille","lat":43.27491,"lon":5.42456,"is_reserved":false,"is_disabled":false,"rental_uris":{"android":"levelo://app?vid=a4507d79-f6e4-4541-ac8c-43ccf3587389","ios":"levelo://app?vid=a4507d79-f6e4-4541-ac8c-43ccf3587389"},"vehicle_type_id":"4","last_reported":1737969057,"current_range_meters":28000,"station_id":"ce4bhn92rcd13ifvqgrg","pricing_plan_id":"cebpf4jnsgd1na2vs0mg"},{"bike_id":"011424fc-28f4-4f86-a41c-b0bfd267d6ab","system_id":"levelo_inurba_marseille","lat":43.26047,"lon":5.39395,"is_reserved":false,"is_disabled":false,"rental_uris":{"android":"levelo://app?vid=011424fc-28f4-4f86-a41c-b0bfd267d6ab","ios":"levelo://app?vid=011424fc-28f4-4f86-a41c-b0bfd267d6ab"},"vehicle_type_id":"4","last_reported":1737969057,"current_range_meters":17600,"station_id":"ce4bhh92rcd13ifvqfj0","pricing_plan_id":"cebpf4jnsgd1na2vs0mg"},{"bike_id":"257d5538-4145-4d36-b77c-96b7a28b1235","system_id":"levelo_inurba_marseille","lat":43.31339,"lon":5.36729,"is_reserved":false,"is_disabled":false,"rental_uris":{"android":"levelo://app?vid=257d5538-4145-4d36-b77c-96b7a28b1235","ios":"levelo://app?vid=257d5538-4145-4d36-b77c-96b7a28b1235"},"vehicle_type_id":"4","last_reported":1737969057,"current_range_meters":33600,"station_id":"ce4bgr92rcd13ifvqc6g","pricing_plan_id":"cebpf4jnsgd1na2vs0mg"},{"bike_id":"d6755dc8-d9a9-49dc-8a8f-22ec6b86e111","system_id":"levelo_inurba_marseille","lat":43.28148,"lon":5.4264,"is_reserved":false,"is_disabled":false,"rental_uris":{"android":"levelo://app?vid=d6755dc8-d9a9-49dc-8a8f-22ec6b86e111","ios":"levelo://app?vid=d6755dc8-d9a9-49dc-8a8f-22ec6b86e111"},"vehicle_type_id":"4","last_reported":1737969057,"current_range_meters":30400,"station_id":"ce4bhnh2rcd13ifvqgug","pricing_plan_id":"cebpf4jnsgd1na2vs0mg"},{"bike_id":"22fe6381-bfa8-481c-9415-4e6666169356","system_id":"levelo_inurba_marseille","lat":43.2655,"lon":5.3902,"is_reserved":false,"is_disabled":false,"rental_uris":{"android":"levelo://app?vid=22fe6381-bfa8-481c-9415-4e6666169356","ios":"levelo://app?vid=22fe6381-bfa8-481c-9415-4e6666169356"},"vehicle_type_id":"4","last_reported":1737969057,"current_range_meters":27600,"station_id":"ce4bhe12rcd13ifvqf30","pricing_plan_id":"cebpf4jnsgd1na2vs0mg"},{"bike_id":"19065dc5-aad5-4b39-8b47-27e4892c7546","system_id":"levelo_inurba_marseille","lat":43.25823,"lon":5.39432,"is_reserved":false,"is_disabled":false,"rental_uris":{"android":"levelo://app?vid=19065dc5-aad5-4b39-8b47-27e4892c7546","ios":"levelo://app?vid=19065dc5-aad5-4b39-8b47-27e4892c7546"},"vehicle_type_id":"4","last_reported":1737969057,"current_range_meters":39200,"station_id":"ce4bhip2rcd13ifvqft0","pricing_plan_id":"cebpf4jnsgd1na2vs0mg"},{"bike_id":"457dbd0e-8f95-45e9-8ae6-40b39a5ca596","system_id":"levelo_inurba_marseille","lat":43.2319,"lon":5.35567,"is_reserved":false,"is_disabled":false,"rental_uris":{"android":"levelo://app?vid=457dbd0e-8f95-45e9-8ae6-40b39a5ca596","ios":"levelo://app?vid=457dbd0e-8f95-45e9-8ae6-40b39a5ca596"},"vehicle_type_id":"4","last_reported":1737969057,"current_range_meters":32000,"station_id":"ce4bhu92rcd13ifvqi70","pricing_plan_id":"cebpf4jnsgd1na2vs0mg"},{"bike_id":"c96545e6-b3fa-4a6b-836e-d89ea478e5d1","system_id":"levelo_inurba_marseille","lat":43.24995,"lon":5.38928,"is_reserved":false,"is_disabled":false,"rental_uris":{"android":"levelo://app?vid=c96545e6-b3fa-4a6b-836e-d89ea478e5d1","ios":"levelo://app?vid=c96545e6-b3fa-4a6b-836e-d89ea478e5d1"},"vehicle_type_id":"4","last_reported":1737969057,"current_range_meters":38800,"station_id":"ce4bhgp2rcd13ifvqfd0","pricing_plan_id":"cebpf4jnsgd1na2vs0mg"},{"bike_id":"d77db00f-908b-4381-ac06-dc3e91b69008","system_id":"levelo_inurba_marseille","lat":43.25582,"lon":5.38251,"is_reserved":false,"is_disabled":false,"rental_uris":{"android":"levelo://app?vid=d77db00f-908b-4381-ac06-dc3e91b69008","ios":"levelo://app?vid=d77db00f-908b-4381-ac06-dc3e91b69008"},"vehicle_type_id":"4","last_reported":1737969057,"current_range_meters":37600,"station_id":"ce4bhih2rcd13ifvqfs0","pricing_plan_id":"cebpf4jnsgd1na2vs0mg"},{"bike_id":"39a2ba24-65e1-4f69-b83c-82babf8d1616","system_id":"levelo_inurba_marseille","lat":43.26679,"lon":5.38265,"is_reserved":false,"is_disabled":false,"rental_uris":{"android":"levelo://app?vid=39a2ba24-65e1-4f69-b83c-82babf8d1616","ios":"levelo://app?vid=39a2ba24-65e1-4f69-b83c-82babf8d1616"},"vehicle_type_id":"4","last_reported":1737969057,"current_range_meters":28000,"station_id":"ce4bhg92rcd13ifvqf90","pricing_plan_id":"cebpf4jnsgd1na2vs0mg"},{"bike_id":"d849166b-0af2-495d-8d80-9e58eb36a237","system_id":"levelo_inurba_marseille","lat":43.30478,"lon":5.37903,"is_reserved":false,"is_disabled":false,"rental_uris":{"android":"levelo://app?vid=d849166b-0af2-495d-8d80-9e58eb36a237","ios":"levelo://app?vid=d849166b-0af2-495d-8d80-9e58eb36a237"},"vehicle_type_id":"4","last_reported":1737969057,"current_range_meters":23200,"station_id":"ce4bgup2rcd13ifvqcn0","pricing_plan_id":"cebpf4jnsgd1na2vs0mg"},{"bike_id":"7b55759f-7d2c-4495-9bee-8fc686220a7a","system_id":"levelo_inurba_marseille","lat":43.28417,"lon":5.349949,"is_reserved":false,"is_disabled":true,"rental_uris":{"android":"levelo://app?vid=7b55759f-7d2c-4495-9bee-8fc686220a7a","ios":"levelo://app?vid=7b55759f-7d2c-4495-9bee-8fc686220a7a"},"vehicle_type_id":"4","last_reported":1737969057,"current_range_meters":30800,"station_id":"","pricing_plan_id":"cebpf4jnsgd1na2vs0mg"},{"bike_id":"5a6503ca-c2c6-4dbe-a6f7-68e5f1916ac2","system_id":"levelo_inurba_marseille","lat":43.29899,"lon":5.43675,"is_reserved":false,"is_disabled":false,"rental_uris":{"android":"levelo://app?vid=5a6503ca-c2c6-4dbe-a6f7-68e5f1916ac2","ios":"levelo://app?vid=5a6503ca-c2c6-4dbe-a6f7-68e5f1916ac2"},"vehicle_type_id":"4","last_reported":1737969057,"current_range_meters":10800,"station_id":"ce4bhpp2rcd13ifvqhfg","pricing_plan_id":"cebpf4jnsgd1na2vs0mg"},{"bike_id":"426cbb7a-3f56-4ed5-8adb-ec3dfdeed3c2","system_id":"levelo_inurba_marseille","lat":43.28566,"lon":5.39493,"is_reserved":false,"is_disabled":false,"rental_uris":{"android":"levelo://app?vid=426cbb7a-3f56-4ed5-8adb-ec3dfdeed3c2","ios":"levelo://app?vid=426cbb7a-3f56-4ed5-8adb-ec3dfdeed3c2"},"vehicle_type_id":"4","last_reported":1737969057,"current_range_meters":32400,"station_id":"ce4bh292rcd13ifvqdg0","pricing_plan_id":"cebpf4jnsgd1na2vs0mg"},{"bike_id":"b7f55312-cc40-4144-8bf6-2fd05c02dcaa","system_id":"levelo_inurba_marseille","lat":43.31233,"lon":5.36907,"is_reserved":false,"is_disabled":false,"rental_uris":{"android":"levelo://app?vid=b7f55312-cc40-4144-8bf6-2fd05c02dcaa","ios":"levelo://app?vid=b7f55312-cc40-4144-8bf6-2fd05c02dcaa"},"vehicle_type_id":"4","last_reported":1737969057,"current_range_meters":38800,"station_id":"ce4bgl92rcd13ifvqbq0","pricing_plan_id":"cebpf4jnsgd1na2vs0mg"},{"bike_id":"908fadb4-8699-4af2-b0fd-43bcb44cdab6","system_id":"levelo_inurba_marseille","lat":43.29806,"lon":5.38108,"is_reserved":false,"is_disabled":false,"rental_uris":{"android":"levelo://app?vid=908fadb4-8699-4af2-b0fd-43bcb44cdab6","ios":"levelo://app?vid=908fadb4-8699-4af2-b0fd-43bcb44cdab6"},"vehicle_type_id":"4","last_reported":1737969057,"current_range_meters":36000,"station_id":"ce4bgip2rcd13ifvqbb0","pricing_plan_id":"cebpf4jnsgd1na2vs0mg"},{"bike_id":"e05b826e-7ecd-4d63-bf30-527254ee854c","system_id":"levelo_inurba_marseille","lat":43.309673,"lon":5.390466,"is_reserved":false,"is_disabled":true,"rental_uris":{"android":"levelo://app?vid=e05b826e-7ecd-4d63-bf30-527254ee854c","ios":"levelo://app?vid=e05b826e-7ecd-4d63-bf30-527254ee854c"},"vehicle_type_id":"4","last_reported":1737969057,"current_range_meters":0,"station_id":"ce4bgup2rcd13ifvqco0","pricing_plan_id":"cebpf4jnsgd1na2vs0mg"},{"bike_id":"57387c58-8686-4406-b06b-637dd105379a","system_id":"levelo_inurba_marseille","lat":43.30276,"lon":5.37718,"is_reserved":false,"is_disabled":false,"rental_uris":{"android":"levelo://app?vid=57387c58-8686-4406-b06b-637dd105379a","ios":"levelo://app?vid=57387c58-8686-4406-b06b-637dd105379a"},"vehicle_type_id":"4","last_reported":1737969057,"current_range_meters":27200,"station_id":"ce4bguh2rcd13ifvqcj0","pricing_plan_id":"cebpf4jnsgd1na2vs0mg"},{"bike_id":"28eec19e-683c-4132-9365-bcac345d1499","system_id":"levelo_inurba_marseille","lat":43.2396,"lon":5.36626,"is_reserved":false,"is_disabled":true,"rental_uris":{"android":"levelo://app?vid=28eec19e-683c-4132-9365-bcac345d1499","ios":"levelo://app?vid=28eec19e-683c-4132-9365-bcac345d1499"},"vehicle_type_id":"4","last_reported":1737969057,"current_range_meters":2000,"station_id":"ce4bhi12rcd13ifvqfp0","pricing_plan_id":"cebpf4jnsgd1na2vs0mg"},{"bike_id":"3fc26aad-e68e-4245-80c2-3695620aa3dc","system_id":"levelo_inurba_marseille","lat":43.2896,"lon":5.37852,"is_reserved":false,"is_disabled":false,"rental_uris":{"android":"levelo://app?vid=3fc26aad-e68e-4245-80c2-3695620aa3dc","ios":"levelo://app?vid=3fc26aad-e68e-4245-80c2-3695620aa3dc"},"vehicle_type_id":"4","last_reported":1737969057,"current_range_meters":38800,"station_id":"ce4bh9p2rcd13ifvqed0","pricing_plan_id":"cebpf4jnsgd1na2vs0mg"},{"bike_id":"6a111f2e-3d37-4032-bfb5-7c9a0c5e7b4f","system_id":"levelo_inurba_marseille","lat":43.27054,"lon":5.4026,"is_reserved":false,"is_disabled":false,"rental_uris":{"android":"levelo://app?vid=6a111f2e-3d37-4032-bfb5-7c9a0c5e7b4f","ios":"levelo://app?vid=6a111f2e-3d37-4032-bfb5-7c9a0c5e7b4f"},"vehicle_type_id":"4","last_reported":1737969057,"current_range_meters":23200,"station_id":"ce4bhk92rcd13ifvqgc0","pricing_plan_id":"cebpf4jnsgd1na2vs0mg"},{"bike_id":"1d77d048-ce0a-4186-b9ae-e7e345be0222","system_id":"levelo_inurba_marseille","lat":43.3095,"lon":5.39025,"is_reserved":false,"is_disabled":false,"rental_uris":{"android":"levelo://app?vid=1d77d048-ce0a-4186-b9ae-e7e345be0222","ios":"levelo://app?vid=1d77d048-ce0a-4186-b9ae-e7e345be0222"},"vehicle_type_id":"4","last_reported":1737969057,"current_range_meters":24400,"station_id":"ce4bgup2rcd13ifvqco0","pricing_plan_id":"cebpf4jnsgd1na2vs0mg"},{"bike_id":"aeaff8cd-01e9-4908-a504-4b8602bcc40a","system_id":"levelo_inurba_marseille","lat":43.24179,"lon":5.39735,"is_reserved":false,"is_disabled":false,"rental_uris":{"android":"levelo://app?vid=aeaff8cd-01e9-4908-a504-4b8602bcc40a","ios":"levelo://app?vid=aeaff8cd-01e9-4908-a504-4b8602bcc40a"},"vehicle_type_id":"4","last_reported":1737969057,"current_range_meters":13600,"station_id":"ce4bhn12rcd13ifvqgpg","pricing_plan_id":"cebpf4jnsgd1na2vs0mg"},{"bike_id":"b2a77bcb-8636-4783-bb85-a20e6eec5fb2","system_id":"levelo_inurba_marseille","lat":43.27664,"lon":5.38923,"is_reserved":false,"is_disabled":false,"rental_uris":{"android":"levelo://app?vid=b2a77bcb-8636-4783-bb85-a20e6eec5fb2","ios":"levelo://app?vid=b2a77bcb-8636-4783-bb85-a20e6eec5fb2"},"vehicle_type_id":"4","last_reported":1737969057,"current_range_meters":30800,"station_id":"ce4bhi12rcd13ifvqfo0","pricing_plan_id":"cebpf4jnsgd1na2vs0mg"},{"bike_id":"53742e05-5478-446d-9a5a-2171d39a1114","system_id":"levelo_inurba_marseille","lat":43.28478,"lon":5.38429,"is_reserved":false,"is_disabled":false,"rental_uris":{"android":"levelo://app?vid=53742e05-5478-446d-9a5a-2171d39a1114","ios":"levelo://app?vid=53742e05-5478-446d-9a5a-2171d39a1114"},"vehicle_type_id":"4","last_reported":1737969057,"current_range_meters":29600,"station_id":"ce4bh512rcd13ifvqe3g","pricing_plan_id":"cebpf4jnsgd1na2vs0mg"},{"bike_id":"94715de2-fa07-4f8d-b344-dd8862c3fe6d","system_id":"levelo_inurba_marseille","lat":43.30969,"lon":5.37238,"is_reserved":false,"is_disabled":false,"rental_uris":{"android":"levelo://app?vid=94715de2-fa07-4f8d-b344-dd8862c3fe6d","ios":"levelo://app?vid=94715de2-fa07-4f8d-b344-dd8862c3fe6d"},"vehicle_type_id":"4","last_reported":1737969057,"current_range_meters":7200,"station_id":"","pricing_plan_id":"cebpf4jnsgd1na2vs0mg"},{"bike_id":"e5156e2f-f559-4505-a117-62058a8eda23","system_id":"levelo_inurba_marseille","lat":43.30791,"lon":5.37645,"is_reserved":false,"is_disabled":false,"rental_uris":{"android":"levelo://app?vid=e5156e2f-f559-4505-a117-62058a8eda23","ios":"levelo://app?vid=e5156e2f-f559-4505-a117-62058a8eda23"},"vehicle_type_id":"4","last_reported":1737969057,"current_range_meters":19200,"station_id":"ce4bgv92rcd13ifvqcq0","pricing_plan_id":"cebpf4jnsgd1na2vs0mg"},{"bike_id":"8b24ee26-2ef3-43bc-a61f-7dad385fa3a7","system_id":"levelo_inurba_marseille","lat":43.26674,"lon":5.38263,"is_reserved":false,"is_disabled":true,"rental_uris":{"android":"levelo://app?vid=8b24ee26-2ef3-43bc-a61f-7dad385fa3a7","ios":"levelo://app?vid=8b24ee26-2ef3-43bc-a61f-7dad385fa3a7"},"vehicle_type_id":"4","last_reported":1737969057,"current_range_meters":800,"station_id":"ce4bhg92rcd13ifvqf90","pricing_plan_id":"cebpf4jnsgd1na2vs0mg"},{"bike_id":"6adc5ca7-0c2c-4563-b34e-99dac6c709d8","system_id":"levelo_inurba_marseille","lat":43.29867,"lon":5.3783,"is_reserved":false,"is_disabled":true,"rental_uris":{"android":"levelo://app?vid=6adc5ca7-0c2c-4563-b34e-99dac6c709d8","ios":"levelo://app?vid=6adc5ca7-0c2c-4563-b34e-99dac6c709d8"},"vehicle_type_id":"4","last_reported":1737969057,"current_range_meters":0,"station_id":"","pricing_plan_id":"cebpf4jnsgd1na2vs0mg"},{"bike_id":"80f1f90e-4cca-4861-b39b-ccac5a1bee1c","system_id":"levelo_inurba_marseille","lat":43.2846,"lon":5.38441,"is_reserved":false,"is_disabled":false,"rental_uris":{"android":"levelo://app?vid=80f1f90e-4cca-4861-b39b-ccac5a1bee1c","ios":"levelo://app?vid=80f1f90e-4cca-4861-b39b-ccac5a1bee1c"},"vehicle_type_id":"4","last_reported":1737969057,"current_range_meters":20800,"station_id":"ce4bh512rcd13ifvqe3g","pricing_plan_id":"cebpf4jnsgd1na2vs0mg"},{"bike_id":"a0eebbff-d2e9-446c-9e6a-814664201a71","system_id":"levelo_inurba_marseille","lat":43.330683,"lon":5.408261,"is_reserved":false,"is_disabled":false,"rental_uris":{"android":"levelo://app?vid=a0eebbff-d2e9-446c-9e6a-814664201a71","ios":"levelo://app?vid=a0eebbff-d2e9-446c-9e6a-814664201a71"},"vehicle_type_id":"4","last_reported":1737969057,"current_range_meters":7200,"station_id":"","pricing_plan_id":"cebpf4jnsgd1na2vs0mg"},{"bike_id":"7b764a37-86ae-4506-bf6b-9f8ff35451d3","system_id":"levelo_inurba_marseille","lat":43.23193,"lon":5.35571,"is_reserved":false,"is_disabled":false,"rental_uris":{"android":"levelo://app?vid=7b764a37-86ae-4506-bf6b-9f8ff35451d3","ios":"levelo://app?vid=7b764a37-86ae-4506-bf6b-9f8ff35451d3"},"vehicle_type_id":"4","last_reported":1737969057,"current_range_meters":9200,"station_id":"ce4bhu92rcd13ifvqi70","pricing_plan_id":"cebpf4jnsgd1na2vs0mg"},{"bike_id":"5de3a2ff-e22b-4d37-a51c-f4f2c9cb3dbc","system_id":"levelo_inurba_marseille","lat":43.323645,"lon":5.388918,"is_reserved":false,"is_disabled":false,"rental_uris":{"android":"levelo://app?vid=5de3a2ff-e22b-4d37-a51c-f4f2c9cb3dbc","ios":"levelo://app?vid=5de3a2ff-e22b-4d37-a51c-f4f2c9cb3dbc"},"vehicle_type_id":"4","last_reported":1737969057,"current_range_meters":16800,"station_id":"ce4bhqp2rcd13ifvqhog","pricing_plan_id":"cebpf4jnsgd1na2vs0mg"},{"bike_id":"707291c0-801f-4378-b622-04349833c400","system_id":"levelo_inurba_marseille","lat":43.28939,"lon":5.36629,"is_reserved":false,"is_disabled":true,"rental_uris":{"android":"levelo://app?vid=707291c0-801f-4378-b622-04349833c400","ios":"levelo://app?vid=707291c0-801f-4378-b622-04349833c400"},"vehicle_type_id":"4","last_reported":1737969057,"current_range_meters":30400,"station_id":"ce4bhap2rcd13ifvqek0","pricing_plan_id":"cebpf4jnsgd1na2vs0mg"},{"bike_id":"d1c9e299-976b-4067-95ba-dab8fc38751c","system_id":"levelo_inurba_marseille","lat":43.25716,"lon":5.41114,"is_reserved":false,"is_disabled":false,"rental_uris":{"android":"levelo://app?vid=d1c9e299-976b-4067-95ba-dab8fc38751c","ios":"levelo://app?vid=d1c9e299-976b-4067-95ba-dab8fc38751c"},"vehicle_type_id":"4","last_reported":1737969057,"current_range_meters":39200,"station_id":"ce4bhkp2rcd13ifvqgd0","pricing_plan_id":"cebpf4jnsgd1na2vs0mg"},{"bike_id":"c7830262-ea23-45f4-9a23-990ed17ebf09","system_id":"levelo_inurba_marseille","lat":43.29858,"lon":5.39785,"is_reserved":false,"is_disabled":true,"rental_uris":{"android":"levelo://app?vid=c7830262-ea23-45f4-9a23-990ed17ebf09","ios":"levelo://app?vid=c7830262-ea23-45f4-9a23-990ed17ebf09"},"vehicle_type_id":"4","last_reported":1737969057,"current_range_meters":0,"station_id":"","pricing_plan_id":"cebpf4jnsgd1na2vs0mg"},{"bike_id":"330b3936-0ec2-4a69-914b-3c91fd9a6c39","system_id":"levelo_inurba_marseille","lat":43.32528,"lon":5.41483,"is_reserved":false,"is_disabled":false,"rental_uris":{"android":"levelo://app?vid=330b3936-0ec2-4a69-914b-3c91fd9a6c39","ios":"levelo://app?vid=330b3936-0ec2-4a69-914b-3c91fd9a6c39"},"vehicle_type_id":"4","last_reported":1737969057,"current_range_meters":28800,"station_id":"ce4bhq12rcd13ifvqhhg","pricing_plan_id":"cebpf4jnsgd1na2vs0mg"},{"bike_id":"c2cb7fc3-be16-4b92-b1d5-cf7555bc5e02","system_id":"levelo_inurba_marseille","lat":43.270621,"lon":5.422757,"is_reserved":false,"is_disabled":false,"rental_uris":{"android":"levelo://app?vid=c2cb7fc3-be16-4b92-b1d5-cf7555bc5e02","ios":"levelo://app?vid=c2cb7fc3-be16-4b92-b1d5-cf7555bc5e02"},"vehicle_type_id":"4","last_reported":1737969057,"current_range_meters":38800,"station_id":"ce4bhk92rcd13ifvqgb0","pricing_plan_id":"cebpf4jnsgd1na2vs0mg"},{"bike_id":"91248acd-5261-453c-b5c9-6960b0e9de7b","system_id":"levelo_inurba_marseille","lat":43.292795,"lon":5.374575,"is_reserved":false,"is_disabled":true,"rental_uris":{"android":"levelo://app?vid=91248acd-5261-453c-b5c9-6960b0e9de7b","ios":"levelo://app?vid=91248acd-5261-453c-b5c9-6960b0e9de7b"},"vehicle_type_id":"4","last_reported":1737969057,"current_range_meters":10800,"station_id":"ce4bgi12rcd13ifvqb70","pricing_plan_id":"cebpf4jnsgd1na2vs0mg"},{"bike_id":"619d80b3-730e-4967-9454-9352e124fa00","system_id":"levelo_inurba_marseille","lat":43.2894,"lon":5.36631,"is_reserved":false,"is_disabled":false,"rental_uris":{"android":"levelo://app?vid=619d80b3-730e-4967-9454-9352e124fa00","ios":"levelo://app?vid=619d80b3-730e-4967-9454-9352e124fa00"},"vehicle_type_id":"4","last_reported":1737969057,"current_range_meters":34000,"station_id":"ce4bhap2rcd13ifvqek0","pricing_plan_id":"cebpf4jnsgd1na2vs0mg"},{"bike_id":"2bd0fe4b-8303-4360-aeba-302831eebc62","system_id":"levelo_inurba_marseille","lat":43.24002,"lon":5.37763,"is_reserved":false,"is_disabled":false,"rental_uris":{"android":"levelo://app?vid=2bd0fe4b-8303-4360-aeba-302831eebc62","ios":"levelo://app?vid=2bd0fe4b-8303-4360-aeba-302831eebc62"},"vehicle_type_id":"4","last_reported":1737969057,"current_range_meters":18800,"station_id":"","pricing_plan_id":"cebpf4jnsgd1na2vs0mg"},{"bike_id":"83ab2271-68aa-4e51-92e2-d89b2328d98b","system_id":"levelo_inurba_marseille","lat":43.30549,"lon":5.36695,"is_reserved":false,"is_disabled":false,"rental_uris":{"android":"levelo://app?vid=83ab2271-68aa-4e51-92e2-d89b2328d98b","ios":"levelo://app?vid=83ab2271-68aa-4e51-92e2-d89b2328d98b"},"vehicle_type_id":"4","last_reported":1737969057,"current_range_meters":36400,"station_id":"ce4bgrp2rcd13ifvqc9g","pricing_plan_id":"cebpf4jnsgd1na2vs0mg"},{"bike_id":"5a504fe4-0ab6-4eed-b9ef-e27131441d67","system_id":"levelo_inurba_marseille","lat":43.30311,"lon":5.3789,"is_reserved":false,"is_disabled":false,"rental_uris":{"android":"levelo://app?vid=5a504fe4-0ab6-4eed-b9ef-e27131441d67","ios":"levelo://app?vid=5a504fe4-0ab6-4eed-b9ef-e27131441d67"},"vehicle_type_id":"4","last_reported":1737969057,"current_range_meters":26000,"station_id":"","pricing_plan_id":"cebpf4jnsgd1na2vs0mg"},{"bike_id":"11ba3b1e-84b5-4609-901b-fe845e306d2e","system_id":"levelo_inurba_marseille","lat":43.32472,"lon":5.36583,"is_reserved":false,"is_disabled":false,"rental_uris":{"android":"levelo://app?vid=11ba3b1e-84b5-4609-901b-fe845e306d2e","ios":"levelo://app?vid=11ba3b1e-84b5-4609-901b-fe845e306d2e"},"vehicle_type_id":"4","last_reported":1737969057,"current_range_meters":34800,"station_id":"ce4bhs12rcd13ifvqhvg","pricing_plan_id":"cebpf4jnsgd1na2vs0mg"},{"bike_id":"eb433142-e157-4157-8a68-8fb457105fed","system_id":"levelo_inurba_marseille","lat":43.31163,"lon":5.38727,"is_reserved":false,"is_disabled":false,"rental_uris":{"android":"levelo://app?vid=eb433142-e157-4157-8a68-8fb457105fed","ios":"levelo://app?vid=eb433142-e157-4157-8a68-8fb457105fed"},"vehicle_type_id":"4","last_reported":1737969057,"current_range_meters":26000,"station_id":"ce4bgv12rcd13ifvqcp0","pricing_plan_id":"cebpf4jnsgd1na2vs0mg"},{"bike_id":"3718b059-a8c9-4f1d-a905-df1c00ae4a69","system_id":"levelo_inurba_marseille","lat":43.24542,"lon":5.39527,"is_reserved":false,"is_disabled":false,"rental_uris":{"android":"levelo://app?vid=3718b059-a8c9-4f1d-a905-df1c00ae4a69","ios":"levelo://app?vid=3718b059-a8c9-4f1d-a905-df1c00ae4a69"},"vehicle_type_id":"4","last_reported":1737969057,"current_range_meters":38000,"station_id":"ce4bhlp2rcd13ifvqgjg","pricing_plan_id":"cebpf4jnsgd1na2vs0mg"},{"bike_id":"29537b6d-60f6-4053-b601-105bf13a2e3a","system_id":"levelo_inurba_marseille","lat":43.28478,"lon":5.38442,"is_reserved":false,"is_disabled":true,"rental_uris":{"android":"levelo://app?vid=29537b6d-60f6-4053-b601-105bf13a2e3a","ios":"levelo://app?vid=29537b6d-60f6-4053-b601-105bf13a2e3a"},"vehicle_type_id":"4","last_reported":1737969057,"current_range_meters":38800,"station_id":"ce4bh512rcd13ifvqe3g","pricing_plan_id":"cebpf4jnsgd1na2vs0mg"},{"bike_id":"c06fd074-7725-499f-b41d-51a81cc0b177","system_id":"levelo_inurba_marseille","lat":43.262,"lon":5.37926,"is_reserved":false,"is_disabled":false,"rental_uris":{"android":"levelo://app?vid=c06fd074-7725-499f-b41d-51a81cc0b177","ios":"levelo://app?vid=c06fd074-7725-499f-b41d-51a81cc0b177"},"vehicle_type_id":"4","last_reported":1737969057,"current_range_meters":36400,"station_id":"ce4bhjp2rcd13ifvqg90","pricing_plan_id":"cebpf4jnsgd1na2vs0mg"},{"bike_id":"0675fa87-4ac7-4eaa-af40-1f0bac7f8c27","system_id":"levelo_inurba_marseille","lat":43.31593,"lon":5.4193,"is_reserved":false,"is_disabled":true,"rental_uris":{"android":"levelo://app?vid=0675fa87-4ac7-4eaa-af40-1f0bac7f8c27","ios":"levelo://app?vid=0675fa87-4ac7-4eaa-af40-1f0bac7f8c27"},"vehicle_type_id":"4","last_reported":1737969057,"current_range_meters":0,"station_id":"","pricing_plan_id":"cebpf4jnsgd1na2vs0mg"},{"bike_id":"2189e690-1ed3-41ae-9ddb-cd26175301bc","system_id":"levelo_inurba_marseille","lat":43.26494,"lon":5.3954,"is_reserved":false,"is_disabled":false,"rental_uris":{"android":"levelo://app?vid=2189e690-1ed3-41ae-9ddb-cd26175301bc","ios":"levelo://app?vid=2189e690-1ed3-41ae-9ddb-cd26175301bc"},"vehicle_type_id":"4","last_reported":1737969057,"current_range_meters":28800,"station_id":"ce4bhi12rcd13ifvqfq0","pricing_plan_id":"cebpf4jnsgd1na2vs0mg"},{"bike_id":"bfc0e897-d2d9-4132-ae4d-f58e650b04cc","system_id":"levelo_inurba_marseille","lat":43.29707,"lon":5.36601,"is_reserved":false,"is_disabled":false,"rental_uris":{"android":"levelo://app?vid=bfc0e897-d2d9-4132-ae4d-f58e650b04cc","ios":"levelo://app?vid=bfc0e897-d2d9-4132-ae4d-f58e650b04cc"},"vehicle_type_id":"4","last_reported":1737969057,"current_range_meters":30800,"station_id":"ce4bgn12rcd13ifvqbt0","pricing_plan_id":"cebpf4jnsgd1na2vs0mg"},{"bike_id":"9838cc78-2b53-49d3-ae13-82df62c4fd64","system_id":"levelo_inurba_marseille","lat":43.28421,"lon":5.40936,"is_reserved":false,"is_disabled":true,"rental_uris":{"android":"levelo://app?vid=9838cc78-2b53-49d3-ae13-82df62c4fd64","ios":"levelo://app?vid=9838cc78-2b53-49d3-ae13-82df62c4fd64"},"vehicle_type_id":"4","last_reported":1737969057,"current_range_meters":0,"station_id":"","pricing_plan_id":"cebpf4jnsgd1na2vs0mg"},{"bike_id":"5b47bbb3-e6bf-432b-9ed4-5c7e9670bea0","system_id":"levelo_inurba_marseille","lat":43.32289,"lon":5.38269,"is_reserved":false,"is_disabled":false,"rental_uris":{"android":"levelo://app?vid=5b47bbb3-e6bf-432b-9ed4-5c7e9670bea0","ios":"levelo://app?vid=5b47bbb3-e6bf-432b-9ed4-5c7e9670bea0"},"vehicle_type_id":"4","last_reported":1737969057,"current_range_meters":28000,"station_id":"ce4bhr12rcd13ifvqhqg","pricing_plan_id":"cebpf4jnsgd1na2vs0mg"},{"bike_id":"68f99b21-2fbe-41a7-b050-a7f4c140afc1","system_id":"levelo_inurba_marseille","lat":43.29902,"lon":5.4021,"is_reserved":false,"is_disabled":true,"rental_uris":{"android":"levelo://app?vid=68f99b21-2fbe-41a7-b050-a7f4c140afc1","ios":"levelo://app?vid=68f99b21-2fbe-41a7-b050-a7f4c140afc1"},"vehicle_type_id":"4","last_reported":1737969057,"current_range_meters":0,"station_id":"","pricing_plan_id":"cebpf4jnsgd1na2vs0mg"},{"bike_id":"1a12ccc4-119d-4583-9cd0-f3b08fa41a49","system_id":"levelo_inurba_marseille","lat":43.2403,"lon":5.37805,"is_reserved":false,"is_disabled":false,"rental_uris":{"android":"levelo://app?vid=1a12ccc4-119d-4583-9cd0-f3b08fa41a49","ios":"levelo://app?vid=1a12ccc4-119d-4583-9cd0-f3b08fa41a49"},"vehicle_type_id":"4","last_reported":1737969057,"current_range_meters":36400,"station_id":"","pricing_plan_id":"cebpf4jnsgd1na2vs0mg"},{"bike_id":"93fa7128-527d-45c4-aa50-6800e7e1e06b","system_id":"levelo_inurba_marseille","lat":43.33603,"lon":5.4103,"is_reserved":false,"is_disabled":false,"rental_uris":{"android":"levelo://app?vid=93fa7128-527d-45c4-aa50-6800e7e1e06b","ios":"levelo://app?vid=93fa7128-527d-45c4-aa50-6800e7e1e06b"},"vehicle_type_id":"4","last_reported":1737969057,"current_range_meters":35200,"station_id":"ce4bhqh2rcd13ifvqhmg","pricing_plan_id":"cebpf4jnsgd1na2vs0mg"},{"bike_id":"bf096a89-ee72-4f37-85bd-7b3cf9f0cb41","system_id":"levelo_inurba_marseille","lat":43.33719,"lon":5.3922,"is_reserved":false,"is_disabled":false,"rental_uris":{"android":"levelo://app?vid=bf096a89-ee72-4f37-85bd-7b3cf9f0cb41","ios":"levelo://app?vid=bf096a89-ee72-4f37-85bd-7b3cf9f0cb41"},"vehicle_type_id":"4","last_reported":1737969057,"current_range_meters":25600,"station_id":"ce4bhr92rcd13ifvqhsg","pricing_plan_id":"cebpf4jnsgd1na2vs0mg"},{"bike_id":"8d59e66f-da7f-4cfc-99a3-6c0619252f37","system_id":"levelo_inurba_marseille","lat":43.24181,"lon":5.39722,"is_reserved":false,"is_disabled":false,"rental_uris":{"android":"levelo://app?vid=8d59e66f-da7f-4cfc-99a3-6c0619252f37","ios":"levelo://app?vid=8d59e66f-da7f-4cfc-99a3-6c0619252f37"},"vehicle_type_id":"4","last_reported":1737969057,"current_range_meters":16400,"station_id":"ce4bhn12rcd13ifvqgpg","pricing_plan_id":"cebpf4jnsgd1na2vs0mg"},{"bike_id":"c2378bb1-796c-4edf-bf87-198266dfa5e8","system_id":"levelo_inurba_marseille","lat":43.23204,"lon":5.35592,"is_reserved":false,"is_disabled":false,"rental_uris":{"android":"levelo://app?vid=c2378bb1-796c-4edf-bf87-198266dfa5e8","ios":"levelo://app?vid=c2378bb1-796c-4edf-bf87-198266dfa5e8"},"vehicle_type_id":"4","last_reported":1737969057,"current_range_meters":36400,"station_id":"ce4bhu92rcd13ifvqi70","pricing_plan_id":"cebpf4jnsgd1na2vs0mg"},{"bike_id":"80b5e9ba-45aa-4f07-a76d-689c757a3ac7","system_id":"levelo_inurba_marseille","lat":43.24017,"lon":5.37781,"is_reserved":false,"is_disabled":false,"rental_uris":{"android":"levelo://app?vid=80b5e9ba-45aa-4f07-a76d-689c757a3ac7","ios":"levelo://app?vid=80b5e9ba-45aa-4f07-a76d-689c757a3ac7"},"vehicle_type_id":"4","last_reported":1737969057,"current_range_meters":38400,"station_id":"","pricing_plan_id":"cebpf4jnsgd1na2vs0mg"},{"bike_id":"90c45c03-474d-4d4e-81af-b81640b4b6d9","system_id":"levelo_inurba_marseille","lat":43.30948,"lon":5.39047,"is_reserved":false,"is_disabled":false,"rental_uris":{"android":"levelo://app?vid=90c45c03-474d-4d4e-81af-b81640b4b6d9","ios":"levelo://app?vid=90c45c03-474d-4d4e-81af-b81640b4b6d9"},"vehicle_type_id":"4","last_reported":1737969057,"current_range_meters":18000,"station_id":"ce4bgup2rcd13ifvqco0","pricing_plan_id":"cebpf4jnsgd1na2vs0mg"},{"bike_id":"eb8e2715-50e8-4f9c-aaa7-763acdecaa89","system_id":"levelo_inurba_marseille","lat":43.29743,"lon":5.36889,"is_reserved":false,"is_disabled":true,"rental_uris":{"android":"levelo://app?vid=eb8e2715-50e8-4f9c-aaa7-763acdecaa89","ios":"levelo://app?vid=eb8e2715-50e8-4f9c-aaa7-763acdecaa89"},"vehicle_type_id":"4","last_reported":1737969057,"current_range_meters":1200,"station_id":"","pricing_plan_id":"cebpf4jnsgd1na2vs0mg"},{"bike_id":"5bfe4cc7-48e4-4417-a580-189db90fa859","system_id":"levelo_inurba_marseille","lat":43.28707,"lon":5.3998,"is_reserved":false,"is_disabled":false,"rental_uris":{"android":"levelo://app?vid=5bfe4cc7-48e4-4417-a580-189db90fa859","ios":"levelo://app?vid=5bfe4cc7-48e4-4417-a580-189db90fa859"},"vehicle_type_id":"4","last_reported":1737969057,"current_range_meters":26800,"station_id":"ce4bho92rcd13ifvqh3g","pricing_plan_id":"cebpf4jnsgd1na2vs0mg"},{"bike_id":"2e0a8b86-b457-48a0-8577-213b01080398","system_id":"levelo_inurba_marseille","lat":43.23188,"lon":5.35556,"is_reserved":false,"is_disabled":false,"rental_uris":{"android":"levelo://app?vid=2e0a8b86-b457-48a0-8577-213b01080398","ios":"levelo://app?vid=2e0a8b86-b457-48a0-8577-213b01080398"},"vehicle_type_id":"4","last_reported":1737969057,"current_range_meters":38800,"station_id":"ce4bhu92rcd13ifvqi70","pricing_plan_id":"cebpf4jnsgd1na2vs0mg"},{"bike_id":"d2e14334-91cf-4683-8086-fad56bb3beac","system_id":"levelo_inurba_marseille","lat":43.30534,"lon":5.36545,"is_reserved":false,"is_disabled":false,"rental_uris":{"android":"levelo://app?vid=d2e14334-91cf-4683-8086-fad56bb3beac","ios":"levelo://app?vid=d2e14334-91cf-4683-8086-fad56bb3beac"},"vehicle_type_id":"4","last_reported":1737969057,"current_range_meters":27600,"station_id":"ce4bgs12rcd13ifvqcag","pricing_plan_id":"cebpf4jnsgd1na2vs0mg"},{"bike_id":"a7cf4467-440c-4bb8-a849-e8f193507576","system_id":"levelo_inurba_marseille","lat":43.29716,"lon":5.37609,"is_reserved":false,"is_disabled":false,"rental_uris":{"android":"levelo://app?vid=a7cf4467-440c-4bb8-a849-e8f193507576","ios":"levelo://app?vid=a7cf4467-440c-4bb8-a849-e8f193507576"},"vehicle_type_id":"4","last_reported":1737969057,"current_range_meters":25200,"station_id":"","pricing_plan_id":"cebpf4jnsgd1na2vs0mg"},{"bike_id":"d979d8d2-ec65-47af-9229-e4270aab279a","system_id":"levelo_inurba_marseille","lat":43.23068,"lon":5.35501,"is_reserved":false,"is_disabled":false,"rental_uris":{"android":"levelo://app?vid=d979d8d2-ec65-47af-9229-e4270aab279a","ios":"levelo://app?vid=d979d8d2-ec65-47af-9229-e4270aab279a"},"vehicle_type_id":"4","last_reported":1737969057,"current_range_meters":28400,"station_id":"cpo3342slgdg3j2ifvpg","pricing_plan_id":"cebpf4jnsgd1na2vs0mg"},{"bike_id":"1f4e05f5-f7cd-439c-85aa-38dd0d03f92b","system_id":"levelo_inurba_marseille","lat":43.29041,"lon":5.3996,"is_reserved":false,"is_disabled":false,"rental_uris":{"android":"levelo://app?vid=1f4e05f5-f7cd-439c-85aa-38dd0d03f92b","ios":"levelo://app?vid=1f4e05f5-f7cd-439c-85aa-38dd0d03f92b"},"vehicle_type_id":"4","last_reported":1737969057,"current_range_meters":12400,"station_id":"ce4bh392rcd13ifvqdm0","pricing_plan_id":"cebpf4jnsgd1na2vs0mg"},{"bike_id":"816b735b-c1a8-40cd-8880-1a687fb93112","system_id":"levelo_inurba_marseille","lat":43.28569,"lon":5.39502,"is_reserved":false,"is_disabled":false,"rental_uris":{"android":"levelo://app?vid=816b735b-c1a8-40cd-8880-1a687fb93112","ios":"levelo://app?vid=816b735b-c1a8-40cd-8880-1a687fb93112"},"vehicle_type_id":"4","last_reported":1737969057,"current_range_meters":30800,"station_id":"ce4bh292rcd13ifvqdg0","pricing_plan_id":"cebpf4jnsgd1na2vs0mg"},{"bike_id":"d2f46f7d-2b81-439d-b204-7f1db040effc","system_id":"levelo_inurba_marseille","lat":43.28947,"lon":5.39633,"is_reserved":false,"is_disabled":false,"rental_uris":{"android":"levelo://app?vid=d2f46f7d-2b81-439d-b204-7f1db040effc","ios":"levelo://app?vid=d2f46f7d-2b81-439d-b204-7f1db040effc"},"vehicle_type_id":"4","last_reported":1737969057,"current_range_meters":19200,"station_id":"ce4bh3h2rcd13ifvqdn0","pricing_plan_id":"cebpf4jnsgd1na2vs0mg"},{"bike_id":"886ba860-c770-4a8b-afde-b5a18246d6fd","system_id":"levelo_inurba_marseille","lat":43.27837,"lon":5.39221,"is_reserved":false,"is_disabled":false,"rental_uris":{"android":"levelo://app?vid=886ba860-c770-4a8b-afde-b5a18246d6fd","ios":"levelo://app?vid=886ba860-c770-4a8b-afde-b5a18246d6fd"},"vehicle_type_id":"4","last_reported":1737969057,"current_range_meters":38400,"station_id":"ce4bhjp2rcd13ifvqga0","pricing_plan_id":"cebpf4jnsgd1na2vs0mg"},{"bike_id":"5c15f1a0-f3a9-4acd-b448-15018003ef2e","system_id":"levelo_inurba_marseille","lat":43.32537,"lon":5.41459,"is_reserved":false,"is_disabled":false,"rental_uris":{"android":"levelo://app?vid=5c15f1a0-f3a9-4acd-b448-15018003ef2e","ios":"levelo://app?vid=5c15f1a0-f3a9-4acd-b448-15018003ef2e"},"vehicle_type_id":"4","last_reported":1737969057,"current_range_meters":25600,"station_id":"ce4bhq12rcd13ifvqhhg","pricing_plan_id":"cebpf4jnsgd1na2vs0mg"},{"bike_id":"52d554ff-cc84-4bb5-96f5-8da285f6a8e6","system_id":"levelo_inurba_marseille","lat":43.29599,"lon":5.38101,"is_reserved":false,"is_disabled":false,"rental_uris":{"android":"levelo://app?vid=52d554ff-cc84-4bb5-96f5-8da285f6a8e6","ios":"levelo://app?vid=52d554ff-cc84-4bb5-96f5-8da285f6a8e6"},"vehicle_type_id":"4","last_reported":1737969057,"current_range_meters":15200,"station_id":"ce4bgl12rcd13ifvqbo0","pricing_plan_id":"cebpf4jnsgd1na2vs0mg"},{"bike_id":"ef4bab03-abf1-443e-ae40-03e546653a1b","system_id":"levelo_inurba_marseille","lat":43.31338,"lon":5.36754,"is_reserved":false,"is_disabled":false,"rental_uris":{"android":"levelo://app?vid=ef4bab03-abf1-443e-ae40-03e546653a1b","ios":"levelo://app?vid=ef4bab03-abf1-443e-ae40-03e546653a1b"},"vehicle_type_id":"4","last_reported":1737969057,"current_range_meters":6800,"station_id":"ce4bgr92rcd13ifvqc6g","pricing_plan_id":"cebpf4jnsgd1na2vs0mg"},{"bike_id":"78fbced5-d135-40a3-84ff-24049746b37b","system_id":"levelo_inurba_marseille","lat":43.30151,"lon":5.38096,"is_reserved":false,"is_disabled":false,"rental_uris":{"android":"levelo://app?vid=78fbced5-d135-40a3-84ff-24049746b37b","ios":"levelo://app?vid=78fbced5-d135-40a3-84ff-24049746b37b"},"vehicle_type_id":"4","last_reported":1737969057,"current_range_meters":37600,"station_id":"ce4bgjp2rcd13ifvqbh0","pricing_plan_id":"cebpf4jnsgd1na2vs0mg"},{"bike_id":"5925b8fe-d4e7-4c76-8ad0-bdc7c063ae3e","system_id":"levelo_inurba_marseille","lat":43.30473,"lon":5.37912,"is_reserved":false,"is_disabled":false,"rental_uris":{"android":"levelo://app?vid=5925b8fe-d4e7-4c76-8ad0-bdc7c063ae3e","ios":"levelo://app?vid=5925b8fe-d4e7-4c76-8ad0-bdc7c063ae3e"},"vehicle_type_id":"4","last_reported":1737969057,"current_range_meters":26000,"station_id":"ce4bgup2rcd13ifvqcn0","pricing_plan_id":"cebpf4jnsgd1na2vs0mg"},{"bike_id":"5ca23b61-eed9-4acf-bda1-100d676c6ed9","system_id":"levelo_inurba_marseille","lat":43.30907,"lon":5.36857,"is_reserved":false,"is_disabled":false,"rental_uris":{"android":"levelo://app?vid=5ca23b61-eed9-4acf-bda1-100d676c6ed9","ios":"levelo://app?vid=5ca23b61-eed9-4acf-bda1-100d676c6ed9"},"vehicle_type_id":"4","last_reported":1737969057,"current_range_meters":12400,"station_id":"ce4bgn92rcd13ifvqbvg","pricing_plan_id":"cebpf4jnsgd1na2vs0mg"},{"bike_id":"30bbb00e-1612-4a25-b2e9-c8ad656fb58a","system_id":"levelo_inurba_marseille","lat":43.33716,"lon":5.392,"is_reserved":false,"is_disabled":false,"rental_uris":{"android":"levelo://app?vid=30bbb00e-1612-4a25-b2e9-c8ad656fb58a","ios":"levelo://app?vid=30bbb00e-1612-4a25-b2e9-c8ad656fb58a"},"vehicle_type_id":"4","last_reported":1737969057,"current_range_meters":38800,"station_id":"ce4bhr92rcd13ifvqhsg","pricing_plan_id":"cebpf4jnsgd1na2vs0mg"},{"bike_id":"005330c6-9ea4-44b1-af35-6b68ca394cb6","system_id":"levelo_inurba_marseille","lat":43.30949,"lon":5.39049,"is_reserved":false,"is_disabled":false,"rental_uris":{"android":"levelo://app?vid=005330c6-9ea4-44b1-af35-6b68ca394cb6","ios":"levelo://app?vid=005330c6-9ea4-44b1-af35-6b68ca394cb6"},"vehicle_type_id":"4","last_reported":1737969057,"current_range_meters":38800,"station_id":"ce4bgup2rcd13ifvqco0","pricing_plan_id":"cebpf4jnsgd1na2vs0mg"},{"bike_id":"ee1b69c0-caac-4ecf-b220-3c793b5960ce","system_id":"levelo_inurba_marseille","lat":43.32528,"lon":5.41488,"is_reserved":false,"is_disabled":false,"rental_uris":{"android":"levelo://app?vid=ee1b69c0-caac-4ecf-b220-3c793b5960ce","ios":"levelo://app?vid=ee1b69c0-caac-4ecf-b220-3c793b5960ce"},"vehicle_type_id":"4","last_reported":1737969057,"current_range_meters":37600,"station_id":"ce4bhq12rcd13ifvqhhg","pricing_plan_id":"cebpf4jnsgd1na2vs0mg"},{"bike_id":"6917a016-fa2f-4726-952b-ffe1167166a3","system_id":"levelo_inurba_marseille","lat":43.26075,"lon":5.39394,"is_reserved":false,"is_disabled":true,"rental_uris":{"android":"levelo://app?vid=6917a016-fa2f-4726-952b-ffe1167166a3","ios":"levelo://app?vid=6917a016-fa2f-4726-952b-ffe1167166a3"},"vehicle_type_id":"4","last_reported":1737969057,"current_range_meters":0,"station_id":"ce4bhh92rcd13ifvqfj0","pricing_plan_id":"cebpf4jnsgd1na2vs0mg"},{"bike_id":"4cb596df-44fd-4741-9495-cfdb53019931","system_id":"levelo_inurba_marseille","lat":43.23158,"lon":5.43709,"is_reserved":false,"is_disabled":false,"rental_uris":{"android":"levelo://app?vid=4cb596df-44fd-4741-9495-cfdb53019931","ios":"levelo://app?vid=4cb596df-44fd-4741-9495-cfdb53019931"},"vehicle_type_id":"4","last_reported":1737969057,"current_range_meters":27200,"station_id":"ce4bhmp2rcd13ifvqgog","pricing_plan_id":"cebpf4jnsgd1na2vs0mg"},{"bike_id":"c5627c60-e404-4358-bde9-9fe552f27af1","system_id":"levelo_inurba_marseille","lat":43.29791,"lon":5.38103,"is_reserved":false,"is_disabled":false,"rental_uris":{"android":"levelo://app?vid=c5627c60-e404-4358-bde9-9fe552f27af1","ios":"levelo://app?vid=c5627c60-e404-4358-bde9-9fe552f27af1"},"vehicle_type_id":"4","last_reported":1737969057,"current_range_meters":36000,"station_id":"ce4bgip2rcd13ifvqbb0","pricing_plan_id":"cebpf4jnsgd1na2vs0mg"},{"bike_id":"4d94131b-b295-4717-b73a-3d3660c7ce50","system_id":"levelo_inurba_marseille","lat":43.27489,"lon":5.42465,"is_reserved":false,"is_disabled":false,"rental_uris":{"android":"levelo://app?vid=4d94131b-b295-4717-b73a-3d3660c7ce50","ios":"levelo://app?vid=4d94131b-b295-4717-b73a-3d3660c7ce50"},"vehicle_type_id":"4","last_reported":1737969057,"current_range_meters":24400,"station_id":"ce4bhn92rcd13ifvqgrg","pricing_plan_id":"cebpf4jnsgd1na2vs0mg"},{"bike_id":"acf4cec9-04b2-432c-83ba-19cc7ebac443","system_id":"levelo_inurba_marseille","lat":43.29036,"lon":5.38125,"is_reserved":false,"is_disabled":true,"rental_uris":{"android":"levelo://app?vid=acf4cec9-04b2-432c-83ba-19cc7ebac443","ios":"levelo://app?vid=acf4cec9-04b2-432c-83ba-19cc7ebac443"},"vehicle_type_id":"4","last_reported":1737969057,"current_range_meters":24400,"station_id":"ce4bh4p2rcd13ifvqe1g","pricing_plan_id":"cebpf4jnsgd1na2vs0mg"},{"bike_id":"3c9c9088-9c27-4609-bc62-8218c0dc2be8","system_id":"levelo_inurba_marseille","lat":43.23193,"lon":5.35554,"is_reserved":false,"is_disabled":false,"rental_uris":{"android":"levelo://app?vid=3c9c9088-9c27-4609-bc62-8218c0dc2be8","ios":"levelo://app?vid=3c9c9088-9c27-4609-bc62-8218c0dc2be8"},"vehicle_type_id":"4","last_reported":1737969057,"current_range_meters":37600,"station_id":"ce4bhu92rcd13ifvqi70","pricing_plan_id":"cebpf4jnsgd1na2vs0mg"},{"bike_id":"8a4fd9c1-126f-44bd-8919-7cf37f162b5e","system_id":"levelo_inurba_marseille","lat":43.28166,"lon":5.42641,"is_reserved":false,"is_disabled":false,"rental_uris":{"android":"levelo://app?vid=8a4fd9c1-126f-44bd-8919-7cf37f162b5e","ios":"levelo://app?vid=8a4fd9c1-126f-44bd-8919-7cf37f162b5e"},"vehicle_type_id":"4","last_reported":1737969057,"current_range_meters":31200,"station_id":"ce4bhnh2rcd13ifvqgug","pricing_plan_id":"cebpf4jnsgd1na2vs0mg"},{"bike_id":"908611cd-358e-457c-a364-8caf0fc92ab1","system_id":"levelo_inurba_marseille","lat":43.336,"lon":5.41022,"is_reserved":false,"is_disabled":false,"rental_uris":{"android":"levelo://app?vid=908611cd-358e-457c-a364-8caf0fc92ab1","ios":"levelo://app?vid=908611cd-358e-457c-a364-8caf0fc92ab1"},"vehicle_type_id":"4","last_reported":1737969057,"current_range_meters":36800,"station_id":"ce4bhqh2rcd13ifvqhmg","pricing_plan_id":"cebpf4jnsgd1na2vs0mg"},{"bike_id":"02a65308-936d-4187-b4db-c0afc2d3e10c","system_id":"levelo_inurba_marseille","lat":43.25936,"lon":5.40885,"is_reserved":false,"is_disabled":false,"rental_uris":{"android":"levelo://app?vid=02a65308-936d-4187-b4db-c0afc2d3e10c","ios":"levelo://app?vid=02a65308-936d-4187-b4db-c0afc2d3e10c"},"vehicle_type_id":"4","last_reported":1737969057,"current_range_meters":38400,"station_id":"ce4bhm92rcd13ifvqglg","pricing_plan_id":"cebpf4jnsgd1na2vs0mg"},{"bike_id":"2aecbdc6-65aa-4381-a01d-4342c5e55a55","system_id":"levelo_inurba_marseille","lat":43.29891,"lon":5.43658,"is_reserved":false,"is_disabled":false,"rental_uris":{"android":"levelo://app?vid=2aecbdc6-65aa-4381-a01d-4342c5e55a55","ios":"levelo://app?vid=2aecbdc6-65aa-4381-a01d-4342c5e55a55"},"vehicle_type_id":"4","last_reported":1737969057,"current_range_meters":17200,"station_id":"ce4bhpp2rcd13ifvqhfg","pricing_plan_id":"cebpf4jnsgd1na2vs0mg"},{"bike_id":"427197db-011a-4f01-9ced-bccbb9608a6e","system_id":"levelo_inurba_marseille","lat":43.30553,"lon":5.36704,"is_reserved":false,"is_disabled":false,"rental_uris":{"android":"levelo://app?vid=427197db-011a-4f01-9ced-bccbb9608a6e","ios":"levelo://app?vid=427197db-011a-4f01-9ced-bccbb9608a6e"},"vehicle_type_id":"4","last_reported":1737969057,"current_range_meters":30400,"station_id":"ce4bgrp2rcd13ifvqc9g","pricing_plan_id":"cebpf4jnsgd1na2vs0mg"},{"bike_id":"a8ebf96a-72c6-49a1-9891-ec74b107e794","system_id":"levelo_inurba_marseille","lat":43.231957,"lon":5.355509,"is_reserved":false,"is_disabled":false,"rental_uris":{"android":"levelo://app?vid=a8ebf96a-72c6-49a1-9891-ec74b107e794","ios":"levelo://app?vid=a8ebf96a-72c6-49a1-9891-ec74b107e794"},"vehicle_type_id":"4","last_reported":1737969057,"current_range_meters":12000,"station_id":"ce4bhu92rcd13ifvqi70","pricing_plan_id":"cebpf4jnsgd1na2vs0mg"},{"bike_id":"32b74d79-3aba-4260-afb4-fe5484579572","system_id":"levelo_inurba_marseille","lat":43.2696,"lon":5.38632,"is_reserved":false,"is_disabled":false,"rental_uris":{"android":"levelo://app?vid=32b74d79-3aba-4260-afb4-fe5484579572","ios":"levelo://app?vid=32b74d79-3aba-4260-afb4-fe5484579572"},"vehicle_type_id":"4","last_reported":1737969057,"current_range_meters":38800,"station_id":"ce4bhh92rcd13ifvqfh0","pricing_plan_id":"cebpf4jnsgd1na2vs0mg"},{"bike_id":"f6b4cb0c-33ed-42d1-bd3a-a3fcd2133ffc","system_id":"levelo_inurba_marseille","lat":43.29539,"lon":5.42278,"is_reserved":false,"is_disabled":false,"rental_uris":{"android":"levelo://app?vid=f6b4cb0c-33ed-42d1-bd3a-a3fcd2133ffc","ios":"levelo://app?vid=f6b4cb0c-33ed-42d1-bd3a-a3fcd2133ffc"},"vehicle_type_id":"4","last_reported":1737969057,"current_range_meters":38800,"station_id":"ce4bhph2rcd13ifvqhdg","pricing_plan_id":"cebpf4jnsgd1na2vs0mg"},{"bike_id":"e9bc701b-86ce-45d6-bb9e-c295f6ce732c","system_id":"levelo_inurba_marseille","lat":43.30678,"lon":5.40113,"is_reserved":false,"is_disabled":true,"rental_uris":{"android":"levelo://app?vid=e9bc701b-86ce-45d6-bb9e-c295f6ce732c","ios":"levelo://app?vid=e9bc701b-86ce-45d6-bb9e-c295f6ce732c"},"vehicle_type_id":"4","last_reported":1737969057,"current_range_meters":30800,"station_id":"ce4bh112rcd13ifvqda0","pricing_plan_id":"cebpf4jnsgd1na2vs0mg"},{"bike_id":"ebbb6dd1-ea2a-4b9e-a0fd-f2fc38df1042","system_id":"levelo_inurba_marseille","lat":43.24998,"lon":5.3895,"is_reserved":false,"is_disabled":false,"rental_uris":{"android":"levelo://app?vid=ebbb6dd1-ea2a-4b9e-a0fd-f2fc38df1042","ios":"levelo://app?vid=ebbb6dd1-ea2a-4b9e-a0fd-f2fc38df1042"},"vehicle_type_id":"4","last_reported":1737969057,"current_range_meters":37600,"station_id":"ce4bhgp2rcd13ifvqfd0","pricing_plan_id":"cebpf4jnsgd1na2vs0mg"},{"bike_id":"bba6c7d2-3568-4ccc-8835-01a759d4b4f4","system_id":"levelo_inurba_marseille","lat":43.28723,"lon":5.39989,"is_reserved":false,"is_disabled":false,"rental_uris":{"android":"levelo://app?vid=bba6c7d2-3568-4ccc-8835-01a759d4b4f4","ios":"levelo://app?vid=bba6c7d2-3568-4ccc-8835-01a759d4b4f4"},"vehicle_type_id":"4","last_reported":1737969057,"current_range_meters":38800,"station_id":"ce4bho92rcd13ifvqh3g","pricing_plan_id":"cebpf4jnsgd1na2vs0mg"},{"bike_id":"290b508c-6f29-4b8e-bddc-d92497307641","system_id":"levelo_inurba_marseille","lat":43.29792,"lon":5.37102,"is_reserved":false,"is_disabled":false,"rental_uris":{"android":"levelo://app?vid=290b508c-6f29-4b8e-bddc-d92497307641","ios":"levelo://app?vid=290b508c-6f29-4b8e-bddc-d92497307641"},"vehicle_type_id":"4","last_reported":1737969057,"current_range_meters":38000,"station_id":"ce4bgop2rcd13ifvqc1g","pricing_plan_id":"cebpf4jnsgd1na2vs0mg"},{"bike_id":"b5f9da4a-0440-436b-86f5-ecc367051a64","system_id":"levelo_inurba_marseille","lat":43.29828,"lon":5.36274,"is_reserved":false,"is_disabled":false,"rental_uris":{"android":"levelo://app?vid=b5f9da4a-0440-436b-86f5-ecc367051a64","ios":"levelo://app?vid=b5f9da4a-0440-436b-86f5-ecc367051a64"},"vehicle_type_id":"4","last_reported":1737969057,"current_range_meters":32000,"station_id":"ce4bgpp2rcd13ifvqc3g","pricing_plan_id":"cebpf4jnsgd1na2vs0mg"},{"bike_id":"ce732d49-5963-47e6-8c0d-3def73ae88b1","system_id":"levelo_inurba_marseille","lat":43.27666,"lon":5.38906,"is_reserved":false,"is_disabled":false,"rental_uris":{"android":"levelo://app?vid=ce732d49-5963-47e6-8c0d-3def73ae88b1","ios":"levelo://app?vid=ce732d49-5963-47e6-8c0d-3def73ae88b1"},"vehicle_type_id":"4","last_reported":1737969057,"current_range_meters":39200,"station_id":"ce4bhi12rcd13ifvqfo0","pricing_plan_id":"cebpf4jnsgd1na2vs0mg"},{"bike_id":"091ec011-b792-4fc7-8fe9-55cd6cf698d6","system_id":"levelo_inurba_marseille","lat":43.28698,"lon":5.39917,"is_reserved":false,"is_disabled":false,"rental_uris":{"android":"levelo://app?vid=091ec011-b792-4fc7-8fe9-55cd6cf698d6","ios":"levelo://app?vid=091ec011-b792-4fc7-8fe9-55cd6cf698d6"},"vehicle_type_id":"4","last_reported":1737969057,"current_range_meters":38800,"station_id":"ce4bh292rcd13ifvqdg0","pricing_plan_id":"cebpf4jnsgd1na2vs0mg"},{"bike_id":"59dc22f3-ddcf-46d7-8fd4-52d9969e899d","system_id":"levelo_inurba_marseille","lat":43.29036,"lon":5.37559,"is_reserved":false,"is_disabled":false,"rental_uris":{"android":"levelo://app?vid=59dc22f3-ddcf-46d7-8fd4-52d9969e899d","ios":"levelo://app?vid=59dc22f3-ddcf-46d7-8fd4-52d9969e899d"},"vehicle_type_id":"4","last_reported":1737969057,"current_range_meters":19200,"station_id":"ce4bh692rcd13ifvqe90","pricing_plan_id":"cebpf4jnsgd1na2vs0mg"},{"bike_id":"e77f4a3c-5357-4959-a3f1-e8d754926725","system_id":"levelo_inurba_marseille","lat":43.26551,"lon":5.37285,"is_reserved":false,"is_disabled":false,"rental_uris":{"android":"levelo://app?vid=e77f4a3c-5357-4959-a3f1-e8d754926725","ios":"levelo://app?vid=e77f4a3c-5357-4959-a3f1-e8d754926725"},"vehicle_type_id":"4","last_reported":1737969057,"current_range_meters":18000,"station_id":"ce4bhg12rcd13ifvqf70","pricing_plan_id":"cebpf4jnsgd1na2vs0mg"},{"bike_id":"3cd8d72b-f1ac-49cc-ba3b-d9273a75292c","system_id":"levelo_inurba_marseille","lat":43.24172,"lon":5.36405,"is_reserved":false,"is_disabled":false,"rental_uris":{"android":"levelo://app?vid=3cd8d72b-f1ac-49cc-ba3b-d9273a75292c","ios":"levelo://app?vid=3cd8d72b-f1ac-49cc-ba3b-d9273a75292c"},"vehicle_type_id":"4","last_reported":1737969057,"current_range_meters":28800,"station_id":"cpo36qri1sfpv3e86is0","pricing_plan_id":"cebpf4jnsgd1na2vs0mg"},{"bike_id":"d54e7416-9133-47cb-bc55-3d590b1f98b8","system_id":"levelo_inurba_marseille","lat":43.286424,"lon":5.363682,"is_reserved":false,"is_disabled":true,"rental_uris":{"android":"levelo://app?vid=d54e7416-9133-47cb-bc55-3d590b1f98b8","ios":"levelo://app?vid=d54e7416-9133-47cb-bc55-3d590b1f98b8"},"vehicle_type_id":"4","last_reported":1737969057,"current_range_meters":0,"station_id":"ce4bhah2rcd13ifvqej0","pricing_plan_id":"cebpf4jnsgd1na2vs0mg"},{"bike_id":"f50c99f6-d9ef-4353-96c0-f0ed3401e807","system_id":"levelo_inurba_marseille","lat":43.24641,"lon":5.3891,"is_reserved":false,"is_disabled":false,"rental_uris":{"android":"levelo://app?vid=f50c99f6-d9ef-4353-96c0-f0ed3401e807","ios":"levelo://app?vid=f50c99f6-d9ef-4353-96c0-f0ed3401e807"},"vehicle_type_id":"4","last_reported":1737969057,"current_range_meters":38800,"station_id":"ce4bhg12rcd13ifvqf60","pricing_plan_id":"cebpf4jnsgd1na2vs0mg"},{"bike_id":"f3517fa1-709e-4952-b6fa-124b29197995","system_id":"levelo_inurba_marseille","lat":43.33606,"lon":5.41031,"is_reserved":false,"is_disabled":false,"rental_uris":{"android":"levelo://app?vid=f3517fa1-709e-4952-b6fa-124b29197995","ios":"levelo://app?vid=f3517fa1-709e-4952-b6fa-124b29197995"},"vehicle_type_id":"4","last_reported":1737969057,"current_range_meters":28400,"station_id":"ce4bhqh2rcd13ifvqhmg","pricing_plan_id":"cebpf4jnsgd1na2vs0mg"},{"bike_id":"631482de-e262-4bc1-a01f-c4d9ef51dfa7","system_id":"levelo_inurba_marseille","lat":43.30356,"lon":5.41882,"is_reserved":false,"is_disabled":false,"rental_uris":{"android":"levelo://app?vid=631482de-e262-4bc1-a01f-c4d9ef51dfa7","ios":"levelo://app?vid=631482de-e262-4bc1-a01f-c4d9ef51dfa7"},"vehicle_type_id":"4","last_reported":1737969057,"current_range_meters":38400,"station_id":"ce4bhop2rcd13ifvqh7g","pricing_plan_id":"cebpf4jnsgd1na2vs0mg"},{"bike_id":"c69c6cf3-d3ef-4f36-b5b5-568505418c77","system_id":"levelo_inurba_marseille","lat":43.28661,"lon":5.38678,"is_reserved":false,"is_disabled":false,"rental_uris":{"android":"levelo://app?vid=c69c6cf3-d3ef-4f36-b5b5-568505418c77","ios":"levelo://app?vid=c69c6cf3-d3ef-4f36-b5b5-568505418c77"},"vehicle_type_id":"4","last_reported":1737969057,"current_range_meters":38400,"station_id":"ce4bh492rcd13ifvqdug","pricing_plan_id":"cebpf4jnsgd1na2vs0mg"},{"bike_id":"0234500d-df73-4eb0-9c5c-2bca1fe5e0cf","system_id":"levelo_inurba_marseille","lat":43.25821,"lon":5.39426,"is_reserved":false,"is_disabled":false,"rental_uris":{"android":"levelo://app?vid=0234500d-df73-4eb0-9c5c-2bca1fe5e0cf","ios":"levelo://app?vid=0234500d-df73-4eb0-9c5c-2bca1fe5e0cf"},"vehicle_type_id":"4","last_reported":1737969057,"current_range_meters":34000,"station_id":"ce4bhip2rcd13ifvqft0","pricing_plan_id":"cebpf4jnsgd1na2vs0mg"},{"bike_id":"1c35c755-8b1c-439e-8798-f1a001a3969d","system_id":"levelo_inurba_marseille","lat":43.28093,"lon":5.37855,"is_reserved":false,"is_disabled":true,"rental_uris":{"android":"levelo://app?vid=1c35c755-8b1c-439e-8798-f1a001a3969d","ios":"levelo://app?vid=1c35c755-8b1c-439e-8798-f1a001a3969d"},"vehicle_type_id":"4","last_reported":1737969057,"current_range_meters":0,"station_id":"ce4bha12rcd13ifvqee0","pricing_plan_id":"cebpf4jnsgd1na2vs0mg"},{"bike_id":"919abb9f-7f59-47cb-bf65-694df1f42365","system_id":"levelo_inurba_marseille","lat":43.32336,"lon":5.40618,"is_reserved":false,"is_disabled":false,"rental_uris":{"android":"levelo://app?vid=919abb9f-7f59-47cb-bf65-694df1f42365","ios":"levelo://app?vid=919abb9f-7f59-47cb-bf65-694df1f42365"},"vehicle_type_id":"4","last_reported":1737969057,"current_range_meters":21600,"station_id":"ce4bhq92rcd13ifvqhjg","pricing_plan_id":"cebpf4jnsgd1na2vs0mg"},{"bike_id":"b0325b31-6e06-44e4-b7c2-c542d11011f6","system_id":"levelo_inurba_marseille","lat":43.289705,"lon":5.378467,"is_reserved":false,"is_disabled":false,"rental_uris":{"android":"levelo://app?vid=b0325b31-6e06-44e4-b7c2-c542d11011f6","ios":"levelo://app?vid=b0325b31-6e06-44e4-b7c2-c542d11011f6"},"vehicle_type_id":"4","last_reported":1737969057,"current_range_meters":31200,"station_id":"ce4bh9p2rcd13ifvqed0","pricing_plan_id":"cebpf4jnsgd1na2vs0mg"},{"bike_id":"a620cb61-d42e-474d-b7ce-f4db697a5ece","system_id":"levelo_inurba_marseille","lat":43.30308,"lon":5.39207,"is_reserved":false,"is_disabled":true,"rental_uris":{"android":"levelo://app?vid=a620cb61-d42e-474d-b7ce-f4db697a5ece","ios":"levelo://app?vid=a620cb61-d42e-474d-b7ce-f4db697a5ece"},"vehicle_type_id":"4","last_reported":1737969057,"current_range_meters":0,"station_id":"ce4bgkh2rcd13ifvqbk0","pricing_plan_id":"cebpf4jnsgd1na2vs0mg"},{"bike_id":"e8bdfb9a-323d-49f3-95a9-5caec43068d3","system_id":"levelo_inurba_marseille","lat":43.32266,"lon":5.3829,"is_reserved":false,"is_disabled":false,"rental_uris":{"android":"levelo://app?vid=e8bdfb9a-323d-49f3-95a9-5caec43068d3","ios":"levelo://app?vid=e8bdfb9a-323d-49f3-95a9-5caec43068d3"},"vehicle_type_id":"4","last_reported":1737969057,"current_range_meters":29600,"station_id":"ce4bhr12rcd13ifvqhqg","pricing_plan_id":"cebpf4jnsgd1na2vs0mg"},{"bike_id":"4df2a845-0c01-44df-9066-683f72b76f35","system_id":"levelo_inurba_marseille","lat":43.30953,"lon":5.39051,"is_reserved":false,"is_disabled":false,"rental_uris":{"android":"levelo://app?vid=4df2a845-0c01-44df-9066-683f72b76f35","ios":"levelo://app?vid=4df2a845-0c01-44df-9066-683f72b76f35"},"vehicle_type_id":"4","last_reported":1737969057,"current_range_meters":38400,"station_id":"ce4bgup2rcd13ifvqco0","pricing_plan_id":"cebpf4jnsgd1na2vs0mg"},{"bike_id":"2783d307-ea9b-4c9a-9ea9-379d236e2cde","system_id":"levelo_inurba_marseille","lat":43.32665,"lon":5.40994,"is_reserved":false,"is_disabled":false,"rental_uris":{"android":"levelo://app?vid=2783d307-ea9b-4c9a-9ea9-379d236e2cde","ios":"levelo://app?vid=2783d307-ea9b-4c9a-9ea9-379d236e2cde"},"vehicle_type_id":"4","last_reported":1737969057,"current_range_meters":9200,"station_id":"ce4bhpp2rcd13ifvqhgg","pricing_plan_id":"cebpf4jnsgd1na2vs0mg"},{"bike_id":"b96c22ba-a4c6-4ca8-b881-a2a2972e9bc2","system_id":"levelo_inurba_marseille","lat":43.26016,"lon":5.37556,"is_reserved":false,"is_disabled":true,"rental_uris":{"android":"levelo://app?vid=b96c22ba-a4c6-4ca8-b881-a2a2972e9bc2","ios":"levelo://app?vid=b96c22ba-a4c6-4ca8-b881-a2a2972e9bc2"},"vehicle_type_id":"4","last_reported":1737969057,"current_range_meters":28400,"station_id":"ce4bhgh2rcd13ifvqfa0","pricing_plan_id":"cebpf4jnsgd1na2vs0mg"},{"bike_id":"3b5b4cf6-2cae-49fc-b3fa-3fdc78c6224b","system_id":"levelo_inurba_marseille","lat":43.30314,"lon":5.36907,"is_reserved":false,"is_disabled":false,"rental_uris":{"android":"levelo://app?vid=3b5b4cf6-2cae-49fc-b3fa-3fdc78c6224b","ios":"levelo://app?vid=3b5b4cf6-2cae-49fc-b3fa-3fdc78c6224b"},"vehicle_type_id":"4","last_reported":1737969057,"current_range_meters":38800,"station_id":"ce4bgqh2rcd13ifvqc5g","pricing_plan_id":"cebpf4jnsgd1na2vs0mg"},{"bike_id":"017f93d7-eb0f-4b1a-94a4-58c962719523","system_id":"levelo_inurba_marseille","lat":43.29277,"lon":5.37449,"is_reserved":false,"is_disabled":false,"rental_uris":{"android":"levelo://app?vid=017f93d7-eb0f-4b1a-94a4-58c962719523","ios":"levelo://app?vid=017f93d7-eb0f-4b1a-94a4-58c962719523"},"vehicle_type_id":"4","last_reported":1737969057,"current_range_meters":39200,"station_id":"ce4bgi12rcd13ifvqb70","pricing_plan_id":"cebpf4jnsgd1na2vs0mg"},{"bike_id":"dcb50635-0e5e-4da9-b4df-329e73a63f8f","system_id":"levelo_inurba_marseille","lat":43.24175,"lon":5.397384,"is_reserved":false,"is_disabled":false,"rental_uris":{"android":"levelo://app?vid=dcb50635-0e5e-4da9-b4df-329e73a63f8f","ios":"levelo://app?vid=dcb50635-0e5e-4da9-b4df-329e73a63f8f"},"vehicle_type_id":"4","last_reported":1737969057,"current_range_meters":24400,"station_id":"ce4bhn12rcd13ifvqgpg","pricing_plan_id":"cebpf4jnsgd1na2vs0mg"},{"bike_id":"98a2cb10-0f11-4a3f-b5c2-fb63add72da7","system_id":"levelo_inurba_marseille","lat":43.23189,"lon":5.35545,"is_reserved":false,"is_disabled":false,"rental_uris":{"android":"levelo://app?vid=98a2cb10-0f11-4a3f-b5c2-fb63add72da7","ios":"levelo://app?vid=98a2cb10-0f11-4a3f-b5c2-fb63add72da7"},"vehicle_type_id":"4","last_reported":1737969057,"current_range_meters":26800,"station_id":"ce4bhu92rcd13ifvqi70","pricing_plan_id":"cebpf4jnsgd1na2vs0mg"},{"bike_id":"1346ff93-9ddb-4093-aa5d-b6cb09dfef3c","system_id":"levelo_inurba_marseille","lat":43.2885,"lon":5.35319,"is_reserved":false,"is_disabled":true,"rental_uris":{"android":"levelo://app?vid=1346ff93-9ddb-4093-aa5d-b6cb09dfef3c","ios":"levelo://app?vid=1346ff93-9ddb-4093-aa5d-b6cb09dfef3c"},"vehicle_type_id":"4","last_reported":1737969057,"current_range_meters":0,"station_id":"","pricing_plan_id":"cebpf4jnsgd1na2vs0mg"},{"bike_id":"c78051e4-f108-4892-915f-d328c363bcb9","system_id":"levelo_inurba_marseille","lat":43.33589,"lon":5.40991,"is_reserved":false,"is_disabled":false,"rental_uris":{"android":"levelo://app?vid=c78051e4-f108-4892-915f-d328c363bcb9","ios":"levelo://app?vid=c78051e4-f108-4892-915f-d328c363bcb9"},"vehicle_type_id":"4","last_reported":1737969057,"current_range_meters":39200,"station_id":"ce4bhqh2rcd13ifvqhmg","pricing_plan_id":"cebpf4jnsgd1na2vs0mg"},{"bike_id":"1d29e75c-7e1e-408c-8ece-b7be92eb3fbf","system_id":"levelo_inurba_marseille","lat":43.32536,"lon":5.4143,"is_reserved":false,"is_disabled":false,"rental_uris":{"android":"levelo://app?vid=1d29e75c-7e1e-408c-8ece-b7be92eb3fbf","ios":"levelo://app?vid=1d29e75c-7e1e-408c-8ece-b7be92eb3fbf"},"vehicle_type_id":"4","last_reported":1737969057,"current_range_meters":14000,"station_id":"ce4bhq12rcd13ifvqhhg","pricing_plan_id":"cebpf4jnsgd1na2vs0mg"},{"bike_id":"ad73b2c4-a299-42f9-8109-8e844f4e3df2","system_id":"levelo_inurba_marseille","lat":43.3135,"lon":5.36709,"is_reserved":false,"is_disabled":false,"rental_uris":{"android":"levelo://app?vid=ad73b2c4-a299-42f9-8109-8e844f4e3df2","ios":"levelo://app?vid=ad73b2c4-a299-42f9-8109-8e844f4e3df2"},"vehicle_type_id":"4","last_reported":1737969057,"current_range_meters":33200,"station_id":"ce4bgr92rcd13ifvqc6g","pricing_plan_id":"cebpf4jnsgd1na2vs0mg"},{"bike_id":"ad64d5ec-72ee-4fa1-bdcc-4d7e02016bc5","system_id":"levelo_inurba_marseille","lat":43.3048,"lon":5.37891,"is_reserved":false,"is_disabled":false,"rental_uris":{"android":"levelo://app?vid=ad64d5ec-72ee-4fa1-bdcc-4d7e02016bc5","ios":"levelo://app?vid=ad64d5ec-72ee-4fa1-bdcc-4d7e02016bc5"},"vehicle_type_id":"4","last_reported":1737969057,"current_range_meters":38800,"station_id":"ce4bgup2rcd13ifvqcn0","pricing_plan_id":"cebpf4jnsgd1na2vs0mg"},{"bike_id":"7c3a1add-fa1a-44e9-b210-58865ab9c863","system_id":"levelo_inurba_marseille","lat":43.32104,"lon":5.36786,"is_reserved":false,"is_disabled":false,"rental_uris":{"android":"levelo://app?vid=7c3a1add-fa1a-44e9-b210-58865ab9c863","ios":"levelo://app?vid=7c3a1add-fa1a-44e9-b210-58865ab9c863"},"vehicle_type_id":"4","last_reported":1737969057,"current_range_meters":26000,"station_id":"ce4bhrh2rcd13ifvqhug","pricing_plan_id":"cebpf4jnsgd1na2vs0mg"},{"bike_id":"5658bf19-5e40-4edf-ac7a-3999a5207afd","system_id":"levelo_inurba_marseille","lat":43.231969,"lon":5.355486,"is_reserved":false,"is_disabled":false,"rental_uris":{"android":"levelo://app?vid=5658bf19-5e40-4edf-ac7a-3999a5207afd","ios":"levelo://app?vid=5658bf19-5e40-4edf-ac7a-3999a5207afd"},"vehicle_type_id":"4","last_reported":1737969057,"current_range_meters":36400,"station_id":"ce4bhu92rcd13ifvqi70","pricing_plan_id":"cebpf4jnsgd1na2vs0mg"},{"bike_id":"b01b0706-3a3a-4ff1-ac0d-6b17e48eff7a","system_id":"levelo_inurba_marseille","lat":43.23189,"lon":5.35548,"is_reserved":false,"is_disabled":false,"rental_uris":{"android":"levelo://app?vid=b01b0706-3a3a-4ff1-ac0d-6b17e48eff7a","ios":"levelo://app?vid=b01b0706-3a3a-4ff1-ac0d-6b17e48eff7a"},"vehicle_type_id":"4","last_reported":1737969057,"current_range_meters":37600,"station_id":"ce4bhu92rcd13ifvqi70","pricing_plan_id":"cebpf4jnsgd1na2vs0mg"},{"bike_id":"ec7a7063-12a6-4623-8373-2e61ede33df7","system_id":"levelo_inurba_marseille","lat":43.31169,"lon":5.38718,"is_reserved":false,"is_disabled":false,"rental_uris":{"android":"levelo://app?vid=ec7a7063-12a6-4623-8373-2e61ede33df7","ios":"levelo://app?vid=ec7a7063-12a6-4623-8373-2e61ede33df7"},"vehicle_type_id":"4","last_reported":1737969057,"current_range_meters":39200,"station_id":"ce4bgv12rcd13ifvqcp0","pricing_plan_id":"cebpf4jnsgd1na2vs0mg"},{"bike_id":"a6cac1e8-77dc-491a-9dcb-0e48697bcd3f","system_id":"levelo_inurba_marseille","lat":43.30545,"lon":5.3671,"is_reserved":false,"is_disabled":false,"rental_uris":{"android":"levelo://app?vid=a6cac1e8-77dc-491a-9dcb-0e48697bcd3f","ios":"levelo://app?vid=a6cac1e8-77dc-491a-9dcb-0e48697bcd3f"},"vehicle_type_id":"4","last_reported":1737969057,"current_range_meters":33200,"station_id":"ce4bgrp2rcd13ifvqc9g","pricing_plan_id":"cebpf4jnsgd1na2vs0mg"},{"bike_id":"51665612-a659-47ca-bc3c-f42e668c369e","system_id":"levelo_inurba_marseille","lat":43.30912,"lon":5.36899,"is_reserved":false,"is_disabled":false,"rental_uris":{"android":"levelo://app?vid=51665612-a659-47ca-bc3c-f42e668c369e","ios":"levelo://app?vid=51665612-a659-47ca-bc3c-f42e668c369e"},"vehicle_type_id":"4","last_reported":1737969057,"current_range_meters":13600,"station_id":"ce4bgn92rcd13ifvqbvg","pricing_plan_id":"cebpf4jnsgd1na2vs0mg"},{"bike_id":"82268c69-bcd8-49fb-91ea-6277b4711aa7","system_id":"levelo_inurba_marseille","lat":43.25549,"lon":5.397784,"is_reserved":false,"is_disabled":false,"rental_uris":{"android":"levelo://app?vid=82268c69-bcd8-49fb-91ea-6277b4711aa7","ios":"levelo://app?vid=82268c69-bcd8-49fb-91ea-6277b4711aa7"},"vehicle_type_id":"4","last_reported":1737969057,"current_range_meters":26800,"station_id":"","pricing_plan_id":"cebpf4jnsgd1na2vs0mg"},{"bike_id":"4f36bb3d-3d4d-4f60-913b-e55e33455695","system_id":"levelo_inurba_marseille","lat":43.30544,"lon":5.36539,"is_reserved":false,"is_disabled":false,"rental_uris":{"android":"levelo://app?vid=4f36bb3d-3d4d-4f60-913b-e55e33455695","ios":"levelo://app?vid=4f36bb3d-3d4d-4f60-913b-e55e33455695"},"vehicle_type_id":"4","last_reported":1737969057,"current_range_meters":36400,"station_id":"ce4bgs12rcd13ifvqcag","pricing_plan_id":"cebpf4jnsgd1na2vs0mg"},{"bike_id":"358ea70b-11d9-47fa-b75c-b7801a957d01","system_id":"levelo_inurba_marseille","lat":43.23995,"lon":5.37778,"is_reserved":false,"is_disabled":false,"rental_uris":{"android":"levelo://app?vid=358ea70b-11d9-47fa-b75c-b7801a957d01","ios":"levelo://app?vid=358ea70b-11d9-47fa-b75c-b7801a957d01"},"vehicle_type_id":"4","last_reported":1737969057,"current_range_meters":4800,"station_id":"","pricing_plan_id":"cebpf4jnsgd1na2vs0mg"},{"bike_id":"24cfb25a-4e6b-44c9-aa4f-740815d4798b","system_id":"levelo_inurba_marseille","lat":43.30302,"lon":5.36895,"is_reserved":false,"is_disabled":false,"rental_uris":{"android":"levelo://app?vid=24cfb25a-4e6b-44c9-aa4f-740815d4798b","ios":"levelo://app?vid=24cfb25a-4e6b-44c9-aa4f-740815d4798b"},"vehicle_type_id":"4","last_reported":1737969057,"current_range_meters":33600,"station_id":"ce4bgqh2rcd13ifvqc5g","pricing_plan_id":"cebpf4jnsgd1na2vs0mg"},{"bike_id":"8a622963-2304-429c-ba24-119dc743c4db","system_id":"levelo_inurba_marseille","lat":43.28347,"lon":5.38107,"is_reserved":false,"is_disabled":false,"rental_uris":{"android":"levelo://app?vid=8a622963-2304-429c-ba24-119dc743c4db","ios":"levelo://app?vid=8a622963-2304-429c-ba24-119dc743c4db"},"vehicle_type_id":"4","last_reported":1737969057,"current_range_meters":4400,"station_id":"ce4bh412rcd13ifvqdr0","pricing_plan_id":"cebpf4jnsgd1na2vs0mg"},{"bike_id":"01e1773c-3be5-489f-b890-a0907a952fb7","system_id":"levelo_inurba_marseille","lat":43.30458,"lon":5.37902,"is_reserved":false,"is_disabled":false,"rental_uris":{"android":"levelo://app?vid=01e1773c-3be5-489f-b890-a0907a952fb7","ios":"levelo://app?vid=01e1773c-3be5-489f-b890-a0907a952fb7"},"vehicle_type_id":"4","last_reported":1737969057,"current_range_meters":38800,"station_id":"ce4bgup2rcd13ifvqcn0","pricing_plan_id":"cebpf4jnsgd1na2vs0mg"},{"bike_id":"10b1a047-be93-49dc-bba5-67085f222023","system_id":"levelo_inurba_marseille","lat":43.25574,"lon":5.38257,"is_reserved":false,"is_disabled":false,"rental_uris":{"android":"levelo://app?vid=10b1a047-be93-49dc-bba5-67085f222023","ios":"levelo://app?vid=10b1a047-be93-49dc-bba5-67085f222023"},"vehicle_type_id":"4","last_reported":1737969057,"current_range_meters":16400,"station_id":"ce4bhih2rcd13ifvqfs0","pricing_plan_id":"cebpf4jnsgd1na2vs0mg"},{"bike_id":"08500baa-0caa-40a9-b140-615d25788649","system_id":"levelo_inurba_marseille","lat":43.29551,"lon":5.42263,"is_reserved":false,"is_disabled":false,"rental_uris":{"android":"levelo://app?vid=08500baa-0caa-40a9-b140-615d25788649","ios":"levelo://app?vid=08500baa-0caa-40a9-b140-615d25788649"},"vehicle_type_id":"4","last_reported":1737969057,"current_range_meters":30800,"station_id":"ce4bhph2rcd13ifvqhdg","pricing_plan_id":"cebpf4jnsgd1na2vs0mg"},{"bike_id":"3dda2fc9-1eb1-4c8d-bf9a-28415bb5745d","system_id":"levelo_inurba_marseille","lat":43.28266,"lon":5.35072,"is_reserved":false,"is_disabled":true,"rental_uris":{"android":"levelo://app?vid=3dda2fc9-1eb1-4c8d-bf9a-28415bb5745d","ios":"levelo://app?vid=3dda2fc9-1eb1-4c8d-bf9a-28415bb5745d"},"vehicle_type_id":"4","last_reported":1737969057,"current_range_meters":0,"station_id":"ce4bhbp2rcd13ifvqerg","pricing_plan_id":"cebpf4jnsgd1na2vs0mg"},{"bike_id":"8d4a2c03-332c-43fc-94a2-34f34407062a","system_id":"levelo_inurba_marseille","lat":43.32471,"lon":5.36582,"is_reserved":false,"is_disabled":false,"rental_uris":{"android":"levelo://app?vid=8d4a2c03-332c-43fc-94a2-34f34407062a","ios":"levelo://app?vid=8d4a2c03-332c-43fc-94a2-34f34407062a"},"vehicle_type_id":"4","last_reported":1737969057,"current_range_meters":28000,"station_id":"ce4bhs12rcd13ifvqhvg","pricing_plan_id":"cebpf4jnsgd1na2vs0mg"},{"bike_id":"57823e25-308b-4f11-a2b6-a7f52902c1c5","system_id":"levelo_inurba_marseille","lat":43.30803,"lon":5.38145,"is_reserved":false,"is_disabled":true,"rental_uris":{"android":"levelo://app?vid=57823e25-308b-4f11-a2b6-a7f52902c1c5","ios":"levelo://app?vid=57823e25-308b-4f11-a2b6-a7f52902c1c5"},"vehicle_type_id":"4","last_reported":1737969057,"current_range_meters":9200,"station_id":"ce4bgt12rcd13ifvqce0","pricing_plan_id":"cebpf4jnsgd1na2vs0mg"},{"bike_id":"ff68af14-5554-4f8d-a3de-4549d987f602","system_id":"levelo_inurba_marseille","lat":43.29888,"lon":5.4365,"is_reserved":false,"is_disabled":false,"rental_uris":{"android":"levelo://app?vid=ff68af14-5554-4f8d-a3de-4549d987f602","ios":"levelo://app?vid=ff68af14-5554-4f8d-a3de-4549d987f602"},"vehicle_type_id":"4","last_reported":1737969057,"current_range_meters":38800,"station_id":"ce4bhpp2rcd13ifvqhfg","pricing_plan_id":"cebpf4jnsgd1na2vs0mg"},{"bike_id":"1a7afdb6-7f50-4322-b301-ee53fd967ce3","system_id":"levelo_inurba_marseille","lat":43.23961,"lon":5.36628,"is_reserved":false,"is_disabled":false,"rental_uris":{"android":"levelo://app?vid=1a7afdb6-7f50-4322-b301-ee53fd967ce3","ios":"levelo://app?vid=1a7afdb6-7f50-4322-b301-ee53fd967ce3"},"vehicle_type_id":"4","last_reported":1737969057,"current_range_meters":19600,"station_id":"ce4bhi12rcd13ifvqfp0","pricing_plan_id":"cebpf4jnsgd1na2vs0mg"},{"bike_id":"e372f218-4338-476f-bb3e-f258aa0c353f","system_id":"levelo_inurba_marseille","lat":43.27057,"lon":5.42275,"is_reserved":false,"is_disabled":false,"rental_uris":{"android":"levelo://app?vid=e372f218-4338-476f-bb3e-f258aa0c353f","ios":"levelo://app?vid=e372f218-4338-476f-bb3e-f258aa0c353f"},"vehicle_type_id":"4","last_reported":1737969057,"current_range_meters":7200,"station_id":"ce4bhk92rcd13ifvqgb0","pricing_plan_id":"cebpf4jnsgd1na2vs0mg"},{"bike_id":"1e328aaf-06e5-4767-a395-a9b21576497f","system_id":"levelo_inurba_marseille","lat":43.29775,"lon":5.37083,"is_reserved":false,"is_disabled":false,"rental_uris":{"android":"levelo://app?vid=1e328aaf-06e5-4767-a395-a9b21576497f","ios":"levelo://app?vid=1e328aaf-06e5-4767-a395-a9b21576497f"},"vehicle_type_id":"4","last_reported":1737969057,"current_range_meters":17600,"station_id":"ce4bgop2rcd13ifvqc1g","pricing_plan_id":"cebpf4jnsgd1na2vs0mg"},{"bike_id":"9a3980d5-1816-4adf-9378-92d37a857d9b","system_id":"levelo_inurba_marseille","lat":43.31362,"lon":5.3674,"is_reserved":false,"is_disabled":false,"rental_uris":{"android":"levelo://app?vid=9a3980d5-1816-4adf-9378-92d37a857d9b","ios":"levelo://app?vid=9a3980d5-1816-4adf-9378-92d37a857d9b"},"vehicle_type_id":"4","last_reported":1737969057,"current_range_meters":33600,"station_id":"ce4bgr92rcd13ifvqc6g","pricing_plan_id":"cebpf4jnsgd1na2vs0mg"},{"bike_id":"e318fa1a-422e-4130-97ca-69951e1a80ef","system_id":"levelo_inurba_marseille","lat":43.30137,"lon":5.38783,"is_reserved":false,"is_disabled":false,"rental_uris":{"android":"levelo://app?vid=e318fa1a-422e-4130-97ca-69951e1a80ef","ios":"levelo://app?vid=e318fa1a-422e-4130-97ca-69951e1a80ef"},"vehicle_type_id":"4","last_reported":1737969057,"current_range_meters":20400,"station_id":"ce4bhoh2rcd13ifvqh6g","pricing_plan_id":"cebpf4jnsgd1na2vs0mg"},{"bike_id":"86b498e3-784c-4315-9910-77930c320efa","system_id":"levelo_inurba_marseille","lat":43.286036,"lon":5.370734,"is_reserved":false,"is_disabled":false,"rental_uris":{"android":"levelo://app?vid=86b498e3-784c-4315-9910-77930c320efa","ios":"levelo://app?vid=86b498e3-784c-4315-9910-77930c320efa"},"vehicle_type_id":"4","last_reported":1737969057,"current_range_meters":38000,"station_id":"ce4bht12rcd13ifvqi60","pricing_plan_id":"cebpf4jnsgd1na2vs0mg"},{"bike_id":"d4b96a79-6fba-47bf-8cf9-899b5e9182b4","system_id":"levelo_inurba_marseille","lat":43.26209,"lon":5.37904,"is_reserved":false,"is_disabled":false,"rental_uris":{"android":"levelo://app?vid=d4b96a79-6fba-47bf-8cf9-899b5e9182b4","ios":"levelo://app?vid=d4b96a79-6fba-47bf-8cf9-899b5e9182b4"},"vehicle_type_id":"4","last_reported":1737969057,"current_range_meters":14400,"station_id":"ce4bhjp2rcd13ifvqg90","pricing_plan_id":"cebpf4jnsgd1na2vs0mg"},{"bike_id":"1c0f7a3d-cffd-4fff-b8b8-ad59915d1a01","system_id":"levelo_inurba_marseille","lat":43.31339,"lon":5.36754,"is_reserved":false,"is_disabled":true,"rental_uris":{"android":"levelo://app?vid=1c0f7a3d-cffd-4fff-b8b8-ad59915d1a01","ios":"levelo://app?vid=1c0f7a3d-cffd-4fff-b8b8-ad59915d1a01"},"vehicle_type_id":"4","last_reported":1737969057,"current_range_meters":0,"station_id":"ce4bgr92rcd13ifvqc6g","pricing_plan_id":"cebpf4jnsgd1na2vs0mg"},{"bike_id":"8c772f1a-bac2-41fc-878f-d0d152dc8c92","system_id":"levelo_inurba_marseille","lat":43.29178,"lon":5.38228,"is_reserved":false,"is_disabled":false,"rental_uris":{"android":"levelo://app?vid=8c772f1a-bac2-41fc-878f-d0d152dc8c92","ios":"levelo://app?vid=8c772f1a-bac2-41fc-878f-d0d152dc8c92"},"vehicle_type_id":"4","last_reported":1737969057,"current_range_meters":6400,"station_id":"","pricing_plan_id":"cebpf4jnsgd1na2vs0mg"},{"bike_id":"ad5175d1-7d67-470d-a403-c1d1bb876607","system_id":"levelo_inurba_marseille","lat":43.30102,"lon":5.39056,"is_reserved":false,"is_disabled":false,"rental_uris":{"android":"levelo://app?vid=ad5175d1-7d67-470d-a403-c1d1bb876607","ios":"levelo://app?vid=ad5175d1-7d67-470d-a403-c1d1bb876607"},"vehicle_type_id":"4","last_reported":1737969057,"current_range_meters":7200,"station_id":"ce4bh192rcd13ifvqdb0","pricing_plan_id":"cebpf4jnsgd1na2vs0mg"},{"bike_id":"6d301d54-3fe2-456f-9752-1a1a8fa0c2b5","system_id":"levelo_inurba_marseille","lat":43.31372,"lon":5.3669,"is_reserved":false,"is_disabled":false,"rental_uris":{"android":"levelo://app?vid=6d301d54-3fe2-456f-9752-1a1a8fa0c2b5","ios":"levelo://app?vid=6d301d54-3fe2-456f-9752-1a1a8fa0c2b5"},"vehicle_type_id":"4","last_reported":1737969057,"current_range_meters":38800,"station_id":"ce4bgr92rcd13ifvqc6g","pricing_plan_id":"cebpf4jnsgd1na2vs0mg"},{"bike_id":"05d9d994-ea09-41ca-aeb8-dc4b233c543b","system_id":"levelo_inurba_marseille","lat":43.29013,"lon":5.38633,"is_reserved":false,"is_disabled":true,"rental_uris":{"android":"levelo://app?vid=05d9d994-ea09-41ca-aeb8-dc4b233c543b","ios":"levelo://app?vid=05d9d994-ea09-41ca-aeb8-dc4b233c543b"},"vehicle_type_id":"4","last_reported":1737969057,"current_range_meters":28000,"station_id":"ce4bh4p2rcd13ifvqe0g","pricing_plan_id":"cebpf4jnsgd1na2vs0mg"},{"bike_id":"98cd4406-dd34-4787-8914-5ea5d0100c14","system_id":"levelo_inurba_marseille","lat":43.262,"lon":5.37919,"is_reserved":false,"is_disabled":false,"rental_uris":{"android":"levelo://app?vid=98cd4406-dd34-4787-8914-5ea5d0100c14","ios":"levelo://app?vid=98cd4406-dd34-4787-8914-5ea5d0100c14"},"vehicle_type_id":"4","last_reported":1737969057,"current_range_meters":39200,"station_id":"ce4bhjp2rcd13ifvqg90","pricing_plan_id":"cebpf4jnsgd1na2vs0mg"},{"bike_id":"eae7604f-f549-42ac-9a31-689982918a1a","system_id":"levelo_inurba_marseille","lat":43.30958,"lon":5.39035,"is_reserved":false,"is_disabled":false,"rental_uris":{"android":"levelo://app?vid=eae7604f-f549-42ac-9a31-689982918a1a","ios":"levelo://app?vid=eae7604f-f549-42ac-9a31-689982918a1a"},"vehicle_type_id":"4","last_reported":1737969057,"current_range_meters":37600,"station_id":"ce4bgup2rcd13ifvqco0","pricing_plan_id":"cebpf4jnsgd1na2vs0mg"},{"bike_id":"a66388ba-af3c-47f2-89e8-fb8779c46852","system_id":"levelo_inurba_marseille","lat":43.28674,"lon":5.38644,"is_reserved":false,"is_disabled":false,"rental_uris":{"android":"levelo://app?vid=a66388ba-af3c-47f2-89e8-fb8779c46852","ios":"levelo://app?vid=a66388ba-af3c-47f2-89e8-fb8779c46852"},"vehicle_type_id":"4","last_reported":1737969057,"current_range_meters":7200,"station_id":"ce4bh492rcd13ifvqdug","pricing_plan_id":"cebpf4jnsgd1na2vs0mg"},{"bike_id":"adf9d177-9df1-45ce-99b8-5c9493dd8771","system_id":"levelo_inurba_marseille","lat":43.31345,"lon":5.36731,"is_reserved":false,"is_disabled":false,"rental_uris":{"android":"levelo://app?vid=adf9d177-9df1-45ce-99b8-5c9493dd8771","ios":"levelo://app?vid=adf9d177-9df1-45ce-99b8-5c9493dd8771"},"vehicle_type_id":"4","last_reported":1737969057,"current_range_meters":38800,"station_id":"ce4bgr92rcd13ifvqc6g","pricing_plan_id":"cebpf4jnsgd1na2vs0mg"},{"bike_id":"568e6118-46c5-448c-a633-5b28c6408df6","system_id":"levelo_inurba_marseille","lat":43.30935,"lon":5.39043,"is_reserved":false,"is_disabled":true,"rental_uris":{"android":"levelo://app?vid=568e6118-46c5-448c-a633-5b28c6408df6","ios":"levelo://app?vid=568e6118-46c5-448c-a633-5b28c6408df6"},"vehicle_type_id":"4","last_reported":1737969057,"current_range_meters":0,"station_id":"ce4bgup2rcd13ifvqco0","pricing_plan_id":"cebpf4jnsgd1na2vs0mg"},{"bike_id":"5b4f2e61-aedf-4136-b643-e328193eb03c","system_id":"levelo_inurba_marseille","lat":43.298,"lon":5.40418,"is_reserved":false,"is_disabled":false,"rental_uris":{"android":"levelo://app?vid=5b4f2e61-aedf-4136-b643-e328193eb03c","ios":"levelo://app?vid=5b4f2e61-aedf-4136-b643-e328193eb03c"},"vehicle_type_id":"4","last_reported":1737969057,"current_range_meters":38800,"station_id":"ce4bh112rcd13ifvqd90","pricing_plan_id":"cebpf4jnsgd1na2vs0mg"},{"bike_id":"b8b51995-c455-4773-a5d3-fe3e55e75c4e","system_id":"levelo_inurba_marseille","lat":43.31349,"lon":5.36756,"is_reserved":false,"is_disabled":false,"rental_uris":{"android":"levelo://app?vid=b8b51995-c455-4773-a5d3-fe3e55e75c4e","ios":"levelo://app?vid=b8b51995-c455-4773-a5d3-fe3e55e75c4e"},"vehicle_type_id":"4","last_reported":1737969057,"current_range_meters":12800,"station_id":"ce4bgr92rcd13ifvqc6g","pricing_plan_id":"cebpf4jnsgd1na2vs0mg"},{"bike_id":"cb11c4e4-37a9-44f4-9ccd-767b3b519e30","system_id":"levelo_inurba_marseille","lat":43.28476,"lon":5.38477,"is_reserved":false,"is_disabled":false,"rental_uris":{"android":"levelo://app?vid=cb11c4e4-37a9-44f4-9ccd-767b3b519e30","ios":"levelo://app?vid=cb11c4e4-37a9-44f4-9ccd-767b3b519e30"},"vehicle_type_id":"4","last_reported":1737969057,"current_range_meters":11600,"station_id":"","pricing_plan_id":"cebpf4jnsgd1na2vs0mg"},{"bike_id":"c90dfe9a-5bc6-41cc-b94a-b39c973f0a8d","system_id":"levelo_inurba_marseille","lat":43.32657,"lon":5.40986,"is_reserved":false,"is_disabled":true,"rental_uris":{"android":"levelo://app?vid=c90dfe9a-5bc6-41cc-b94a-b39c973f0a8d","ios":"levelo://app?vid=c90dfe9a-5bc6-41cc-b94a-b39c973f0a8d"},"vehicle_type_id":"4","last_reported":1737969057,"current_range_meters":3200,"station_id":"ce4bhpp2rcd13ifvqhgg","pricing_plan_id":"cebpf4jnsgd1na2vs0mg"},{"bike_id":"7a734461-bd66-4095-825a-0a4c078f7324","system_id":"levelo_inurba_marseille","lat":43.28703,"lon":5.40005,"is_reserved":false,"is_disabled":false,"rental_uris":{"android":"levelo://app?vid=7a734461-bd66-4095-825a-0a4c078f7324","ios":"levelo://app?vid=7a734461-bd66-4095-825a-0a4c078f7324"},"vehicle_type_id":"4","last_reported":1737969057,"current_range_meters":30800,"station_id":"ce4bho92rcd13ifvqh3g","pricing_plan_id":"cebpf4jnsgd1na2vs0mg"},{"bike_id":"26c5f55d-b689-44ba-bcbe-576c29c6025c","system_id":"levelo_inurba_marseille","lat":43.33724,"lon":5.39194,"is_reserved":false,"is_disabled":false,"rental_uris":{"android":"levelo://app?vid=26c5f55d-b689-44ba-bcbe-576c29c6025c","ios":"levelo://app?vid=26c5f55d-b689-44ba-bcbe-576c29c6025c"},"vehicle_type_id":"4","last_reported":1737969057,"current_range_meters":24800,"station_id":"ce4bhr92rcd13ifvqhsg","pricing_plan_id":"cebpf4jnsgd1na2vs0mg"},{"bike_id":"944ecfa4-1deb-441b-a89a-e1bce60c6518","system_id":"levelo_inurba_marseille","lat":43.27066,"lon":5.42287,"is_reserved":false,"is_disabled":false,"rental_uris":{"android":"levelo://app?vid=944ecfa4-1deb-441b-a89a-e1bce60c6518","ios":"levelo://app?vid=944ecfa4-1deb-441b-a89a-e1bce60c6518"},"vehicle_type_id":"4","last_reported":1737969057,"current_range_meters":38800,"station_id":"ce4bhk92rcd13ifvqgb0","pricing_plan_id":"cebpf4jnsgd1na2vs0mg"},{"bike_id":"a0fa3860-b7a3-411c-8d44-a83bed7596f1","system_id":"levelo_inurba_marseille","lat":43.31163,"lon":5.38746,"is_reserved":false,"is_disabled":false,"rental_uris":{"android":"levelo://app?vid=a0fa3860-b7a3-411c-8d44-a83bed7596f1","ios":"levelo://app?vid=a0fa3860-b7a3-411c-8d44-a83bed7596f1"},"vehicle_type_id":"4","last_reported":1737969057,"current_range_meters":32800,"station_id":"ce4bgv12rcd13ifvqcp0","pricing_plan_id":"cebpf4jnsgd1na2vs0mg"},{"bike_id":"406f3a4e-22c7-4501-a7fe-e475a9f714e4","system_id":"levelo_inurba_marseille","lat":43.23198,"lon":5.3556,"is_reserved":false,"is_disabled":false,"rental_uris":{"android":"levelo://app?vid=406f3a4e-22c7-4501-a7fe-e475a9f714e4","ios":"levelo://app?vid=406f3a4e-22c7-4501-a7fe-e475a9f714e4"},"vehicle_type_id":"4","last_reported":1737969057,"current_range_meters":14800,"station_id":"ce4bhu92rcd13ifvqi70","pricing_plan_id":"cebpf4jnsgd1na2vs0mg"},{"bike_id":"4ee7a4b2-dea3-4f4a-a76b-2d1e4fcbcafe","system_id":"levelo_inurba_marseille","lat":43.28476,"lon":5.38538,"is_reserved":false,"is_disabled":true,"rental_uris":{"android":"levelo://app?vid=4ee7a4b2-dea3-4f4a-a76b-2d1e4fcbcafe","ios":"levelo://app?vid=4ee7a4b2-dea3-4f4a-a76b-2d1e4fcbcafe"},"vehicle_type_id":"4","last_reported":1737969057,"current_range_meters":1600,"station_id":"ce4bh8p2rcd13ifvqeb0","pricing_plan_id":"cebpf4jnsgd1na2vs0mg"},{"bike_id":"fd4bab22-dc1b-4e9f-8269-0ede3772bf91","system_id":"levelo_inurba_marseille","lat":43.32363,"lon":5.42057,"is_reserved":false,"is_disabled":false,"rental_uris":{"android":"levelo://app?vid=fd4bab22-dc1b-4e9f-8269-0ede3772bf91","ios":"levelo://app?vid=fd4bab22-dc1b-4e9f-8269-0ede3772bf91"},"vehicle_type_id":"4","last_reported":1737969057,"current_range_meters":36400,"station_id":"","pricing_plan_id":"cebpf4jnsgd1na2vs0mg"},{"bike_id":"565e831a-998a-4696-ae22-bee0501ba347","system_id":"levelo_inurba_marseille","lat":43.30471,"lon":5.37905,"is_reserved":false,"is_disabled":false,"rental_uris":{"android":"levelo://app?vid=565e831a-998a-4696-ae22-bee0501ba347","ios":"levelo://app?vid=565e831a-998a-4696-ae22-bee0501ba347"},"vehicle_type_id":"4","last_reported":1737969057,"current_range_meters":27600,"station_id":"ce4bgup2rcd13ifvqcn0","pricing_plan_id":"cebpf4jnsgd1na2vs0mg"},{"bike_id":"f41fa104-85a1-45d6-a7a2-1f1137783e9e","system_id":"levelo_inurba_marseille","lat":43.32526,"lon":5.41524,"is_reserved":false,"is_disabled":false,"rental_uris":{"android":"levelo://app?vid=f41fa104-85a1-45d6-a7a2-1f1137783e9e","ios":"levelo://app?vid=f41fa104-85a1-45d6-a7a2-1f1137783e9e"},"vehicle_type_id":"4","last_reported":1737969057,"current_range_meters":38000,"station_id":"","pricing_plan_id":"cebpf4jnsgd1na2vs0mg"},{"bike_id":"e3e26aee-15e1-425c-a48f-db58aa520742","system_id":"levelo_inurba_marseille","lat":43.23071,"lon":5.35498,"is_reserved":false,"is_disabled":false,"rental_uris":{"android":"levelo://app?vid=e3e26aee-15e1-425c-a48f-db58aa520742","ios":"levelo://app?vid=e3e26aee-15e1-425c-a48f-db58aa520742"},"vehicle_type_id":"4","last_reported":1737969057,"current_range_meters":4400,"station_id":"cpo3342slgdg3j2ifvpg","pricing_plan_id":"cebpf4jnsgd1na2vs0mg"},{"bike_id":"333a6599-474f-4570-afad-adf905a09430","system_id":"levelo_inurba_marseille","lat":43.3046,"lon":5.3791,"is_reserved":false,"is_disabled":false,"rental_uris":{"android":"levelo://app?vid=333a6599-474f-4570-afad-adf905a09430","ios":"levelo://app?vid=333a6599-474f-4570-afad-adf905a09430"},"vehicle_type_id":"4","last_reported":1737969057,"current_range_meters":30000,"station_id":"ce4bgup2rcd13ifvqcn0","pricing_plan_id":"cebpf4jnsgd1na2vs0mg"},{"bike_id":"414e9e87-13c8-4dd8-9df6-7723400a2d87","system_id":"levelo_inurba_marseille","lat":43.25927,"lon":5.40885,"is_reserved":false,"is_disabled":false,"rental_uris":{"android":"levelo://app?vid=414e9e87-13c8-4dd8-9df6-7723400a2d87","ios":"levelo://app?vid=414e9e87-13c8-4dd8-9df6-7723400a2d87"},"vehicle_type_id":"4","last_reported":1737969057,"current_range_meters":38800,"station_id":"ce4bhm92rcd13ifvqglg","pricing_plan_id":"cebpf4jnsgd1na2vs0mg"},{"bike_id":"7c78a755-c7f5-4f07-a96b-621451d47948","system_id":"levelo_inurba_marseille","lat":43.299053,"lon":5.436636,"is_reserved":false,"is_disabled":false,"rental_uris":{"android":"levelo://app?vid=7c78a755-c7f5-4f07-a96b-621451d47948","ios":"levelo://app?vid=7c78a755-c7f5-4f07-a96b-621451d47948"},"vehicle_type_id":"4","last_reported":1737969057,"current_range_meters":28000,"station_id":"ce4bhpp2rcd13ifvqhfg","pricing_plan_id":"cebpf4jnsgd1na2vs0mg"},{"bike_id":"538d5be7-8552-4e85-8113-86a63e156e35","system_id":"levelo_inurba_marseille","lat":43.26951,"lon":5.38635,"is_reserved":false,"is_disabled":false,"rental_uris":{"android":"levelo://app?vid=538d5be7-8552-4e85-8113-86a63e156e35","ios":"levelo://app?vid=538d5be7-8552-4e85-8113-86a63e156e35"},"vehicle_type_id":"4","last_reported":1737969057,"current_range_meters":36400,"station_id":"ce4bhh92rcd13ifvqfh0","pricing_plan_id":"cebpf4jnsgd1na2vs0mg"},{"bike_id":"728edd33-1187-4296-b25c-b606d3c17288","system_id":"levelo_inurba_marseille","lat":43.29371,"lon":5.3784,"is_reserved":false,"is_disabled":false,"rental_uris":{"android":"levelo://app?vid=728edd33-1187-4296-b25c-b606d3c17288","ios":"levelo://app?vid=728edd33-1187-4296-b25c-b606d3c17288"},"vehicle_type_id":"4","last_reported":1737969057,"current_range_meters":38400,"station_id":"ce4bgjh2rcd13ifvqbf0","pricing_plan_id":"cebpf4jnsgd1na2vs0mg"},{"bike_id":"cb93275a-f272-4b10-bec7-d5b181b5074b","system_id":"levelo_inurba_marseille","lat":43.2668,"lon":5.38279,"is_reserved":false,"is_disabled":false,"rental_uris":{"android":"levelo://app?vid=cb93275a-f272-4b10-bec7-d5b181b5074b","ios":"levelo://app?vid=cb93275a-f272-4b10-bec7-d5b181b5074b"},"vehicle_type_id":"4","last_reported":1737969057,"current_range_meters":35200,"station_id":"ce4bhg92rcd13ifvqf90","pricing_plan_id":"cebpf4jnsgd1na2vs0mg"},{"bike_id":"684ea44b-b4bc-456a-be59-2cf6bb158b0d","system_id":"levelo_inurba_marseille","lat":43.33749,"lon":5.39202,"is_reserved":false,"is_disabled":false,"rental_uris":{"android":"levelo://app?vid=684ea44b-b4bc-456a-be59-2cf6bb158b0d","ios":"levelo://app?vid=684ea44b-b4bc-456a-be59-2cf6bb158b0d"},"vehicle_type_id":"4","last_reported":1737969057,"current_range_meters":37600,"station_id":"ce4bhr92rcd13ifvqhsg","pricing_plan_id":"cebpf4jnsgd1na2vs0mg"},{"bike_id":"63e7f6c5-cbcd-44a2-82b1-c38007c9c4ed","system_id":"levelo_inurba_marseille","lat":43.29535,"lon":5.38546,"is_reserved":false,"is_disabled":false,"rental_uris":{"android":"levelo://app?vid=63e7f6c5-cbcd-44a2-82b1-c38007c9c4ed","ios":"levelo://app?vid=63e7f6c5-cbcd-44a2-82b1-c38007c9c4ed"},"vehicle_type_id":"4","last_reported":1737969057,"current_range_meters":20000,"station_id":"ce4bgih2rcd13ifvqba0","pricing_plan_id":"cebpf4jnsgd1na2vs0mg"},{"bike_id":"a48a4fa8-387b-4ecc-bc7a-c3f07822bf47","system_id":"levelo_inurba_marseille","lat":43.27054,"lon":5.392,"is_reserved":false,"is_disabled":true,"rental_uris":{"android":"levelo://app?vid=a48a4fa8-387b-4ecc-bc7a-c3f07822bf47","ios":"levelo://app?vid=a48a4fa8-387b-4ecc-bc7a-c3f07822bf47"},"vehicle_type_id":"4","last_reported":1737969057,"current_range_meters":0,"station_id":"","pricing_plan_id":"cebpf4jnsgd1na2vs0mg"},{"bike_id":"afc4d53a-7a00-4e31-ba93-3fdb3be5f28e","system_id":"levelo_inurba_marseille","lat":43.24018,"lon":5.37799,"is_reserved":false,"is_disabled":false,"rental_uris":{"android":"levelo://app?vid=afc4d53a-7a00-4e31-ba93-3fdb3be5f28e","ios":"levelo://app?vid=afc4d53a-7a00-4e31-ba93-3fdb3be5f28e"},"vehicle_type_id":"4","last_reported":1737969057,"current_range_meters":38800,"station_id":"","pricing_plan_id":"cebpf4jnsgd1na2vs0mg"},{"bike_id":"f083ce9c-1330-4457-abc6-57c4c2a195fd","system_id":"levelo_inurba_marseille","lat":43.29268,"lon":5.36848,"is_reserved":false,"is_disabled":true,"rental_uris":{"android":"levelo://app?vid=f083ce9c-1330-4457-abc6-57c4c2a195fd","ios":"levelo://app?vid=f083ce9c-1330-4457-abc6-57c4c2a195fd"},"vehicle_type_id":"4","last_reported":1737969057,"current_range_meters":800,"station_id":"ce4bhbp2rcd13ifvqesg","pricing_plan_id":"cebpf4jnsgd1na2vs0mg"},{"bike_id":"a8d0380b-0a88-41c3-845f-e00ffb2cbc88","system_id":"levelo_inurba_marseille","lat":43.2798,"lon":5.40036,"is_reserved":false,"is_disabled":true,"rental_uris":{"android":"levelo://app?vid=a8d0380b-0a88-41c3-845f-e00ffb2cbc88","ios":"levelo://app?vid=a8d0380b-0a88-41c3-845f-e00ffb2cbc88"},"vehicle_type_id":"4","last_reported":1737969057,"current_range_meters":30800,"station_id":"ce4bho92rcd13ifvqh4g","pricing_plan_id":"cebpf4jnsgd1na2vs0mg"},{"bike_id":"ab4b2f25-068f-4c1f-b709-3c0cbf337322","system_id":"levelo_inurba_marseille","lat":43.231481,"lon":5.437111,"is_reserved":false,"is_disabled":false,"rental_uris":{"android":"levelo://app?vid=ab4b2f25-068f-4c1f-b709-3c0cbf337322","ios":"levelo://app?vid=ab4b2f25-068f-4c1f-b709-3c0cbf337322"},"vehicle_type_id":"4","last_reported":1737969057,"current_range_meters":7200,"station_id":"ce4bhmp2rcd13ifvqgog","pricing_plan_id":"cebpf4jnsgd1na2vs0mg"},{"bike_id":"5081e94c-6e15-46a3-8958-4b50eefd7659","system_id":"levelo_inurba_marseille","lat":43.24054,"lon":5.37739,"is_reserved":false,"is_disabled":false,"rental_uris":{"android":"levelo://app?vid=5081e94c-6e15-46a3-8958-4b50eefd7659","ios":"levelo://app?vid=5081e94c-6e15-46a3-8958-4b50eefd7659"},"vehicle_type_id":"4","last_reported":1737969057,"current_range_meters":38800,"station_id":"ce4bhnp2rcd13ifvqgvg","pricing_plan_id":"cebpf4jnsgd1na2vs0mg"},{"bike_id":"9c09af66-30f1-488d-910d-a8a905d02871","system_id":"levelo_inurba_marseille","lat":43.29363,"lon":5.37939,"is_reserved":false,"is_disabled":true,"rental_uris":{"android":"levelo://app?vid=9c09af66-30f1-488d-910d-a8a905d02871","ios":"levelo://app?vid=9c09af66-30f1-488d-910d-a8a905d02871"},"vehicle_type_id":"4","last_reported":1737969057,"current_range_meters":0,"station_id":"","pricing_plan_id":"cebpf4jnsgd1na2vs0mg"},{"bike_id":"a2636170-fcb1-4c50-b016-59fa35899ebc","system_id":"levelo_inurba_marseille","lat":43.313524,"lon":5.367586,"is_reserved":false,"is_disabled":false,"rental_uris":{"android":"levelo://app?vid=a2636170-fcb1-4c50-b016-59fa35899ebc","ios":"levelo://app?vid=a2636170-fcb1-4c50-b016-59fa35899ebc"},"vehicle_type_id":"4","last_reported":1737969057,"current_range_meters":36400,"station_id":"ce4bgr92rcd13ifvqc6g","pricing_plan_id":"cebpf4jnsgd1na2vs0mg"},{"bike_id":"bc3520dd-eee7-4325-8342-42c151353670","system_id":"levelo_inurba_marseille","lat":43.29867,"lon":5.3974,"is_reserved":false,"is_disabled":false,"rental_uris":{"android":"levelo://app?vid=bc3520dd-eee7-4325-8342-42c151353670","ios":"levelo://app?vid=bc3520dd-eee7-4325-8342-42c151353670"},"vehicle_type_id":"4","last_reported":1737969057,"current_range_meters":10000,"station_id":"ce4bh0h2rcd13ifvqd50","pricing_plan_id":"cebpf4jnsgd1na2vs0mg"},{"bike_id":"5832b0d1-9fbe-4647-a3ce-70036d555f34","system_id":"levelo_inurba_marseille","lat":43.29084,"lon":5.38102,"is_reserved":false,"is_disabled":false,"rental_uris":{"android":"levelo://app?vid=5832b0d1-9fbe-4647-a3ce-70036d555f34","ios":"levelo://app?vid=5832b0d1-9fbe-4647-a3ce-70036d555f34"},"vehicle_type_id":"4","last_reported":1737969057,"current_range_meters":38800,"station_id":"ce4bh512rcd13ifvqe2g","pricing_plan_id":"cebpf4jnsgd1na2vs0mg"},{"bike_id":"22e948b1-900e-4a5c-9a5a-b682c4d5119c","system_id":"levelo_inurba_marseille","lat":43.23155,"lon":5.43713,"is_reserved":false,"is_disabled":false,"rental_uris":{"android":"levelo://app?vid=22e948b1-900e-4a5c-9a5a-b682c4d5119c","ios":"levelo://app?vid=22e948b1-900e-4a5c-9a5a-b682c4d5119c"},"vehicle_type_id":"4","last_reported":1737969057,"current_range_meters":25200,"station_id":"ce4bhmp2rcd13ifvqgog","pricing_plan_id":"cebpf4jnsgd1na2vs0mg"},{"bike_id":"71d89935-ba02-4345-9b7a-2781dba00acd","system_id":"levelo_inurba_marseille","lat":43.31353,"lon":5.36725,"is_reserved":false,"is_disabled":false,"rental_uris":{"android":"levelo://app?vid=71d89935-ba02-4345-9b7a-2781dba00acd","ios":"levelo://app?vid=71d89935-ba02-4345-9b7a-2781dba00acd"},"vehicle_type_id":"4","last_reported":1737969057,"current_range_meters":21600,"station_id":"ce4bgr92rcd13ifvqc6g","pricing_plan_id":"cebpf4jnsgd1na2vs0mg"},{"bike_id":"c438c788-2c8f-4eda-8233-a8485c23c4af","system_id":"levelo_inurba_marseille","lat":43.304149,"lon":5.412825,"is_reserved":false,"is_disabled":true,"rental_uris":{"android":"levelo://app?vid=c438c788-2c8f-4eda-8233-a8485c23c4af","ios":"levelo://app?vid=c438c788-2c8f-4eda-8233-a8485c23c4af"},"vehicle_type_id":"4","last_reported":1737969057,"current_range_meters":0,"station_id":"ce4bhop2rcd13ifvqh8g","pricing_plan_id":"cebpf4jnsgd1na2vs0mg"},{"bike_id":"d4dbec4e-6b74-4a4c-a0e5-fba6535807ae","system_id":"levelo_inurba_marseille","lat":43.29021,"lon":5.38139,"is_reserved":false,"is_disabled":false,"rental_uris":{"android":"levelo://app?vid=d4dbec4e-6b74-4a4c-a0e5-fba6535807ae","ios":"levelo://app?vid=d4dbec4e-6b74-4a4c-a0e5-fba6535807ae"},"vehicle_type_id":"4","last_reported":1737969057,"current_range_meters":38800,"station_id":"ce4bh4p2rcd13ifvqe1g","pricing_plan_id":"cebpf4jnsgd1na2vs0mg"},{"bike_id":"8ce91b79-eec2-4449-82de-a212beac1c70","system_id":"levelo_inurba_marseille","lat":43.30286,"lon":5.37733,"is_reserved":false,"is_disabled":true,"rental_uris":{"android":"levelo://app?vid=8ce91b79-eec2-4449-82de-a212beac1c70","ios":"levelo://app?vid=8ce91b79-eec2-4449-82de-a212beac1c70"},"vehicle_type_id":"4","last_reported":1737969057,"current_range_meters":37600,"station_id":"ce4bguh2rcd13ifvqcj0","pricing_plan_id":"cebpf4jnsgd1na2vs0mg"},{"bike_id":"ef113968-09ef-47a7-b7b4-960d4c2ecc11","system_id":"levelo_inurba_marseille","lat":43.29626,"lon":5.37723,"is_reserved":false,"is_disabled":false,"rental_uris":{"android":"levelo://app?vid=ef113968-09ef-47a7-b7b4-960d4c2ecc11","ios":"levelo://app?vid=ef113968-09ef-47a7-b7b4-960d4c2ecc11"},"vehicle_type_id":"4","last_reported":1737969057,"current_range_meters":20800,"station_id":"ce4bgi92rcd13ifvqb90","pricing_plan_id":"cebpf4jnsgd1na2vs0mg"},{"bike_id":"9467e29b-7f6b-4eb3-b15b-3d835cd18fed","system_id":"levelo_inurba_marseille","lat":43.29619,"lon":5.37187,"is_reserved":false,"is_disabled":false,"rental_uris":{"android":"levelo://app?vid=9467e29b-7f6b-4eb3-b15b-3d835cd18fed","ios":"levelo://app?vid=9467e29b-7f6b-4eb3-b15b-3d835cd18fed"},"vehicle_type_id":"4","last_reported":1737969057,"current_range_meters":38800,"station_id":"ce4bgnh2rcd13ifvqc0g","pricing_plan_id":"cebpf4jnsgd1na2vs0mg"},{"bike_id":"c0e9afac-3027-4e6b-b5e9-3196c155323d","system_id":"levelo_inurba_marseille","lat":43.32475,"lon":5.36581,"is_reserved":false,"is_disabled":false,"rental_uris":{"android":"levelo://app?vid=c0e9afac-3027-4e6b-b5e9-3196c155323d","ios":"levelo://app?vid=c0e9afac-3027-4e6b-b5e9-3196c155323d"},"vehicle_type_id":"4","last_reported":1737969057,"current_range_meters":19200,"station_id":"ce4bhs12rcd13ifvqhvg","pricing_plan_id":"cebpf4jnsgd1na2vs0mg"},{"bike_id":"93a4346e-74d0-4fd8-99ec-1a8538d27b41","system_id":"levelo_inurba_marseille","lat":43.27385,"lon":5.39394,"is_reserved":false,"is_disabled":false,"rental_uris":{"android":"levelo://app?vid=93a4346e-74d0-4fd8-99ec-1a8538d27b41","ios":"levelo://app?vid=93a4346e-74d0-4fd8-99ec-1a8538d27b41"},"vehicle_type_id":"4","last_reported":1737969057,"current_range_meters":6000,"station_id":"ce4bhdp2rcd13ifvqf20","pricing_plan_id":"cebpf4jnsgd1na2vs0mg"},{"bike_id":"d85a66fc-048e-4ff5-b895-714b4a814df3","system_id":"levelo_inurba_marseille","lat":43.26083,"lon":5.39354,"is_reserved":false,"is_disabled":false,"rental_uris":{"android":"levelo://app?vid=d85a66fc-048e-4ff5-b895-714b4a814df3","ios":"levelo://app?vid=d85a66fc-048e-4ff5-b895-714b4a814df3"},"vehicle_type_id":"4","last_reported":1737969057,"current_range_meters":38000,"station_id":"ce4bhh92rcd13ifvqfj0","pricing_plan_id":"cebpf4jnsgd1na2vs0mg"},{"bike_id":"3d98c6ce-e80d-46e8-b577-648cd8c28632","system_id":"levelo_inurba_marseille","lat":43.34699,"lon":5.34741,"is_reserved":false,"is_disabled":true,"rental_uris":{"android":"levelo://app?vid=3d98c6ce-e80d-46e8-b577-648cd8c28632","ios":"levelo://app?vid=3d98c6ce-e80d-46e8-b577-648cd8c28632"},"vehicle_type_id":"4","last_reported":1737969057,"current_range_meters":0,"station_id":"","pricing_plan_id":"cebpf4jnsgd1na2vs0mg"},{"bike_id":"bc9360b9-fd0e-422d-9782-dd707d319d5c","system_id":"levelo_inurba_marseille","lat":43.30861,"lon":5.36884,"is_reserved":false,"is_disabled":true,"rental_uris":{"android":"levelo://app?vid=bc9360b9-fd0e-422d-9782-dd707d319d5c","ios":"levelo://app?vid=bc9360b9-fd0e-422d-9782-dd707d319d5c"},"vehicle_type_id":"4","last_reported":1737969057,"current_range_meters":36000,"station_id":"ce4bgn92rcd13ifvqbvg","pricing_plan_id":"cebpf4jnsgd1na2vs0mg"},{"bike_id":"86167669-87ec-46d8-942a-1b0cb002dce8","system_id":"levelo_inurba_marseille","lat":43.28622,"lon":5.35117,"is_reserved":false,"is_disabled":false,"rental_uris":{"android":"levelo://app?vid=86167669-87ec-46d8-942a-1b0cb002dce8","ios":"levelo://app?vid=86167669-87ec-46d8-942a-1b0cb002dce8"},"vehicle_type_id":"4","last_reported":1737969057,"current_range_meters":23200,"station_id":"ce4bhch2rcd13ifvqeug","pricing_plan_id":"cebpf4jnsgd1na2vs0mg"},