{"last_updated":1750144227,"ttl":60,"version":"2.2","data":{"bikes":[{"bike_id":"3da29fb8-fc97-44c6-b9ac-31dd456b2fd4","system_id":"levelo_inurba_marseille","lat":43.33771,"lon":5.37424,"is_reserved":false,"is_disabled":true,"rental_uris":{"android":"levelo://app?vid=3da29fb8-fc97-44c6-b9ac-31dd456b2fd4","ios":"levelo://app?vid=3da29fb8-fc97-44c6-b9ac-31dd456b2fd4"},"vehicle_type_id":"4","last_reported":1750144228,"current_range_meters":0,"station_id":"","pricing_plan_id":"cebpf4jnsgd1na2vs0mg"},{"bike_id":"01861ad8-a8d7-4be6-816e-651927c87584","system_id":"levelo_inurba_marseille","lat":43.33751,"lon":5.37456,"is_reserved":false,"is_disabled":true,"rental_uris":{"android":"levelo://app?vid=01861ad8-a8d7-4be6-816e-651927c87584","ios":"levelo://app?vid=01861ad8-a8d7-4be6-816e-651927c87584"},"vehicle_type_id":"4","last_reported":1750144228,"current_range_meters":0,"station_id":"","pricing_plan_id":"cebpf4jnsgd1na2vs0mg"},{"bike_id":"b81ba2bd-624d-43c3-b702-6c0cdad38ab2","system_id":"levelo_inurba_marseille","lat":43.31121,"lon":5.39324,"is_reserved":false,"is_disabled":true,"rental_uris":{"android":"levelo://app?vid=b81ba2bd-624d-43c3-b702-6c0cdad38ab2","ios":"levelo://app?vid=b81ba2bd-624d-43c3-b702-6c0cdad38ab2"},"vehicle_type_id":"4","last_reported":1750144228,"current_range_meters":0,"station_id":"","pricing_plan_id":"cebpf4jnsgd1na2vs0mg"},{"bike_id":"d2bd57c8-6b64-48db-ad24-5398eb3fd9d6","system_id":"levelo_inurba_marseille","lat":43.337444,"lon":5.374475,"is_reserved":false,"is_disabled":true,"rental_uris":{"android":"levelo://app?vid=d2bd57c8-6b64-48db-ad24-5398eb3fd9d6","ios":"levelo://app?vid=d2bd57c8-6b64-48db-ad24-5398eb3fd9d6"},"vehicle_type_id":"4","last_reported":1750144228,"current_range_meters":0,"station_id":"","pricing_plan_id":"cebpf4jnsgd1na2vs0mg"},{"bike_id":"62a493c7-4534-4419-ad43-0582de34a72a","system_id":"levelo_inurba_marseille","lat":43.21366,"lon":5.355183,"is_reserved":false,"is_disabled":true,"rental_uris":{"android":"levelo://app?vid=62a493c7-4534-4419-ad43-0582de34a72a","ios":"levelo://app?vid=62a493c7-4534-4419-ad43-0582de34a72a"},"vehicle_type_id":"4","last_reported":1750144228,"current_range_meters":0,"station_id":"","pricing_plan_id":"cebpf4jnsgd1na2vs0mg"},{"bike_id":"93af304b-67b5-47b8-a3fd-e0775f7cde8c","system_id":"levelo_inurba_marseille","lat":43.2154,"lon":5.34751,"is_reserved":false,"is_disabled":true,"rental_uris":{"android":"levelo://app?vid=93af304b-67b5-47b8-a3fd-e0775f7cde8c","ios":"levelo://app?vid=93af304b-67b5-47b8-a3fd-e0775f7cde8c"},"vehicle_type_id":"4","last_reported":1750144228,"current_range_meters":0,"station_id":"","pricing_plan_id":"cebpf4jnsgd1na2vs0mg"},{"bike_id":"d6609b4f-333b-43c1-9ebe-8726f5e76e88","system_id":"levelo_inurba_marseille","lat":43.337444,"lon":5.374475,"is_reserved":false,"is_disabled":true,"rental_uris":{"android":"levelo://app?vid=d6609b4f-333b-43c1-9ebe-8726f5e76e88","ios":"levelo://app?vid=d6609b4f-333b-43c1-9ebe-8726f5e76e88"},"vehicle_type_id":"4","last_reported":1750144228,"current_range_meters":0,"station_id":"","pricing_plan_id":"cebpf4jnsgd1na2vs0mg"},{"bike_id":"7c6fdbaa-49a0-4e5c-bca1-a07989fcd59f","system_id":"levelo_inurba_marseille","lat":43.31258,"lon":5.38632,"is_reserved":false,"is_disabled":true,"rental_uris":{"android":"levelo://app?vid=7c6fdbaa-49a0-4e5c-bca1-a07989fcd59f","ios":"levelo://app?vid=7c6fdbaa-49a0-4e5c-bca1-a07989fcd59f"},"vehicle_type_id":"4","last_reported":1750144228,"current_range_meters":0,"station_id":"","pricing_plan_id":"cebpf4jnsgd1na2vs0mg"},{"bike_id":"9d59e3f6-ec57-4535-838b-a55292d40d2a","system_id":"levelo_inurba_marseille","lat":43.29312,"lon":5.37473,"is_reserved":false,"is_disabled":true,"rental_uris":{"android":"levelo://app?vid=9d59e3f6-ec57-4535-838b-a55292d40d2a","ios":"levelo://app?vid=9d59e3f6-ec57-4535-838b-a55292d40d2a"},"vehicle_type_id":"4","last_reported":1750144228,"current_range_meters":0,"station_id":"ce4bgi12rcd13ifvqb70","pricing_plan_id":"cebpf4jnsgd1na2vs0mg"},{"bike_id":"10caa88a-906f-49cc-8a46-3edae8e1e9f4","system_id":"levelo_inurba_marseille","lat":43.29609,"lon":5.3773,"is_reserved":false,"is_disabled":true,"rental_uris":{"android":"levelo://app?vid=10caa88a-906f-49cc-8a46-3edae8e1e9f4","ios":"levelo://app?vid=10caa88a-906f-49cc-8a46-3edae8e1e9f4"},"vehicle_type_id":"4","last_reported":1750144228,"current_range_meters":0,"station_id":"ce4bgi92rcd13ifvqb90","pricing_plan_id":"cebpf4jnsgd1na2vs0mg"},{"bike_id":"847b7937-2e44-484f-ab16-3c8e0ccd8830","system_id":"levelo_inurba_marseille","lat":43.31371,"lon":5.38501,"is_reserved":false,"is_disabled":true,"rental_uris":{"android":"levelo://app?vid=847b7937-2e44-484f-ab16-3c8e0ccd8830","ios":"levelo://app?vid=847b7937-2e44-484f-ab16-3c8e0ccd8830"},"vehicle_type_id":"4","last_reported":1750144228,"current_range_meters":0,"station_id":"ce4bgt92rcd13ifvqcf0","pricing_plan_id":"cebpf4jnsgd1na2vs0mg"},{"bike_id":"cfc82a10-8d52-42f6-94f0-8ed715236c6e","system_id":"levelo_inurba_marseille","lat":43.30944,"lon":5.3903,"is_reserved":false,"is_disabled":true,"rental_uris":{"android":"levelo://app?vid=cfc82a10-8d52-42f6-94f0-8ed715236c6e","ios":"levelo://app?vid=cfc82a10-8d52-42f6-94f0-8ed715236c6e"},"vehicle_type_id":"4","last_reported":1750144228,"current_range_meters":0,"station_id":"ce4bgup2rcd13ifvqco0","pricing_plan_id":"cebpf4jnsgd1na2vs0mg"},{"bike_id":"c35ce775-9a64-4526-9987-e8626ee01eb5","system_id":"levelo_inurba_marseille","lat":43.309371,"lon":5.401371,"is_reserved":false,"is_disabled":true,"rental_uris":{"android":"levelo://app?vid=c35ce775-9a64-4526-9987-e8626ee01eb5","ios":"levelo://app?vid=c35ce775-9a64-4526-9987-e8626ee01eb5"},"vehicle_type_id":"4","last_reported":1750144228,"current_range_meters":0,"station_id":"ce4bgvp2rcd13ifvqct0","pricing_plan_id":"cebpf4jnsgd1na2vs0mg"},{"bike_id":"ffa5beba-7403-4e05-b6a5-bee3093c6ad5","system_id":"levelo_inurba_marseille","lat":43.28957,"lon":5.39628,"is_reserved":false,"is_disabled":true,"rental_uris":{"android":"levelo://app?vid=ffa5beba-7403-4e05-b6a5-bee3093c6ad5","ios":"levelo://app?vid=ffa5beba-7403-4e05-b6a5-bee3093c6ad5"},"vehicle_type_id":"4","last_reported":1750144228,"current_range_meters":0,"station_id":"ce4bh3h2rcd13ifvqdn0","pricing_plan_id":"cebpf4jnsgd1na2vs0mg"},{"bike_id":"ab5d5029-121e-42bd-9101-e37498ef2143","system_id":"levelo_inurba_marseille","lat":43.26768,"lon":5.39415,"is_reserved":false,"is_disabled":true,"rental_uris":{"android":"levelo://app?vid=ab5d5029-121e-42bd-9101-e37498ef2143","ios":"levelo://app?vid=ab5d5029-121e-42bd-9101-e37498ef2143"},"vehicle_type_id":"4","last_reported":1750144228,"current_range_meters":0,"station_id":"ce4bhh12rcd13ifvqfg0","pricing_plan_id":"cebpf4jnsgd1na2vs0mg"},{"bike_id":"15b900c1-f8b8-43f5-88a2-4308dcc83803","system_id":"levelo_inurba_marseille","lat":43.25108,"lon":5.4032,"is_reserved":false,"is_disabled":true,"rental_uris":{"android":"levelo://app?vid=15b900c1-f8b8-43f5-88a2-4308dcc83803","ios":"levelo://app?vid=15b900c1-f8b8-43f5-88a2-4308dcc83803"},"vehicle_type_id":"4","last_reported":1750144228,"current_range_meters":0,"station_id":"ce4bhlh2rcd13ifvqgig","pricing_plan_id":"cebpf4jnsgd1na2vs0mg"},{"bike_id":"dddd8c07-8ca3-467c-b3b1-7dc2980251ca","system_id":"levelo_inurba_marseille","lat":43.25108,"lon":5.40325,"is_reserved":false,"is_disabled":true,"rental_uris":{"android":"levelo://app?vid=dddd8c07-8ca3-467c-b3b1-7dc2980251ca","ios":"levelo://app?vid=dddd8c07-8ca3-467c-b3b1-7dc2980251ca"},"vehicle_type_id":"4","last_reported":1750144228,"current_range_meters":0,"station_id":"ce4bhlh2rcd13ifvqgig","pricing_plan_id":"cebpf4jnsgd1na2vs0mg"},{"bike_id":"ebee68ec-9240-4156-bc86-ef81c313e9f7","system_id":"levelo_inurba_marseille","lat":43.25938,"lon":5.40908,"is_reserved":false,"is_disabled":true,"rental_uris":{"android":"levelo://app?vid=ebee68ec-9240-4156-bc86-ef81c313e9f7","ios":"levelo://app?vid=ebee68ec-9240-4156-bc86-ef81c313e9f7"},"vehicle_type_id":"4","last_reported":1750144228,"current_range_meters":0,"station_id":"ce4bhm92rcd13ifvqglg","pricing_plan_id":"cebpf4jnsgd1na2vs0mg"},{"bike_id":"3f563954-1277-4986-8b41-6ecd2c4e1693","system_id":"levelo_inurba_marseille","lat":43.26937,"lon":5.40257,"is_reserved":false,"is_disabled":true,"rental_uris":{"android":"levelo://app?vid=3f563954-1277-4986-8b41-6ecd2c4e1693","ios":"levelo://app?vid=3f563954-1277-4986-8b41-6ecd2c4e1693"},"vehicle_type_id":"4","last_reported":1750144228,"current_range_meters":0,"station_id":"cjm6bp8fraef2m0cb0m0","pricing_plan_id":"cebpf4jnsgd1na2vs0mg"},{"bike_id":"c61e5532-a199-4b1d-9e32-0a6721e5003b","system_id":"levelo_inurba_marseille","lat":43.26932,"lon":5.4025,"is_reserved":false,"is_disabled":true,"rental_uris":{"android":"levelo://app?vid=c61e5532-a199-4b1d-9e32-0a6721e5003b","ios":"levelo://app?vid=c61e5532-a199-4b1d-9e32-0a6721e5003b"},"vehicle_type_id":"4","last_reported":1750144228,"current_range_meters":0,"station_id":"cjm6bp8fraef2m0cb0m0","pricing_plan_id":"cebpf4jnsgd1na2vs0mg"},{"bike_id":"f4670afd-5501-4b09-9e96-d68fc89248eb","system_id":"levelo_inurba_marseille","lat":43.30136,"lon":5.38784,"is_reserved":false,"is_disabled":true,"rental_uris":{"android":"levelo://app?vid=f4670afd-5501-4b09-9e96-d68fc89248eb","ios":"levelo://app?vid=f4670afd-5501-4b09-9e96-d68fc89248eb"},"vehicle_type_id":"4","last_reported":1750144228,"current_range_meters":800,"station_id":"ce4bghh2rcd13ifvqb60","pricing_plan_id":"cebpf4jnsgd1na2vs0mg"},{"bike_id":"3a9e5095-5814-4968-9bed-1e46cec0f5b0","system_id":"levelo_inurba_marseille","lat":43.29544,"lon":5.37523,"is_reserved":false,"is_disabled":true,"rental_uris":{"android":"levelo://app?vid=3a9e5095-5814-4968-9bed-1e46cec0f5b0","ios":"levelo://app?vid=3a9e5095-5814-4968-9bed-1e46cec0f5b0"},"vehicle_type_id":"4","last_reported":1750144228,"current_range_meters":800,"station_id":"ce4bgkp2rcd13ifvqbmg","pricing_plan_id":"cebpf4jnsgd1na2vs0mg"},{"bike_id":"0535f722-5d5a-4d7f-bb4c-ee2b39165bc9","system_id":"levelo_inurba_marseille","lat":43.31707,"lon":5.37775,"is_reserved":false,"is_disabled":false,"rental_uris":{"android":"levelo://app?vid=0535f722-5d5a-4d7f-bb4c-ee2b39165bc9","ios":"levelo://app?vid=0535f722-5d5a-4d7f-bb4c-ee2b39165bc9"},"vehicle_type_id":"4","last_reported":1750144228,"current_range_meters":800,"station_id":"ce4bgth2rcd13ifvqch0","pricing_plan_id":"cebpf4jnsgd1na2vs0mg"},{"bike_id":"04276415-42b1-4736-aa9f-2d33227b99de","system_id":"levelo_inurba_marseille","lat":43.30936,"lon":5.40119,"is_reserved":false,"is_disabled":true,"rental_uris":{"android":"levelo://app?vid=04276415-42b1-4736-aa9f-2d33227b99de","ios":"levelo://app?vid=04276415-42b1-4736-aa9f-2d33227b99de"},"vehicle_type_id":"4","last_reported":1750144228,"current_range_meters":800,"station_id":"ce4bgvp2rcd13ifvqct0","pricing_plan_id":"cebpf4jnsgd1na2vs0mg"},{"bike_id":"dfb17319-1fc6-41c7-a5cf-8f1bb3307400","system_id":"levelo_inurba_marseille","lat":43.292455,"lon":5.409113,"is_reserved":false,"is_disabled":true,"rental_uris":{"android":"levelo://app?vid=dfb17319-1fc6-41c7-a5cf-8f1bb3307400","ios":"levelo://app?vid=dfb17319-1fc6-41c7-a5cf-8f1bb3307400"},"vehicle_type_id":"4","last_reported":1750144228,"current_range_meters":800,"station_id":"ce4bh192rcd13ifvqdc0","pricing_plan_id":"cebpf4jnsgd1na2vs0mg"},{"bike_id":"0be8eb53-0141-4aaf-92cb-097c32e3edb8","system_id":"levelo_inurba_marseille","lat":43.2905,"lon":5.39953,"is_reserved":false,"is_disabled":true,"rental_uris":{"android":"levelo://app?vid=0be8eb53-0141-4aaf-92cb-097c32e3edb8","ios":"levelo://app?vid=0be8eb53-0141-4aaf-92cb-097c32e3edb8"},"vehicle_type_id":"4","last_reported":1750144228,"current_range_meters":800,"station_id":"ce4bh392rcd13ifvqdm0","pricing_plan_id":"cebpf4jnsgd1na2vs0mg"},{"bike_id":"db16bf96-25d9-4ac3-919f-a5052f86098e","system_id":"levelo_inurba_marseille","lat":43.32113,"lon":5.36769,"is_reserved":false,"is_disabled":true,"rental_uris":{"android":"levelo://app?vid=db16bf96-25d9-4ac3-919f-a5052f86098e","ios":"levelo://app?vid=db16bf96-25d9-4ac3-919f-a5052f86098e"},"vehicle_type_id":"4","last_reported":1750144228,"current_range_meters":800,"station_id":"ce4bhrh2rcd13ifvqhug","pricing_plan_id":"cebpf4jnsgd1na2vs0mg"},{"bike_id":"a9cf1810-7171-4061-b4b0-b5f1601e6cf8","system_id":"levelo_inurba_marseille","lat":43.25758,"lon":5.40929,"is_reserved":false,"is_disabled":true,"rental_uris":{"android":"levelo://app?vid=a9cf1810-7171-4061-b4b0-b5f1601e6cf8","ios":"levelo://app?vid=a9cf1810-7171-4061-b4b0-b5f1601e6cf8"},"vehicle_type_id":"4","last_reported":1750144228,"current_range_meters":1200,"station_id":"","pricing_plan_id":"cebpf4jnsgd1na2vs0mg"},{"bike_id":"ed4905f6-1b50-4b9e-8d15-6d8edf65c226","system_id":"levelo_inurba_marseille","lat":43.2887,"lon":5.3586,"is_reserved":false,"is_disabled":true,"rental_uris":{"android":"levelo://app?vid=ed4905f6-1b50-4b9e-8d15-6d8edf65c226","ios":"levelo://app?vid=ed4905f6-1b50-4b9e-8d15-6d8edf65c226"},"vehicle_type_id":"4","last_reported":1750144228,"current_range_meters":1200,"station_id":"ce4bhb12rcd13ifvqem0","pricing_plan_id":"cebpf4jnsgd1na2vs0mg"},{"bike_id":"1bdeab2b-8a5c-4d0a-a74c-8ffa3e6ce050","system_id":"levelo_inurba_marseille","lat":43.30804,"lon":5.42443,"is_reserved":false,"is_disabled":true,"rental_uris":{"android":"levelo://app?vid=1bdeab2b-8a5c-4d0a-a74c-8ffa3e6ce050","ios":"levelo://app?vid=1bdeab2b-8a5c-4d0a-a74c-8ffa3e6ce050"},"vehicle_type_id":"4","last_reported":1750144228,"current_range_meters":1200,"station_id":"st_cvj6ca6bvosntc0bfgr0","pricing_plan_id":"cebpf4jnsgd1na2vs0mg"},{"bike_id":"f07f2558-313c-4742-a3b2-c27a69b5f43d","system_id":"levelo_inurba_marseille","lat":43.30138,"lon":5.37409,"is_reserved":false,"is_disabled":true,"rental_uris":{"android":"levelo://app?vid=f07f2558-313c-4742-a3b2-c27a69b5f43d","ios":"levelo://app?vid=f07f2558-313c-4742-a3b2-c27a69b5f43d"},"vehicle_type_id":"4","last_reported":1750144228,"current_range_meters":1600,"station_id":"ce4bgs92rcd13ifvqcc0","pricing_plan_id":"cebpf4jnsgd1na2vs0mg"},{"bike_id":"dbfce7a3-3423-4296-b193-a177dea644ac","system_id":"levelo_inurba_marseille","lat":43.27292,"lon":5.41622,"is_reserved":false,"is_disabled":true,"rental_uris":{"android":"levelo://app?vid=dbfce7a3-3423-4296-b193-a177dea644ac","ios":"levelo://app?vid=dbfce7a3-3423-4296-b193-a177dea644ac"},"vehicle_type_id":"4","last_reported":1750144228,"current_range_meters":2000,"station_id":"","pricing_plan_id":"cebpf4jnsgd1na2vs0mg"},{"bike_id":"b6ed5236-1f1e-4c16-88a1-6208b98753a7","system_id":"levelo_inurba_marseille","lat":43.29041,"lon":5.37569,"is_reserved":false,"is_disabled":true,"rental_uris":{"android":"levelo://app?vid=b6ed5236-1f1e-4c16-88a1-6208b98753a7","ios":"levelo://app?vid=b6ed5236-1f1e-4c16-88a1-6208b98753a7"},"vehicle_type_id":"4","last_reported":1750144228,"current_range_meters":2000,"station_id":"ce4bh692rcd13ifvqe90","pricing_plan_id":"cebpf4jnsgd1na2vs0mg"},{"bike_id":"f16a5698-ddc2-4e59-97f5-5526424b5a60","system_id":"levelo_inurba_marseille","lat":43.21188,"lon":5.35077,"is_reserved":false,"is_disabled":true,"rental_uris":{"android":"levelo://app?vid=f16a5698-ddc2-4e59-97f5-5526424b5a60","ios":"levelo://app?vid=f16a5698-ddc2-4e59-97f5-5526424b5a60"},"vehicle_type_id":"4","last_reported":1750144228,"current_range_meters":2000,"station_id":"st_cvj6sg6p6f1abm77japg","pricing_plan_id":"cebpf4jnsgd1na2vs0mg"},{"bike_id":"cbda7b49-d2f1-49b0-abd9-e7a8c4d03b61","system_id":"levelo_inurba_marseille","lat":43.30157,"lon":5.38097,"is_reserved":false,"is_disabled":false,"rental_uris":{"android":"levelo://app?vid=cbda7b49-d2f1-49b0-abd9-e7a8c4d03b61","ios":"levelo://app?vid=cbda7b49-d2f1-49b0-abd9-e7a8c4d03b61"},"vehicle_type_id":"4","last_reported":1750144228,"current_range_meters":2800,"station_id":"ce4bgjp2rcd13ifvqbh0","pricing_plan_id":"cebpf4jnsgd1na2vs0mg"},{"bike_id":"d15f252c-0009-4e00-9e2d-b1a2ca00e0f6","system_id":"levelo_inurba_marseille","lat":43.28844,"lon":5.35863,"is_reserved":false,"is_disabled":false,"rental_uris":{"android":"levelo://app?vid=d15f252c-0009-4e00-9e2d-b1a2ca00e0f6","ios":"levelo://app?vid=d15f252c-0009-4e00-9e2d-b1a2ca00e0f6"},"vehicle_type_id":"4","last_reported":1750144228,"current_range_meters":2800,"station_id":"ce4bhb12rcd13ifvqem0","pricing_plan_id":"cebpf4jnsgd1na2vs0mg"},{"bike_id":"b9e37238-9abe-4b8b-b932-edaee33a7e59","system_id":"levelo_inurba_marseille","lat":43.27483,"lon":5.3902,"is_reserved":false,"is_disabled":false,"rental_uris":{"android":"levelo://app?vid=b9e37238-9abe-4b8b-b932-edaee33a7e59","ios":"levelo://app?vid=b9e37238-9abe-4b8b-b932-edaee33a7e59"},"vehicle_type_id":"4","last_reported":1750144228,"current_range_meters":3600,"station_id":"","pricing_plan_id":"cebpf4jnsgd1na2vs0mg"},{"bike_id":"30d2478a-41bc-41df-805b-1ff1eef62078","system_id":"levelo_inurba_marseille","lat":43.32542,"lon":5.43113,"is_reserved":false,"is_disabled":false,"rental_uris":{"android":"levelo://app?vid=30d2478a-41bc-41df-805b-1ff1eef62078","ios":"levelo://app?vid=30d2478a-41bc-41df-805b-1ff1eef62078"},"vehicle_type_id":"4","last_reported":1750144228,"current_range_meters":3600,"station_id":"","pricing_plan_id":"cebpf4jnsgd1na2vs0mg"},{"bike_id":"650a0df7-5039-4f0e-b2cb-89836c693f5c","system_id":"levelo_inurba_marseille","lat":43.30135,"lon":5.37317,"is_reserved":false,"is_disabled":false,"rental_uris":{"android":"levelo://app?vid=650a0df7-5039-4f0e-b2cb-89836c693f5c","ios":"levelo://app?vid=650a0df7-5039-4f0e-b2cb-89836c693f5c"},"vehicle_type_id":"4","last_reported":1750144228,"current_range_meters":4000,"station_id":"","pricing_plan_id":"cebpf4jnsgd1na2vs0mg"},{"bike_id":"ce89d2de-f963-47d6-84a1-a57aa0d97fa0","system_id":"levelo_inurba_marseille","lat":43.26676,"lon":5.39542,"is_reserved":false,"is_disabled":false,"rental_uris":{"android":"levelo://app?vid=ce89d2de-f963-47d6-84a1-a57aa0d97fa0","ios":"levelo://app?vid=ce89d2de-f963-47d6-84a1-a57aa0d97fa0"},"vehicle_type_id":"4","last_reported":1750144228,"current_range_meters":4000,"station_id":"","pricing_plan_id":"cebpf4jnsgd1na2vs0mg"},{"bike_id":"13a1b585-4ae0-492c-967a-9b0cc378ba32","system_id":"levelo_inurba_marseille","lat":43.30466,"lon":5.37894,"is_reserved":false,"is_disabled":false,"rental_uris":{"android":"levelo://app?vid=13a1b585-4ae0-492c-967a-9b0cc378ba32","ios":"levelo://app?vid=13a1b585-4ae0-492c-967a-9b0cc378ba32"},"vehicle_type_id":"4","last_reported":1750144228,"current_range_meters":4000,"station_id":"ce4bgup2rcd13ifvqcn0","pricing_plan_id":"cebpf4jnsgd1na2vs0mg"},{"bike_id":"590cef7f-a545-442c-a2c4-bd596d513148","system_id":"levelo_inurba_marseille","lat":43.29262,"lon":5.40904,"is_reserved":false,"is_disabled":false,"rental_uris":{"android":"levelo://app?vid=590cef7f-a545-442c-a2c4-bd596d513148","ios":"levelo://app?vid=590cef7f-a545-442c-a2c4-bd596d513148"},"vehicle_type_id":"4","last_reported":1750144228,"current_range_meters":4000,"station_id":"ce4bh192rcd13ifvqdc0","pricing_plan_id":"cebpf4jnsgd1na2vs0mg"},{"bike_id":"87dda5a8-b57f-44c9-a441-e1cf091a2fb3","system_id":"levelo_inurba_marseille","lat":43.25933,"lon":5.40898,"is_reserved":false,"is_disabled":false,"rental_uris":{"android":"levelo://app?vid=87dda5a8-b57f-44c9-a441-e1cf091a2fb3","ios":"levelo://app?vid=87dda5a8-b57f-44c9-a441-e1cf091a2fb3"},"vehicle_type_id":"4","last_reported":1750144228,"current_range_meters":4000,"station_id":"ce4bhm92rcd13ifvqglg","pricing_plan_id":"cebpf4jnsgd1na2vs0mg"},{"bike_id":"38ffa6a5-5c9a-4a6e-b6e2-6391899435c4","system_id":"levelo_inurba_marseille","lat":43.23968,"lon":5.36632,"is_reserved":false,"is_disabled":false,"rental_uris":{"android":"levelo://app?vid=38ffa6a5-5c9a-4a6e-b6e2-6391899435c4","ios":"levelo://app?vid=38ffa6a5-5c9a-4a6e-b6e2-6391899435c4"},"vehicle_type_id":"4","last_reported":1750144228,"current_range_meters":4400,"station_id":"ce4bhi12rcd13ifvqfp0","pricing_plan_id":"cebpf4jnsgd1na2vs0mg"},{"bike_id":"8d297b38-f666-4a46-9dee-0132f800019c","system_id":"levelo_inurba_marseille","lat":43.32208,"lon":5.38591,"is_reserved":false,"is_disabled":false,"rental_uris":{"android":"levelo://app?vid=8d297b38-f666-4a46-9dee-0132f800019c","ios":"levelo://app?vid=8d297b38-f666-4a46-9dee-0132f800019c"},"vehicle_type_id":"4","last_reported":1750144228,"current_range_meters":4800,"station_id":"","pricing_plan_id":"cebpf4jnsgd1na2vs0mg"},{"bike_id":"355d33db-d830-4abb-a2f9-34e06aea68bc","system_id":"levelo_inurba_marseille","lat":43.32245,"lon":5.38112,"is_reserved":false,"is_disabled":false,"rental_uris":{"android":"levelo://app?vid=355d33db-d830-4abb-a2f9-34e06aea68bc","ios":"levelo://app?vid=355d33db-d830-4abb-a2f9-34e06aea68bc"},"vehicle_type_id":"4","last_reported":1750144228,"current_range_meters":5600,"station_id":"","pricing_plan_id":"cebpf4jnsgd1na2vs0mg"},{"bike_id":"6fcb623c-013a-4d06-afd2-a38c2404f431","system_id":"levelo_inurba_marseille","lat":43.30548,"lon":5.36728,"is_reserved":false,"is_disabled":false,"rental_uris":{"android":"levelo://app?vid=6fcb623c-013a-4d06-afd2-a38c2404f431","ios":"levelo://app?vid=6fcb623c-013a-4d06-afd2-a38c2404f431"},"vehicle_type_id":"4","last_reported":1750144228,"current_range_meters":5600,"station_id":"ce4bgrp2rcd13ifvqc9g","pricing_plan_id":"cebpf4jnsgd1na2vs0mg"},{"bike_id":"61f858fa-7403-47c9-b24f-e940f02d7c65","system_id":"levelo_inurba_marseille","lat":43.28265,"lon":5.35061,"is_reserved":false,"is_disabled":false,"rental_uris":{"android":"levelo://app?vid=61f858fa-7403-47c9-b24f-e940f02d7c65","ios":"levelo://app?vid=61f858fa-7403-47c9-b24f-e940f02d7c65"},"vehicle_type_id":"4","last_reported":1750144228,"current_range_meters":5600,"station_id":"ce4bhbp2rcd13ifvqerg","pricing_plan_id":"cebpf4jnsgd1na2vs0mg"},{"bike_id":"891e6a6c-e71a-42b5-9fa2-84f457dac054","system_id":"levelo_inurba_marseille","lat":43.28946,"lon":5.36412,"is_reserved":false,"is_disabled":false,"rental_uris":{"android":"levelo://app?vid=891e6a6c-e71a-42b5-9fa2-84f457dac054","ios":"levelo://app?vid=891e6a6c-e71a-42b5-9fa2-84f457dac054"},"vehicle_type_id":"4","last_reported":1750144228,"current_range_meters":5600,"station_id":"ce4bhc92rcd13ifvqetg","pricing_plan_id":"cebpf4jnsgd1na2vs0mg"},{"bike_id":"fba995e8-a458-449f-b45d-b52119ba9ee0","system_id":"levelo_inurba_marseille","lat":43.28955,"lon":5.37842,"is_reserved":false,"is_disabled":false,"rental_uris":{"android":"levelo://app?vid=fba995e8-a458-449f-b45d-b52119ba9ee0","ios":"levelo://app?vid=fba995e8-a458-449f-b45d-b52119ba9ee0"},"vehicle_type_id":"4","last_reported":1750144228,"current_range_meters":6000,"station_id":"ce4bh9p2rcd13ifvqed0","pricing_plan_id":"cebpf4jnsgd1na2vs0mg"},{"bike_id":"a36931e6-beb3-4d8f-9695-022dd916e359","system_id":"levelo_inurba_marseille","lat":43.32482,"lon":5.36571,"is_reserved":false,"is_disabled":false,"rental_uris":{"android":"levelo://app?vid=a36931e6-beb3-4d8f-9695-022dd916e359","ios":"levelo://app?vid=a36931e6-beb3-4d8f-9695-022dd916e359"},"vehicle_type_id":"4","last_reported":1750144228,"current_range_meters":6000,"station_id":"ce4bhs12rcd13ifvqhvg","pricing_plan_id":"cebpf4jnsgd1na2vs0mg"},{"bike_id":"8c6e3f5c-fbd9-4abe-a7be-ece848b4fc54","system_id":"levelo_inurba_marseille","lat":43.32565,"lon":5.43078,"is_reserved":false,"is_disabled":false,"rental_uris":{"android":"levelo://app?vid=8c6e3f5c-fbd9-4abe-a7be-ece848b4fc54","ios":"levelo://app?vid=8c6e3f5c-fbd9-4abe-a7be-ece848b4fc54"},"vehicle_type_id":"4","last_reported":1750144228,"current_range_meters":6400,"station_id":"","pricing_plan_id":"cebpf4jnsgd1na2vs0mg"},{"bike_id":"4b359fa2-9390-43e7-b30a-f385f4c7d06f","system_id":"levelo_inurba_marseille","lat":43.30183,"lon":5.38085,"is_reserved":false,"is_disabled":false,"rental_uris":{"android":"levelo://app?vid=4b359fa2-9390-43e7-b30a-f385f4c7d06f","ios":"levelo://app?vid=4b359fa2-9390-43e7-b30a-f385f4c7d06f"},"vehicle_type_id":"4","last_reported":1750144228,"current_range_meters":6400,"station_id":"ce4bgjp2rcd13ifvqbh0","pricing_plan_id":"cebpf4jnsgd1na2vs0mg"},{"bike_id":"a94159bc-07f2-4303-a610-87e930c91679","system_id":"levelo_inurba_marseille","lat":43.30932,"lon":5.368189,"is_reserved":false,"is_disabled":false,"rental_uris":{"android":"levelo://app?vid=a94159bc-07f2-4303-a610-87e930c91679","ios":"levelo://app?vid=a94159bc-07f2-4303-a610-87e930c91679"},"vehicle_type_id":"4","last_reported":1750144228,"current_range_meters":6400,"station_id":"ce4bgn92rcd13ifvqbvg","pricing_plan_id":"cebpf4jnsgd1na2vs0mg"},{"bike_id":"0dfe7f39-53be-40ca-8806-96f86976f518","system_id":"levelo_inurba_marseille","lat":43.296241,"lon":5.371714,"is_reserved":false,"is_disabled":false,"rental_uris":{"android":"levelo://app?vid=0dfe7f39-53be-40ca-8806-96f86976f518","ios":"levelo://app?vid=0dfe7f39-53be-40ca-8806-96f86976f518"},"vehicle_type_id":"4","last_reported":1750144228,"current_range_meters":6400,"station_id":"ce4bgnh2rcd13ifvqc0g","pricing_plan_id":"cebpf4jnsgd1na2vs0mg"},{"bike_id":"4a2e09c2-1201-4049-9d66-aa2e90385da8","system_id":"levelo_inurba_marseille","lat":43.31168,"lon":5.38716,"is_reserved":false,"is_disabled":false,"rental_uris":{"android":"levelo://app?vid=4a2e09c2-1201-4049-9d66-aa2e90385da8","ios":"levelo://app?vid=4a2e09c2-1201-4049-9d66-aa2e90385da8"},"vehicle_type_id":"4","last_reported":1750144228,"current_range_meters":6400,"station_id":"ce4bgv12rcd13ifvqcp0","pricing_plan_id":"cebpf4jnsgd1na2vs0mg"},{"bike_id":"79eeb666-d8d8-469a-94d3-68222c812a1d","system_id":"levelo_inurba_marseille","lat":43.31807,"lon":5.37462,"is_reserved":false,"is_disabled":false,"rental_uris":{"android":"levelo://app?vid=79eeb666-d8d8-469a-94d3-68222c812a1d","ios":"levelo://app?vid=79eeb666-d8d8-469a-94d3-68222c812a1d"},"vehicle_type_id":"4","last_reported":1750144228,"current_range_meters":6800,"station_id":"","pricing_plan_id":"cebpf4jnsgd1na2vs0mg"},{"bike_id":"dcb87a9a-18f8-41c6-9134-949f31e21b42","system_id":"levelo_inurba_marseille","lat":43.27049,"lon":5.40004,"is_reserved":false,"is_disabled":false,"rental_uris":{"android":"levelo://app?vid=dcb87a9a-18f8-41c6-9134-949f31e21b42","ios":"levelo://app?vid=dcb87a9a-18f8-41c6-9134-949f31e21b42"},"vehicle_type_id":"4","last_reported":1750144228,"current_range_meters":6800,"station_id":"","pricing_plan_id":"cebpf4jnsgd1na2vs0mg"},{"bike_id":"10d8703f-8168-48d3-b44c-9eaaf686e239","system_id":"levelo_inurba_marseille","lat":43.30577,"lon":5.37196,"is_reserved":false,"is_disabled":false,"rental_uris":{"android":"levelo://app?vid=10d8703f-8168-48d3-b44c-9eaaf686e239","ios":"levelo://app?vid=10d8703f-8168-48d3-b44c-9eaaf686e239"},"vehicle_type_id":"4","last_reported":1750144228,"current_range_meters":6800,"station_id":"ce4bgqh2rcd13ifvqc4g","pricing_plan_id":"cebpf4jnsgd1na2vs0mg"},{"bike_id":"87a73488-390c-4e28-a3b3-5d6b7a9184c3","system_id":"levelo_inurba_marseille","lat":43.337444,"lon":5.374475,"is_reserved":false,"is_disabled":false,"rental_uris":{"android":"levelo://app?vid=87a73488-390c-4e28-a3b3-5d6b7a9184c3","ios":"levelo://app?vid=87a73488-390c-4e28-a3b3-5d6b7a9184c3"},"vehicle_type_id":"4","last_reported":1750144228,"current_range_meters":7200,"station_id":"","pricing_plan_id":"cebpf4jnsgd1na2vs0mg"},{"bike_id":"08ac4abd-a447-481b-9b73-07be2e562c59","system_id":"levelo_inurba_marseille","lat":43.31224,"lon":5.3686,"is_reserved":false,"is_disabled":false,"rental_uris":{"android":"levelo://app?vid=08ac4abd-a447-481b-9b73-07be2e562c59","ios":"levelo://app?vid=08ac4abd-a447-481b-9b73-07be2e562c59"},"vehicle_type_id":"4","last_reported":1750144228,"current_range_meters":7200,"station_id":"ce4bgl92rcd13ifvqbq0","pricing_plan_id":"cebpf4jnsgd1na2vs0mg"},{"bike_id":"0a05c7d9-87c3-42d4-985f-4f06084e5072","system_id":"levelo_inurba_marseille","lat":43.26501,"lon":5.39535,"is_reserved":false,"is_disabled":false,"rental_uris":{"android":"levelo://app?vid=0a05c7d9-87c3-42d4-985f-4f06084e5072","ios":"levelo://app?vid=0a05c7d9-87c3-42d4-985f-4f06084e5072"},"vehicle_type_id":"4","last_reported":1750144228,"current_range_meters":7200,"station_id":"ce4bhi12rcd13ifvqfq0","pricing_plan_id":"cebpf4jnsgd1na2vs0mg"},{"bike_id":"3042c9e5-c5a5-4a11-94d1-8e536b5e25f7","system_id":"levelo_inurba_marseille","lat":43.21194,"lon":5.35073,"is_reserved":false,"is_disabled":false,"rental_uris":{"android":"levelo://app?vid=3042c9e5-c5a5-4a11-94d1-8e536b5e25f7","ios":"levelo://app?vid=3042c9e5-c5a5-4a11-94d1-8e536b5e25f7"},"vehicle_type_id":"4","last_reported":1750144228,"current_range_meters":7200,"station_id":"st_cvj6sg6p6f1abm77japg","pricing_plan_id":"cebpf4jnsgd1na2vs0mg"},{"bike_id":"26a09134-8508-4070-aaff-ae574614f5c0","system_id":"levelo_inurba_marseille","lat":43.312335,"lon":5.368605,"is_reserved":false,"is_disabled":false,"rental_uris":{"android":"levelo://app?vid=26a09134-8508-4070-aaff-ae574614f5c0","ios":"levelo://app?vid=26a09134-8508-4070-aaff-ae574614f5c0"},"vehicle_type_id":"4","last_reported":1750144228,"current_range_meters":8000,"station_id":"ce4bgl92rcd13ifvqbq0","pricing_plan_id":"cebpf4jnsgd1na2vs0mg"},{"bike_id":"520b2f4d-64d1-4920-9a5e-64d58129b519","system_id":"levelo_inurba_marseille","lat":43.25938,"lon":5.40909,"is_reserved":false,"is_disabled":false,"rental_uris":{"android":"levelo://app?vid=520b2f4d-64d1-4920-9a5e-64d58129b519","ios":"levelo://app?vid=520b2f4d-64d1-4920-9a5e-64d58129b519"},"vehicle_type_id":"4","last_reported":1750144228,"current_range_meters":8000,"station_id":"ce4bhm92rcd13ifvqglg","pricing_plan_id":"cebpf4jnsgd1na2vs0mg"},{"bike_id":"853aaefa-1c6a-41b1-8640-2f9b7e9e3f3f","system_id":"levelo_inurba_marseille","lat":43.336147,"lon":5.410284,"is_reserved":false,"is_disabled":false,"rental_uris":{"android":"levelo://app?vid=853aaefa-1c6a-41b1-8640-2f9b7e9e3f3f","ios":"levelo://app?vid=853aaefa-1c6a-41b1-8640-2f9b7e9e3f3f"},"vehicle_type_id":"4","last_reported":1750144228,"current_range_meters":8000,"station_id":"ce4bhqh2rcd13ifvqhmg","pricing_plan_id":"cebpf4jnsgd1na2vs0mg"},{"bike_id":"6afc644c-08c3-42de-8619-3f94e2ba41cd","system_id":"levelo_inurba_marseille","lat":43.29867,"lon":5.43717,"is_reserved":false,"is_disabled":false,"rental_uris":{"android":"levelo://app?vid=6afc644c-08c3-42de-8619-3f94e2ba41cd","ios":"levelo://app?vid=6afc644c-08c3-42de-8619-3f94e2ba41cd"},"vehicle_type_id":"4","last_reported":1750144228,"current_range_meters":8400,"station_id":"ce4bhpp2rcd13ifvqhfg","pricing_plan_id":"cebpf4jnsgd1na2vs0mg"},{"bike_id":"00baea98-90fb-4fb7-bd5e-ccfbd6e7d6fc","system_id":"levelo_inurba_marseille","lat":43.29981,"lon":5.38505,"is_reserved":false,"is_disabled":false,"rental_uris":{"android":"levelo://app?vid=00baea98-90fb-4fb7-bd5e-ccfbd6e7d6fc","ios":"levelo://app?vid=00baea98-90fb-4fb7-bd5e-ccfbd6e7d6fc"},"vehicle_type_id":"4","last_reported":1750144228,"current_range_meters":8800,"station_id":"ce4bgj92rcd13ifvqbd0","pricing_plan_id":"cebpf4jnsgd1na2vs0mg"},{"bike_id":"48ccadef-2e8e-4515-bd23-6290ecbc8101","system_id":"levelo_inurba_marseille","lat":43.30158,"lon":5.38113,"is_reserved":false,"is_disabled":false,"rental_uris":{"android":"levelo://app?vid=48ccadef-2e8e-4515-bd23-6290ecbc8101","ios":"levelo://app?vid=48ccadef-2e8e-4515-bd23-6290ecbc8101"},"vehicle_type_id":"4","last_reported":1750144228,"current_range_meters":8800,"station_id":"ce4bgjp2rcd13ifvqbh0","pricing_plan_id":"cebpf4jnsgd1na2vs0mg"},{"bike_id":"819aa901-cd25-4f87-8ada-faa6e708ebd8","system_id":"levelo_inurba_marseille","lat":43.30141,"lon":5.37418,"is_reserved":false,"is_disabled":false,"rental_uris":{"android":"levelo://app?vid=819aa901-cd25-4f87-8ada-faa6e708ebd8","ios":"levelo://app?vid=819aa901-cd25-4f87-8ada-faa6e708ebd8"},"vehicle_type_id":"4","last_reported":1750144228,"current_range_meters":8800,"station_id":"ce4bgs92rcd13ifvqcc0","pricing_plan_id":"cebpf4jnsgd1na2vs0mg"},{"bike_id":"caf6f3e2-bc1e-413d-8e76-c9f27e19c5f2","system_id":"levelo_inurba_marseille","lat":43.26551,"lon":5.37287,"is_reserved":false,"is_disabled":false,"rental_uris":{"android":"levelo://app?vid=caf6f3e2-bc1e-413d-8e76-c9f27e19c5f2","ios":"levelo://app?vid=caf6f3e2-bc1e-413d-8e76-c9f27e19c5f2"},"vehicle_type_id":"4","last_reported":1750144228,"current_range_meters":8800,"station_id":"ce4bhg12rcd13ifvqf70","pricing_plan_id":"cebpf4jnsgd1na2vs0mg"},{"bike_id":"64da24c9-f1ac-47e8-b6d5-57b8440e7e07","system_id":"levelo_inurba_marseille","lat":43.305309,"lon":5.366917,"is_reserved":false,"is_disabled":false,"rental_uris":{"android":"levelo://app?vid=64da24c9-f1ac-47e8-b6d5-57b8440e7e07","ios":"levelo://app?vid=64da24c9-f1ac-47e8-b6d5-57b8440e7e07"},"vehicle_type_id":"4","last_reported":1750144228,"current_range_meters":9200,"station_id":"ce4bgrp2rcd13ifvqc9g","pricing_plan_id":"cebpf4jnsgd1na2vs0mg"},{"bike_id":"2df58c42-df86-4aea-b8a2-5d38854f1c64","system_id":"levelo_inurba_marseille","lat":43.3055,"lon":5.36552,"is_reserved":false,"is_disabled":false,"rental_uris":{"android":"levelo://app?vid=2df58c42-df86-4aea-b8a2-5d38854f1c64","ios":"levelo://app?vid=2df58c42-df86-4aea-b8a2-5d38854f1c64"},"vehicle_type_id":"4","last_reported":1750144228,"current_range_meters":9200,"station_id":"ce4bgs12rcd13ifvqcag","pricing_plan_id":"cebpf4jnsgd1na2vs0mg"},{"bike_id":"f7c21fb6-494c-478f-9f84-28e071014a93","system_id":"levelo_inurba_marseille","lat":43.26031,"lon":5.37544,"is_reserved":false,"is_disabled":false,"rental_uris":{"android":"levelo://app?vid=f7c21fb6-494c-478f-9f84-28e071014a93","ios":"levelo://app?vid=f7c21fb6-494c-478f-9f84-28e071014a93"},"vehicle_type_id":"4","last_reported":1750144228,"current_range_meters":9200,"station_id":"ce4bhgh2rcd13ifvqfa0","pricing_plan_id":"cebpf4jnsgd1na2vs0mg"},{"bike_id":"a66728c4-f2e7-428e-b872-e7406fb70732","system_id":"levelo_inurba_marseille","lat":43.21208,"lon":5.35068,"is_reserved":false,"is_disabled":false,"rental_uris":{"android":"levelo://app?vid=a66728c4-f2e7-428e-b872-e7406fb70732","ios":"levelo://app?vid=a66728c4-f2e7-428e-b872-e7406fb70732"},"vehicle_type_id":"4","last_reported":1750144228,"current_range_meters":9200,"station_id":"st_cvj6sg6p6f1abm77japg","pricing_plan_id":"cebpf4jnsgd1na2vs0mg"},{"bike_id":"da3e1724-606c-4f9a-9130-d56dd48e22e0","system_id":"levelo_inurba_marseille","lat":43.32968,"lon":5.40599,"is_reserved":false,"is_disabled":false,"rental_uris":{"android":"levelo://app?vid=da3e1724-606c-4f9a-9130-d56dd48e22e0","ios":"levelo://app?vid=da3e1724-606c-4f9a-9130-d56dd48e22e0"},"vehicle_type_id":"4","last_reported":1750144228,"current_range_meters":9600,"station_id":"","pricing_plan_id":"cebpf4jnsgd1na2vs0mg"},{"bike_id":"64c6d212-acc6-47e3-9e04-fbaf04a7ed4e","system_id":"levelo_inurba_marseille","lat":43.27016,"lon":5.38773,"is_reserved":false,"is_disabled":false,"rental_uris":{"android":"levelo://app?vid=64c6d212-acc6-47e3-9e04-fbaf04a7ed4e","ios":"levelo://app?vid=64c6d212-acc6-47e3-9e04-fbaf04a7ed4e"},"vehicle_type_id":"4","last_reported":1750144228,"current_range_meters":9600,"station_id":"","pricing_plan_id":"cebpf4jnsgd1na2vs0mg"},{"bike_id":"508fd1d5-464f-447c-b6cf-cfaa3ce05e3f","system_id":"levelo_inurba_marseille","lat":43.30407,"lon":5.42513,"is_reserved":false,"is_disabled":false,"rental_uris":{"android":"levelo://app?vid=508fd1d5-464f-447c-b6cf-cfaa3ce05e3f","ios":"levelo://app?vid=508fd1d5-464f-447c-b6cf-cfaa3ce05e3f"},"vehicle_type_id":"4","last_reported":1750144228,"current_range_meters":9600,"station_id":"ce4bghh2rcd13ifvqb60","pricing_plan_id":"cebpf4jnsgd1na2vs0mg"},{"bike_id":"ebfb692b-f013-40a4-b271-1cca54572bce","system_id":"levelo_inurba_marseille","lat":43.31333,"lon":5.36712,"is_reserved":false,"is_disabled":false,"rental_uris":{"android":"levelo://app?vid=ebfb692b-f013-40a4-b271-1cca54572bce","ios":"levelo://app?vid=ebfb692b-f013-40a4-b271-1cca54572bce"},"vehicle_type_id":"4","last_reported":1750144228,"current_range_meters":9600,"station_id":"ce4bgr92rcd13ifvqc6g","pricing_plan_id":"cebpf4jnsgd1na2vs0mg"},{"bike_id":"3e7b8491-a9fe-4853-89ef-e89057246ce7","system_id":"levelo_inurba_marseille","lat":43.30558,"lon":5.36531,"is_reserved":false,"is_disabled":false,"rental_uris":{"android":"levelo://app?vid=3e7b8491-a9fe-4853-89ef-e89057246ce7","ios":"levelo://app?vid=3e7b8491-a9fe-4853-89ef-e89057246ce7"},"vehicle_type_id":"4","last_reported":1750144228,"current_range_meters":9600,"station_id":"ce4bgs12rcd13ifvqcag","pricing_plan_id":"cebpf4jnsgd1na2vs0mg"},{"bike_id":"c2448461-ad65-4bf9-9112-7fe5c3185435","system_id":"levelo_inurba_marseille","lat":43.26689,"lon":5.38275,"is_reserved":false,"is_disabled":false,"rental_uris":{"android":"levelo://app?vid=c2448461-ad65-4bf9-9112-7fe5c3185435","ios":"levelo://app?vid=c2448461-ad65-4bf9-9112-7fe5c3185435"},"vehicle_type_id":"4","last_reported":1750144228,"current_range_meters":9600,"station_id":"ce4bhg92rcd13ifvqf90","pricing_plan_id":"cebpf4jnsgd1na2vs0mg"},{"bike_id":"eb33afaa-f73d-4c0e-beb4-a289a7137f36","system_id":"levelo_inurba_marseille","lat":43.26195,"lon":5.37451,"is_reserved":false,"is_disabled":false,"rental_uris":{"android":"levelo://app?vid=eb33afaa-f73d-4c0e-beb4-a289a7137f36","ios":"levelo://app?vid=eb33afaa-f73d-4c0e-beb4-a289a7137f36"},"vehicle_type_id":"4","last_reported":1750144228,"current_range_meters":9600,"station_id":"ce4bhgp2rcd13ifvqfc0","pricing_plan_id":"cebpf4jnsgd1na2vs0mg"},{"bike_id":"51490275-adbe-42c8-8c02-8d0998bae051","system_id":"levelo_inurba_marseille","lat":43.25727,"lon":5.41107,"is_reserved":false,"is_disabled":false,"rental_uris":{"android":"levelo://app?vid=51490275-adbe-42c8-8c02-8d0998bae051","ios":"levelo://app?vid=51490275-adbe-42c8-8c02-8d0998bae051"},"vehicle_type_id":"4","last_reported":1750144228,"current_range_meters":10000,"station_id":"ce4bhkp2rcd13ifvqgd0","pricing_plan_id":"cebpf4jnsgd1na2vs0mg"},{"bike_id":"34b6440e-c7b5-48b2-937e-919737aa21ee","system_id":"levelo_inurba_marseille","lat":43.24179,"lon":5.39732,"is_reserved":false,"is_disabled":false,"rental_uris":{"android":"levelo://app?vid=34b6440e-c7b5-48b2-937e-919737aa21ee","ios":"levelo://app?vid=34b6440e-c7b5-48b2-937e-919737aa21ee"},"vehicle_type_id":"4","last_reported":1750144228,"current_range_meters":10000,"station_id":"ce4bhn12rcd13ifvqgpg","pricing_plan_id":"cebpf4jnsgd1na2vs0mg"},{"bike_id":"16d1eb4f-e479-477d-b2cb-5fd8838c33e7","system_id":"levelo_inurba_marseille","lat":43.22939,"lon":5.35375,"is_reserved":false,"is_disabled":false,"rental_uris":{"android":"levelo://app?vid=16d1eb4f-e479-477d-b2cb-5fd8838c33e7","ios":"levelo://app?vid=16d1eb4f-e479-477d-b2cb-5fd8838c33e7"},"vehicle_type_id":"4","last_reported":1750144228,"current_range_meters":10000,"station_id":"cpo3532slgdg3j2ikp40","pricing_plan_id":"cebpf4jnsgd1na2vs0mg"},{"bike_id":"b35914ae-da38-46fc-9230-b3564743afac","system_id":"levelo_inurba_marseille","lat":43.31714,"lon":5.4041,"is_reserved":false,"is_disabled":false,"rental_uris":{"android":"levelo://app?vid=b35914ae-da38-46fc-9230-b3564743afac","ios":"levelo://app?vid=b35914ae-da38-46fc-9230-b3564743afac"},"vehicle_type_id":"4","last_reported":1750144228,"current_range_meters":10800,"station_id":"","pricing_plan_id":"cebpf4jnsgd1na2vs0mg"},{"bike_id":"356258c8-0ad6-493b-b5a4-77e865070f65","system_id":"levelo_inurba_marseille","lat":43.32618,"lon":5.41982,"is_reserved":false,"is_disabled":false,"rental_uris":{"android":"levelo://app?vid=356258c8-0ad6-493b-b5a4-77e865070f65","ios":"levelo://app?vid=356258c8-0ad6-493b-b5a4-77e865070f65"},"vehicle_type_id":"4","last_reported":1750144228,"current_range_meters":10800,"station_id":"","pricing_plan_id":"cebpf4jnsgd1na2vs0mg"},{"bike_id":"cb6372eb-4408-40e0-ab6a-e9b2327003ca","system_id":"levelo_inurba_marseille","lat":43.29843,"lon":5.36266,"is_reserved":false,"is_disabled":false,"rental_uris":{"android":"levelo://app?vid=cb6372eb-4408-40e0-ab6a-e9b2327003ca","ios":"levelo://app?vid=cb6372eb-4408-40e0-ab6a-e9b2327003ca"},"vehicle_type_id":"4","last_reported":1750144228,"current_range_meters":10800,"station_id":"ce4bgpp2rcd13ifvqc3g","pricing_plan_id":"cebpf4jnsgd1na2vs0mg"},{"bike_id":"8496696f-71b0-4612-aba2-4a6584e6cc13","system_id":"levelo_inurba_marseille","lat":43.305318,"lon":5.367033,"is_reserved":false,"is_disabled":false,"rental_uris":{"android":"levelo://app?vid=8496696f-71b0-4612-aba2-4a6584e6cc13","ios":"levelo://app?vid=8496696f-71b0-4612-aba2-4a6584e6cc13"},"vehicle_type_id":"4","last_reported":1750144228,"current_range_meters":10800,"station_id":"ce4bgrp2rcd13ifvqc9g","pricing_plan_id":"cebpf4jnsgd1na2vs0mg"},{"bike_id":"6a9e261d-8f49-4b8c-b291-d5400f395389","system_id":"levelo_inurba_marseille","lat":43.30545,"lon":5.36705,"is_reserved":false,"is_disabled":false,"rental_uris":{"android":"levelo://app?vid=6a9e261d-8f49-4b8c-b291-d5400f395389","ios":"levelo://app?vid=6a9e261d-8f49-4b8c-b291-d5400f395389"},"vehicle_type_id":"4","last_reported":1750144228,"current_range_meters":10800,"station_id":"ce4bgrp2rcd13ifvqc9g","pricing_plan_id":"cebpf4jnsgd1na2vs0mg"},{"bike_id":"340be65c-b1c6-4c4d-9220-0a4ce317397f","system_id":"levelo_inurba_marseille","lat":43.30948,"lon":5.39031,"is_reserved":false,"is_disabled":false,"rental_uris":{"android":"levelo://app?vid=340be65c-b1c6-4c4d-9220-0a4ce317397f","ios":"levelo://app?vid=340be65c-b1c6-4c4d-9220-0a4ce317397f"},"vehicle_type_id":"4","last_reported":1750144228,"current_range_meters":10800,"station_id":"ce4bgup2rcd13ifvqco0","pricing_plan_id":"cebpf4jnsgd1na2vs0mg"},{"bike_id":"60aee3e5-ddf8-4600-a663-08cc0004499c","system_id":"levelo_inurba_marseille","lat":43.28033,"lon":5.36944,"is_reserved":false,"is_disabled":false,"rental_uris":{"android":"levelo://app?vid=60aee3e5-ddf8-4600-a663-08cc0004499c","ios":"levelo://app?vid=60aee3e5-ddf8-4600-a663-08cc0004499c"},"vehicle_type_id":"4","last_reported":1750144228,"current_range_meters":10800,"station_id":"ce4bha12rcd13ifvqef0","pricing_plan_id":"cebpf4jnsgd1na2vs0mg"},{"bike_id":"1ef6eca7-298f-4e73-9a00-ec14d360d062","system_id":"levelo_inurba_marseille","lat":43.26214,"lon":5.37442,"is_reserved":false,"is_disabled":false,"rental_uris":{"android":"levelo://app?vid=1ef6eca7-298f-4e73-9a00-ec14d360d062","ios":"levelo://app?vid=1ef6eca7-298f-4e73-9a00-ec14d360d062"},"vehicle_type_id":"4","last_reported":1750144228,"current_range_meters":10800,"station_id":"ce4bhgp2rcd13ifvqfc0","pricing_plan_id":"cebpf4jnsgd1na2vs0mg"},{"bike_id":"1dc4c493-fd50-4b2b-ba20-0c82ec46f928","system_id":"levelo_inurba_marseille","lat":43.26196,"lon":5.37452,"is_reserved":false,"is_disabled":false,"rental_uris":{"android":"levelo://app?vid=1dc4c493-fd50-4b2b-ba20-0c82ec46f928","ios":"levelo://app?vid=1dc4c493-fd50-4b2b-ba20-0c82ec46f928"},"vehicle_type_id":"4","last_reported":1750144228,"current_range_meters":10800,"station_id":"ce4bhgp2rcd13ifvqfc0","pricing_plan_id":"cebpf4jnsgd1na2vs0mg"},{"bike_id":"95be4f8d-01df-406f-8e42-3407556b2269","system_id":"levelo_inurba_marseille","lat":43.2593,"lon":5.40906,"is_reserved":false,"is_disabled":false,"rental_uris":{"android":"levelo://app?vid=95be4f8d-01df-406f-8e42-3407556b2269","ios":"levelo://app?vid=95be4f8d-01df-406f-8e42-3407556b2269"},"vehicle_type_id":"4","last_reported":1750144228,"current_range_meters":10800,"station_id":"ce4bhm92rcd13ifvqglg","pricing_plan_id":"cebpf4jnsgd1na2vs0mg"},{"bike_id":"d2868572-6fee-4690-8a81-283adbeec80c","system_id":"levelo_inurba_marseille","lat":43.21196,"lon":5.35069,"is_reserved":false,"is_disabled":false,"rental_uris":{"android":"levelo://app?vid=d2868572-6fee-4690-8a81-283adbeec80c","ios":"levelo://app?vid=d2868572-6fee-4690-8a81-283adbeec80c"},"vehicle_type_id":"4","last_reported":1750144228,"current_range_meters":10800,"station_id":"st_cvj6sg6p6f1abm77japg","pricing_plan_id":"cebpf4jnsgd1na2vs0mg"},{"bike_id":"6b75a80e-12fa-4bd0-b8db-b509b9abce19","system_id":"levelo_inurba_marseille","lat":43.21199,"lon":5.35072,"is_reserved":false,"is_disabled":false,"rental_uris":{"android":"levelo://app?vid=6b75a80e-12fa-4bd0-b8db-b509b9abce19","ios":"levelo://app?vid=6b75a80e-12fa-4bd0-b8db-b509b9abce19"},"vehicle_type_id":"4","last_reported":1750144228,"current_range_meters":10800,"station_id":"st_cvj6sg6p6f1abm77japg","pricing_plan_id":"cebpf4jnsgd1na2vs0mg"},{"bike_id":"429afbfa-8c47-4b4f-9498-ff2ecc489b72","system_id":"levelo_inurba_marseille","lat":43.26495,"lon":5.39547,"is_reserved":false,"is_disabled":false,"rental_uris":{"android":"levelo://app?vid=429afbfa-8c47-4b4f-9498-ff2ecc489b72","ios":"levelo://app?vid=429afbfa-8c47-4b4f-9498-ff2ecc489b72"},"vehicle_type_id":"4","last_reported":1750144228,"current_range_meters":11200,"station_id":"ce4bhi12rcd13ifvqfq0","pricing_plan_id":"cebpf4jnsgd1na2vs0mg"},{"bike_id":"76170450-d0e1-40ae-bb61-a69e02268a9d","system_id":"levelo_inurba_marseille","lat":43.25924,"lon":5.40867,"is_reserved":false,"is_disabled":false,"rental_uris":{"android":"levelo://app?vid=76170450-d0e1-40ae-bb61-a69e02268a9d","ios":"levelo://app?vid=76170450-d0e1-40ae-bb61-a69e02268a9d"},"vehicle_type_id":"4","last_reported":1750144228,"current_range_meters":11200,"station_id":"ce4bhm92rcd13ifvqglg","pricing_plan_id":"cebpf4jnsgd1na2vs0mg"},{"bike_id":"0277b3ce-90d1-4101-a63e-e4a10f0400c9","system_id":"levelo_inurba_marseille","lat":43.30174,"lon":5.38086,"is_reserved":false,"is_disabled":false,"rental_uris":{"android":"levelo://app?vid=0277b3ce-90d1-4101-a63e-e4a10f0400c9","ios":"levelo://app?vid=0277b3ce-90d1-4101-a63e-e4a10f0400c9"},"vehicle_type_id":"4","last_reported":1750144228,"current_range_meters":11600,"station_id":"ce4bgjp2rcd13ifvqbh0","pricing_plan_id":"cebpf4jnsgd1na2vs0mg"},{"bike_id":"0626f844-851d-46f7-b927-0098a85ccedf","system_id":"levelo_inurba_marseille","lat":43.30132,"lon":5.37422,"is_reserved":false,"is_disabled":false,"rental_uris":{"android":"levelo://app?vid=0626f844-851d-46f7-b927-0098a85ccedf","ios":"levelo://app?vid=0626f844-851d-46f7-b927-0098a85ccedf"},"vehicle_type_id":"4","last_reported":1750144228,"current_range_meters":11600,"station_id":"ce4bgs92rcd13ifvqcc0","pricing_plan_id":"cebpf4jnsgd1na2vs0mg"},{"bike_id":"3647de8f-6a28-40dd-94d2-1b4278ba1f0a","system_id":"levelo_inurba_marseille","lat":43.3028,"lon":5.37705,"is_reserved":false,"is_disabled":false,"rental_uris":{"android":"levelo://app?vid=3647de8f-6a28-40dd-94d2-1b4278ba1f0a","ios":"levelo://app?vid=3647de8f-6a28-40dd-94d2-1b4278ba1f0a"},"vehicle_type_id":"4","last_reported":1750144228,"current_range_meters":11600,"station_id":"ce4bguh2rcd13ifvqcj0","pricing_plan_id":"cebpf4jnsgd1na2vs0mg"},{"bike_id":"e83485c9-6882-402f-b854-1902b875d9db","system_id":"levelo_inurba_marseille","lat":43.27069,"lon":5.42306,"is_reserved":false,"is_disabled":false,"rental_uris":{"android":"levelo://app?vid=e83485c9-6882-402f-b854-1902b875d9db","ios":"levelo://app?vid=e83485c9-6882-402f-b854-1902b875d9db"},"vehicle_type_id":"4","last_reported":1750144228,"current_range_meters":11600,"station_id":"ce4bhk92rcd13ifvqgb0","pricing_plan_id":"cebpf4jnsgd1na2vs0mg"},{"bike_id":"a2a48f7f-3208-48fd-acad-45de576c8273","system_id":"levelo_inurba_marseille","lat":43.25935,"lon":5.40906,"is_reserved":false,"is_disabled":false,"rental_uris":{"android":"levelo://app?vid=a2a48f7f-3208-48fd-acad-45de576c8273","ios":"levelo://app?vid=a2a48f7f-3208-48fd-acad-45de576c8273"},"vehicle_type_id":"4","last_reported":1750144228,"current_range_meters":11600,"station_id":"ce4bhm92rcd13ifvqglg","pricing_plan_id":"cebpf4jnsgd1na2vs0mg"},{"bike_id":"3427a727-c0ee-4004-8f56-143c8a35d68d","system_id":"levelo_inurba_marseille","lat":43.25922,"lon":5.40908,"is_reserved":false,"is_disabled":false,"rental_uris":{"android":"levelo://app?vid=3427a727-c0ee-4004-8f56-143c8a35d68d","ios":"levelo://app?vid=3427a727-c0ee-4004-8f56-143c8a35d68d"},"vehicle_type_id":"4","last_reported":1750144228,"current_range_meters":11600,"station_id":"ce4bhm92rcd13ifvqglg","pricing_plan_id":"cebpf4jnsgd1na2vs0mg"},{"bike_id":"2de785da-3ba4-46dc-bbd6-a55810035192","system_id":"levelo_inurba_marseille","lat":43.24079,"lon":5.37755,"is_reserved":false,"is_disabled":false,"rental_uris":{"android":"levelo://app?vid=2de785da-3ba4-46dc-bbd6-a55810035192","ios":"levelo://app?vid=2de785da-3ba4-46dc-bbd6-a55810035192"},"vehicle_type_id":"4","last_reported":1750144228,"current_range_meters":11600,"station_id":"ce4bhnp2rcd13ifvqgvg","pricing_plan_id":"cebpf4jnsgd1na2vs0mg"},{"bike_id":"d247f4ab-211a-407b-9290-4f185f6cd66a","system_id":"levelo_inurba_marseille","lat":43.21206,"lon":5.35047,"is_reserved":false,"is_disabled":false,"rental_uris":{"android":"levelo://app?vid=d247f4ab-211a-407b-9290-4f185f6cd66a","ios":"levelo://app?vid=d247f4ab-211a-407b-9290-4f185f6cd66a"},"vehicle_type_id":"4","last_reported":1750144228,"current_range_meters":11600,"station_id":"st_cvj6sg6p6f1abm77japg","pricing_plan_id":"cebpf4jnsgd1na2vs0mg"},{"bike_id":"55c44349-8703-4804-9fe0-2468fad9d1ba","system_id":"levelo_inurba_marseille","lat":43.31355,"lon":5.3671,"is_reserved":false,"is_disabled":false,"rental_uris":{"android":"levelo://app?vid=55c44349-8703-4804-9fe0-2468fad9d1ba","ios":"levelo://app?vid=55c44349-8703-4804-9fe0-2468fad9d1ba"},"vehicle_type_id":"4","last_reported":1750144228,"current_range_meters":12000,"station_id":"ce4bgr92rcd13ifvqc6g","pricing_plan_id":"cebpf4jnsgd1na2vs0mg"},{"bike_id":"532b77cd-a9d5-4bdb-b612-fd13798edc6b","system_id":"levelo_inurba_marseille","lat":43.30573,"lon":5.36645,"is_reserved":false,"is_disabled":false,"rental_uris":{"android":"levelo://app?vid=532b77cd-a9d5-4bdb-b612-fd13798edc6b","ios":"levelo://app?vid=532b77cd-a9d5-4bdb-b612-fd13798edc6b"},"vehicle_type_id":"4","last_reported":1750144228,"current_range_meters":12000,"station_id":"ce4bgrp2rcd13ifvqc9g","pricing_plan_id":"cebpf4jnsgd1na2vs0mg"},{"bike_id":"ec64fd9e-999f-4ed8-ab92-dfb233527ccf","system_id":"levelo_inurba_marseille","lat":43.30534,"lon":5.36552,"is_reserved":false,"is_disabled":false,"rental_uris":{"android":"levelo://app?vid=ec64fd9e-999f-4ed8-ab92-dfb233527ccf","ios":"levelo://app?vid=ec64fd9e-999f-4ed8-ab92-dfb233527ccf"},"vehicle_type_id":"4","last_reported":1750144228,"current_range_meters":12000,"station_id":"ce4bgs12rcd13ifvqcag","pricing_plan_id":"cebpf4jnsgd1na2vs0mg"},{"bike_id":"f3701b30-4d36-484c-b469-734c6b65f742","system_id":"levelo_inurba_marseille","lat":43.29033,"lon":5.39973,"is_reserved":false,"is_disabled":false,"rental_uris":{"android":"levelo://app?vid=f3701b30-4d36-484c-b469-734c6b65f742","ios":"levelo://app?vid=f3701b30-4d36-484c-b469-734c6b65f742"},"vehicle_type_id":"4","last_reported":1750144228,"current_range_meters":12000,"station_id":"ce4bh392rcd13ifvqdm0","pricing_plan_id":"cebpf4jnsgd1na2vs0mg"},{"bike_id":"9f4dd925-22b6-4b4a-b656-e5616b538e7b","system_id":"levelo_inurba_marseille","lat":43.27374,"lon":5.36256,"is_reserved":false,"is_disabled":false,"rental_uris":{"android":"levelo://app?vid=9f4dd925-22b6-4b4a-b656-e5616b538e7b","ios":"levelo://app?vid=9f4dd925-22b6-4b4a-b656-e5616b538e7b"},"vehicle_type_id":"4","last_reported":1750144228,"current_range_meters":12000,"station_id":"ce4bhbh2rcd13ifvqeo0","pricing_plan_id":"cebpf4jnsgd1na2vs0mg"},{"bike_id":"25960fd9-8509-4555-9b23-fa4fae1e21d0","system_id":"levelo_inurba_marseille","lat":43.29017,"lon":5.38197,"is_reserved":false,"is_disabled":false,"rental_uris":{"android":"levelo://app?vid=25960fd9-8509-4555-9b23-fa4fae1e21d0","ios":"levelo://app?vid=25960fd9-8509-4555-9b23-fa4fae1e21d0"},"vehicle_type_id":"4","last_reported":1750144228,"current_range_meters":12400,"station_id":"","pricing_plan_id":"cebpf4jnsgd1na2vs0mg"},{"bike_id":"d15e97b3-501f-458f-810d-aadce744705f","system_id":"levelo_inurba_marseille","lat":43.31236,"lon":5.36879,"is_reserved":false,"is_disabled":false,"rental_uris":{"android":"levelo://app?vid=d15e97b3-501f-458f-810d-aadce744705f","ios":"levelo://app?vid=d15e97b3-501f-458f-810d-aadce744705f"},"vehicle_type_id":"4","last_reported":1750144228,"current_range_meters":12400,"station_id":"ce4bgl92rcd13ifvqbq0","pricing_plan_id":"cebpf4jnsgd1na2vs0mg"},{"bike_id":"6fd409d3-b7f7-4483-95ba-4f0734931056","system_id":"levelo_inurba_marseille","lat":43.27841,"lon":5.39215,"is_reserved":false,"is_disabled":false,"rental_uris":{"android":"levelo://app?vid=6fd409d3-b7f7-4483-95ba-4f0734931056","ios":"levelo://app?vid=6fd409d3-b7f7-4483-95ba-4f0734931056"},"vehicle_type_id":"4","last_reported":1750144228,"current_range_meters":12400,"station_id":"ce4bhjp2rcd13ifvqga0","pricing_plan_id":"cebpf4jnsgd1na2vs0mg"},{"bike_id":"22bb4219-1113-4018-bc48-214e822df766","system_id":"levelo_inurba_marseille","lat":43.24103,"lon":5.37775,"is_reserved":false,"is_disabled":false,"rental_uris":{"android":"levelo://app?vid=22bb4219-1113-4018-bc48-214e822df766","ios":"levelo://app?vid=22bb4219-1113-4018-bc48-214e822df766"},"vehicle_type_id":"4","last_reported":1750144228,"current_range_meters":12400,"station_id":"ce4bhnp2rcd13ifvqgvg","pricing_plan_id":"cebpf4jnsgd1na2vs0mg"},{"bike_id":"222abc74-91c7-44a6-88b6-c71afabef20f","system_id":"levelo_inurba_marseille","lat":43.32493,"lon":5.3657,"is_reserved":false,"is_disabled":false,"rental_uris":{"android":"levelo://app?vid=222abc74-91c7-44a6-88b6-c71afabef20f","ios":"levelo://app?vid=222abc74-91c7-44a6-88b6-c71afabef20f"},"vehicle_type_id":"4","last_reported":1750144228,"current_range_meters":12400,"station_id":"ce4bhs12rcd13ifvqhvg","pricing_plan_id":"cebpf4jnsgd1na2vs0mg"},{"bike_id":"25be301b-e50b-4f31-a209-462aec1b4ce5","system_id":"levelo_inurba_marseille","lat":43.21208,"lon":5.35049,"is_reserved":false,"is_disabled":false,"rental_uris":{"android":"levelo://app?vid=25be301b-e50b-4f31-a209-462aec1b4ce5","ios":"levelo://app?vid=25be301b-e50b-4f31-a209-462aec1b4ce5"},"vehicle_type_id":"4","last_reported":1750144228,"current_range_meters":12400,"station_id":"st_cvj6sg6p6f1abm77japg","pricing_plan_id":"cebpf4jnsgd1na2vs0mg"},{"bike_id":"50e8a011-627a-4234-8a5b-2f8ac1952916","system_id":"levelo_inurba_marseille","lat":43.30169,"lon":5.38098,"is_reserved":false,"is_disabled":false,"rental_uris":{"android":"levelo://app?vid=50e8a011-627a-4234-8a5b-2f8ac1952916","ios":"levelo://app?vid=50e8a011-627a-4234-8a5b-2f8ac1952916"},"vehicle_type_id":"4","last_reported":1750144228,"current_range_meters":12800,"station_id":"ce4bgjp2rcd13ifvqbh0","pricing_plan_id":"cebpf4jnsgd1na2vs0mg"},{"bike_id":"ae94686a-9b6b-47c7-9d4f-f4f4c3a6bb10","system_id":"levelo_inurba_marseille","lat":43.28616,"lon":5.35104,"is_reserved":false,"is_disabled":false,"rental_uris":{"android":"levelo://app?vid=ae94686a-9b6b-47c7-9d4f-f4f4c3a6bb10","ios":"levelo://app?vid=ae94686a-9b6b-47c7-9d4f-f4f4c3a6bb10"},"vehicle_type_id":"4","last_reported":1750144228,"current_range_meters":12800,"station_id":"ce4bhch2rcd13ifvqeug","pricing_plan_id":"cebpf4jnsgd1na2vs0mg"},{"bike_id":"37300263-0cc3-4260-be97-fca4946a438a","system_id":"levelo_inurba_marseille","lat":43.24996,"lon":5.38933,"is_reserved":false,"is_disabled":false,"rental_uris":{"android":"levelo://app?vid=37300263-0cc3-4260-be97-fca4946a438a","ios":"levelo://app?vid=37300263-0cc3-4260-be97-fca4946a438a"},"vehicle_type_id":"4","last_reported":1750144228,"current_range_meters":12800,"station_id":"ce4bhgp2rcd13ifvqfd0","pricing_plan_id":"cebpf4jnsgd1na2vs0mg"},{"bike_id":"fecb1707-00a5-41d4-8e5a-64177f296127","system_id":"levelo_inurba_marseille","lat":43.25898,"lon":5.40939,"is_reserved":false,"is_disabled":false,"rental_uris":{"android":"levelo://app?vid=fecb1707-00a5-41d4-8e5a-64177f296127","ios":"levelo://app?vid=fecb1707-00a5-41d4-8e5a-64177f296127"},"vehicle_type_id":"4","last_reported":1750144228,"current_range_meters":12800,"station_id":"ce4bhm92rcd13ifvqglg","pricing_plan_id":"cebpf4jnsgd1na2vs0mg"},{"bike_id":"1e373418-986e-4d3c-9ff7-c37dd7c7a214","system_id":"levelo_inurba_marseille","lat":43.29896,"lon":5.43661,"is_reserved":false,"is_disabled":false,"rental_uris":{"android":"levelo://app?vid=1e373418-986e-4d3c-9ff7-c37dd7c7a214","ios":"levelo://app?vid=1e373418-986e-4d3c-9ff7-c37dd7c7a214"},"vehicle_type_id":"4","last_reported":1750144228,"current_range_meters":12800,"station_id":"ce4bhpp2rcd13ifvqhfg","pricing_plan_id":"cebpf4jnsgd1na2vs0mg"},{"bike_id":"e2c07613-17cd-4cc8-a057-7b684d218510","system_id":"levelo_inurba_marseille","lat":43.30553,"lon":5.36524,"is_reserved":false,"is_disabled":false,"rental_uris":{"android":"levelo://app?vid=e2c07613-17cd-4cc8-a057-7b684d218510","ios":"levelo://app?vid=e2c07613-17cd-4cc8-a057-7b684d218510"},"vehicle_type_id":"4","last_reported":1750144228,"current_range_meters":13600,"station_id":"ce4bgs12rcd13ifvqcag","pricing_plan_id":"cebpf4jnsgd1na2vs0mg"},{"bike_id":"b2efe958-c75f-4907-8aab-2a929dd7b2e4","system_id":"levelo_inurba_marseille","lat":43.30952,"lon":5.39034,"is_reserved":false,"is_disabled":false,"rental_uris":{"android":"levelo://app?vid=b2efe958-c75f-4907-8aab-2a929dd7b2e4","ios":"levelo://app?vid=b2efe958-c75f-4907-8aab-2a929dd7b2e4"},"vehicle_type_id":"4","last_reported":1750144228,"current_range_meters":13600,"station_id":"ce4bgup2rcd13ifvqco0","pricing_plan_id":"cebpf4jnsgd1na2vs0mg"},{"bike_id":"8d8216b7-70be-4e0e-b02f-ed276d5ecd5f","system_id":"levelo_inurba_marseille","lat":43.2306,"lon":5.35493,"is_reserved":false,"is_disabled":false,"rental_uris":{"android":"levelo://app?vid=8d8216b7-70be-4e0e-b02f-ed276d5ecd5f","ios":"levelo://app?vid=8d8216b7-70be-4e0e-b02f-ed276d5ecd5f"},"vehicle_type_id":"4","last_reported":1750144228,"current_range_meters":13600,"station_id":"cpo3342slgdg3j2ifvpg","pricing_plan_id":"cebpf4jnsgd1na2vs0mg"},{"bike_id":"0e27dafc-21df-4fb1-bd36-2450a7866702","system_id":"levelo_inurba_marseille","lat":43.27143,"lon":5.40012,"is_reserved":false,"is_disabled":false,"rental_uris":{"android":"levelo://app?vid=0e27dafc-21df-4fb1-bd36-2450a7866702","ios":"levelo://app?vid=0e27dafc-21df-4fb1-bd36-2450a7866702"},"vehicle_type_id":"4","last_reported":1750144228,"current_range_meters":14000,"station_id":"","pricing_plan_id":"cebpf4jnsgd1na2vs0mg"},{"bike_id":"ca045d8b-8507-4aae-ad93-711620ea2dfc","system_id":"levelo_inurba_marseille","lat":43.27207,"lon":5.391825,"is_reserved":false,"is_disabled":false,"rental_uris":{"android":"levelo://app?vid=ca045d8b-8507-4aae-ad93-711620ea2dfc","ios":"levelo://app?vid=ca045d8b-8507-4aae-ad93-711620ea2dfc"},"vehicle_type_id":"4","last_reported":1750144228,"current_range_meters":14000,"station_id":"ce4bhhp2rcd13ifvqfm0","pricing_plan_id":"cebpf4jnsgd1na2vs0mg"},{"bike_id":"30cd9817-86b6-4a45-8951-a1ef254a09b6","system_id":"levelo_inurba_marseille","lat":43.25937,"lon":5.40908,"is_reserved":false,"is_disabled":false,"rental_uris":{"android":"levelo://app?vid=30cd9817-86b6-4a45-8951-a1ef254a09b6","ios":"levelo://app?vid=30cd9817-86b6-4a45-8951-a1ef254a09b6"},"vehicle_type_id":"4","last_reported":1750144228,"current_range_meters":14000,"station_id":"ce4bhm92rcd13ifvqglg","pricing_plan_id":"cebpf4jnsgd1na2vs0mg"},{"bike_id":"d55b3fa3-2064-4251-83dc-d2b428ecb7e4","system_id":"levelo_inurba_marseille","lat":43.30378,"lon":5.40754,"is_reserved":false,"is_disabled":false,"rental_uris":{"android":"levelo://app?vid=d55b3fa3-2064-4251-83dc-d2b428ecb7e4","ios":"levelo://app?vid=d55b3fa3-2064-4251-83dc-d2b428ecb7e4"},"vehicle_type_id":"4","last_reported":1750144228,"current_range_meters":14400,"station_id":"","pricing_plan_id":"cebpf4jnsgd1na2vs0mg"},{"bike_id":"62a37da0-7ab4-4e38-8234-e93e3c58911a","system_id":"levelo_inurba_marseille","lat":43.24389,"lon":5.37055,"is_reserved":false,"is_disabled":false,"rental_uris":{"android":"levelo://app?vid=62a37da0-7ab4-4e38-8234-e93e3c58911a","ios":"levelo://app?vid=62a37da0-7ab4-4e38-8234-e93e3c58911a"},"vehicle_type_id":"4","last_reported":1750144228,"current_range_meters":14400,"station_id":"ce4bhhh2rcd13ifvqfk0","pricing_plan_id":"cebpf4jnsgd1na2vs0mg"},{"bike_id":"eca25bd6-1b44-4388-a7b0-074a85a4f502","system_id":"levelo_inurba_marseille","lat":43.31107,"lon":5.39739,"is_reserved":false,"is_disabled":false,"rental_uris":{"android":"levelo://app?vid=eca25bd6-1b44-4388-a7b0-074a85a4f502","ios":"levelo://app?vid=eca25bd6-1b44-4388-a7b0-074a85a4f502"},"vehicle_type_id":"4","last_reported":1750144228,"current_range_meters":14800,"station_id":"","pricing_plan_id":"cebpf4jnsgd1na2vs0mg"},{"bike_id":"05c83b43-7596-478f-bd9c-d0fdd50e3c77","system_id":"levelo_inurba_marseille","lat":43.3015,"lon":5.38081,"is_reserved":false,"is_disabled":false,"rental_uris":{"android":"levelo://app?vid=05c83b43-7596-478f-bd9c-d0fdd50e3c77","ios":"levelo://app?vid=05c83b43-7596-478f-bd9c-d0fdd50e3c77"},"vehicle_type_id":"4","last_reported":1750144228,"current_range_meters":14800,"station_id":"ce4bgjp2rcd13ifvqbh0","pricing_plan_id":"cebpf4jnsgd1na2vs0mg"},{"bike_id":"babad50f-37f0-4ce0-9d8c-f45c035a0718","system_id":"levelo_inurba_marseille","lat":43.30502,"lon":5.37989,"is_reserved":false,"is_disabled":false,"rental_uris":{"android":"levelo://app?vid=babad50f-37f0-4ce0-9d8c-f45c035a0718","ios":"levelo://app?vid=babad50f-37f0-4ce0-9d8c-f45c035a0718"},"vehicle_type_id":"4","last_reported":1750144228,"current_range_meters":14800,"station_id":"ce4bgup2rcd13ifvqcn0","pricing_plan_id":"cebpf4jnsgd1na2vs0mg"},{"bike_id":"0d5b2ec9-ebeb-4893-979e-6bb4dbded9e9","system_id":"levelo_inurba_marseille","lat":43.28478,"lon":5.38414,"is_reserved":false,"is_disabled":false,"rental_uris":{"android":"levelo://app?vid=0d5b2ec9-ebeb-4893-979e-6bb4dbded9e9","ios":"levelo://app?vid=0d5b2ec9-ebeb-4893-979e-6bb4dbded9e9"},"vehicle_type_id":"4","last_reported":1750144228,"current_range_meters":14800,"station_id":"ce4bh512rcd13ifvqe3g","pricing_plan_id":"cebpf4jnsgd1na2vs0mg"},{"bike_id":"63d8f8de-6fb5-461e-8196-70d15c64a587","system_id":"levelo_inurba_marseille","lat":43.21191,"lon":5.35079,"is_reserved":false,"is_disabled":false,"rental_uris":{"android":"levelo://app?vid=63d8f8de-6fb5-461e-8196-70d15c64a587","ios":"levelo://app?vid=63d8f8de-6fb5-461e-8196-70d15c64a587"},"vehicle_type_id":"4","last_reported":1750144228,"current_range_meters":14800,"station_id":"st_cvj6sg6p6f1abm77japg","pricing_plan_id":"cebpf4jnsgd1na2vs0mg"},{"bike_id":"1ab5c792-fd2c-4b22-816a-3f6dad045301","system_id":"levelo_inurba_marseille","lat":43.30905,"lon":5.36842,"is_reserved":false,"is_disabled":false,"rental_uris":{"android":"levelo://app?vid=1ab5c792-fd2c-4b22-816a-3f6dad045301","ios":"levelo://app?vid=1ab5c792-fd2c-4b22-816a-3f6dad045301"},"vehicle_type_id":"4","last_reported":1750144228,"current_range_meters":15200,"station_id":"ce4bgn92rcd13ifvqbvg","pricing_plan_id":"cebpf4jnsgd1na2vs0mg"},{"bike_id":"4d360684-9abc-47d6-baa6-4a6f5c930f12","system_id":"levelo_inurba_marseille","lat":43.24998,"lon":5.38928,"is_reserved":false,"is_disabled":false,"rental_uris":{"android":"levelo://app?vid=4d360684-9abc-47d6-baa6-4a6f5c930f12","ios":"levelo://app?vid=4d360684-9abc-47d6-baa6-4a6f5c930f12"},"vehicle_type_id":"4","last_reported":1750144228,"current_range_meters":15200,"station_id":"ce4bhgp2rcd13ifvqfd0","pricing_plan_id":"cebpf4jnsgd1na2vs0mg"},{"bike_id":"381bd0ad-ce73-4a4f-b643-1e1c87957c84","system_id":"levelo_inurba_marseille","lat":43.240636,"lon":5.377726,"is_reserved":false,"is_disabled":false,"rental_uris":{"android":"levelo://app?vid=381bd0ad-ce73-4a4f-b643-1e1c87957c84","ios":"levelo://app?vid=381bd0ad-ce73-4a4f-b643-1e1c87957c84"},"vehicle_type_id":"4","last_reported":1750144228,"current_range_meters":15200,"station_id":"ce4bhnp2rcd13ifvqgvg","pricing_plan_id":"cebpf4jnsgd1na2vs0mg"},{"bike_id":"6d392914-420e-49a0-9a62-e1c19d840639","system_id":"levelo_inurba_marseille","lat":43.30369,"lon":5.42482,"is_reserved":false,"is_disabled":false,"rental_uris":{"android":"levelo://app?vid=6d392914-420e-49a0-9a62-e1c19d840639","ios":"levelo://app?vid=6d392914-420e-49a0-9a62-e1c19d840639"},"vehicle_type_id":"4","last_reported":1750144228,"current_range_meters":15200,"station_id":"ce4bhoh2rcd13ifvqh6g","pricing_plan_id":"cebpf4jnsgd1na2vs0mg"},{"bike_id":"8f3ce912-d888-4d21-b0ae-50b62344cd42","system_id":"levelo_inurba_marseille","lat":43.24164,"lon":5.36397,"is_reserved":false,"is_disabled":false,"rental_uris":{"android":"levelo://app?vid=8f3ce912-d888-4d21-b0ae-50b62344cd42","ios":"levelo://app?vid=8f3ce912-d888-4d21-b0ae-50b62344cd42"},"vehicle_type_id":"4","last_reported":1750144228,"current_range_meters":15200,"station_id":"cpo36qri1sfpv3e86is0","pricing_plan_id":"cebpf4jnsgd1na2vs0mg"},{"bike_id":"83cfee7d-980d-496a-98c8-745c7e44c68d","system_id":"levelo_inurba_marseille","lat":43.32877,"lon":5.39089,"is_reserved":false,"is_disabled":false,"rental_uris":{"android":"levelo://app?vid=83cfee7d-980d-496a-98c8-745c7e44c68d","ios":"levelo://app?vid=83cfee7d-980d-496a-98c8-745c7e44c68d"},"vehicle_type_id":"4","last_reported":1750144228,"current_range_meters":16000,"station_id":"","pricing_plan_id":"cebpf4jnsgd1na2vs0mg"},{"bike_id":"be18c920-c9ab-4e3b-b26a-2ef6645a0dd8","system_id":"levelo_inurba_marseille","lat":43.29606,"lon":5.37704,"is_reserved":false,"is_disabled":false,"rental_uris":{"android":"levelo://app?vid=be18c920-c9ab-4e3b-b26a-2ef6645a0dd8","ios":"levelo://app?vid=be18c920-c9ab-4e3b-b26a-2ef6645a0dd8"},"vehicle_type_id":"4","last_reported":1750144228,"current_range_meters":16000,"station_id":"ce4bgi92rcd13ifvqb90","pricing_plan_id":"cebpf4jnsgd1na2vs0mg"},{"bike_id":"b0eb914d-b402-4ed6-9dbe-e1b7a6e1e9e5","system_id":"levelo_inurba_marseille","lat":43.30534,"lon":5.3671,"is_reserved":false,"is_disabled":false,"rental_uris":{"android":"levelo://app?vid=b0eb914d-b402-4ed6-9dbe-e1b7a6e1e9e5","ios":"levelo://app?vid=b0eb914d-b402-4ed6-9dbe-e1b7a6e1e9e5"},"vehicle_type_id":"4","last_reported":1750144228,"current_range_meters":16000,"station_id":"ce4bgrp2rcd13ifvqc9g","pricing_plan_id":"cebpf4jnsgd1na2vs0mg"},{"bike_id":"28afc698-506e-444a-a9c2-0c6102156f88","system_id":"levelo_inurba_marseille","lat":43.30138,"lon":5.37419,"is_reserved":false,"is_disabled":false,"rental_uris":{"android":"levelo://app?vid=28afc698-506e-444a-a9c2-0c6102156f88","ios":"levelo://app?vid=28afc698-506e-444a-a9c2-0c6102156f88"},"vehicle_type_id":"4","last_reported":1750144228,"current_range_meters":16000,"station_id":"ce4bgs92rcd13ifvqcc0","pricing_plan_id":"cebpf4jnsgd1na2vs0mg"},{"bike_id":"8ad1413f-a14c-45a6-8cea-a0b8a878f8c7","system_id":"levelo_inurba_marseille","lat":43.30548,"lon":5.36553,"is_reserved":false,"is_disabled":false,"rental_uris":{"android":"levelo://app?vid=8ad1413f-a14c-45a6-8cea-a0b8a878f8c7","ios":"levelo://app?vid=8ad1413f-a14c-45a6-8cea-a0b8a878f8c7"},"vehicle_type_id":"4","last_reported":1750144228,"current_range_meters":16400,"station_id":"ce4bgs12rcd13ifvqcag","pricing_plan_id":"cebpf4jnsgd1na2vs0mg"},{"bike_id":"2090556a-ebe6-4fcd-b60b-df67d7c8e4f7","system_id":"levelo_inurba_marseille","lat":43.299004,"lon":5.43667,"is_reserved":false,"is_disabled":false,"rental_uris":{"android":"levelo://app?vid=2090556a-ebe6-4fcd-b60b-df67d7c8e4f7","ios":"levelo://app?vid=2090556a-ebe6-4fcd-b60b-df67d7c8e4f7"},"vehicle_type_id":"4","last_reported":1750144228,"current_range_meters":16400,"station_id":"ce4bhpp2rcd13ifvqhfg","pricing_plan_id":"cebpf4jnsgd1na2vs0mg"},{"bike_id":"e4545242-0d34-410b-9092-52e20d435c24","system_id":"levelo_inurba_marseille","lat":43.30859,"lon":5.37026,"is_reserved":false,"is_disabled":false,"rental_uris":{"android":"levelo://app?vid=e4545242-0d34-410b-9092-52e20d435c24","ios":"levelo://app?vid=e4545242-0d34-410b-9092-52e20d435c24"},"vehicle_type_id":"4","last_reported":1750144228,"current_range_meters":16800,"station_id":"","pricing_plan_id":"cebpf4jnsgd1na2vs0mg"},{"bike_id":"7656c4dc-7ddf-4702-b4d8-de0b4d97e358","system_id":"levelo_inurba_marseille","lat":43.25826,"lon":5.39437,"is_reserved":false,"is_disabled":false,"rental_uris":{"android":"levelo://app?vid=7656c4dc-7ddf-4702-b4d8-de0b4d97e358","ios":"levelo://app?vid=7656c4dc-7ddf-4702-b4d8-de0b4d97e358"},"vehicle_type_id":"4","last_reported":1750144228,"current_range_meters":16800,"station_id":"ce4bhip2rcd13ifvqft0","pricing_plan_id":"cebpf4jnsgd1na2vs0mg"},{"bike_id":"c208ec09-b0c1-415a-bc8f-4171c456e504","system_id":"levelo_inurba_marseille","lat":43.31997,"lon":5.38153,"is_reserved":false,"is_disabled":false,"rental_uris":{"android":"levelo://app?vid=c208ec09-b0c1-415a-bc8f-4171c456e504","ios":"levelo://app?vid=c208ec09-b0c1-415a-bc8f-4171c456e504"},"vehicle_type_id":"4","last_reported":1750144228,"current_range_meters":16800,"station_id":"ce4bhr12rcd13ifvqhpg","pricing_plan_id":"cebpf4jnsgd1na2vs0mg"},{"bike_id":"de0f7c2b-5974-4035-a240-8ed367c0e3f3","system_id":"levelo_inurba_marseille","lat":43.319718,"lon":5.376183,"is_reserved":false,"is_disabled":false,"rental_uris":{"android":"levelo://app?vid=de0f7c2b-5974-4035-a240-8ed367c0e3f3","ios":"levelo://app?vid=de0f7c2b-5974-4035-a240-8ed367c0e3f3"},"vehicle_type_id":"4","last_reported":1750144228,"current_range_meters":17200,"station_id":"","pricing_plan_id":"cebpf4jnsgd1na2vs0mg"},{"bike_id":"70679c75-37e6-4529-b994-888fd69d00bc","system_id":"levelo_inurba_marseille","lat":43.30175,"lon":5.38076,"is_reserved":false,"is_disabled":false,"rental_uris":{"android":"levelo://app?vid=70679c75-37e6-4529-b994-888fd69d00bc","ios":"levelo://app?vid=70679c75-37e6-4529-b994-888fd69d00bc"},"vehicle_type_id":"4","last_reported":1750144228,"current_range_meters":17200,"station_id":"ce4bgjp2rcd13ifvqbh0","pricing_plan_id":"cebpf4jnsgd1na2vs0mg"},{"bike_id":"9af0ef4b-bb21-46f6-a303-d8212d33eacd","system_id":"levelo_inurba_marseille","lat":43.26509,"lon":5.39571,"is_reserved":false,"is_disabled":false,"rental_uris":{"android":"levelo://app?vid=9af0ef4b-bb21-46f6-a303-d8212d33eacd","ios":"levelo://app?vid=9af0ef4b-bb21-46f6-a303-d8212d33eacd"},"vehicle_type_id":"4","last_reported":1750144228,"current_range_meters":17200,"station_id":"ce4bhi12rcd13ifvqfq0","pricing_plan_id":"cebpf4jnsgd1na2vs0mg"},{"bike_id":"dab6fb6d-3e6d-412b-a0e1-f672326dbd00","system_id":"levelo_inurba_marseille","lat":43.24216,"lon":5.3974,"is_reserved":false,"is_disabled":false,"rental_uris":{"android":"levelo://app?vid=dab6fb6d-3e6d-412b-a0e1-f672326dbd00","ios":"levelo://app?vid=dab6fb6d-3e6d-412b-a0e1-f672326dbd00"},"vehicle_type_id":"4","last_reported":1750144228,"current_range_meters":17200,"station_id":"ce4bhn12rcd13ifvqgpg","pricing_plan_id":"cebpf4jnsgd1na2vs0mg"},{"bike_id":"7516c593-6640-4b00-96c9-31c1b5678a8a","system_id":"levelo_inurba_marseille","lat":43.32373,"lon":5.38868,"is_reserved":false,"is_disabled":false,"rental_uris":{"android":"levelo://app?vid=7516c593-6640-4b00-96c9-31c1b5678a8a","ios":"levelo://app?vid=7516c593-6640-4b00-96c9-31c1b5678a8a"},"vehicle_type_id":"4","last_reported":1750144228,"current_range_meters":17200,"station_id":"ce4bhqp2rcd13ifvqhog","pricing_plan_id":"cebpf4jnsgd1na2vs0mg"},{"bike_id":"fdd4092a-0fed-4524-b630-a1d334a8e2f6","system_id":"levelo_inurba_marseille","lat":43.32498,"lon":5.36563,"is_reserved":false,"is_disabled":false,"rental_uris":{"android":"levelo://app?vid=fdd4092a-0fed-4524-b630-a1d334a8e2f6","ios":"levelo://app?vid=fdd4092a-0fed-4524-b630-a1d334a8e2f6"},"vehicle_type_id":"4","last_reported":1750144228,"current_range_meters":17200,"station_id":"ce4bhs12rcd13ifvqhvg","pricing_plan_id":"cebpf4jnsgd1na2vs0mg"},{"bike_id":"68b69c32-2076-4a85-9793-aa4899be2f55","system_id":"levelo_inurba_marseille","lat":43.21192,"lon":5.3507,"is_reserved":false,"is_disabled":false,"rental_uris":{"android":"levelo://app?vid=68b69c32-2076-4a85-9793-aa4899be2f55","ios":"levelo://app?vid=68b69c32-2076-4a85-9793-aa4899be2f55"},"vehicle_type_id":"4","last_reported":1750144228,"current_range_meters":17600,"station_id":"","pricing_plan_id":"cebpf4jnsgd1na2vs0mg"},{"bike_id":"3518210a-6d90-482f-a11b-11cb7c94acd1","system_id":"levelo_inurba_marseille","lat":43.26494,"lon":5.39242,"is_reserved":false,"is_disabled":false,"rental_uris":{"android":"levelo://app?vid=3518210a-6d90-482f-a11b-11cb7c94acd1","ios":"levelo://app?vid=3518210a-6d90-482f-a11b-11cb7c94acd1"},"vehicle_type_id":"4","last_reported":1750144228,"current_range_meters":17600,"station_id":"","pricing_plan_id":"cebpf4jnsgd1na2vs0mg"},{"bike_id":"5025638e-63a1-4609-b022-b4bda8dc8035","system_id":"levelo_inurba_marseille","lat":43.3016,"lon":5.38088,"is_reserved":false,"is_disabled":false,"rental_uris":{"android":"levelo://app?vid=5025638e-63a1-4609-b022-b4bda8dc8035","ios":"levelo://app?vid=5025638e-63a1-4609-b022-b4bda8dc8035"},"vehicle_type_id":"4","last_reported":1750144228,"current_range_meters":17600,"station_id":"ce4bgjp2rcd13ifvqbh0","pricing_plan_id":"cebpf4jnsgd1na2vs0mg"},{"bike_id":"c9ac4748-5c3f-427a-aa7d-019b4924e32d","system_id":"levelo_inurba_marseille","lat":43.28467,"lon":5.38417,"is_reserved":false,"is_disabled":false,"rental_uris":{"android":"levelo://app?vid=c9ac4748-5c3f-427a-aa7d-019b4924e32d","ios":"levelo://app?vid=c9ac4748-5c3f-427a-aa7d-019b4924e32d"},"vehicle_type_id":"4","last_reported":1750144228,"current_range_meters":17600,"station_id":"ce4bh512rcd13ifvqe3g","pricing_plan_id":"cebpf4jnsgd1na2vs0mg"},{"bike_id":"36524040-5ddc-46d3-9046-b6da01071eae","system_id":"levelo_inurba_marseille","lat":43.25933,"lon":5.40907,"is_reserved":false,"is_disabled":false,"rental_uris":{"android":"levelo://app?vid=36524040-5ddc-46d3-9046-b6da01071eae","ios":"levelo://app?vid=36524040-5ddc-46d3-9046-b6da01071eae"},"vehicle_type_id":"4","last_reported":1750144228,"current_range_meters":17600,"station_id":"ce4bhm92rcd13ifvqglg","pricing_plan_id":"cebpf4jnsgd1na2vs0mg"},{"bike_id":"86c8add5-dacd-4853-a11e-3a0b5f14c6ee","system_id":"levelo_inurba_marseille","lat":43.25931,"lon":5.40904,"is_reserved":false,"is_disabled":false,"rental_uris":{"android":"levelo://app?vid=86c8add5-dacd-4853-a11e-3a0b5f14c6ee","ios":"levelo://app?vid=86c8add5-dacd-4853-a11e-3a0b5f14c6ee"},"vehicle_type_id":"4","last_reported":1750144228,"current_range_meters":17600,"station_id":"ce4bhm92rcd13ifvqglg","pricing_plan_id":"cebpf4jnsgd1na2vs0mg"},{"bike_id":"31ac1c6c-b608-4f86-8941-e01ea9ffa527","system_id":"levelo_inurba_marseille","lat":43.25901,"lon":5.40888,"is_reserved":false,"is_disabled":false,"rental_uris":{"android":"levelo://app?vid=31ac1c6c-b608-4f86-8941-e01ea9ffa527","ios":"levelo://app?vid=31ac1c6c-b608-4f86-8941-e01ea9ffa527"},"vehicle_type_id":"4","last_reported":1750144228,"current_range_meters":17600,"station_id":"ce4bhm92rcd13ifvqglg","pricing_plan_id":"cebpf4jnsgd1na2vs0mg"},{"bike_id":"5b8a18e3-8b29-48dc-804f-df5ca303f004","system_id":"levelo_inurba_marseille","lat":43.28151,"lon":5.4266,"is_reserved":false,"is_disabled":false,"rental_uris":{"android":"levelo://app?vid=5b8a18e3-8b29-48dc-804f-df5ca303f004","ios":"levelo://app?vid=5b8a18e3-8b29-48dc-804f-df5ca303f004"},"vehicle_type_id":"4","last_reported":1750144228,"current_range_meters":17600,"station_id":"ce4bhnh2rcd13ifvqgug","pricing_plan_id":"cebpf4jnsgd1na2vs0mg"},{"bike_id":"6fb9eb53-4009-4a7d-afc2-085c87fcfb5b","system_id":"levelo_inurba_marseille","lat":43.28149,"lon":5.42646,"is_reserved":false,"is_disabled":false,"rental_uris":{"android":"levelo://app?vid=6fb9eb53-4009-4a7d-afc2-085c87fcfb5b","ios":"levelo://app?vid=6fb9eb53-4009-4a7d-afc2-085c87fcfb5b"},"vehicle_type_id":"4","last_reported":1750144228,"current_range_meters":17600,"station_id":"ce4bhnh2rcd13ifvqgug","pricing_plan_id":"cebpf4jnsgd1na2vs0mg"},{"bike_id":"2f0f7865-53e4-4955-8eb9-1bb98bf95595","system_id":"levelo_inurba_marseille","lat":43.31758,"lon":5.37579,"is_reserved":false,"is_disabled":false,"rental_uris":{"android":"levelo://app?vid=2f0f7865-53e4-4955-8eb9-1bb98bf95595","ios":"levelo://app?vid=2f0f7865-53e4-4955-8eb9-1bb98bf95595"},"vehicle_type_id":"4","last_reported":1750144228,"current_range_meters":18000,"station_id":"","pricing_plan_id":"cebpf4jnsgd1na2vs0mg"},{"bike_id":"28da8b92-f209-4378-9080-73750680ec6e","system_id":"levelo_inurba_marseille","lat":43.23136,"lon":5.35501,"is_reserved":false,"is_disabled":false,"rental_uris":{"android":"levelo://app?vid=28da8b92-f209-4378-9080-73750680ec6e","ios":"levelo://app?vid=28da8b92-f209-4378-9080-73750680ec6e"},"vehicle_type_id":"4","last_reported":1750144228,"current_range_meters":18000,"station_id":"","pricing_plan_id":"cebpf4jnsgd1na2vs0mg"},{"bike_id":"c9742b3e-1a99-4797-b975-b285c1ce2f0e","system_id":"levelo_inurba_marseille","lat":43.31338,"lon":5.3671,"is_reserved":false,"is_disabled":false,"rental_uris":{"android":"levelo://app?vid=c9742b3e-1a99-4797-b975-b285c1ce2f0e","ios":"levelo://app?vid=c9742b3e-1a99-4797-b975-b285c1ce2f0e"},"vehicle_type_id":"4","last_reported":1750144228,"current_range_meters":18000,"station_id":"ce4bgr92rcd13ifvqc6g","pricing_plan_id":"cebpf4jnsgd1na2vs0mg"},{"bike_id":"2bda24e5-0461-4e86-8a3c-db964eb7bdc6","system_id":"levelo_inurba_marseille","lat":43.26686,"lon":5.38273,"is_reserved":false,"is_disabled":false,"rental_uris":{"android":"levelo://app?vid=2bda24e5-0461-4e86-8a3c-db964eb7bdc6","ios":"levelo://app?vid=2bda24e5-0461-4e86-8a3c-db964eb7bdc6"},"vehicle_type_id":"4","last_reported":1750144228,"current_range_meters":18000,"station_id":"ce4bhg92rcd13ifvqf90","pricing_plan_id":"cebpf4jnsgd1na2vs0mg"},{"bike_id":"36dd0fea-0911-4186-944b-657bf042d68e","system_id":"levelo_inurba_marseille","lat":43.24997,"lon":5.38933,"is_reserved":false,"is_disabled":false,"rental_uris":{"android":"levelo://app?vid=36dd0fea-0911-4186-944b-657bf042d68e","ios":"levelo://app?vid=36dd0fea-0911-4186-944b-657bf042d68e"},"vehicle_type_id":"4","last_reported":1750144228,"current_range_meters":18000,"station_id":"ce4bhgp2rcd13ifvqfd0","pricing_plan_id":"cebpf4jnsgd1na2vs0mg"},{"bike_id":"d8cca091-a0fe-4f51-8c26-021946b118f8","system_id":"levelo_inurba_marseille","lat":43.241755,"lon":5.39737,"is_reserved":false,"is_disabled":false,"rental_uris":{"android":"levelo://app?vid=d8cca091-a0fe-4f51-8c26-021946b118f8","ios":"levelo://app?vid=d8cca091-a0fe-4f51-8c26-021946b118f8"},"vehicle_type_id":"4","last_reported":1750144228,"current_range_meters":18000,"station_id":"ce4bhn12rcd13ifvqgpg","pricing_plan_id":"cebpf4jnsgd1na2vs0mg"},{"bike_id":"de0bda34-41a6-4231-8ed4-c93e07fc3176","system_id":"levelo_inurba_marseille","lat":43.32638,"lon":5.37513,"is_reserved":false,"is_disabled":false,"rental_uris":{"android":"levelo://app?vid=de0bda34-41a6-4231-8ed4-c93e07fc3176","ios":"levelo://app?vid=de0bda34-41a6-4231-8ed4-c93e07fc3176"},"vehicle_type_id":"4","last_reported":1750144228,"current_range_meters":18800,"station_id":"","pricing_plan_id":"cebpf4jnsgd1na2vs0mg"},{"bike_id":"9bbf709d-32ed-461e-933d-4bed1a79ba57","system_id":"levelo_inurba_marseille","lat":43.30474,"lon":5.37904,"is_reserved":false,"is_disabled":false,"rental_uris":{"android":"levelo://app?vid=9bbf709d-32ed-461e-933d-4bed1a79ba57","ios":"levelo://app?vid=9bbf709d-32ed-461e-933d-4bed1a79ba57"},"vehicle_type_id":"4","last_reported":1750144228,"current_range_meters":18800,"station_id":"ce4bgup2rcd13ifvqcn0","pricing_plan_id":"cebpf4jnsgd1na2vs0mg"},{"bike_id":"32d6e897-fc0f-48cd-ba9a-98a1654f1cfc","system_id":"levelo_inurba_marseille","lat":43.30946,"lon":5.39029,"is_reserved":false,"is_disabled":false,"rental_uris":{"android":"levelo://app?vid=32d6e897-fc0f-48cd-ba9a-98a1654f1cfc","ios":"levelo://app?vid=32d6e897-fc0f-48cd-ba9a-98a1654f1cfc"},"vehicle_type_id":"4","last_reported":1750144228,"current_range_meters":18800,"station_id":"ce4bgup2rcd13ifvqco0","pricing_plan_id":"cebpf4jnsgd1na2vs0mg"},{"bike_id":"1f0680af-85b2-439a-8100-db9dfb614a98","system_id":"levelo_inurba_marseille","lat":43.25935,"lon":5.40908,"is_reserved":false,"is_disabled":false,"rental_uris":{"android":"levelo://app?vid=1f0680af-85b2-439a-8100-db9dfb614a98","ios":"levelo://app?vid=1f0680af-85b2-439a-8100-db9dfb614a98"},"vehicle_type_id":"4","last_reported":1750144228,"current_range_meters":18800,"station_id":"ce4bhm92rcd13ifvqglg","pricing_plan_id":"cebpf4jnsgd1na2vs0mg"},{"bike_id":"4cda9327-46c6-426e-87dd-c291d5dc5ff7","system_id":"levelo_inurba_marseille","lat":43.211944,"lon":5.350764,"is_reserved":false,"is_disabled":false,"rental_uris":{"android":"levelo://app?vid=4cda9327-46c6-426e-87dd-c291d5dc5ff7","ios":"levelo://app?vid=4cda9327-46c6-426e-87dd-c291d5dc5ff7"},"vehicle_type_id":"4","last_reported":1750144228,"current_range_meters":18800,"station_id":"st_cvj6sg6p6f1abm77japg","pricing_plan_id":"cebpf4jnsgd1na2vs0mg"},{"bike_id":"5cbdd979-131e-4b0a-a5c9-96ef156802c9","system_id":"levelo_inurba_marseille","lat":43.28411,"lon":5.39272,"is_reserved":false,"is_disabled":false,"rental_uris":{"android":"levelo://app?vid=5cbdd979-131e-4b0a-a5c9-96ef156802c9","ios":"levelo://app?vid=5cbdd979-131e-4b0a-a5c9-96ef156802c9"},"vehicle_type_id":"4","last_reported":1750144228,"current_range_meters":19200,"station_id":"","pricing_plan_id":"cebpf4jnsgd1na2vs0mg"},{"bike_id":"4ce5b165-f22d-40cf-abd3-1cb294861955","system_id":"levelo_inurba_marseille","lat":43.21185,"lon":5.35015,"is_reserved":false,"is_disabled":false,"rental_uris":{"android":"levelo://app?vid=4ce5b165-f22d-40cf-abd3-1cb294861955","ios":"levelo://app?vid=4ce5b165-f22d-40cf-abd3-1cb294861955"},"vehicle_type_id":"4","last_reported":1750144228,"current_range_meters":19200,"station_id":"","pricing_plan_id":"cebpf4jnsgd1na2vs0mg"},{"bike_id":"73aa91d8-4b84-41f7-9180-6ca5a63a3f63","system_id":"levelo_inurba_marseille","lat":43.32664,"lon":5.40992,"is_reserved":false,"is_disabled":false,"rental_uris":{"android":"levelo://app?vid=73aa91d8-4b84-41f7-9180-6ca5a63a3f63","ios":"levelo://app?vid=73aa91d8-4b84-41f7-9180-6ca5a63a3f63"},"vehicle_type_id":"4","last_reported":1750144228,"current_range_meters":19200,"station_id":"ce4bhpp2rcd13ifvqhgg","pricing_plan_id":"cebpf4jnsgd1na2vs0mg"},{"bike_id":"cc8086c3-023b-4662-b7ba-91199240f1a1","system_id":"levelo_inurba_marseille","lat":43.23053,"lon":5.3549,"is_reserved":false,"is_disabled":false,"rental_uris":{"android":"levelo://app?vid=cc8086c3-023b-4662-b7ba-91199240f1a1","ios":"levelo://app?vid=cc8086c3-023b-4662-b7ba-91199240f1a1"},"vehicle_type_id":"4","last_reported":1750144228,"current_range_meters":19200,"station_id":"cpo3342slgdg3j2ifvpg","pricing_plan_id":"cebpf4jnsgd1na2vs0mg"},{"bike_id":"2bcdbebc-789a-4460-923a-20ef9246776d","system_id":"levelo_inurba_marseille","lat":43.21192,"lon":5.35065,"is_reserved":false,"is_disabled":false,"rental_uris":{"android":"levelo://app?vid=2bcdbebc-789a-4460-923a-20ef9246776d","ios":"levelo://app?vid=2bcdbebc-789a-4460-923a-20ef9246776d"},"vehicle_type_id":"4","last_reported":1750144228,"current_range_meters":19200,"station_id":"st_cvj6sg6p6f1abm77japg","pricing_plan_id":"cebpf4jnsgd1na2vs0mg"},{"bike_id":"778bfcea-25e5-406c-8cbe-c80ec7c3b00f","system_id":"levelo_inurba_marseille","lat":43.33765,"lon":5.35589,"is_reserved":false,"is_disabled":false,"rental_uris":{"android":"levelo://app?vid=778bfcea-25e5-406c-8cbe-c80ec7c3b00f","ios":"levelo://app?vid=778bfcea-25e5-406c-8cbe-c80ec7c3b00f"},"vehicle_type_id":"4","last_reported":1750144228,"current_range_meters":19600,"station_id":"","pricing_plan_id":"cebpf4jnsgd1na2vs0mg"},{"bike_id":"3a3c0798-67af-41c2-8611-325c0b3cd12d","system_id":"levelo_inurba_marseille","lat":43.31724,"lon":5.40378,"is_reserved":false,"is_disabled":false,"rental_uris":{"android":"levelo://app?vid=3a3c0798-67af-41c2-8611-325c0b3cd12d","ios":"levelo://app?vid=3a3c0798-67af-41c2-8611-325c0b3cd12d"},"vehicle_type_id":"4","last_reported":1750144228,"current_range_meters":19600,"station_id":"","pricing_plan_id":"cebpf4jnsgd1na2vs0mg"},{"bike_id":"5fb7b4e5-2ace-4b45-9e53-e5cc821d5b15","system_id":"levelo_inurba_marseille","lat":43.305212,"lon":5.367424,"is_reserved":false,"is_disabled":false,"rental_uris":{"android":"levelo://app?vid=5fb7b4e5-2ace-4b45-9e53-e5cc821d5b15","ios":"levelo://app?vid=5fb7b4e5-2ace-4b45-9e53-e5cc821d5b15"},"vehicle_type_id":"4","last_reported":1750144228,"current_range_meters":19600,"station_id":"ce4bgrp2rcd13ifvqc9g","pricing_plan_id":"cebpf4jnsgd1na2vs0mg"},{"bike_id":"dfe950a0-a87c-4858-b9d9-7d12492f366c","system_id":"levelo_inurba_marseille","lat":43.30292,"lon":5.37703,"is_reserved":false,"is_disabled":false,"rental_uris":{"android":"levelo://app?vid=dfe950a0-a87c-4858-b9d9-7d12492f366c","ios":"levelo://app?vid=dfe950a0-a87c-4858-b9d9-7d12492f366c"},"vehicle_type_id":"4","last_reported":1750144228,"current_range_meters":19600,"station_id":"ce4bguh2rcd13ifvqcj0","pricing_plan_id":"cebpf4jnsgd1na2vs0mg"},{"bike_id":"653a05d9-205d-420f-b0c9-a638667f0917","system_id":"levelo_inurba_marseille","lat":43.211884,"lon":5.350773,"is_reserved":false,"is_disabled":false,"rental_uris":{"android":"levelo://app?vid=653a05d9-205d-420f-b0c9-a638667f0917","ios":"levelo://app?vid=653a05d9-205d-420f-b0c9-a638667f0917"},"vehicle_type_id":"4","last_reported":1750144228,"current_range_meters":19600,"station_id":"st_cvj6sg6p6f1abm77japg","pricing_plan_id":"cebpf4jnsgd1na2vs0mg"},{"bike_id":"15c8ae02-8e99-4704-aa0b-0b411ebbfdc4","system_id":"levelo_inurba_marseille","lat":43.30525,"lon":5.3655,"is_reserved":false,"is_disabled":false,"rental_uris":{"android":"levelo://app?vid=15c8ae02-8e99-4704-aa0b-0b411ebbfdc4","ios":"levelo://app?vid=15c8ae02-8e99-4704-aa0b-0b411ebbfdc4"},"vehicle_type_id":"4","last_reported":1750144228,"current_range_meters":20000,"station_id":"ce4bgs12rcd13ifvqcag","pricing_plan_id":"cebpf4jnsgd1na2vs0mg"},{"bike_id":"aa2e19bd-615c-484b-868a-f5c12f1cd7d5","system_id":"levelo_inurba_marseille","lat":43.319984,"lon":5.381467,"is_reserved":false,"is_disabled":false,"rental_uris":{"android":"levelo://app?vid=aa2e19bd-615c-484b-868a-f5c12f1cd7d5","ios":"levelo://app?vid=aa2e19bd-615c-484b-868a-f5c12f1cd7d5"},"vehicle_type_id":"4","last_reported":1750144228,"current_range_meters":20000,"station_id":"ce4bhr12rcd13ifvqhpg","pricing_plan_id":"cebpf4jnsgd1na2vs0mg"},{"bike_id":"268aafb4-1331-426c-97bc-a7d6564caeb6","system_id":"levelo_inurba_marseille","lat":43.32923,"lon":5.37934,"is_reserved":false,"is_disabled":false,"rental_uris":{"android":"levelo://app?vid=268aafb4-1331-426c-97bc-a7d6564caeb6","ios":"levelo://app?vid=268aafb4-1331-426c-97bc-a7d6564caeb6"},"vehicle_type_id":"4","last_reported":1750144228,"current_range_meters":20400,"station_id":"","pricing_plan_id":"cebpf4jnsgd1na2vs0mg"},{"bike_id":"28fa8284-b22c-4136-a22f-79aca2850e39","system_id":"levelo_inurba_marseille","lat":43.29614,"lon":5.37725,"is_reserved":false,"is_disabled":false,"rental_uris":{"android":"levelo://app?vid=28fa8284-b22c-4136-a22f-79aca2850e39","ios":"levelo://app?vid=28fa8284-b22c-4136-a22f-79aca2850e39"},"vehicle_type_id":"4","last_reported":1750144228,"current_range_meters":20400,"station_id":"ce4bgi92rcd13ifvqb90","pricing_plan_id":"cebpf4jnsgd1na2vs0mg"},{"bike_id":"3eaf5d76-7bdb-454a-8e3f-54f986b432e6","system_id":"levelo_inurba_marseille","lat":43.31358,"lon":5.36716,"is_reserved":false,"is_disabled":false,"rental_uris":{"android":"levelo://app?vid=3eaf5d76-7bdb-454a-8e3f-54f986b432e6","ios":"levelo://app?vid=3eaf5d76-7bdb-454a-8e3f-54f986b432e6"},"vehicle_type_id":"4","last_reported":1750144228,"current_range_meters":20400,"station_id":"ce4bgr92rcd13ifvqc6g","pricing_plan_id":"cebpf4jnsgd1na2vs0mg"},{"bike_id":"bea5595f-dc4e-4787-a000-3ba86a97e39d","system_id":"levelo_inurba_marseille","lat":43.313393,"lon":5.366968,"is_reserved":false,"is_disabled":false,"rental_uris":{"android":"levelo://app?vid=bea5595f-dc4e-4787-a000-3ba86a97e39d","ios":"levelo://app?vid=bea5595f-dc4e-4787-a000-3ba86a97e39d"},"vehicle_type_id":"4","last_reported":1750144228,"current_range_meters":20400,"station_id":"ce4bhch2rcd13ifvqeug","pricing_plan_id":"cebpf4jnsgd1na2vs0mg"},{"bike_id":"b5df771f-0292-4acc-afde-88c7e4fb1865","system_id":"levelo_inurba_marseille","lat":43.24179,"lon":5.39736,"is_reserved":false,"is_disabled":false,"rental_uris":{"android":"levelo://app?vid=b5df771f-0292-4acc-afde-88c7e4fb1865","ios":"levelo://app?vid=b5df771f-0292-4acc-afde-88c7e4fb1865"},"vehicle_type_id":"4","last_reported":1750144228,"current_range_meters":20400,"station_id":"ce4bhn12rcd13ifvqgpg","pricing_plan_id":"cebpf4jnsgd1na2vs0mg"},{"bike_id":"d192b665-26b5-43ce-9cdf-e4efd35ccb4b","system_id":"levelo_inurba_marseille","lat":43.30304,"lon":5.36887,"is_reserved":false,"is_disabled":false,"rental_uris":{"android":"levelo://app?vid=d192b665-26b5-43ce-9cdf-e4efd35ccb4b","ios":"levelo://app?vid=d192b665-26b5-43ce-9cdf-e4efd35ccb4b"},"vehicle_type_id":"4","last_reported":1750144228,"current_range_meters":20800,"station_id":"ce4bgqh2rcd13ifvqc5g","pricing_plan_id":"cebpf4jnsgd1na2vs0mg"},{"bike_id":"07bec50c-2906-4e96-945a-f830982eae32","system_id":"levelo_inurba_marseille","lat":43.29203,"lon":5.39335,"is_reserved":false,"is_disabled":false,"rental_uris":{"android":"levelo://app?vid=07bec50c-2906-4e96-945a-f830982eae32","ios":"levelo://app?vid=07bec50c-2906-4e96-945a-f830982eae32"},"vehicle_type_id":"4","last_reported":1750144228,"current_range_meters":20800,"station_id":"ce4bh192rcd13ifvqdd0","pricing_plan_id":"cebpf4jnsgd1na2vs0mg"},{"bike_id":"a3b5d989-ab26-434a-a0da-0e953feda67a","system_id":"levelo_inurba_marseille","lat":43.23149,"lon":5.43725,"is_reserved":false,"is_disabled":false,"rental_uris":{"android":"levelo://app?vid=a3b5d989-ab26-434a-a0da-0e953feda67a","ios":"levelo://app?vid=a3b5d989-ab26-434a-a0da-0e953feda67a"},"vehicle_type_id":"4","last_reported":1750144228,"current_range_meters":20800,"station_id":"ce4bhmp2rcd13ifvqgog","pricing_plan_id":"cebpf4jnsgd1na2vs0mg"},{"bike_id":"1c724053-b460-4aee-a0dc-bd4b9a89ec38","system_id":"levelo_inurba_marseille","lat":43.23151,"lon":5.43705,"is_reserved":false,"is_disabled":false,"rental_uris":{"android":"levelo://app?vid=1c724053-b460-4aee-a0dc-bd4b9a89ec38","ios":"levelo://app?vid=1c724053-b460-4aee-a0dc-bd4b9a89ec38"},"vehicle_type_id":"4","last_reported":1750144228,"current_range_meters":20800,"station_id":"ce4bhmp2rcd13ifvqgog","pricing_plan_id":"cebpf4jnsgd1na2vs0mg"},{"bike_id":"cab5e5d2-e482-4fed-b14c-3ed303b60902","system_id":"levelo_inurba_marseille","lat":43.23156,"lon":5.437255,"is_reserved":false,"is_disabled":false,"rental_uris":{"android":"levelo://app?vid=cab5e5d2-e482-4fed-b14c-3ed303b60902","ios":"levelo://app?vid=cab5e5d2-e482-4fed-b14c-3ed303b60902"},"vehicle_type_id":"4","last_reported":1750144228,"current_range_meters":20800,"station_id":"ce4bhmp2rcd13ifvqgog","pricing_plan_id":"cebpf4jnsgd1na2vs0mg"},{"bike_id":"a8f9e697-30cf-458f-bd47-e14782fac29b","system_id":"levelo_inurba_marseille","lat":43.30885,"lon":5.37417,"is_reserved":false,"is_disabled":false,"rental_uris":{"android":"levelo://app?vid=a8f9e697-30cf-458f-bd47-e14782fac29b","ios":"levelo://app?vid=a8f9e697-30cf-458f-bd47-e14782fac29b"},"vehicle_type_id":"4","last_reported":1750144228,"current_range_meters":21600,"station_id":"","pricing_plan_id":"cebpf4jnsgd1na2vs0mg"},{"bike_id":"90f8b5a6-9a3c-47e7-882d-220c29844fd1","system_id":"levelo_inurba_marseille","lat":43.30901,"lon":5.3684,"is_reserved":false,"is_disabled":false,"rental_uris":{"android":"levelo://app?vid=90f8b5a6-9a3c-47e7-882d-220c29844fd1","ios":"levelo://app?vid=90f8b5a6-9a3c-47e7-882d-220c29844fd1"},"vehicle_type_id":"4","last_reported":1750144228,"current_range_meters":21600,"station_id":"ce4bgn92rcd13ifvqbvg","pricing_plan_id":"cebpf4jnsgd1na2vs0mg"},{"bike_id":"6a148aef-13e9-463e-a0af-7066232bad70","system_id":"levelo_inurba_marseille","lat":43.30544,"lon":5.36723,"is_reserved":false,"is_disabled":false,"rental_uris":{"android":"levelo://app?vid=6a148aef-13e9-463e-a0af-7066232bad70","ios":"levelo://app?vid=6a148aef-13e9-463e-a0af-7066232bad70"},"vehicle_type_id":"4","last_reported":1750144228,"current_range_meters":21600,"station_id":"ce4bgrp2rcd13ifvqc9g","pricing_plan_id":"cebpf4jnsgd1na2vs0mg"},{"bike_id":"ffe3974b-1529-4514-b1ee-31d4afd7db68","system_id":"levelo_inurba_marseille","lat":43.29256,"lon":5.40902,"is_reserved":false,"is_disabled":false,"rental_uris":{"android":"levelo://app?vid=ffe3974b-1529-4514-b1ee-31d4afd7db68","ios":"levelo://app?vid=ffe3974b-1529-4514-b1ee-31d4afd7db68"},"vehicle_type_id":"4","last_reported":1750144228,"current_range_meters":21600,"station_id":"ce4bh192rcd13ifvqdc0","pricing_plan_id":"cebpf4jnsgd1na2vs0mg"},{"bike_id":"456e3e01-d483-4af3-ad8c-fac20db5c110","system_id":"levelo_inurba_marseille","lat":43.24198,"lon":5.39745,"is_reserved":false,"is_disabled":false,"rental_uris":{"android":"levelo://app?vid=456e3e01-d483-4af3-ad8c-fac20db5c110","ios":"levelo://app?vid=456e3e01-d483-4af3-ad8c-fac20db5c110"},"vehicle_type_id":"4","last_reported":1750144228,"current_range_meters":21600,"station_id":"ce4bhn12rcd13ifvqgpg","pricing_plan_id":"cebpf4jnsgd1na2vs0mg"},{"bike_id":"e08b95eb-cad0-4ce5-9d8b-c16666a81575","system_id":"levelo_inurba_marseille","lat":43.24177,"lon":5.39726,"is_reserved":false,"is_disabled":false,"rental_uris":{"android":"levelo://app?vid=e08b95eb-cad0-4ce5-9d8b-c16666a81575","ios":"levelo://app?vid=e08b95eb-cad0-4ce5-9d8b-c16666a81575"},"vehicle_type_id":"4","last_reported":1750144228,"current_range_meters":21600,"station_id":"ce4bhn12rcd13ifvqgpg","pricing_plan_id":"cebpf4jnsgd1na2vs0mg"},{"bike_id":"63d0c21a-4394-459b-a276-6b186542af62","system_id":"levelo_inurba_marseille","lat":43.24072,"lon":5.37762,"is_reserved":false,"is_disabled":false,"rental_uris":{"android":"levelo://app?vid=63d0c21a-4394-459b-a276-6b186542af62","ios":"levelo://app?vid=63d0c21a-4394-459b-a276-6b186542af62"},"vehicle_type_id":"4","last_reported":1750144228,"current_range_meters":21600,"station_id":"ce4bhnp2rcd13ifvqgvg","pricing_plan_id":"cebpf4jnsgd1na2vs0mg"},{"bike_id":"47f5aa7d-41fc-4e6d-8238-9595382505b0","system_id":"levelo_inurba_marseille","lat":43.24478,"lon":5.36908,"is_reserved":false,"is_disabled":false,"rental_uris":{"android":"levelo://app?vid=47f5aa7d-41fc-4e6d-8238-9595382505b0","ios":"levelo://app?vid=47f5aa7d-41fc-4e6d-8238-9595382505b0"},"vehicle_type_id":"4","last_reported":1750144228,"current_range_meters":22000,"station_id":"","pricing_plan_id":"cebpf4jnsgd1na2vs0mg"},{"bike_id":"5571ac25-d257-4081-8be7-ece24df687fc","system_id":"levelo_inurba_marseille","lat":43.30905,"lon":5.36837,"is_reserved":false,"is_disabled":false,"rental_uris":{"android":"levelo://app?vid=5571ac25-d257-4081-8be7-ece24df687fc","ios":"levelo://app?vid=5571ac25-d257-4081-8be7-ece24df687fc"},"vehicle_type_id":"4","last_reported":1750144228,"current_range_meters":22000,"station_id":"ce4bgn92rcd13ifvqbvg","pricing_plan_id":"cebpf4jnsgd1na2vs0mg"},{"bike_id":"5acb1426-70bd-4459-86a6-112ccaff40d0","system_id":"levelo_inurba_marseille","lat":43.2669,"lon":5.38273,"is_reserved":false,"is_disabled":false,"rental_uris":{"android":"levelo://app?vid=5acb1426-70bd-4459-86a6-112ccaff40d0","ios":"levelo://app?vid=5acb1426-70bd-4459-86a6-112ccaff40d0"},"vehicle_type_id":"4","last_reported":1750144228,"current_range_meters":22000,"station_id":"ce4bhg92rcd13ifvqf90","pricing_plan_id":"cebpf4jnsgd1na2vs0mg"},{"bike_id":"179ff607-71cb-459a-8979-c30593795f3b","system_id":"levelo_inurba_marseille","lat":43.27495,"lon":5.42453,"is_reserved":false,"is_disabled":false,"rental_uris":{"android":"levelo://app?vid=179ff607-71cb-459a-8979-c30593795f3b","ios":"levelo://app?vid=179ff607-71cb-459a-8979-c30593795f3b"},"vehicle_type_id":"4","last_reported":1750144228,"current_range_meters":22000,"station_id":"ce4bhn92rcd13ifvqgrg","pricing_plan_id":"cebpf4jnsgd1na2vs0mg"},{"bike_id":"5885bf1a-003e-439e-b91b-f9fa848e9187","system_id":"levelo_inurba_marseille","lat":43.24076,"lon":5.3775,"is_reserved":false,"is_disabled":false,"rental_uris":{"android":"levelo://app?vid=5885bf1a-003e-439e-b91b-f9fa848e9187","ios":"levelo://app?vid=5885bf1a-003e-439e-b91b-f9fa848e9187"},"vehicle_type_id":"4","last_reported":1750144228,"current_range_meters":22000,"station_id":"ce4bhnp2rcd13ifvqgvg","pricing_plan_id":"cebpf4jnsgd1na2vs0mg"},{"bike_id":"395588bd-7ccc-4bb1-b111-225cad1af767","system_id":"levelo_inurba_marseille","lat":43.24167,"lon":5.36393,"is_reserved":false,"is_disabled":false,"rental_uris":{"android":"levelo://app?vid=395588bd-7ccc-4bb1-b111-225cad1af767","ios":"levelo://app?vid=395588bd-7ccc-4bb1-b111-225cad1af767"},"vehicle_type_id":"4","last_reported":1750144228,"current_range_meters":22000,"station_id":"cpo36qri1sfpv3e86is0","pricing_plan_id":"cebpf4jnsgd1na2vs0mg"},{"bike_id":"50e2a9af-67c5-48e0-a7f3-be1777d08fce","system_id":"levelo_inurba_marseille","lat":43.29367,"lon":5.37858,"is_reserved":false,"is_disabled":false,"rental_uris":{"android":"levelo://app?vid=50e2a9af-67c5-48e0-a7f3-be1777d08fce","ios":"levelo://app?vid=50e2a9af-67c5-48e0-a7f3-be1777d08fce"},"vehicle_type_id":"4","last_reported":1750144228,"current_range_meters":22400,"station_id":"ce4bgjh2rcd13ifvqbf0","pricing_plan_id":"cebpf4jnsgd1na2vs0mg"},{"bike_id":"db6963e6-7b54-4674-9fa7-f78c5f687b34","system_id":"levelo_inurba_marseille","lat":43.2669,"lon":5.38281,"is_reserved":false,"is_disabled":false,"rental_uris":{"android":"levelo://app?vid=db6963e6-7b54-4674-9fa7-f78c5f687b34","ios":"levelo://app?vid=db6963e6-7b54-4674-9fa7-f78c5f687b34"},"vehicle_type_id":"4","last_reported":1750144228,"current_range_meters":22400,"station_id":"ce4bhg92rcd13ifvqf90","pricing_plan_id":"cebpf4jnsgd1na2vs0mg"},{"bike_id":"503531ac-95ec-47cc-b68e-53d552bb1954","system_id":"levelo_inurba_marseille","lat":43.23147,"lon":5.43727,"is_reserved":false,"is_disabled":false,"rental_uris":{"android":"levelo://app?vid=503531ac-95ec-47cc-b68e-53d552bb1954","ios":"levelo://app?vid=503531ac-95ec-47cc-b68e-53d552bb1954"},"vehicle_type_id":"4","last_reported":1750144228,"current_range_meters":22400,"station_id":"ce4bhmp2rcd13ifvqgog","pricing_plan_id":"cebpf4jnsgd1na2vs0mg"},{"bike_id":"aebd12da-766f-4242-a9f6-9430df140b4c","system_id":"levelo_inurba_marseille","lat":43.24181,"lon":5.39725,"is_reserved":false,"is_disabled":false,"rental_uris":{"android":"levelo://app?vid=aebd12da-766f-4242-a9f6-9430df140b4c","ios":"levelo://app?vid=aebd12da-766f-4242-a9f6-9430df140b4c"},"vehicle_type_id":"4","last_reported":1750144228,"current_range_meters":22400,"station_id":"ce4bhn12rcd13ifvqgpg","pricing_plan_id":"cebpf4jnsgd1na2vs0mg"},{"bike_id":"61185e51-def2-4557-89b9-f06c340ff2e2","system_id":"levelo_inurba_marseille","lat":43.21161,"lon":5.35101,"is_reserved":false,"is_disabled":false,"rental_uris":{"android":"levelo://app?vid=61185e51-def2-4557-89b9-f06c340ff2e2","ios":"levelo://app?vid=61185e51-def2-4557-89b9-f06c340ff2e2"},"vehicle_type_id":"4","last_reported":1750144228,"current_range_meters":22400,"station_id":"st_cvj6sg6p6f1abm77japg","pricing_plan_id":"cebpf4jnsgd1na2vs0mg"},{"bike_id":"0209c23b-4047-4944-8163-f4acfd273043","system_id":"levelo_inurba_marseille","lat":43.33137,"lon":5.3747,"is_reserved":false,"is_disabled":false,"rental_uris":{"android":"levelo://app?vid=0209c23b-4047-4944-8163-f4acfd273043","ios":"levelo://app?vid=0209c23b-4047-4944-8163-f4acfd273043"},"vehicle_type_id":"4","last_reported":1750144228,"current_range_meters":22800,"station_id":"","pricing_plan_id":"cebpf4jnsgd1na2vs0mg"},{"bike_id":"dec2aafc-811c-4f0b-9708-ae041d3abcfb","system_id":"levelo_inurba_marseille","lat":43.33195,"lon":5.43019,"is_reserved":false,"is_disabled":false,"rental_uris":{"android":"levelo://app?vid=dec2aafc-811c-4f0b-9708-ae041d3abcfb","ios":"levelo://app?vid=dec2aafc-811c-4f0b-9708-ae041d3abcfb"},"vehicle_type_id":"4","last_reported":1750144228,"current_range_meters":22800,"station_id":"","pricing_plan_id":"cebpf4jnsgd1na2vs0mg"},{"bike_id":"1ec1fdeb-870d-4a40-bfab-4cf6dc0f9eb7","system_id":"levelo_inurba_marseille","lat":43.31469,"lon":5.37316,"is_reserved":false,"is_disabled":false,"rental_uris":{"android":"levelo://app?vid=1ec1fdeb-870d-4a40-bfab-4cf6dc0f9eb7","ios":"levelo://app?vid=1ec1fdeb-870d-4a40-bfab-4cf6dc0f9eb7"},"vehicle_type_id":"4","last_reported":1750144228,"current_range_meters":22800,"station_id":"ce4bgt12rcd13ifvqcd0","pricing_plan_id":"cebpf4jnsgd1na2vs0mg"},{"bike_id":"af45cc79-55c1-4693-9580-91154d426d0f","system_id":"levelo_inurba_marseille","lat":43.27369,"lon":5.362679,"is_reserved":false,"is_disabled":false,"rental_uris":{"android":"levelo://app?vid=af45cc79-55c1-4693-9580-91154d426d0f","ios":"levelo://app?vid=af45cc79-55c1-4693-9580-91154d426d0f"},"vehicle_type_id":"4","last_reported":1750144228,"current_range_meters":22800,"station_id":"ce4bhbh2rcd13ifvqeo0","pricing_plan_id":"cebpf4jnsgd1na2vs0mg"},{"bike_id":"c0f9d178-7659-4450-945d-f2e239d96213","system_id":"levelo_inurba_marseille","lat":43.25713,"lon":5.4112,"is_reserved":false,"is_disabled":false,"rental_uris":{"android":"levelo://app?vid=c0f9d178-7659-4450-945d-f2e239d96213","ios":"levelo://app?vid=c0f9d178-7659-4450-945d-f2e239d96213"},