{"last_updated":1690780031,"ttl":30,"version":"2.2","data":{"bikes":[{"bike_id":"fc2a5768-76f2-4f75-802d-d1edfbc15710","system_id":"levelo_inurba_marseille","lat":43.31341,"lon":5.367098,"is_reserved":false,"is_disabled":false,"rental_uris":{"android":"levelo://app?vid=fc2a5768-76f2-4f75-802d-d1edfbc15710","ios":"levelo://app?vid=fc2a5768-76f2-4f75-802d-d1edfbc15710"},"vehicle_type_id":"4","last_reported":1690780031,"current_range_meters":30000,"station_id":"ce4bgr92rcd13ifvqc6g","pricing_plan_id":"free"},{"bike_id":"2572c9d4-e97e-4abd-b662-396139321c3a","system_id":"levelo_inurba_marseille","lat":43.3123,"lon":5.36854,"is_reserved":false,"is_disabled":false,"rental_uris":{"android":"levelo://app?vid=2572c9d4-e97e-4abd-b662-396139321c3a","ios":"levelo://app?vid=2572c9d4-e97e-4abd-b662-396139321c3a"},"vehicle_type_id":"4","last_reported":1690780031,"current_range_meters":31200,"station_id":"ce4bgl92rcd13ifvqbq0","pricing_plan_id":"free"},{"bike_id":"fce70dd9-7efc-4fbb-a638-eef64453fbcf","system_id":"levelo_inurba_marseille","lat":43.312239,"lon":5.368562,"is_reserved":false,"is_disabled":false,"rental_uris":{"android":"levelo://app?vid=fce70dd9-7efc-4fbb-a638-eef64453fbcf","ios":"levelo://app?vid=fce70dd9-7efc-4fbb-a638-eef64453fbcf"},"vehicle_type_id":"4","last_reported":1690780031,"current_range_meters":30800,"station_id":"ce4bgl92rcd13ifvqbq0","pricing_plan_id":"free"},{"bike_id":"f325c35b-274d-420b-8194-83741c5b2d27","system_id":"levelo_inurba_marseille","lat":43.31225,"lon":5.3686,"is_reserved":false,"is_disabled":false,"rental_uris":{"android":"levelo://app?vid=f325c35b-274d-420b-8194-83741c5b2d27","ios":"levelo://app?vid=f325c35b-274d-420b-8194-83741c5b2d27"},"vehicle_type_id":"4","last_reported":1690780031,"current_range_meters":25200,"station_id":"ce4bgl92rcd13ifvqbq0","pricing_plan_id":"free"},{"bike_id":"e526d4e2-849c-44ae-a0d7-5572a62df909","system_id":"levelo_inurba_marseille","lat":43.31222,"lon":5.36861,"is_reserved":false,"is_disabled":false,"rental_uris":{"android":"levelo://app?vid=e526d4e2-849c-44ae-a0d7-5572a62df909","ios":"levelo://app?vid=e526d4e2-849c-44ae-a0d7-5572a62df909"},"vehicle_type_id":"4","last_reported":1690780031,"current_range_meters":20400,"station_id":"ce4bgl92rcd13ifvqbq0","pricing_plan_id":"free"},{"bike_id":"91c8ca9b-1994-4e35-a8aa-a9712c1652b4","system_id":"levelo_inurba_marseille","lat":43.31236,"lon":5.36872,"is_reserved":false,"is_disabled":false,"rental_uris":{"android":"levelo://app?vid=91c8ca9b-1994-4e35-a8aa-a9712c1652b4","ios":"levelo://app?vid=91c8ca9b-1994-4e35-a8aa-a9712c1652b4"},"vehicle_type_id":"4","last_reported":1690780031,"current_range_meters":31200,"station_id":"ce4bgl92rcd13ifvqbq0","pricing_plan_id":"free"},{"bike_id":"49297341-dfcf-499d-a07c-f04db08a941d","system_id":"levelo_inurba_marseille","lat":43.312239,"lon":5.368562,"is_reserved":false,"is_disabled":false,"rental_uris":{"android":"levelo://app?vid=49297341-dfcf-499d-a07c-f04db08a941d","ios":"levelo://app?vid=49297341-dfcf-499d-a07c-f04db08a941d"},"vehicle_type_id":"4","last_reported":1690780031,"current_range_meters":31200,"station_id":"ce4bgl92rcd13ifvqbq0","pricing_plan_id":"free"},{"bike_id":"fcb7738b-5d11-4aa4-a636-26260b7d94d1","system_id":"levelo_inurba_marseille","lat":43.312239,"lon":5.368562,"is_reserved":false,"is_disabled":false,"rental_uris":{"android":"levelo://app?vid=fcb7738b-5d11-4aa4-a636-26260b7d94d1","ios":"levelo://app?vid=fcb7738b-5d11-4aa4-a636-26260b7d94d1"},"vehicle_type_id":"4","last_reported":1690780031,"current_range_meters":31200,"station_id":"ce4bgl92rcd13ifvqbq0","pricing_plan_id":"free"},{"bike_id":"0a051733-b835-434d-af1f-236637cfff1a","system_id":"levelo_inurba_marseille","lat":43.309076,"lon":5.368465,"is_reserved":false,"is_disabled":false,"rental_uris":{"android":"levelo://app?vid=0a051733-b835-434d-af1f-236637cfff1a","ios":"levelo://app?vid=0a051733-b835-434d-af1f-236637cfff1a"},"vehicle_type_id":"4","last_reported":1690780031,"current_range_meters":27600,"station_id":"ce4bgn92rcd13ifvqbvg","pricing_plan_id":"free"},{"bike_id":"a33b6f7e-2d6d-4abb-890e-2507002988b0","system_id":"levelo_inurba_marseille","lat":43.309076,"lon":5.368465,"is_reserved":false,"is_disabled":false,"rental_uris":{"android":"levelo://app?vid=a33b6f7e-2d6d-4abb-890e-2507002988b0","ios":"levelo://app?vid=a33b6f7e-2d6d-4abb-890e-2507002988b0"},"vehicle_type_id":"4","last_reported":1690780031,"current_range_meters":31200,"station_id":"ce4bgn92rcd13ifvqbvg","pricing_plan_id":"free"},{"bike_id":"d7f408ec-7928-40e4-855a-452213e7dfcd","system_id":"levelo_inurba_marseille","lat":43.314841,"lon":5.373077,"is_reserved":false,"is_disabled":false,"rental_uris":{"android":"levelo://app?vid=d7f408ec-7928-40e4-855a-452213e7dfcd","ios":"levelo://app?vid=d7f408ec-7928-40e4-855a-452213e7dfcd"},"vehicle_type_id":"4","last_reported":1690780031,"current_range_meters":24000,"station_id":"ce4bgt12rcd13ifvqcd0","pricing_plan_id":"free"},{"bike_id":"dd5567a9-c013-4a91-a3a2-e64a4a4607dc","system_id":"levelo_inurba_marseille","lat":43.305712,"lon":5.365641,"is_reserved":false,"is_disabled":false,"rental_uris":{"android":"levelo://app?vid=dd5567a9-c013-4a91-a3a2-e64a4a4607dc","ios":"levelo://app?vid=dd5567a9-c013-4a91-a3a2-e64a4a4607dc"},"vehicle_type_id":"4","last_reported":1690780031,"current_range_meters":4400,"station_id":"ce4bgs12rcd13ifvqcag","pricing_plan_id":"free"},{"bike_id":"b7645b1a-1de3-4679-9553-e3ef5d2b61e2","system_id":"levelo_inurba_marseille","lat":43.305714,"lon":5.365633,"is_reserved":false,"is_disabled":false,"rental_uris":{"android":"levelo://app?vid=b7645b1a-1de3-4679-9553-e3ef5d2b61e2","ios":"levelo://app?vid=b7645b1a-1de3-4679-9553-e3ef5d2b61e2"},"vehicle_type_id":"4","last_reported":1690780031,"current_range_meters":29200,"station_id":"ce4bgs12rcd13ifvqcag","pricing_plan_id":"free"},{"bike_id":"91970c33-91dc-4ad6-97f1-2da2fdab31e8","system_id":"levelo_inurba_marseille","lat":43.305714,"lon":5.365633,"is_reserved":false,"is_disabled":false,"rental_uris":{"android":"levelo://app?vid=91970c33-91dc-4ad6-97f1-2da2fdab31e8","ios":"levelo://app?vid=91970c33-91dc-4ad6-97f1-2da2fdab31e8"},"vehicle_type_id":"4","last_reported":1690780031,"current_range_meters":30000,"station_id":"ce4bgs12rcd13ifvqcag","pricing_plan_id":"free"},{"bike_id":"e0b7b981-0877-4f6c-a73b-085d19588064","system_id":"levelo_inurba_marseille","lat":43.305706,"lon":5.365654,"is_reserved":false,"is_disabled":false,"rental_uris":{"android":"levelo://app?vid=e0b7b981-0877-4f6c-a73b-085d19588064","ios":"levelo://app?vid=e0b7b981-0877-4f6c-a73b-085d19588064"},"vehicle_type_id":"4","last_reported":1690780031,"current_range_meters":25600,"station_id":"ce4bgs12rcd13ifvqcag","pricing_plan_id":"free"},{"bike_id":"9c096c90-c06c-49cb-8f5e-3d8f7e633684","system_id":"levelo_inurba_marseille","lat":43.305989,"lon":5.37225,"is_reserved":false,"is_disabled":false,"rental_uris":{"android":"levelo://app?vid=9c096c90-c06c-49cb-8f5e-3d8f7e633684","ios":"levelo://app?vid=9c096c90-c06c-49cb-8f5e-3d8f7e633684"},"vehicle_type_id":"4","last_reported":1690780031,"current_range_meters":27600,"station_id":"ce4bgqh2rcd13ifvqc4g","pricing_plan_id":"free"},{"bike_id":"f20ea888-8740-440b-bfeb-8eb2a7c1f652","system_id":"levelo_inurba_marseille","lat":43.305989,"lon":5.37225,"is_reserved":false,"is_disabled":false,"rental_uris":{"android":"levelo://app?vid=f20ea888-8740-440b-bfeb-8eb2a7c1f652","ios":"levelo://app?vid=f20ea888-8740-440b-bfeb-8eb2a7c1f652"},"vehicle_type_id":"4","last_reported":1690780031,"current_range_meters":22000,"station_id":"ce4bgqh2rcd13ifvqc4g","pricing_plan_id":"free"},{"bike_id":"80aa5abc-83cc-46d1-bf92-21a059b4f7de","system_id":"levelo_inurba_marseille","lat":43.31129,"lon":5.37752,"is_reserved":false,"is_disabled":false,"rental_uris":{"android":"levelo://app?vid=80aa5abc-83cc-46d1-bf92-21a059b4f7de","ios":"levelo://app?vid=80aa5abc-83cc-46d1-bf92-21a059b4f7de"},"vehicle_type_id":"4","last_reported":1690780031,"current_range_meters":19200,"station_id":"ce4bgt92rcd13ifvqcg0","pricing_plan_id":"free"},{"bike_id":"a93fa841-4207-4953-a275-33e7a6ba3b5f","system_id":"levelo_inurba_marseille","lat":43.311131,"lon":5.377651,"is_reserved":false,"is_disabled":false,"rental_uris":{"android":"levelo://app?vid=a93fa841-4207-4953-a275-33e7a6ba3b5f","ios":"levelo://app?vid=a93fa841-4207-4953-a275-33e7a6ba3b5f"},"vehicle_type_id":"4","last_reported":1690780031,"current_range_meters":24800,"station_id":"ce4bgt92rcd13ifvqcg0","pricing_plan_id":"free"},{"bike_id":"b8a4bc0c-0d2c-4601-beb3-b4439aeb3f3a","system_id":"levelo_inurba_marseille","lat":43.311125,"lon":5.377624,"is_reserved":false,"is_disabled":false,"rental_uris":{"android":"levelo://app?vid=b8a4bc0c-0d2c-4601-beb3-b4439aeb3f3a","ios":"levelo://app?vid=b8a4bc0c-0d2c-4601-beb3-b4439aeb3f3a"},"vehicle_type_id":"4","last_reported":1690780031,"current_range_meters":31200,"station_id":"ce4bgt92rcd13ifvqcg0","pricing_plan_id":"free"},{"bike_id":"898750d6-391f-48cf-aca6-0f022ef16bec","system_id":"levelo_inurba_marseille","lat":43.31121,"lon":5.37765,"is_reserved":false,"is_disabled":false,"rental_uris":{"android":"levelo://app?vid=898750d6-391f-48cf-aca6-0f022ef16bec","ios":"levelo://app?vid=898750d6-391f-48cf-aca6-0f022ef16bec"},"vehicle_type_id":"4","last_reported":1690780031,"current_range_meters":11600,"station_id":"ce4bgt92rcd13ifvqcg0","pricing_plan_id":"free"},{"bike_id":"37abc771-f294-4699-9aa8-b42275b80648","system_id":"levelo_inurba_marseille","lat":43.311125,"lon":5.377624,"is_reserved":false,"is_disabled":false,"rental_uris":{"android":"levelo://app?vid=37abc771-f294-4699-9aa8-b42275b80648","ios":"levelo://app?vid=37abc771-f294-4699-9aa8-b42275b80648"},"vehicle_type_id":"4","last_reported":1690780031,"current_range_meters":30000,"station_id":"ce4bgt92rcd13ifvqcg0","pricing_plan_id":"free"},{"bike_id":"73ee6a20-5359-4cda-b737-42146f11a701","system_id":"levelo_inurba_marseille","lat":43.311125,"lon":5.377624,"is_reserved":false,"is_disabled":false,"rental_uris":{"android":"levelo://app?vid=73ee6a20-5359-4cda-b737-42146f11a701","ios":"levelo://app?vid=73ee6a20-5359-4cda-b737-42146f11a701"},"vehicle_type_id":"4","last_reported":1690780031,"current_range_meters":29600,"station_id":"ce4bgt92rcd13ifvqcg0","pricing_plan_id":"free"},{"bike_id":"61038d4e-5936-434c-af0f-803d98a16e14","system_id":"levelo_inurba_marseille","lat":43.31116,"lon":5.3777,"is_reserved":false,"is_disabled":false,"rental_uris":{"android":"levelo://app?vid=61038d4e-5936-434c-af0f-803d98a16e14","ios":"levelo://app?vid=61038d4e-5936-434c-af0f-803d98a16e14"},"vehicle_type_id":"4","last_reported":1690780031,"current_range_meters":22000,"station_id":"ce4bgt92rcd13ifvqcg0","pricing_plan_id":"free"},{"bike_id":"c4a28b91-d55d-4294-815d-feec2d04f018","system_id":"levelo_inurba_marseille","lat":43.31121,"lon":5.37772,"is_reserved":false,"is_disabled":false,"rental_uris":{"android":"levelo://app?vid=c4a28b91-d55d-4294-815d-feec2d04f018","ios":"levelo://app?vid=c4a28b91-d55d-4294-815d-feec2d04f018"},"vehicle_type_id":"4","last_reported":1690780031,"current_range_meters":23600,"station_id":"ce4bgt92rcd13ifvqcg0","pricing_plan_id":"free"},{"bike_id":"6924d9c9-fbe5-448f-a9dd-ca9a079756ee","system_id":"levelo_inurba_marseille","lat":43.311125,"lon":5.377624,"is_reserved":false,"is_disabled":false,"rental_uris":{"android":"levelo://app?vid=6924d9c9-fbe5-448f-a9dd-ca9a079756ee","ios":"levelo://app?vid=6924d9c9-fbe5-448f-a9dd-ca9a079756ee"},"vehicle_type_id":"4","last_reported":1690780031,"current_range_meters":27200,"station_id":"ce4bgt92rcd13ifvqcg0","pricing_plan_id":"free"},{"bike_id":"2d0de007-c7ed-4297-83ae-6139406ea0ac","system_id":"levelo_inurba_marseille","lat":43.30781,"lon":5.37646,"is_reserved":false,"is_disabled":false,"rental_uris":{"android":"levelo://app?vid=2d0de007-c7ed-4297-83ae-6139406ea0ac","ios":"levelo://app?vid=2d0de007-c7ed-4297-83ae-6139406ea0ac"},"vehicle_type_id":"4","last_reported":1690780031,"current_range_meters":1200,"station_id":"ce4bgv92rcd13ifvqcq0","pricing_plan_id":"free"},{"bike_id":"f5d04e3b-366b-48db-85fc-c2c6f366327b","system_id":"levelo_inurba_marseille","lat":43.30776,"lon":5.37657,"is_reserved":false,"is_disabled":false,"rental_uris":{"android":"levelo://app?vid=f5d04e3b-366b-48db-85fc-c2c6f366327b","ios":"levelo://app?vid=f5d04e3b-366b-48db-85fc-c2c6f366327b"},"vehicle_type_id":"4","last_reported":1690780031,"current_range_meters":9200,"station_id":"ce4bgv92rcd13ifvqcq0","pricing_plan_id":"free"},{"bike_id":"6b1737f3-fc1a-4d2c-8537-684ff1b601f6","system_id":"levelo_inurba_marseille","lat":43.317075,"lon":5.377367,"is_reserved":false,"is_disabled":false,"rental_uris":{"android":"levelo://app?vid=6b1737f3-fc1a-4d2c-8537-684ff1b601f6","ios":"levelo://app?vid=6b1737f3-fc1a-4d2c-8537-684ff1b601f6"},"vehicle_type_id":"4","last_reported":1690780031,"current_range_meters":30000,"station_id":"ce4bgth2rcd13ifvqch0","pricing_plan_id":"free"},{"bike_id":"5d093696-a0ac-4195-941c-d592dcd38df4","system_id":"levelo_inurba_marseille","lat":43.317075,"lon":5.377367,"is_reserved":false,"is_disabled":false,"rental_uris":{"android":"levelo://app?vid=5d093696-a0ac-4195-941c-d592dcd38df4","ios":"levelo://app?vid=5d093696-a0ac-4195-941c-d592dcd38df4"},"vehicle_type_id":"4","last_reported":1690780031,"current_range_meters":30000,"station_id":"ce4bgth2rcd13ifvqch0","pricing_plan_id":"free"},{"bike_id":"ca9c909f-1472-46df-89cd-ecfdbdb2554a","system_id":"levelo_inurba_marseille","lat":43.299707,"lon":5.384859,"is_reserved":false,"is_disabled":false,"rental_uris":{"android":"levelo://app?vid=ca9c909f-1472-46df-89cd-ecfdbdb2554a","ios":"levelo://app?vid=ca9c909f-1472-46df-89cd-ecfdbdb2554a"},"vehicle_type_id":"4","last_reported":1690780031,"current_range_meters":18800,"station_id":"ce4bgj92rcd13ifvqbd0","pricing_plan_id":"free"},{"bike_id":"9c1a6130-32ab-4254-82e7-e05de6b38888","system_id":"levelo_inurba_marseille","lat":43.315289,"lon":5.380349,"is_reserved":false,"is_disabled":false,"rental_uris":{"android":"levelo://app?vid=9c1a6130-32ab-4254-82e7-e05de6b38888","ios":"levelo://app?vid=9c1a6130-32ab-4254-82e7-e05de6b38888"},"vehicle_type_id":"4","last_reported":1690780031,"current_range_meters":22000,"station_id":"ce4bhsp2rcd13ifvqi50","pricing_plan_id":"free"},{"bike_id":"c4276f36-4d6d-4005-82a0-30f11cf29e1c","system_id":"levelo_inurba_marseille","lat":43.30811,"lon":5.38151,"is_reserved":false,"is_disabled":false,"rental_uris":{"android":"levelo://app?vid=c4276f36-4d6d-4005-82a0-30f11cf29e1c","ios":"levelo://app?vid=c4276f36-4d6d-4005-82a0-30f11cf29e1c"},"vehicle_type_id":"4","last_reported":1690780031,"current_range_meters":22400,"station_id":"ce4bgt12rcd13ifvqce0","pricing_plan_id":"free"},{"bike_id":"4ddb8a03-7f89-42e3-be91-8e7f5c98efe8","system_id":"levelo_inurba_marseille","lat":43.30801,"lon":5.38152,"is_reserved":false,"is_disabled":false,"rental_uris":{"android":"levelo://app?vid=4ddb8a03-7f89-42e3-be91-8e7f5c98efe8","ios":"levelo://app?vid=4ddb8a03-7f89-42e3-be91-8e7f5c98efe8"},"vehicle_type_id":"4","last_reported":1690780031,"current_range_meters":0,"station_id":"ce4bgt12rcd13ifvqce0","pricing_plan_id":"free"},{"bike_id":"084ce8cf-06ac-4667-aa52-2f9264bdbdd6","system_id":"levelo_inurba_marseille","lat":43.304606,"lon":5.379026,"is_reserved":false,"is_disabled":false,"rental_uris":{"android":"levelo://app?vid=084ce8cf-06ac-4667-aa52-2f9264bdbdd6","ios":"levelo://app?vid=084ce8cf-06ac-4667-aa52-2f9264bdbdd6"},"vehicle_type_id":"4","last_reported":1690780031,"current_range_meters":31200,"station_id":"ce4bgup2rcd13ifvqcn0","pricing_plan_id":"free"},{"bike_id":"bd826116-1073-47c5-8a52-472df74bac70","system_id":"levelo_inurba_marseille","lat":43.304606,"lon":5.379026,"is_reserved":false,"is_disabled":false,"rental_uris":{"android":"levelo://app?vid=bd826116-1073-47c5-8a52-472df74bac70","ios":"levelo://app?vid=bd826116-1073-47c5-8a52-472df74bac70"},"vehicle_type_id":"4","last_reported":1690780031,"current_range_meters":28400,"station_id":"ce4bgup2rcd13ifvqcn0","pricing_plan_id":"free"},{"bike_id":"0c3edc95-0e95-4360-9849-87f26c90f9b0","system_id":"levelo_inurba_marseille","lat":43.304606,"lon":5.379026,"is_reserved":false,"is_disabled":false,"rental_uris":{"android":"levelo://app?vid=0c3edc95-0e95-4360-9849-87f26c90f9b0","ios":"levelo://app?vid=0c3edc95-0e95-4360-9849-87f26c90f9b0"},"vehicle_type_id":"4","last_reported":1690780031,"current_range_meters":31200,"station_id":"ce4bgup2rcd13ifvqcn0","pricing_plan_id":"free"},{"bike_id":"e01cb177-c9a8-4bbd-89ad-e587bd0d53fe","system_id":"levelo_inurba_marseille","lat":43.304606,"lon":5.379026,"is_reserved":false,"is_disabled":false,"rental_uris":{"android":"levelo://app?vid=e01cb177-c9a8-4bbd-89ad-e587bd0d53fe","ios":"levelo://app?vid=e01cb177-c9a8-4bbd-89ad-e587bd0d53fe"},"vehicle_type_id":"4","last_reported":1690780031,"current_range_meters":30400,"station_id":"ce4bgup2rcd13ifvqcn0","pricing_plan_id":"free"},{"bike_id":"e20102ac-c99b-4bf9-ad73-6f4c79dcaa7f","system_id":"levelo_inurba_marseille","lat":43.304606,"lon":5.379026,"is_reserved":false,"is_disabled":false,"rental_uris":{"android":"levelo://app?vid=e20102ac-c99b-4bf9-ad73-6f4c79dcaa7f","ios":"levelo://app?vid=e20102ac-c99b-4bf9-ad73-6f4c79dcaa7f"},"vehicle_type_id":"4","last_reported":1690780031,"current_range_meters":6800,"station_id":"ce4bgup2rcd13ifvqcn0","pricing_plan_id":"free"},{"bike_id":"801227f9-8cb5-47a9-acb7-2f638bf72f94","system_id":"levelo_inurba_marseille","lat":43.304606,"lon":5.379026,"is_reserved":false,"is_disabled":false,"rental_uris":{"android":"levelo://app?vid=801227f9-8cb5-47a9-acb7-2f638bf72f94","ios":"levelo://app?vid=801227f9-8cb5-47a9-acb7-2f638bf72f94"},"vehicle_type_id":"4","last_reported":1690780031,"current_range_meters":6400,"station_id":"ce4bgup2rcd13ifvqcn0","pricing_plan_id":"free"},{"bike_id":"42c07b87-2acf-4c0c-8d60-403401719235","system_id":"levelo_inurba_marseille","lat":43.304606,"lon":5.379026,"is_reserved":false,"is_disabled":false,"rental_uris":{"android":"levelo://app?vid=42c07b87-2acf-4c0c-8d60-403401719235","ios":"levelo://app?vid=42c07b87-2acf-4c0c-8d60-403401719235"},"vehicle_type_id":"4","last_reported":1690780031,"current_range_meters":28000,"station_id":"ce4bgup2rcd13ifvqcn0","pricing_plan_id":"free"},{"bike_id":"356e4722-f176-4e87-bb56-bf0bc2018a20","system_id":"levelo_inurba_marseille","lat":43.304606,"lon":5.379026,"is_reserved":false,"is_disabled":false,"rental_uris":{"android":"levelo://app?vid=356e4722-f176-4e87-bb56-bf0bc2018a20","ios":"levelo://app?vid=356e4722-f176-4e87-bb56-bf0bc2018a20"},"vehicle_type_id":"4","last_reported":1690780031,"current_range_meters":30400,"station_id":"ce4bgup2rcd13ifvqcn0","pricing_plan_id":"free"},{"bike_id":"090ff03f-1bdd-4f4b-bdee-5eabfb04dbe3","system_id":"levelo_inurba_marseille","lat":43.304606,"lon":5.379026,"is_reserved":false,"is_disabled":false,"rental_uris":{"android":"levelo://app?vid=090ff03f-1bdd-4f4b-bdee-5eabfb04dbe3","ios":"levelo://app?vid=090ff03f-1bdd-4f4b-bdee-5eabfb04dbe3"},"vehicle_type_id":"4","last_reported":1690780031,"current_range_meters":25200,"station_id":"ce4bgup2rcd13ifvqcn0","pricing_plan_id":"free"},{"bike_id":"04760ff1-cc9e-4b1d-a381-99205f8b444b","system_id":"levelo_inurba_marseille","lat":43.30144,"lon":5.37421,"is_reserved":false,"is_disabled":false,"rental_uris":{"android":"levelo://app?vid=04760ff1-cc9e-4b1d-a381-99205f8b444b","ios":"levelo://app?vid=04760ff1-cc9e-4b1d-a381-99205f8b444b"},"vehicle_type_id":"4","last_reported":1690780031,"current_range_meters":30000,"station_id":"ce4bgs92rcd13ifvqcc0","pricing_plan_id":"free"},{"bike_id":"a36a2261-ef70-40fd-af22-87e13d3a0cfe","system_id":"levelo_inurba_marseille","lat":43.30139,"lon":5.37421,"is_reserved":false,"is_disabled":false,"rental_uris":{"android":"levelo://app?vid=a36a2261-ef70-40fd-af22-87e13d3a0cfe","ios":"levelo://app?vid=a36a2261-ef70-40fd-af22-87e13d3a0cfe"},"vehicle_type_id":"4","last_reported":1690780031,"current_range_meters":10800,"station_id":"ce4bgs92rcd13ifvqcc0","pricing_plan_id":"free"},{"bike_id":"4f35c9e7-a8ce-4817-83d1-7dae8f34fee3","system_id":"levelo_inurba_marseille","lat":43.3199,"lon":5.38143,"is_reserved":false,"is_disabled":false,"rental_uris":{"android":"levelo://app?vid=4f35c9e7-a8ce-4817-83d1-7dae8f34fee3","ios":"levelo://app?vid=4f35c9e7-a8ce-4817-83d1-7dae8f34fee3"},"vehicle_type_id":"4","last_reported":1690780031,"current_range_meters":2400,"station_id":"ce4bhr12rcd13ifvqhpg","pricing_plan_id":"free"},{"bike_id":"e79a6720-2929-4790-abe9-3f1042e45293","system_id":"levelo_inurba_marseille","lat":43.319935,"lon":5.381699,"is_reserved":false,"is_disabled":false,"rental_uris":{"android":"levelo://app?vid=e79a6720-2929-4790-abe9-3f1042e45293","ios":"levelo://app?vid=e79a6720-2929-4790-abe9-3f1042e45293"},"vehicle_type_id":"4","last_reported":1690780031,"current_range_meters":22000,"station_id":"ce4bhr12rcd13ifvqhpg","pricing_plan_id":"free"},{"bike_id":"941ee9cb-d06b-4cb4-9196-9357d0edd36a","system_id":"levelo_inurba_marseille","lat":43.31994,"lon":5.38147,"is_reserved":false,"is_disabled":false,"rental_uris":{"android":"levelo://app?vid=941ee9cb-d06b-4cb4-9196-9357d0edd36a","ios":"levelo://app?vid=941ee9cb-d06b-4cb4-9196-9357d0edd36a"},"vehicle_type_id":"4","last_reported":1690780031,"current_range_meters":4800,"station_id":"ce4bhr12rcd13ifvqhpg","pricing_plan_id":"free"},{"bike_id":"37989ff0-891c-4b94-8792-0f452b952828","system_id":"levelo_inurba_marseille","lat":43.313571,"lon":5.384829,"is_reserved":false,"is_disabled":false,"rental_uris":{"android":"levelo://app?vid=37989ff0-891c-4b94-8792-0f452b952828","ios":"levelo://app?vid=37989ff0-891c-4b94-8792-0f452b952828"},"vehicle_type_id":"4","last_reported":1690780031,"current_range_meters":31200,"station_id":"ce4bgt92rcd13ifvqcf0","pricing_plan_id":"free"},{"bike_id":"280e31a3-5b3a-4273-85fe-7bb230e05d6d","system_id":"levelo_inurba_marseille","lat":43.313571,"lon":5.384829,"is_reserved":false,"is_disabled":false,"rental_uris":{"android":"levelo://app?vid=280e31a3-5b3a-4273-85fe-7bb230e05d6d","ios":"levelo://app?vid=280e31a3-5b3a-4273-85fe-7bb230e05d6d"},"vehicle_type_id":"4","last_reported":1690780031,"current_range_meters":31200,"station_id":"ce4bgt92rcd13ifvqcf0","pricing_plan_id":"free"},{"bike_id":"bad2d9a9-91e3-4a48-899e-37e19f0fd263","system_id":"levelo_inurba_marseille","lat":43.313571,"lon":5.384829,"is_reserved":false,"is_disabled":false,"rental_uris":{"android":"levelo://app?vid=bad2d9a9-91e3-4a48-899e-37e19f0fd263","ios":"levelo://app?vid=bad2d9a9-91e3-4a48-899e-37e19f0fd263"},"vehicle_type_id":"4","last_reported":1690780031,"current_range_meters":31200,"station_id":"ce4bgt92rcd13ifvqcf0","pricing_plan_id":"free"},{"bike_id":"3f63c2e2-90ce-4c91-815c-9befe0958c81","system_id":"levelo_inurba_marseille","lat":43.313571,"lon":5.384829,"is_reserved":false,"is_disabled":false,"rental_uris":{"android":"levelo://app?vid=3f63c2e2-90ce-4c91-815c-9befe0958c81","ios":"levelo://app?vid=3f63c2e2-90ce-4c91-815c-9befe0958c81"},"vehicle_type_id":"4","last_reported":1690780031,"current_range_meters":31200,"station_id":"ce4bgt92rcd13ifvqcf0","pricing_plan_id":"free"},{"bike_id":"37cd8de6-cf15-4a74-bd04-c743a2ff837e","system_id":"levelo_inurba_marseille","lat":43.313571,"lon":5.384829,"is_reserved":false,"is_disabled":false,"rental_uris":{"android":"levelo://app?vid=37cd8de6-cf15-4a74-bd04-c743a2ff837e","ios":"levelo://app?vid=37cd8de6-cf15-4a74-bd04-c743a2ff837e"},"vehicle_type_id":"4","last_reported":1690780031,"current_range_meters":31200,"station_id":"ce4bgt92rcd13ifvqcf0","pricing_plan_id":"free"},{"bike_id":"78b45ef6-dde2-47f3-9e9f-ee25f42b2f0c","system_id":"levelo_inurba_marseille","lat":43.313571,"lon":5.384829,"is_reserved":false,"is_disabled":false,"rental_uris":{"android":"levelo://app?vid=78b45ef6-dde2-47f3-9e9f-ee25f42b2f0c","ios":"levelo://app?vid=78b45ef6-dde2-47f3-9e9f-ee25f42b2f0c"},"vehicle_type_id":"4","last_reported":1690780031,"current_range_meters":31200,"station_id":"ce4bgt92rcd13ifvqcf0","pricing_plan_id":"free"},{"bike_id":"0d72ca84-860c-4d5b-a534-4c393bec3ae5","system_id":"levelo_inurba_marseille","lat":43.313571,"lon":5.384829,"is_reserved":false,"is_disabled":false,"rental_uris":{"android":"levelo://app?vid=0d72ca84-860c-4d5b-a534-4c393bec3ae5","ios":"levelo://app?vid=0d72ca84-860c-4d5b-a534-4c393bec3ae5"},"vehicle_type_id":"4","last_reported":1690780031,"current_range_meters":24800,"station_id":"ce4bgt92rcd13ifvqcf0","pricing_plan_id":"free"},{"bike_id":"704f7164-e036-4037-93cf-2d1738ac15df","system_id":"levelo_inurba_marseille","lat":43.31367,"lon":5.38521,"is_reserved":false,"is_disabled":false,"rental_uris":{"android":"levelo://app?vid=704f7164-e036-4037-93cf-2d1738ac15df","ios":"levelo://app?vid=704f7164-e036-4037-93cf-2d1738ac15df"},"vehicle_type_id":"4","last_reported":1690780031,"current_range_meters":26400,"station_id":"ce4bgt92rcd13ifvqcf0","pricing_plan_id":"free"},{"bike_id":"1fa68fa3-1fa7-47a5-89f6-29881ecbbf18","system_id":"levelo_inurba_marseille","lat":43.29982,"lon":5.37186,"is_reserved":false,"is_disabled":false,"rental_uris":{"android":"levelo://app?vid=1fa68fa3-1fa7-47a5-89f6-29881ecbbf18","ios":"levelo://app?vid=1fa68fa3-1fa7-47a5-89f6-29881ecbbf18"},"vehicle_type_id":"4","last_reported":1690780031,"current_range_meters":24800,"station_id":"ce4bgr92rcd13ifvqc7g","pricing_plan_id":"free"},{"bike_id":"273a0c6c-e23d-45b3-9e73-a4223a197265","system_id":"levelo_inurba_marseille","lat":43.299222,"lon":5.365554,"is_reserved":false,"is_disabled":false,"rental_uris":{"android":"levelo://app?vid=273a0c6c-e23d-45b3-9e73-a4223a197265","ios":"levelo://app?vid=273a0c6c-e23d-45b3-9e73-a4223a197265"},"vehicle_type_id":"4","last_reported":1690780031,"current_range_meters":14000,"station_id":"ce4bgm92rcd13ifvqbr0","pricing_plan_id":"free"},{"bike_id":"9e390abf-806d-4744-868f-f95ba7653a72","system_id":"levelo_inurba_marseille","lat":43.299724,"lon":5.371829,"is_reserved":false,"is_disabled":false,"rental_uris":{"android":"levelo://app?vid=9e390abf-806d-4744-868f-f95ba7653a72","ios":"levelo://app?vid=9e390abf-806d-4744-868f-f95ba7653a72"},"vehicle_type_id":"4","last_reported":1690780031,"current_range_meters":19200,"station_id":"ce4bgr92rcd13ifvqc7g","pricing_plan_id":"free"},{"bike_id":"fefd4ab4-60ec-48c5-ae23-07078678d6e6","system_id":"levelo_inurba_marseille","lat":43.299222,"lon":5.365554,"is_reserved":false,"is_disabled":false,"rental_uris":{"android":"levelo://app?vid=fefd4ab4-60ec-48c5-ae23-07078678d6e6","ios":"levelo://app?vid=fefd4ab4-60ec-48c5-ae23-07078678d6e6"},"vehicle_type_id":"4","last_reported":1690780031,"current_range_meters":13200,"station_id":"ce4bgm92rcd13ifvqbr0","pricing_plan_id":"free"},{"bike_id":"31ba05b1-5dad-4a3d-ace0-533d88873885","system_id":"levelo_inurba_marseille","lat":43.298433,"lon":5.362774,"is_reserved":false,"is_disabled":false,"rental_uris":{"android":"levelo://app?vid=31ba05b1-5dad-4a3d-ace0-533d88873885","ios":"levelo://app?vid=31ba05b1-5dad-4a3d-ace0-533d88873885"},"vehicle_type_id":"4","last_reported":1690780031,"current_range_meters":25600,"station_id":"ce4bgpp2rcd13ifvqc3g","pricing_plan_id":"free"},{"bike_id":"bf90ce88-7a01-4a20-9d4a-1ecef6e32b53","system_id":"levelo_inurba_marseille","lat":43.298433,"lon":5.362774,"is_reserved":false,"is_disabled":false,"rental_uris":{"android":"levelo://app?vid=bf90ce88-7a01-4a20-9d4a-1ecef6e32b53","ios":"levelo://app?vid=bf90ce88-7a01-4a20-9d4a-1ecef6e32b53"},"vehicle_type_id":"4","last_reported":1690780031,"current_range_meters":29200,"station_id":"ce4bgpp2rcd13ifvqc3g","pricing_plan_id":"free"},{"bike_id":"f24c511d-dc66-41c8-9a34-d8c8c3fef2a1","system_id":"levelo_inurba_marseille","lat":43.298433,"lon":5.362774,"is_reserved":false,"is_disabled":false,"rental_uris":{"android":"levelo://app?vid=f24c511d-dc66-41c8-9a34-d8c8c3fef2a1","ios":"levelo://app?vid=f24c511d-dc66-41c8-9a34-d8c8c3fef2a1"},"vehicle_type_id":"4","last_reported":1690780031,"current_range_meters":25600,"station_id":"ce4bgpp2rcd13ifvqc3g","pricing_plan_id":"free"},{"bike_id":"250e84ec-16f2-48a1-85e4-13c01d2519ae","system_id":"levelo_inurba_marseille","lat":43.298433,"lon":5.362774,"is_reserved":false,"is_disabled":false,"rental_uris":{"android":"levelo://app?vid=250e84ec-16f2-48a1-85e4-13c01d2519ae","ios":"levelo://app?vid=250e84ec-16f2-48a1-85e4-13c01d2519ae"},"vehicle_type_id":"4","last_reported":1690780031,"current_range_meters":30000,"station_id":"ce4bgpp2rcd13ifvqc3g","pricing_plan_id":"free"},{"bike_id":"ce592a5f-acb3-4a51-84bf-b14f18be1acd","system_id":"levelo_inurba_marseille","lat":43.298433,"lon":5.362774,"is_reserved":false,"is_disabled":false,"rental_uris":{"android":"levelo://app?vid=ce592a5f-acb3-4a51-84bf-b14f18be1acd","ios":"levelo://app?vid=ce592a5f-acb3-4a51-84bf-b14f18be1acd"},"vehicle_type_id":"4","last_reported":1690780031,"current_range_meters":30000,"station_id":"ce4bgpp2rcd13ifvqc3g","pricing_plan_id":"free"},{"bike_id":"f2a7256f-7545-4d2a-8c60-507697be046e","system_id":"levelo_inurba_marseille","lat":43.298433,"lon":5.362774,"is_reserved":false,"is_disabled":false,"rental_uris":{"android":"levelo://app?vid=f2a7256f-7545-4d2a-8c60-507697be046e","ios":"levelo://app?vid=f2a7256f-7545-4d2a-8c60-507697be046e"},"vehicle_type_id":"4","last_reported":1690780031,"current_range_meters":27200,"station_id":"ce4bgpp2rcd13ifvqc3g","pricing_plan_id":"free"},{"bike_id":"641aec74-750e-4eaf-b857-840d68b451b6","system_id":"levelo_inurba_marseille","lat":43.298433,"lon":5.362774,"is_reserved":false,"is_disabled":false,"rental_uris":{"android":"levelo://app?vid=641aec74-750e-4eaf-b857-840d68b451b6","ios":"levelo://app?vid=641aec74-750e-4eaf-b857-840d68b451b6"},"vehicle_type_id":"4","last_reported":1690780031,"current_range_meters":29600,"station_id":"ce4bgpp2rcd13ifvqc3g","pricing_plan_id":"free"},{"bike_id":"10bb44b2-69c6-43ea-9c0e-014cde08dbf3","system_id":"levelo_inurba_marseille","lat":43.298433,"lon":5.362774,"is_reserved":false,"is_disabled":false,"rental_uris":{"android":"levelo://app?vid=10bb44b2-69c6-43ea-9c0e-014cde08dbf3","ios":"levelo://app?vid=10bb44b2-69c6-43ea-9c0e-014cde08dbf3"},"vehicle_type_id":"4","last_reported":1690780031,"current_range_meters":30000,"station_id":"ce4bgpp2rcd13ifvqc3g","pricing_plan_id":"free"},{"bike_id":"bbd4f8f8-82d0-4b57-b9e4-ef8971bcfe02","system_id":"levelo_inurba_marseille","lat":43.298433,"lon":5.362774,"is_reserved":false,"is_disabled":false,"rental_uris":{"android":"levelo://app?vid=bbd4f8f8-82d0-4b57-b9e4-ef8971bcfe02","ios":"levelo://app?vid=bbd4f8f8-82d0-4b57-b9e4-ef8971bcfe02"},"vehicle_type_id":"4","last_reported":1690780031,"current_range_meters":29200,"station_id":"ce4bgpp2rcd13ifvqc3g","pricing_plan_id":"free"},{"bike_id":"3a0eb21b-ca56-457f-ad9d-9c9f52e29c95","system_id":"levelo_inurba_marseille","lat":43.305364,"lon":5.384119,"is_reserved":false,"is_disabled":false,"rental_uris":{"android":"levelo://app?vid=3a0eb21b-ca56-457f-ad9d-9c9f52e29c95","ios":"levelo://app?vid=3a0eb21b-ca56-457f-ad9d-9c9f52e29c95"},"vehicle_type_id":"4","last_reported":1690780031,"current_range_meters":25600,"station_id":"ce4bgg92rcd13ifvqb30","pricing_plan_id":"free"},{"bike_id":"865c2434-ec74-47a5-a0e8-6f3aaa5a538a","system_id":"levelo_inurba_marseille","lat":43.298433,"lon":5.362774,"is_reserved":false,"is_disabled":false,"rental_uris":{"android":"levelo://app?vid=865c2434-ec74-47a5-a0e8-6f3aaa5a538a","ios":"levelo://app?vid=865c2434-ec74-47a5-a0e8-6f3aaa5a538a"},"vehicle_type_id":"4","last_reported":1690780031,"current_range_meters":25600,"station_id":"ce4bgpp2rcd13ifvqc3g","pricing_plan_id":"free"},{"bike_id":"1c9125b1-d390-4241-908b-9c95bea41ab7","system_id":"levelo_inurba_marseille","lat":43.298433,"lon":5.362774,"is_reserved":false,"is_disabled":false,"rental_uris":{"android":"levelo://app?vid=1c9125b1-d390-4241-908b-9c95bea41ab7","ios":"levelo://app?vid=1c9125b1-d390-4241-908b-9c95bea41ab7"},"vehicle_type_id":"4","last_reported":1690780031,"current_range_meters":29200,"station_id":"ce4bgpp2rcd13ifvqc3g","pricing_plan_id":"free"},{"bike_id":"5d071d69-6fec-4bf3-b8ee-36a0eecc20ad","system_id":"levelo_inurba_marseille","lat":43.30538,"lon":5.38432,"is_reserved":false,"is_disabled":false,"rental_uris":{"android":"levelo://app?vid=5d071d69-6fec-4bf3-b8ee-36a0eecc20ad","ios":"levelo://app?vid=5d071d69-6fec-4bf3-b8ee-36a0eecc20ad"},"vehicle_type_id":"4","last_reported":1690780031,"current_range_meters":2400,"station_id":"ce4bgg92rcd13ifvqb30","pricing_plan_id":"free"},{"bike_id":"30537d43-af02-4a10-b928-7b9b8cf633d2","system_id":"levelo_inurba_marseille","lat":43.305364,"lon":5.384119,"is_reserved":false,"is_disabled":false,"rental_uris":{"android":"levelo://app?vid=30537d43-af02-4a10-b928-7b9b8cf633d2","ios":"levelo://app?vid=30537d43-af02-4a10-b928-7b9b8cf633d2"},"vehicle_type_id":"4","last_reported":1690780031,"current_range_meters":31200,"station_id":"ce4bgg92rcd13ifvqb30","pricing_plan_id":"free"},{"bike_id":"c8b01d87-eb1c-4cfc-b914-d0eff6e3293a","system_id":"levelo_inurba_marseille","lat":43.3053,"lon":5.3843,"is_reserved":false,"is_disabled":false,"rental_uris":{"android":"levelo://app?vid=c8b01d87-eb1c-4cfc-b914-d0eff6e3293a","ios":"levelo://app?vid=c8b01d87-eb1c-4cfc-b914-d0eff6e3293a"},"vehicle_type_id":"4","last_reported":1690780031,"current_range_meters":2400,"station_id":"ce4bgg92rcd13ifvqb30","pricing_plan_id":"free"},{"bike_id":"9948084f-cff0-4e34-a8d4-6f2bcf6d7c49","system_id":"levelo_inurba_marseille","lat":43.30528,"lon":5.38429,"is_reserved":false,"is_disabled":false,"rental_uris":{"android":"levelo://app?vid=9948084f-cff0-4e34-a8d4-6f2bcf6d7c49","ios":"levelo://app?vid=9948084f-cff0-4e34-a8d4-6f2bcf6d7c49"},"vehicle_type_id":"4","last_reported":1690780031,"current_range_meters":4400,"station_id":"ce4bgg92rcd13ifvqb30","pricing_plan_id":"free"},{"bike_id":"6d5f3fdc-d264-472a-8679-263f982d0162","system_id":"levelo_inurba_marseille","lat":43.311722,"lon":5.387247,"is_reserved":false,"is_disabled":false,"rental_uris":{"android":"levelo://app?vid=6d5f3fdc-d264-472a-8679-263f982d0162","ios":"levelo://app?vid=6d5f3fdc-d264-472a-8679-263f982d0162"},"vehicle_type_id":"4","last_reported":1690780031,"current_range_meters":30000,"station_id":"ce4bgv12rcd13ifvqcp0","pricing_plan_id":"free"},{"bike_id":"a1e9d596-9e60-4345-9f54-51b92223409b","system_id":"levelo_inurba_marseille","lat":43.311722,"lon":5.387247,"is_reserved":false,"is_disabled":false,"rental_uris":{"android":"levelo://app?vid=a1e9d596-9e60-4345-9f54-51b92223409b","ios":"levelo://app?vid=a1e9d596-9e60-4345-9f54-51b92223409b"},"vehicle_type_id":"4","last_reported":1690780031,"current_range_meters":27200,"station_id":"ce4bgv12rcd13ifvqcp0","pricing_plan_id":"free"},{"bike_id":"0697fda6-a027-4f08-a4b7-53bca15ff14f","system_id":"levelo_inurba_marseille","lat":43.311722,"lon":5.387247,"is_reserved":false,"is_disabled":false,"rental_uris":{"android":"levelo://app?vid=0697fda6-a027-4f08-a4b7-53bca15ff14f","ios":"levelo://app?vid=0697fda6-a027-4f08-a4b7-53bca15ff14f"},"vehicle_type_id":"4","last_reported":1690780031,"current_range_meters":31600,"station_id":"ce4bgv12rcd13ifvqcp0","pricing_plan_id":"free"},{"bike_id":"dc9a12d4-471e-47e3-8966-cbbfbc125554","system_id":"levelo_inurba_marseille","lat":43.297794,"lon":5.370888,"is_reserved":false,"is_disabled":false,"rental_uris":{"android":"levelo://app?vid=dc9a12d4-471e-47e3-8966-cbbfbc125554","ios":"levelo://app?vid=dc9a12d4-471e-47e3-8966-cbbfbc125554"},"vehicle_type_id":"4","last_reported":1690780031,"current_range_meters":30800,"station_id":"ce4bgop2rcd13ifvqc1g","pricing_plan_id":"free"},{"bike_id":"a87c3d89-8ecc-4c20-a387-7842b25267e1","system_id":"levelo_inurba_marseille","lat":43.32288,"lon":5.38264,"is_reserved":false,"is_disabled":false,"rental_uris":{"android":"levelo://app?vid=a87c3d89-8ecc-4c20-a387-7842b25267e1","ios":"levelo://app?vid=a87c3d89-8ecc-4c20-a387-7842b25267e1"},"vehicle_type_id":"4","last_reported":1690780031,"current_range_meters":26000,"station_id":"ce4bhr12rcd13ifvqhqg","pricing_plan_id":"free"},{"bike_id":"a196dbb0-0ca2-44b0-8b03-b7d3a734d20c","system_id":"levelo_inurba_marseille","lat":43.32287,"lon":5.38266,"is_reserved":false,"is_disabled":false,"rental_uris":{"android":"levelo://app?vid=a196dbb0-0ca2-44b0-8b03-b7d3a734d20c","ios":"levelo://app?vid=a196dbb0-0ca2-44b0-8b03-b7d3a734d20c"},"vehicle_type_id":"4","last_reported":1690780031,"current_range_meters":22000,"station_id":"ce4bhr12rcd13ifvqhqg","pricing_plan_id":"free"},{"bike_id":"79bf6da4-5f08-488b-96b1-6e23f74ec5ec","system_id":"levelo_inurba_marseille","lat":43.322872,"lon":5.382756,"is_reserved":false,"is_disabled":false,"rental_uris":{"android":"levelo://app?vid=79bf6da4-5f08-488b-96b1-6e23f74ec5ec","ios":"levelo://app?vid=79bf6da4-5f08-488b-96b1-6e23f74ec5ec"},"vehicle_type_id":"4","last_reported":1690780031,"current_range_meters":30000,"station_id":"ce4bhr12rcd13ifvqhqg","pricing_plan_id":"free"},{"bike_id":"aff0017d-8d19-4b8c-8490-dfc322af04d7","system_id":"levelo_inurba_marseille","lat":43.32289,"lon":5.38268,"is_reserved":false,"is_disabled":false,"rental_uris":{"android":"levelo://app?vid=aff0017d-8d19-4b8c-8490-dfc322af04d7","ios":"levelo://app?vid=aff0017d-8d19-4b8c-8490-dfc322af04d7"},"vehicle_type_id":"4","last_reported":1690780031,"current_range_meters":30000,"station_id":"ce4bhr12rcd13ifvqhqg","pricing_plan_id":"free"},{"bike_id":"82f1e03d-e4c3-4aac-b6f0-c9fc3950fe62","system_id":"levelo_inurba_marseille","lat":43.322919,"lon":5.382674,"is_reserved":false,"is_disabled":false,"rental_uris":{"android":"levelo://app?vid=82f1e03d-e4c3-4aac-b6f0-c9fc3950fe62","ios":"levelo://app?vid=82f1e03d-e4c3-4aac-b6f0-c9fc3950fe62"},"vehicle_type_id":"4","last_reported":1690780031,"current_range_meters":18000,"station_id":"","pricing_plan_id":"free"},{"bike_id":"7a3debfb-a4c2-4cbf-a70c-be28fe4f20ea","system_id":"levelo_inurba_marseille","lat":43.32821,"lon":5.36674,"is_reserved":false,"is_disabled":false,"rental_uris":{"android":"levelo://app?vid=7a3debfb-a4c2-4cbf-a70c-be28fe4f20ea","ios":"levelo://app?vid=7a3debfb-a4c2-4cbf-a70c-be28fe4f20ea"},"vehicle_type_id":"4","last_reported":1690780031,"current_range_meters":31200,"station_id":"ce4bhs92rcd13ifvqi0g","pricing_plan_id":"free"},{"bike_id":"ae42b981-1f9f-41f4-8f1b-8eabe41cea35","system_id":"levelo_inurba_marseille","lat":43.328371,"lon":5.366909,"is_reserved":false,"is_disabled":false,"rental_uris":{"android":"levelo://app?vid=ae42b981-1f9f-41f4-8f1b-8eabe41cea35","ios":"levelo://app?vid=ae42b981-1f9f-41f4-8f1b-8eabe41cea35"},"vehicle_type_id":"4","last_reported":1690780031,"current_range_meters":22800,"station_id":"ce4bhs92rcd13ifvqi0g","pricing_plan_id":"free"},{"bike_id":"f63f851a-28d8-4285-b78e-d8e4c3ca7766","system_id":"levelo_inurba_marseille","lat":43.328371,"lon":5.366909,"is_reserved":false,"is_disabled":false,"rental_uris":{"android":"levelo://app?vid=f63f851a-28d8-4285-b78e-d8e4c3ca7766","ios":"levelo://app?vid=f63f851a-28d8-4285-b78e-d8e4c3ca7766"},"vehicle_type_id":"4","last_reported":1690780031,"current_range_meters":26000,"station_id":"ce4bhs92rcd13ifvqi0g","pricing_plan_id":"free"},{"bike_id":"9f568c27-0fce-491f-b020-40b12f0f1259","system_id":"levelo_inurba_marseille","lat":43.328371,"lon":5.366909,"is_reserved":false,"is_disabled":false,"rental_uris":{"android":"levelo://app?vid=9f568c27-0fce-491f-b020-40b12f0f1259","ios":"levelo://app?vid=9f568c27-0fce-491f-b020-40b12f0f1259"},"vehicle_type_id":"4","last_reported":1690780031,"current_range_meters":20800,"station_id":"ce4bhs92rcd13ifvqi0g","pricing_plan_id":"free"},{"bike_id":"61b39c43-398d-4345-ae6b-a312757f2f03","system_id":"levelo_inurba_marseille","lat":43.32829,"lon":5.36688,"is_reserved":false,"is_disabled":false,"rental_uris":{"android":"levelo://app?vid=61b39c43-398d-4345-ae6b-a312757f2f03","ios":"levelo://app?vid=61b39c43-398d-4345-ae6b-a312757f2f03"},"vehicle_type_id":"4","last_reported":1690780031,"current_range_meters":28400,"station_id":"ce4bhs92rcd13ifvqi0g","pricing_plan_id":"free"},{"bike_id":"452cfc60-de17-4e32-8e61-affb2816010a","system_id":"levelo_inurba_marseille","lat":43.32833,"lon":5.36675,"is_reserved":false,"is_disabled":false,"rental_uris":{"android":"levelo://app?vid=452cfc60-de17-4e32-8e61-affb2816010a","ios":"levelo://app?vid=452cfc60-de17-4e32-8e61-affb2816010a"},"vehicle_type_id":"4","last_reported":1690780031,"current_range_meters":31600,"station_id":"ce4bhs92rcd13ifvqi0g","pricing_plan_id":"free"},{"bike_id":"dd789220-e7b5-42c1-b9dc-dc4243148021","system_id":"levelo_inurba_marseille","lat":43.297163,"lon":5.365866,"is_reserved":false,"is_disabled":false,"rental_uris":{"android":"levelo://app?vid=dd789220-e7b5-42c1-b9dc-dc4243148021","ios":"levelo://app?vid=dd789220-e7b5-42c1-b9dc-dc4243148021"},"vehicle_type_id":"4","last_reported":1690780031,"current_range_meters":31200,"station_id":"ce4bgn12rcd13ifvqbt0","pricing_plan_id":"free"},{"bike_id":"e8385cb9-6154-4f79-ad3e-51c8cdeeccb5","system_id":"levelo_inurba_marseille","lat":43.2968,"lon":5.37291,"is_reserved":false,"is_disabled":false,"rental_uris":{"android":"levelo://app?vid=e8385cb9-6154-4f79-ad3e-51c8cdeeccb5","ios":"levelo://app?vid=e8385cb9-6154-4f79-ad3e-51c8cdeeccb5"},"vehicle_type_id":"4","last_reported":1690780031,"current_range_meters":31200,"station_id":"ce4bgk12rcd13ifvqbj0","pricing_plan_id":"free"},{"bike_id":"7f6a7b6d-5c2c-4062-80ee-906a685869d1","system_id":"levelo_inurba_marseille","lat":43.2968,"lon":5.37291,"is_reserved":false,"is_disabled":false,"rental_uris":{"android":"levelo://app?vid=7f6a7b6d-5c2c-4062-80ee-906a685869d1","ios":"levelo://app?vid=7f6a7b6d-5c2c-4062-80ee-906a685869d1"},"vehicle_type_id":"4","last_reported":1690780031,"current_range_meters":20800,"station_id":"ce4bgk12rcd13ifvqbj0","pricing_plan_id":"free"},{"bike_id":"9ad3d98e-aed3-49e0-b6db-8c49dd735f6e","system_id":"levelo_inurba_marseille","lat":43.29573,"lon":5.367355,"is_reserved":false,"is_disabled":false,"rental_uris":{"android":"levelo://app?vid=9ad3d98e-aed3-49e0-b6db-8c49dd735f6e","ios":"levelo://app?vid=9ad3d98e-aed3-49e0-b6db-8c49dd735f6e"},"vehicle_type_id":"4","last_reported":1690780031,"current_range_meters":30000,"station_id":"ce4bgph2rcd13ifvqc2g","pricing_plan_id":"free"},{"bike_id":"741d5f94-62f9-4d73-94ac-cb47e849961d","system_id":"levelo_inurba_marseille","lat":43.2958,"lon":5.36743,"is_reserved":false,"is_disabled":false,"rental_uris":{"android":"levelo://app?vid=741d5f94-62f9-4d73-94ac-cb47e849961d","ios":"levelo://app?vid=741d5f94-62f9-4d73-94ac-cb47e849961d"},"vehicle_type_id":"4","last_reported":1690780031,"current_range_meters":27200,"station_id":"ce4bgph2rcd13ifvqc2g","pricing_plan_id":"free"},{"bike_id":"f0b1921d-8fc5-42f6-8214-26455e772ce5","system_id":"levelo_inurba_marseille","lat":43.30961,"lon":5.38992,"is_reserved":false,"is_disabled":false,"rental_uris":{"android":"levelo://app?vid=f0b1921d-8fc5-42f6-8214-26455e772ce5","ios":"levelo://app?vid=f0b1921d-8fc5-42f6-8214-26455e772ce5"},"vehicle_type_id":"4","last_reported":1690780031,"current_range_meters":26000,"station_id":"ce4bgup2rcd13ifvqco0","pricing_plan_id":"free"},{"bike_id":"e9e00e0e-b796-441e-ac3e-4f1f741b4c17","system_id":"levelo_inurba_marseille","lat":43.296935,"lon":5.376544,"is_reserved":false,"is_disabled":false,"rental_uris":{"android":"levelo://app?vid=e9e00e0e-b796-441e-ac3e-4f1f741b4c17","ios":"levelo://app?vid=e9e00e0e-b796-441e-ac3e-4f1f741b4c17"},"vehicle_type_id":"4","last_reported":1690780031,"current_range_meters":31200,"station_id":"ce4bgkh2rcd13ifvqbl0","pricing_plan_id":"free"},{"bike_id":"1646092c-6aaa-404b-8791-8bd28b220fb8","system_id":"levelo_inurba_marseille","lat":43.299028,"lon":5.381509,"is_reserved":false,"is_disabled":false,"rental_uris":{"android":"levelo://app?vid=1646092c-6aaa-404b-8791-8bd28b220fb8","ios":"levelo://app?vid=1646092c-6aaa-404b-8791-8bd28b220fb8"},"vehicle_type_id":"4","last_reported":1690780031,"current_range_meters":26400,"station_id":"ce4bgj12rcd13ifvqbc0","pricing_plan_id":"free"},{"bike_id":"6796b02c-b24f-491a-b0c0-50ac16bcbebf","system_id":"levelo_inurba_marseille","lat":43.296921,"lon":5.376579,"is_reserved":false,"is_disabled":false,"rental_uris":{"android":"levelo://app?vid=6796b02c-b24f-491a-b0c0-50ac16bcbebf","ios":"levelo://app?vid=6796b02c-b24f-491a-b0c0-50ac16bcbebf"},"vehicle_type_id":"4","last_reported":1690780031,"current_range_meters":28800,"station_id":"ce4bgkh2rcd13ifvqbl0","pricing_plan_id":"free"},{"bike_id":"bc8e0af9-419f-400b-ad00-19ddbcee8b66","system_id":"levelo_inurba_marseille","lat":43.299028,"lon":5.381509,"is_reserved":false,"is_disabled":false,"rental_uris":{"android":"levelo://app?vid=bc8e0af9-419f-400b-ad00-19ddbcee8b66","ios":"levelo://app?vid=bc8e0af9-419f-400b-ad00-19ddbcee8b66"},"vehicle_type_id":"4","last_reported":1690780031,"current_range_meters":5600,"station_id":"ce4bgj12rcd13ifvqbc0","pricing_plan_id":"free"},{"bike_id":"dec50e24-a6e4-4fb3-a3b6-5e890b0b7731","system_id":"levelo_inurba_marseille","lat":43.299028,"lon":5.381509,"is_reserved":false,"is_disabled":false,"rental_uris":{"android":"levelo://app?vid=dec50e24-a6e4-4fb3-a3b6-5e890b0b7731","ios":"levelo://app?vid=dec50e24-a6e4-4fb3-a3b6-5e890b0b7731"},"vehicle_type_id":"4","last_reported":1690780031,"current_range_meters":30800,"station_id":"ce4bgj12rcd13ifvqbc0","pricing_plan_id":"free"},{"bike_id":"0175d78e-73f3-4466-af86-e3de4856cfba","system_id":"levelo_inurba_marseille","lat":43.296935,"lon":5.376544,"is_reserved":false,"is_disabled":false,"rental_uris":{"android":"levelo://app?vid=0175d78e-73f3-4466-af86-e3de4856cfba","ios":"levelo://app?vid=0175d78e-73f3-4466-af86-e3de4856cfba"},"vehicle_type_id":"4","last_reported":1690780031,"current_range_meters":31200,"station_id":"ce4bgkh2rcd13ifvqbl0","pricing_plan_id":"free"},{"bike_id":"2c37618c-9cf3-4b20-a1ae-2aaaf7173ffb","system_id":"levelo_inurba_marseille","lat":43.299028,"lon":5.381509,"is_reserved":false,"is_disabled":false,"rental_uris":{"android":"levelo://app?vid=2c37618c-9cf3-4b20-a1ae-2aaaf7173ffb","ios":"levelo://app?vid=2c37618c-9cf3-4b20-a1ae-2aaaf7173ffb"},"vehicle_type_id":"4","last_reported":1690780031,"current_range_meters":31200,"station_id":"ce4bgj12rcd13ifvqbc0","pricing_plan_id":"free"},{"bike_id":"b97ab896-4416-42cb-bd1d-e764bf7e096e","system_id":"levelo_inurba_marseille","lat":43.31496,"lon":5.39081,"is_reserved":false,"is_disabled":false,"rental_uris":{"android":"levelo://app?vid=b97ab896-4416-42cb-bd1d-e764bf7e096e","ios":"levelo://app?vid=b97ab896-4416-42cb-bd1d-e764bf7e096e"},"vehicle_type_id":"4","last_reported":1690780031,"current_range_meters":17600,"station_id":"","pricing_plan_id":"free"},{"bike_id":"3a2b8d2c-ec1a-4280-9dc6-aaeddaff558f","system_id":"levelo_inurba_marseille","lat":43.295748,"lon":5.37522,"is_reserved":false,"is_disabled":false,"rental_uris":{"android":"levelo://app?vid=3a2b8d2c-ec1a-4280-9dc6-aaeddaff558f","ios":"levelo://app?vid=3a2b8d2c-ec1a-4280-9dc6-aaeddaff558f"},"vehicle_type_id":"4","last_reported":1690780031,"current_range_meters":22000,"station_id":"ce4bgh92rcd13ifvqb50","pricing_plan_id":"free"},{"bike_id":"34bbb876-f712-445b-9998-b99730c540dc","system_id":"levelo_inurba_marseille","lat":43.295748,"lon":5.37522,"is_reserved":false,"is_disabled":false,"rental_uris":{"android":"levelo://app?vid=34bbb876-f712-445b-9998-b99730c540dc","ios":"levelo://app?vid=34bbb876-f712-445b-9998-b99730c540dc"},"vehicle_type_id":"4","last_reported":1690780031,"current_range_meters":30000,"station_id":"ce4bgh92rcd13ifvqb50","pricing_plan_id":"free"},{"bike_id":"33cffab2-a7be-48b1-9f88-c38d974ce5b8","system_id":"levelo_inurba_marseille","lat":43.29791,"lon":5.38097,"is_reserved":false,"is_disabled":false,"rental_uris":{"android":"levelo://app?vid=33cffab2-a7be-48b1-9f88-c38d974ce5b8","ios":"levelo://app?vid=33cffab2-a7be-48b1-9f88-c38d974ce5b8"},"vehicle_type_id":"4","last_reported":1690780031,"current_range_meters":14800,"station_id":"ce4bgip2rcd13ifvqbb0","pricing_plan_id":"free"},{"bike_id":"55325f21-7f18-40d7-b709-8eb643562024","system_id":"levelo_inurba_marseille","lat":43.2979,"lon":5.381,"is_reserved":false,"is_disabled":false,"rental_uris":{"android":"levelo://app?vid=55325f21-7f18-40d7-b709-8eb643562024","ios":"levelo://app?vid=55325f21-7f18-40d7-b709-8eb643562024"},"vehicle_type_id":"4","last_reported":1690780031,"current_range_meters":23600,"station_id":"ce4bgip2rcd13ifvqbb0","pricing_plan_id":"free"},{"bike_id":"4111e37f-afda-475c-9758-1cbd356f16b3","system_id":"levelo_inurba_marseille","lat":43.295748,"lon":5.37522,"is_reserved":false,"is_disabled":false,"rental_uris":{"android":"levelo://app?vid=4111e37f-afda-475c-9758-1cbd356f16b3","ios":"levelo://app?vid=4111e37f-afda-475c-9758-1cbd356f16b3"},"vehicle_type_id":"4","last_reported":1690780031,"current_range_meters":30400,"station_id":"ce4bgh92rcd13ifvqb50","pricing_plan_id":"free"},{"bike_id":"00c972e6-a760-4458-8003-65cd03cca5c3","system_id":"levelo_inurba_marseille","lat":43.295748,"lon":5.37522,"is_reserved":false,"is_disabled":false,"rental_uris":{"android":"levelo://app?vid=00c972e6-a760-4458-8003-65cd03cca5c3","ios":"levelo://app?vid=00c972e6-a760-4458-8003-65cd03cca5c3"},"vehicle_type_id":"4","last_reported":1690780031,"current_range_meters":23200,"station_id":"ce4bgh92rcd13ifvqb50","pricing_plan_id":"free"},{"bike_id":"c06ad2d5-3aa7-446f-bb2a-82cfb2285895","system_id":"levelo_inurba_marseille","lat":43.304278,"lon":5.388868,"is_reserved":false,"is_disabled":false,"rental_uris":{"android":"levelo://app?vid=c06ad2d5-3aa7-446f-bb2a-82cfb2285895","ios":"levelo://app?vid=c06ad2d5-3aa7-446f-bb2a-82cfb2285895"},"vehicle_type_id":"4","last_reported":1690780031,"current_range_meters":24000,"station_id":"ce4bgk12rcd13ifvqbi0","pricing_plan_id":"free"},{"bike_id":"54178235-336c-4b55-9620-72f76c421717","system_id":"levelo_inurba_marseille","lat":43.304278,"lon":5.388868,"is_reserved":false,"is_disabled":false,"rental_uris":{"android":"levelo://app?vid=54178235-336c-4b55-9620-72f76c421717","ios":"levelo://app?vid=54178235-336c-4b55-9620-72f76c421717"},"vehicle_type_id":"4","last_reported":1690780031,"current_range_meters":22000,"station_id":"ce4bgk12rcd13ifvqbi0","pricing_plan_id":"free"},{"bike_id":"f2f9802a-4c5e-45de-af21-02976c953d9d","system_id":"levelo_inurba_marseille","lat":43.295748,"lon":5.37522,"is_reserved":false,"is_disabled":false,"rental_uris":{"android":"levelo://app?vid=f2f9802a-4c5e-45de-af21-02976c953d9d","ios":"levelo://app?vid=f2f9802a-4c5e-45de-af21-02976c953d9d"},"vehicle_type_id":"4","last_reported":1690780031,"current_range_meters":0,"station_id":"ce4bgh92rcd13ifvqb50","pricing_plan_id":"free"},{"bike_id":"ab37fdca-1b02-4e81-9300-519d101f1fde","system_id":"levelo_inurba_marseille","lat":43.304274,"lon":5.388873,"is_reserved":false,"is_disabled":false,"rental_uris":{"android":"levelo://app?vid=ab37fdca-1b02-4e81-9300-519d101f1fde","ios":"levelo://app?vid=ab37fdca-1b02-4e81-9300-519d101f1fde"},"vehicle_type_id":"4","last_reported":1690780031,"current_range_meters":3200,"station_id":"ce4bgk12rcd13ifvqbi0","pricing_plan_id":"free"},{"bike_id":"c372ec2b-dbfa-42f2-bca1-f0324122476d","system_id":"levelo_inurba_marseille","lat":43.32364,"lon":5.38873,"is_reserved":false,"is_disabled":false,"rental_uris":{"android":"levelo://app?vid=c372ec2b-dbfa-42f2-bca1-f0324122476d","ios":"levelo://app?vid=c372ec2b-dbfa-42f2-bca1-f0324122476d"},"vehicle_type_id":"4","last_reported":1690780031,"current_range_meters":14800,"station_id":"ce4bhqp2rcd13ifvqhog","pricing_plan_id":"free"},{"bike_id":"eeb263b1-85bf-45c1-9ae9-d4f39665097c","system_id":"levelo_inurba_marseille","lat":43.32368,"lon":5.38877,"is_reserved":false,"is_disabled":false,"rental_uris":{"android":"levelo://app?vid=eeb263b1-85bf-45c1-9ae9-d4f39665097c","ios":"levelo://app?vid=eeb263b1-85bf-45c1-9ae9-d4f39665097c"},"vehicle_type_id":"4","last_reported":1690780031,"current_range_meters":19200,"station_id":"ce4bhqp2rcd13ifvqhog","pricing_plan_id":"free"},{"bike_id":"e11fc24a-b386-4889-9cd4-0606e162ca29","system_id":"levelo_inurba_marseille","lat":43.32367,"lon":5.388836,"is_reserved":false,"is_disabled":false,"rental_uris":{"android":"levelo://app?vid=e11fc24a-b386-4889-9cd4-0606e162ca29","ios":"levelo://app?vid=e11fc24a-b386-4889-9cd4-0606e162ca29"},"vehicle_type_id":"4","last_reported":1690780031,"current_range_meters":16400,"station_id":"ce4bhqp2rcd13ifvqhog","pricing_plan_id":"free"},{"bike_id":"2123b44e-6ce2-49f7-8866-099534493427","system_id":"levelo_inurba_marseille","lat":43.29592,"lon":5.38106,"is_reserved":false,"is_disabled":false,"rental_uris":{"android":"levelo://app?vid=2123b44e-6ce2-49f7-8866-099534493427","ios":"levelo://app?vid=2123b44e-6ce2-49f7-8866-099534493427"},"vehicle_type_id":"4","last_reported":1690780031,"current_range_meters":0,"station_id":"ce4bgl12rcd13ifvqbo0","pricing_plan_id":"free"},{"bike_id":"75e42e75-020f-46f3-8588-ba15e17aebeb","system_id":"levelo_inurba_marseille","lat":43.29321,"lon":5.37177,"is_reserved":false,"is_disabled":false,"rental_uris":{"android":"levelo://app?vid=75e42e75-020f-46f3-8588-ba15e17aebeb","ios":"levelo://app?vid=75e42e75-020f-46f3-8588-ba15e17aebeb"},"vehicle_type_id":"4","last_reported":1690780031,"current_range_meters":28400,"station_id":"ce4bgh92rcd13ifvqb40","pricing_plan_id":"free"},{"bike_id":"7c5c670a-6bb6-4046-ae85-9ff155ffa215","system_id":"levelo_inurba_marseille","lat":43.293036,"lon":5.37179,"is_reserved":false,"is_disabled":false,"rental_uris":{"android":"levelo://app?vid=7c5c670a-6bb6-4046-ae85-9ff155ffa215","ios":"levelo://app?vid=7c5c670a-6bb6-4046-ae85-9ff155ffa215"},"vehicle_type_id":"4","last_reported":1690780031,"current_range_meters":20400,"station_id":"ce4bgh92rcd13ifvqb40","pricing_plan_id":"free"},{"bike_id":"1476b267-311c-47f6-a37c-defd59ffc01f","system_id":"levelo_inurba_marseille","lat":43.305994,"lon":5.393687,"is_reserved":false,"is_disabled":false,"rental_uris":{"android":"levelo://app?vid=1476b267-311c-47f6-a37c-defd59ffc01f","ios":"levelo://app?vid=1476b267-311c-47f6-a37c-defd59ffc01f"},"vehicle_type_id":"4","last_reported":1690780031,"current_range_meters":22400,"station_id":"ce4bh0p2rcd13ifvqd80","pricing_plan_id":"free"},{"bike_id":"e99ba87b-8704-4f3b-b102-418cb96ea4a6","system_id":"levelo_inurba_marseille","lat":43.305994,"lon":5.393687,"is_reserved":false,"is_disabled":false,"rental_uris":{"android":"levelo://app?vid=e99ba87b-8704-4f3b-b102-418cb96ea4a6","ios":"levelo://app?vid=e99ba87b-8704-4f3b-b102-418cb96ea4a6"},"vehicle_type_id":"4","last_reported":1690780031,"current_range_meters":20800,"station_id":"ce4bh0p2rcd13ifvqd80","pricing_plan_id":"free"},{"bike_id":"c0313c35-5f8b-4121-b6a9-eec926e53c98","system_id":"levelo_inurba_marseille","lat":43.305994,"lon":5.393687,"is_reserved":false,"is_disabled":false,"rental_uris":{"android":"levelo://app?vid=c0313c35-5f8b-4121-b6a9-eec926e53c98","ios":"levelo://app?vid=c0313c35-5f8b-4121-b6a9-eec926e53c98"},"vehicle_type_id":"4","last_reported":1690780031,"current_range_meters":29600,"station_id":"ce4bh0p2rcd13ifvqd80","pricing_plan_id":"free"},{"bike_id":"80e40283-ae1c-41e8-9d94-343b3d0c06d0","system_id":"levelo_inurba_marseille","lat":43.305994,"lon":5.393687,"is_reserved":false,"is_disabled":false,"rental_uris":{"android":"levelo://app?vid=80e40283-ae1c-41e8-9d94-343b3d0c06d0","ios":"levelo://app?vid=80e40283-ae1c-41e8-9d94-343b3d0c06d0"},"vehicle_type_id":"4","last_reported":1690780031,"current_range_meters":31200,"station_id":"ce4bh0p2rcd13ifvqd80","pricing_plan_id":"free"},{"bike_id":"1c0616c5-45de-4309-9e26-b72b952505f6","system_id":"levelo_inurba_marseille","lat":43.30301,"lon":5.39201,"is_reserved":false,"is_disabled":false,"rental_uris":{"android":"levelo://app?vid=1c0616c5-45de-4309-9e26-b72b952505f6","ios":"levelo://app?vid=1c0616c5-45de-4309-9e26-b72b952505f6"},"vehicle_type_id":"4","last_reported":1690780031,"current_range_meters":31200,"station_id":"ce4bgkh2rcd13ifvqbk0","pricing_plan_id":"free"},{"bike_id":"cad39dbc-5393-466b-83c5-54952f9ca21e","system_id":"levelo_inurba_marseille","lat":43.30299,"lon":5.39204,"is_reserved":false,"is_disabled":false,"rental_uris":{"android":"levelo://app?vid=cad39dbc-5393-466b-83c5-54952f9ca21e","ios":"levelo://app?vid=cad39dbc-5393-466b-83c5-54952f9ca21e"},"vehicle_type_id":"4","last_reported":1690780031,"current_range_meters":31200,"station_id":"ce4bgkh2rcd13ifvqbk0","pricing_plan_id":"free"},{"bike_id":"bac8587b-dee1-4550-abda-951beb249d15","system_id":"levelo_inurba_marseille","lat":43.30296,"lon":5.39208,"is_reserved":false,"is_disabled":false,"rental_uris":{"android":"levelo://app?vid=bac8587b-dee1-4550-abda-951beb249d15","ios":"levelo://app?vid=bac8587b-dee1-4550-abda-951beb249d15"},"vehicle_type_id":"4","last_reported":1690780031,"current_range_meters":31200,"station_id":"ce4bgkh2rcd13ifvqbk0","pricing_plan_id":"free"},{"bike_id":"ecd17a5e-c4ea-4bdc-9776-1eaaba7dff30","system_id":"levelo_inurba_marseille","lat":43.30298,"lon":5.3921,"is_reserved":false,"is_disabled":false,"rental_uris":{"android":"levelo://app?vid=ecd17a5e-c4ea-4bdc-9776-1eaaba7dff30","ios":"levelo://app?vid=ecd17a5e-c4ea-4bdc-9776-1eaaba7dff30"},"vehicle_type_id":"4","last_reported":1690780031,"current_range_meters":31200,"station_id":"ce4bgkh2rcd13ifvqbk0","pricing_plan_id":"free"},{"bike_id":"f6866ae7-4b08-4fab-8f3d-7c9fdf67ef05","system_id":"levelo_inurba_marseille","lat":43.30295,"lon":5.39208,"is_reserved":false,"is_disabled":false,"rental_uris":{"android":"levelo://app?vid=f6866ae7-4b08-4fab-8f3d-7c9fdf67ef05","ios":"levelo://app?vid=f6866ae7-4b08-4fab-8f3d-7c9fdf67ef05"},"vehicle_type_id":"4","last_reported":1690780031,"current_range_meters":31200,"station_id":"ce4bgkh2rcd13ifvqbk0","pricing_plan_id":"free"},{"bike_id":"9833fdc0-8d4d-4790-b25b-00239c409309","system_id":"levelo_inurba_marseille","lat":43.30299,"lon":5.39211,"is_reserved":false,"is_disabled":false,"rental_uris":{"android":"levelo://app?vid=9833fdc0-8d4d-4790-b25b-00239c409309","ios":"levelo://app?vid=9833fdc0-8d4d-4790-b25b-00239c409309"},"vehicle_type_id":"4","last_reported":1690780031,"current_range_meters":30800,"station_id":"ce4bgkh2rcd13ifvqbk0","pricing_plan_id":"free"},{"bike_id":"1f326618-4e89-421c-8671-a84b9829a837","system_id":"levelo_inurba_marseille","lat":43.30295,"lon":5.39213,"is_reserved":false,"is_disabled":false,"rental_uris":{"android":"levelo://app?vid=1f326618-4e89-421c-8671-a84b9829a837","ios":"levelo://app?vid=1f326618-4e89-421c-8671-a84b9829a837"},"vehicle_type_id":"4","last_reported":1690780031,"current_range_meters":27200,"station_id":"ce4bgkh2rcd13ifvqbk0","pricing_plan_id":"free"},{"bike_id":"d3cc127e-001d-4998-8abf-87906e09cbb8","system_id":"levelo_inurba_marseille","lat":43.30295,"lon":5.39213,"is_reserved":false,"is_disabled":false,"rental_uris":{"android":"levelo://app?vid=d3cc127e-001d-4998-8abf-87906e09cbb8","ios":"levelo://app?vid=d3cc127e-001d-4998-8abf-87906e09cbb8"},"vehicle_type_id":"4","last_reported":1690780031,"current_range_meters":31200,"station_id":"ce4bgkh2rcd13ifvqbk0","pricing_plan_id":"free"},{"bike_id":"62d1ca51-417c-45e1-9b3d-958c3c3c2786","system_id":"levelo_inurba_marseille","lat":43.30295,"lon":5.39217,"is_reserved":false,"is_disabled":false,"rental_uris":{"android":"levelo://app?vid=62d1ca51-417c-45e1-9b3d-958c3c3c2786","ios":"levelo://app?vid=62d1ca51-417c-45e1-9b3d-958c3c3c2786"},"vehicle_type_id":"4","last_reported":1690780031,"current_range_meters":31200,"station_id":"ce4bgkh2rcd13ifvqbk0","pricing_plan_id":"free"},{"bike_id":"320ad2ab-f1e5-40af-8280-a61f1bfd05a4","system_id":"levelo_inurba_marseille","lat":43.29213,"lon":5.36056,"is_reserved":false,"is_disabled":false,"rental_uris":{"android":"levelo://app?vid=320ad2ab-f1e5-40af-8280-a61f1bfd05a4","ios":"levelo://app?vid=320ad2ab-f1e5-40af-8280-a61f1bfd05a4"},"vehicle_type_id":"4","last_reported":1690780031,"current_range_meters":0,"station_id":"ce4bhbh2rcd13ifvqeqg","pricing_plan_id":"free"},{"bike_id":"ec0faa09-b024-49a3-89b0-8ca5bbe477b4","system_id":"levelo_inurba_marseille","lat":43.291675,"lon":5.371583,"is_reserved":false,"is_disabled":false,"rental_uris":{"android":"levelo://app?vid=ec0faa09-b024-49a3-89b0-8ca5bbe477b4","ios":"levelo://app?vid=ec0faa09-b024-49a3-89b0-8ca5bbe477b4"},"vehicle_type_id":"4","last_reported":1690780031,"current_range_meters":30400,"station_id":"ce4bha92rcd13ifvqeh0","pricing_plan_id":"free"},{"bike_id":"5ddea216-ff59-495a-b62b-8d33fefc59fa","system_id":"levelo_inurba_marseille","lat":43.30882,"lon":5.39636,"is_reserved":false,"is_disabled":false,"rental_uris":{"android":"levelo://app?vid=5ddea216-ff59-495a-b62b-8d33fefc59fa","ios":"levelo://app?vid=5ddea216-ff59-495a-b62b-8d33fefc59fa"},"vehicle_type_id":"4","last_reported":1690780031,"current_range_meters":31200,"station_id":"ce4bh012rcd13ifvqcv0","pricing_plan_id":"free"},{"bike_id":"af54bc40-5602-4e56-957b-98f9f236c9f0","system_id":"levelo_inurba_marseille","lat":43.309038,"lon":5.396546,"is_reserved":false,"is_disabled":false,"rental_uris":{"android":"levelo://app?vid=af54bc40-5602-4e56-957b-98f9f236c9f0","ios":"levelo://app?vid=af54bc40-5602-4e56-957b-98f9f236c9f0"},"vehicle_type_id":"4","last_reported":1690780031,"current_range_meters":29200,"station_id":"ce4bh012rcd13ifvqcv0","pricing_plan_id":"free"},{"bike_id":"927da5f4-06f5-4dcd-a63b-2acdbac78dad","system_id":"levelo_inurba_marseille","lat":43.30889,"lon":5.39644,"is_reserved":false,"is_disabled":false,"rental_uris":{"android":"levelo://app?vid=927da5f4-06f5-4dcd-a63b-2acdbac78dad","ios":"levelo://app?vid=927da5f4-06f5-4dcd-a63b-2acdbac78dad"},"vehicle_type_id":"4","last_reported":1690780031,"current_range_meters":13200,"station_id":"ce4bh012rcd13ifvqcv0","pricing_plan_id":"free"},{"bike_id":"a20c8507-39b5-479b-a9ae-fbfe4680c5fe","system_id":"levelo_inurba_marseille","lat":43.30875,"lon":5.39642,"is_reserved":false,"is_disabled":false,"rental_uris":{"android":"levelo://app?vid=a20c8507-39b5-479b-a9ae-fbfe4680c5fe","ios":"levelo://app?vid=a20c8507-39b5-479b-a9ae-fbfe4680c5fe"},"vehicle_type_id":"4","last_reported":1690780031,"current_range_meters":18800,"station_id":"ce4bh012rcd13ifvqcv0","pricing_plan_id":"free"},{"bike_id":"b13f937a-3933-4516-b3b2-db0e3affcd96","system_id":"levelo_inurba_marseille","lat":43.3133,"lon":5.39694,"is_reserved":false,"is_disabled":false,"rental_uris":{"android":"levelo://app?vid=b13f937a-3933-4516-b3b2-db0e3affcd96","ios":"levelo://app?vid=b13f937a-3933-4516-b3b2-db0e3affcd96"},"vehicle_type_id":"4","last_reported":1690780031,"current_range_meters":18000,"station_id":"ce4bgvp2rcd13ifvqcu0","pricing_plan_id":"free"},{"bike_id":"93a03ff6-b8d6-4507-b989-d489e159692e","system_id":"levelo_inurba_marseille","lat":43.3133,"lon":5.39701,"is_reserved":false,"is_disabled":false,"rental_uris":{"android":"levelo://app?vid=93a03ff6-b8d6-4507-b989-d489e159692e","ios":"levelo://app?vid=93a03ff6-b8d6-4507-b989-d489e159692e"},"vehicle_type_id":"4","last_reported":1690780031,"current_range_meters":27600,"station_id":"ce4bgvp2rcd13ifvqcu0","pricing_plan_id":"free"},{"bike_id":"69295ce8-f5a7-413d-8c4b-86e7143022d4","system_id":"levelo_inurba_marseille","lat":43.3133,"lon":5.39702,"is_reserved":false,"is_disabled":false,"rental_uris":{"android":"levelo://app?vid=69295ce8-f5a7-413d-8c4b-86e7143022d4","ios":"levelo://app?vid=69295ce8-f5a7-413d-8c4b-86e7143022d4"},"vehicle_type_id":"4","last_reported":1690780031,"current_range_meters":25600,"station_id":"ce4bgvp2rcd13ifvqcu0","pricing_plan_id":"free"},{"bike_id":"7fb0546b-61fc-42e2-8ba0-7d9e14632a5f","system_id":"levelo_inurba_marseille","lat":43.31333,"lon":5.39703,"is_reserved":false,"is_disabled":false,"rental_uris":{"android":"levelo://app?vid=7fb0546b-61fc-42e2-8ba0-7d9e14632a5f","ios":"levelo://app?vid=7fb0546b-61fc-42e2-8ba0-7d9e14632a5f"},"vehicle_type_id":"4","last_reported":1690780031,"current_range_meters":31200,"station_id":"ce4bgvp2rcd13ifvqcu0","pricing_plan_id":"free"},{"bike_id":"5f5536bb-105d-4aaf-9e63-6089bccbd196","system_id":"levelo_inurba_marseille","lat":43.3133,"lon":5.39704,"is_reserved":false,"is_disabled":false,"rental_uris":{"android":"levelo://app?vid=5f5536bb-105d-4aaf-9e63-6089bccbd196","ios":"levelo://app?vid=5f5536bb-105d-4aaf-9e63-6089bccbd196"},"vehicle_type_id":"4","last_reported":1690780031,"current_range_meters":25600,"station_id":"ce4bgvp2rcd13ifvqcu0","pricing_plan_id":"free"},{"bike_id":"789ec1bf-a6f7-4a2d-88e4-a2e80e462139","system_id":"levelo_inurba_marseille","lat":43.31318,"lon":5.39706,"is_reserved":false,"is_disabled":false,"rental_uris":{"android":"levelo://app?vid=789ec1bf-a6f7-4a2d-88e4-a2e80e462139","ios":"levelo://app?vid=789ec1bf-a6f7-4a2d-88e4-a2e80e462139"},"vehicle_type_id":"4","last_reported":1690780031,"current_range_meters":19600,"station_id":"ce4bgvp2rcd13ifvqcu0","pricing_plan_id":"free"},{"bike_id":"77fb560b-dd4d-4fb1-b47d-c1ede5346c71","system_id":"levelo_inurba_marseille","lat":43.31326,"lon":5.39706,"is_reserved":false,"is_disabled":false,"rental_uris":{"android":"levelo://app?vid=77fb560b-dd4d-4fb1-b47d-c1ede5346c71","ios":"levelo://app?vid=77fb560b-dd4d-4fb1-b47d-c1ede5346c71"},"vehicle_type_id":"4","last_reported":1690780031,"current_range_meters":17600,"station_id":"ce4bgvp2rcd13ifvqcu0","pricing_plan_id":"free"},{"bike_id":"6bc82a0c-ac67-48a6-94cc-676ad336ceb6","system_id":"levelo_inurba_marseille","lat":43.3089,"lon":5.39662,"is_reserved":false,"is_disabled":false,"rental_uris":{"android":"levelo://app?vid=6bc82a0c-ac67-48a6-94cc-676ad336ceb6","ios":"levelo://app?vid=6bc82a0c-ac67-48a6-94cc-676ad336ceb6"},"vehicle_type_id":"4","last_reported":1690780031,"current_range_meters":21600,"station_id":"ce4bh012rcd13ifvqcv0","pricing_plan_id":"free"},{"bike_id":"b811ac76-4c92-416d-ab3f-c06a8163f93c","system_id":"levelo_inurba_marseille","lat":43.2953,"lon":5.38536,"is_reserved":false,"is_disabled":false,"rental_uris":{"android":"levelo://app?vid=b811ac76-4c92-416d-ab3f-c06a8163f93c","ios":"levelo://app?vid=b811ac76-4c92-416d-ab3f-c06a8163f93c"},"vehicle_type_id":"4","last_reported":1690780031,"current_range_meters":0,"station_id":"ce4bgih2rcd13ifvqba0","pricing_plan_id":"free"},{"bike_id":"bddf507d-3afa-43c2-8231-857ded983886","system_id":"levelo_inurba_marseille","lat":43.302008,"lon":5.394694,"is_reserved":false,"is_disabled":false,"rental_uris":{"android":"levelo://app?vid=bddf507d-3afa-43c2-8231-857ded983886","ios":"levelo://app?vid=bddf507d-3afa-43c2-8231-857ded983886"},"vehicle_type_id":"4","last_reported":1690780031,"current_range_meters":12800,"station_id":"ce4bh0p2rcd13ifvqd70","pricing_plan_id":"free"},{"bike_id":"85f978fa-f8a1-4708-8551-70766cfd7997","system_id":"levelo_inurba_marseille","lat":43.302008,"lon":5.394694,"is_reserved":false,"is_disabled":false,"rental_uris":{"android":"levelo://app?vid=85f978fa-f8a1-4708-8551-70766cfd7997","ios":"levelo://app?vid=85f978fa-f8a1-4708-8551-70766cfd7997"},"vehicle_type_id":"4","last_reported":1690780031,"current_range_meters":30800,"station_id":"ce4bh0p2rcd13ifvqd70","pricing_plan_id":"free"},{"bike_id":"a90d9aec-f36c-4cb9-8c46-fe0a52a9d218","system_id":"levelo_inurba_marseille","lat":43.302008,"lon":5.394694,"is_reserved":false,"is_disabled":false,"rental_uris":{"android":"levelo://app?vid=a90d9aec-f36c-4cb9-8c46-fe0a52a9d218","ios":"levelo://app?vid=a90d9aec-f36c-4cb9-8c46-fe0a52a9d218"},"vehicle_type_id":"4","last_reported":1690780031,"current_range_meters":0,"station_id":"ce4bh0p2rcd13ifvqd70","pricing_plan_id":"free"},{"bike_id":"bf903d8d-b76e-4a62-bed7-2892c6e9730a","system_id":"levelo_inurba_marseille","lat":43.302008,"lon":5.394694,"is_reserved":false,"is_disabled":false,"rental_uris":{"android":"levelo://app?vid=bf903d8d-b76e-4a62-bed7-2892c6e9730a","ios":"levelo://app?vid=bf903d8d-b76e-4a62-bed7-2892c6e9730a"},"vehicle_type_id":"4","last_reported":1690780031,"current_range_meters":31200,"station_id":"ce4bh0p2rcd13ifvqd70","pricing_plan_id":"free"},{"bike_id":"0a099b00-f83b-4bd1-a9d3-2789b85b6d18","system_id":"levelo_inurba_marseille","lat":43.29418,"lon":5.38631,"is_reserved":false,"is_disabled":false,"rental_uris":{"android":"levelo://app?vid=0a099b00-f83b-4bd1-a9d3-2789b85b6d18","ios":"levelo://app?vid=0a099b00-f83b-4bd1-a9d3-2789b85b6d18"},"vehicle_type_id":"4","last_reported":1690780031,"current_range_meters":29600,"station_id":"ce4bh2h2rcd13ifvqdh0","pricing_plan_id":"free"},{"bike_id":"64153b05-11c9-436e-8a21-311df3a98459","system_id":"levelo_inurba_marseille","lat":43.289184,"lon":5.366408,"is_reserved":false,"is_disabled":false,"rental_uris":{"android":"levelo://app?vid=64153b05-11c9-436e-8a21-311df3a98459","ios":"levelo://app?vid=64153b05-11c9-436e-8a21-311df3a98459"},"vehicle_type_id":"4","last_reported":1690780031,"current_range_meters":31200,"station_id":"ce4bhap2rcd13ifvqek0","pricing_plan_id":"free"},{"bike_id":"70ed515d-811a-47b8-bbcb-9bdd382ebe48","system_id":"levelo_inurba_marseille","lat":43.289184,"lon":5.366408,"is_reserved":false,"is_disabled":false,"rental_uris":{"android":"levelo://app?vid=70ed515d-811a-47b8-bbcb-9bdd382ebe48","ios":"levelo://app?vid=70ed515d-811a-47b8-bbcb-9bdd382ebe48"},"vehicle_type_id":"4","last_reported":1690780031,"current_range_meters":31200,"station_id":"ce4bhap2rcd13ifvqek0","pricing_plan_id":"free"},{"bike_id":"f2e5d6ec-c3a3-4de5-a1ae-c2d8f8e49de8","system_id":"levelo_inurba_marseille","lat":43.289184,"lon":5.366408,"is_reserved":false,"is_disabled":false,"rental_uris":{"android":"levelo://app?vid=f2e5d6ec-c3a3-4de5-a1ae-c2d8f8e49de8","ios":"levelo://app?vid=f2e5d6ec-c3a3-4de5-a1ae-c2d8f8e49de8"},"vehicle_type_id":"4","last_reported":1690780031,"current_range_meters":29600,"station_id":"ce4bhap2rcd13ifvqek0","pricing_plan_id":"free"},{"bike_id":"1e621ae4-7289-49b4-a261-f2b96357fec5","system_id":"levelo_inurba_marseille","lat":43.289468,"lon":5.363719,"is_reserved":false,"is_disabled":false,"rental_uris":{"android":"levelo://app?vid=1e621ae4-7289-49b4-a261-f2b96357fec5","ios":"levelo://app?vid=1e621ae4-7289-49b4-a261-f2b96357fec5"},"vehicle_type_id":"4","last_reported":1690780031,"current_range_meters":26800,"station_id":"ce4bhc92rcd13ifvqetg","pricing_plan_id":"free"},{"bike_id":"c0ed4763-641e-4873-ac65-964a80e61f2e","system_id":"levelo_inurba_marseille","lat":43.304296,"lon":5.397513,"is_reserved":false,"is_disabled":false,"rental_uris":{"android":"levelo://app?vid=c0ed4763-641e-4873-ac65-964a80e61f2e","ios":"levelo://app?vid=c0ed4763-641e-4873-ac65-964a80e61f2e"},"vehicle_type_id":"4","last_reported":1690780031,"current_range_meters":28000,"station_id":"ce4bh092rcd13ifvqd20","pricing_plan_id":"free"},{"bike_id":"cef17ea4-1ba7-4044-a2f5-95049437ad05","system_id":"levelo_inurba_marseille","lat":43.304296,"lon":5.397513,"is_reserved":false,"is_disabled":false,"rental_uris":{"android":"levelo://app?vid=cef17ea4-1ba7-4044-a2f5-95049437ad05","ios":"levelo://app?vid=cef17ea4-1ba7-4044-a2f5-95049437ad05"},"vehicle_type_id":"4","last_reported":1690780031,"current_range_meters":30000,"station_id":"ce4bh092rcd13ifvqd20","pricing_plan_id":"free"},{"bike_id":"5dc08659-e0c2-4b40-95a0-57cb7e7f9860","system_id":"levelo_inurba_marseille","lat":43.33042,"lon":5.38915,"is_reserved":false,"is_disabled":false,"rental_uris":{"android":"levelo://app?vid=5dc08659-e0c2-4b40-95a0-57cb7e7f9860","ios":"levelo://app?vid=5dc08659-e0c2-4b40-95a0-57cb7e7f9860"},"vehicle_type_id":"4","last_reported":1690780031,"current_range_meters":18400,"station_id":"ce4bhr92rcd13ifvqhrg","pricing_plan_id":"free"},{"bike_id":"344274ed-1f65-4a8f-be1a-d998c8d17934","system_id":"levelo_inurba_marseille","lat":43.33044,"lon":5.38917,"is_reserved":false,"is_disabled":false,"rental_uris":{"android":"levelo://app?vid=344274ed-1f65-4a8f-be1a-d998c8d17934","ios":"levelo://app?vid=344274ed-1f65-4a8f-be1a-d998c8d17934"},"vehicle_type_id":"4","last_reported":1690780031,"current_range_meters":4400,"station_id":"ce4bhr92rcd13ifvqhrg","pricing_plan_id":"free"},{"bike_id":"6edf147d-5d1e-42b7-93fc-be64213912b1","system_id":"levelo_inurba_marseille","lat":43.290103,"lon":5.356114,"is_reserved":false,"is_disabled":false,"rental_uris":{"android":"levelo://app?vid=6edf147d-5d1e-42b7-93fc-be64213912b1","ios":"levelo://app?vid=6edf147d-5d1e-42b7-93fc-be64213912b1"},"vehicle_type_id":"4","last_reported":1690780031,"current_range_meters":28800,"station_id":"ce4bhb92rcd13ifvqen0","pricing_plan_id":"free"},{"bike_id":"6a0cecf5-b1b2-4fee-be5e-74d94b85250e","system_id":"levelo_inurba_marseille","lat":43.290104,"lon":5.356111,"is_reserved":false,"is_disabled":false,"rental_uris":{"android":"levelo://app?vid=6a0cecf5-b1b2-4fee-be5e-74d94b85250e","ios":"levelo://app?vid=6a0cecf5-b1b2-4fee-be5e-74d94b85250e"},"vehicle_type_id":"4","last_reported":1690780031,"current_range_meters":20800,"station_id":"ce4bhb92rcd13ifvqen0","pricing_plan_id":"free"},{"bike_id":"134ef223-0af9-48f2-bbd1-4d84dd8cb35c","system_id":"levelo_inurba_marseille","lat":43.290104,"lon":5.356111,"is_reserved":false,"is_disabled":false,"rental_uris":{"android":"levelo://app?vid=134ef223-0af9-48f2-bbd1-4d84dd8cb35c","ios":"levelo://app?vid=134ef223-0af9-48f2-bbd1-4d84dd8cb35c"},"vehicle_type_id":"4","last_reported":1690780031,"current_range_meters":31200,"station_id":"ce4bhb92rcd13ifvqen0","pricing_plan_id":"free"},{"bike_id":"05bf2cc0-c80b-4d3b-9303-5cea93148e89","system_id":"levelo_inurba_marseille","lat":43.290995,"lon":5.381361,"is_reserved":false,"is_disabled":false,"rental_uris":{"android":"levelo://app?vid=05bf2cc0-c80b-4d3b-9303-5cea93148e89","ios":"levelo://app?vid=05bf2cc0-c80b-4d3b-9303-5cea93148e89"},"vehicle_type_id":"4","last_reported":1690780031,"current_range_meters":31200,"station_id":"ce4bh512rcd13ifvqe2g","pricing_plan_id":"free"},{"bike_id":"a942cf92-22cd-4df3-830b-0379ed8f4259","system_id":"levelo_inurba_marseille","lat":43.297815,"lon":5.393548,"is_reserved":false,"is_disabled":false,"rental_uris":{"android":"levelo://app?vid=a942cf92-22cd-4df3-830b-0379ed8f4259","ios":"levelo://app?vid=a942cf92-22cd-4df3-830b-0379ed8f4259"},"vehicle_type_id":"4","last_reported":1690780031,"current_range_meters":9200,"station_id":"chh1huq6cuj3fo74tm60","pricing_plan_id":"free"},{"bike_id":"10bfb3b6-a271-4ccd-878a-d009de18f840","system_id":"levelo_inurba_marseille","lat":43.29782,"lon":5.39333,"is_reserved":false,"is_disabled":false,"rental_uris":{"android":"levelo://app?vid=10bfb3b6-a271-4ccd-878a-d009de18f840","ios":"levelo://app?vid=10bfb3b6-a271-4ccd-878a-d009de18f840"},"vehicle_type_id":"4","last_reported":1690780031,"current_range_meters":15600,"station_id":"chh1huq6cuj3fo74tm60","pricing_plan_id":"free"},{"bike_id":"b4421827-8e02-4f47-b464-27fc6016cf1c","system_id":"levelo_inurba_marseille","lat":43.29789,"lon":5.39341,"is_reserved":false,"is_disabled":false,"rental_uris":{"android":"levelo://app?vid=b4421827-8e02-4f47-b464-27fc6016cf1c","ios":"levelo://app?vid=b4421827-8e02-4f47-b464-27fc6016cf1c"},"vehicle_type_id":"4","last_reported":1690780031,"current_range_meters":31200,"station_id":"chh1huq6cuj3fo74tm60","pricing_plan_id":"free"},{"bike_id":"6bb34075-de2e-4a46-a770-4e8fd250246e","system_id":"levelo_inurba_marseille","lat":43.29789,"lon":5.39346,"is_reserved":false,"is_disabled":false,"rental_uris":{"android":"levelo://app?vid=6bb34075-de2e-4a46-a770-4e8fd250246e","ios":"levelo://app?vid=6bb34075-de2e-4a46-a770-4e8fd250246e"},"vehicle_type_id":"4","last_reported":1690780031,"current_range_meters":25600,"station_id":"chh1huq6cuj3fo74tm60","pricing_plan_id":"free"},{"bike_id":"cd0f291f-b660-4ae6-94a2-ebe763222cc0","system_id":"levelo_inurba_marseille","lat":43.29786,"lon":5.39343,"is_reserved":false,"is_disabled":false,"rental_uris":{"android":"levelo://app?vid=cd0f291f-b660-4ae6-94a2-ebe763222cc0","ios":"levelo://app?vid=cd0f291f-b660-4ae6-94a2-ebe763222cc0"},"vehicle_type_id":"4","last_reported":1690780031,"current_range_meters":27200,"station_id":"chh1huq6cuj3fo74tm60","pricing_plan_id":"free"},{"bike_id":"dfe40fb0-a31b-4849-a1a6-6cfa7729638b","system_id":"levelo_inurba_marseille","lat":43.29782,"lon":5.39344,"is_reserved":false,"is_disabled":false,"rental_uris":{"android":"levelo://app?vid=dfe40fb0-a31b-4849-a1a6-6cfa7729638b","ios":"levelo://app?vid=dfe40fb0-a31b-4849-a1a6-6cfa7729638b"},"vehicle_type_id":"4","last_reported":1690780031,"current_range_meters":31200,"station_id":"chh1huq6cuj3fo74tm60","pricing_plan_id":"free"},{"bike_id":"e3ec3c76-4ae5-4f33-904b-06d4d9ea76c2","system_id":"levelo_inurba_marseille","lat":43.295169,"lon":5.390426,"is_reserved":false,"is_disabled":false,"rental_uris":{"android":"levelo://app?vid=e3ec3c76-4ae5-4f33-904b-06d4d9ea76c2","ios":"levelo://app?vid=e3ec3c76-4ae5-4f33-904b-06d4d9ea76c2"},"vehicle_type_id":"4","last_reported":1690780031,"current_range_meters":20000,"station_id":"ce4bh3p2rcd13ifvqdp0","pricing_plan_id":"free"},{"bike_id":"5c17f28e-8d74-4232-8f5e-ae8dc6d0aa9a","system_id":"levelo_inurba_marseille","lat":43.289741,"lon":5.378306,"is_reserved":false,"is_disabled":false,"rental_uris":{"android":"levelo://app?vid=5c17f28e-8d74-4232-8f5e-ae8dc6d0aa9a","ios":"levelo://app?vid=5c17f28e-8d74-4232-8f5e-ae8dc6d0aa9a"},"vehicle_type_id":"4","last_reported":1690780031,"current_range_meters":30400,"station_id":"ce4bh9p2rcd13ifvqed0","pricing_plan_id":"free"},{"bike_id":"4c911726-89f8-48d8-a434-bab5a83a4ece","system_id":"levelo_inurba_marseille","lat":43.295169,"lon":5.390426,"is_reserved":false,"is_disabled":false,"rental_uris":{"android":"levelo://app?vid=4c911726-89f8-48d8-a434-bab5a83a4ece","ios":"levelo://app?vid=4c911726-89f8-48d8-a434-bab5a83a4ece"},"vehicle_type_id":"4","last_reported":1690780031,"current_range_meters":8000,"station_id":"ce4bh3p2rcd13ifvqdp0","pricing_plan_id":"free"},{"bike_id":"743ca526-eb08-4bec-bb30-8c6af3ee8fc9","system_id":"levelo_inurba_marseille","lat":43.3127,"lon":5.40162,"is_reserved":false,"is_disabled":false,"rental_uris":{"android":"levelo://app?vid=743ca526-eb08-4bec-bb30-8c6af3ee8fc9","ios":"levelo://app?vid=743ca526-eb08-4bec-bb30-8c6af3ee8fc9"},"vehicle_type_id":"4","last_reported":1690780031,"current_range_meters":31200,"station_id":"ce4bh092rcd13ifvqd30","pricing_plan_id":"free"},{"bike_id":"8d39225a-5dd0-4e44-8894-e68a011f912b","system_id":"levelo_inurba_marseille","lat":43.31277,"lon":5.40164,"is_reserved":false,"is_disabled":false,"rental_uris":{"android":"levelo://app?vid=8d39225a-5dd0-4e44-8894-e68a011f912b","ios":"levelo://app?vid=8d39225a-5dd0-4e44-8894-e68a011f912b"},"vehicle_type_id":"4","last_reported":1690780031,"current_range_meters":31200,"station_id":"ce4bh092rcd13ifvqd30","pricing_plan_id":"free"},{"bike_id":"b0e2e419-23ff-4534-9928-8a4cc6dffb63","system_id":"levelo_inurba_marseille","lat":43.312609,"lon":5.401662,"is_reserved":false,"is_disabled":false,"rental_uris":{"android":"levelo://app?vid=b0e2e419-23ff-4534-9928-8a4cc6dffb63","ios":"levelo://app?vid=b0e2e419-23ff-4534-9928-8a4cc6dffb63"},"vehicle_type_id":"4","last_reported":1690780031,"current_range_meters":19200,"station_id":"ce4bh092rcd13ifvqd30","pricing_plan_id":"free"},{"bike_id":"f5fdb543-1080-4047-8fdb-19dd3e662cee","system_id":"levelo_inurba_marseille","lat":43.3128,"lon":5.40165,"is_reserved":false,"is_disabled":false,"rental_uris":{"android":"levelo://app?vid=f5fdb543-1080-4047-8fdb-19dd3e662cee","ios":"levelo://app?vid=f5fdb543-1080-4047-8fdb-19dd3e662cee"},"vehicle_type_id":"4","last_reported":1690780031,"current_range_meters":31200,"station_id":"ce4bh092rcd13ifvqd30","pricing_plan_id":"free"},{"bike_id":"fd6f60f0-e886-4abf-917a-8240c558611b","system_id":"levelo_inurba_marseille","lat":43.31276,"lon":5.40168,"is_reserved":false,"is_disabled":false,"rental_uris":{"android":"levelo://app?vid=fd6f60f0-e886-4abf-917a-8240c558611b","ios":"levelo://app?vid=fd6f60f0-e886-4abf-917a-8240c558611b"},"vehicle_type_id":"4","last_reported":1690780031,"current_range_meters":17600,"station_id":"ce4bh092rcd13ifvqd30","pricing_plan_id":"free"},{"bike_id":"f5515b3e-2648-495a-a815-314b30015895","system_id":"levelo_inurba_marseille","lat":43.31278,"lon":5.40168,"is_reserved":false,"is_disabled":false,"rental_uris":{"android":"levelo://app?vid=f5515b3e-2648-495a-a815-314b30015895","ios":"levelo://app?vid=f5515b3e-2648-495a-a815-314b30015895"},"vehicle_type_id":"4","last_reported":1690780031,"current_range_meters":18800,"station_id":"ce4bh092rcd13ifvqd30","pricing_plan_id":"free"},{"bike_id":"2161bfe4-4ca5-4403-923f-0c06a1b352ea","system_id":"levelo_inurba_marseille","lat":43.309371,"lon":5.401449,"is_reserved":false,"is_disabled":false,"rental_uris":{"android":"levelo://app?vid=2161bfe4-4ca5-4403-923f-0c06a1b352ea","ios":"levelo://app?vid=2161bfe4-4ca5-4403-923f-0c06a1b352ea"},"vehicle_type_id":"4","last_reported":1690780031,"current_range_meters":10000,"station_id":"ce4bgvp2rcd13ifvqct0","pricing_plan_id":"free"},{"bike_id":"2c07daf6-deba-4025-827e-67e073fafa02","system_id":"levelo_inurba_marseille","lat":43.30931,"lon":5.40138,"is_reserved":false,"is_disabled":false,"rental_uris":{"android":"levelo://app?vid=2c07daf6-deba-4025-827e-67e073fafa02","ios":"levelo://app?vid=2c07daf6-deba-4025-827e-67e073fafa02"},"vehicle_type_id":"4","last_reported":1690780031,"current_range_meters":31200,"station_id":"ce4bgvp2rcd13ifvqct0","pricing_plan_id":"free"},{"bike_id":"600b3199-b15a-427a-8f0d-c93c2c33a4c0","system_id":"levelo_inurba_marseille","lat":43.30929,"lon":5.40142,"is_reserved":false,"is_disabled":false,"rental_uris":{"android":"levelo://app?vid=600b3199-b15a-427a-8f0d-c93c2c33a4c0","ios":"levelo://app?vid=600b3199-b15a-427a-8f0d-c93c2c33a4c0"},"vehicle_type_id":"4","last_reported":1690780031,"current_range_meters":31200,"station_id":"ce4bgvp2rcd13ifvqct0","pricing_plan_id":"free"},{"bike_id":"dc4945c8-d819-4007-b795-8f97e71e461a","system_id":"levelo_inurba_marseille","lat":43.30928,"lon":5.40144,"is_reserved":false,"is_disabled":false,"rental_uris":{"android":"levelo://app?vid=dc4945c8-d819-4007-b795-8f97e71e461a","ios":"levelo://app?vid=dc4945c8-d819-4007-b795-8f97e71e461a"},"vehicle_type_id":"4","last_reported":1690780031,"current_range_meters":31200,"station_id":"ce4bgvp2rcd13ifvqct0","pricing_plan_id":"free"},{"bike_id":"36b22524-2820-4546-a8ea-18f414e12a70","system_id":"levelo_inurba_marseille","lat":43.309371,"lon":5.401449,"is_reserved":false,"is_disabled":false,"rental_uris":{"android":"levelo://app?vid=36b22524-2820-4546-a8ea-18f414e12a70","ios":"levelo://app?vid=36b22524-2820-4546-a8ea-18f414e12a70"},"vehicle_type_id":"4","last_reported":1690780031,"current_range_meters":31200,"station_id":"ce4bgvp2rcd13ifvqct0","pricing_plan_id":"free"},{"bike_id":"6b49b462-c2f5-4c08-8501-03a43ded5426","system_id":"levelo_inurba_marseille","lat":43.30938,"lon":5.40147,"is_reserved":false,"is_disabled":false,"rental_uris":{"android":"levelo://app?vid=6b49b462-c2f5-4c08-8501-03a43ded5426","ios":"levelo://app?vid=6b49b462-c2f5-4c08-8501-03a43ded5426"},"vehicle_type_id":"4","last_reported":1690780031,"current_range_meters":20400,"station_id":"ce4bgvp2rcd13ifvqct0","pricing_plan_id":"free"},{"bike_id":"468e0a17-132c-4561-acfd-1c7a3d0e69b1","system_id":"levelo_inurba_marseille","lat":43.30639,"lon":5.40074,"is_reserved":false,"is_disabled":false,"rental_uris":{"android":"levelo://app?vid=468e0a17-132c-4561-acfd-1c7a3d0e69b1","ios":"levelo://app?vid=468e0a17-132c-4561-acfd-1c7a3d0e69b1"},"vehicle_type_id":"4","last_reported":1690780031,"current_range_meters":24800,"station_id":"ce4bh112rcd13ifvqda0","pricing_plan_id":"free"},{"bike_id":"599f980f-78ee-48ec-a5b1-3810b92d1f40","system_id":"levelo_inurba_marseille","lat":43.30925,"lon":5.40154,"is_reserved":false,"is_disabled":false,"rental_uris":{"android":"levelo://app?vid=599f980f-78ee-48ec-a5b1-3810b92d1f40","ios":"levelo://app?vid=599f980f-78ee-48ec-a5b1-3810b92d1f40"},"vehicle_type_id":"4","last_reported":1690780031,"current_range_meters":10000,"station_id":"ce4bgvp2rcd13ifvqct0","pricing_plan_id":"free"},{"bike_id":"78e4b283-1285-42eb-801c-1881338334ed","system_id":"levelo_inurba_marseille","lat":43.33757,"lon":5.3745,"is_reserved":false,"is_disabled":false,"rental_uris":{"android":"levelo://app?vid=78e4b283-1285-42eb-801c-1881338334ed","ios":"levelo://app?vid=78e4b283-1285-42eb-801c-1881338334ed"},"vehicle_type_id":"4","last_reported":1690780031,"current_range_meters":22000,"station_id":"","pricing_plan_id":"free"},{"bike_id":"e962a6c7-8016-4861-932c-b2631fe8e9fe","system_id":"levelo_inurba_marseille","lat":43.301117,"lon":5.398795,"is_reserved":false,"is_disabled":false,"rental_uris":{"android":"levelo://app?vid=e962a6c7-8016-4861-932c-b2631fe8e9fe","ios":"levelo://app?vid=e962a6c7-8016-4861-932c-b2631fe8e9fe"},"vehicle_type_id":"4","last_reported":1690780031,"current_range_meters":31200,"station_id":"ce4bh0h2rcd13ifvqd40","pricing_plan_id":"free"},{"bike_id":"0326cea2-5261-443d-885f-3f2e20970415","system_id":"levelo_inurba_marseille","lat":43.301117,"lon":5.398795,"is_reserved":false,"is_disabled":false,"rental_uris":{"android":"levelo://app?vid=0326cea2-5261-443d-885f-3f2e20970415","ios":"levelo://app?vid=0326cea2-5261-443d-885f-3f2e20970415"},"vehicle_type_id":"4","last_reported":1690780031,"current_range_meters":31200,"station_id":"ce4bh0h2rcd13ifvqd40","pricing_plan_id":"free"},{"bike_id":"1bea05b8-257b-463e-ad3a-41162bf2e086","system_id":"levelo_inurba_marseille","lat":43.301117,"lon":5.398795,"is_reserved":false,"is_disabled":false,"rental_uris":{"android":"levelo://app?vid=1bea05b8-257b-463e-ad3a-41162bf2e086","ios":"levelo://app?vid=1bea05b8-257b-463e-ad3a-41162bf2e086"},"vehicle_type_id":"4","last_reported":1690780031,"current_range_meters":16000,"station_id":"ce4bh0h2rcd13ifvqd40","pricing_plan_id":"free"},{"bike_id":"82b5972f-4a1f-4f72-9242-59a4097754a0","system_id":"levelo_inurba_marseille","lat":43.301117,"lon":5.398795,"is_reserved":false,"is_disabled":false,"rental_uris":{"android":"levelo://app?vid=82b5972f-4a1f-4f72-9242-59a4097754a0","ios":"levelo://app?vid=82b5972f-4a1f-4f72-9242-59a4097754a0"},"vehicle_type_id":"4","last_reported":1690780031,"current_range_meters":31200,"station_id":"ce4bh0h2rcd13ifvqd40","pricing_plan_id":"free"},{"bike_id":"5fc20187-67f0-45d6-a193-dac8ae138ce1","system_id":"levelo_inurba_marseille","lat":43.30132,"lon":5.39883,"is_reserved":false,"is_disabled":false,"rental_uris":{"android":"levelo://app?vid=5fc20187-67f0-45d6-a193-dac8ae138ce1","ios":"levelo://app?vid=5fc20187-67f0-45d6-a193-dac8ae138ce1"},"vehicle_type_id":"4","last_reported":1690780031,"current_range_meters":31200,"station_id":"ce4bh0h2rcd13ifvqd40","pricing_plan_id":"free"},{"bike_id":"2a357b6e-16c5-41c6-8c10-80029c3d8090","system_id":"levelo_inurba_marseille","lat":43.286961,"lon":5.373785,"is_reserved":false,"is_disabled":false,"rental_uris":{"android":"levelo://app?vid=2a357b6e-16c5-41c6-8c10-80029c3d8090","ios":"levelo://app?vid=2a357b6e-16c5-41c6-8c10-80029c3d8090"},"vehicle_type_id":"4","last_reported":1690780031,"current_range_meters":5600,"station_id":"ce4bh3p2rcd13ifvqdq0","pricing_plan_id":"free"},{"bike_id":"eac770e5-cbe2-43c8-b38f-c823d4fc3755","system_id":"levelo_inurba_marseille","lat":43.298681,"lon":5.397225,"is_reserved":false,"is_disabled":false,"rental_uris":{"android":"levelo://app?vid=eac770e5-cbe2-43c8-b38f-c823d4fc3755","ios":"levelo://app?vid=eac770e5-cbe2-43c8-b38f-c823d4fc3755"},"vehicle_type_id":"4","last_reported":1690780031,"current_range_meters":31200,"station_id":"ce4bh0h2rcd13ifvqd50","pricing_plan_id":"free"},{"bike_id":"14ca1dfa-6365-49fb-8e31-a4d8240ae04c","system_id":"levelo_inurba_marseille","lat":43.286961,"lon":5.373785,"is_reserved":false,"is_disabled":false,"rental_uris":{"android":"levelo://app?vid=14ca1dfa-6365-49fb-8e31-a4d8240ae04c","ios":"levelo://app?vid=14ca1dfa-6365-49fb-8e31-a4d8240ae04c"},"vehicle_type_id":"4","last_reported":1690780031,"current_range_meters":31200,"station_id":"ce4bh3p2rcd13ifvqdq0","pricing_plan_id":"free"},{"bike_id":"e4ed1d47-6b77-43d3-8e33-9cfd7e0837b9","system_id":"levelo_inurba_marseille","lat":43.286961,"lon":5.373785,"is_reserved":false,"is_disabled":false,"rental_uris":{"android":"levelo://app?vid=e4ed1d47-6b77-43d3-8e33-9cfd7e0837b9","ios":"levelo://app?vid=e4ed1d47-6b77-43d3-8e33-9cfd7e0837b9"},"vehicle_type_id":"4","last_reported":1690780031,"current_range_meters":30800,"station_id":"ce4bh3p2rcd13ifvqdq0","pricing_plan_id":"free"},{"bike_id":"72b307da-6ba0-4964-9442-2c002f54da44","system_id":"levelo_inurba_marseille","lat":43.286961,"lon":5.373785,"is_reserved":false,"is_disabled":false,"rental_uris":{"android":"levelo://app?vid=72b307da-6ba0-4964-9442-2c002f54da44","ios":"levelo://app?vid=72b307da-6ba0-4964-9442-2c002f54da44"},"vehicle_type_id":"4","last_reported":1690780031,"current_range_meters":4400,"station_id":"ce4bh3p2rcd13ifvqdq0","pricing_plan_id":"free"},{"bike_id":"200091db-5208-446c-a1bb-b0491c2a4fc6","system_id":"levelo_inurba_marseille","lat":43.286961,"lon":5.373785,"is_reserved":false,"is_disabled":false,"rental_uris":{"android":"levelo://app?vid=200091db-5208-446c-a1bb-b0491c2a4fc6","ios":"levelo://app?vid=200091db-5208-446c-a1bb-b0491c2a4fc6"},"vehicle_type_id":"4","last_reported":1690780031,"current_range_meters":31200,"station_id":"ce4bh3p2rcd13ifvqdq0","pricing_plan_id":"free"},{"bike_id":"de353f34-ae67-4e55-ba63-34078c11f785","system_id":"levelo_inurba_marseille","lat":43.286961,"lon":5.373785,"is_reserved":false,"is_disabled":false,"rental_uris":{"android":"levelo://app?vid=de353f34-ae67-4e55-ba63-34078c11f785","ios":"levelo://app?vid=de353f34-ae67-4e55-ba63-34078c11f785"},"vehicle_type_id":"4","last_reported":1690780031,"current_range_meters":31200,"station_id":"ce4bh3p2rcd13ifvqdq0","pricing_plan_id":"free"},{"bike_id":"9ad66967-8b7c-4dee-acdc-6ee3826afde3","system_id":"levelo_inurba_marseille","lat":43.286593,"lon":5.363346,"is_reserved":false,"is_disabled":false,"rental_uris":{"android":"levelo://app?vid=9ad66967-8b7c-4dee-acdc-6ee3826afde3","ios":"levelo://app?vid=9ad66967-8b7c-4dee-acdc-6ee3826afde3"},"vehicle_type_id":"4","last_reported":1690780031,"current_range_meters":27600,"station_id":"ce4bhah2rcd13ifvqej0","pricing_plan_id":"free"},{"bike_id":"62c4b301-15c4-44de-98a6-4b3b31975bf3","system_id":"levelo_inurba_marseille","lat":43.286961,"lon":5.373785,"is_reserved":false,"is_disabled":false,"rental_uris":{"android":"levelo://app?vid=62c4b301-15c4-44de-98a6-4b3b31975bf3","ios":"levelo://app?vid=62c4b301-15c4-44de-98a6-4b3b31975bf3"},"vehicle_type_id":"4","last_reported":1690780031,"current_range_meters":31600,"station_id":"ce4bh3p2rcd13ifvqdq0","pricing_plan_id":"free"},{"bike_id":"206c5077-4bdc-48d7-aad5-096b667f701f","system_id":"levelo_inurba_marseille","lat":43.298681,"lon":5.397225,"is_reserved":false,"is_disabled":false,"rental_uris":{"android":"levelo://app?vid=206c5077-4bdc-48d7-aad5-096b667f701f","ios":"levelo://app?vid=206c5077-4bdc-48d7-aad5-096b667f701f"},"vehicle_type_id":"4","last_reported":1690780031,"current_range_meters":8000,"station_id":"ce4bh0h2rcd13ifvqd50","pricing_plan_id":"free"},{"bike_id":"8d2af8b0-2e07-47ef-9e9b-989c8bf2e89c","system_id":"levelo_inurba_marseille","lat":43.298681,"lon":5.397225,"is_reserved":false,"is_disabled":false,"rental_uris":{"android":"levelo://app?vid=8d2af8b0-2e07-47ef-9e9b-989c8bf2e89c","ios":"levelo://app?vid=8d2af8b0-2e07-47ef-9e9b-989c8bf2e89c"},"vehicle_type_id":"4","last_reported":1690780031,"current_range_meters":31200,"station_id":"ce4bh0h2rcd13ifvqd50","pricing_plan_id":"free"},{"bike_id":"4d0d3af3-8ca2-4894-b1ce-cf97e352ce6e","system_id":"levelo_inurba_marseille","lat":43.286961,"lon":5.373785,"is_reserved":false,"is_disabled":false,"rental_uris":{"android":"levelo://app?vid=4d0d3af3-8ca2-4894-b1ce-cf97e352ce6e","ios":"levelo://app?vid=4d0d3af3-8ca2-4894-b1ce-cf97e352ce6e"},"vehicle_type_id":"4","last_reported":1690780031,"current_range_meters":1200,"station_id":"ce4bh3p2rcd13ifvqdq0","pricing_plan_id":"free"},{"bike_id":"911ca29f-a3e9-48cd-b033-1f0f19f28316","system_id":"levelo_inurba_marseille","lat":43.286591,"lon":5.363346,"is_reserved":false,"is_disabled":false,"rental_uris":{"android":"levelo://app?vid=911ca29f-a3e9-48cd-b033-1f0f19f28316","ios":"levelo://app?vid=911ca29f-a3e9-48cd-b033-1f0f19f28316"},"vehicle_type_id":"4","last_reported":1690780031,"current_range_meters":21600,"station_id":"ce4bhah2rcd13ifvqej0","pricing_plan_id":"free"},{"bike_id":"3edeca46-8ecf-4bf5-bae7-0bbeb521f22a","system_id":"levelo_inurba_marseille","lat":43.298681,"lon":5.397225,"is_reserved":false,"is_disabled":false,"rental_uris":{"android":"levelo://app?vid=3edeca46-8ecf-4bf5-bae7-0bbeb521f22a","ios":"levelo://app?vid=3edeca46-8ecf-4bf5-bae7-0bbeb521f22a"},"vehicle_type_id":"4","last_reported":1690780031,"current_range_meters":22800,"station_id":"ce4bh0h2rcd13ifvqd50","pricing_plan_id":"free"},{"bike_id":"38dfbe34-a07d-4b9e-9477-7ec9ff5d682f","system_id":"levelo_inurba_marseille","lat":43.286593,"lon":5.363346,"is_reserved":false,"is_disabled":false,"rental_uris":{"android":"levelo://app?vid=38dfbe34-a07d-4b9e-9477-7ec9ff5d682f","ios":"levelo://app?vid=38dfbe34-a07d-4b9e-9477-7ec9ff5d682f"},"vehicle_type_id":"4","last_reported":1690780031,"current_range_meters":26000,"station_id":"ce4bhah2rcd13ifvqej0","pricing_plan_id":"free"},{"bike_id":"268ec8e7-ecf0-4b8a-b764-c16af2f69dd8","system_id":"levelo_inurba_marseille","lat":43.298681,"lon":5.397225,"is_reserved":false,"is_disabled":false,"rental_uris":{"android":"levelo://app?vid=268ec8e7-ecf0-4b8a-b764-c16af2f69dd8","ios":"levelo://app?vid=268ec8e7-ecf0-4b8a-b764-c16af2f69dd8"},"vehicle_type_id":"4","last_reported":1690780031,"current_range_meters":31200,"station_id":"ce4bh0h2rcd13ifvqd50","pricing_plan_id":"free"},{"bike_id":"75199276-b705-4ad7-b6a9-49aeaa84628a","system_id":"levelo_inurba_marseille","lat":43.286593,"lon":5.363346,"is_reserved":false,"is_disabled":false,"rental_uris":{"android":"levelo://app?vid=75199276-b705-4ad7-b6a9-49aeaa84628a","ios":"levelo://app?vid=75199276-b705-4ad7-b6a9-49aeaa84628a"},"vehicle_type_id":"4","last_reported":1690780031,"current_range_meters":31200,"station_id":"ce4bhah2rcd13ifvqej0","pricing_plan_id":"free"},{"bike_id":"c219bd9e-8768-49fd-a600-b24e8ec4ca61","system_id":"levelo_inurba_marseille","lat":43.298681,"lon":5.397225,"is_reserved":false,"is_disabled":false,"rental_uris":{"android":"levelo://app?vid=c219bd9e-8768-49fd-a600-b24e8ec4ca61","ios":"levelo://app?vid=c219bd9e-8768-49fd-a600-b24e8ec4ca61"},"vehicle_type_id":"4","last_reported":1690780031,"current_range_meters":31200,"station_id":"ce4bh0h2rcd13ifvqd50","pricing_plan_id":"free"},{"bike_id":"441c9294-2de5-4fcc-b45d-4920ab71a54a","system_id":"levelo_inurba_marseille","lat":43.29858,"lon":5.39745,"is_reserved":false,"is_disabled":false,"rental_uris":{"android":"levelo://app?vid=441c9294-2de5-4fcc-b45d-4920ab71a54a","ios":"levelo://app?vid=441c9294-2de5-4fcc-b45d-4920ab71a54a"},"vehicle_type_id":"4","last_reported":1690780031,"current_range_meters":15200,"station_id":"ce4bh0h2rcd13ifvqd50","pricing_plan_id":"free"},{"bike_id":"5379a4ab-c084-40d2-a969-b37caa38c544","system_id":"levelo_inurba_marseille","lat":43.29861,"lon":5.39748,"is_reserved":false,"is_disabled":false,"rental_uris":{"android":"levelo://app?vid=5379a4ab-c084-40d2-a969-b37caa38c544","ios":"levelo://app?vid=5379a4ab-c084-40d2-a969-b37caa38c544"},"vehicle_type_id":"4","last_reported":1690780031,"current_range_meters":21200,"station_id":"ce4bh0h2rcd13ifvqd50","pricing_plan_id":"free"},{"bike_id":"241000a6-9c71-4a08-8b44-1c6d3c8aa3cd","system_id":"levelo_inurba_marseille","lat":43.29518,"lon":5.39408,"is_reserved":false,"is_disabled":false,"rental_uris":{"android":"levelo://app?vid=241000a6-9c71-4a08-8b44-1c6d3c8aa3cd","ios":"levelo://app?vid=241000a6-9c71-4a08-8b44-1c6d3c8aa3cd"},"vehicle_type_id":"4","last_reported":1690780031,"current_range_meters":31200,"station_id":"ce4bh292rcd13ifvqdf0","pricing_plan_id":"free"},{"bike_id":"5ad27097-846d-487c-bd0d-0f2208b893fa","system_id":"levelo_inurba_marseille","lat":43.302759,"lon":5.400793,"is_reserved":false,"is_disabled":false,"rental_uris":{"android":"levelo://app?vid=5ad27097-846d-487c-bd0d-0f2208b893fa","ios":"levelo://app?vid=5ad27097-846d-487c-bd0d-0f2208b893fa"},"vehicle_type_id":"4","last_reported":1690780031,"current_range_meters":24800,"station_id":"ce4bgvh2rcd13ifvqcs0","pricing_plan_id":"free"},{"bike_id":"758bf9d2-73a0-467d-971a-8655f4cfc877","system_id":"levelo_inurba_marseille","lat":43.302759,"lon":5.400793,"is_reserved":false,"is_disabled":false,"rental_uris":{"android":"levelo://app?vid=758bf9d2-73a0-467d-971a-8655f4cfc877","ios":"levelo://app?vid=758bf9d2-73a0-467d-971a-8655f4cfc877"},"vehicle_type_id":"4","last_reported":1690780031,"current_range_meters":31200,"station_id":"ce4bgvh2rcd13ifvqcs0","pricing_plan_id":"free"},{"bike_id":"d08b8101-9cb6-45a3-a9d2-77af8f3e5c40","system_id":"levelo_inurba_marseille","lat":43.290345,"lon":5.38646,"is_reserved":false,"is_disabled":false,"rental_uris":{"android":"levelo://app?vid=d08b8101-9cb6-45a3-a9d2-77af8f3e5c40","ios":"levelo://app?vid=d08b8101-9cb6-45a3-a9d2-77af8f3e5c40"},"vehicle_type_id":"4","last_reported":1690780031,"current_range_meters":17200,"station_id":"ce4bh4p2rcd13ifvqe0g","pricing_plan_id":"free"},{"bike_id":"4994214a-d1e0-470e-a378-ebf71a082a39","system_id":"levelo_inurba_marseille","lat":43.302759,"lon":5.400793,"is_reserved":false,"is_disabled":false,"rental_uris":{"android":"levelo://app?vid=4994214a-d1e0-470e-a378-ebf71a082a39","ios":"levelo://app?vid=4994214a-d1e0-470e-a378-ebf71a082a39"},"vehicle_type_id":"4","last_reported":1690780031,"current_range_meters":31200,"station_id":"ce4bgvh2rcd13ifvqcs0","pricing_plan_id":"free"},{"bike_id":"6ae9c5a9-d608-4338-a2f0-4d5370f068b6","system_id":"levelo_inurba_marseille","lat":43.29358,"lon":5.39255,"is_reserved":false,"is_disabled":false,"rental_uris":{"android":"levelo://app?vid=6ae9c5a9-d608-4338-a2f0-4d5370f068b6","ios":"levelo://app?vid=6ae9c5a9-d608-4338-a2f0-4d5370f068b6"},"vehicle_type_id":"4","last_reported":1690780031,"current_range_meters":28800,"station_id":"","pricing_plan_id":"free"},{"bike_id":"3734f612-7fa1-4d44-aa1a-78551ea0511e","system_id":"levelo_inurba_marseille","lat":43.287184,"lon":5.37937,"is_reserved":false,"is_disabled":false,"rental_uris":{"android":"levelo://app?vid=3734f612-7fa1-4d44-aa1a-78551ea0511e","ios":"levelo://app?vid=3734f612-7fa1-4d44-aa1a-78551ea0511e"},"vehicle_type_id":"4","last_reported":1690780031,"current_range_meters":30000,"station_id":"ce4bh9p2rcd13ifvqec0","pricing_plan_id":"free"},{"bike_id":"74db9097-bb72-40a1-a043-aa8849d1526d","system_id":"levelo_inurba_marseille","lat":43.287185,"lon":5.379373,"is_reserved":false,"is_disabled":false,"rental_uris":{"android":"levelo://app?vid=74db9097-bb72-40a1-a043-aa8849d1526d","ios":"levelo://app?vid=74db9097-bb72-40a1-a043-aa8849d1526d"},"vehicle_type_id":"4","last_reported":1690780031,"current_range_meters":30000,"station_id":"ce4bh9p2rcd13ifvqec0","pricing_plan_id":"free"},{"bike_id":"eca4b550-439b-46d3-8f5b-9c8d2e5c5c7e","system_id":"levelo_inurba_marseille","lat":43.287185,"lon":5.379373,"is_reserved":false,"is_disabled":false,"rental_uris":{"android":"levelo://app?vid=eca4b550-439b-46d3-8f5b-9c8d2e5c5c7e","ios":"levelo://app?vid=eca4b550-439b-46d3-8f5b-9c8d2e5c5c7e"},"vehicle_type_id":"4","last_reported":1690780031,"current_range_meters":31200,"station_id":"ce4bh9p2rcd13ifvqec0","pricing_plan_id":"free"},{"bike_id":"4502a9bd-8061-4914-a40e-df73648d9def","system_id":"levelo_inurba_marseille","lat":43.287185,"lon":5.379373,"is_reserved":false,"is_disabled":false,"rental_uris":{"android":"levelo://app?vid=4502a9bd-8061-4914-a40e-df73648d9def","ios":"levelo://app?vid=4502a9bd-8061-4914-a40e-df73648d9def"},"vehicle_type_id":"4","last_reported":1690780031,"current_range_meters":28800,"station_id":"ce4bh9p2rcd13ifvqec0","pricing_plan_id":"free"},{"bike_id":"e8cf2bb1-b9de-408f-acda-37a0a1afe543","system_id":"levelo_inurba_marseille","lat":43.287185,"lon":5.379373,"is_reserved":false,"is_disabled":false,"rental_uris":{"android":"levelo://app?vid=e8cf2bb1-b9de-408f-acda-37a0a1afe543","ios":"levelo://app?vid=e8cf2bb1-b9de-408f-acda-37a0a1afe543"},"vehicle_type_id":"4","last_reported":1690780031,"current_range_meters":30000,"station_id":"ce4bh9p2rcd13ifvqec0","pricing_plan_id":"free"},