{"last_updated":1762563036,"ttl":60,"version":"2.2","data":{"bikes":[{"bike_id":"549e9e51-ae7d-4e75-9f9f-cc64f374ba44","system_id":"levelo_inurba_marseille","lat":43.24136,"lon":5.3939,"is_reserved":false,"is_disabled":false,"rental_uris":{"android":"levelo://app?vid=549e9e51-ae7d-4e75-9f9f-cc64f374ba44","ios":"levelo://app?vid=549e9e51-ae7d-4e75-9f9f-cc64f374ba44"},"vehicle_type_id":"4","last_reported":1762563036,"current_range_meters":3200,"station_id":"","pricing_plan_id":"cebpf4jnsgd1na2vs0mg"},{"bike_id":"6a5f9f3d-9869-4255-9740-887ef90d33d5","system_id":"levelo_inurba_marseille","lat":43.29974,"lon":5.38489,"is_reserved":false,"is_disabled":false,"rental_uris":{"android":"levelo://app?vid=6a5f9f3d-9869-4255-9740-887ef90d33d5","ios":"levelo://app?vid=6a5f9f3d-9869-4255-9740-887ef90d33d5"},"vehicle_type_id":"4","last_reported":1762563036,"current_range_meters":3200,"station_id":"ce4bgj92rcd13ifvqbd0","pricing_plan_id":"cebpf4jnsgd1na2vs0mg"},{"bike_id":"0ad4d279-d148-4873-9d44-64b9869f0dcc","system_id":"levelo_inurba_marseille","lat":43.27988,"lon":5.41656,"is_reserved":false,"is_disabled":false,"rental_uris":{"android":"levelo://app?vid=0ad4d279-d148-4873-9d44-64b9869f0dcc","ios":"levelo://app?vid=0ad4d279-d148-4873-9d44-64b9869f0dcc"},"vehicle_type_id":"4","last_reported":1762563036,"current_range_meters":3200,"station_id":"ce4bho12rcd13ifvqh1g","pricing_plan_id":"cebpf4jnsgd1na2vs0mg"},{"bike_id":"5282d5e6-d901-4076-a111-4d44b2f104b8","system_id":"levelo_inurba_marseille","lat":43.299739,"lon":5.371844,"is_reserved":false,"is_disabled":false,"rental_uris":{"android":"levelo://app?vid=5282d5e6-d901-4076-a111-4d44b2f104b8","ios":"levelo://app?vid=5282d5e6-d901-4076-a111-4d44b2f104b8"},"vehicle_type_id":"4","last_reported":1762563036,"current_range_meters":3600,"station_id":"ce4bgr92rcd13ifvqc7g","pricing_plan_id":"cebpf4jnsgd1na2vs0mg"},{"bike_id":"441ed396-76c0-4ca4-bcf9-d8e836099be4","system_id":"levelo_inurba_marseille","lat":43.286764,"lon":5.37393,"is_reserved":false,"is_disabled":false,"rental_uris":{"android":"levelo://app?vid=441ed396-76c0-4ca4-bcf9-d8e836099be4","ios":"levelo://app?vid=441ed396-76c0-4ca4-bcf9-d8e836099be4"},"vehicle_type_id":"4","last_reported":1762563036,"current_range_meters":3600,"station_id":"ce4bh3p2rcd13ifvqdq0","pricing_plan_id":"cebpf4jnsgd1na2vs0mg"},{"bike_id":"fc8334d2-8cc7-48bf-93cc-8304409e8292","system_id":"levelo_inurba_marseille","lat":43.21758,"lon":5.34604,"is_reserved":false,"is_disabled":false,"rental_uris":{"android":"levelo://app?vid=fc8334d2-8cc7-48bf-93cc-8304409e8292","ios":"levelo://app?vid=fc8334d2-8cc7-48bf-93cc-8304409e8292"},"vehicle_type_id":"4","last_reported":1762563036,"current_range_meters":3600,"station_id":"","pricing_plan_id":"cebpf4jnsgd1na2vs0mg"},{"bike_id":"03dec4c9-b86b-416f-aaa1-be8ad332b947","system_id":"levelo_inurba_marseille","lat":43.262077,"lon":5.379449,"is_reserved":false,"is_disabled":false,"rental_uris":{"android":"levelo://app?vid=03dec4c9-b86b-416f-aaa1-be8ad332b947","ios":"levelo://app?vid=03dec4c9-b86b-416f-aaa1-be8ad332b947"},"vehicle_type_id":"4","last_reported":1762563036,"current_range_meters":3600,"station_id":"ce4bhjp2rcd13ifvqg90","pricing_plan_id":"cebpf4jnsgd1na2vs0mg"},{"bike_id":"fde6e096-fae9-4d2d-940e-0cc4a6b9fd4e","system_id":"levelo_inurba_marseille","lat":43.23197,"lon":5.39979,"is_reserved":false,"is_disabled":false,"rental_uris":{"android":"levelo://app?vid=fde6e096-fae9-4d2d-940e-0cc4a6b9fd4e","ios":"levelo://app?vid=fde6e096-fae9-4d2d-940e-0cc4a6b9fd4e"},"vehicle_type_id":"4","last_reported":1762563036,"current_range_meters":3600,"station_id":"ce4bhn12rcd13ifvqgqg","pricing_plan_id":"cebpf4jnsgd1na2vs0mg"},{"bike_id":"210c20b5-e3d7-4847-af4a-ea66faf4cdd3","system_id":"levelo_inurba_marseille","lat":43.307979,"lon":5.376531,"is_reserved":false,"is_disabled":false,"rental_uris":{"android":"levelo://app?vid=210c20b5-e3d7-4847-af4a-ea66faf4cdd3","ios":"levelo://app?vid=210c20b5-e3d7-4847-af4a-ea66faf4cdd3"},"vehicle_type_id":"4","last_reported":1762563036,"current_range_meters":4000,"station_id":"ce4bgv92rcd13ifvqcq0","pricing_plan_id":"cebpf4jnsgd1na2vs0mg"},{"bike_id":"bf66c6f4-90a9-4dad-ab7f-441e78a13cab","system_id":"levelo_inurba_marseille","lat":43.31126,"lon":5.37764,"is_reserved":false,"is_disabled":true,"rental_uris":{"android":"levelo://app?vid=bf66c6f4-90a9-4dad-ab7f-441e78a13cab","ios":"levelo://app?vid=bf66c6f4-90a9-4dad-ab7f-441e78a13cab"},"vehicle_type_id":"4","last_reported":1762563036,"current_range_meters":4000,"station_id":"ce4bgt92rcd13ifvqcg0","pricing_plan_id":"cebpf4jnsgd1na2vs0mg"},{"bike_id":"4222a171-03fa-43b3-9ecf-7b820125e90e","system_id":"levelo_inurba_marseille","lat":43.30149,"lon":5.3807,"is_reserved":false,"is_disabled":false,"rental_uris":{"android":"levelo://app?vid=4222a171-03fa-43b3-9ecf-7b820125e90e","ios":"levelo://app?vid=4222a171-03fa-43b3-9ecf-7b820125e90e"},"vehicle_type_id":"4","last_reported":1762563036,"current_range_meters":4000,"station_id":"ce4bgjp2rcd13ifvqbh0","pricing_plan_id":"cebpf4jnsgd1na2vs0mg"},{"bike_id":"b752d0d5-c0a8-4d41-9f19-5bd278de8732","system_id":"levelo_inurba_marseille","lat":43.31169,"lon":5.38719,"is_reserved":false,"is_disabled":false,"rental_uris":{"android":"levelo://app?vid=b752d0d5-c0a8-4d41-9f19-5bd278de8732","ios":"levelo://app?vid=b752d0d5-c0a8-4d41-9f19-5bd278de8732"},"vehicle_type_id":"4","last_reported":1762563036,"current_range_meters":4000,"station_id":"ce4bgv12rcd13ifvqcp0","pricing_plan_id":"cebpf4jnsgd1na2vs0mg"},{"bike_id":"a6b5c354-bbc4-46b2-9356-4b84838966f9","system_id":"levelo_inurba_marseille","lat":43.306802,"lon":5.40351,"is_reserved":false,"is_disabled":false,"rental_uris":{"android":"levelo://app?vid=a6b5c354-bbc4-46b2-9356-4b84838966f9","ios":"levelo://app?vid=a6b5c354-bbc4-46b2-9356-4b84838966f9"},"vehicle_type_id":"4","last_reported":1762563036,"current_range_meters":4000,"station_id":"","pricing_plan_id":"cebpf4jnsgd1na2vs0mg"},{"bike_id":"81dcc136-dea2-46c0-98af-42dbdee92b54","system_id":"levelo_inurba_marseille","lat":43.2847,"lon":5.48393,"is_reserved":false,"is_disabled":false,"rental_uris":{"android":"levelo://app?vid=81dcc136-dea2-46c0-98af-42dbdee92b54","ios":"levelo://app?vid=81dcc136-dea2-46c0-98af-42dbdee92b54"},"vehicle_type_id":"4","last_reported":1762563036,"current_range_meters":4000,"station_id":"","pricing_plan_id":"cebpf4jnsgd1na2vs0mg"},{"bike_id":"8b55b682-7272-4b42-97ad-267ed302f4c4","system_id":"levelo_inurba_marseille","lat":43.31233,"lon":5.36839,"is_reserved":false,"is_disabled":false,"rental_uris":{"android":"levelo://app?vid=8b55b682-7272-4b42-97ad-267ed302f4c4","ios":"levelo://app?vid=8b55b682-7272-4b42-97ad-267ed302f4c4"},"vehicle_type_id":"4","last_reported":1762563036,"current_range_meters":4000,"station_id":"ce4bgl92rcd13ifvqbq0","pricing_plan_id":"cebpf4jnsgd1na2vs0mg"},{"bike_id":"bbdea6a1-836b-4acb-a058-ccc10e5a3148","system_id":"levelo_inurba_marseille","lat":43.30096,"lon":5.39072,"is_reserved":false,"is_disabled":false,"rental_uris":{"android":"levelo://app?vid=bbdea6a1-836b-4acb-a058-ccc10e5a3148","ios":"levelo://app?vid=bbdea6a1-836b-4acb-a058-ccc10e5a3148"},"vehicle_type_id":"4","last_reported":1762563036,"current_range_meters":4000,"station_id":"ce4bh192rcd13ifvqdb0","pricing_plan_id":"cebpf4jnsgd1na2vs0mg"},{"bike_id":"815ef06e-3dcd-48e4-a24e-2ec17b769eb4","system_id":"levelo_inurba_marseille","lat":43.27503,"lon":5.42457,"is_reserved":false,"is_disabled":false,"rental_uris":{"android":"levelo://app?vid=815ef06e-3dcd-48e4-a24e-2ec17b769eb4","ios":"levelo://app?vid=815ef06e-3dcd-48e4-a24e-2ec17b769eb4"},"vehicle_type_id":"4","last_reported":1762563036,"current_range_meters":4400,"station_id":"ce4bhn92rcd13ifvqgrg","pricing_plan_id":"cebpf4jnsgd1na2vs0mg"},{"bike_id":"a2b61199-6f60-47d3-9f1b-aba96022819a","system_id":"levelo_inurba_marseille","lat":43.30734,"lon":5.42442,"is_reserved":false,"is_disabled":false,"rental_uris":{"android":"levelo://app?vid=a2b61199-6f60-47d3-9f1b-aba96022819a","ios":"levelo://app?vid=a2b61199-6f60-47d3-9f1b-aba96022819a"},"vehicle_type_id":"4","last_reported":1762563036,"current_range_meters":4400,"station_id":"st_cvj6ca6bvosntc0bfgr0","pricing_plan_id":"cebpf4jnsgd1na2vs0mg"},{"bike_id":"c60e2125-53cd-4555-9df4-6b58bcf9ef31","system_id":"levelo_inurba_marseille","lat":43.279,"lon":5.37994,"is_reserved":false,"is_disabled":false,"rental_uris":{"android":"levelo://app?vid=c60e2125-53cd-4555-9df4-6b58bcf9ef31","ios":"levelo://app?vid=c60e2125-53cd-4555-9df4-6b58bcf9ef31"},"vehicle_type_id":"4","last_reported":1762563036,"current_range_meters":4400,"station_id":"ce4bhf92rcd13ifvqf50","pricing_plan_id":"cebpf4jnsgd1na2vs0mg"},{"bike_id":"9ba0509c-e480-435a-a9dd-b4dc36ec7f62","system_id":"levelo_inurba_marseille","lat":43.29307,"lon":5.39424,"is_reserved":false,"is_disabled":false,"rental_uris":{"android":"levelo://app?vid=9ba0509c-e480-435a-a9dd-b4dc36ec7f62","ios":"levelo://app?vid=9ba0509c-e480-435a-a9dd-b4dc36ec7f62"},"vehicle_type_id":"4","last_reported":1762563036,"current_range_meters":4400,"station_id":"","pricing_plan_id":"cebpf4jnsgd1na2vs0mg"},{"bike_id":"e8207561-ac26-4829-8522-80a9082485fb","system_id":"levelo_inurba_marseille","lat":43.2417,"lon":5.36403,"is_reserved":false,"is_disabled":false,"rental_uris":{"android":"levelo://app?vid=e8207561-ac26-4829-8522-80a9082485fb","ios":"levelo://app?vid=e8207561-ac26-4829-8522-80a9082485fb"},"vehicle_type_id":"4","last_reported":1762563036,"current_range_meters":4400,"station_id":"cpo36qri1sfpv3e86is0","pricing_plan_id":"cebpf4jnsgd1na2vs0mg"},{"bike_id":"82327f97-4a03-4321-a19f-afaeedfaae22","system_id":"levelo_inurba_marseille","lat":43.29263,"lon":5.40904,"is_reserved":false,"is_disabled":false,"rental_uris":{"android":"levelo://app?vid=82327f97-4a03-4321-a19f-afaeedfaae22","ios":"levelo://app?vid=82327f97-4a03-4321-a19f-afaeedfaae22"},"vehicle_type_id":"4","last_reported":1762563036,"current_range_meters":4800,"station_id":"ce4bh192rcd13ifvqdc0","pricing_plan_id":"cebpf4jnsgd1na2vs0mg"},{"bike_id":"874b186c-6ec7-4094-a4dd-a249e7cc9b62","system_id":"levelo_inurba_marseille","lat":43.277348,"lon":5.426905,"is_reserved":false,"is_disabled":false,"rental_uris":{"android":"levelo://app?vid=874b186c-6ec7-4094-a4dd-a249e7cc9b62","ios":"levelo://app?vid=874b186c-6ec7-4094-a4dd-a249e7cc9b62"},"vehicle_type_id":"4","last_reported":1762563036,"current_range_meters":4800,"station_id":"","pricing_plan_id":"cebpf4jnsgd1na2vs0mg"},{"bike_id":"60246e6f-c663-4706-9a5b-c6516feeebcc","system_id":"levelo_inurba_marseille","lat":43.27377,"lon":5.36256,"is_reserved":false,"is_disabled":false,"rental_uris":{"android":"levelo://app?vid=60246e6f-c663-4706-9a5b-c6516feeebcc","ios":"levelo://app?vid=60246e6f-c663-4706-9a5b-c6516feeebcc"},"vehicle_type_id":"4","last_reported":1762563036,"current_range_meters":5600,"station_id":"ce4bhbh2rcd13ifvqeo0","pricing_plan_id":"cebpf4jnsgd1na2vs0mg"},{"bike_id":"d49c544e-2768-4fdc-acf7-6e78f223f7f6","system_id":"levelo_inurba_marseille","lat":43.2803,"lon":5.36952,"is_reserved":false,"is_disabled":false,"rental_uris":{"android":"levelo://app?vid=d49c544e-2768-4fdc-acf7-6e78f223f7f6","ios":"levelo://app?vid=d49c544e-2768-4fdc-acf7-6e78f223f7f6"},"vehicle_type_id":"4","last_reported":1762563036,"current_range_meters":5600,"station_id":"ce4bha12rcd13ifvqef0","pricing_plan_id":"cebpf4jnsgd1na2vs0mg"},{"bike_id":"a4734c36-1db6-42ac-9553-f5404d32472b","system_id":"levelo_inurba_marseille","lat":43.289978,"lon":5.35605,"is_reserved":false,"is_disabled":false,"rental_uris":{"android":"levelo://app?vid=a4734c36-1db6-42ac-9553-f5404d32472b","ios":"levelo://app?vid=a4734c36-1db6-42ac-9553-f5404d32472b"},"vehicle_type_id":"4","last_reported":1762563036,"current_range_meters":5600,"station_id":"","pricing_plan_id":"cebpf4jnsgd1na2vs0mg"},{"bike_id":"71967476-752a-4f5e-b222-99c0eea95f39","system_id":"levelo_inurba_marseille","lat":43.323258,"lon":5.384124,"is_reserved":false,"is_disabled":false,"rental_uris":{"android":"levelo://app?vid=71967476-752a-4f5e-b222-99c0eea95f39","ios":"levelo://app?vid=71967476-752a-4f5e-b222-99c0eea95f39"},"vehicle_type_id":"4","last_reported":1762563036,"current_range_meters":5600,"station_id":"st_d45171o9ee8s73djdqug","pricing_plan_id":"cebpf4jnsgd1na2vs0mg"},{"bike_id":"00d28c32-2b6d-4277-97c6-23e6fe30be4c","system_id":"levelo_inurba_marseille","lat":43.31776,"lon":5.39855,"is_reserved":false,"is_disabled":false,"rental_uris":{"android":"levelo://app?vid=00d28c32-2b6d-4277-97c6-23e6fe30be4c","ios":"levelo://app?vid=00d28c32-2b6d-4277-97c6-23e6fe30be4c"},"vehicle_type_id":"4","last_reported":1762563036,"current_range_meters":5600,"station_id":"","pricing_plan_id":"cebpf4jnsgd1na2vs0mg"},{"bike_id":"1e6bda31-1132-4675-ae79-b0317f72cd71","system_id":"levelo_inurba_marseille","lat":43.28708,"lon":5.39993,"is_reserved":false,"is_disabled":false,"rental_uris":{"android":"levelo://app?vid=1e6bda31-1132-4675-ae79-b0317f72cd71","ios":"levelo://app?vid=1e6bda31-1132-4675-ae79-b0317f72cd71"},"vehicle_type_id":"4","last_reported":1762563036,"current_range_meters":6000,"station_id":"ce4bho92rcd13ifvqh3g","pricing_plan_id":"cebpf4jnsgd1na2vs0mg"},{"bike_id":"edb2dd47-bf9a-4355-9d95-51723cd05f14","system_id":"levelo_inurba_marseille","lat":43.23779,"lon":5.3664,"is_reserved":false,"is_disabled":false,"rental_uris":{"android":"levelo://app?vid=edb2dd47-bf9a-4355-9d95-51723cd05f14","ios":"levelo://app?vid=edb2dd47-bf9a-4355-9d95-51723cd05f14"},"vehicle_type_id":"4","last_reported":1762563036,"current_range_meters":6000,"station_id":"st_d3nk18o9ro0c73en2l3g","pricing_plan_id":"cebpf4jnsgd1na2vs0mg"},{"bike_id":"acad4a45-e169-4ac6-8f82-32f040552ec8","system_id":"levelo_inurba_marseille","lat":43.31207,"lon":5.3872,"is_reserved":false,"is_disabled":false,"rental_uris":{"android":"levelo://app?vid=acad4a45-e169-4ac6-8f82-32f040552ec8","ios":"levelo://app?vid=acad4a45-e169-4ac6-8f82-32f040552ec8"},"vehicle_type_id":"4","last_reported":1762563036,"current_range_meters":6000,"station_id":"ce4bgv12rcd13ifvqcp0","pricing_plan_id":"cebpf4jnsgd1na2vs0mg"},{"bike_id":"37ac0eb5-d21b-4db0-822a-29f8bf51cda6","system_id":"levelo_inurba_marseille","lat":43.27916,"lon":5.38656,"is_reserved":false,"is_disabled":false,"rental_uris":{"android":"levelo://app?vid=37ac0eb5-d21b-4db0-822a-29f8bf51cda6","ios":"levelo://app?vid=37ac0eb5-d21b-4db0-822a-29f8bf51cda6"},"vehicle_type_id":"4","last_reported":1762563036,"current_range_meters":6000,"station_id":"ce4bhg12rcd13ifvqf80","pricing_plan_id":"cebpf4jnsgd1na2vs0mg"},{"bike_id":"19e1a832-805b-4b7a-af3b-9097d0361d3b","system_id":"levelo_inurba_marseille","lat":43.24072,"lon":5.37758,"is_reserved":false,"is_disabled":false,"rental_uris":{"android":"levelo://app?vid=19e1a832-805b-4b7a-af3b-9097d0361d3b","ios":"levelo://app?vid=19e1a832-805b-4b7a-af3b-9097d0361d3b"},"vehicle_type_id":"4","last_reported":1762563036,"current_range_meters":6000,"station_id":"ce4bhnp2rcd13ifvqgvg","pricing_plan_id":"cebpf4jnsgd1na2vs0mg"},{"bike_id":"78b1b302-8c08-44ad-b8ac-cde73f2eb707","system_id":"levelo_inurba_marseille","lat":43.30876,"lon":5.37178,"is_reserved":false,"is_disabled":false,"rental_uris":{"android":"levelo://app?vid=78b1b302-8c08-44ad-b8ac-cde73f2eb707","ios":"levelo://app?vid=78b1b302-8c08-44ad-b8ac-cde73f2eb707"},"vehicle_type_id":"4","last_reported":1762563036,"current_range_meters":6400,"station_id":"ce4bguh2rcd13ifvqckg","pricing_plan_id":"cebpf4jnsgd1na2vs0mg"},{"bike_id":"42070473-e39e-4e55-a438-1d3af932bf73","system_id":"levelo_inurba_marseille","lat":43.30621,"lon":5.37258,"is_reserved":false,"is_disabled":false,"rental_uris":{"android":"levelo://app?vid=42070473-e39e-4e55-a438-1d3af932bf73","ios":"levelo://app?vid=42070473-e39e-4e55-a438-1d3af932bf73"},"vehicle_type_id":"4","last_reported":1762563036,"current_range_meters":6400,"station_id":"ce4bgqh2rcd13ifvqc4g","pricing_plan_id":"cebpf4jnsgd1na2vs0mg"},{"bike_id":"aa073d3c-91f3-4920-9d1e-90bf82850b1e","system_id":"levelo_inurba_marseille","lat":43.337819,"lon":5.374411,"is_reserved":false,"is_disabled":false,"rental_uris":{"android":"levelo://app?vid=aa073d3c-91f3-4920-9d1e-90bf82850b1e","ios":"levelo://app?vid=aa073d3c-91f3-4920-9d1e-90bf82850b1e"},"vehicle_type_id":"4","last_reported":1762563036,"current_range_meters":6400,"station_id":"","pricing_plan_id":"cebpf4jnsgd1na2vs0mg"},{"bike_id":"62c4e02c-1109-43e9-9cd5-f34097f138a6","system_id":"levelo_inurba_marseille","lat":43.29194,"lon":5.393233,"is_reserved":false,"is_disabled":false,"rental_uris":{"android":"levelo://app?vid=62c4e02c-1109-43e9-9cd5-f34097f138a6","ios":"levelo://app?vid=62c4e02c-1109-43e9-9cd5-f34097f138a6"},"vehicle_type_id":"4","last_reported":1762563036,"current_range_meters":6800,"station_id":"ce4bh192rcd13ifvqdd0","pricing_plan_id":"cebpf4jnsgd1na2vs0mg"},{"bike_id":"72bb004c-37a6-44f3-b7de-6c7031d711a4","system_id":"levelo_inurba_marseille","lat":43.27378,"lon":5.36261,"is_reserved":false,"is_disabled":false,"rental_uris":{"android":"levelo://app?vid=72bb004c-37a6-44f3-b7de-6c7031d711a4","ios":"levelo://app?vid=72bb004c-37a6-44f3-b7de-6c7031d711a4"},"vehicle_type_id":"4","last_reported":1762563036,"current_range_meters":6800,"station_id":"ce4bhbh2rcd13ifvqeo0","pricing_plan_id":"cebpf4jnsgd1na2vs0mg"},{"bike_id":"32c4054d-c111-4f1c-b188-9138aed42210","system_id":"levelo_inurba_marseille","lat":43.31974,"lon":5.41579,"is_reserved":false,"is_disabled":false,"rental_uris":{"android":"levelo://app?vid=32c4054d-c111-4f1c-b188-9138aed42210","ios":"levelo://app?vid=32c4054d-c111-4f1c-b188-9138aed42210"},"vehicle_type_id":"4","last_reported":1762563036,"current_range_meters":6800,"station_id":"","pricing_plan_id":"cebpf4jnsgd1na2vs0mg"},{"bike_id":"59b31ef2-3fe3-46e5-b5a5-685f264695ce","system_id":"levelo_inurba_marseille","lat":43.28486,"lon":5.48389,"is_reserved":false,"is_disabled":false,"rental_uris":{"android":"levelo://app?vid=59b31ef2-3fe3-46e5-b5a5-685f264695ce","ios":"levelo://app?vid=59b31ef2-3fe3-46e5-b5a5-685f264695ce"},"vehicle_type_id":"4","last_reported":1762563036,"current_range_meters":6800,"station_id":"","pricing_plan_id":"cebpf4jnsgd1na2vs0mg"},{"bike_id":"620f8f7d-f085-4499-a08b-abda640c2674","system_id":"levelo_inurba_marseille","lat":43.27945,"lon":5.41041,"is_reserved":false,"is_disabled":false,"rental_uris":{"android":"levelo://app?vid=620f8f7d-f085-4499-a08b-abda640c2674","ios":"levelo://app?vid=620f8f7d-f085-4499-a08b-abda640c2674"},"vehicle_type_id":"4","last_reported":1762563036,"current_range_meters":6800,"station_id":"ce4bhnp2rcd13ifvqh0g","pricing_plan_id":"cebpf4jnsgd1na2vs0mg"},{"bike_id":"a80abbfc-468c-445d-a02d-b8ab4f09dd6b","system_id":"levelo_inurba_marseille","lat":43.30787,"lon":5.37636,"is_reserved":false,"is_disabled":false,"rental_uris":{"android":"levelo://app?vid=a80abbfc-468c-445d-a02d-b8ab4f09dd6b","ios":"levelo://app?vid=a80abbfc-468c-445d-a02d-b8ab4f09dd6b"},"vehicle_type_id":"4","last_reported":1762563036,"current_range_meters":6800,"station_id":"ce4bgv92rcd13ifvqcq0","pricing_plan_id":"cebpf4jnsgd1na2vs0mg"},{"bike_id":"ab3a4d6b-b442-44b9-8f02-c1c222f445ba","system_id":"levelo_inurba_marseille","lat":43.274693,"lon":5.392765,"is_reserved":false,"is_disabled":false,"rental_uris":{"android":"levelo://app?vid=ab3a4d6b-b442-44b9-8f02-c1c222f445ba","ios":"levelo://app?vid=ab3a4d6b-b442-44b9-8f02-c1c222f445ba"},"vehicle_type_id":"4","last_reported":1762563036,"current_range_meters":7200,"station_id":"","pricing_plan_id":"cebpf4jnsgd1na2vs0mg"},{"bike_id":"11b968ee-44e4-4807-8754-3db01b1bc5ae","system_id":"levelo_inurba_marseille","lat":43.22929,"lon":5.35381,"is_reserved":false,"is_disabled":false,"rental_uris":{"android":"levelo://app?vid=11b968ee-44e4-4807-8754-3db01b1bc5ae","ios":"levelo://app?vid=11b968ee-44e4-4807-8754-3db01b1bc5ae"},"vehicle_type_id":"4","last_reported":1762563036,"current_range_meters":7200,"station_id":"cpo3532slgdg3j2ikp40","pricing_plan_id":"cebpf4jnsgd1na2vs0mg"},{"bike_id":"3851bbf6-c20b-48dd-8b90-6ef118244ef4","system_id":"levelo_inurba_marseille","lat":43.280367,"lon":5.369478,"is_reserved":false,"is_disabled":false,"rental_uris":{"android":"levelo://app?vid=3851bbf6-c20b-48dd-8b90-6ef118244ef4","ios":"levelo://app?vid=3851bbf6-c20b-48dd-8b90-6ef118244ef4"},"vehicle_type_id":"4","last_reported":1762563036,"current_range_meters":7200,"station_id":"ce4bha12rcd13ifvqef0","pricing_plan_id":"cebpf4jnsgd1na2vs0mg"},{"bike_id":"1cab5819-5525-4147-96b6-88ae96ffcdfc","system_id":"levelo_inurba_marseille","lat":43.24073,"lon":5.37763,"is_reserved":false,"is_disabled":false,"rental_uris":{"android":"levelo://app?vid=1cab5819-5525-4147-96b6-88ae96ffcdfc","ios":"levelo://app?vid=1cab5819-5525-4147-96b6-88ae96ffcdfc"},"vehicle_type_id":"4","last_reported":1762563036,"current_range_meters":7200,"station_id":"ce4bhnp2rcd13ifvqgvg","pricing_plan_id":"cebpf4jnsgd1na2vs0mg"},{"bike_id":"6239342a-1dde-494c-8219-25229ccc0d3d","system_id":"levelo_inurba_marseille","lat":43.296883,"lon":5.372807,"is_reserved":false,"is_disabled":false,"rental_uris":{"android":"levelo://app?vid=6239342a-1dde-494c-8219-25229ccc0d3d","ios":"levelo://app?vid=6239342a-1dde-494c-8219-25229ccc0d3d"},"vehicle_type_id":"4","last_reported":1762563036,"current_range_meters":7200,"station_id":"ce4bgk12rcd13ifvqbj0","pricing_plan_id":"cebpf4jnsgd1na2vs0mg"},{"bike_id":"aebc37ad-45dc-4495-a816-e0360c79a2f8","system_id":"levelo_inurba_marseille","lat":43.24178,"lon":5.36378,"is_reserved":false,"is_disabled":false,"rental_uris":{"android":"levelo://app?vid=aebc37ad-45dc-4495-a816-e0360c79a2f8","ios":"levelo://app?vid=aebc37ad-45dc-4495-a816-e0360c79a2f8"},"vehicle_type_id":"4","last_reported":1762563036,"current_range_meters":7200,"station_id":"cpo36qri1sfpv3e86is0","pricing_plan_id":"cebpf4jnsgd1na2vs0mg"},{"bike_id":"a3fc670e-6246-44cc-be04-017cbc4c499a","system_id":"levelo_inurba_marseille","lat":43.26495,"lon":5.39538,"is_reserved":false,"is_disabled":false,"rental_uris":{"android":"levelo://app?vid=a3fc670e-6246-44cc-be04-017cbc4c499a","ios":"levelo://app?vid=a3fc670e-6246-44cc-be04-017cbc4c499a"},"vehicle_type_id":"4","last_reported":1762563036,"current_range_meters":8000,"station_id":"ce4bhi12rcd13ifvqfq0","pricing_plan_id":"cebpf4jnsgd1na2vs0mg"},{"bike_id":"fead46eb-cd48-495d-95c7-965fac2c10c7","system_id":"levelo_inurba_marseille","lat":43.28465,"lon":5.35879,"is_reserved":false,"is_disabled":false,"rental_uris":{"android":"levelo://app?vid=fead46eb-cd48-495d-95c7-965fac2c10c7","ios":"levelo://app?vid=fead46eb-cd48-495d-95c7-965fac2c10c7"},"vehicle_type_id":"4","last_reported":1762563036,"current_range_meters":8000,"station_id":"ce4bhah2rcd13ifvqei0","pricing_plan_id":"cebpf4jnsgd1na2vs0mg"},{"bike_id":"43cfab9e-f547-4304-9999-4a8329474751","system_id":"levelo_inurba_marseille","lat":43.21166,"lon":5.35083,"is_reserved":false,"is_disabled":false,"rental_uris":{"android":"levelo://app?vid=43cfab9e-f547-4304-9999-4a8329474751","ios":"levelo://app?vid=43cfab9e-f547-4304-9999-4a8329474751"},"vehicle_type_id":"4","last_reported":1762563036,"current_range_meters":8000,"station_id":"st_cvj6sg6p6f1abm77japg","pricing_plan_id":"cebpf4jnsgd1na2vs0mg"},{"bike_id":"2961a000-2daa-4455-9d26-36e79c6bab1e","system_id":"levelo_inurba_marseille","lat":43.29742,"lon":5.37917,"is_reserved":false,"is_disabled":false,"rental_uris":{"android":"levelo://app?vid=2961a000-2daa-4455-9d26-36e79c6bab1e","ios":"levelo://app?vid=2961a000-2daa-4455-9d26-36e79c6bab1e"},"vehicle_type_id":"4","last_reported":1762563036,"current_range_meters":8000,"station_id":"","pricing_plan_id":"cebpf4jnsgd1na2vs0mg"},{"bike_id":"62b597ad-0183-45ab-83ea-6b1f25540269","system_id":"levelo_inurba_marseille","lat":43.32738,"lon":5.45192,"is_reserved":false,"is_disabled":false,"rental_uris":{"android":"levelo://app?vid=62b597ad-0183-45ab-83ea-6b1f25540269","ios":"levelo://app?vid=62b597ad-0183-45ab-83ea-6b1f25540269"},"vehicle_type_id":"4","last_reported":1762563036,"current_range_meters":8000,"station_id":"","pricing_plan_id":"cebpf4jnsgd1na2vs0mg"},{"bike_id":"fabffdc0-dacb-4e19-970a-0782b2efe5c3","system_id":"levelo_inurba_marseille","lat":43.284663,"lon":5.384403,"is_reserved":false,"is_disabled":false,"rental_uris":{"android":"levelo://app?vid=fabffdc0-dacb-4e19-970a-0782b2efe5c3","ios":"levelo://app?vid=fabffdc0-dacb-4e19-970a-0782b2efe5c3"},"vehicle_type_id":"4","last_reported":1762563036,"current_range_meters":8400,"station_id":"ce4bh512rcd13ifvqe3g","pricing_plan_id":"cebpf4jnsgd1na2vs0mg"},{"bike_id":"ef2fe57e-ecba-4765-96d3-8349654ec56e","system_id":"levelo_inurba_marseille","lat":43.32945,"lon":5.3641,"is_reserved":false,"is_disabled":false,"rental_uris":{"android":"levelo://app?vid=ef2fe57e-ecba-4765-96d3-8349654ec56e","ios":"levelo://app?vid=ef2fe57e-ecba-4765-96d3-8349654ec56e"},"vehicle_type_id":"4","last_reported":1762563036,"current_range_meters":8400,"station_id":"","pricing_plan_id":"cebpf4jnsgd1na2vs0mg"},{"bike_id":"0e20a5d9-0ab3-4e71-a3ef-c9be28fc5551","system_id":"levelo_inurba_marseille","lat":43.28531,"lon":5.44094,"is_reserved":false,"is_disabled":false,"rental_uris":{"android":"levelo://app?vid=0e20a5d9-0ab3-4e71-a3ef-c9be28fc5551","ios":"levelo://app?vid=0e20a5d9-0ab3-4e71-a3ef-c9be28fc5551"},"vehicle_type_id":"4","last_reported":1762563036,"current_range_meters":8400,"station_id":"st_d3j3df2ikq2c7380ej80","pricing_plan_id":"cebpf4jnsgd1na2vs0mg"},{"bike_id":"6e2a6d13-fcf7-4ede-8299-6cd48171f184","system_id":"levelo_inurba_marseille","lat":43.28077,"lon":5.39651,"is_reserved":false,"is_disabled":false,"rental_uris":{"android":"levelo://app?vid=6e2a6d13-fcf7-4ede-8299-6cd48171f184","ios":"levelo://app?vid=6e2a6d13-fcf7-4ede-8299-6cd48171f184"},"vehicle_type_id":"4","last_reported":1762563036,"current_range_meters":8400,"station_id":"ce4bho12rcd13ifvqh2g","pricing_plan_id":"cebpf4jnsgd1na2vs0mg"},{"bike_id":"43fc3e3d-701e-405f-b2e3-8b38cff64312","system_id":"levelo_inurba_marseille","lat":43.27834,"lon":5.39205,"is_reserved":false,"is_disabled":false,"rental_uris":{"android":"levelo://app?vid=43fc3e3d-701e-405f-b2e3-8b38cff64312","ios":"levelo://app?vid=43fc3e3d-701e-405f-b2e3-8b38cff64312"},"vehicle_type_id":"4","last_reported":1762563036,"current_range_meters":8400,"station_id":"ce4bhjp2rcd13ifvqga0","pricing_plan_id":"cebpf4jnsgd1na2vs0mg"},{"bike_id":"f30a7889-2840-4358-8e04-3d64796b2aa5","system_id":"levelo_inurba_marseille","lat":43.28459,"lon":5.35884,"is_reserved":false,"is_disabled":false,"rental_uris":{"android":"levelo://app?vid=f30a7889-2840-4358-8e04-3d64796b2aa5","ios":"levelo://app?vid=f30a7889-2840-4358-8e04-3d64796b2aa5"},"vehicle_type_id":"4","last_reported":1762563036,"current_range_meters":9200,"station_id":"ce4bhah2rcd13ifvqei0","pricing_plan_id":"cebpf4jnsgd1na2vs0mg"},{"bike_id":"b72de69f-92ec-4237-ab22-5495e78e7ad9","system_id":"levelo_inurba_marseille","lat":43.24074,"lon":5.37777,"is_reserved":false,"is_disabled":false,"rental_uris":{"android":"levelo://app?vid=b72de69f-92ec-4237-ab22-5495e78e7ad9","ios":"levelo://app?vid=b72de69f-92ec-4237-ab22-5495e78e7ad9"},"vehicle_type_id":"4","last_reported":1762563036,"current_range_meters":9200,"station_id":"ce4bhnp2rcd13ifvqgvg","pricing_plan_id":"cebpf4jnsgd1na2vs0mg"},{"bike_id":"c687f5b8-73fc-4bba-bdba-8dae557f7ae6","system_id":"levelo_inurba_marseille","lat":43.27388,"lon":5.36265,"is_reserved":false,"is_disabled":true,"rental_uris":{"android":"levelo://app?vid=c687f5b8-73fc-4bba-bdba-8dae557f7ae6","ios":"levelo://app?vid=c687f5b8-73fc-4bba-bdba-8dae557f7ae6"},"vehicle_type_id":"4","last_reported":1762563036,"current_range_meters":9200,"station_id":"ce4bhbh2rcd13ifvqeo0","pricing_plan_id":"cebpf4jnsgd1na2vs0mg"},{"bike_id":"711b5184-06a1-46c6-b1ad-270408b914a4","system_id":"levelo_inurba_marseille","lat":43.29998,"lon":5.40978,"is_reserved":false,"is_disabled":false,"rental_uris":{"android":"levelo://app?vid=711b5184-06a1-46c6-b1ad-270408b914a4","ios":"levelo://app?vid=711b5184-06a1-46c6-b1ad-270408b914a4"},"vehicle_type_id":"4","last_reported":1762563036,"current_range_meters":9200,"station_id":"","pricing_plan_id":"cebpf4jnsgd1na2vs0mg"},{"bike_id":"f3b9728a-d5dd-4800-a470-496c509b5639","system_id":"levelo_inurba_marseille","lat":43.26207,"lon":5.40439,"is_reserved":false,"is_disabled":true,"rental_uris":{"android":"levelo://app?vid=f3b9728a-d5dd-4800-a470-496c509b5639","ios":"levelo://app?vid=f3b9728a-d5dd-4800-a470-496c509b5639"},"vehicle_type_id":"4","last_reported":1762563036,"current_range_meters":9200,"station_id":"ce4bhmh2rcd13ifvqgmg","pricing_plan_id":"cebpf4jnsgd1na2vs0mg"},{"bike_id":"cd9e8750-d590-449f-b68b-c764e41298cf","system_id":"levelo_inurba_marseille","lat":43.30778,"lon":5.3815,"is_reserved":false,"is_disabled":false,"rental_uris":{"android":"levelo://app?vid=cd9e8750-d590-449f-b68b-c764e41298cf","ios":"levelo://app?vid=cd9e8750-d590-449f-b68b-c764e41298cf"},"vehicle_type_id":"4","last_reported":1762563036,"current_range_meters":9200,"station_id":"ce4bgt12rcd13ifvqce0","pricing_plan_id":"cebpf4jnsgd1na2vs0mg"},{"bike_id":"e1a1b281-8b62-4f1f-9cbe-9e5c036a4512","system_id":"levelo_inurba_marseille","lat":43.30146,"lon":5.38077,"is_reserved":false,"is_disabled":false,"rental_uris":{"android":"levelo://app?vid=e1a1b281-8b62-4f1f-9cbe-9e5c036a4512","ios":"levelo://app?vid=e1a1b281-8b62-4f1f-9cbe-9e5c036a4512"},"vehicle_type_id":"4","last_reported":1762563036,"current_range_meters":9200,"station_id":"ce4bgjp2rcd13ifvqbh0","pricing_plan_id":"cebpf4jnsgd1na2vs0mg"},{"bike_id":"baab789b-44d9-4003-b47c-1d8ff2955da7","system_id":"levelo_inurba_marseille","lat":43.29632,"lon":5.40602,"is_reserved":false,"is_disabled":false,"rental_uris":{"android":"levelo://app?vid=baab789b-44d9-4003-b47c-1d8ff2955da7","ios":"levelo://app?vid=baab789b-44d9-4003-b47c-1d8ff2955da7"},"vehicle_type_id":"4","last_reported":1762563036,"current_range_meters":9600,"station_id":"ce4bh0h2rcd13ifvqd60","pricing_plan_id":"cebpf4jnsgd1na2vs0mg"},{"bike_id":"0e8b1da7-03eb-4895-a6d6-f262998d9cdc","system_id":"levelo_inurba_marseille","lat":43.28667,"lon":5.36348,"is_reserved":false,"is_disabled":false,"rental_uris":{"android":"levelo://app?vid=0e8b1da7-03eb-4895-a6d6-f262998d9cdc","ios":"levelo://app?vid=0e8b1da7-03eb-4895-a6d6-f262998d9cdc"},"vehicle_type_id":"4","last_reported":1762563036,"current_range_meters":9600,"station_id":"ce4bhah2rcd13ifvqej0","pricing_plan_id":"cebpf4jnsgd1na2vs0mg"},{"bike_id":"ff52e6d2-0126-428b-8241-f19a2cd5a014","system_id":"levelo_inurba_marseille","lat":43.26908,"lon":5.38699,"is_reserved":false,"is_disabled":true,"rental_uris":{"android":"levelo://app?vid=ff52e6d2-0126-428b-8241-f19a2cd5a014","ios":"levelo://app?vid=ff52e6d2-0126-428b-8241-f19a2cd5a014"},"vehicle_type_id":"4","last_reported":1762563036,"current_range_meters":9600,"station_id":"","pricing_plan_id":"cebpf4jnsgd1na2vs0mg"},{"bike_id":"8f2b0cbe-3655-4567-9425-5b98b64e6280","system_id":"levelo_inurba_marseille","lat":43.28072,"lon":5.39646,"is_reserved":false,"is_disabled":false,"rental_uris":{"android":"levelo://app?vid=8f2b0cbe-3655-4567-9425-5b98b64e6280","ios":"levelo://app?vid=8f2b0cbe-3655-4567-9425-5b98b64e6280"},"vehicle_type_id":"4","last_reported":1762563036,"current_range_meters":9600,"station_id":"ce4bho12rcd13ifvqh2g","pricing_plan_id":"cebpf4jnsgd1na2vs0mg"},{"bike_id":"5bee8f0f-57fe-4257-a72a-04a4967570b5","system_id":"levelo_inurba_marseille","lat":43.30046,"lon":5.3775,"is_reserved":false,"is_disabled":false,"rental_uris":{"android":"levelo://app?vid=5bee8f0f-57fe-4257-a72a-04a4967570b5","ios":"levelo://app?vid=5bee8f0f-57fe-4257-a72a-04a4967570b5"},"vehicle_type_id":"4","last_reported":1762563036,"current_range_meters":9600,"station_id":"","pricing_plan_id":"cebpf4jnsgd1na2vs0mg"},{"bike_id":"c541d6c6-d855-480d-9416-ad1e26b18f93","system_id":"levelo_inurba_marseille","lat":43.295182,"lon":5.393977,"is_reserved":false,"is_disabled":true,"rental_uris":{"android":"levelo://app?vid=c541d6c6-d855-480d-9416-ad1e26b18f93","ios":"levelo://app?vid=c541d6c6-d855-480d-9416-ad1e26b18f93"},"vehicle_type_id":"4","last_reported":1762563036,"current_range_meters":9600,"station_id":"ce4bh292rcd13ifvqdf0","pricing_plan_id":"cebpf4jnsgd1na2vs0mg"},{"bike_id":"5c17ed12-8897-4f84-bbfc-85419a7f8038","system_id":"levelo_inurba_marseille","lat":43.27102,"lon":5.3944,"is_reserved":false,"is_disabled":false,"rental_uris":{"android":"levelo://app?vid=5c17ed12-8897-4f84-bbfc-85419a7f8038","ios":"levelo://app?vid=5c17ed12-8897-4f84-bbfc-85419a7f8038"},"vehicle_type_id":"4","last_reported":1762563036,"current_range_meters":10000,"station_id":"","pricing_plan_id":"cebpf4jnsgd1na2vs0mg"},{"bike_id":"05c639a2-6660-40ed-a12f-85b485fe188e","system_id":"levelo_inurba_marseille","lat":43.29213,"lon":5.35766,"is_reserved":false,"is_disabled":false,"rental_uris":{"android":"levelo://app?vid=05c639a2-6660-40ed-a12f-85b485fe188e","ios":"levelo://app?vid=05c639a2-6660-40ed-a12f-85b485fe188e"},"vehicle_type_id":"4","last_reported":1762563036,"current_range_meters":10000,"station_id":"ce4bhb12rcd13ifvqel0","pricing_plan_id":"cebpf4jnsgd1na2vs0mg"},{"bike_id":"9044cb60-9a9b-44d7-bfc5-5b7ee188f965","system_id":"levelo_inurba_marseille","lat":43.32727,"lon":5.39243,"is_reserved":false,"is_disabled":false,"rental_uris":{"android":"levelo://app?vid=9044cb60-9a9b-44d7-bfc5-5b7ee188f965","ios":"levelo://app?vid=9044cb60-9a9b-44d7-bfc5-5b7ee188f965"},"vehicle_type_id":"4","last_reported":1762563036,"current_range_meters":10000,"station_id":"","pricing_plan_id":"cebpf4jnsgd1na2vs0mg"},{"bike_id":"676f9b84-4eb4-49d4-bb45-1c4cb446cd66","system_id":"levelo_inurba_marseille","lat":43.32977,"lon":5.3902,"is_reserved":false,"is_disabled":false,"rental_uris":{"android":"levelo://app?vid=676f9b84-4eb4-49d4-bb45-1c4cb446cd66","ios":"levelo://app?vid=676f9b84-4eb4-49d4-bb45-1c4cb446cd66"},"vehicle_type_id":"4","last_reported":1762563036,"current_range_meters":10000,"station_id":"ce4bhr92rcd13ifvqhrg","pricing_plan_id":"cebpf4jnsgd1na2vs0mg"},{"bike_id":"a5e4e7ac-bb26-4493-88f8-c9bcbd5c39b8","system_id":"levelo_inurba_marseille","lat":43.29875,"lon":5.39735,"is_reserved":false,"is_disabled":false,"rental_uris":{"android":"levelo://app?vid=a5e4e7ac-bb26-4493-88f8-c9bcbd5c39b8","ios":"levelo://app?vid=a5e4e7ac-bb26-4493-88f8-c9bcbd5c39b8"},"vehicle_type_id":"4","last_reported":1762563036,"current_range_meters":10000,"station_id":"ce4bh0h2rcd13ifvqd50","pricing_plan_id":"cebpf4jnsgd1na2vs0mg"},{"bike_id":"470fbe84-4292-424a-81a1-ddc5d0fc9959","system_id":"levelo_inurba_marseille","lat":43.33792,"lon":5.37434,"is_reserved":false,"is_disabled":false,"rental_uris":{"android":"levelo://app?vid=470fbe84-4292-424a-81a1-ddc5d0fc9959","ios":"levelo://app?vid=470fbe84-4292-424a-81a1-ddc5d0fc9959"},"vehicle_type_id":"4","last_reported":1762563036,"current_range_meters":10000,"station_id":"","pricing_plan_id":"cebpf4jnsgd1na2vs0mg"},{"bike_id":"8595c02e-07cf-41a1-b84b-44575540e6d0","system_id":"levelo_inurba_marseille","lat":43.279501,"lon":5.410727,"is_reserved":false,"is_disabled":false,"rental_uris":{"android":"levelo://app?vid=8595c02e-07cf-41a1-b84b-44575540e6d0","ios":"levelo://app?vid=8595c02e-07cf-41a1-b84b-44575540e6d0"},"vehicle_type_id":"4","last_reported":1762563036,"current_range_meters":10000,"station_id":"ce4bhnp2rcd13ifvqh0g","pricing_plan_id":"cebpf4jnsgd1na2vs0mg"},{"bike_id":"6eca836b-8e76-4ee3-b249-ee2ba6388d48","system_id":"levelo_inurba_marseille","lat":43.27371,"lon":5.36256,"is_reserved":false,"is_disabled":false,"rental_uris":{"android":"levelo://app?vid=6eca836b-8e76-4ee3-b249-ee2ba6388d48","ios":"levelo://app?vid=6eca836b-8e76-4ee3-b249-ee2ba6388d48"},"vehicle_type_id":"4","last_reported":1762563036,"current_range_meters":10000,"station_id":"ce4bhbh2rcd13ifvqeo0","pricing_plan_id":"cebpf4jnsgd1na2vs0mg"},{"bike_id":"2e0f5b64-65ed-42b3-9deb-fc4f03eedfcc","system_id":"levelo_inurba_marseille","lat":43.28514,"lon":5.44104,"is_reserved":false,"is_disabled":false,"rental_uris":{"android":"levelo://app?vid=2e0f5b64-65ed-42b3-9deb-fc4f03eedfcc","ios":"levelo://app?vid=2e0f5b64-65ed-42b3-9deb-fc4f03eedfcc"},"vehicle_type_id":"4","last_reported":1762563036,"current_range_meters":10000,"station_id":"st_d3j3df2ikq2c7380ej80","pricing_plan_id":"cebpf4jnsgd1na2vs0mg"},{"bike_id":"8e6ed807-f053-47d1-b4b3-1f37f36e767e","system_id":"levelo_inurba_marseille","lat":43.26805,"lon":5.40264,"is_reserved":false,"is_disabled":false,"rental_uris":{"android":"levelo://app?vid=8e6ed807-f053-47d1-b4b3-1f37f36e767e","ios":"levelo://app?vid=8e6ed807-f053-47d1-b4b3-1f37f36e767e"},"vehicle_type_id":"4","last_reported":1762563036,"current_range_meters":10800,"station_id":"ce501612rcd8frsf0b60","pricing_plan_id":"cebpf4jnsgd1na2vs0mg"},{"bike_id":"7c392732-2900-41fd-8c6d-e5b49cdf67b5","system_id":"levelo_inurba_marseille","lat":43.297,"lon":5.38273,"is_reserved":false,"is_disabled":false,"rental_uris":{"android":"levelo://app?vid=7c392732-2900-41fd-8c6d-e5b49cdf67b5","ios":"levelo://app?vid=7c392732-2900-41fd-8c6d-e5b49cdf67b5"},"vehicle_type_id":"4","last_reported":1762563036,"current_range_meters":10800,"station_id":"","pricing_plan_id":"cebpf4jnsgd1na2vs0mg"},{"bike_id":"e29dcacd-c5cb-4908-af39-1ab6b3c10bce","system_id":"levelo_inurba_marseille","lat":43.28126,"lon":5.37891,"is_reserved":false,"is_disabled":false,"rental_uris":{"android":"levelo://app?vid=e29dcacd-c5cb-4908-af39-1ab6b3c10bce","ios":"levelo://app?vid=e29dcacd-c5cb-4908-af39-1ab6b3c10bce"},"vehicle_type_id":"4","last_reported":1762563036,"current_range_meters":10800,"station_id":"","pricing_plan_id":"cebpf4jnsgd1na2vs0mg"},{"bike_id":"23d4b732-c785-4a74-a220-93191f06591d","system_id":"levelo_inurba_marseille","lat":43.21207,"lon":5.35085,"is_reserved":false,"is_disabled":true,"rental_uris":{"android":"levelo://app?vid=23d4b732-c785-4a74-a220-93191f06591d","ios":"levelo://app?vid=23d4b732-c785-4a74-a220-93191f06591d"},"vehicle_type_id":"4","last_reported":1762563036,"current_range_meters":10800,"station_id":"st_cvj6sg6p6f1abm77japg","pricing_plan_id":"cebpf4jnsgd1na2vs0mg"},{"bike_id":"3779d62a-4188-4fa8-9d65-b44a91d51290","system_id":"levelo_inurba_marseille","lat":43.30647,"lon":5.40085,"is_reserved":false,"is_disabled":false,"rental_uris":{"android":"levelo://app?vid=3779d62a-4188-4fa8-9d65-b44a91d51290","ios":"levelo://app?vid=3779d62a-4188-4fa8-9d65-b44a91d51290"},"vehicle_type_id":"4","last_reported":1762563036,"current_range_meters":10800,"station_id":"ce4bh112rcd13ifvqda0","pricing_plan_id":"cebpf4jnsgd1na2vs0mg"},{"bike_id":"d0277ba2-2f8b-4c32-85c1-beb6e2b9a9a1","system_id":"levelo_inurba_marseille","lat":43.287351,"lon":5.361187,"is_reserved":false,"is_disabled":false,"rental_uris":{"android":"levelo://app?vid=d0277ba2-2f8b-4c32-85c1-beb6e2b9a9a1","ios":"levelo://app?vid=d0277ba2-2f8b-4c32-85c1-beb6e2b9a9a1"},"vehicle_type_id":"4","last_reported":1762563036,"current_range_meters":11200,"station_id":"cki0cbj6b192h4jlfktg","pricing_plan_id":"cebpf4jnsgd1na2vs0mg"},{"bike_id":"2c54771e-bc90-4fcb-a7c7-984aebd4a9b2","system_id":"levelo_inurba_marseille","lat":43.301252,"lon":5.387748,"is_reserved":false,"is_disabled":false,"rental_uris":{"android":"levelo://app?vid=2c54771e-bc90-4fcb-a7c7-984aebd4a9b2","ios":"levelo://app?vid=2c54771e-bc90-4fcb-a7c7-984aebd4a9b2"},"vehicle_type_id":"4","last_reported":1762563036,"current_range_meters":11200,"station_id":"ce4bghh2rcd13ifvqb60","pricing_plan_id":"cebpf4jnsgd1na2vs0mg"},{"bike_id":"2f0ed50c-7909-4e69-a9f3-6687ab5fb21a","system_id":"levelo_inurba_marseille","lat":43.28706,"lon":5.39978,"is_reserved":false,"is_disabled":false,"rental_uris":{"android":"levelo://app?vid=2f0ed50c-7909-4e69-a9f3-6687ab5fb21a","ios":"levelo://app?vid=2f0ed50c-7909-4e69-a9f3-6687ab5fb21a"},"vehicle_type_id":"4","last_reported":1762563036,"current_range_meters":11200,"station_id":"ce4bho92rcd13ifvqh3g","pricing_plan_id":"cebpf4jnsgd1na2vs0mg"},{"bike_id":"3a6b939b-8483-4a00-8652-d825cdd856d7","system_id":"levelo_inurba_marseille","lat":43.22554,"lon":5.41627,"is_reserved":false,"is_disabled":false,"rental_uris":{"android":"levelo://app?vid=3a6b939b-8483-4a00-8652-d825cdd856d7","ios":"levelo://app?vid=3a6b939b-8483-4a00-8652-d825cdd856d7"},"vehicle_type_id":"4","last_reported":1762563036,"current_range_meters":11200,"station_id":"st_d2o4gvlbi1j2169b742g","pricing_plan_id":"cebpf4jnsgd1na2vs0mg"},{"bike_id":"6d3514be-dfee-46cc-bfee-8c904bda9a90","system_id":"levelo_inurba_marseille","lat":43.30909,"lon":5.36837,"is_reserved":false,"is_disabled":false,"rental_uris":{"android":"levelo://app?vid=6d3514be-dfee-46cc-bfee-8c904bda9a90","ios":"levelo://app?vid=6d3514be-dfee-46cc-bfee-8c904bda9a90"},"vehicle_type_id":"4","last_reported":1762563036,"current_range_meters":11600,"station_id":"ce4bgn92rcd13ifvqbvg","pricing_plan_id":"cebpf4jnsgd1na2vs0mg"},{"bike_id":"36db703b-11ad-4e15-ae08-c6e09ea93bd4","system_id":"levelo_inurba_marseille","lat":43.24806,"lon":5.37457,"is_reserved":false,"is_disabled":false,"rental_uris":{"android":"levelo://app?vid=36db703b-11ad-4e15-ae08-c6e09ea93bd4","ios":"levelo://app?vid=36db703b-11ad-4e15-ae08-c6e09ea93bd4"},"vehicle_type_id":"4","last_reported":1762563036,"current_range_meters":11600,"station_id":"ce4bhgh2rcd13ifvqfb0","pricing_plan_id":"cebpf4jnsgd1na2vs0mg"},{"bike_id":"6d56070e-96af-4ebf-abd3-b4bfc547cdf4","system_id":"levelo_inurba_marseille","lat":43.2794,"lon":5.41055,"is_reserved":false,"is_disabled":false,"rental_uris":{"android":"levelo://app?vid=6d56070e-96af-4ebf-abd3-b4bfc547cdf4","ios":"levelo://app?vid=6d56070e-96af-4ebf-abd3-b4bfc547cdf4"},"vehicle_type_id":"4","last_reported":1762563036,"current_range_meters":11600,"station_id":"ce4bhnp2rcd13ifvqh0g","pricing_plan_id":"cebpf4jnsgd1na2vs0mg"},{"bike_id":"8173a514-ee0e-4d13-a5c7-5b8de0dd9a8d","system_id":"levelo_inurba_marseille","lat":43.26567,"lon":5.40324,"is_reserved":false,"is_disabled":false,"rental_uris":{"android":"levelo://app?vid=8173a514-ee0e-4d13-a5c7-5b8de0dd9a8d","ios":"levelo://app?vid=8173a514-ee0e-4d13-a5c7-5b8de0dd9a8d"},"vehicle_type_id":"4","last_reported":1762563036,"current_range_meters":11600,"station_id":"ce4bhmp2rcd13ifvqgng","pricing_plan_id":"cebpf4jnsgd1na2vs0mg"},{"bike_id":"20b70735-1140-4388-9251-8a1b26695a7d","system_id":"levelo_inurba_marseille","lat":43.27896,"lon":5.37982,"is_reserved":false,"is_disabled":false,"rental_uris":{"android":"levelo://app?vid=20b70735-1140-4388-9251-8a1b26695a7d","ios":"levelo://app?vid=20b70735-1140-4388-9251-8a1b26695a7d"},"vehicle_type_id":"4","last_reported":1762563036,"current_range_meters":11600,"station_id":"ce4bhf92rcd13ifvqf50","pricing_plan_id":"cebpf4jnsgd1na2vs0mg"},{"bike_id":"a0ea519d-554f-42a0-93a3-d4c181552c78","system_id":"levelo_inurba_marseille","lat":43.31276,"lon":5.37757,"is_reserved":false,"is_disabled":false,"rental_uris":{"android":"levelo://app?vid=a0ea519d-554f-42a0-93a3-d4c181552c78","ios":"levelo://app?vid=a0ea519d-554f-42a0-93a3-d4c181552c78"},"vehicle_type_id":"4","last_reported":1762563036,"current_range_meters":11600,"station_id":"","pricing_plan_id":"cebpf4jnsgd1na2vs0mg"},{"bike_id":"78bd5f74-b07f-4aac-b566-26ecec6fd5df","system_id":"levelo_inurba_marseille","lat":43.30676,"lon":5.38047,"is_reserved":false,"is_disabled":false,"rental_uris":{"android":"levelo://app?vid=78bd5f74-b07f-4aac-b566-26ecec6fd5df","ios":"levelo://app?vid=78bd5f74-b07f-4aac-b566-26ecec6fd5df"},"vehicle_type_id":"4","last_reported":1762563036,"current_range_meters":11600,"station_id":"","pricing_plan_id":"cebpf4jnsgd1na2vs0mg"},{"bike_id":"310115a0-7bf2-4a4a-9d53-56bf6918e4d0","system_id":"levelo_inurba_marseille","lat":43.28492,"lon":5.48399,"is_reserved":false,"is_disabled":false,"rental_uris":{"android":"levelo://app?vid=310115a0-7bf2-4a4a-9d53-56bf6918e4d0","ios":"levelo://app?vid=310115a0-7bf2-4a4a-9d53-56bf6918e4d0"},"vehicle_type_id":"4","last_reported":1762563036,"current_range_meters":12000,"station_id":"st_d3svhcjqgbts73a3dn0g","pricing_plan_id":"cebpf4jnsgd1na2vs0mg"},{"bike_id":"080a4aed-f794-4ef5-89ad-6db05d795227","system_id":"levelo_inurba_marseille","lat":43.29605,"lon":5.37736,"is_reserved":false,"is_disabled":false,"rental_uris":{"android":"levelo://app?vid=080a4aed-f794-4ef5-89ad-6db05d795227","ios":"levelo://app?vid=080a4aed-f794-4ef5-89ad-6db05d795227"},"vehicle_type_id":"4","last_reported":1762563036,"current_range_meters":12000,"station_id":"ce4bgi92rcd13ifvqb90","pricing_plan_id":"cebpf4jnsgd1na2vs0mg"},{"bike_id":"3041d0de-5c48-4360-96e9-2a3e05a00570","system_id":"levelo_inurba_marseille","lat":43.30434,"lon":5.38889,"is_reserved":false,"is_disabled":false,"rental_uris":{"android":"levelo://app?vid=3041d0de-5c48-4360-96e9-2a3e05a00570","ios":"levelo://app?vid=3041d0de-5c48-4360-96e9-2a3e05a00570"},"vehicle_type_id":"4","last_reported":1762563036,"current_range_meters":12000,"station_id":"ce4bgk12rcd13ifvqbi0","pricing_plan_id":"cebpf4jnsgd1na2vs0mg"},{"bike_id":"22918fb7-a391-4f35-8c21-8eb60e2ab03f","system_id":"levelo_inurba_marseille","lat":43.22556,"lon":5.41612,"is_reserved":false,"is_disabled":false,"rental_uris":{"android":"levelo://app?vid=22918fb7-a391-4f35-8c21-8eb60e2ab03f","ios":"levelo://app?vid=22918fb7-a391-4f35-8c21-8eb60e2ab03f"},"vehicle_type_id":"4","last_reported":1762563036,"current_range_meters":12000,"station_id":"st_d2o4gvlbi1j2169b742g","pricing_plan_id":"cebpf4jnsgd1na2vs0mg"},{"bike_id":"64e92a6a-2f45-455b-ba80-b4124ff82d6a","system_id":"levelo_inurba_marseille","lat":43.3081,"lon":5.37657,"is_reserved":false,"is_disabled":false,"rental_uris":{"android":"levelo://app?vid=64e92a6a-2f45-455b-ba80-b4124ff82d6a","ios":"levelo://app?vid=64e92a6a-2f45-455b-ba80-b4124ff82d6a"},"vehicle_type_id":"4","last_reported":1762563036,"current_range_meters":12000,"station_id":"ce4bgv92rcd13ifvqcq0","pricing_plan_id":"cebpf4jnsgd1na2vs0mg"},{"bike_id":"a88522c2-7f31-460d-8b59-1c10109fed19","system_id":"levelo_inurba_marseille","lat":43.31421,"lon":5.37603,"is_reserved":false,"is_disabled":false,"rental_uris":{"android":"levelo://app?vid=a88522c2-7f31-460d-8b59-1c10109fed19","ios":"levelo://app?vid=a88522c2-7f31-460d-8b59-1c10109fed19"},"vehicle_type_id":"4","last_reported":1762563036,"current_range_meters":12000,"station_id":"","pricing_plan_id":"cebpf4jnsgd1na2vs0mg"},{"bike_id":"3771f242-ebc1-4678-84d4-230be10e9f54","system_id":"levelo_inurba_marseille","lat":43.25321,"lon":5.42164,"is_reserved":false,"is_disabled":false,"rental_uris":{"android":"levelo://app?vid=3771f242-ebc1-4678-84d4-230be10e9f54","ios":"levelo://app?vid=3771f242-ebc1-4678-84d4-230be10e9f54"},"vehicle_type_id":"4","last_reported":1762563036,"current_range_meters":12000,"station_id":"st_d2m65c5bi1j21697t3ng","pricing_plan_id":"cebpf4jnsgd1na2vs0mg"},{"bike_id":"d068a1f6-0ce9-4d94-8ac2-f615b8bc2741","system_id":"levelo_inurba_marseille","lat":43.259371,"lon":5.409,"is_reserved":false,"is_disabled":false,"rental_uris":{"android":"levelo://app?vid=d068a1f6-0ce9-4d94-8ac2-f615b8bc2741","ios":"levelo://app?vid=d068a1f6-0ce9-4d94-8ac2-f615b8bc2741"},"vehicle_type_id":"4","last_reported":1762563036,"current_range_meters":12000,"station_id":"ce4bhm92rcd13ifvqglg","pricing_plan_id":"cebpf4jnsgd1na2vs0mg"},{"bike_id":"c2fd9b3e-a325-4d53-9de4-0fa9dd2f694e","system_id":"levelo_inurba_marseille","lat":43.25115,"lon":5.39454,"is_reserved":false,"is_disabled":false,"rental_uris":{"android":"levelo://app?vid=c2fd9b3e-a325-4d53-9de4-0fa9dd2f694e","ios":"levelo://app?vid=c2fd9b3e-a325-4d53-9de4-0fa9dd2f694e"},"vehicle_type_id":"4","last_reported":1762563036,"current_range_meters":12000,"station_id":"ce4bhm12rcd13ifvqgkg","pricing_plan_id":"cebpf4jnsgd1na2vs0mg"},{"bike_id":"fd658234-bc11-47f9-aa2d-b6e9ecd08417","system_id":"levelo_inurba_marseille","lat":43.32491,"lon":5.3669,"is_reserved":false,"is_disabled":false,"rental_uris":{"android":"levelo://app?vid=fd658234-bc11-47f9-aa2d-b6e9ecd08417","ios":"levelo://app?vid=fd658234-bc11-47f9-aa2d-b6e9ecd08417"},"vehicle_type_id":"4","last_reported":1762563036,"current_range_meters":12000,"station_id":"","pricing_plan_id":"cebpf4jnsgd1na2vs0mg"},{"bike_id":"1fc35272-0ccf-4c56-8da4-484c85b58a59","system_id":"levelo_inurba_marseille","lat":43.27946,"lon":5.38725,"is_reserved":false,"is_disabled":false,"rental_uris":{"android":"levelo://app?vid=1fc35272-0ccf-4c56-8da4-484c85b58a59","ios":"levelo://app?vid=1fc35272-0ccf-4c56-8da4-484c85b58a59"},"vehicle_type_id":"4","last_reported":1762563036,"current_range_meters":12000,"station_id":"ce4bhg12rcd13ifvqf80","pricing_plan_id":"cebpf4jnsgd1na2vs0mg"},{"bike_id":"28731ee2-3f6c-441a-810e-5b7ef268b4a3","system_id":"levelo_inurba_marseille","lat":43.29927,"lon":5.36525,"is_reserved":false,"is_disabled":false,"rental_uris":{"android":"levelo://app?vid=28731ee2-3f6c-441a-810e-5b7ef268b4a3","ios":"levelo://app?vid=28731ee2-3f6c-441a-810e-5b7ef268b4a3"},"vehicle_type_id":"4","last_reported":1762563036,"current_range_meters":12400,"station_id":"ce4bgm92rcd13ifvqbr0","pricing_plan_id":"cebpf4jnsgd1na2vs0mg"},{"bike_id":"4548bfb3-06f4-4b10-aaa4-465cca5b7e05","system_id":"levelo_inurba_marseille","lat":43.285363,"lon":5.441053,"is_reserved":false,"is_disabled":false,"rental_uris":{"android":"levelo://app?vid=4548bfb3-06f4-4b10-aaa4-465cca5b7e05","ios":"levelo://app?vid=4548bfb3-06f4-4b10-aaa4-465cca5b7e05"},"vehicle_type_id":"4","last_reported":1762563036,"current_range_meters":12400,"station_id":"st_d3j3df2ikq2c7380ej80","pricing_plan_id":"cebpf4jnsgd1na2vs0mg"},{"bike_id":"755efed8-d4cd-4607-b2ac-87dbb7cf66a0","system_id":"levelo_inurba_marseille","lat":43.31722,"lon":5.37755,"is_reserved":false,"is_disabled":false,"rental_uris":{"android":"levelo://app?vid=755efed8-d4cd-4607-b2ac-87dbb7cf66a0","ios":"levelo://app?vid=755efed8-d4cd-4607-b2ac-87dbb7cf66a0"},"vehicle_type_id":"4","last_reported":1762563036,"current_range_meters":12400,"station_id":"ce4bgth2rcd13ifvqch0","pricing_plan_id":"cebpf4jnsgd1na2vs0mg"},{"bike_id":"dff6b6ac-b7da-4e65-b854-fe9dc1ccc19c","system_id":"levelo_inurba_marseille","lat":43.32028,"lon":5.41583,"is_reserved":false,"is_disabled":true,"rental_uris":{"android":"levelo://app?vid=dff6b6ac-b7da-4e65-b854-fe9dc1ccc19c","ios":"levelo://app?vid=dff6b6ac-b7da-4e65-b854-fe9dc1ccc19c"},"vehicle_type_id":"4","last_reported":1762563036,"current_range_meters":12400,"station_id":"ce4bhq92rcd13ifvqhkg","pricing_plan_id":"cebpf4jnsgd1na2vs0mg"},{"bike_id":"7445542b-a131-4a79-8f44-1d5142ee5b2c","system_id":"levelo_inurba_marseille","lat":43.27944,"lon":5.41043,"is_reserved":false,"is_disabled":false,"rental_uris":{"android":"levelo://app?vid=7445542b-a131-4a79-8f44-1d5142ee5b2c","ios":"levelo://app?vid=7445542b-a131-4a79-8f44-1d5142ee5b2c"},"vehicle_type_id":"4","last_reported":1762563036,"current_range_meters":12400,"station_id":"ce4bhnp2rcd13ifvqh0g","pricing_plan_id":"cebpf4jnsgd1na2vs0mg"},{"bike_id":"401209f9-1098-407a-9275-182f209531f6","system_id":"levelo_inurba_marseille","lat":43.29558,"lon":5.42281,"is_reserved":false,"is_disabled":false,"rental_uris":{"android":"levelo://app?vid=401209f9-1098-407a-9275-182f209531f6","ios":"levelo://app?vid=401209f9-1098-407a-9275-182f209531f6"},"vehicle_type_id":"4","last_reported":1762563036,"current_range_meters":12400,"station_id":"ce4bhph2rcd13ifvqhdg","pricing_plan_id":"cebpf4jnsgd1na2vs0mg"},{"bike_id":"dc1f4486-298e-4362-a69d-a92e9ed3fa15","system_id":"levelo_inurba_marseille","lat":43.2794,"lon":5.41036,"is_reserved":false,"is_disabled":false,"rental_uris":{"android":"levelo://app?vid=dc1f4486-298e-4362-a69d-a92e9ed3fa15","ios":"levelo://app?vid=dc1f4486-298e-4362-a69d-a92e9ed3fa15"},"vehicle_type_id":"4","last_reported":1762563036,"current_range_meters":12400,"station_id":"ce4bhnp2rcd13ifvqh0g","pricing_plan_id":"cebpf4jnsgd1na2vs0mg"},{"bike_id":"6dd7f2d7-7298-4b82-8e85-a82909dc3911","system_id":"levelo_inurba_marseille","lat":43.29369,"lon":5.37838,"is_reserved":false,"is_disabled":false,"rental_uris":{"android":"levelo://app?vid=6dd7f2d7-7298-4b82-8e85-a82909dc3911","ios":"levelo://app?vid=6dd7f2d7-7298-4b82-8e85-a82909dc3911"},"vehicle_type_id":"4","last_reported":1762563036,"current_range_meters":12800,"station_id":"ce4bgjh2rcd13ifvqbf0","pricing_plan_id":"cebpf4jnsgd1na2vs0mg"},{"bike_id":"9af0687b-3e79-4e11-b844-dd239618aeba","system_id":"levelo_inurba_marseille","lat":43.28871,"lon":5.42516,"is_reserved":false,"is_disabled":false,"rental_uris":{"android":"levelo://app?vid=9af0687b-3e79-4e11-b844-dd239618aeba","ios":"levelo://app?vid=9af0687b-3e79-4e11-b844-dd239618aeba"},"vehicle_type_id":"4","last_reported":1762563036,"current_range_meters":12800,"station_id":"st_d3b462108ojc7389ooeg","pricing_plan_id":"cebpf4jnsgd1na2vs0mg"},{"bike_id":"02baab9e-f010-472a-83b5-1756997a623d","system_id":"levelo_inurba_marseille","lat":43.25821,"lon":5.39435,"is_reserved":false,"is_disabled":false,"rental_uris":{"android":"levelo://app?vid=02baab9e-f010-472a-83b5-1756997a623d","ios":"levelo://app?vid=02baab9e-f010-472a-83b5-1756997a623d"},"vehicle_type_id":"4","last_reported":1762563036,"current_range_meters":12800,"station_id":"ce4bhip2rcd13ifvqft0","pricing_plan_id":"cebpf4jnsgd1na2vs0mg"},{"bike_id":"ce9aaa36-d58f-45ea-bd7b-726e3e03e763","system_id":"levelo_inurba_marseille","lat":43.25324,"lon":5.42154,"is_reserved":false,"is_disabled":false,"rental_uris":{"android":"levelo://app?vid=ce9aaa36-d58f-45ea-bd7b-726e3e03e763","ios":"levelo://app?vid=ce9aaa36-d58f-45ea-bd7b-726e3e03e763"},"vehicle_type_id":"4","last_reported":1762563036,"current_range_meters":13600,"station_id":"st_d2m65c5bi1j21697t3ng","pricing_plan_id":"cebpf4jnsgd1na2vs0mg"},{"bike_id":"b4733d66-d7b1-4fbe-bcb5-828d219bcfb8","system_id":"levelo_inurba_marseille","lat":43.26493,"lon":5.39539,"is_reserved":false,"is_disabled":false,"rental_uris":{"android":"levelo://app?vid=b4733d66-d7b1-4fbe-bcb5-828d219bcfb8","ios":"levelo://app?vid=b4733d66-d7b1-4fbe-bcb5-828d219bcfb8"},"vehicle_type_id":"4","last_reported":1762563036,"current_range_meters":13600,"station_id":"ce4bhi12rcd13ifvqfq0","pricing_plan_id":"cebpf4jnsgd1na2vs0mg"},{"bike_id":"943e363a-8e80-4604-b931-995f849ded7d","system_id":"levelo_inurba_marseille","lat":43.30936,"lon":5.40142,"is_reserved":false,"is_disabled":false,"rental_uris":{"android":"levelo://app?vid=943e363a-8e80-4604-b931-995f849ded7d","ios":"levelo://app?vid=943e363a-8e80-4604-b931-995f849ded7d"},"vehicle_type_id":"4","last_reported":1762563036,"current_range_meters":13600,"station_id":"ce4bgvp2rcd13ifvqct0","pricing_plan_id":"cebpf4jnsgd1na2vs0mg"},{"bike_id":"03f9e2eb-b6e1-42ac-8329-1a3aa517fb6a","system_id":"levelo_inurba_marseille","lat":43.27205,"lon":5.39177,"is_reserved":false,"is_disabled":false,"rental_uris":{"android":"levelo://app?vid=03f9e2eb-b6e1-42ac-8329-1a3aa517fb6a","ios":"levelo://app?vid=03f9e2eb-b6e1-42ac-8329-1a3aa517fb6a"},"vehicle_type_id":"4","last_reported":1762563036,"current_range_meters":13600,"station_id":"ce4bhhp2rcd13ifvqfm0","pricing_plan_id":"cebpf4jnsgd1na2vs0mg"},{"bike_id":"33365ad1-b006-44dd-ba50-5e18cf5d9fee","system_id":"levelo_inurba_marseille","lat":43.28492,"lon":5.38431,"is_reserved":false,"is_disabled":false,"rental_uris":{"android":"levelo://app?vid=33365ad1-b006-44dd-ba50-5e18cf5d9fee","ios":"levelo://app?vid=33365ad1-b006-44dd-ba50-5e18cf5d9fee"},"vehicle_type_id":"4","last_reported":1762563036,"current_range_meters":13600,"station_id":"ce4bh512rcd13ifvqe3g","pricing_plan_id":"cebpf4jnsgd1na2vs0mg"},{"bike_id":"0d9cde86-b068-407f-92dd-cfc8f7dce5ad","system_id":"levelo_inurba_marseille","lat":43.28706,"lon":5.37379,"is_reserved":false,"is_disabled":false,"rental_uris":{"android":"levelo://app?vid=0d9cde86-b068-407f-92dd-cfc8f7dce5ad","ios":"levelo://app?vid=0d9cde86-b068-407f-92dd-cfc8f7dce5ad"},"vehicle_type_id":"4","last_reported":1762563036,"current_range_meters":13600,"station_id":"ce4bh3p2rcd13ifvqdq0","pricing_plan_id":"cebpf4jnsgd1na2vs0mg"},{"bike_id":"3b8f2182-a2c3-4036-9d57-40d40ffba16a","system_id":"levelo_inurba_marseille","lat":43.31183,"lon":5.38705,"is_reserved":false,"is_disabled":false,"rental_uris":{"android":"levelo://app?vid=3b8f2182-a2c3-4036-9d57-40d40ffba16a","ios":"levelo://app?vid=3b8f2182-a2c3-4036-9d57-40d40ffba16a"},"vehicle_type_id":"4","last_reported":1762563036,"current_range_meters":13600,"station_id":"ce4bgv12rcd13ifvqcp0","pricing_plan_id":"cebpf4jnsgd1na2vs0mg"},{"bike_id":"cbaf6e70-be37-4c92-8bb7-677f9be0a37d","system_id":"levelo_inurba_marseille","lat":43.30132,"lon":5.43122,"is_reserved":false,"is_disabled":false,"rental_uris":{"android":"levelo://app?vid=cbaf6e70-be37-4c92-8bb7-677f9be0a37d","ios":"levelo://app?vid=cbaf6e70-be37-4c92-8bb7-677f9be0a37d"},"vehicle_type_id":"4","last_reported":1762563036,"current_range_meters":13600,"station_id":"st_d3js3co5814s73ftftug","pricing_plan_id":"cebpf4jnsgd1na2vs0mg"},{"bike_id":"416ce8c1-37b5-43f5-a171-514788ff0f22","system_id":"levelo_inurba_marseille","lat":43.30789,"lon":5.38165,"is_reserved":false,"is_disabled":false,"rental_uris":{"android":"levelo://app?vid=416ce8c1-37b5-43f5-a171-514788ff0f22","ios":"levelo://app?vid=416ce8c1-37b5-43f5-a171-514788ff0f22"},"vehicle_type_id":"4","last_reported":1762563036,"current_range_meters":13600,"station_id":"ce4bgt12rcd13ifvqce0","pricing_plan_id":"cebpf4jnsgd1na2vs0mg"},{"bike_id":"2d26e192-fd5b-4a30-8462-7bbb633443c2","system_id":"levelo_inurba_marseille","lat":43.26574,"lon":5.39007,"is_reserved":false,"is_disabled":false,"rental_uris":{"android":"levelo://app?vid=2d26e192-fd5b-4a30-8462-7bbb633443c2","ios":"levelo://app?vid=2d26e192-fd5b-4a30-8462-7bbb633443c2"},"vehicle_type_id":"4","last_reported":1762563036,"current_range_meters":13600,"station_id":"ce4bhe12rcd13ifvqf30","pricing_plan_id":"cebpf4jnsgd1na2vs0mg"},{"bike_id":"c363dd9b-0c75-4898-b8c2-045a76b3b093","system_id":"levelo_inurba_marseille","lat":43.30884,"lon":5.39158,"is_reserved":false,"is_disabled":false,"rental_uris":{"android":"levelo://app?vid=c363dd9b-0c75-4898-b8c2-045a76b3b093","ios":"levelo://app?vid=c363dd9b-0c75-4898-b8c2-045a76b3b093"},"vehicle_type_id":"4","last_reported":1762563036,"current_range_meters":13600,"station_id":"","pricing_plan_id":"cebpf4jnsgd1na2vs0mg"},{"bike_id":"3dc57022-214a-4895-b3f5-73d1bdd5feea","system_id":"levelo_inurba_marseille","lat":43.30765,"lon":5.42449,"is_reserved":false,"is_disabled":false,"rental_uris":{"android":"levelo://app?vid=3dc57022-214a-4895-b3f5-73d1bdd5feea","ios":"levelo://app?vid=3dc57022-214a-4895-b3f5-73d1bdd5feea"},"vehicle_type_id":"4","last_reported":1762563036,"current_range_meters":14000,"station_id":"st_cvj6ca6bvosntc0bfgr0","pricing_plan_id":"cebpf4jnsgd1na2vs0mg"},{"bike_id":"d5bdcfe9-8252-4549-9d2d-a7b5cfe47f4f","system_id":"levelo_inurba_marseille","lat":43.2794,"lon":5.41048,"is_reserved":false,"is_disabled":false,"rental_uris":{"android":"levelo://app?vid=d5bdcfe9-8252-4549-9d2d-a7b5cfe47f4f","ios":"levelo://app?vid=d5bdcfe9-8252-4549-9d2d-a7b5cfe47f4f"},"vehicle_type_id":"4","last_reported":1762563036,"current_range_meters":14000,"station_id":"ce4bhnp2rcd13ifvqh0g","pricing_plan_id":"cebpf4jnsgd1na2vs0mg"},{"bike_id":"2f373a5f-e6e9-4abe-805d-f20b12d39ee9","system_id":"levelo_inurba_marseille","lat":43.24951,"lon":5.40491,"is_reserved":false,"is_disabled":false,"rental_uris":{"android":"levelo://app?vid=2f373a5f-e6e9-4abe-805d-f20b12d39ee9","ios":"levelo://app?vid=2f373a5f-e6e9-4abe-805d-f20b12d39ee9"},"vehicle_type_id":"4","last_reported":1762563036,"current_range_meters":14400,"station_id":"st_d2ngiaodas8pm72gd1h0","pricing_plan_id":"cebpf4jnsgd1na2vs0mg"},{"bike_id":"1bb7e286-15c2-4266-bbbe-743b71b45482","system_id":"levelo_inurba_marseille","lat":43.28704,"lon":5.3998,"is_reserved":false,"is_disabled":false,"rental_uris":{"android":"levelo://app?vid=1bb7e286-15c2-4266-bbbe-743b71b45482","ios":"levelo://app?vid=1bb7e286-15c2-4266-bbbe-743b71b45482"},"vehicle_type_id":"4","last_reported":1762563036,"current_range_meters":14400,"station_id":"ce4bho92rcd13ifvqh3g","pricing_plan_id":"cebpf4jnsgd1na2vs0mg"},{"bike_id":"25b5592b-971d-495a-b72c-d7d4eaabefb2","system_id":"levelo_inurba_marseille","lat":43.27361,"lon":5.36248,"is_reserved":false,"is_disabled":false,"rental_uris":{"android":"levelo://app?vid=25b5592b-971d-495a-b72c-d7d4eaabefb2","ios":"levelo://app?vid=25b5592b-971d-495a-b72c-d7d4eaabefb2"},"vehicle_type_id":"4","last_reported":1762563036,"current_range_meters":14400,"station_id":"ce4bhbh2rcd13ifvqeo0","pricing_plan_id":"cebpf4jnsgd1na2vs0mg"},{"bike_id":"103c3560-0792-4a35-a10f-dfa60eac8241","system_id":"levelo_inurba_marseille","lat":43.29909,"lon":5.37471,"is_reserved":false,"is_disabled":false,"rental_uris":{"android":"levelo://app?vid=103c3560-0792-4a35-a10f-dfa60eac8241","ios":"levelo://app?vid=103c3560-0792-4a35-a10f-dfa60eac8241"},"vehicle_type_id":"4","last_reported":1762563036,"current_range_meters":14400,"station_id":"ce4bgjh2rcd13ifvqbg0","pricing_plan_id":"cebpf4jnsgd1na2vs0mg"},{"bike_id":"ccccae5d-f0e8-4090-9069-7db18ab3a1dc","system_id":"levelo_inurba_marseille","lat":43.25115,"lon":5.40321,"is_reserved":false,"is_disabled":false,"rental_uris":{"android":"levelo://app?vid=ccccae5d-f0e8-4090-9069-7db18ab3a1dc","ios":"levelo://app?vid=ccccae5d-f0e8-4090-9069-7db18ab3a1dc"},"vehicle_type_id":"4","last_reported":1762563036,"current_range_meters":14400,"station_id":"ce4bhlh2rcd13ifvqgig","pricing_plan_id":"cebpf4jnsgd1na2vs0mg"},{"bike_id":"d84fb46f-2bce-415e-a6fa-4d5ea957c10a","system_id":"levelo_inurba_marseille","lat":43.27943,"lon":5.41042,"is_reserved":false,"is_disabled":false,"rental_uris":{"android":"levelo://app?vid=d84fb46f-2bce-415e-a6fa-4d5ea957c10a","ios":"levelo://app?vid=d84fb46f-2bce-415e-a6fa-4d5ea957c10a"},"vehicle_type_id":"4","last_reported":1762563036,"current_range_meters":14400,"station_id":"ce4bhnp2rcd13ifvqh0g","pricing_plan_id":"cebpf4jnsgd1na2vs0mg"},{"bike_id":"1bf477b3-55e6-4f59-a7a7-7034928d8403","system_id":"levelo_inurba_marseille","lat":43.253399,"lon":5.421708,"is_reserved":false,"is_disabled":false,"rental_uris":{"android":"levelo://app?vid=1bf477b3-55e6-4f59-a7a7-7034928d8403","ios":"levelo://app?vid=1bf477b3-55e6-4f59-a7a7-7034928d8403"},"vehicle_type_id":"4","last_reported":1762563036,"current_range_meters":14400,"station_id":"st_d2m65c5bi1j21697t3ng","pricing_plan_id":"cebpf4jnsgd1na2vs0mg"},{"bike_id":"a4b610ef-5dc5-47fb-9228-87e17fe490d3","system_id":"levelo_inurba_marseille","lat":43.27063,"lon":5.42277,"is_reserved":false,"is_disabled":false,"rental_uris":{"android":"levelo://app?vid=a4b610ef-5dc5-47fb-9228-87e17fe490d3","ios":"levelo://app?vid=a4b610ef-5dc5-47fb-9228-87e17fe490d3"},"vehicle_type_id":"4","last_reported":1762563036,"current_range_meters":14400,"station_id":"ce4bhk92rcd13ifvqgb0","pricing_plan_id":"cebpf4jnsgd1na2vs0mg"},{"bike_id":"73e8b4d0-6947-4537-a8dc-a0b1edefe58e","system_id":"levelo_inurba_marseille","lat":43.26503,"lon":5.39534,"is_reserved":false,"is_disabled":false,"rental_uris":{"android":"levelo://app?vid=73e8b4d0-6947-4537-a8dc-a0b1edefe58e","ios":"levelo://app?vid=73e8b4d0-6947-4537-a8dc-a0b1edefe58e"},"vehicle_type_id":"4","last_reported":1762563036,"current_range_meters":14400,"station_id":"ce4bhi12rcd13ifvqfq0","pricing_plan_id":"cebpf4jnsgd1na2vs0mg"},{"bike_id":"351d5784-0ce5-4dfc-930a-badf6f94d1ff","system_id":"levelo_inurba_marseille","lat":43.29844,"lon":5.36269,"is_reserved":false,"is_disabled":false,"rental_uris":{"android":"levelo://app?vid=351d5784-0ce5-4dfc-930a-badf6f94d1ff","ios":"levelo://app?vid=351d5784-0ce5-4dfc-930a-badf6f94d1ff"},"vehicle_type_id":"4","last_reported":1762563036,"current_range_meters":14400,"station_id":"ce4bgpp2rcd13ifvqc3g","pricing_plan_id":"cebpf4jnsgd1na2vs0mg"},{"bike_id":"4a455362-a1ad-473d-8b6e-9efc8dd1be98","system_id":"levelo_inurba_marseille","lat":43.279395,"lon":5.410385,"is_reserved":false,"is_disabled":false,"rental_uris":{"android":"levelo://app?vid=4a455362-a1ad-473d-8b6e-9efc8dd1be98","ios":"levelo://app?vid=4a455362-a1ad-473d-8b6e-9efc8dd1be98"},"vehicle_type_id":"4","last_reported":1762563036,"current_range_meters":14400,"station_id":"ce4bhnp2rcd13ifvqh0g","pricing_plan_id":"cebpf4jnsgd1na2vs0mg"},{"bike_id":"7a399f82-0892-45c9-a828-80f939bd334e","system_id":"levelo_inurba_marseille","lat":43.27369,"lon":5.36252,"is_reserved":false,"is_disabled":false,"rental_uris":{"android":"levelo://app?vid=7a399f82-0892-45c9-a828-80f939bd334e","ios":"levelo://app?vid=7a399f82-0892-45c9-a828-80f939bd334e"},"vehicle_type_id":"4","last_reported":1762563036,"current_range_meters":14800,"station_id":"ce4bhbh2rcd13ifvqeo0","pricing_plan_id":"cebpf4jnsgd1na2vs0mg"},{"bike_id":"437fcb3c-9065-415d-9c38-eb7b56cf4f44","system_id":"levelo_inurba_marseille","lat":43.28856,"lon":5.39326,"is_reserved":false,"is_disabled":false,"rental_uris":{"android":"levelo://app?vid=437fcb3c-9065-415d-9c38-eb7b56cf4f44","ios":"levelo://app?vid=437fcb3c-9065-415d-9c38-eb7b56cf4f44"},"vehicle_type_id":"4","last_reported":1762563036,"current_range_meters":14800,"station_id":"ce4bh2p2rcd13ifvqdi0","pricing_plan_id":"cebpf4jnsgd1na2vs0mg"},{"bike_id":"3be16121-a8f2-4fb9-ac02-e34a1b3a6ae2","system_id":"levelo_inurba_marseille","lat":43.28043,"lon":5.36939,"is_reserved":false,"is_disabled":false,"rental_uris":{"android":"levelo://app?vid=3be16121-a8f2-4fb9-ac02-e34a1b3a6ae2","ios":"levelo://app?vid=3be16121-a8f2-4fb9-ac02-e34a1b3a6ae2"},"vehicle_type_id":"4","last_reported":1762563036,"current_range_meters":14800,"station_id":"ce4bha12rcd13ifvqef0","pricing_plan_id":"cebpf4jnsgd1na2vs0mg"},{"bike_id":"dd9b39b5-540b-4a91-b815-c4fa9ce31035","system_id":"levelo_inurba_marseille","lat":43.28276,"lon":5.35078,"is_reserved":false,"is_disabled":false,"rental_uris":{"android":"levelo://app?vid=dd9b39b5-540b-4a91-b815-c4fa9ce31035","ios":"levelo://app?vid=dd9b39b5-540b-4a91-b815-c4fa9ce31035"},"vehicle_type_id":"4","last_reported":1762563036,"current_range_meters":14800,"station_id":"ce4bhbp2rcd13ifvqerg","pricing_plan_id":"cebpf4jnsgd1na2vs0mg"},{"bike_id":"d510b29d-06c6-4a67-8cee-2182097a14e2","system_id":"levelo_inurba_marseille","lat":43.292679,"lon":5.376151,"is_reserved":false,"is_disabled":true,"rental_uris":{"android":"levelo://app?vid=d510b29d-06c6-4a67-8cee-2182097a14e2","ios":"levelo://app?vid=d510b29d-06c6-4a67-8cee-2182097a14e2"},"vehicle_type_id":"4","last_reported":1762563036,"current_range_meters":15200,"station_id":"ce4bgi12rcd13ifvqb80","pricing_plan_id":"cebpf4jnsgd1na2vs0mg"},{"bike_id":"f1190c82-ed58-407e-8942-cf42408725a9","system_id":"levelo_inurba_marseille","lat":43.286861,"lon":5.39998,"is_reserved":false,"is_disabled":false,"rental_uris":{"android":"levelo://app?vid=f1190c82-ed58-407e-8942-cf42408725a9","ios":"levelo://app?vid=f1190c82-ed58-407e-8942-cf42408725a9"},"vehicle_type_id":"4","last_reported":1762563036,"current_range_meters":15200,"station_id":"ce4bho92rcd13ifvqh3g","pricing_plan_id":"cebpf4jnsgd1na2vs0mg"},{"bike_id":"b866c304-9b9c-42ba-b5e2-2e4a7ebd49d7","system_id":"levelo_inurba_marseille","lat":43.29763,"lon":5.38097,"is_reserved":false,"is_disabled":true,"rental_uris":{"android":"levelo://app?vid=b866c304-9b9c-42ba-b5e2-2e4a7ebd49d7","ios":"levelo://app?vid=b866c304-9b9c-42ba-b5e2-2e4a7ebd49d7"},"vehicle_type_id":"4","last_reported":1762563036,"current_range_meters":15200,"station_id":"ce4bgip2rcd13ifvqbb0","pricing_plan_id":"cebpf4jnsgd1na2vs0mg"},{"bike_id":"9b854d7e-b5db-4311-b34a-41ade0393a38","system_id":"levelo_inurba_marseille","lat":43.298482,"lon":5.362857,"is_reserved":false,"is_disabled":false,"rental_uris":{"android":"levelo://app?vid=9b854d7e-b5db-4311-b34a-41ade0393a38","ios":"levelo://app?vid=9b854d7e-b5db-4311-b34a-41ade0393a38"},"vehicle_type_id":"4","last_reported":1762563036,"current_range_meters":15200,"station_id":"ce4bgpp2rcd13ifvqc3g","pricing_plan_id":"cebpf4jnsgd1na2vs0mg"},{"bike_id":"08800a7f-3058-4ed0-a60f-c12bee9e25dd","system_id":"levelo_inurba_marseille","lat":43.24629,"lon":5.43141,"is_reserved":false,"is_disabled":false,"rental_uris":{"android":"levelo://app?vid=08800a7f-3058-4ed0-a60f-c12bee9e25dd","ios":"levelo://app?vid=08800a7f-3058-4ed0-a60f-c12bee9e25dd"},"vehicle_type_id":"4","last_reported":1762563036,"current_range_meters":16000,"station_id":"st_d2m6c4gdas8pm72e190g","pricing_plan_id":"cebpf4jnsgd1na2vs0mg"},{"bike_id":"c448769d-72a1-4a2a-80b2-791ccf525608","system_id":"levelo_inurba_marseille","lat":43.25715,"lon":5.41119,"is_reserved":false,"is_disabled":false,"rental_uris":{"android":"levelo://app?vid=c448769d-72a1-4a2a-80b2-791ccf525608","ios":"levelo://app?vid=c448769d-72a1-4a2a-80b2-791ccf525608"},"vehicle_type_id":"4","last_reported":1762563036,"current_range_meters":16000,"station_id":"ce4bhkp2rcd13ifvqgd0","pricing_plan_id":"cebpf4jnsgd1na2vs0mg"},{"bike_id":"f4b85d88-cacd-40f7-ac6c-90581ac8f45c","system_id":"levelo_inurba_marseille","lat":43.27942,"lon":5.41034,"is_reserved":false,"is_disabled":false,"rental_uris":{"android":"levelo://app?vid=f4b85d88-cacd-40f7-ac6c-90581ac8f45c","ios":"levelo://app?vid=f4b85d88-cacd-40f7-ac6c-90581ac8f45c"},"vehicle_type_id":"4","last_reported":1762563036,"current_range_meters":16000,"station_id":"ce4bhnp2rcd13ifvqh0g","pricing_plan_id":"cebpf4jnsgd1na2vs0mg"},{"bike_id":"4aadc1d9-ba43-4b92-a5cd-e66ee29250dd","system_id":"levelo_inurba_marseille","lat":43.27188,"lon":5.39206,"is_reserved":false,"is_disabled":true,"rental_uris":{"android":"levelo://app?vid=4aadc1d9-ba43-4b92-a5cd-e66ee29250dd","ios":"levelo://app?vid=4aadc1d9-ba43-4b92-a5cd-e66ee29250dd"},"vehicle_type_id":"4","last_reported":1762563036,"current_range_meters":16000,"station_id":"ce4bhhp2rcd13ifvqfm0","pricing_plan_id":"cebpf4jnsgd1na2vs0mg"},{"bike_id":"75d7dc47-dceb-471d-8668-ef13189f4f02","system_id":"levelo_inurba_marseille","lat":43.323558,"lon":5.367474,"is_reserved":false,"is_disabled":false,"rental_uris":{"android":"levelo://app?vid=75d7dc47-dceb-471d-8668-ef13189f4f02","ios":"levelo://app?vid=75d7dc47-dceb-471d-8668-ef13189f4f02"},"vehicle_type_id":"4","last_reported":1762563036,"current_range_meters":16000,"station_id":"ce4bhsh2rcd13ifvqi2g","pricing_plan_id":"cebpf4jnsgd1na2vs0mg"},{"bike_id":"9d2e9050-12cd-4a79-be6b-73942ec1c927","system_id":"levelo_inurba_marseille","lat":43.25873,"lon":5.39903,"is_reserved":false,"is_disabled":false,"rental_uris":{"android":"levelo://app?vid=9d2e9050-12cd-4a79-be6b-73942ec1c927","ios":"levelo://app?vid=9d2e9050-12cd-4a79-be6b-73942ec1c927"},"vehicle_type_id":"4","last_reported":1762563036,"current_range_meters":16000,"station_id":"ce4bhl92rcd13ifvqghg","pricing_plan_id":"cebpf4jnsgd1na2vs0mg"},{"bike_id":"c508dfa6-c4b6-4cea-a4ec-947e346a8310","system_id":"levelo_inurba_marseille","lat":43.33617,"lon":5.4103,"is_reserved":false,"is_disabled":true,"rental_uris":{"android":"levelo://app?vid=c508dfa6-c4b6-4cea-a4ec-947e346a8310","ios":"levelo://app?vid=c508dfa6-c4b6-4cea-a4ec-947e346a8310"},"vehicle_type_id":"4","last_reported":1762563036,"current_range_meters":16000,"station_id":"ce4bhqh2rcd13ifvqhmg","pricing_plan_id":"cebpf4jnsgd1na2vs0mg"},{"bike_id":"a718cc29-6f54-49e3-862a-351d7a32001f","system_id":"levelo_inurba_marseille","lat":43.28513,"lon":5.48432,"is_reserved":false,"is_disabled":false,"rental_uris":{"android":"levelo://app?vid=a718cc29-6f54-49e3-862a-351d7a32001f","ios":"levelo://app?vid=a718cc29-6f54-49e3-862a-351d7a32001f"},"vehicle_type_id":"4","last_reported":1762563036,"current_range_meters":16000,"station_id":"","pricing_plan_id":"cebpf4jnsgd1na2vs0mg"},{"bike_id":"05304b88-08bd-4258-888f-ad77e8550455","system_id":"levelo_inurba_marseille","lat":43.28033,"lon":5.36942,"is_reserved":false,"is_disabled":false,"rental_uris":{"android":"levelo://app?vid=05304b88-08bd-4258-888f-ad77e8550455","ios":"levelo://app?vid=05304b88-08bd-4258-888f-ad77e8550455"},"vehicle_type_id":"4","last_reported":1762563036,"current_range_meters":16000,"station_id":"ce4bha12rcd13ifvqef0","pricing_plan_id":"cebpf4jnsgd1na2vs0mg"},{"bike_id":"68316246-342c-4fbe-9daf-2e297171b3e8","system_id":"levelo_inurba_marseille","lat":43.279445,"lon":5.410422,"is_reserved":false,"is_disabled":false,"rental_uris":{"android":"levelo://app?vid=68316246-342c-4fbe-9daf-2e297171b3e8","ios":"levelo://app?vid=68316246-342c-4fbe-9daf-2e297171b3e8"},"vehicle_type_id":"4","last_reported":1762563036,"current_range_meters":16000,"station_id":"ce4bhnp2rcd13ifvqh0g","pricing_plan_id":"cebpf4jnsgd1na2vs0mg"},{"bike_id":"097e7adf-805d-4f2c-917c-08494c0abb97","system_id":"levelo_inurba_marseille","lat":43.31235,"lon":5.3682,"is_reserved":false,"is_disabled":false,"rental_uris":{"android":"levelo://app?vid=097e7adf-805d-4f2c-917c-08494c0abb97","ios":"levelo://app?vid=097e7adf-805d-4f2c-917c-08494c0abb97"},"vehicle_type_id":"4","last_reported":1762563036,"current_range_meters":16400,"station_id":"ce4bgl92rcd13ifvqbq0","pricing_plan_id":"cebpf4jnsgd1na2vs0mg"},{"bike_id":"c006eebd-22d1-492e-aeb9-34fd1a08d045","system_id":"levelo_inurba_marseille","lat":43.28925,"lon":5.36618,"is_reserved":false,"is_disabled":true,"rental_uris":{"android":"levelo://app?vid=c006eebd-22d1-492e-aeb9-34fd1a08d045","ios":"levelo://app?vid=c006eebd-22d1-492e-aeb9-34fd1a08d045"},"vehicle_type_id":"4","last_reported":1762563036,"current_range_meters":16400,"station_id":"ce4bhap2rcd13ifvqek0","pricing_plan_id":"cebpf4jnsgd1na2vs0mg"},{"bike_id":"64a7e14c-46d0-4d8c-91f0-19fb7c8ad288","system_id":"levelo_inurba_marseille","lat":43.305605,"lon":5.36711,"is_reserved":false,"is_disabled":true,"rental_uris":{"android":"levelo://app?vid=64a7e14c-46d0-4d8c-91f0-19fb7c8ad288","ios":"levelo://app?vid=64a7e14c-46d0-4d8c-91f0-19fb7c8ad288"},"vehicle_type_id":"4","last_reported":1762563036,"current_range_meters":16400,"station_id":"ce4bgrp2rcd13ifvqc9g","pricing_plan_id":"cebpf4jnsgd1na2vs0mg"},{"bike_id":"58df984d-f6ad-47ef-818a-7818e887c7c9","system_id":"levelo_inurba_marseille","lat":43.30126,"lon":5.43114,"is_reserved":false,"is_disabled":false,"rental_uris":{"android":"levelo://app?vid=58df984d-f6ad-47ef-818a-7818e887c7c9","ios":"levelo://app?vid=58df984d-f6ad-47ef-818a-7818e887c7c9"},"vehicle_type_id":"4","last_reported":1762563036,"current_range_meters":16400,"station_id":"st_d3js3co5814s73ftftug","pricing_plan_id":"cebpf4jnsgd1na2vs0mg"},{"bike_id":"c5fe3f0c-f524-41ce-bd6a-84e30cc002d4","system_id":"levelo_inurba_marseille","lat":43.26224,"lon":5.40446,"is_reserved":false,"is_disabled":false,"rental_uris":{"android":"levelo://app?vid=c5fe3f0c-f524-41ce-bd6a-84e30cc002d4","ios":"levelo://app?vid=c5fe3f0c-f524-41ce-bd6a-84e30cc002d4"},"vehicle_type_id":"4","last_reported":1762563036,"current_range_meters":16400,"station_id":"ce4bhmh2rcd13ifvqgmg","pricing_plan_id":"cebpf4jnsgd1na2vs0mg"},{"bike_id":"83b1f40e-8864-4f0c-a952-2ca63a97543e","system_id":"levelo_inurba_marseille","lat":43.29917,"lon":5.37466,"is_reserved":false,"is_disabled":false,"rental_uris":{"android":"levelo://app?vid=83b1f40e-8864-4f0c-a952-2ca63a97543e","ios":"levelo://app?vid=83b1f40e-8864-4f0c-a952-2ca63a97543e"},"vehicle_type_id":"4","last_reported":1762563036,"current_range_meters":16400,"station_id":"ce4bgjh2rcd13ifvqbg0","pricing_plan_id":"cebpf4jnsgd1na2vs0mg"},{"bike_id":"045d9afd-334b-4d41-bf2d-262cda9fc4da","system_id":"levelo_inurba_marseille","lat":43.31243,"lon":5.36864,"is_reserved":false,"is_disabled":false,"rental_uris":{"android":"levelo://app?vid=045d9afd-334b-4d41-bf2d-262cda9fc4da","ios":"levelo://app?vid=045d9afd-334b-4d41-bf2d-262cda9fc4da"},"vehicle_type_id":"4","last_reported":1762563036,"current_range_meters":16400,"station_id":"ce4bgl92rcd13ifvqbq0","pricing_plan_id":"cebpf4jnsgd1na2vs0mg"},{"bike_id":"74bb8ce2-1ec5-4414-94bf-bc4889d1e14c","system_id":"levelo_inurba_marseille","lat":43.32476,"lon":5.39538,"is_reserved":false,"is_disabled":false,"rental_uris":{"android":"levelo://app?vid=74bb8ce2-1ec5-4414-94bf-bc4889d1e14c","ios":"levelo://app?vid=74bb8ce2-1ec5-4414-94bf-bc4889d1e14c"},"vehicle_type_id":"4","last_reported":1762563036,"current_range_meters":16400,"station_id":"","pricing_plan_id":"cebpf4jnsgd1na2vs0mg"},{"bike_id":"2c02f1ef-6d2f-4c21-91a9-14e7c3f16362","system_id":"levelo_inurba_marseille","lat":43.24644,"lon":5.43135,"is_reserved":false,"is_disabled":false,"rental_uris":{"android":"levelo://app?vid=2c02f1ef-6d2f-4c21-91a9-14e7c3f16362","ios":"levelo://app?vid=2c02f1ef-6d2f-4c21-91a9-14e7c3f16362"},"vehicle_type_id":"4","last_reported":1762563036,"current_range_meters":16400,"station_id":"st_d2m6c4gdas8pm72e190g","pricing_plan_id":"cebpf4jnsgd1na2vs0mg"},{"bike_id":"1732a4f5-328a-4621-910f-5e3fe9dfbe91","system_id":"levelo_inurba_marseille","lat":43.296808,"lon":5.372125,"is_reserved":false,"is_disabled":false,"rental_uris":{"android":"levelo://app?vid=1732a4f5-328a-4621-910f-5e3fe9dfbe91","ios":"levelo://app?vid=1732a4f5-328a-4621-910f-5e3fe9dfbe91"},"vehicle_type_id":"4","last_reported":1762563036,"current_range_meters":16400,"station_id":"","pricing_plan_id":"cebpf4jnsgd1na2vs0mg"},{"bike_id":"cafff188-4f7a-41c0-816b-a9c4fd683249","system_id":"levelo_inurba_marseille","lat":43.27907,"lon":5.3802,"is_reserved":false,"is_disabled":false,"rental_uris":{"android":"levelo://app?vid=cafff188-4f7a-41c0-816b-a9c4fd683249","ios":"levelo://app?vid=cafff188-4f7a-41c0-816b-a9c4fd683249"},"vehicle_type_id":"4","last_reported":1762563036,"current_range_meters":16800,"station_id":"ce4bhf92rcd13ifvqf50","pricing_plan_id":"cebpf4jnsgd1na2vs0mg"},{"bike_id":"53529ee7-fa79-4bfe-8ac3-2ffb63a46b11","system_id":"levelo_inurba_marseille","lat":43.31808,"lon":5.38844,"is_reserved":false,"is_disabled":false,"rental_uris":{"android":"levelo://app?vid=53529ee7-fa79-4bfe-8ac3-2ffb63a46b11","ios":"levelo://app?vid=53529ee7-fa79-4bfe-8ac3-2ffb63a46b11"},"vehicle_type_id":"4","last_reported":1762563036,"current_range_meters":16800,"station_id":"","pricing_plan_id":"cebpf4jnsgd1na2vs0mg"},{"bike_id":"6ba0f1d1-5706-4a14-b89f-505a4c6aa756","system_id":"levelo_inurba_marseille","lat":43.29492,"lon":5.43323,"is_reserved":false,"is_disabled":false,"rental_uris":{"android":"levelo://app?vid=6ba0f1d1-5706-4a14-b89f-505a4c6aa756","ios":"levelo://app?vid=6ba0f1d1-5706-4a14-b89f-505a4c6aa756"},"vehicle_type_id":"4","last_reported":1762563036,"current_range_meters":16800,"station_id":"st_d3j5ugp08ojc73fj9d10","pricing_plan_id":"cebpf4jnsgd1na2vs0mg"},{"bike_id":"0c5c19f2-426c-43e3-b284-708f087fa98a","system_id":"levelo_inurba_marseille","lat":43.29945,"lon":5.36537,"is_reserved":false,"is_disabled":false,"rental_uris":{"android":"levelo://app?vid=0c5c19f2-426c-43e3-b284-708f087fa98a","ios":"levelo://app?vid=0c5c19f2-426c-43e3-b284-708f087fa98a"},"vehicle_type_id":"4","last_reported":1762563036,"current_range_meters":16800,"station_id":"ce4bgm92rcd13ifvqbr0","pricing_plan_id":"cebpf4jnsgd1na2vs0mg"},{"bike_id":"2ec81781-eacb-465a-8f10-1f0cde092393","system_id":"levelo_inurba_marseille","lat":43.29868,"lon":5.39738,"is_reserved":false,"is_disabled":false,"rental_uris":{"android":"levelo://app?vid=2ec81781-eacb-465a-8f10-1f0cde092393","ios":"levelo://app?vid=2ec81781-eacb-465a-8f10-1f0cde092393"},"vehicle_type_id":"4","last_reported":1762563036,"current_range_meters":16800,"station_id":"ce4bh0h2rcd13ifvqd50","pricing_plan_id":"cebpf4jnsgd1na2vs0mg"},{"bike_id":"d0486e4c-83e2-47ea-b815-83949b2897b4","system_id":"levelo_inurba_marseille","lat":43.25385,"lon":5.42163,"is_reserved":false,"is_disabled":false,"rental_uris":{"android":"levelo://app?vid=d0486e4c-83e2-47ea-b815-83949b2897b4","ios":"levelo://app?vid=d0486e4c-83e2-47ea-b815-83949b2897b4"},"vehicle_type_id":"4","last_reported":1762563036,"current_range_meters":16800,"station_id":"st_d2m65c5bi1j21697t3ng","pricing_plan_id":"cebpf4jnsgd1na2vs0mg"},{"bike_id":"4bce02cb-bdba-488a-a39f-eae80d4c7da8","system_id":"levelo_inurba_marseille","lat":43.28212,"lon":5.39065,"is_reserved":false,"is_disabled":true,"rental_uris":{"android":"levelo://app?vid=4bce02cb-bdba-488a-a39f-eae80d4c7da8","ios":"levelo://app?vid=4bce02cb-bdba-488a-a39f-eae80d4c7da8"},"vehicle_type_id":"4","last_reported":1762563036,"current_range_meters":16800,"station_id":"ce4bhn92rcd13ifvqgsg","pricing_plan_id":"cebpf4jnsgd1na2vs0mg"},{"bike_id":"d22c978e-86a3-4f06-bcd6-f159fce6e95c","system_id":"levelo_inurba_marseille","lat":43.30805,"lon":5.38154,"is_reserved":false,"is_disabled":false,"rental_uris":{"android":"levelo://app?vid=d22c978e-86a3-4f06-bcd6-f159fce6e95c","ios":"levelo://app?vid=d22c978e-86a3-4f06-bcd6-f159fce6e95c"},"vehicle_type_id":"4","last_reported":1762563036,"current_range_meters":17200,"station_id":"ce4bgt12rcd13ifvqce0","pricing_plan_id":"cebpf4jnsgd1na2vs0mg"},{"bike_id":"381727a2-cf78-4445-b9dc-920bee50b53b","system_id":"levelo_inurba_marseille","lat":43.24178,"lon":5.39725,"is_reserved":false,"is_disabled":false,"rental_uris":{"android":"levelo://app?vid=381727a2-cf78-4445-b9dc-920bee50b53b","ios":"levelo://app?vid=381727a2-cf78-4445-b9dc-920bee50b53b"},"vehicle_type_id":"4","last_reported":1762563036,"current_range_meters":17200,"station_id":"ce4bhn12rcd13ifvqgpg","pricing_plan_id":"cebpf4jnsgd1na2vs0mg"},{"bike_id":"00554511-53ac-40ce-a3d6-f675d5a3685b","system_id":"levelo_inurba_marseille","lat":43.27931,"lon":5.41024,"is_reserved":false,"is_disabled":false,"rental_uris":{"android":"levelo://app?vid=00554511-53ac-40ce-a3d6-f675d5a3685b","ios":"levelo://app?vid=00554511-53ac-40ce-a3d6-f675d5a3685b"},"vehicle_type_id":"4","last_reported":1762563036,"current_range_meters":17200,"station_id":"ce4bhnp2rcd13ifvqh0g","pricing_plan_id":"cebpf4jnsgd1na2vs0mg"},{"bike_id":"8fb5405d-56b8-4021-83b4-671acfdf4385","system_id":"levelo_inurba_marseille","lat":43.29544,"lon":5.39033,"is_reserved":false,"is_disabled":false,"rental_uris":{"android":"levelo://app?vid=8fb5405d-56b8-4021-83b4-671acfdf4385","ios":"levelo://app?vid=8fb5405d-56b8-4021-83b4-671acfdf4385"},"vehicle_type_id":"4","last_reported":1762563036,"current_range_meters":17200,"station_id":"ce4bh3p2rcd13ifvqdp0","pricing_plan_id":"cebpf4jnsgd1na2vs0mg"},{"bike_id":"1a45f863-91ee-405d-8ab5-0e5299819332","system_id":"levelo_inurba_marseille","lat":43.30152,"lon":5.38079,"is_reserved":false,"is_disabled":false,"rental_uris":{"android":"levelo://app?vid=1a45f863-91ee-405d-8ab5-0e5299819332","ios":"levelo://app?vid=1a45f863-91ee-405d-8ab5-0e5299819332"},"vehicle_type_id":"4","last_reported":1762563036,"current_range_meters":17200,"station_id":"ce4bgjp2rcd13ifvqbh0","pricing_plan_id":"cebpf4jnsgd1na2vs0mg"},{"bike_id":"d2991a60-dcfa-4252-8f9d-bfff4b1dc433","system_id":"levelo_inurba_marseille","lat":43.31062,"lon":5.37139,"is_reserved":false,"is_disabled":false,"rental_uris":{"android":"levelo://app?vid=d2991a60-dcfa-4252-8f9d-bfff4b1dc433","ios":"levelo://app?vid=d2991a60-dcfa-4252-8f9d-bfff4b1dc433"},"vehicle_type_id":"4","last_reported":1762563036,"current_range_meters":17200,"station_id":"","pricing_plan_id":"cebpf4jnsgd1na2vs0mg"},{"bike_id":"61c32982-e1bd-47b3-8753-63f402e2b159","system_id":"levelo_inurba_marseille","lat":43.29805,"lon":5.39357,"is_reserved":false,"is_disabled":false,"rental_uris":{"android":"levelo://app?vid=61c32982-e1bd-47b3-8753-63f402e2b159","ios":"levelo://app?vid=61c32982-e1bd-47b3-8753-63f402e2b159"},"vehicle_type_id":"4","last_reported":1762563036,"current_range_meters":17200,"station_id":"chh1huq6cuj3fo74tm60","pricing_plan_id":"cebpf4jnsgd1na2vs0mg"},{"bike_id":"4e514799-7e60-4a3c-bc31-f719bf98105c","system_id":"levelo_inurba_marseille","lat":43.28473,"lon":5.35891,"is_reserved":false,"is_disabled":false,"rental_uris":{"android":"levelo://app?vid=4e514799-7e60-4a3c-bc31-f719bf98105c","ios":"levelo://app?vid=4e514799-7e60-4a3c-bc31-f719bf98105c"},"vehicle_type_id":"4","last_reported":1762563036,"current_range_meters":17600,"station_id":"ce4bhah2rcd13ifvqei0","pricing_plan_id":"cebpf4jnsgd1na2vs0mg"},{"bike_id":"23787139-53a5-4f6f-a897-42b76267f9eb","system_id":"levelo_inurba_marseille","lat":43.292023,"lon":5.393282,"is_reserved":false,"is_disabled":false,"rental_uris":{"android":"levelo://app?vid=23787139-53a5-4f6f-a897-42b76267f9eb","ios":"levelo://app?vid=23787139-53a5-4f6f-a897-42b76267f9eb"},"vehicle_type_id":"4","last_reported":1762563036,"current_range_meters":17600,"station_id":"ce4bh3h2rcd13ifvqdo0","pricing_plan_id":"cebpf4jnsgd1na2vs0mg"},{"bike_id":"983dfb64-9c72-4a1c-a3a8-71c6de7d4885","system_id":"levelo_inurba_marseille","lat":43.30303,"lon":5.36894,"is_reserved":false,"is_disabled":true,"rental_uris":{"android":"levelo://app?vid=983dfb64-9c72-4a1c-a3a8-71c6de7d4885","ios":"levelo://app?vid=983dfb64-9c72-4a1c-a3a8-71c6de7d4885"},"vehicle_type_id":"4","last_reported":1762563036,"current_range_meters":17600,"station_id":"ce4bgqh2rcd13ifvqc5g","pricing_plan_id":"cebpf4jnsgd1na2vs0mg"},{"bike_id":"cfe6041c-eeb8-4331-88ac-3d89c3a5f24a","system_id":"levelo_inurba_marseille","lat":43.29843,"lon":5.36282,"is_reserved":false,"is_disabled":false,"rental_uris":{"android":"levelo://app?vid=cfe6041c-eeb8-4331-88ac-3d89c3a5f24a","ios":"levelo://app?vid=cfe6041c-eeb8-4331-88ac-3d89c3a5f24a"},"vehicle_type_id":"4","last_reported":1762563036,"current_range_meters":17600,"station_id":"ce4bgpp2rcd13ifvqc3g","pricing_plan_id":"cebpf4jnsgd1na2vs0mg"},{"bike_id":"be9dbc5e-3613-4c65-8d26-e2868783517d","system_id":"levelo_inurba_marseille","lat":43.30596,"lon":5.39358,"is_reserved":false,"is_disabled":false,"rental_uris":{"android":"levelo://app?vid=be9dbc5e-3613-4c65-8d26-e2868783517d","ios":"levelo://app?vid=be9dbc5e-3613-4c65-8d26-e2868783517d"},"vehicle_type_id":"4","last_reported":1762563036,"current_range_meters":17600,"station_id":"ce4bh0p2rcd13ifvqd80","pricing_plan_id":"cebpf4jnsgd1na2vs0mg"},{"bike_id":"c6d44356-6139-45e9-b8d9-f8763d382efa","system_id":"levelo_inurba_marseille","lat":43.29208,"lon":5.39323,"is_reserved":false,"is_disabled":false,"rental_uris":{"android":"levelo://app?vid=c6d44356-6139-45e9-b8d9-f8763d382efa","ios":"levelo://app?vid=c6d44356-6139-45e9-b8d9-f8763d382efa"},"vehicle_type_id":"4","last_reported":1762563036,"current_range_meters":17600,"station_id":"ce4bh192rcd13ifvqdd0","pricing_plan_id":"cebpf4jnsgd1na2vs0mg"},{"bike_id":"3439a8cb-8214-4321-b614-d69fa7098072","system_id":"levelo_inurba_marseille","lat":43.313,"lon":5.38942,"is_reserved":false,"is_disabled":false,"rental_uris":{"android":"levelo://app?vid=3439a8cb-8214-4321-b614-d69fa7098072","ios":"levelo://app?vid=3439a8cb-8214-4321-b614-d69fa7098072"},"vehicle_type_id":"4","last_reported":1762563036,"current_range_meters":17600,"station_id":"","pricing_plan_id":"cebpf4jnsgd1na2vs0mg"},{"bike_id":"13d106d6-4ed0-4144-9b7d-4c7d18bae259","system_id":"levelo_inurba_marseille","lat":43.28709,"lon":5.39963,"is_reserved":false,"is_disabled":false,"rental_uris":{"android":"levelo://app?vid=13d106d6-4ed0-4144-9b7d-4c7d18bae259","ios":"levelo://app?vid=13d106d6-4ed0-4144-9b7d-4c7d18bae259"},"vehicle_type_id":"4","last_reported":1762563036,"current_range_meters":17600,"station_id":"ce4bho92rcd13ifvqh3g","pricing_plan_id":"cebpf4jnsgd1na2vs0mg"},{"bike_id":"01b612c9-e2ea-4120-a543-ea80b7d0582c","system_id":"levelo_inurba_marseille","lat":43.326863,"lon":5.391915,"is_reserved":false,"is_disabled":false,"rental_uris":{"android":"levelo://app?vid=01b612c9-e2ea-4120-a543-ea80b7d0582c","ios":"levelo://app?vid=01b612c9-e2ea-4120-a543-ea80b7d0582c"},"vehicle_type_id":"4","last_reported":1762563036,"current_range_meters":17600,"station_id":"","pricing_plan_id":"cebpf4jnsgd1na2vs0mg"},{"bike_id":"e33f4351-e261-466c-8aad-a106a06d66b6","system_id":"levelo_inurba_marseille","lat":43.30332,"lon":5.40435,"is_reserved":false,"is_disabled":false,"rental_uris":{"android":"levelo://app?vid=e33f4351-e261-466c-8aad-a106a06d66b6","ios":"levelo://app?vid=e33f4351-e261-466c-8aad-a106a06d66b6"},"vehicle_type_id":"4","last_reported":1762563036,"current_range_meters":17600,"station_id":"ce4bh012rcd13ifvqd10","pricing_plan_id":"cebpf4jnsgd1na2vs0mg"},{"bike_id":"8d01a980-f042-46e9-b17f-bfae768c995b","system_id":"levelo_inurba_marseille","lat":43.282675,"lon":5.350629,"is_reserved":false,"is_disabled":false,"rental_uris":{"android":"levelo://app?vid=8d01a980-f042-46e9-b17f-bfae768c995b","ios":"levelo://app?vid=8d01a980-f042-46e9-b17f-bfae768c995b"},"vehicle_type_id":"4","last_reported":1762563036,"current_range_meters":17600,"station_id":"ce4bhbp2rcd13ifvqerg","pricing_plan_id":"cebpf4jnsgd1na2vs0mg"},{"bike_id":"7ad82d07-8130-407b-a9c3-c079fd9c9363","system_id":"levelo_inurba_marseille","lat":43.31598,"lon":5.38426,"is_reserved":false,"is_disabled":false,"rental_uris":{"android":"levelo://app?vid=7ad82d07-8130-407b-a9c3-c079fd9c9363","ios":"levelo://app?vid=7ad82d07-8130-407b-a9c3-c079fd9c9363"},"vehicle_type_id":"4","last_reported":1762563036,"current_range_meters":17600,"station_id":"","pricing_plan_id":"cebpf4jnsgd1na2vs0mg"},{"bike_id":"9fe00aa7-18ac-44c5-b8b8-fe8e8219132e","system_id":"levelo_inurba_marseille","lat":43.26587,"lon":5.39039,"is_reserved":false,"is_disabled":true,"rental_uris":{"android":"levelo://app?vid=9fe00aa7-18ac-44c5-b8b8-fe8e8219132e","ios":"levelo://app?vid=9fe00aa7-18ac-44c5-b8b8-fe8e8219132e"},"vehicle_type_id":"4","last_reported":1762563036,"current_range_meters":18000,"station_id":"ce4bhe12rcd13ifvqf30","pricing_plan_id":"cebpf4jnsgd1na2vs0mg"},{"bike_id":"170288dc-6cc9-4d7a-860b-0f829aeced10","system_id":"levelo_inurba_marseille","lat":43.27837,"lon":5.39195,"is_reserved":false,"is_disabled":false,"rental_uris":{"android":"levelo://app?vid=170288dc-6cc9-4d7a-860b-0f829aeced10","ios":"levelo://app?vid=170288dc-6cc9-4d7a-860b-0f829aeced10"},"vehicle_type_id":"4","last_reported":1762563036,"current_range_meters":18000,"station_id":"ce4bhjp2rcd13ifvqga0","pricing_plan_id":"cebpf4jnsgd1na2vs0mg"},{"bike_id":"d3e111dd-bbc9-457f-9e8d-f3cfc673c233","system_id":"levelo_inurba_marseille","lat":43.30437,"lon":5.38886,"is_reserved":false,"is_disabled":false,"rental_uris":{"android":"levelo://app?vid=d3e111dd-bbc9-457f-9e8d-f3cfc673c233","ios":"levelo://app?vid=d3e111dd-bbc9-457f-9e8d-f3cfc673c233"},"vehicle_type_id":"4","last_reported":1762563036,"current_range_meters":18000,"station_id":"ce4bgk12rcd13ifvqbi0","pricing_plan_id":"cebpf4jnsgd1na2vs0mg"},{"bike_id":"d9406ae0-a7d7-4070-8130-6f1d39eec4aa","system_id":"levelo_inurba_marseille","lat":43.2859,"lon":5.37071,"is_reserved":false,"is_disabled":false,"rental_uris":{"android":"levelo://app?vid=d9406ae0-a7d7-4070-8130-6f1d39eec4aa","ios":"levelo://app?vid=d9406ae0-a7d7-4070-8130-6f1d39eec4aa"},"vehicle_type_id":"4","last_reported":1762563036,"current_range_meters":18000,"station_id":"ce4bht12rcd13ifvqi60","pricing_plan_id":"cebpf4jnsgd1na2vs0mg"},{"bike_id":"aa1eec89-7f75-4e60-8caf-7b88980efd4a","system_id":"levelo_inurba_marseille","lat":43.27362,"lon":5.36261,"is_reserved":false,"is_disabled":false,"rental_uris":{"android":"levelo://app?vid=aa1eec89-7f75-4e60-8caf-7b88980efd4a","ios":"levelo://app?vid=aa1eec89-7f75-4e60-8caf-7b88980efd4a"},"vehicle_type_id":"4","last_reported":1762563036,"current_range_meters":18000,"station_id":"ce4bhbh2rcd13ifvqeo0","pricing_plan_id":"cebpf4jnsgd1na2vs0mg"},{"bike_id":"416e1cd2-ac03-44e0-ac6c-95536cadb873","system_id":"levelo_inurba_marseille","lat":43.288595,"lon":5.393012,"is_reserved":false,"is_disabled":false,"rental_uris":{"android":"levelo://app?vid=416e1cd2-ac03-44e0-ac6c-95536cadb873","ios":"levelo://app?vid=416e1cd2-ac03-44e0-ac6c-95536cadb873"},"vehicle_type_id":"4","last_reported":1762563036,"current_range_meters":18000,"station_id":"ce4bh2p2rcd13ifvqdi0","pricing_plan_id":"cebpf4jnsgd1na2vs0mg"},{"bike_id":"28ad1f49-fe9b-439a-b3fa-b2c57d82e741","system_id":"levelo_inurba_marseille","lat":43.30423,"lon":5.38879,"is_reserved":false,"is_disabled":false,"rental_uris":{"android":"levelo://app?vid=28ad1f49-fe9b-439a-b3fa-b2c57d82e741","ios":"levelo://app?vid=28ad1f49-fe9b-439a-b3fa-b2c57d82e741"},"vehicle_type_id":"4","last_reported":1762563036,"current_range_meters":18000,"station_id":"ce4bgk12rcd13ifvqbi0","pricing_plan_id":"cebpf4jnsgd1na2vs0mg"},{"bike_id":"0fe28076-79a4-4c58-8cb9-d4750cea7c8d","system_id":"levelo_inurba_marseille","lat":43.25336,"lon":5.42176,"is_reserved":false,"is_disabled":false,"rental_uris":{"android":"levelo://app?vid=0fe28076-79a4-4c58-8cb9-d4750cea7c8d","ios":"levelo://app?vid=0fe28076-79a4-4c58-8cb9-d4750cea7c8d"},"vehicle_type_id":"4","last_reported":1762563036,"current_range_meters":18000,"station_id":"st_d2m65c5bi1j21697t3ng","pricing_plan_id":"cebpf4jnsgd1na2vs0mg"},{"bike_id":"309a1e5e-51c8-4860-8bb7-12924ece393e","system_id":"levelo_inurba_marseille","lat":43.31026,"lon":5.37488,"is_reserved":false,"is_disabled":false,"rental_uris":{"android":"levelo://app?vid=309a1e5e-51c8-4860-8bb7-12924ece393e","ios":"levelo://app?vid=309a1e5e-51c8-4860-8bb7-12924ece393e"},"vehicle_type_id":"4","last_reported":1762563036,"current_range_meters":18000,"station_id":"","pricing_plan_id":"cebpf4jnsgd1na2vs0mg"},{"bike_id":"97cd3087-0edb-4ad1-9ef1-f293d6b654ec","system_id":"levelo_inurba_marseille","lat":43.28703,"lon":5.39973,"is_reserved":false,"is_disabled":false,"rental_uris":{"android":"levelo://app?vid=97cd3087-0edb-4ad1-9ef1-f293d6b654ec","ios":"levelo://app?vid=97cd3087-0edb-4ad1-9ef1-f293d6b654ec"},"vehicle_type_id":"4","last_reported":1762563036,"current_range_meters":18000,"station_id":"ce4bho92rcd13ifvqh3g","pricing_plan_id":"cebpf4jnsgd1na2vs0mg"},{"bike_id":"14777a66-b2b9-4778-89e9-e9b6b9e53e3a","system_id":"levelo_inurba_marseille","lat":43.28668,"lon":5.36348,"is_reserved":false,"is_disabled":false,"rental_uris":{"android":"levelo://app?vid=14777a66-b2b9-4778-89e9-e9b6b9e53e3a","ios":"levelo://app?vid=14777a66-b2b9-4778-89e9-e9b6b9e53e3a"},"vehicle_type_id":"4","last_reported":1762563036,"current_range_meters":18800,"station_id":"ce4bhah2rcd13ifvqej0","pricing_plan_id":"cebpf4jnsgd1na2vs0mg"},{"bike_id":"65d83eaf-428a-43cd-a356-ecaed95948ff","system_id":"levelo_inurba_marseille","lat":43.24841,"lon":5.39797,"is_reserved":false,"is_disabled":false,"rental_uris":{"android":"levelo://app?vid=65d83eaf-428a-43cd-a356-ecaed95948ff","ios":"levelo://app?vid=65d83eaf-428a-43cd-a356-ecaed95948ff"},"vehicle_type_id":"4","last_reported":1762563036,"current_range_meters":18800,"station_id":"","pricing_plan_id":"cebpf4jnsgd1na2vs0mg"},{"bike_id":"9e01da5c-26f6-4c61-91d8-0531e787f6d5","system_id":"levelo_inurba_marseille","lat":43.26807,"lon":5.40304,"is_reserved":false,"is_disabled":false,"rental_uris":{"android":"levelo://app?vid=9e01da5c-26f6-4c61-91d8-0531e787f6d5","ios":"levelo://app?vid=9e01da5c-26f6-4c61-91d8-0531e787f6d5"},"vehicle_type_id":"4","last_reported":1762563036,"current_range_meters":18800,"station_id":"ce501612rcd8frsf0b60","pricing_plan_id":"cebpf4jnsgd1na2vs0mg"},{"bike_id":"9012bcf8-bb63-442b-8823-1b956a32ae9e","system_id":"levelo_inurba_marseille","lat":43.30119,"lon":5.43119,"is_reserved":false,"is_disabled":false,"rental_uris":{"android":"levelo://app?vid=9012bcf8-bb63-442b-8823-1b956a32ae9e","ios":"levelo://app?vid=9012bcf8-bb63-442b-8823-1b956a32ae9e"},"vehicle_type_id":"4","last_reported":1762563036,"current_range_meters":18800,"station_id":"st_d3js3co5814s73ftftug","pricing_plan_id":"cebpf4jnsgd1na2vs0mg"},{"bike_id":"c73c5513-728d-4700-9395-e31e4399cd51","system_id":"levelo_inurba_marseille","lat":43.29167,"lon":5.40302,"is_reserved":false,"is_disabled":false,"rental_uris":{"android":"levelo://app?vid=c73c5513-728d-4700-9395-e31e4399cd51","ios":"levelo://app?vid=c73c5513-728d-4700-9395-e31e4399cd51"},"vehicle_type_id":"4","last_reported":1762563036,"current_range_meters":18800,"station_id":"","pricing_plan_id":"cebpf4jnsgd1na2vs0mg"},{"bike_id":"34fe2289-aa32-4fdd-a343-e3f74c024ddd","system_id":"levelo_inurba_marseille","lat":43.32127,"lon":5.36776,"is_reserved":false,"is_disabled":false,"rental_uris":{"android":"levelo://app?vid=34fe2289-aa32-4fdd-a343-e3f74c024ddd","ios":"levelo://app?vid=34fe2289-aa32-4fdd-a343-e3f74c024ddd"},"vehicle_type_id":"4","last_reported":1762563036,"current_range_meters":18800,"station_id":"ce4bhrh2rcd13ifvqhug","pricing_plan_id":"cebpf4jnsgd1na2vs0mg"},{"bike_id":"06b572d6-d95a-4f1a-9a9a-b316897ad6d5","system_id":"levelo_inurba_marseille","lat":43.29545,"lon":5.3752,"is_reserved":false,"is_disabled":false,"rental_uris":{"android":"levelo://app?vid=06b572d6-d95a-4f1a-9a9a-b316897ad6d5","ios":"levelo://app?vid=06b572d6-d95a-4f1a-9a9a-b316897ad6d5"},"vehicle_type_id":"4","last_reported":1762563036,"current_range_meters":18800,"station_id":"ce4bgkp2rcd13ifvqbmg","pricing_plan_id":"cebpf4jnsgd1na2vs0mg"},{"bike_id":"46748178-17b8-4dc8-80b3-39159ff743e0","system_id":"levelo_inurba_marseille","lat":43.300429,"lon":5.383217,"is_reserved":false,"is_disabled":false,"rental_uris":{"android":"levelo://app?vid=46748178-17b8-4dc8-80b3-39159ff743e0","ios":"levelo://app?vid=46748178-17b8-4dc8-80b3-39159ff743e0"},"vehicle_type_id":"4","last_reported":1762563036,"current_range_meters":18800,"station_id":"","pricing_plan_id":"cebpf4jnsgd1na2vs0mg"},{"bike_id":"4e320fda-c7bc-423e-bff5-8f7348fc9e7c","system_id":"levelo_inurba_marseille","lat":43.32354,"lon":5.36742,"is_reserved":false,"is_disabled":false,"rental_uris":{"android":"levelo://app?vid=4e320fda-c7bc-423e-bff5-8f7348fc9e7c","ios":"levelo://app?vid=4e320fda-c7bc-423e-bff5-8f7348fc9e7c"},"vehicle_type_id":"4","last_reported":1762563036,"current_range_meters":18800,"station_id":"ce4bhsh2rcd13ifvqi2g","pricing_plan_id":"cebpf4jnsgd1na2vs0mg"},{"bike_id":"3b294fa9-3f9f-4381-a2a8-e3592d375a68","system_id":"levelo_inurba_marseille","lat":43.28253,"lon":5.39044,"is_reserved":false,"is_disabled":false,"rental_uris":{"android":"levelo://app?vid=3b294fa9-3f9f-4381-a2a8-e3592d375a68","ios":"levelo://app?vid=3b294fa9-3f9f-4381-a2a8-e3592d375a68"},"vehicle_type_id":"4","last_reported":1762563036,"current_range_meters":18800,"station_id":"","pricing_plan_id":"cebpf4jnsgd1na2vs0mg"},{"bike_id":"c9167a0e-49ed-435c-9851-30d215738512","system_id":"levelo_inurba_marseille","lat":43.28695,"lon":5.39982,"is_reserved":false,"is_disabled":false,"rental_uris":{"android":"levelo://app?vid=c9167a0e-49ed-435c-9851-30d215738512","ios":"levelo://app?vid=c9167a0e-49ed-435c-9851-30d215738512"},"vehicle_type_id":"4","last_reported":1762563036,"current_range_meters":18800,"station_id":"ce4bho92rcd13ifvqh3g","pricing_plan_id":"cebpf4jnsgd1na2vs0mg"},{"bike_id":"2fb7e599-67d9-4248-a320-dd2be3039c5f","system_id":"levelo_inurba_marseille","lat":43.29774,"lon":5.39006,"is_reserved":false,"is_disabled":false,"rental_uris":{"android":"levelo://app?vid=2fb7e599-67d9-4248-a320-dd2be3039c5f","ios":"levelo://app?vid=2fb7e599-67d9-4248-a320-dd2be3039c5f"},"vehicle_type_id":"4","last_reported":1762563036,"current_range_meters":19200,"station_id":"","pricing_plan_id":"cebpf4jnsgd1na2vs0mg"},{"bike_id":"0e40b977-8772-43e1-98d4-439c6ff7226d","system_id":"levelo_inurba_marseille","lat":43.27369,"lon":5.36264,"is_reserved":false,"is_disabled":false,"rental_uris":{"android":"levelo://app?vid=0e40b977-8772-43e1-98d4-439c6ff7226d","ios":"levelo://app?vid=0e40b977-8772-43e1-98d4-439c6ff7226d"},"vehicle_type_id":"4","last_reported":1762563036,"current_range_meters":19200,"station_id":"ce4bhbh2rcd13ifvqeo0","pricing_plan_id":"cebpf4jnsgd1na2vs0mg"},{"bike_id":"9e1b0508-9718-4838-ba3f-5fbec5c9ff14","system_id":"levelo_inurba_marseille","lat":43.28423,"lon":5.34972,"is_reserved":false,"is_disabled":false,"rental_uris":{"android":"levelo://app?vid=9e1b0508-9718-4838-ba3f-5fbec5c9ff14","ios":"levelo://app?vid=9e1b0508-9718-4838-ba3f-5fbec5c9ff14"},"vehicle_type_id":"4","last_reported":1762563036,"current_range_meters":19200,"station_id":"ce4bhbh2rcd13ifvqepg","pricing_plan_id":"cebpf4jnsgd1na2vs0mg"},{"bike_id":"3858c905-f8b4-4dfc-acb0-b8aa4a1dbb82","system_id":"levelo_inurba_marseille","lat":43.30782,"lon":5.37652,"is_reserved":false,"is_disabled":false,"rental_uris":{"android":"levelo://app?vid=3858c905-f8b4-4dfc-acb0-b8aa4a1dbb82","ios":"levelo://app?vid=3858c905-f8b4-4dfc-acb0-b8aa4a1dbb82"},"vehicle_type_id":"4","last_reported":1762563036,"current_range_meters":19200,"station_id":"ce4bgv92rcd13ifvqcq0","pricing_plan_id":"cebpf4jnsgd1na2vs0mg"},