{"last_updated":1753308656,"ttl":60,"version":"2.2","data":{"bikes":[{"bike_id":"5bfd2d38-3a26-4cdf-87f1-d88699fa9816","system_id":"levelo_inurba_marseille","lat":43.2918,"lon":5.35826,"is_reserved":false,"is_disabled":false,"rental_uris":{"android":"levelo://app?vid=5bfd2d38-3a26-4cdf-87f1-d88699fa9816","ios":"levelo://app?vid=5bfd2d38-3a26-4cdf-87f1-d88699fa9816"},"vehicle_type_id":"4","last_reported":1753308656,"current_range_meters":2800,"station_id":"ce4bhb12rcd13ifvqel0","pricing_plan_id":"cebpf4jnsgd1na2vs0mg"},{"bike_id":"0c651622-4441-4793-a8a6-d1a1c1d1c6fb","system_id":"levelo_inurba_marseille","lat":43.283556,"lon":5.39281,"is_reserved":false,"is_disabled":false,"rental_uris":{"android":"levelo://app?vid=0c651622-4441-4793-a8a6-d1a1c1d1c6fb","ios":"levelo://app?vid=0c651622-4441-4793-a8a6-d1a1c1d1c6fb"},"vehicle_type_id":"4","last_reported":1753308656,"current_range_meters":2800,"station_id":"ce4bhoh2rcd13ifvqh5g","pricing_plan_id":"cebpf4jnsgd1na2vs0mg"},{"bike_id":"77f0e1d1-4bb6-4906-9b7c-e9d4127a1d10","system_id":"levelo_inurba_marseille","lat":43.29498,"lon":5.3818,"is_reserved":false,"is_disabled":false,"rental_uris":{"android":"levelo://app?vid=77f0e1d1-4bb6-4906-9b7c-e9d4127a1d10","ios":"levelo://app?vid=77f0e1d1-4bb6-4906-9b7c-e9d4127a1d10"},"vehicle_type_id":"4","last_reported":1753308656,"current_range_meters":3200,"station_id":"","pricing_plan_id":"cebpf4jnsgd1na2vs0mg"},{"bike_id":"adebf206-6cce-4bf4-b9e1-cecd55c92049","system_id":"levelo_inurba_marseille","lat":43.29538,"lon":5.39394,"is_reserved":false,"is_disabled":false,"rental_uris":{"android":"levelo://app?vid=adebf206-6cce-4bf4-b9e1-cecd55c92049","ios":"levelo://app?vid=adebf206-6cce-4bf4-b9e1-cecd55c92049"},"vehicle_type_id":"4","last_reported":1753308656,"current_range_meters":3200,"station_id":"ce4bh292rcd13ifvqdf0","pricing_plan_id":"cebpf4jnsgd1na2vs0mg"},{"bike_id":"5621edd3-f3c6-4414-9b55-c8b8e61f60ba","system_id":"levelo_inurba_marseille","lat":43.28401,"lon":5.37532,"is_reserved":false,"is_disabled":false,"rental_uris":{"android":"levelo://app?vid=5621edd3-f3c6-4414-9b55-c8b8e61f60ba","ios":"levelo://app?vid=5621edd3-f3c6-4414-9b55-c8b8e61f60ba"},"vehicle_type_id":"4","last_reported":1753308656,"current_range_meters":3200,"station_id":"ce4bh412rcd13ifvqds0","pricing_plan_id":"cebpf4jnsgd1na2vs0mg"},{"bike_id":"94ea5195-f84c-4e70-a093-ba89e20634ee","system_id":"levelo_inurba_marseille","lat":43.30138,"lon":5.3878,"is_reserved":false,"is_disabled":false,"rental_uris":{"android":"levelo://app?vid=94ea5195-f84c-4e70-a093-ba89e20634ee","ios":"levelo://app?vid=94ea5195-f84c-4e70-a093-ba89e20634ee"},"vehicle_type_id":"4","last_reported":1753308656,"current_range_meters":3600,"station_id":"ce4bghh2rcd13ifvqb60","pricing_plan_id":"cebpf4jnsgd1na2vs0mg"},{"bike_id":"5657eb96-d408-494a-be60-534fd0a82158","system_id":"levelo_inurba_marseille","lat":43.29966,"lon":5.38501,"is_reserved":false,"is_disabled":false,"rental_uris":{"android":"levelo://app?vid=5657eb96-d408-494a-be60-534fd0a82158","ios":"levelo://app?vid=5657eb96-d408-494a-be60-534fd0a82158"},"vehicle_type_id":"4","last_reported":1753308656,"current_range_meters":3600,"station_id":"ce4bgj92rcd13ifvqbd0","pricing_plan_id":"cebpf4jnsgd1na2vs0mg"},{"bike_id":"5cccb452-224d-486f-8f55-ab6f9fb0d289","system_id":"levelo_inurba_marseille","lat":43.30059,"lon":5.39779,"is_reserved":false,"is_disabled":false,"rental_uris":{"android":"levelo://app?vid=5cccb452-224d-486f-8f55-ab6f9fb0d289","ios":"levelo://app?vid=5cccb452-224d-486f-8f55-ab6f9fb0d289"},"vehicle_type_id":"4","last_reported":1753308656,"current_range_meters":3600,"station_id":"","pricing_plan_id":"cebpf4jnsgd1na2vs0mg"},{"bike_id":"eb20a07a-3c6a-41c2-a82e-ae2c03b790df","system_id":"levelo_inurba_marseille","lat":43.29713,"lon":5.37691,"is_reserved":false,"is_disabled":false,"rental_uris":{"android":"levelo://app?vid=eb20a07a-3c6a-41c2-a82e-ae2c03b790df","ios":"levelo://app?vid=eb20a07a-3c6a-41c2-a82e-ae2c03b790df"},"vehicle_type_id":"4","last_reported":1753308656,"current_range_meters":3600,"station_id":"ce4bgkh2rcd13ifvqbl0","pricing_plan_id":"cebpf4jnsgd1na2vs0mg"},{"bike_id":"a7abbd16-7464-47d6-bce3-b9d619de3c6f","system_id":"levelo_inurba_marseille","lat":43.29483,"lon":5.38172,"is_reserved":false,"is_disabled":false,"rental_uris":{"android":"levelo://app?vid=a7abbd16-7464-47d6-bce3-b9d619de3c6f","ios":"levelo://app?vid=a7abbd16-7464-47d6-bce3-b9d619de3c6f"},"vehicle_type_id":"4","last_reported":1753308656,"current_range_meters":4000,"station_id":"","pricing_plan_id":"cebpf4jnsgd1na2vs0mg"},{"bike_id":"787c1c8c-463c-42a7-9761-42aba77346f5","system_id":"levelo_inurba_marseille","lat":43.288617,"lon":5.376516,"is_reserved":false,"is_disabled":false,"rental_uris":{"android":"levelo://app?vid=787c1c8c-463c-42a7-9761-42aba77346f5","ios":"levelo://app?vid=787c1c8c-463c-42a7-9761-42aba77346f5"},"vehicle_type_id":"4","last_reported":1753308656,"current_range_meters":4400,"station_id":"ce4bh692rcd13ifvqe90","pricing_plan_id":"cebpf4jnsgd1na2vs0mg"},{"bike_id":"6e1c73fb-a153-447b-8421-1700098c2b57","system_id":"levelo_inurba_marseille","lat":43.29185,"lon":5.35814,"is_reserved":false,"is_disabled":false,"rental_uris":{"android":"levelo://app?vid=6e1c73fb-a153-447b-8421-1700098c2b57","ios":"levelo://app?vid=6e1c73fb-a153-447b-8421-1700098c2b57"},"vehicle_type_id":"4","last_reported":1753308656,"current_range_meters":4400,"station_id":"ce4bhb12rcd13ifvqel0","pricing_plan_id":"cebpf4jnsgd1na2vs0mg"},{"bike_id":"69d5988a-95f5-4eba-a497-699b61bb4028","system_id":"levelo_inurba_marseille","lat":43.30142,"lon":5.37208,"is_reserved":false,"is_disabled":false,"rental_uris":{"android":"levelo://app?vid=69d5988a-95f5-4eba-a497-699b61bb4028","ios":"levelo://app?vid=69d5988a-95f5-4eba-a497-699b61bb4028"},"vehicle_type_id":"4","last_reported":1753308656,"current_range_meters":4800,"station_id":"","pricing_plan_id":"cebpf4jnsgd1na2vs0mg"},{"bike_id":"3e672a12-a06c-421d-8d90-001874a4fd84","system_id":"levelo_inurba_marseille","lat":43.30194,"lon":5.39468,"is_reserved":false,"is_disabled":true,"rental_uris":{"android":"levelo://app?vid=3e672a12-a06c-421d-8d90-001874a4fd84","ios":"levelo://app?vid=3e672a12-a06c-421d-8d90-001874a4fd84"},"vehicle_type_id":"4","last_reported":1753308656,"current_range_meters":4800,"station_id":"ce4bh0p2rcd13ifvqd70","pricing_plan_id":"cebpf4jnsgd1na2vs0mg"},{"bike_id":"b92738b6-8468-44b5-bca9-cdf47f8d61f8","system_id":"levelo_inurba_marseille","lat":43.284832,"lon":5.384147,"is_reserved":false,"is_disabled":false,"rental_uris":{"android":"levelo://app?vid=b92738b6-8468-44b5-bca9-cdf47f8d61f8","ios":"levelo://app?vid=b92738b6-8468-44b5-bca9-cdf47f8d61f8"},"vehicle_type_id":"4","last_reported":1753308656,"current_range_meters":5600,"station_id":"ce4bh512rcd13ifvqe3g","pricing_plan_id":"cebpf4jnsgd1na2vs0mg"},{"bike_id":"03888305-52b3-4250-8dd3-6e987066e805","system_id":"levelo_inurba_marseille","lat":43.31071,"lon":5.38351,"is_reserved":false,"is_disabled":false,"rental_uris":{"android":"levelo://app?vid=03888305-52b3-4250-8dd3-6e987066e805","ios":"levelo://app?vid=03888305-52b3-4250-8dd3-6e987066e805"},"vehicle_type_id":"4","last_reported":1753308656,"current_range_meters":5600,"station_id":"ce4bgv92rcd13ifvqcr0","pricing_plan_id":"cebpf4jnsgd1na2vs0mg"},{"bike_id":"83766871-d64f-4fc8-9d3b-2ceaf03b1036","system_id":"levelo_inurba_marseille","lat":43.212,"lon":5.35045,"is_reserved":false,"is_disabled":false,"rental_uris":{"android":"levelo://app?vid=83766871-d64f-4fc8-9d3b-2ceaf03b1036","ios":"levelo://app?vid=83766871-d64f-4fc8-9d3b-2ceaf03b1036"},"vehicle_type_id":"4","last_reported":1753308656,"current_range_meters":5600,"station_id":"st_cvj6sg6p6f1abm77japg","pricing_plan_id":"cebpf4jnsgd1na2vs0mg"},{"bike_id":"596e4324-59bf-4810-92b5-d78c5f88c382","system_id":"levelo_inurba_marseille","lat":43.28348,"lon":5.38103,"is_reserved":false,"is_disabled":false,"rental_uris":{"android":"levelo://app?vid=596e4324-59bf-4810-92b5-d78c5f88c382","ios":"levelo://app?vid=596e4324-59bf-4810-92b5-d78c5f88c382"},"vehicle_type_id":"4","last_reported":1753308656,"current_range_meters":6000,"station_id":"ce4bh412rcd13ifvqdr0","pricing_plan_id":"cebpf4jnsgd1na2vs0mg"},{"bike_id":"562938d1-4755-49a3-b8d1-d6f824158c23","system_id":"levelo_inurba_marseille","lat":43.28399,"lon":5.37539,"is_reserved":false,"is_disabled":false,"rental_uris":{"android":"levelo://app?vid=562938d1-4755-49a3-b8d1-d6f824158c23","ios":"levelo://app?vid=562938d1-4755-49a3-b8d1-d6f824158c23"},"vehicle_type_id":"4","last_reported":1753308656,"current_range_meters":6000,"station_id":"ce4bh412rcd13ifvqds0","pricing_plan_id":"cebpf4jnsgd1na2vs0mg"},{"bike_id":"ec0adf83-6184-4d63-a8bd-8a4c46331101","system_id":"levelo_inurba_marseille","lat":43.26069,"lon":5.39388,"is_reserved":false,"is_disabled":true,"rental_uris":{"android":"levelo://app?vid=ec0adf83-6184-4d63-a8bd-8a4c46331101","ios":"levelo://app?vid=ec0adf83-6184-4d63-a8bd-8a4c46331101"},"vehicle_type_id":"4","last_reported":1753308656,"current_range_meters":6000,"station_id":"ce4bhh92rcd13ifvqfj0","pricing_plan_id":"cebpf4jnsgd1na2vs0mg"},{"bike_id":"18b97fe2-35b5-453c-b5d1-f7cb102d7a0e","system_id":"levelo_inurba_marseille","lat":43.30883,"lon":5.37202,"is_reserved":false,"is_disabled":false,"rental_uris":{"android":"levelo://app?vid=18b97fe2-35b5-453c-b5d1-f7cb102d7a0e","ios":"levelo://app?vid=18b97fe2-35b5-453c-b5d1-f7cb102d7a0e"},"vehicle_type_id":"4","last_reported":1753308656,"current_range_meters":6400,"station_id":"ce4bguh2rcd13ifvqckg","pricing_plan_id":"cebpf4jnsgd1na2vs0mg"},{"bike_id":"d98e3715-0c12-4ccd-832d-b853d8cd194f","system_id":"levelo_inurba_marseille","lat":43.30136,"lon":5.39837,"is_reserved":false,"is_disabled":false,"rental_uris":{"android":"levelo://app?vid=d98e3715-0c12-4ccd-832d-b853d8cd194f","ios":"levelo://app?vid=d98e3715-0c12-4ccd-832d-b853d8cd194f"},"vehicle_type_id":"4","last_reported":1753308656,"current_range_meters":6400,"station_id":"ce4bh0h2rcd13ifvqd40","pricing_plan_id":"cebpf4jnsgd1na2vs0mg"},{"bike_id":"03a6d0fd-bb9c-42e8-84f5-a852bd512870","system_id":"levelo_inurba_marseille","lat":43.27211,"lon":5.39152,"is_reserved":false,"is_disabled":false,"rental_uris":{"android":"levelo://app?vid=03a6d0fd-bb9c-42e8-84f5-a852bd512870","ios":"levelo://app?vid=03a6d0fd-bb9c-42e8-84f5-a852bd512870"},"vehicle_type_id":"4","last_reported":1753308656,"current_range_meters":6400,"station_id":"ce4bhhp2rcd13ifvqfm0","pricing_plan_id":"cebpf4jnsgd1na2vs0mg"},{"bike_id":"b17d5be4-1b35-4038-903b-2fc40cb86993","system_id":"levelo_inurba_marseille","lat":43.28932,"lon":5.3664,"is_reserved":false,"is_disabled":false,"rental_uris":{"android":"levelo://app?vid=b17d5be4-1b35-4038-903b-2fc40cb86993","ios":"levelo://app?vid=b17d5be4-1b35-4038-903b-2fc40cb86993"},"vehicle_type_id":"4","last_reported":1753308656,"current_range_meters":6800,"station_id":"ce4bhap2rcd13ifvqek0","pricing_plan_id":"cebpf4jnsgd1na2vs0mg"},{"bike_id":"6664b110-6024-4d10-904c-70f0e732d65e","system_id":"levelo_inurba_marseille","lat":43.2621,"lon":5.37457,"is_reserved":false,"is_disabled":true,"rental_uris":{"android":"levelo://app?vid=6664b110-6024-4d10-904c-70f0e732d65e","ios":"levelo://app?vid=6664b110-6024-4d10-904c-70f0e732d65e"},"vehicle_type_id":"4","last_reported":1753308656,"current_range_meters":6800,"station_id":"ce4bhgp2rcd13ifvqfc0","pricing_plan_id":"cebpf4jnsgd1na2vs0mg"},{"bike_id":"d07f0755-aca6-4050-807e-9c5aaf0dd619","system_id":"levelo_inurba_marseille","lat":43.296823,"lon":5.372723,"is_reserved":false,"is_disabled":true,"rental_uris":{"android":"levelo://app?vid=d07f0755-aca6-4050-807e-9c5aaf0dd619","ios":"levelo://app?vid=d07f0755-aca6-4050-807e-9c5aaf0dd619"},"vehicle_type_id":"4","last_reported":1753308656,"current_range_meters":7200,"station_id":"ce4bgk12rcd13ifvqbj0","pricing_plan_id":"cebpf4jnsgd1na2vs0mg"},{"bike_id":"9ae7d50c-a3ea-4136-8080-315c191e000a","system_id":"levelo_inurba_marseille","lat":43.287581,"lon":5.384204,"is_reserved":false,"is_disabled":false,"rental_uris":{"android":"levelo://app?vid=9ae7d50c-a3ea-4136-8080-315c191e000a","ios":"levelo://app?vid=9ae7d50c-a3ea-4136-8080-315c191e000a"},"vehicle_type_id":"4","last_reported":1753308656,"current_range_meters":7200,"station_id":"","pricing_plan_id":"cebpf4jnsgd1na2vs0mg"},{"bike_id":"cec54183-4175-4e4a-8f8a-f4fafb6e7dc0","system_id":"levelo_inurba_marseille","lat":43.279616,"lon":5.38984,"is_reserved":false,"is_disabled":false,"rental_uris":{"android":"levelo://app?vid=cec54183-4175-4e4a-8f8a-f4fafb6e7dc0","ios":"levelo://app?vid=cec54183-4175-4e4a-8f8a-f4fafb6e7dc0"},"vehicle_type_id":"4","last_reported":1753308656,"current_range_meters":7200,"station_id":"","pricing_plan_id":"cebpf4jnsgd1na2vs0mg"},{"bike_id":"06d49c95-21e7-425e-bd8c-d20529b60c87","system_id":"levelo_inurba_marseille","lat":43.289429,"lon":5.366415,"is_reserved":false,"is_disabled":false,"rental_uris":{"android":"levelo://app?vid=06d49c95-21e7-425e-bd8c-d20529b60c87","ios":"levelo://app?vid=06d49c95-21e7-425e-bd8c-d20529b60c87"},"vehicle_type_id":"4","last_reported":1753308656,"current_range_meters":7200,"station_id":"ce4bhap2rcd13ifvqek0","pricing_plan_id":"cebpf4jnsgd1na2vs0mg"},{"bike_id":"ef69e0e4-ca0e-494b-9377-fbf6bfa5f56b","system_id":"levelo_inurba_marseille","lat":43.2795,"lon":5.38759,"is_reserved":false,"is_disabled":false,"rental_uris":{"android":"levelo://app?vid=ef69e0e4-ca0e-494b-9377-fbf6bfa5f56b","ios":"levelo://app?vid=ef69e0e4-ca0e-494b-9377-fbf6bfa5f56b"},"vehicle_type_id":"4","last_reported":1753308656,"current_range_meters":7200,"station_id":"ce4bhg12rcd13ifvqf80","pricing_plan_id":"cebpf4jnsgd1na2vs0mg"},{"bike_id":"00dd9774-4d05-470d-a6fa-65dc1554c771","system_id":"levelo_inurba_marseille","lat":43.26496,"lon":5.39549,"is_reserved":false,"is_disabled":false,"rental_uris":{"android":"levelo://app?vid=00dd9774-4d05-470d-a6fa-65dc1554c771","ios":"levelo://app?vid=00dd9774-4d05-470d-a6fa-65dc1554c771"},"vehicle_type_id":"4","last_reported":1753308656,"current_range_meters":8000,"station_id":"ce4bhi12rcd13ifvqfq0","pricing_plan_id":"cebpf4jnsgd1na2vs0mg"},{"bike_id":"6fef1da4-c747-4e56-8d2b-287dce5b6afb","system_id":"levelo_inurba_marseille","lat":43.31075,"lon":5.38354,"is_reserved":false,"is_disabled":false,"rental_uris":{"android":"levelo://app?vid=6fef1da4-c747-4e56-8d2b-287dce5b6afb","ios":"levelo://app?vid=6fef1da4-c747-4e56-8d2b-287dce5b6afb"},"vehicle_type_id":"4","last_reported":1753308656,"current_range_meters":8000,"station_id":"ce4bgv92rcd13ifvqcr0","pricing_plan_id":"cebpf4jnsgd1na2vs0mg"},{"bike_id":"56d6580e-bce0-49f8-83c1-c1c86d82a0a6","system_id":"levelo_inurba_marseille","lat":43.30795,"lon":5.38162,"is_reserved":false,"is_disabled":true,"rental_uris":{"android":"levelo://app?vid=56d6580e-bce0-49f8-83c1-c1c86d82a0a6","ios":"levelo://app?vid=56d6580e-bce0-49f8-83c1-c1c86d82a0a6"},"vehicle_type_id":"4","last_reported":1753308656,"current_range_meters":8000,"station_id":"ce4bgt12rcd13ifvqce0","pricing_plan_id":"cebpf4jnsgd1na2vs0mg"},{"bike_id":"bc885ce8-095e-401b-9353-18892eaf8275","system_id":"levelo_inurba_marseille","lat":43.30795,"lon":5.38157,"is_reserved":false,"is_disabled":false,"rental_uris":{"android":"levelo://app?vid=bc885ce8-095e-401b-9353-18892eaf8275","ios":"levelo://app?vid=bc885ce8-095e-401b-9353-18892eaf8275"},"vehicle_type_id":"4","last_reported":1753308656,"current_range_meters":8000,"station_id":"ce4bgt12rcd13ifvqce0","pricing_plan_id":"cebpf4jnsgd1na2vs0mg"},{"bike_id":"988a95a1-be28-4c92-ae5a-fa2c70b2d7e2","system_id":"levelo_inurba_marseille","lat":43.24179,"lon":5.39732,"is_reserved":false,"is_disabled":false,"rental_uris":{"android":"levelo://app?vid=988a95a1-be28-4c92-ae5a-fa2c70b2d7e2","ios":"levelo://app?vid=988a95a1-be28-4c92-ae5a-fa2c70b2d7e2"},"vehicle_type_id":"4","last_reported":1753308656,"current_range_meters":8000,"station_id":"ce4bhn12rcd13ifvqgpg","pricing_plan_id":"cebpf4jnsgd1na2vs0mg"},{"bike_id":"846538d0-e796-454f-89ab-7343700ac6bf","system_id":"levelo_inurba_marseille","lat":43.29239,"lon":5.3845,"is_reserved":false,"is_disabled":false,"rental_uris":{"android":"levelo://app?vid=846538d0-e796-454f-89ab-7343700ac6bf","ios":"levelo://app?vid=846538d0-e796-454f-89ab-7343700ac6bf"},"vehicle_type_id":"4","last_reported":1753308656,"current_range_meters":8000,"station_id":"ce4bh692rcd13ifvqea0","pricing_plan_id":"cebpf4jnsgd1na2vs0mg"},{"bike_id":"e4761578-ae86-4dfa-b146-0428e5d8cca7","system_id":"levelo_inurba_marseille","lat":43.24173,"lon":5.36396,"is_reserved":false,"is_disabled":true,"rental_uris":{"android":"levelo://app?vid=e4761578-ae86-4dfa-b146-0428e5d8cca7","ios":"levelo://app?vid=e4761578-ae86-4dfa-b146-0428e5d8cca7"},"vehicle_type_id":"4","last_reported":1753308656,"current_range_meters":8400,"station_id":"cpo36qri1sfpv3e86is0","pricing_plan_id":"cebpf4jnsgd1na2vs0mg"},{"bike_id":"fa29f406-fd05-4d21-9272-145a2ef05e32","system_id":"levelo_inurba_marseille","lat":43.31882,"lon":5.40735,"is_reserved":false,"is_disabled":false,"rental_uris":{"android":"levelo://app?vid=fa29f406-fd05-4d21-9272-145a2ef05e32","ios":"levelo://app?vid=fa29f406-fd05-4d21-9272-145a2ef05e32"},"vehicle_type_id":"4","last_reported":1753308656,"current_range_meters":8000,"station_id":"ce4bhq12rcd13ifvqhig","pricing_plan_id":"cebpf4jnsgd1na2vs0mg"},{"bike_id":"fd951b27-b2cb-4d84-9154-19e7396e99d8","system_id":"levelo_inurba_marseille","lat":43.29564,"lon":5.39973,"is_reserved":false,"is_disabled":false,"rental_uris":{"android":"levelo://app?vid=fd951b27-b2cb-4d84-9154-19e7396e99d8","ios":"levelo://app?vid=fd951b27-b2cb-4d84-9154-19e7396e99d8"},"vehicle_type_id":"4","last_reported":1753308656,"current_range_meters":8400,"station_id":"ce4bh312rcd13ifvqdj0","pricing_plan_id":"cebpf4jnsgd1na2vs0mg"},{"bike_id":"a5f1f0d6-c678-45f4-9b29-96eaa29a3e36","system_id":"levelo_inurba_marseille","lat":43.251655,"lon":5.373391,"is_reserved":false,"is_disabled":true,"rental_uris":{"android":"levelo://app?vid=a5f1f0d6-c678-45f4-9b29-96eaa29a3e36","ios":"levelo://app?vid=a5f1f0d6-c678-45f4-9b29-96eaa29a3e36"},"vehicle_type_id":"4","last_reported":1753308656,"current_range_meters":8400,"station_id":"","pricing_plan_id":"cebpf4jnsgd1na2vs0mg"},{"bike_id":"c3a98e33-4282-46af-995e-a3c70499b0ce","system_id":"levelo_inurba_marseille","lat":43.28702,"lon":5.39991,"is_reserved":false,"is_disabled":false,"rental_uris":{"android":"levelo://app?vid=c3a98e33-4282-46af-995e-a3c70499b0ce","ios":"levelo://app?vid=c3a98e33-4282-46af-995e-a3c70499b0ce"},"vehicle_type_id":"4","last_reported":1753308656,"current_range_meters":8800,"station_id":"ce4bho92rcd13ifvqh3g","pricing_plan_id":"cebpf4jnsgd1na2vs0mg"},{"bike_id":"b95ecc0d-6b63-4072-87fc-02f9fe3511a3","system_id":"levelo_inurba_marseille","lat":43.30136,"lon":5.38773,"is_reserved":false,"is_disabled":false,"rental_uris":{"android":"levelo://app?vid=b95ecc0d-6b63-4072-87fc-02f9fe3511a3","ios":"levelo://app?vid=b95ecc0d-6b63-4072-87fc-02f9fe3511a3"},"vehicle_type_id":"4","last_reported":1753308656,"current_range_meters":8800,"station_id":"ce4bghh2rcd13ifvqb60","pricing_plan_id":"cebpf4jnsgd1na2vs0mg"},{"bike_id":"7d09b13c-ebc2-4748-a807-033d4cb42b76","system_id":"levelo_inurba_marseille","lat":43.28695,"lon":5.37391,"is_reserved":false,"is_disabled":false,"rental_uris":{"android":"levelo://app?vid=7d09b13c-ebc2-4748-a807-033d4cb42b76","ios":"levelo://app?vid=7d09b13c-ebc2-4748-a807-033d4cb42b76"},"vehicle_type_id":"4","last_reported":1753308656,"current_range_meters":8800,"station_id":"ce4bh3p2rcd13ifvqdq0","pricing_plan_id":"cebpf4jnsgd1na2vs0mg"},{"bike_id":"26be4685-15bc-435c-b307-7febbc485157","system_id":"levelo_inurba_marseille","lat":43.29256,"lon":5.40893,"is_reserved":false,"is_disabled":false,"rental_uris":{"android":"levelo://app?vid=26be4685-15bc-435c-b307-7febbc485157","ios":"levelo://app?vid=26be4685-15bc-435c-b307-7febbc485157"},"vehicle_type_id":"4","last_reported":1753308656,"current_range_meters":8400,"station_id":"ce4bh192rcd13ifvqdc0","pricing_plan_id":"cebpf4jnsgd1na2vs0mg"},{"bike_id":"c9dbd36b-479c-4a5c-b200-3aa7673340d9","system_id":"levelo_inurba_marseille","lat":43.241448,"lon":5.363743,"is_reserved":false,"is_disabled":true,"rental_uris":{"android":"levelo://app?vid=c9dbd36b-479c-4a5c-b200-3aa7673340d9","ios":"levelo://app?vid=c9dbd36b-479c-4a5c-b200-3aa7673340d9"},"vehicle_type_id":"4","last_reported":1753308656,"current_range_meters":8800,"station_id":"","pricing_plan_id":"cebpf4jnsgd1na2vs0mg"},{"bike_id":"cc90d8b1-c5a5-4868-b902-1a8ca8c3d09b","system_id":"levelo_inurba_marseille","lat":43.29605,"lon":5.36734,"is_reserved":false,"is_disabled":false,"rental_uris":{"android":"levelo://app?vid=cc90d8b1-c5a5-4868-b902-1a8ca8c3d09b","ios":"levelo://app?vid=cc90d8b1-c5a5-4868-b902-1a8ca8c3d09b"},"vehicle_type_id":"4","last_reported":1753308656,"current_range_meters":8800,"station_id":"ce4bgph2rcd13ifvqc2g","pricing_plan_id":"cebpf4jnsgd1na2vs0mg"},{"bike_id":"8e98eab0-66ab-41cb-865f-913b58891b39","system_id":"levelo_inurba_marseille","lat":43.22483,"lon":5.34787,"is_reserved":false,"is_disabled":false,"rental_uris":{"android":"levelo://app?vid=8e98eab0-66ab-41cb-865f-913b58891b39","ios":"levelo://app?vid=8e98eab0-66ab-41cb-865f-913b58891b39"},"vehicle_type_id":"4","last_reported":1753308656,"current_range_meters":8800,"station_id":"st_cvj5dfep6f1abm77gieg","pricing_plan_id":"cebpf4jnsgd1na2vs0mg"},{"bike_id":"aa5097b6-6968-4aec-b711-e7780938924b","system_id":"levelo_inurba_marseille","lat":43.32948,"lon":5.35898,"is_reserved":false,"is_disabled":false,"rental_uris":{"android":"levelo://app?vid=aa5097b6-6968-4aec-b711-e7780938924b","ios":"levelo://app?vid=aa5097b6-6968-4aec-b711-e7780938924b"},"vehicle_type_id":"4","last_reported":1753308656,"current_range_meters":8800,"station_id":"","pricing_plan_id":"cebpf4jnsgd1na2vs0mg"},{"bike_id":"bbae6252-6348-41b8-a737-a5ce63a56ab4","system_id":"levelo_inurba_marseille","lat":43.28707,"lon":5.39993,"is_reserved":false,"is_disabled":false,"rental_uris":{"android":"levelo://app?vid=bbae6252-6348-41b8-a737-a5ce63a56ab4","ios":"levelo://app?vid=bbae6252-6348-41b8-a737-a5ce63a56ab4"},"vehicle_type_id":"4","last_reported":1753308656,"current_range_meters":9200,"station_id":"ce4bho92rcd13ifvqh3g","pricing_plan_id":"cebpf4jnsgd1na2vs0mg"},{"bike_id":"5414db24-c4e1-46d1-bb19-aedc4e368a31","system_id":"levelo_inurba_marseille","lat":43.2582,"lon":5.39441,"is_reserved":false,"is_disabled":false,"rental_uris":{"android":"levelo://app?vid=5414db24-c4e1-46d1-bb19-aedc4e368a31","ios":"levelo://app?vid=5414db24-c4e1-46d1-bb19-aedc4e368a31"},"vehicle_type_id":"4","last_reported":1753308656,"current_range_meters":9600,"station_id":"ce4bhip2rcd13ifvqft0","pricing_plan_id":"cebpf4jnsgd1na2vs0mg"},{"bike_id":"99c992ad-718b-4ac7-afb7-39da79c6c83b","system_id":"levelo_inurba_marseille","lat":43.28151,"lon":5.42644,"is_reserved":false,"is_disabled":false,"rental_uris":{"android":"levelo://app?vid=99c992ad-718b-4ac7-afb7-39da79c6c83b","ios":"levelo://app?vid=99c992ad-718b-4ac7-afb7-39da79c6c83b"},"vehicle_type_id":"4","last_reported":1753308656,"current_range_meters":9200,"station_id":"ce4bhnh2rcd13ifvqgug","pricing_plan_id":"cebpf4jnsgd1na2vs0mg"},{"bike_id":"9e16506d-12fa-4e2d-afc9-f71bbc6e3793","system_id":"levelo_inurba_marseille","lat":43.28656,"lon":5.36341,"is_reserved":false,"is_disabled":false,"rental_uris":{"android":"levelo://app?vid=9e16506d-12fa-4e2d-afc9-f71bbc6e3793","ios":"levelo://app?vid=9e16506d-12fa-4e2d-afc9-f71bbc6e3793"},"vehicle_type_id":"4","last_reported":1753308656,"current_range_meters":9200,"station_id":"ce4bhah2rcd13ifvqej0","pricing_plan_id":"cebpf4jnsgd1na2vs0mg"},{"bike_id":"da053e6a-15f2-492e-8bc1-42b1d66cc329","system_id":"levelo_inurba_marseille","lat":43.28333,"lon":5.43265,"is_reserved":false,"is_disabled":false,"rental_uris":{"android":"levelo://app?vid=da053e6a-15f2-492e-8bc1-42b1d66cc329","ios":"levelo://app?vid=da053e6a-15f2-492e-8bc1-42b1d66cc329"},"vehicle_type_id":"4","last_reported":1753308656,"current_range_meters":9600,"station_id":"","pricing_plan_id":"cebpf4jnsgd1na2vs0mg"},{"bike_id":"71883e3a-ecc9-49e8-81d2-45700188f7a5","system_id":"levelo_inurba_marseille","lat":43.29578,"lon":5.36751,"is_reserved":false,"is_disabled":false,"rental_uris":{"android":"levelo://app?vid=71883e3a-ecc9-49e8-81d2-45700188f7a5","ios":"levelo://app?vid=71883e3a-ecc9-49e8-81d2-45700188f7a5"},"vehicle_type_id":"4","last_reported":1753308656,"current_range_meters":9600,"station_id":"ce4bgph2rcd13ifvqc2g","pricing_plan_id":"cebpf4jnsgd1na2vs0mg"},{"bike_id":"54b90803-bee9-4ca3-a80c-708ce5f223e3","system_id":"levelo_inurba_marseille","lat":43.30952,"lon":5.3903,"is_reserved":false,"is_disabled":false,"rental_uris":{"android":"levelo://app?vid=54b90803-bee9-4ca3-a80c-708ce5f223e3","ios":"levelo://app?vid=54b90803-bee9-4ca3-a80c-708ce5f223e3"},"vehicle_type_id":"4","last_reported":1753308656,"current_range_meters":9200,"station_id":"ce4bgup2rcd13ifvqco0","pricing_plan_id":"cebpf4jnsgd1na2vs0mg"},{"bike_id":"a8baf563-212d-4d33-a0d1-16dc82f429b5","system_id":"levelo_inurba_marseille","lat":43.31483,"lon":5.37308,"is_reserved":false,"is_disabled":false,"rental_uris":{"android":"levelo://app?vid=a8baf563-212d-4d33-a0d1-16dc82f429b5","ios":"levelo://app?vid=a8baf563-212d-4d33-a0d1-16dc82f429b5"},"vehicle_type_id":"4","last_reported":1753308656,"current_range_meters":9600,"station_id":"ce4bgt12rcd13ifvqcd0","pricing_plan_id":"cebpf4jnsgd1na2vs0mg"},{"bike_id":"932c14f6-0234-4115-8c5c-fa5c03fa007d","system_id":"levelo_inurba_marseille","lat":43.29013,"lon":5.38648,"is_reserved":false,"is_disabled":false,"rental_uris":{"android":"levelo://app?vid=932c14f6-0234-4115-8c5c-fa5c03fa007d","ios":"levelo://app?vid=932c14f6-0234-4115-8c5c-fa5c03fa007d"},"vehicle_type_id":"4","last_reported":1753308656,"current_range_meters":10000,"station_id":"ce4bh4p2rcd13ifvqe0g","pricing_plan_id":"cebpf4jnsgd1na2vs0mg"},{"bike_id":"c3b4c842-89f1-49ff-abb9-fc4b30df4519","system_id":"levelo_inurba_marseille","lat":43.25575,"lon":5.38238,"is_reserved":false,"is_disabled":true,"rental_uris":{"android":"levelo://app?vid=c3b4c842-89f1-49ff-abb9-fc4b30df4519","ios":"levelo://app?vid=c3b4c842-89f1-49ff-abb9-fc4b30df4519"},"vehicle_type_id":"4","last_reported":1753308656,"current_range_meters":10000,"station_id":"ce4bhih2rcd13ifvqfs0","pricing_plan_id":"cebpf4jnsgd1na2vs0mg"},{"bike_id":"8d2c55a2-9d57-4ee3-a85d-5c180fad3a09","system_id":"levelo_inurba_marseille","lat":43.2991,"lon":5.37617,"is_reserved":false,"is_disabled":false,"rental_uris":{"android":"levelo://app?vid=8d2c55a2-9d57-4ee3-a85d-5c180fad3a09","ios":"levelo://app?vid=8d2c55a2-9d57-4ee3-a85d-5c180fad3a09"},"vehicle_type_id":"4","last_reported":1753308656,"current_range_meters":11200,"station_id":"","pricing_plan_id":"cebpf4jnsgd1na2vs0mg"},{"bike_id":"2f28d329-119a-4e57-a5e3-b62d730c55ed","system_id":"levelo_inurba_marseille","lat":43.28562,"lon":5.39502,"is_reserved":false,"is_disabled":false,"rental_uris":{"android":"levelo://app?vid=2f28d329-119a-4e57-a5e3-b62d730c55ed","ios":"levelo://app?vid=2f28d329-119a-4e57-a5e3-b62d730c55ed"},"vehicle_type_id":"4","last_reported":1753308656,"current_range_meters":10000,"station_id":"ce4bh292rcd13ifvqdg0","pricing_plan_id":"cebpf4jnsgd1na2vs0mg"},{"bike_id":"f9062784-0417-4840-bb15-81c56a64826f","system_id":"levelo_inurba_marseille","lat":43.22504,"lon":5.3478,"is_reserved":false,"is_disabled":false,"rental_uris":{"android":"levelo://app?vid=f9062784-0417-4840-bb15-81c56a64826f","ios":"levelo://app?vid=f9062784-0417-4840-bb15-81c56a64826f"},"vehicle_type_id":"4","last_reported":1753308656,"current_range_meters":10800,"station_id":"","pricing_plan_id":"cebpf4jnsgd1na2vs0mg"},{"bike_id":"be5b0fec-6e3d-40e8-9297-686e7b5f9412","system_id":"levelo_inurba_marseille","lat":43.29267,"lon":5.409,"is_reserved":false,"is_disabled":false,"rental_uris":{"android":"levelo://app?vid=be5b0fec-6e3d-40e8-9297-686e7b5f9412","ios":"levelo://app?vid=be5b0fec-6e3d-40e8-9297-686e7b5f9412"},"vehicle_type_id":"4","last_reported":1753308656,"current_range_meters":10800,"station_id":"ce4bh192rcd13ifvqdc0","pricing_plan_id":"cebpf4jnsgd1na2vs0mg"},{"bike_id":"c4ab8b6f-b9e7-4d47-91c0-82fcf9196b75","system_id":"levelo_inurba_marseille","lat":43.30236,"lon":5.40057,"is_reserved":false,"is_disabled":true,"rental_uris":{"android":"levelo://app?vid=c4ab8b6f-b9e7-4d47-91c0-82fcf9196b75","ios":"levelo://app?vid=c4ab8b6f-b9e7-4d47-91c0-82fcf9196b75"},"vehicle_type_id":"4","last_reported":1753308656,"current_range_meters":10800,"station_id":"ce4bgvh2rcd13ifvqcs0","pricing_plan_id":"cebpf4jnsgd1na2vs0mg"},{"bike_id":"e1a52017-1f37-4c7d-8517-1a94326b5e3a","system_id":"levelo_inurba_marseille","lat":43.29024,"lon":5.38651,"is_reserved":false,"is_disabled":false,"rental_uris":{"android":"levelo://app?vid=e1a52017-1f37-4c7d-8517-1a94326b5e3a","ios":"levelo://app?vid=e1a52017-1f37-4c7d-8517-1a94326b5e3a"},"vehicle_type_id":"4","last_reported":1753308656,"current_range_meters":10800,"station_id":"ce4bh4p2rcd13ifvqe0g","pricing_plan_id":"cebpf4jnsgd1na2vs0mg"},{"bike_id":"0901b411-e486-4e80-bf7a-ca02131c37b1","system_id":"levelo_inurba_marseille","lat":43.29251,"lon":5.40918,"is_reserved":false,"is_disabled":false,"rental_uris":{"android":"levelo://app?vid=0901b411-e486-4e80-bf7a-ca02131c37b1","ios":"levelo://app?vid=0901b411-e486-4e80-bf7a-ca02131c37b1"},"vehicle_type_id":"4","last_reported":1753308656,"current_range_meters":10800,"station_id":"ce4bh192rcd13ifvqdc0","pricing_plan_id":"cebpf4jnsgd1na2vs0mg"},{"bike_id":"6cbd5bb8-ece6-4a6e-9708-07d298472fb3","system_id":"levelo_inurba_marseille","lat":43.28343,"lon":5.38113,"is_reserved":false,"is_disabled":false,"rental_uris":{"android":"levelo://app?vid=6cbd5bb8-ece6-4a6e-9708-07d298472fb3","ios":"levelo://app?vid=6cbd5bb8-ece6-4a6e-9708-07d298472fb3"},"vehicle_type_id":"4","last_reported":1753308656,"current_range_meters":11200,"station_id":"ce4bh412rcd13ifvqdr0","pricing_plan_id":"cebpf4jnsgd1na2vs0mg"},{"bike_id":"de45d814-b95a-4759-9f6f-a86ee21f1cd5","system_id":"levelo_inurba_marseille","lat":43.28424,"lon":5.39188,"is_reserved":false,"is_disabled":false,"rental_uris":{"android":"levelo://app?vid=de45d814-b95a-4759-9f6f-a86ee21f1cd5","ios":"levelo://app?vid=de45d814-b95a-4759-9f6f-a86ee21f1cd5"},"vehicle_type_id":"4","last_reported":1753308656,"current_range_meters":11200,"station_id":"ce4bhoh2rcd13ifvqh5g","pricing_plan_id":"cebpf4jnsgd1na2vs0mg"},{"bike_id":"5d6e5fc6-7151-4d2e-a6cf-eeb0b691217a","system_id":"levelo_inurba_marseille","lat":43.289251,"lon":5.383916,"is_reserved":false,"is_disabled":false,"rental_uris":{"android":"levelo://app?vid=5d6e5fc6-7151-4d2e-a6cf-eeb0b691217a","ios":"levelo://app?vid=5d6e5fc6-7151-4d2e-a6cf-eeb0b691217a"},"vehicle_type_id":"4","last_reported":1753308656,"current_range_meters":11200,"station_id":"ce4bh612rcd13ifvqe6g","pricing_plan_id":"cebpf4jnsgd1na2vs0mg"},{"bike_id":"b982e5a3-88f5-4403-a53a-38d90073ed80","system_id":"levelo_inurba_marseille","lat":43.29425,"lon":5.43224,"is_reserved":false,"is_disabled":false,"rental_uris":{"android":"levelo://app?vid=b982e5a3-88f5-4403-a53a-38d90073ed80","ios":"levelo://app?vid=b982e5a3-88f5-4403-a53a-38d90073ed80"},"vehicle_type_id":"4","last_reported":1753308656,"current_range_meters":11200,"station_id":"","pricing_plan_id":"cebpf4jnsgd1na2vs0mg"},{"bike_id":"5110c428-49c8-4321-80d3-645f9bfd8112","system_id":"levelo_inurba_marseille","lat":43.295852,"lon":5.367593,"is_reserved":false,"is_disabled":false,"rental_uris":{"android":"levelo://app?vid=5110c428-49c8-4321-80d3-645f9bfd8112","ios":"levelo://app?vid=5110c428-49c8-4321-80d3-645f9bfd8112"},"vehicle_type_id":"4","last_reported":1753308656,"current_range_meters":11200,"station_id":"ce4bgph2rcd13ifvqc2g","pricing_plan_id":"cebpf4jnsgd1na2vs0mg"},{"bike_id":"d6476050-4007-4861-910d-1f47a8d7997f","system_id":"levelo_inurba_marseille","lat":43.29586,"lon":5.3812,"is_reserved":false,"is_disabled":false,"rental_uris":{"android":"levelo://app?vid=d6476050-4007-4861-910d-1f47a8d7997f","ios":"levelo://app?vid=d6476050-4007-4861-910d-1f47a8d7997f"},"vehicle_type_id":"4","last_reported":1753308656,"current_range_meters":11600,"station_id":"ce4bgl12rcd13ifvqbo0","pricing_plan_id":"cebpf4jnsgd1na2vs0mg"},{"bike_id":"cc926983-7496-48df-9677-b8723ddc96b9","system_id":"levelo_inurba_marseille","lat":43.22912,"lon":5.35422,"is_reserved":false,"is_disabled":false,"rental_uris":{"android":"levelo://app?vid=cc926983-7496-48df-9677-b8723ddc96b9","ios":"levelo://app?vid=cc926983-7496-48df-9677-b8723ddc96b9"},"vehicle_type_id":"4","last_reported":1753308656,"current_range_meters":11600,"station_id":"cpo3532slgdg3j2ikp40","pricing_plan_id":"cebpf4jnsgd1na2vs0mg"},{"bike_id":"60ca143a-d547-405d-9466-28b1c2e3cba9","system_id":"levelo_inurba_marseille","lat":43.30422,"lon":5.38889,"is_reserved":false,"is_disabled":false,"rental_uris":{"android":"levelo://app?vid=60ca143a-d547-405d-9466-28b1c2e3cba9","ios":"levelo://app?vid=60ca143a-d547-405d-9466-28b1c2e3cba9"},"vehicle_type_id":"4","last_reported":1753308656,"current_range_meters":11600,"station_id":"ce4bgk12rcd13ifvqbi0","pricing_plan_id":"cebpf4jnsgd1na2vs0mg"},{"bike_id":"50e67b97-2825-4d41-83b3-4467fc9bca74","system_id":"levelo_inurba_marseille","lat":43.30261,"lon":5.40067,"is_reserved":false,"is_disabled":false,"rental_uris":{"android":"levelo://app?vid=50e67b97-2825-4d41-83b3-4467fc9bca74","ios":"levelo://app?vid=50e67b97-2825-4d41-83b3-4467fc9bca74"},"vehicle_type_id":"4","last_reported":1753308656,"current_range_meters":11600,"station_id":"ce4bgvh2rcd13ifvqcs0","pricing_plan_id":"cebpf4jnsgd1na2vs0mg"},{"bike_id":"9414fea0-7c6e-4c39-95f1-457a63a631b4","system_id":"levelo_inurba_marseille","lat":43.22507,"lon":5.34779,"is_reserved":false,"is_disabled":true,"rental_uris":{"android":"levelo://app?vid=9414fea0-7c6e-4c39-95f1-457a63a631b4","ios":"levelo://app?vid=9414fea0-7c6e-4c39-95f1-457a63a631b4"},"vehicle_type_id":"4","last_reported":1753308656,"current_range_meters":11600,"station_id":"st_cvj5dfep6f1abm77gieg","pricing_plan_id":"cebpf4jnsgd1na2vs0mg"},{"bike_id":"eb954183-4e28-47d1-a5c2-d40cd268372d","system_id":"levelo_inurba_marseille","lat":43.28849,"lon":5.35832,"is_reserved":false,"is_disabled":true,"rental_uris":{"android":"levelo://app?vid=eb954183-4e28-47d1-a5c2-d40cd268372d","ios":"levelo://app?vid=eb954183-4e28-47d1-a5c2-d40cd268372d"},"vehicle_type_id":"4","last_reported":1753308656,"current_range_meters":11600,"station_id":"ce4bhb12rcd13ifvqem0","pricing_plan_id":"cebpf4jnsgd1na2vs0mg"},{"bike_id":"f614a5fa-3e20-4276-97a0-7c5f2dfcabb0","system_id":"levelo_inurba_marseille","lat":43.26566,"lon":5.38997,"is_reserved":false,"is_disabled":false,"rental_uris":{"android":"levelo://app?vid=f614a5fa-3e20-4276-97a0-7c5f2dfcabb0","ios":"levelo://app?vid=f614a5fa-3e20-4276-97a0-7c5f2dfcabb0"},"vehicle_type_id":"4","last_reported":1753308656,"current_range_meters":11600,"station_id":"ce4bhe12rcd13ifvqf30","pricing_plan_id":"cebpf4jnsgd1na2vs0mg"},{"bike_id":"9f3ed220-9e9e-4bc8-a5f6-aeb6066011ca","system_id":"levelo_inurba_marseille","lat":43.26239,"lon":5.37438,"is_reserved":false,"is_disabled":false,"rental_uris":{"android":"levelo://app?vid=9f3ed220-9e9e-4bc8-a5f6-aeb6066011ca","ios":"levelo://app?vid=9f3ed220-9e9e-4bc8-a5f6-aeb6066011ca"},"vehicle_type_id":"4","last_reported":1753308656,"current_range_meters":11600,"station_id":"","pricing_plan_id":"cebpf4jnsgd1na2vs0mg"},{"bike_id":"59faeb47-c01e-4c4e-84ef-3eb0657108d9","system_id":"levelo_inurba_marseille","lat":43.30633,"lon":5.401255,"is_reserved":false,"is_disabled":false,"rental_uris":{"android":"levelo://app?vid=59faeb47-c01e-4c4e-84ef-3eb0657108d9","ios":"levelo://app?vid=59faeb47-c01e-4c4e-84ef-3eb0657108d9"},"vehicle_type_id":"4","last_reported":1753308656,"current_range_meters":12000,"station_id":"ce4bh112rcd13ifvqda0","pricing_plan_id":"cebpf4jnsgd1na2vs0mg"},{"bike_id":"bbc2b271-396f-4875-9f1d-0fcc163d87b6","system_id":"levelo_inurba_marseille","lat":43.29078,"lon":5.39887,"is_reserved":false,"is_disabled":false,"rental_uris":{"android":"levelo://app?vid=bbc2b271-396f-4875-9f1d-0fcc163d87b6","ios":"levelo://app?vid=bbc2b271-396f-4875-9f1d-0fcc163d87b6"},"vehicle_type_id":"4","last_reported":1753308656,"current_range_meters":12000,"station_id":"","pricing_plan_id":"cebpf4jnsgd1na2vs0mg"},{"bike_id":"2f61fd6c-d657-4c53-bdf7-4cb4dc022375","system_id":"levelo_inurba_marseille","lat":43.29596,"lon":5.36733,"is_reserved":false,"is_disabled":false,"rental_uris":{"android":"levelo://app?vid=2f61fd6c-d657-4c53-bdf7-4cb4dc022375","ios":"levelo://app?vid=2f61fd6c-d657-4c53-bdf7-4cb4dc022375"},"vehicle_type_id":"4","last_reported":1753308656,"current_range_meters":12000,"station_id":"ce4bgph2rcd13ifvqc2g","pricing_plan_id":"cebpf4jnsgd1na2vs0mg"},{"bike_id":"a1030235-78f0-4cf4-bc24-4c2485eaed94","system_id":"levelo_inurba_marseille","lat":43.29024,"lon":5.38647,"is_reserved":false,"is_disabled":false,"rental_uris":{"android":"levelo://app?vid=a1030235-78f0-4cf4-bc24-4c2485eaed94","ios":"levelo://app?vid=a1030235-78f0-4cf4-bc24-4c2485eaed94"},"vehicle_type_id":"4","last_reported":1753308656,"current_range_meters":12000,"station_id":"ce4bh4p2rcd13ifvqe0g","pricing_plan_id":"cebpf4jnsgd1na2vs0mg"},{"bike_id":"649a6524-8390-4653-8bcf-9537fff11e28","system_id":"levelo_inurba_marseille","lat":43.28458,"lon":5.35897,"is_reserved":false,"is_disabled":false,"rental_uris":{"android":"levelo://app?vid=649a6524-8390-4653-8bcf-9537fff11e28","ios":"levelo://app?vid=649a6524-8390-4653-8bcf-9537fff11e28"},"vehicle_type_id":"4","last_reported":1753308656,"current_range_meters":12400,"station_id":"ce4bhah2rcd13ifvqei0","pricing_plan_id":"cebpf4jnsgd1na2vs0mg"},{"bike_id":"396dbd6b-bd12-4fba-a413-85741f08daa2","system_id":"levelo_inurba_marseille","lat":43.23057,"lon":5.35494,"is_reserved":false,"is_disabled":false,"rental_uris":{"android":"levelo://app?vid=396dbd6b-bd12-4fba-a413-85741f08daa2","ios":"levelo://app?vid=396dbd6b-bd12-4fba-a413-85741f08daa2"},"vehicle_type_id":"4","last_reported":1753308656,"current_range_meters":12400,"station_id":"cpo3342slgdg3j2ifvpg","pricing_plan_id":"cebpf4jnsgd1na2vs0mg"},{"bike_id":"ce48a911-4507-4b74-976c-1633ca96f1c2","system_id":"levelo_inurba_marseille","lat":43.29582,"lon":5.36734,"is_reserved":false,"is_disabled":false,"rental_uris":{"android":"levelo://app?vid=ce48a911-4507-4b74-976c-1633ca96f1c2","ios":"levelo://app?vid=ce48a911-4507-4b74-976c-1633ca96f1c2"},"vehicle_type_id":"4","last_reported":1753308656,"current_range_meters":12800,"station_id":"ce4bgph2rcd13ifvqc2g","pricing_plan_id":"cebpf4jnsgd1na2vs0mg"},{"bike_id":"fec3b07e-037a-4fea-a191-679ee2b99950","system_id":"levelo_inurba_marseille","lat":43.24169,"lon":5.36393,"is_reserved":false,"is_disabled":false,"rental_uris":{"android":"levelo://app?vid=fec3b07e-037a-4fea-a191-679ee2b99950","ios":"levelo://app?vid=fec3b07e-037a-4fea-a191-679ee2b99950"},"vehicle_type_id":"4","last_reported":1753308656,"current_range_meters":12800,"station_id":"cpo36qri1sfpv3e86is0","pricing_plan_id":"cebpf4jnsgd1na2vs0mg"},{"bike_id":"8ec20033-c504-453d-b981-c50e22a5004a","system_id":"levelo_inurba_marseille","lat":43.27678,"lon":5.3888,"is_reserved":false,"is_disabled":false,"rental_uris":{"android":"levelo://app?vid=8ec20033-c504-453d-b981-c50e22a5004a","ios":"levelo://app?vid=8ec20033-c504-453d-b981-c50e22a5004a"},"vehicle_type_id":"4","last_reported":1753308656,"current_range_meters":12800,"station_id":"ce4bhi12rcd13ifvqfo0","pricing_plan_id":"cebpf4jnsgd1na2vs0mg"},{"bike_id":"be73e0c3-1fcd-4852-b65a-d69995cb5cc9","system_id":"levelo_inurba_marseille","lat":43.323313,"lon":5.406377,"is_reserved":false,"is_disabled":true,"rental_uris":{"android":"levelo://app?vid=be73e0c3-1fcd-4852-b65a-d69995cb5cc9","ios":"levelo://app?vid=be73e0c3-1fcd-4852-b65a-d69995cb5cc9"},"vehicle_type_id":"4","last_reported":1753308656,"current_range_meters":12800,"station_id":"ce4bhq92rcd13ifvqhjg","pricing_plan_id":"cebpf4jnsgd1na2vs0mg"},{"bike_id":"9d8794fb-4dc3-48df-ba3f-eb992b8693e1","system_id":"levelo_inurba_marseille","lat":43.30791,"lon":5.38172,"is_reserved":false,"is_disabled":false,"rental_uris":{"android":"levelo://app?vid=9d8794fb-4dc3-48df-ba3f-eb992b8693e1","ios":"levelo://app?vid=9d8794fb-4dc3-48df-ba3f-eb992b8693e1"},"vehicle_type_id":"4","last_reported":1753308656,"current_range_meters":12800,"station_id":"ce4bgt12rcd13ifvqce0","pricing_plan_id":"cebpf4jnsgd1na2vs0mg"},{"bike_id":"88a9f625-7de7-4de5-aa62-8abe9be22433","system_id":"levelo_inurba_marseille","lat":43.29033,"lon":5.3862,"is_reserved":false,"is_disabled":false,"rental_uris":{"android":"levelo://app?vid=88a9f625-7de7-4de5-aa62-8abe9be22433","ios":"levelo://app?vid=88a9f625-7de7-4de5-aa62-8abe9be22433"},"vehicle_type_id":"4","last_reported":1753308656,"current_range_meters":12800,"station_id":"ce4bh4p2rcd13ifvqe0g","pricing_plan_id":"cebpf4jnsgd1na2vs0mg"},{"bike_id":"6ba8bf23-faf4-4e7f-a0da-6f0984da5df1","system_id":"levelo_inurba_marseille","lat":43.26221,"lon":5.37454,"is_reserved":false,"is_disabled":false,"rental_uris":{"android":"levelo://app?vid=6ba8bf23-faf4-4e7f-a0da-6f0984da5df1","ios":"levelo://app?vid=6ba8bf23-faf4-4e7f-a0da-6f0984da5df1"},"vehicle_type_id":"4","last_reported":1753308656,"current_range_meters":12800,"station_id":"ce4bhgp2rcd13ifvqfc0","pricing_plan_id":"cebpf4jnsgd1na2vs0mg"},{"bike_id":"090d7deb-8a7a-4808-8cd3-c2b344659d72","system_id":"levelo_inurba_marseille","lat":43.26786,"lon":5.3942,"is_reserved":false,"is_disabled":false,"rental_uris":{"android":"levelo://app?vid=090d7deb-8a7a-4808-8cd3-c2b344659d72","ios":"levelo://app?vid=090d7deb-8a7a-4808-8cd3-c2b344659d72"},"vehicle_type_id":"4","last_reported":1753308656,"current_range_meters":13600,"station_id":"ce4bhh12rcd13ifvqfg0","pricing_plan_id":"cebpf4jnsgd1na2vs0mg"},{"bike_id":"ba1f0b2a-bef0-4f49-a143-8e2b1ea235c7","system_id":"levelo_inurba_marseille","lat":43.31066,"lon":5.38351,"is_reserved":false,"is_disabled":false,"rental_uris":{"android":"levelo://app?vid=ba1f0b2a-bef0-4f49-a143-8e2b1ea235c7","ios":"levelo://app?vid=ba1f0b2a-bef0-4f49-a143-8e2b1ea235c7"},"vehicle_type_id":"4","last_reported":1753308656,"current_range_meters":13600,"station_id":"ce4bgv92rcd13ifvqcr0","pricing_plan_id":"cebpf4jnsgd1na2vs0mg"},{"bike_id":"5ee28cfc-8674-420b-be6e-e28408bf9258","system_id":"levelo_inurba_marseille","lat":43.29874,"lon":5.38898,"is_reserved":false,"is_disabled":false,"rental_uris":{"android":"levelo://app?vid=5ee28cfc-8674-420b-be6e-e28408bf9258","ios":"levelo://app?vid=5ee28cfc-8674-420b-be6e-e28408bf9258"},"vehicle_type_id":"4","last_reported":1753308656,"current_range_meters":13600,"station_id":"ce4bh392rcd13ifvqdl0","pricing_plan_id":"cebpf4jnsgd1na2vs0mg"},{"bike_id":"f9c9ff83-8548-4acb-a33b-495af4adeef4","system_id":"levelo_inurba_marseille","lat":43.32371,"lon":5.3675,"is_reserved":false,"is_disabled":false,"rental_uris":{"android":"levelo://app?vid=f9c9ff83-8548-4acb-a33b-495af4adeef4","ios":"levelo://app?vid=f9c9ff83-8548-4acb-a33b-495af4adeef4"},"vehicle_type_id":"4","last_reported":1753308656,"current_range_meters":13600,"station_id":"ce4bhsh2rcd13ifvqi2g","pricing_plan_id":"cebpf4jnsgd1na2vs0mg"},{"bike_id":"8006020a-6cfe-4131-82ca-a6c8f07671d2","system_id":"levelo_inurba_marseille","lat":43.31202,"lon":5.37697,"is_reserved":false,"is_disabled":false,"rental_uris":{"android":"levelo://app?vid=8006020a-6cfe-4131-82ca-a6c8f07671d2","ios":"levelo://app?vid=8006020a-6cfe-4131-82ca-a6c8f07671d2"},"vehicle_type_id":"4","last_reported":1753308656,"current_range_meters":13600,"station_id":"","pricing_plan_id":"cebpf4jnsgd1na2vs0mg"},{"bike_id":"a23567dc-f3a0-4378-b496-90cd12ea77ac","system_id":"levelo_inurba_marseille","lat":43.2737,"lon":5.36261,"is_reserved":false,"is_disabled":false,"rental_uris":{"android":"levelo://app?vid=a23567dc-f3a0-4378-b496-90cd12ea77ac","ios":"levelo://app?vid=a23567dc-f3a0-4378-b496-90cd12ea77ac"},"vehicle_type_id":"4","last_reported":1753308656,"current_range_meters":13600,"station_id":"ce4bhbh2rcd13ifvqeo0","pricing_plan_id":"cebpf4jnsgd1na2vs0mg"},{"bike_id":"541e3f7a-640b-4d8c-977d-949ca2a087ab","system_id":"levelo_inurba_marseille","lat":43.30796,"lon":5.379577,"is_reserved":false,"is_disabled":true,"rental_uris":{"android":"levelo://app?vid=541e3f7a-640b-4d8c-977d-949ca2a087ab","ios":"levelo://app?vid=541e3f7a-640b-4d8c-977d-949ca2a087ab"},"vehicle_type_id":"4","last_reported":1753308656,"current_range_meters":13600,"station_id":"ce4bgt12rcd13ifvqce0","pricing_plan_id":"cebpf4jnsgd1na2vs0mg"},{"bike_id":"a0de01aa-cd68-4a4d-8bab-65fa167b8610","system_id":"levelo_inurba_marseille","lat":43.23189,"lon":5.35551,"is_reserved":false,"is_disabled":false,"rental_uris":{"android":"levelo://app?vid=a0de01aa-cd68-4a4d-8bab-65fa167b8610","ios":"levelo://app?vid=a0de01aa-cd68-4a4d-8bab-65fa167b8610"},"vehicle_type_id":"4","last_reported":1753308656,"current_range_meters":13600,"station_id":"ce4bhu92rcd13ifvqi70","pricing_plan_id":"cebpf4jnsgd1na2vs0mg"},{"bike_id":"7ca0bf5e-2993-45c9-866f-452888c9c143","system_id":"levelo_inurba_marseille","lat":43.28457,"lon":5.35891,"is_reserved":false,"is_disabled":false,"rental_uris":{"android":"levelo://app?vid=7ca0bf5e-2993-45c9-866f-452888c9c143","ios":"levelo://app?vid=7ca0bf5e-2993-45c9-866f-452888c9c143"},"vehicle_type_id":"4","last_reported":1753308656,"current_range_meters":13600,"station_id":"ce4bhah2rcd13ifvqei0","pricing_plan_id":"cebpf4jnsgd1na2vs0mg"},{"bike_id":"9ce312f1-cb07-4159-91d6-c11a68a5ee71","system_id":"levelo_inurba_marseille","lat":43.211904,"lon":5.350785,"is_reserved":false,"is_disabled":false,"rental_uris":{"android":"levelo://app?vid=9ce312f1-cb07-4159-91d6-c11a68a5ee71","ios":"levelo://app?vid=9ce312f1-cb07-4159-91d6-c11a68a5ee71"},"vehicle_type_id":"4","last_reported":1753308656,"current_range_meters":13600,"station_id":"st_cvj6sg6p6f1abm77japg","pricing_plan_id":"cebpf4jnsgd1na2vs0mg"},{"bike_id":"bbd16db7-d82b-4de1-8c69-f183ff4f975d","system_id":"levelo_inurba_marseille","lat":43.295826,"lon":5.367362,"is_reserved":false,"is_disabled":false,"rental_uris":{"android":"levelo://app?vid=bbd16db7-d82b-4de1-8c69-f183ff4f975d","ios":"levelo://app?vid=bbd16db7-d82b-4de1-8c69-f183ff4f975d"},"vehicle_type_id":"4","last_reported":1753308656,"current_range_meters":14000,"station_id":"ce4bgph2rcd13ifvqc2g","pricing_plan_id":"cebpf4jnsgd1na2vs0mg"},{"bike_id":"f3217e35-0bb5-43ab-beb0-dd5e233a7114","system_id":"levelo_inurba_marseille","lat":43.25574,"lon":5.38248,"is_reserved":false,"is_disabled":false,"rental_uris":{"android":"levelo://app?vid=f3217e35-0bb5-43ab-beb0-dd5e233a7114","ios":"levelo://app?vid=f3217e35-0bb5-43ab-beb0-dd5e233a7114"},"vehicle_type_id":"4","last_reported":1753308656,"current_range_meters":14000,"station_id":"ce4bhih2rcd13ifvqfs0","pricing_plan_id":"cebpf4jnsgd1na2vs0mg"},{"bike_id":"b5ce8d93-17c0-45a5-b2b1-eefce45c2d79","system_id":"levelo_inurba_marseille","lat":43.318137,"lon":5.435248,"is_reserved":false,"is_disabled":false,"rental_uris":{"android":"levelo://app?vid=b5ce8d93-17c0-45a5-b2b1-eefce45c2d79","ios":"levelo://app?vid=b5ce8d93-17c0-45a5-b2b1-eefce45c2d79"},"vehicle_type_id":"4","last_reported":1753308656,"current_range_meters":14000,"station_id":"","pricing_plan_id":"cebpf4jnsgd1na2vs0mg"},{"bike_id":"b8d738d9-a006-4f85-9da8-a7f3edbaa544","system_id":"levelo_inurba_marseille","lat":43.26197,"lon":5.40441,"is_reserved":false,"is_disabled":false,"rental_uris":{"android":"levelo://app?vid=b8d738d9-a006-4f85-9da8-a7f3edbaa544","ios":"levelo://app?vid=b8d738d9-a006-4f85-9da8-a7f3edbaa544"},"vehicle_type_id":"4","last_reported":1753308656,"current_range_meters":14000,"station_id":"ce4bhmh2rcd13ifvqgmg","pricing_plan_id":"cebpf4jnsgd1na2vs0mg"},{"bike_id":"0044f8c1-5a70-4840-a7ed-db0b05f30513","system_id":"levelo_inurba_marseille","lat":43.28963,"lon":5.36578,"is_reserved":false,"is_disabled":false,"rental_uris":{"android":"levelo://app?vid=0044f8c1-5a70-4840-a7ed-db0b05f30513","ios":"levelo://app?vid=0044f8c1-5a70-4840-a7ed-db0b05f30513"},"vehicle_type_id":"4","last_reported":1753308656,"current_range_meters":14000,"station_id":"","pricing_plan_id":"cebpf4jnsgd1na2vs0mg"},{"bike_id":"455e3d37-3850-401b-ab4b-f5c49cbc5e78","system_id":"levelo_inurba_marseille","lat":43.28723,"lon":5.36091,"is_reserved":false,"is_disabled":false,"rental_uris":{"android":"levelo://app?vid=455e3d37-3850-401b-ab4b-f5c49cbc5e78","ios":"levelo://app?vid=455e3d37-3850-401b-ab4b-f5c49cbc5e78"},"vehicle_type_id":"4","last_reported":1753308656,"current_range_meters":14000,"station_id":"cki0cbj6b192h4jlfktg","pricing_plan_id":"cebpf4jnsgd1na2vs0mg"},{"bike_id":"a3640f8d-e562-4f12-8803-79ea76a806b7","system_id":"levelo_inurba_marseille","lat":43.26536,"lon":5.37322,"is_reserved":false,"is_disabled":false,"rental_uris":{"android":"levelo://app?vid=a3640f8d-e562-4f12-8803-79ea76a806b7","ios":"levelo://app?vid=a3640f8d-e562-4f12-8803-79ea76a806b7"},"vehicle_type_id":"4","last_reported":1753308656,"current_range_meters":14000,"station_id":"ce4bhg12rcd13ifvqf70","pricing_plan_id":"cebpf4jnsgd1na2vs0mg"},{"bike_id":"f8232130-db52-4ff5-b354-f78033a04c00","system_id":"levelo_inurba_marseille","lat":43.27945,"lon":5.41066,"is_reserved":false,"is_disabled":false,"rental_uris":{"android":"levelo://app?vid=f8232130-db52-4ff5-b354-f78033a04c00","ios":"levelo://app?vid=f8232130-db52-4ff5-b354-f78033a04c00"},"vehicle_type_id":"4","last_reported":1753308656,"current_range_meters":14000,"station_id":"ce4bhnp2rcd13ifvqh0g","pricing_plan_id":"cebpf4jnsgd1na2vs0mg"},{"bike_id":"6628d4e6-7699-4848-9c52-17cefd00d3c2","system_id":"levelo_inurba_marseille","lat":43.29705,"lon":5.36597,"is_reserved":false,"is_disabled":false,"rental_uris":{"android":"levelo://app?vid=6628d4e6-7699-4848-9c52-17cefd00d3c2","ios":"levelo://app?vid=6628d4e6-7699-4848-9c52-17cefd00d3c2"},"vehicle_type_id":"4","last_reported":1753308656,"current_range_meters":14400,"station_id":"ce4bgn12rcd13ifvqbt0","pricing_plan_id":"cebpf4jnsgd1na2vs0mg"},{"bike_id":"a52db7a2-f431-4d6b-a931-bef7299135fe","system_id":"levelo_inurba_marseille","lat":43.28478,"lon":5.38565,"is_reserved":false,"is_disabled":false,"rental_uris":{"android":"levelo://app?vid=a52db7a2-f431-4d6b-a931-bef7299135fe","ios":"levelo://app?vid=a52db7a2-f431-4d6b-a931-bef7299135fe"},"vehicle_type_id":"4","last_reported":1753308656,"current_range_meters":14400,"station_id":"ce4bh8p2rcd13ifvqeb0","pricing_plan_id":"cebpf4jnsgd1na2vs0mg"},{"bike_id":"fffd0040-feeb-4531-80d1-c6800dabeb2d","system_id":"levelo_inurba_marseille","lat":43.28458,"lon":5.35884,"is_reserved":false,"is_disabled":false,"rental_uris":{"android":"levelo://app?vid=fffd0040-feeb-4531-80d1-c6800dabeb2d","ios":"levelo://app?vid=fffd0040-feeb-4531-80d1-c6800dabeb2d"},"vehicle_type_id":"4","last_reported":1753308656,"current_range_meters":14400,"station_id":"ce4bhah2rcd13ifvqei0","pricing_plan_id":"cebpf4jnsgd1na2vs0mg"},{"bike_id":"6e7274d6-8d8b-45d8-9aad-944a2ac7073f","system_id":"levelo_inurba_marseille","lat":43.2989,"lon":5.38894,"is_reserved":false,"is_disabled":false,"rental_uris":{"android":"levelo://app?vid=6e7274d6-8d8b-45d8-9aad-944a2ac7073f","ios":"levelo://app?vid=6e7274d6-8d8b-45d8-9aad-944a2ac7073f"},"vehicle_type_id":"4","last_reported":1753308656,"current_range_meters":14400,"station_id":"ce4bh392rcd13ifvqdl0","pricing_plan_id":"cebpf4jnsgd1na2vs0mg"},{"bike_id":"072249e0-6b31-4d65-814c-3886177b7a41","system_id":"levelo_inurba_marseille","lat":43.31756,"lon":5.39018,"is_reserved":false,"is_disabled":false,"rental_uris":{"android":"levelo://app?vid=072249e0-6b31-4d65-814c-3886177b7a41","ios":"levelo://app?vid=072249e0-6b31-4d65-814c-3886177b7a41"},"vehicle_type_id":"4","last_reported":1753308656,"current_range_meters":14400,"station_id":"ce4bhqp2rcd13ifvqhng","pricing_plan_id":"cebpf4jnsgd1na2vs0mg"},{"bike_id":"f9322b84-4311-4472-9e01-0a942613dbdc","system_id":"levelo_inurba_marseille","lat":43.27985,"lon":5.41671,"is_reserved":false,"is_disabled":false,"rental_uris":{"android":"levelo://app?vid=f9322b84-4311-4472-9e01-0a942613dbdc","ios":"levelo://app?vid=f9322b84-4311-4472-9e01-0a942613dbdc"},"vehicle_type_id":"4","last_reported":1753308656,"current_range_meters":14800,"station_id":"ce4bho12rcd13ifvqh1g","pricing_plan_id":"cebpf4jnsgd1na2vs0mg"},{"bike_id":"0d989bd3-3a2a-48ca-a6d7-77c5e7fc1d2e","system_id":"levelo_inurba_marseille","lat":43.23175,"lon":5.39996,"is_reserved":false,"is_disabled":false,"rental_uris":{"android":"levelo://app?vid=0d989bd3-3a2a-48ca-a6d7-77c5e7fc1d2e","ios":"levelo://app?vid=0d989bd3-3a2a-48ca-a6d7-77c5e7fc1d2e"},"vehicle_type_id":"4","last_reported":1753308656,"current_range_meters":14800,"station_id":"ce4bhn12rcd13ifvqgqg","pricing_plan_id":"cebpf4jnsgd1na2vs0mg"},{"bike_id":"028b05be-ec4c-43ca-adc8-d551502182de","system_id":"levelo_inurba_marseille","lat":43.255805,"lon":5.382353,"is_reserved":false,"is_disabled":false,"rental_uris":{"android":"levelo://app?vid=028b05be-ec4c-43ca-adc8-d551502182de","ios":"levelo://app?vid=028b05be-ec4c-43ca-adc8-d551502182de"},"vehicle_type_id":"4","last_reported":1753308656,"current_range_meters":14800,"station_id":"ce4bhih2rcd13ifvqfs0","pricing_plan_id":"cebpf4jnsgd1na2vs0mg"},{"bike_id":"af45f8f3-b248-43d0-907f-52a1f3dc49ad","system_id":"levelo_inurba_marseille","lat":43.30287,"lon":5.39241,"is_reserved":false,"is_disabled":false,"rental_uris":{"android":"levelo://app?vid=af45f8f3-b248-43d0-907f-52a1f3dc49ad","ios":"levelo://app?vid=af45f8f3-b248-43d0-907f-52a1f3dc49ad"},"vehicle_type_id":"4","last_reported":1753308656,"current_range_meters":14800,"station_id":"ce4bgkh2rcd13ifvqbk0","pricing_plan_id":"cebpf4jnsgd1na2vs0mg"},{"bike_id":"1e7d27be-23af-4c7f-9a5e-514152b69086","system_id":"levelo_inurba_marseille","lat":43.29396,"lon":5.40953,"is_reserved":false,"is_disabled":false,"rental_uris":{"android":"levelo://app?vid=1e7d27be-23af-4c7f-9a5e-514152b69086","ios":"levelo://app?vid=1e7d27be-23af-4c7f-9a5e-514152b69086"},"vehicle_type_id":"4","last_reported":1753308656,"current_range_meters":14800,"station_id":"","pricing_plan_id":"cebpf4jnsgd1na2vs0mg"},{"bike_id":"b89d6267-55af-48a1-8887-3f0adc5ff195","system_id":"levelo_inurba_marseille","lat":43.301319,"lon":5.39874,"is_reserved":false,"is_disabled":false,"rental_uris":{"android":"levelo://app?vid=b89d6267-55af-48a1-8887-3f0adc5ff195","ios":"levelo://app?vid=b89d6267-55af-48a1-8887-3f0adc5ff195"},"vehicle_type_id":"4","last_reported":1753308656,"current_range_meters":14800,"station_id":"","pricing_plan_id":"cebpf4jnsgd1na2vs0mg"},{"bike_id":"e1563fd2-2cb4-43d1-91ff-12ef546ab072","system_id":"levelo_inurba_marseille","lat":43.28036,"lon":5.3695,"is_reserved":false,"is_disabled":false,"rental_uris":{"android":"levelo://app?vid=e1563fd2-2cb4-43d1-91ff-12ef546ab072","ios":"levelo://app?vid=e1563fd2-2cb4-43d1-91ff-12ef546ab072"},"vehicle_type_id":"4","last_reported":1753308656,"current_range_meters":14800,"station_id":"ce4bha12rcd13ifvqef0","pricing_plan_id":"cebpf4jnsgd1na2vs0mg"},{"bike_id":"6a454c54-bc92-4248-a7ae-643f6c211647","system_id":"levelo_inurba_marseille","lat":43.305908,"lon":5.393544,"is_reserved":false,"is_disabled":false,"rental_uris":{"android":"levelo://app?vid=6a454c54-bc92-4248-a7ae-643f6c211647","ios":"levelo://app?vid=6a454c54-bc92-4248-a7ae-643f6c211647"},"vehicle_type_id":"4","last_reported":1753308656,"current_range_meters":14800,"station_id":"ce4bh0p2rcd13ifvqd80","pricing_plan_id":"cebpf4jnsgd1na2vs0mg"},{"bike_id":"6bbf9ec1-727b-45e9-93e9-1fd3389091c8","system_id":"levelo_inurba_marseille","lat":43.29021,"lon":5.38648,"is_reserved":false,"is_disabled":false,"rental_uris":{"android":"levelo://app?vid=6bbf9ec1-727b-45e9-93e9-1fd3389091c8","ios":"levelo://app?vid=6bbf9ec1-727b-45e9-93e9-1fd3389091c8"},"vehicle_type_id":"4","last_reported":1753308656,"current_range_meters":14800,"station_id":"ce4bh4p2rcd13ifvqe0g","pricing_plan_id":"cebpf4jnsgd1na2vs0mg"},{"bike_id":"e480bd8b-ab3b-474e-85dc-cd917472d2ed","system_id":"levelo_inurba_marseille","lat":43.23952,"lon":5.36653,"is_reserved":false,"is_disabled":false,"rental_uris":{"android":"levelo://app?vid=e480bd8b-ab3b-474e-85dc-cd917472d2ed","ios":"levelo://app?vid=e480bd8b-ab3b-474e-85dc-cd917472d2ed"},"vehicle_type_id":"4","last_reported":1753308656,"current_range_meters":14800,"station_id":"ce4bhi12rcd13ifvqfp0","pricing_plan_id":"cebpf4jnsgd1na2vs0mg"},{"bike_id":"74667481-5f03-4636-8b5a-495e4f40157d","system_id":"levelo_inurba_marseille","lat":43.30972,"lon":5.37382,"is_reserved":false,"is_disabled":false,"rental_uris":{"android":"levelo://app?vid=74667481-5f03-4636-8b5a-495e4f40157d","ios":"levelo://app?vid=74667481-5f03-4636-8b5a-495e4f40157d"},"vehicle_type_id":"4","last_reported":1753308656,"current_range_meters":15200,"station_id":"","pricing_plan_id":"cebpf4jnsgd1na2vs0mg"},{"bike_id":"836c0b14-b37d-4fb0-b55e-68694fdbdd96","system_id":"levelo_inurba_marseille","lat":43.25574,"lon":5.38234,"is_reserved":false,"is_disabled":false,"rental_uris":{"android":"levelo://app?vid=836c0b14-b37d-4fb0-b55e-68694fdbdd96","ios":"levelo://app?vid=836c0b14-b37d-4fb0-b55e-68694fdbdd96"},"vehicle_type_id":"4","last_reported":1753308656,"current_range_meters":15200,"station_id":"ce4bhih2rcd13ifvqfs0","pricing_plan_id":"cebpf4jnsgd1na2vs0mg"},{"bike_id":"0b038d1a-2e18-49ed-bfd0-db9b0c826118","system_id":"levelo_inurba_marseille","lat":43.287,"lon":5.39982,"is_reserved":false,"is_disabled":false,"rental_uris":{"android":"levelo://app?vid=0b038d1a-2e18-49ed-bfd0-db9b0c826118","ios":"levelo://app?vid=0b038d1a-2e18-49ed-bfd0-db9b0c826118"},"vehicle_type_id":"4","last_reported":1753308656,"current_range_meters":15200,"station_id":"ce4bho92rcd13ifvqh3g","pricing_plan_id":"cebpf4jnsgd1na2vs0mg"},{"bike_id":"dd34620a-ccb4-4d6b-bdf1-6ee647a9940f","system_id":"levelo_inurba_marseille","lat":43.31892,"lon":5.40736,"is_reserved":false,"is_disabled":false,"rental_uris":{"android":"levelo://app?vid=dd34620a-ccb4-4d6b-bdf1-6ee647a9940f","ios":"levelo://app?vid=dd34620a-ccb4-4d6b-bdf1-6ee647a9940f"},"vehicle_type_id":"4","last_reported":1753308656,"current_range_meters":15200,"station_id":"ce4bhq12rcd13ifvqhig","pricing_plan_id":"cebpf4jnsgd1na2vs0mg"},{"bike_id":"4fb9407b-f29c-4572-9d2b-19406457db09","system_id":"levelo_inurba_marseille","lat":43.286146,"lon":5.351014,"is_reserved":false,"is_disabled":false,"rental_uris":{"android":"levelo://app?vid=4fb9407b-f29c-4572-9d2b-19406457db09","ios":"levelo://app?vid=4fb9407b-f29c-4572-9d2b-19406457db09"},"vehicle_type_id":"4","last_reported":1753308656,"current_range_meters":15200,"station_id":"ce4bhch2rcd13ifvqeug","pricing_plan_id":"cebpf4jnsgd1na2vs0mg"},{"bike_id":"8da50daa-01e3-4f17-ab0c-8f1f061fcf2c","system_id":"levelo_inurba_marseille","lat":43.26223,"lon":5.37464,"is_reserved":false,"is_disabled":false,"rental_uris":{"android":"levelo://app?vid=8da50daa-01e3-4f17-ab0c-8f1f061fcf2c","ios":"levelo://app?vid=8da50daa-01e3-4f17-ab0c-8f1f061fcf2c"},"vehicle_type_id":"4","last_reported":1753308656,"current_range_meters":15200,"station_id":"","pricing_plan_id":"cebpf4jnsgd1na2vs0mg"},{"bike_id":"75921511-23bf-408f-9470-1062209789d6","system_id":"levelo_inurba_marseille","lat":43.25582,"lon":5.3822,"is_reserved":false,"is_disabled":false,"rental_uris":{"android":"levelo://app?vid=75921511-23bf-408f-9470-1062209789d6","ios":"levelo://app?vid=75921511-23bf-408f-9470-1062209789d6"},"vehicle_type_id":"4","last_reported":1753308656,"current_range_meters":16000,"station_id":"ce4bhih2rcd13ifvqfs0","pricing_plan_id":"cebpf4jnsgd1na2vs0mg"},{"bike_id":"0bc3f237-b88a-46f0-8d05-cf18e190c453","system_id":"levelo_inurba_marseille","lat":43.29022,"lon":5.38655,"is_reserved":false,"is_disabled":false,"rental_uris":{"android":"levelo://app?vid=0bc3f237-b88a-46f0-8d05-cf18e190c453","ios":"levelo://app?vid=0bc3f237-b88a-46f0-8d05-cf18e190c453"},"vehicle_type_id":"4","last_reported":1753308656,"current_range_meters":16000,"station_id":"ce4bh4p2rcd13ifvqe0g","pricing_plan_id":"cebpf4jnsgd1na2vs0mg"},{"bike_id":"b1611388-74da-4bd8-aa35-2fd1ff7cb76e","system_id":"levelo_inurba_marseille","lat":43.27061,"lon":5.42301,"is_reserved":false,"is_disabled":false,"rental_uris":{"android":"levelo://app?vid=b1611388-74da-4bd8-aa35-2fd1ff7cb76e","ios":"levelo://app?vid=b1611388-74da-4bd8-aa35-2fd1ff7cb76e"},"vehicle_type_id":"4","last_reported":1753308656,"current_range_meters":16000,"station_id":"ce4bhk92rcd13ifvqgb0","pricing_plan_id":"cebpf4jnsgd1na2vs0mg"},{"bike_id":"587d798a-2b64-4a3c-afe8-0c5d764c28c5","system_id":"levelo_inurba_marseille","lat":43.29278,"lon":5.40124,"is_reserved":false,"is_disabled":false,"rental_uris":{"android":"levelo://app?vid=587d798a-2b64-4a3c-afe8-0c5d764c28c5","ios":"levelo://app?vid=587d798a-2b64-4a3c-afe8-0c5d764c28c5"},"vehicle_type_id":"4","last_reported":1753308656,"current_range_meters":16000,"station_id":"ce4bh312rcd13ifvqdk0","pricing_plan_id":"cebpf4jnsgd1na2vs0mg"},{"bike_id":"ace255a1-6034-44ed-8006-5510d8b33881","system_id":"levelo_inurba_marseille","lat":43.27068,"lon":5.42282,"is_reserved":false,"is_disabled":false,"rental_uris":{"android":"levelo://app?vid=ace255a1-6034-44ed-8006-5510d8b33881","ios":"levelo://app?vid=ace255a1-6034-44ed-8006-5510d8b33881"},"vehicle_type_id":"4","last_reported":1753308656,"current_range_meters":16000,"station_id":"ce4bhk92rcd13ifvqgb0","pricing_plan_id":"cebpf4jnsgd1na2vs0mg"},{"bike_id":"5ac85406-65d0-4336-aa89-4b04b2e6689e","system_id":"levelo_inurba_marseille","lat":43.3325,"lon":5.4202,"is_reserved":false,"is_disabled":false,"rental_uris":{"android":"levelo://app?vid=5ac85406-65d0-4336-aa89-4b04b2e6689e","ios":"levelo://app?vid=5ac85406-65d0-4336-aa89-4b04b2e6689e"},"vehicle_type_id":"4","last_reported":1753308656,"current_range_meters":16000,"station_id":"","pricing_plan_id":"cebpf4jnsgd1na2vs0mg"},{"bike_id":"38badf97-2e29-4aad-9652-107d8ba7fd22","system_id":"levelo_inurba_marseille","lat":43.25717,"lon":5.41118,"is_reserved":false,"is_disabled":false,"rental_uris":{"android":"levelo://app?vid=38badf97-2e29-4aad-9652-107d8ba7fd22","ios":"levelo://app?vid=38badf97-2e29-4aad-9652-107d8ba7fd22"},"vehicle_type_id":"4","last_reported":1753308656,"current_range_meters":16000,"station_id":"ce4bhkp2rcd13ifvqgd0","pricing_plan_id":"cebpf4jnsgd1na2vs0mg"},{"bike_id":"496cac02-0e91-4f64-97b9-cb34cf0ab931","system_id":"levelo_inurba_marseille","lat":43.22508,"lon":5.34806,"is_reserved":false,"is_disabled":false,"rental_uris":{"android":"levelo://app?vid=496cac02-0e91-4f64-97b9-cb34cf0ab931","ios":"levelo://app?vid=496cac02-0e91-4f64-97b9-cb34cf0ab931"},"vehicle_type_id":"4","last_reported":1753308656,"current_range_meters":16000,"station_id":"st_cvj5dfep6f1abm77gieg","pricing_plan_id":"cebpf4jnsgd1na2vs0mg"},{"bike_id":"8106d834-7110-4d0c-a95c-929d4be9fbd7","system_id":"levelo_inurba_marseille","lat":43.28938,"lon":5.39626,"is_reserved":false,"is_disabled":false,"rental_uris":{"android":"levelo://app?vid=8106d834-7110-4d0c-a95c-929d4be9fbd7","ios":"levelo://app?vid=8106d834-7110-4d0c-a95c-929d4be9fbd7"},"vehicle_type_id":"4","last_reported":1753308656,"current_range_meters":16000,"station_id":"ce4bh3h2rcd13ifvqdn0","pricing_plan_id":"cebpf4jnsgd1na2vs0mg"},{"bike_id":"70737bad-8214-4681-8a7d-fa98042cf105","system_id":"levelo_inurba_marseille","lat":43.290656,"lon":5.399348,"is_reserved":false,"is_disabled":false,"rental_uris":{"android":"levelo://app?vid=70737bad-8214-4681-8a7d-fa98042cf105","ios":"levelo://app?vid=70737bad-8214-4681-8a7d-fa98042cf105"},"vehicle_type_id":"4","last_reported":1753308656,"current_range_meters":16000,"station_id":"ce4bh392rcd13ifvqdm0","pricing_plan_id":"cebpf4jnsgd1na2vs0mg"},{"bike_id":"ae131367-d818-44a0-9e1d-4aa65dcdb16a","system_id":"levelo_inurba_marseille","lat":43.27504,"lon":5.39669,"is_reserved":false,"is_disabled":false,"rental_uris":{"android":"levelo://app?vid=ae131367-d818-44a0-9e1d-4aa65dcdb16a","ios":"levelo://app?vid=ae131367-d818-44a0-9e1d-4aa65dcdb16a"},"vehicle_type_id":"4","last_reported":1753308656,"current_range_meters":16000,"station_id":"","pricing_plan_id":"cebpf4jnsgd1na2vs0mg"},{"bike_id":"0648eb3b-38dc-45ba-994e-ffad74a620d8","system_id":"levelo_inurba_marseille","lat":43.29,"lon":5.38662,"is_reserved":false,"is_disabled":true,"rental_uris":{"android":"levelo://app?vid=0648eb3b-38dc-45ba-994e-ffad74a620d8","ios":"levelo://app?vid=0648eb3b-38dc-45ba-994e-ffad74a620d8"},"vehicle_type_id":"4","last_reported":1753308656,"current_range_meters":16000,"station_id":"ce4bh4p2rcd13ifvqe0g","pricing_plan_id":"cebpf4jnsgd1na2vs0mg"},{"bike_id":"3cd09fc8-9554-4236-8496-0931a7be09d1","system_id":"levelo_inurba_marseille","lat":43.21198,"lon":5.35075,"is_reserved":false,"is_disabled":false,"rental_uris":{"android":"levelo://app?vid=3cd09fc8-9554-4236-8496-0931a7be09d1","ios":"levelo://app?vid=3cd09fc8-9554-4236-8496-0931a7be09d1"},"vehicle_type_id":"4","last_reported":1753308656,"current_range_meters":16000,"station_id":"st_cvj6sg6p6f1abm77japg","pricing_plan_id":"cebpf4jnsgd1na2vs0mg"},{"bike_id":"6bb1f31c-9335-4f39-9585-31374a4775f9","system_id":"levelo_inurba_marseille","lat":43.325583,"lon":5.379059,"is_reserved":false,"is_disabled":false,"rental_uris":{"android":"levelo://app?vid=6bb1f31c-9335-4f39-9585-31374a4775f9","ios":"levelo://app?vid=6bb1f31c-9335-4f39-9585-31374a4775f9"},"vehicle_type_id":"4","last_reported":1753308656,"current_range_meters":16000,"station_id":"","pricing_plan_id":"cebpf4jnsgd1na2vs0mg"},{"bike_id":"fd806929-766b-4e70-9fda-08bb1966d1c7","system_id":"levelo_inurba_marseille","lat":43.28821,"lon":5.39347,"is_reserved":false,"is_disabled":false,"rental_uris":{"android":"levelo://app?vid=fd806929-766b-4e70-9fda-08bb1966d1c7","ios":"levelo://app?vid=fd806929-766b-4e70-9fda-08bb1966d1c7"},"vehicle_type_id":"4","last_reported":1753308656,"current_range_meters":16000,"station_id":"ce4bh2p2rcd13ifvqdi0","pricing_plan_id":"cebpf4jnsgd1na2vs0mg"},{"bike_id":"6187391f-e643-40b5-a6a5-5c65e8a00966","system_id":"levelo_inurba_marseille","lat":43.24073,"lon":5.37764,"is_reserved":false,"is_disabled":false,"rental_uris":{"android":"levelo://app?vid=6187391f-e643-40b5-a6a5-5c65e8a00966","ios":"levelo://app?vid=6187391f-e643-40b5-a6a5-5c65e8a00966"},"vehicle_type_id":"4","last_reported":1753308656,"current_range_meters":16000,"station_id":"ce4bhnp2rcd13ifvqgvg","pricing_plan_id":"cebpf4jnsgd1na2vs0mg"},{"bike_id":"f77e2119-efdf-4f97-ae6a-f4423c6f3a21","system_id":"levelo_inurba_marseille","lat":43.29578,"lon":5.36749,"is_reserved":false,"is_disabled":false,"rental_uris":{"android":"levelo://app?vid=f77e2119-efdf-4f97-ae6a-f4423c6f3a21","ios":"levelo://app?vid=f77e2119-efdf-4f97-ae6a-f4423c6f3a21"},"vehicle_type_id":"4","last_reported":1753308656,"current_range_meters":16000,"station_id":"ce4bgph2rcd13ifvqc2g","pricing_plan_id":"cebpf4jnsgd1na2vs0mg"},{"bike_id":"da02e45a-a7af-4ba3-a013-1f386c6cc032","system_id":"levelo_inurba_marseille","lat":43.2959,"lon":5.36747,"is_reserved":false,"is_disabled":false,"rental_uris":{"android":"levelo://app?vid=da02e45a-a7af-4ba3-a013-1f386c6cc032","ios":"levelo://app?vid=da02e45a-a7af-4ba3-a013-1f386c6cc032"},"vehicle_type_id":"4","last_reported":1753308656,"current_range_meters":16000,"station_id":"ce4bgph2rcd13ifvqc2g","pricing_plan_id":"cebpf4jnsgd1na2vs0mg"},{"bike_id":"54943e91-61ee-496b-9667-a7c6c3a25bb5","system_id":"levelo_inurba_marseille","lat":43.26246,"lon":5.3745,"is_reserved":false,"is_disabled":false,"rental_uris":{"android":"levelo://app?vid=54943e91-61ee-496b-9667-a7c6c3a25bb5","ios":"levelo://app?vid=54943e91-61ee-496b-9667-a7c6c3a25bb5"},"vehicle_type_id":"4","last_reported":1753308656,"current_range_meters":16000,"station_id":"ce4bhgp2rcd13ifvqfc0","pricing_plan_id":"cebpf4jnsgd1na2vs0mg"},{"bike_id":"f9003d10-d9c2-4f36-aaab-0b06e5143ac9","system_id":"levelo_inurba_marseille","lat":43.2993,"lon":5.37397,"is_reserved":false,"is_disabled":true,"rental_uris":{"android":"levelo://app?vid=f9003d10-d9c2-4f36-aaab-0b06e5143ac9","ios":"levelo://app?vid=f9003d10-d9c2-4f36-aaab-0b06e5143ac9"},"vehicle_type_id":"4","last_reported":1753308656,"current_range_meters":16400,"station_id":"","pricing_plan_id":"cebpf4jnsgd1na2vs0mg"},{"bike_id":"efce9bd7-0f84-4c4c-8629-017c0e0428bd","system_id":"levelo_inurba_marseille","lat":43.25569,"lon":5.38255,"is_reserved":false,"is_disabled":false,"rental_uris":{"android":"levelo://app?vid=efce9bd7-0f84-4c4c-8629-017c0e0428bd","ios":"levelo://app?vid=efce9bd7-0f84-4c4c-8629-017c0e0428bd"},"vehicle_type_id":"4","last_reported":1753308656,"current_range_meters":16400,"station_id":"ce4bhih2rcd13ifvqfs0","pricing_plan_id":"cebpf4jnsgd1na2vs0mg"},{"bike_id":"17b6befd-1cc6-4c58-ba0e-8a9cc2a0bccb","system_id":"levelo_inurba_marseille","lat":43.225042,"lon":5.347823,"is_reserved":false,"is_disabled":false,"rental_uris":{"android":"levelo://app?vid=17b6befd-1cc6-4c58-ba0e-8a9cc2a0bccb","ios":"levelo://app?vid=17b6befd-1cc6-4c58-ba0e-8a9cc2a0bccb"},"vehicle_type_id":"4","last_reported":1753308656,"current_range_meters":16400,"station_id":"","pricing_plan_id":"cebpf4jnsgd1na2vs0mg"},{"bike_id":"81b0091b-e444-479d-89ac-d4691aa7990e","system_id":"levelo_inurba_marseille","lat":43.29022,"lon":5.38654,"is_reserved":false,"is_disabled":false,"rental_uris":{"android":"levelo://app?vid=81b0091b-e444-479d-89ac-d4691aa7990e","ios":"levelo://app?vid=81b0091b-e444-479d-89ac-d4691aa7990e"},"vehicle_type_id":"4","last_reported":1753308656,"current_range_meters":16400,"station_id":"ce4bh4p2rcd13ifvqe0g","pricing_plan_id":"cebpf4jnsgd1na2vs0mg"},{"bike_id":"c056311f-78c9-4e18-8685-91c659ddb125","system_id":"levelo_inurba_marseille","lat":43.31597,"lon":5.38972,"is_reserved":false,"is_disabled":false,"rental_uris":{"android":"levelo://app?vid=c056311f-78c9-4e18-8685-91c659ddb125","ios":"levelo://app?vid=c056311f-78c9-4e18-8685-91c659ddb125"},"vehicle_type_id":"4","last_reported":1753308656,"current_range_meters":16400,"station_id":"","pricing_plan_id":"cebpf4jnsgd1na2vs0mg"},{"bike_id":"68b23df6-72cc-481a-a09a-6413f815ff4e","system_id":"levelo_inurba_marseille","lat":43.254906,"lon":5.37647,"is_reserved":false,"is_disabled":true,"rental_uris":{"android":"levelo://app?vid=68b23df6-72cc-481a-a09a-6413f815ff4e","ios":"levelo://app?vid=68b23df6-72cc-481a-a09a-6413f815ff4e"},"vehicle_type_id":"4","last_reported":1753308656,"current_range_meters":16400,"station_id":"ce4bhh12rcd13ifvqff0","pricing_plan_id":"cebpf4jnsgd1na2vs0mg"},{"bike_id":"2de56c36-fc14-49a8-9ba0-5a35d4423f35","system_id":"levelo_inurba_marseille","lat":43.28653,"lon":5.39986,"is_reserved":false,"is_disabled":false,"rental_uris":{"android":"levelo://app?vid=2de56c36-fc14-49a8-9ba0-5a35d4423f35","ios":"levelo://app?vid=2de56c36-fc14-49a8-9ba0-5a35d4423f35"},"vehicle_type_id":"4","last_reported":1753308656,"current_range_meters":16400,"station_id":"","pricing_plan_id":"cebpf4jnsgd1na2vs0mg"},{"bike_id":"f6419716-c272-46b5-b908-d91a04b2b53d","system_id":"levelo_inurba_marseille","lat":43.280354,"lon":5.369432,"is_reserved":false,"is_disabled":false,"rental_uris":{"android":"levelo://app?vid=f6419716-c272-46b5-b908-d91a04b2b53d","ios":"levelo://app?vid=f6419716-c272-46b5-b908-d91a04b2b53d"},"vehicle_type_id":"4","last_reported":1753308656,"current_range_meters":16400,"station_id":"ce4bha12rcd13ifvqef0","pricing_plan_id":"cebpf4jnsgd1na2vs0mg"},{"bike_id":"6a79a396-2f47-4b1c-9dce-b0d5464f72e4","system_id":"levelo_inurba_marseille","lat":43.2292,"lon":5.35383,"is_reserved":false,"is_disabled":false,"rental_uris":{"android":"levelo://app?vid=6a79a396-2f47-4b1c-9dce-b0d5464f72e4","ios":"levelo://app?vid=6a79a396-2f47-4b1c-9dce-b0d5464f72e4"},"vehicle_type_id":"4","last_reported":1753308656,"current_range_meters":16400,"station_id":"cpo3532slgdg3j2ikp40","pricing_plan_id":"cebpf4jnsgd1na2vs0mg"},{"bike_id":"0f015389-098c-449f-91dd-7f77c61d6819","system_id":"levelo_inurba_marseille","lat":43.29258,"lon":5.38441,"is_reserved":false,"is_disabled":false,"rental_uris":{"android":"levelo://app?vid=0f015389-098c-449f-91dd-7f77c61d6819","ios":"levelo://app?vid=0f015389-098c-449f-91dd-7f77c61d6819"},"vehicle_type_id":"4","last_reported":1753308656,"current_range_meters":16400,"station_id":"ce4bh692rcd13ifvqea0","pricing_plan_id":"cebpf4jnsgd1na2vs0mg"},{"bike_id":"b05fadda-ae1b-48e0-a57e-3125b15e3b9d","system_id":"levelo_inurba_marseille","lat":43.29562,"lon":5.36753,"is_reserved":false,"is_disabled":false,"rental_uris":{"android":"levelo://app?vid=b05fadda-ae1b-48e0-a57e-3125b15e3b9d","ios":"levelo://app?vid=b05fadda-ae1b-48e0-a57e-3125b15e3b9d"},"vehicle_type_id":"4","last_reported":1753308656,"current_range_meters":16400,"station_id":"ce4bgph2rcd13ifvqc2g","pricing_plan_id":"cebpf4jnsgd1na2vs0mg"},{"bike_id":"d33a195d-1aba-4725-a7a9-74d21f9597a0","system_id":"levelo_inurba_marseille","lat":43.26209,"lon":5.3745,"is_reserved":false,"is_disabled":false,"rental_uris":{"android":"levelo://app?vid=d33a195d-1aba-4725-a7a9-74d21f9597a0","ios":"levelo://app?vid=d33a195d-1aba-4725-a7a9-74d21f9597a0"},"vehicle_type_id":"4","last_reported":1753308656,"current_range_meters":16800,"station_id":"ce4bhgp2rcd13ifvqfc0","pricing_plan_id":"cebpf4jnsgd1na2vs0mg"},{"bike_id":"8653745e-84f9-4064-b6e8-6e4e8bfce0ff","system_id":"levelo_inurba_marseille","lat":43.23971,"lon":5.36617,"is_reserved":false,"is_disabled":false,"rental_uris":{"android":"levelo://app?vid=8653745e-84f9-4064-b6e8-6e4e8bfce0ff","ios":"levelo://app?vid=8653745e-84f9-4064-b6e8-6e4e8bfce0ff"},"vehicle_type_id":"4","last_reported":1753308656,"current_range_meters":16800,"station_id":"ce4bhi12rcd13ifvqfp0","pricing_plan_id":"cebpf4jnsgd1na2vs0mg"},{"bike_id":"9bdfbfb4-4642-45d8-a920-cd16dd0b1c4c","system_id":"levelo_inurba_marseille","lat":43.2958,"lon":5.36761,"is_reserved":false,"is_disabled":false,"rental_uris":{"android":"levelo://app?vid=9bdfbfb4-4642-45d8-a920-cd16dd0b1c4c","ios":"levelo://app?vid=9bdfbfb4-4642-45d8-a920-cd16dd0b1c4c"},"vehicle_type_id":"4","last_reported":1753308656,"current_range_meters":16800,"station_id":"ce4bgph2rcd13ifvqc2g","pricing_plan_id":"cebpf4jnsgd1na2vs0mg"},{"bike_id":"fa9fe885-4021-41aa-98d9-dd1c4d2e915e","system_id":"levelo_inurba_marseille","lat":43.28396,"lon":5.37522,"is_reserved":false,"is_disabled":false,"rental_uris":{"android":"levelo://app?vid=fa9fe885-4021-41aa-98d9-dd1c4d2e915e","ios":"levelo://app?vid=fa9fe885-4021-41aa-98d9-dd1c4d2e915e"},"vehicle_type_id":"4","last_reported":1753308656,"current_range_meters":16400,"station_id":"ce4bh412rcd13ifvqds0","pricing_plan_id":"cebpf4jnsgd1na2vs0mg"},{"bike_id":"c3b7093a-c6fc-4872-a465-95918521be48","system_id":"levelo_inurba_marseille","lat":43.31446,"lon":5.37348,"is_reserved":false,"is_disabled":false,"rental_uris":{"android":"levelo://app?vid=c3b7093a-c6fc-4872-a465-95918521be48","ios":"levelo://app?vid=c3b7093a-c6fc-4872-a465-95918521be48"},"vehicle_type_id":"4","last_reported":1753308656,"current_range_meters":16800,"station_id":"ce4bgt12rcd13ifvqcd0","pricing_plan_id":"cebpf4jnsgd1na2vs0mg"},{"bike_id":"a388cdd1-4992-4215-9c12-26a6bdadd256","system_id":"levelo_inurba_marseille","lat":43.29509,"lon":5.39392,"is_reserved":false,"is_disabled":false,"rental_uris":{"android":"levelo://app?vid=a388cdd1-4992-4215-9c12-26a6bdadd256","ios":"levelo://app?vid=a388cdd1-4992-4215-9c12-26a6bdadd256"},"vehicle_type_id":"4","last_reported":1753308656,"current_range_meters":16800,"station_id":"ce4bh292rcd13ifvqdf0","pricing_plan_id":"cebpf4jnsgd1na2vs0mg"},{"bike_id":"1699da3b-157a-4d07-ba4d-8fe9df7d93c7","system_id":"levelo_inurba_marseille","lat":43.30375,"lon":5.41931,"is_reserved":false,"is_disabled":false,"rental_uris":{"android":"levelo://app?vid=1699da3b-157a-4d07-ba4d-8fe9df7d93c7","ios":"levelo://app?vid=1699da3b-157a-4d07-ba4d-8fe9df7d93c7"},"vehicle_type_id":"4","last_reported":1753308656,"current_range_meters":16800,"station_id":"","pricing_plan_id":"cebpf4jnsgd1na2vs0mg"},{"bike_id":"62d0182f-a226-48a0-b284-0541a1595f44","system_id":"levelo_inurba_marseille","lat":43.29603,"lon":5.36709,"is_reserved":false,"is_disabled":false,"rental_uris":{"android":"levelo://app?vid=62d0182f-a226-48a0-b284-0541a1595f44","ios":"levelo://app?vid=62d0182f-a226-48a0-b284-0541a1595f44"},"vehicle_type_id":"4","last_reported":1753308656,"current_range_meters":16800,"station_id":"ce4bgph2rcd13ifvqc2g","pricing_plan_id":"cebpf4jnsgd1na2vs0mg"},{"bike_id":"67911e6a-1ddb-4fb2-b0eb-b87b39e6fdd1","system_id":"levelo_inurba_marseille","lat":43.29582,"lon":5.36744,"is_reserved":false,"is_disabled":false,"rental_uris":{"android":"levelo://app?vid=67911e6a-1ddb-4fb2-b0eb-b87b39e6fdd1","ios":"levelo://app?vid=67911e6a-1ddb-4fb2-b0eb-b87b39e6fdd1"},"vehicle_type_id":"4","last_reported":1753308656,"current_range_meters":16800,"station_id":"ce4bgph2rcd13ifvqc2g","pricing_plan_id":"cebpf4jnsgd1na2vs0mg"},{"bike_id":"ce59a62d-17ec-416f-b54d-751bd3f6f3dd","system_id":"levelo_inurba_marseille","lat":43.27078,"lon":5.42272,"is_reserved":false,"is_disabled":false,"rental_uris":{"android":"levelo://app?vid=ce59a62d-17ec-416f-b54d-751bd3f6f3dd","ios":"levelo://app?vid=ce59a62d-17ec-416f-b54d-751bd3f6f3dd"},"vehicle_type_id":"4","last_reported":1753308656,"current_range_meters":16800,"station_id":"ce4bhk92rcd13ifvqgb0","pricing_plan_id":"cebpf4jnsgd1na2vs0mg"},{"bike_id":"18b86593-4f21-41ed-81b3-f3a5b378dc91","system_id":"levelo_inurba_marseille","lat":43.312339,"lon":5.381309,"is_reserved":false,"is_disabled":false,"rental_uris":{"android":"levelo://app?vid=18b86593-4f21-41ed-81b3-f3a5b378dc91","ios":"levelo://app?vid=18b86593-4f21-41ed-81b3-f3a5b378dc91"},"vehicle_type_id":"4","last_reported":1753308656,"current_range_meters":16800,"station_id":"","pricing_plan_id":"cebpf4jnsgd1na2vs0mg"},{"bike_id":"875540a5-76de-4844-93f6-e9d5f549dced","system_id":"levelo_inurba_marseille","lat":43.295987,"lon":5.381056,"is_reserved":false,"is_disabled":false,"rental_uris":{"android":"levelo://app?vid=875540a5-76de-4844-93f6-e9d5f549dced","ios":"levelo://app?vid=875540a5-76de-4844-93f6-e9d5f549dced"},"vehicle_type_id":"4","last_reported":1753308656,"current_range_meters":16800,"station_id":"","pricing_plan_id":"cebpf4jnsgd1na2vs0mg"},{"bike_id":"f0f73c71-7331-4628-b623-754b73a8546a","system_id":"levelo_inurba_marseille","lat":43.30116,"lon":5.39884,"is_reserved":false,"is_disabled":true,"rental_uris":{"android":"levelo://app?vid=f0f73c71-7331-4628-b623-754b73a8546a","ios":"levelo://app?vid=f0f73c71-7331-4628-b623-754b73a8546a"},"vehicle_type_id":"4","last_reported":1753308656,"current_range_meters":16800,"station_id":"ce4bh0h2rcd13ifvqd40","pricing_plan_id":"cebpf4jnsgd1na2vs0mg"},{"bike_id":"2ee732fb-16c6-4794-9a8e-0c60df4bd4d8","system_id":"levelo_inurba_marseille","lat":43.21749,"lon":5.34609,"is_reserved":false,"is_disabled":false,"rental_uris":{"android":"levelo://app?vid=2ee732fb-16c6-4794-9a8e-0c60df4bd4d8","ios":"levelo://app?vid=2ee732fb-16c6-4794-9a8e-0c60df4bd4d8"},"vehicle_type_id":"4","last_reported":1753308656,"current_range_meters":16800,"station_id":"","pricing_plan_id":"cebpf4jnsgd1na2vs0mg"},{"bike_id":"549c77b3-f0d5-4b0f-ae63-15a573a6eb36","system_id":"levelo_inurba_marseille","lat":43.30919,"lon":5.4015,"is_reserved":false,"is_disabled":false,"rental_uris":{"android":"levelo://app?vid=549c77b3-f0d5-4b0f-ae63-15a573a6eb36","ios":"levelo://app?vid=549c77b3-f0d5-4b0f-ae63-15a573a6eb36"},"vehicle_type_id":"4","last_reported":1753308656,"current_range_meters":16800,"station_id":"ce4bgvp2rcd13ifvqct0","pricing_plan_id":"cebpf4jnsgd1na2vs0mg"},{"bike_id":"1ad257b5-7f83-42c1-867f-92635ff1abbf","system_id":"levelo_inurba_marseille","lat":43.22938,"lon":5.35389,"is_reserved":false,"is_disabled":false,"rental_uris":{"android":"levelo://app?vid=1ad257b5-7f83-42c1-867f-92635ff1abbf","ios":"levelo://app?vid=1ad257b5-7f83-42c1-867f-92635ff1abbf"},"vehicle_type_id":"4","last_reported":1753308656,"current_range_meters":16800,"station_id":"cpo3532slgdg3j2ikp40","pricing_plan_id":"cebpf4jnsgd1na2vs0mg"},{"bike_id":"c5c0a47b-5c2a-413e-94a6-9ce209d53e41","system_id":"levelo_inurba_marseille","lat":43.28839,"lon":5.39302,"is_reserved":false,"is_disabled":false,"rental_uris":{"android":"levelo://app?vid=c5c0a47b-5c2a-413e-94a6-9ce209d53e41","ios":"levelo://app?vid=c5c0a47b-5c2a-413e-94a6-9ce209d53e41"},"vehicle_type_id":"4","last_reported":1753308656,"current_range_meters":17200,"station_id":"ce4bh2p2rcd13ifvqdi0","pricing_plan_id":"cebpf4jnsgd1na2vs0mg"},{"bike_id":"5bf271e9-b85e-4ede-9d32-02d7c28374e7","system_id":"levelo_inurba_marseille","lat":43.32471,"lon":5.36552,"is_reserved":false,"is_disabled":false,"rental_uris":{"android":"levelo://app?vid=5bf271e9-b85e-4ede-9d32-02d7c28374e7","ios":"levelo://app?vid=5bf271e9-b85e-4ede-9d32-02d7c28374e7"},"vehicle_type_id":"4","last_reported":1753308656,"current_range_meters":17200,"station_id":"ce4bhs12rcd13ifvqhvg","pricing_plan_id":"cebpf4jnsgd1na2vs0mg"},{"bike_id":"61cb5b9a-9cee-4d3f-8bba-365148ee2e42","system_id":"levelo_inurba_marseille","lat":43.2587,"lon":5.39907,"is_reserved":false,"is_disabled":false,"rental_uris":{"android":"levelo://app?vid=61cb5b9a-9cee-4d3f-8bba-365148ee2e42","ios":"levelo://app?vid=61cb5b9a-9cee-4d3f-8bba-365148ee2e42"},"vehicle_type_id":"4","last_reported":1753308656,"current_range_meters":17200,"station_id":"ce4bhl92rcd13ifvqghg","pricing_plan_id":"cebpf4jnsgd1na2vs0mg"},{"bike_id":"b114f818-6034-4474-908b-ea4780f40b86","system_id":"levelo_inurba_marseille","lat":43.24067,"lon":5.37683,"is_reserved":false,"is_disabled":false,"rental_uris":{"android":"levelo://app?vid=b114f818-6034-4474-908b-ea4780f40b86","ios":"levelo://app?vid=b114f818-6034-4474-908b-ea4780f40b86"},"vehicle_type_id":"4","last_reported":1753308656,"current_range_meters":17200,"station_id":"","pricing_plan_id":"cebpf4jnsgd1na2vs0mg"},{"bike_id":"e9f5eb0b-095e-4dc2-b77c-57c16ce50130","system_id":"levelo_inurba_marseille","lat":43.29606,"lon":5.36716,"is_reserved":false,"is_disabled":false,"rental_uris":{"android":"levelo://app?vid=e9f5eb0b-095e-4dc2-b77c-57c16ce50130","ios":"levelo://app?vid=e9f5eb0b-095e-4dc2-b77c-57c16ce50130"},"vehicle_type_id":"4","last_reported":1753308656,"current_range_meters":17200,"station_id":"ce4bgph2rcd13ifvqc2g","pricing_plan_id":"cebpf4jnsgd1na2vs0mg"},{"bike_id":"76c65f84-3b49-4269-890c-8259fe6ade74","system_id":"levelo_inurba_marseille","lat":43.32367,"lon":5.36776,"is_reserved":false,"is_disabled":false,"rental_uris":{"android":"levelo://app?vid=76c65f84-3b49-4269-890c-8259fe6ade74","ios":"levelo://app?vid=76c65f84-3b49-4269-890c-8259fe6ade74"},"vehicle_type_id":"4","last_reported":1753308656,"current_range_meters":17200,"station_id":"ce4bhsh2rcd13ifvqi2g","pricing_plan_id":"cebpf4jnsgd1na2vs0mg"},{"bike_id":"68b4de77-db1d-417a-bdd1-1e415b9a80b2","system_id":"levelo_inurba_marseille","lat":43.31078,"lon":5.38359,"is_reserved":false,"is_disabled":false,"rental_uris":{"android":"levelo://app?vid=68b4de77-db1d-417a-bdd1-1e415b9a80b2","ios":"levelo://app?vid=68b4de77-db1d-417a-bdd1-1e415b9a80b2"},"vehicle_type_id":"4","last_reported":1753308656,"current_range_meters":17200,"station_id":"ce4bgv92rcd13ifvqcr0","pricing_plan_id":"cebpf4jnsgd1na2vs0mg"},{"bike_id":"1f659761-ebcc-45a2-b1de-ac18790d8369","system_id":"levelo_inurba_marseille","lat":43.28438,"lon":5.39207,"is_reserved":false,"is_disabled":false,"rental_uris":{"android":"levelo://app?vid=1f659761-ebcc-45a2-b1de-ac18790d8369","ios":"levelo://app?vid=1f659761-ebcc-45a2-b1de-ac18790d8369"},"vehicle_type_id":"4","last_reported":1753308656,"current_range_meters":17200,"station_id":"ce4bhoh2rcd13ifvqh5g","pricing_plan_id":"cebpf4jnsgd1na2vs0mg"},{"bike_id":"63c5ca57-b2df-4b8b-ad7f-6f2df7343ee7","system_id":"levelo_inurba_marseille","lat":43.28475,"lon":5.38427,"is_reserved":false,"is_disabled":true,"rental_uris":{"android":"levelo://app?vid=63c5ca57-b2df-4b8b-ad7f-6f2df7343ee7","ios":"levelo://app?vid=63c5ca57-b2df-4b8b-ad7f-6f2df7343ee7"},"vehicle_type_id":"4","last_reported":1753308656,"current_range_meters":17600,"station_id":"ce4bh512rcd13ifvqe3g","pricing_plan_id":"cebpf4jnsgd1na2vs0mg"},{"bike_id":"ef5ccae1-9193-443e-97a1-179b1a3f86d9","system_id":"levelo_inurba_marseille","lat":43.33023,"lon":5.39048,"is_reserved":false,"is_disabled":false,"rental_uris":{"android":"levelo://app?vid=ef5ccae1-9193-443e-97a1-179b1a3f86d9","ios":"levelo://app?vid=ef5ccae1-9193-443e-97a1-179b1a3f86d9"},"vehicle_type_id":"4","last_reported":1753308656,"current_range_meters":17600,"station_id":"ce4bhr92rcd13ifvqhrg","pricing_plan_id":"cebpf4jnsgd1na2vs0mg"},{"bike_id":"5f824980-27aa-4ef2-856d-b766bebead8a","system_id":"levelo_inurba_marseille","lat":43.22489,"lon":5.3479,"is_reserved":false,"is_disabled":false,"rental_uris":{"android":"levelo://app?vid=5f824980-27aa-4ef2-856d-b766bebead8a","ios":"levelo://app?vid=5f824980-27aa-4ef2-856d-b766bebead8a"},"vehicle_type_id":"4","last_reported":1753308656,"current_range_meters":17600,"station_id":"st_cvj5dfep6f1abm77gieg","pricing_plan_id":"cebpf4jnsgd1na2vs0mg"},{"bike_id":"1b7f7602-0fdb-430c-ae25-9aeeef3d7383","system_id":"levelo_inurba_marseille","lat":43.27996,"lon":5.41666,"is_reserved":false,"is_disabled":false,"rental_uris":{"android":"levelo://app?vid=1b7f7602-0fdb-430c-ae25-9aeeef3d7383","ios":"levelo://app?vid=1b7f7602-0fdb-430c-ae25-9aeeef3d7383"},"vehicle_type_id":"4","last_reported":1753308656,"current_range_meters":17600,"station_id":"ce4bho12rcd13ifvqh1g","pricing_plan_id":"cebpf4jnsgd1na2vs0mg"},{"bike_id":"270c6910-4397-42f2-99f1-4d519b6317e2","system_id":"levelo_inurba_marseille","lat":43.28698,"lon":5.39986,"is_reserved":false,"is_disabled":false,"rental_uris":{"android":"levelo://app?vid=270c6910-4397-42f2-99f1-4d519b6317e2","ios":"levelo://app?vid=270c6910-4397-42f2-99f1-4d519b6317e2"},"vehicle_type_id":"4","last_reported":1753308656,"current_range_meters":17600,"station_id":"ce4bho92rcd13ifvqh3g","pricing_plan_id":"cebpf4jnsgd1na2vs0mg"},{"bike_id":"086308be-c55f-4b02-af58-dc610cb7c5af","system_id":"levelo_inurba_marseille","lat":43.28276,"lon":5.35075,"is_reserved":false,"is_disabled":false,"rental_uris":{"android":"levelo://app?vid=086308be-c55f-4b02-af58-dc610cb7c5af","ios":"levelo://app?vid=086308be-c55f-4b02-af58-dc610cb7c5af"},"vehicle_type_id":"4","last_reported":1753308656,"current_range_meters":17600,"station_id":"ce4bhbp2rcd13ifvqerg","pricing_plan_id":"cebpf4jnsgd1na2vs0mg"},{"bike_id":"253a269e-9944-4daf-a54c-679a93fe8e2e","system_id":"levelo_inurba_marseille","lat":43.29562,"lon":5.39953,"is_reserved":false,"is_disabled":false,"rental_uris":{"android":"levelo://app?vid=253a269e-9944-4daf-a54c-679a93fe8e2e","ios":"levelo://app?vid=253a269e-9944-4daf-a54c-679a93fe8e2e"},"vehicle_type_id":"4","last_reported":1753308656,"current_range_meters":17600,"station_id":"ce4bh312rcd13ifvqdj0","pricing_plan_id":"cebpf4jnsgd1na2vs0mg"},{"bike_id":"c0856872-1635-4b1a-bdcd-0a9c7f59b32a","system_id":"levelo_inurba_marseille","lat":43.27992,"lon":5.41665,"is_reserved":false,"is_disabled":false,"rental_uris":{"android":"levelo://app?vid=c0856872-1635-4b1a-bdcd-0a9c7f59b32a","ios":"levelo://app?vid=c0856872-1635-4b1a-bdcd-0a9c7f59b32a"},"vehicle_type_id":"4","last_reported":1753308656,"current_range_meters":17600,"station_id":"ce4bho12rcd13ifvqh1g","pricing_plan_id":"cebpf4jnsgd1na2vs0mg"},{"bike_id":"9437277c-d886-4a0b-9535-11724bd91051","system_id":"levelo_inurba_marseille","lat":43.27067,"lon":5.42279,"is_reserved":false,"is_disabled":false,"rental_uris":{"android":"levelo://app?vid=9437277c-d886-4a0b-9535-11724bd91051","ios":"levelo://app?vid=9437277c-d886-4a0b-9535-11724bd91051"},"vehicle_type_id":"4","last_reported":1753308656,"current_range_meters":17600,"station_id":"ce4bhk92rcd13ifvqgb0","pricing_plan_id":"cebpf4jnsgd1na2vs0mg"},{"bike_id":"ec170b1e-871a-423f-a35c-a5fb89392e96","system_id":"levelo_inurba_marseille","lat":43.27925,"lon":5.38757,"is_reserved":false,"is_disabled":false,"rental_uris":{"android":"levelo://app?vid=ec170b1e-871a-423f-a35c-a5fb89392e96","ios":"levelo://app?vid=ec170b1e-871a-423f-a35c-a5fb89392e96"},"vehicle_type_id":"4","last_reported":1753308656,"current_range_meters":18000,"station_id":"","pricing_plan_id":"cebpf4jnsgd1na2vs0mg"},{"bike_id":"b2c09e76-df6e-4d29-8023-d71b3a25494c","system_id":"levelo_inurba_marseille","lat":43.29865,"lon":5.39735,"is_reserved":false,"is_disabled":false,"rental_uris":{"android":"levelo://app?vid=b2c09e76-df6e-4d29-8023-d71b3a25494c","ios":"levelo://app?vid=b2c09e76-df6e-4d29-8023-d71b3a25494c"},"vehicle_type_id":"4","last_reported":1753308656,"current_range_meters":18000,"station_id":"ce4bh0h2rcd13ifvqd50","pricing_plan_id":"cebpf4jnsgd1na2vs0mg"},{"bike_id":"81df7d6f-832b-40f6-ad7c-3d213cee8b09","system_id":"levelo_inurba_marseille","lat":43.2407,"lon":5.37756,"is_reserved":false,"is_disabled":false,"rental_uris":{"android":"levelo://app?vid=81df7d6f-832b-40f6-ad7c-3d213cee8b09","ios":"levelo://app?vid=81df7d6f-832b-40f6-ad7c-3d213cee8b09"},"vehicle_type_id":"4","last_reported":1753308656,"current_range_meters":18000,"station_id":"ce4bhnp2rcd13ifvqgvg","pricing_plan_id":"cebpf4jnsgd1na2vs0mg"},{"bike_id":"085cc398-265e-4402-bcb0-4ca5061b4738","system_id":"levelo_inurba_marseille","lat":43.22945,"lon":5.35378,"is_reserved":false,"is_disabled":false,"rental_uris":{"android":"levelo://app?vid=085cc398-265e-4402-bcb0-4ca5061b4738","ios":"levelo://app?vid=085cc398-265e-4402-bcb0-4ca5061b4738"},"vehicle_type_id":"4","last_reported":1753308656,"current_range_meters":18000,"station_id":"cpo3532slgdg3j2ikp40","pricing_plan_id":"cebpf4jnsgd1na2vs0mg"},{"bike_id":"deaf59a6-0ab0-401d-be58-d4dbcd342c19","system_id":"levelo_inurba_marseille","lat":43.3188,"lon":5.40735,"is_reserved":false,"is_disabled":false,"rental_uris":{"android":"levelo://app?vid=deaf59a6-0ab0-401d-be58-d4dbcd342c19","ios":"levelo://app?vid=deaf59a6-0ab0-401d-be58-d4dbcd342c19"},"vehicle_type_id":"4","last_reported":1753308656,"current_range_meters":18000,"station_id":"ce4bhq12rcd13ifvqhig","pricing_plan_id":"cebpf4jnsgd1na2vs0mg"},{"bike_id":"54033875-0074-4805-a0bf-987d126d0eee","system_id":"levelo_inurba_marseille","lat":43.28724,"lon":5.36084,"is_reserved":false,"is_disabled":false,"rental_uris":{"android":"levelo://app?vid=54033875-0074-4805-a0bf-987d126d0eee","ios":"levelo://app?vid=54033875-0074-4805-a0bf-987d126d0eee"},"vehicle_type_id":"4","last_reported":1753308656,"current_range_meters":18000,"station_id":"cki0cbj6b192h4jlfktg","pricing_plan_id":"cebpf4jnsgd1na2vs0mg"},{"bike_id":"4b8efed3-9e53-47c8-bfa4-f1fb0beb03b1","system_id":"levelo_inurba_marseille","lat":43.29605,"lon":5.36737,"is_reserved":false,"is_disabled":true,"rental_uris":{"android":"levelo://app?vid=4b8efed3-9e53-47c8-bfa4-f1fb0beb03b1","ios":"levelo://app?vid=4b8efed3-9e53-47c8-bfa4-f1fb0beb03b1"},"vehicle_type_id":"4","last_reported":1753308656,"current_range_meters":18000,"station_id":"ce4bgph2rcd13ifvqc2g","pricing_plan_id":"cebpf4jnsgd1na2vs0mg"},{"bike_id":"09336dc7-8d4c-48cc-a378-586ba51918d3","system_id":"levelo_inurba_marseille","lat":43.27174,"lon":5.41,"is_reserved":false,"is_disabled":false,"rental_uris":{"android":"levelo://app?vid=09336dc7-8d4c-48cc-a378-586ba51918d3","ios":"levelo://app?vid=09336dc7-8d4c-48cc-a378-586ba51918d3"},"vehicle_type_id":"4","last_reported":1753308656,"current_range_meters":18000,"station_id":"ce4bhl12rcd13ifvqgf0","pricing_plan_id":"cebpf4jnsgd1na2vs0mg"},{"bike_id":"451c8b55-6be2-42fe-a6f2-5298fefb419a","system_id":"levelo_inurba_marseille","lat":43.28151,"lon":5.42637,"is_reserved":false,"is_disabled":false,"rental_uris":{"android":"levelo://app?vid=451c8b55-6be2-42fe-a6f2-5298fefb419a","ios":"levelo://app?vid=451c8b55-6be2-42fe-a6f2-5298fefb419a"},"vehicle_type_id":"4","last_reported":1753308656,"current_range_meters":18000,"station_id":"ce4bhnh2rcd13ifvqgug","pricing_plan_id":"cebpf4jnsgd1na2vs0mg"},{"bike_id":"f7f07796-c7c9-4a74-80e9-fb85744448b8","system_id":"levelo_inurba_marseille","lat":43.22917,"lon":5.35386,"is_reserved":false,"is_disabled":false,"rental_uris":{"android":"levelo://app?vid=f7f07796-c7c9-4a74-80e9-fb85744448b8","ios":"levelo://app?vid=f7f07796-c7c9-4a74-80e9-fb85744448b8"},"vehicle_type_id":"4","last_reported":1753308656,"current_range_meters":18000,"station_id":"cpo3532slgdg3j2ikp40","pricing_plan_id":"cebpf4jnsgd1na2vs0mg"},{"bike_id":"422e299c-eff1-4f93-98b7-3230f5aca0d6","system_id":"levelo_inurba_marseille","lat":43.30789,"lon":5.38157,"is_reserved":false,"is_disabled":false,"rental_uris":{"android":"levelo://app?vid=422e299c-eff1-4f93-98b7-3230f5aca0d6","ios":"levelo://app?vid=422e299c-eff1-4f93-98b7-3230f5aca0d6"},"vehicle_type_id":"4","last_reported":1753308656,"current_range_meters":18000,"station_id":"ce4bgt12rcd13ifvqce0","pricing_plan_id":"cebpf4jnsgd1na2vs0mg"},{"bike_id":"35a86048-76dd-4de0-afb2-7da8772fad44","system_id":"levelo_inurba_marseille","lat":43.21528,"lon":5.34736,"is_reserved":false,"is_disabled":false,"rental_uris":{"android":"levelo://app?vid=35a86048-76dd-4de0-afb2-7da8772fad44","ios":"levelo://app?vid=35a86048-76dd-4de0-afb2-7da8772fad44"},"vehicle_type_id":"4","last_reported":1753308656,"current_range_meters":18000,"station_id":"","pricing_plan_id":"cebpf4jnsgd1na2vs0mg"},{"bike_id":"8858b1ae-5dc7-491c-b163-7edab8caadc8","system_id":"levelo_inurba_marseille","lat":43.289096,"lon":5.366565,"is_reserved":false,"is_disabled":false,"rental_uris":{"android":"levelo://app?vid=8858b1ae-5dc7-491c-b163-7edab8caadc8","ios":"levelo://app?vid=8858b1ae-5dc7-491c-b163-7edab8caadc8"},"vehicle_type_id":"4","last_reported":1753308656,"current_range_meters":17600,"station_id":"ce4bhah2rcd13ifvqej0","pricing_plan_id":"cebpf4jnsgd1na2vs0mg"},{"bike_id":"34088060-cf02-4865-be61-69b02660c8e6","system_id":"levelo_inurba_marseille","lat":43.29589,"lon":5.36739,"is_reserved":false,"is_disabled":false,"rental_uris":{"android":"levelo://app?vid=34088060-cf02-4865-be61-69b02660c8e6","ios":"levelo://app?vid=34088060-cf02-4865-be61-69b02660c8e6"},"vehicle_type_id":"4","last_reported":1753308656,"current_range_meters":18000,"station_id":"ce4bgph2rcd13ifvqc2g","pricing_plan_id":"cebpf4jnsgd1na2vs0mg"},{"bike_id":"fbda76a5-068e-4d90-b9ba-25721acd9298","system_id":"levelo_inurba_marseille","lat":43.290163,"lon":5.43986,"is_reserved":false,"is_disabled":false,"rental_uris":{"android":"levelo://app?vid=fbda76a5-068e-4d90-b9ba-25721acd9298","ios":"levelo://app?vid=fbda76a5-068e-4d90-b9ba-25721acd9298"},"vehicle_type_id":"4","last_reported":1753308656,"current_range_meters":18800,"station_id":"","pricing_plan_id":"cebpf4jnsgd1na2vs0mg"},{"bike_id":"f1cce97c-a87d-40c8-9fc0-12fac9d6c197","system_id":"levelo_inurba_marseille","lat":43.3151,"lon":5.37288,"is_reserved":false,"is_disabled":false,"rental_uris":{"android":"levelo://app?vid=f1cce97c-a87d-40c8-9fc0-12fac9d6c197","ios":"levelo://app?vid=f1cce97c-a87d-40c8-9fc0-12fac9d6c197"},"vehicle_type_id":"4","last_reported":1753308656,"current_range_meters":18800,"station_id":"ce4bgt12rcd13ifvqcd0","pricing_plan_id":"cebpf4jnsgd1na2vs0mg"},{"bike_id":"b30e8afe-189e-4d95-85f3-17f3e204cb70","system_id":"levelo_inurba_marseille","lat":43.29597,"lon":5.36765,"is_reserved":false,"is_disabled":false,"rental_uris":{"android":"levelo://app?vid=b30e8afe-189e-4d95-85f3-17f3e204cb70","ios":"levelo://app?vid=b30e8afe-189e-4d95-85f3-17f3e204cb70"},"vehicle_type_id":"4","last_reported":1753308656,"current_range_meters":18800,"station_id":"ce4bgph2rcd13ifvqc2g","pricing_plan_id":"cebpf4jnsgd1na2vs0mg"},{"bike_id":"4c9748fe-aa79-40e7-acb5-66d16b0ced2d","system_id":"levelo_inurba_marseille","lat":43.31163,"lon":5.38722,"is_reserved":false,"is_disabled":false,"rental_uris":{"android":"levelo://app?vid=4c9748fe-aa79-40e7-acb5-66d16b0ced2d","ios":"levelo://app?vid=4c9748fe-aa79-40e7-acb5-66d16b0ced2d"},"vehicle_type_id":"4","last_reported":1753308656,"current_range_meters":18800,"station_id":"ce4bgv12rcd13ifvqcp0","pricing_plan_id":"cebpf4jnsgd1na2vs0mg"},{"bike_id":"550ed6ab-d61b-4d61-af6f-62768fec54ac","system_id":"levelo_inurba_marseille","lat":43.295289,"lon":5.385404,"is_reserved":false,"is_disabled":false,"rental_uris":{"android":"levelo://app?vid=550ed6ab-d61b-4d61-af6f-62768fec54ac","ios":"levelo://app?vid=550ed6ab-d61b-4d61-af6f-62768fec54ac"},"vehicle_type_id":"4","last_reported":1753308656,"current_range_meters":18800,"station_id":"ce4bgvp2rcd13ifvqct0","pricing_plan_id":"cebpf4jnsgd1na2vs0mg"},{"bike_id":"c4f031d3-e523-400f-850b-95a9172be24f","system_id":"levelo_inurba_marseille","lat":43.28664,"lon":5.36354,"is_reserved":false,"is_disabled":false,"rental_uris":{"android":"levelo://app?vid=c4f031d3-e523-400f-850b-95a9172be24f","ios":"levelo://app?vid=c4f031d3-e523-400f-850b-95a9172be24f"},"vehicle_type_id":"4","last_reported":1753308656,"current_range_meters":18800,"station_id":"ce4bhah2rcd13ifvqej0","pricing_plan_id":"cebpf4jnsgd1na2vs0mg"},{"bike_id":"28c752dc-c0ff-42d7-8ff3-f57e831b854a","system_id":"levelo_inurba_marseille","lat":43.251,"lon":5.40355,"is_reserved":false,"is_disabled":false,"rental_uris":{"android":"levelo://app?vid=28c752dc-c0ff-42d7-8ff3-f57e831b854a","ios":"levelo://app?vid=28c752dc-c0ff-42d7-8ff3-f57e831b854a"},"vehicle_type_id":"4","last_reported":1753308656,"current_range_meters":18800,"station_id":"ce4bhlh2rcd13ifvqgig","pricing_plan_id":"cebpf4jnsgd1na2vs0mg"},{"bike_id":"eaea15aa-98ae-4f78-b37a-80e2e4524837","system_id":"levelo_inurba_marseille","lat":43.297916,"lon":5.381026,"is_reserved":false,"is_disabled":false,"rental_uris":{"android":"levelo://app?vid=eaea15aa-98ae-4f78-b37a-80e2e4524837","ios":"levelo://app?vid=eaea15aa-98ae-4f78-b37a-80e2e4524837"},"vehicle_type_id":"4","last_reported":1753308656,"current_range_meters":18800,"station_id":"","pricing_plan_id":"cebpf4jnsgd1na2vs0mg"},{"bike_id":"819bb1b6-06bc-4eb2-b94e-4388d87b087b","system_id":"levelo_inurba_marseille","lat":43.29691,"lon":5.36612,"is_reserved":false,"is_disabled":true,"rental_uris":{"android":"levelo://app?vid=819bb1b6-06bc-4eb2-b94e-4388d87b087b","ios":"levelo://app?vid=819bb1b6-06bc-4eb2-b94e-4388d87b087b"},"vehicle_type_id":"4","last_reported":1753308656,"current_range_meters":18800,"station_id":"ce4bgn12rcd13ifvqbt0","pricing_plan_id":"cebpf4jnsgd1na2vs0mg"},{"bike_id":"36576376-75b8-4e4d-ac20-ff9d7feafb1d","system_id":"levelo_inurba_marseille","lat":43.26168,"lon":5.3751,"is_reserved":false,"is_disabled":false,"rental_uris":{"android":"levelo://app?vid=36576376-75b8-4e4d-ac20-ff9d7feafb1d","ios":"levelo://app?vid=36576376-75b8-4e4d-ac20-ff9d7feafb1d"},"vehicle_type_id":"4","last_reported":1753308656,"current_range_meters":18800,"station_id":"ce4bhgp2rcd13ifvqfc0","pricing_plan_id":"cebpf4jnsgd1na2vs0mg"},{"bike_id":"c9bb4e79-ea5a-4386-8c29-49544f15502f","system_id":"levelo_inurba_marseille","lat":43.27537,"lon":5.3848,"is_reserved":false,"is_disabled":false,"rental_uris":{"android":"levelo://app?vid=c9bb4e79-ea5a-4386-8c29-49544f15502f","ios":"levelo://app?vid=c9bb4e79-ea5a-4386-8c29-49544f15502f"},"vehicle_type_id":"4","last_reported":1753308656,"current_range_meters":18800,"station_id":"ce4bhh92rcd13ifvqfi0","pricing_plan_id":"cebpf4jnsgd1na2vs0mg"},{"bike_id":"94bedc16-79ef-4328-8902-90f4c681ac09","system_id":"levelo_inurba_marseille","lat":43.31345,"lon":5.3671,"is_reserved":false,"is_disabled":false,"rental_uris":{"android":"levelo://app?vid=94bedc16-79ef-4328-8902-90f4c681ac09","ios":"levelo://app?vid=94bedc16-79ef-4328-8902-90f4c681ac09"},"vehicle_type_id":"4","last_reported":1753308656,"current_range_meters":18000,"station_id":"ce4bgr92rcd13ifvqc6g","pricing_plan_id":"cebpf4jnsgd1na2vs0mg"},{"bike_id":"4a86d85a-7ea7-43ec-b760-9c57d698d744","system_id":"levelo_inurba_marseille","lat":43.27614,"lon":5.35838,"is_reserved":false,"is_disabled":false,"rental_uris":{"android":"levelo://app?vid=4a86d85a-7ea7-43ec-b760-9c57d698d744","ios":"levelo://app?vid=4a86d85a-7ea7-43ec-b760-9c57d698d744"},"vehicle_type_id":"4","last_reported":1753308656,"current_range_meters":18800,"station_id":"","pricing_plan_id":"cebpf4jnsgd1na2vs0mg"},