{"last_updated":1684400789,"ttl":30,"version":"2.2","data":{"bikes":[{"bike_id":"7bdf4c5f-5855-4aae-93f1-1f2abb30b761","system_id":"levelo_inurba_marseille","lat":43.31341,"lon":5.367098,"is_reserved":false,"is_disabled":false,"rental_uris":{"android":"levelo://app?vid=7bdf4c5f-5855-4aae-93f1-1f2abb30b761","ios":"levelo://app?vid=7bdf4c5f-5855-4aae-93f1-1f2abb30b761"},"vehicle_type_id":"4","last_reported":1684400790,"current_range_meters":30400,"station_id":"ce4bgr92rcd13ifvqc6g","pricing_plan_id":"free"},{"bike_id":"7e33f90c-6516-4dfc-8d63-020f2cfc662c","system_id":"levelo_inurba_marseille","lat":43.312239,"lon":5.368562,"is_reserved":false,"is_disabled":false,"rental_uris":{"android":"levelo://app?vid=7e33f90c-6516-4dfc-8d63-020f2cfc662c","ios":"levelo://app?vid=7e33f90c-6516-4dfc-8d63-020f2cfc662c"},"vehicle_type_id":"4","last_reported":1684400790,"current_range_meters":30400,"station_id":"ce4bgl92rcd13ifvqbq0","pricing_plan_id":"free"},{"bike_id":"30a230cc-8d30-4e96-bff7-608bf40e4b62","system_id":"levelo_inurba_marseille","lat":43.314811,"lon":5.373103,"is_reserved":false,"is_disabled":false,"rental_uris":{"android":"levelo://app?vid=30a230cc-8d30-4e96-bff7-608bf40e4b62","ios":"levelo://app?vid=30a230cc-8d30-4e96-bff7-608bf40e4b62"},"vehicle_type_id":"4","last_reported":1684400790,"current_range_meters":30000,"station_id":"ce4bgt12rcd13ifvqcd0","pricing_plan_id":"free"},{"bike_id":"9315a7e0-6ce6-422d-b82c-2aafe6150ca1","system_id":"levelo_inurba_marseille","lat":43.314811,"lon":5.373103,"is_reserved":false,"is_disabled":false,"rental_uris":{"android":"levelo://app?vid=9315a7e0-6ce6-422d-b82c-2aafe6150ca1","ios":"levelo://app?vid=9315a7e0-6ce6-422d-b82c-2aafe6150ca1"},"vehicle_type_id":"4","last_reported":1684400790,"current_range_meters":30400,"station_id":"ce4bgt12rcd13ifvqcd0","pricing_plan_id":"free"},{"bike_id":"9b1b26d6-3654-4794-a72f-c9fdbb93f7c9","system_id":"levelo_inurba_marseille","lat":43.314811,"lon":5.373103,"is_reserved":false,"is_disabled":false,"rental_uris":{"android":"levelo://app?vid=9b1b26d6-3654-4794-a72f-c9fdbb93f7c9","ios":"levelo://app?vid=9b1b26d6-3654-4794-a72f-c9fdbb93f7c9"},"vehicle_type_id":"4","last_reported":1684400790,"current_range_meters":9200,"station_id":"ce4bgt12rcd13ifvqcd0","pricing_plan_id":"free"},{"bike_id":"12cd4d0d-5650-40fd-8e58-e904c6a342d1","system_id":"levelo_inurba_marseille","lat":43.314811,"lon":5.373103,"is_reserved":false,"is_disabled":false,"rental_uris":{"android":"levelo://app?vid=12cd4d0d-5650-40fd-8e58-e904c6a342d1","ios":"levelo://app?vid=12cd4d0d-5650-40fd-8e58-e904c6a342d1"},"vehicle_type_id":"4","last_reported":1684400790,"current_range_meters":29600,"station_id":"ce4bgt12rcd13ifvqcd0","pricing_plan_id":"free"},{"bike_id":"521e2328-4a58-4a66-9c46-510cab90a446","system_id":"levelo_inurba_marseille","lat":43.3141,"lon":5.37444,"is_reserved":false,"is_disabled":false,"rental_uris":{"android":"levelo://app?vid=521e2328-4a58-4a66-9c46-510cab90a446","ios":"levelo://app?vid=521e2328-4a58-4a66-9c46-510cab90a446"},"vehicle_type_id":"4","last_reported":1684400790,"current_range_meters":0,"station_id":"","pricing_plan_id":"free"},{"bike_id":"f8fd7f79-5b20-4584-ac3e-68905490f29b","system_id":"levelo_inurba_marseille","lat":43.305368,"lon":5.367343,"is_reserved":false,"is_disabled":false,"rental_uris":{"android":"levelo://app?vid=f8fd7f79-5b20-4584-ac3e-68905490f29b","ios":"levelo://app?vid=f8fd7f79-5b20-4584-ac3e-68905490f29b"},"vehicle_type_id":"4","last_reported":1684400790,"current_range_meters":27200,"station_id":"ce4bgrp2rcd13ifvqc9g","pricing_plan_id":"free"},{"bike_id":"4a17522a-c915-41da-a8e9-c5329a4faf14","system_id":"levelo_inurba_marseille","lat":43.305714,"lon":5.365633,"is_reserved":false,"is_disabled":false,"rental_uris":{"android":"levelo://app?vid=4a17522a-c915-41da-a8e9-c5329a4faf14","ios":"levelo://app?vid=4a17522a-c915-41da-a8e9-c5329a4faf14"},"vehicle_type_id":"4","last_reported":1684400790,"current_range_meters":2800,"station_id":"ce4bgs12rcd13ifvqcag","pricing_plan_id":"free"},{"bike_id":"71dfe86f-fe95-4fb3-ae3e-8a8150ddfef8","system_id":"levelo_inurba_marseille","lat":43.305447,"lon":5.367008,"is_reserved":false,"is_disabled":false,"rental_uris":{"android":"levelo://app?vid=71dfe86f-fe95-4fb3-ae3e-8a8150ddfef8","ios":"levelo://app?vid=71dfe86f-fe95-4fb3-ae3e-8a8150ddfef8"},"vehicle_type_id":"4","last_reported":1684400790,"current_range_meters":18800,"station_id":"","pricing_plan_id":"free"},{"bike_id":"bfbdfb23-6765-410f-be7c-2bbfbfe94476","system_id":"levelo_inurba_marseille","lat":43.30544,"lon":5.36693,"is_reserved":false,"is_disabled":false,"rental_uris":{"android":"levelo://app?vid=bfbdfb23-6765-410f-be7c-2bbfbfe94476","ios":"levelo://app?vid=bfbdfb23-6765-410f-be7c-2bbfbfe94476"},"vehicle_type_id":"4","last_reported":1684400790,"current_range_meters":31200,"station_id":"","pricing_plan_id":"free"},{"bike_id":"fb472a69-86e7-4043-bf71-a42472639a4c","system_id":"levelo_inurba_marseille","lat":43.30537,"lon":5.36716,"is_reserved":false,"is_disabled":false,"rental_uris":{"android":"levelo://app?vid=fb472a69-86e7-4043-bf71-a42472639a4c","ios":"levelo://app?vid=fb472a69-86e7-4043-bf71-a42472639a4c"},"vehicle_type_id":"4","last_reported":1684400790,"current_range_meters":26000,"station_id":"ce4bgrp2rcd13ifvqc9g","pricing_plan_id":"free"},{"bike_id":"ebb7dd16-05cc-4f0c-b56a-d564bdfb5681","system_id":"levelo_inurba_marseille","lat":43.30534,"lon":5.36697,"is_reserved":false,"is_disabled":false,"rental_uris":{"android":"levelo://app?vid=ebb7dd16-05cc-4f0c-b56a-d564bdfb5681","ios":"levelo://app?vid=ebb7dd16-05cc-4f0c-b56a-d564bdfb5681"},"vehicle_type_id":"4","last_reported":1684400790,"current_range_meters":26400,"station_id":"ce4bgrp2rcd13ifvqc9g","pricing_plan_id":"free"},{"bike_id":"b7d00b4a-47d5-498b-97d8-4bba9bb325d0","system_id":"levelo_inurba_marseille","lat":43.30622,"lon":5.37209,"is_reserved":false,"is_disabled":false,"rental_uris":{"android":"levelo://app?vid=b7d00b4a-47d5-498b-97d8-4bba9bb325d0","ios":"levelo://app?vid=b7d00b4a-47d5-498b-97d8-4bba9bb325d0"},"vehicle_type_id":"4","last_reported":1684400790,"current_range_meters":27600,"station_id":"","pricing_plan_id":"free"},{"bike_id":"301705e7-894f-4cf2-986e-662414ca2996","system_id":"levelo_inurba_marseille","lat":43.30609,"lon":5.37218,"is_reserved":false,"is_disabled":false,"rental_uris":{"android":"levelo://app?vid=301705e7-894f-4cf2-986e-662414ca2996","ios":"levelo://app?vid=301705e7-894f-4cf2-986e-662414ca2996"},"vehicle_type_id":"4","last_reported":1684400790,"current_range_meters":31200,"station_id":"ce4bgqh2rcd13ifvqc4g","pricing_plan_id":"free"},{"bike_id":"e56b203e-c907-4f03-a1da-9c714dfc0299","system_id":"levelo_inurba_marseille","lat":43.311131,"lon":5.377651,"is_reserved":false,"is_disabled":false,"rental_uris":{"android":"levelo://app?vid=e56b203e-c907-4f03-a1da-9c714dfc0299","ios":"levelo://app?vid=e56b203e-c907-4f03-a1da-9c714dfc0299"},"vehicle_type_id":"4","last_reported":1684400790,"current_range_meters":7200,"station_id":"ce4bgt92rcd13ifvqcg0","pricing_plan_id":"free"},{"bike_id":"3fdf3590-377d-4457-aec6-c56425f43c68","system_id":"levelo_inurba_marseille","lat":43.31719,"lon":5.37674,"is_reserved":false,"is_disabled":false,"rental_uris":{"android":"levelo://app?vid=3fdf3590-377d-4457-aec6-c56425f43c68","ios":"levelo://app?vid=3fdf3590-377d-4457-aec6-c56425f43c68"},"vehicle_type_id":"4","last_reported":1684400790,"current_range_meters":9600,"station_id":"","pricing_plan_id":"free"},{"bike_id":"e58fedb9-a57d-4be1-8ab0-757e8b5b800f","system_id":"levelo_inurba_marseille","lat":43.31706,"lon":5.37747,"is_reserved":false,"is_disabled":false,"rental_uris":{"android":"levelo://app?vid=e58fedb9-a57d-4be1-8ab0-757e8b5b800f","ios":"levelo://app?vid=e58fedb9-a57d-4be1-8ab0-757e8b5b800f"},"vehicle_type_id":"4","last_reported":1684400790,"current_range_meters":14400,"station_id":"ce4bgth2rcd13ifvqch0","pricing_plan_id":"free"},{"bike_id":"714fbcaa-b523-4e2a-aae8-87eb5f31792d","system_id":"levelo_inurba_marseille","lat":43.30811,"lon":5.38143,"is_reserved":false,"is_disabled":false,"rental_uris":{"android":"levelo://app?vid=714fbcaa-b523-4e2a-aae8-87eb5f31792d","ios":"levelo://app?vid=714fbcaa-b523-4e2a-aae8-87eb5f31792d"},"vehicle_type_id":"4","last_reported":1684400790,"current_range_meters":31200,"station_id":"ce4bgt12rcd13ifvqce0","pricing_plan_id":"free"},{"bike_id":"c643f47a-3ade-4b5d-b10b-6b84ccf0b7be","system_id":"levelo_inurba_marseille","lat":43.308012,"lon":5.381511,"is_reserved":false,"is_disabled":false,"rental_uris":{"android":"levelo://app?vid=c643f47a-3ade-4b5d-b10b-6b84ccf0b7be","ios":"levelo://app?vid=c643f47a-3ade-4b5d-b10b-6b84ccf0b7be"},"vehicle_type_id":"4","last_reported":1684400790,"current_range_meters":18800,"station_id":"ce4bgt12rcd13ifvqce0","pricing_plan_id":"free"},{"bike_id":"bb74922a-052f-4ba0-ae6b-ab24283c6a22","system_id":"levelo_inurba_marseille","lat":43.304606,"lon":5.379026,"is_reserved":false,"is_disabled":false,"rental_uris":{"android":"levelo://app?vid=bb74922a-052f-4ba0-ae6b-ab24283c6a22","ios":"levelo://app?vid=bb74922a-052f-4ba0-ae6b-ab24283c6a22"},"vehicle_type_id":"4","last_reported":1684400790,"current_range_meters":31200,"station_id":"ce4bgup2rcd13ifvqcn0","pricing_plan_id":"free"},{"bike_id":"deb8cb61-9adb-424c-916e-4a80ce628c02","system_id":"levelo_inurba_marseille","lat":43.30465,"lon":5.37899,"is_reserved":false,"is_disabled":false,"rental_uris":{"android":"levelo://app?vid=deb8cb61-9adb-424c-916e-4a80ce628c02","ios":"levelo://app?vid=deb8cb61-9adb-424c-916e-4a80ce628c02"},"vehicle_type_id":"4","last_reported":1684400790,"current_range_meters":21600,"station_id":"ce4bgup2rcd13ifvqcn0","pricing_plan_id":"free"},{"bike_id":"8fe9713b-b28b-4213-8c2c-265b1fa00917","system_id":"levelo_inurba_marseille","lat":43.304606,"lon":5.379026,"is_reserved":false,"is_disabled":false,"rental_uris":{"android":"levelo://app?vid=8fe9713b-b28b-4213-8c2c-265b1fa00917","ios":"levelo://app?vid=8fe9713b-b28b-4213-8c2c-265b1fa00917"},"vehicle_type_id":"4","last_reported":1684400790,"current_range_meters":30000,"station_id":"ce4bgup2rcd13ifvqcn0","pricing_plan_id":"free"},{"bike_id":"49ca7fa9-5fec-4bb2-af4f-8e76acfddfe5","system_id":"levelo_inurba_marseille","lat":43.304606,"lon":5.379026,"is_reserved":false,"is_disabled":false,"rental_uris":{"android":"levelo://app?vid=49ca7fa9-5fec-4bb2-af4f-8e76acfddfe5","ios":"levelo://app?vid=49ca7fa9-5fec-4bb2-af4f-8e76acfddfe5"},"vehicle_type_id":"4","last_reported":1684400790,"current_range_meters":31200,"station_id":"ce4bgup2rcd13ifvqcn0","pricing_plan_id":"free"},{"bike_id":"3e6ea231-be0c-4447-9530-928fe54bb959","system_id":"levelo_inurba_marseille","lat":43.30465,"lon":5.37903,"is_reserved":false,"is_disabled":false,"rental_uris":{"android":"levelo://app?vid=3e6ea231-be0c-4447-9530-928fe54bb959","ios":"levelo://app?vid=3e6ea231-be0c-4447-9530-928fe54bb959"},"vehicle_type_id":"4","last_reported":1684400790,"current_range_meters":30800,"station_id":"ce4bgup2rcd13ifvqcn0","pricing_plan_id":"free"},{"bike_id":"a862384d-917b-48d1-a06c-63acebe6688d","system_id":"levelo_inurba_marseille","lat":43.30461,"lon":5.37898,"is_reserved":false,"is_disabled":false,"rental_uris":{"android":"levelo://app?vid=a862384d-917b-48d1-a06c-63acebe6688d","ios":"levelo://app?vid=a862384d-917b-48d1-a06c-63acebe6688d"},"vehicle_type_id":"4","last_reported":1684400790,"current_range_meters":16000,"station_id":"ce4bgup2rcd13ifvqcn0","pricing_plan_id":"free"},{"bike_id":"98dd2c67-19a1-44b7-9362-507b83435b5c","system_id":"levelo_inurba_marseille","lat":43.304606,"lon":5.379026,"is_reserved":false,"is_disabled":false,"rental_uris":{"android":"levelo://app?vid=98dd2c67-19a1-44b7-9362-507b83435b5c","ios":"levelo://app?vid=98dd2c67-19a1-44b7-9362-507b83435b5c"},"vehicle_type_id":"4","last_reported":1684400790,"current_range_meters":12400,"station_id":"ce4bgup2rcd13ifvqcn0","pricing_plan_id":"free"},{"bike_id":"f7f1d125-0d8c-472e-ad63-9443c93d6bd9","system_id":"levelo_inurba_marseille","lat":43.304606,"lon":5.379026,"is_reserved":false,"is_disabled":false,"rental_uris":{"android":"levelo://app?vid=f7f1d125-0d8c-472e-ad63-9443c93d6bd9","ios":"levelo://app?vid=f7f1d125-0d8c-472e-ad63-9443c93d6bd9"},"vehicle_type_id":"4","last_reported":1684400790,"current_range_meters":31200,"station_id":"ce4bgup2rcd13ifvqcn0","pricing_plan_id":"free"},{"bike_id":"643cbeb1-ff45-4d4e-b2c4-7f60ce4bbd57","system_id":"levelo_inurba_marseille","lat":43.304606,"lon":5.379026,"is_reserved":false,"is_disabled":false,"rental_uris":{"android":"levelo://app?vid=643cbeb1-ff45-4d4e-b2c4-7f60ce4bbd57","ios":"levelo://app?vid=643cbeb1-ff45-4d4e-b2c4-7f60ce4bbd57"},"vehicle_type_id":"4","last_reported":1684400790,"current_range_meters":31200,"station_id":"ce4bgup2rcd13ifvqcn0","pricing_plan_id":"free"},{"bike_id":"c232f23a-7ff8-4fd7-9fb5-8fe63385a945","system_id":"levelo_inurba_marseille","lat":43.30461,"lon":5.37899,"is_reserved":false,"is_disabled":false,"rental_uris":{"android":"levelo://app?vid=c232f23a-7ff8-4fd7-9fb5-8fe63385a945","ios":"levelo://app?vid=c232f23a-7ff8-4fd7-9fb5-8fe63385a945"},"vehicle_type_id":"4","last_reported":1684400790,"current_range_meters":31600,"station_id":"ce4bgup2rcd13ifvqcn0","pricing_plan_id":"free"},{"bike_id":"003260f6-a205-435f-9ea0-7169401849bf","system_id":"levelo_inurba_marseille","lat":43.304606,"lon":5.379026,"is_reserved":false,"is_disabled":false,"rental_uris":{"android":"levelo://app?vid=003260f6-a205-435f-9ea0-7169401849bf","ios":"levelo://app?vid=003260f6-a205-435f-9ea0-7169401849bf"},"vehicle_type_id":"4","last_reported":1684400790,"current_range_meters":27600,"station_id":"ce4bgup2rcd13ifvqcn0","pricing_plan_id":"free"},{"bike_id":"06675062-bb1f-46b7-97da-c1704ea15c05","system_id":"levelo_inurba_marseille","lat":43.30462,"lon":5.37903,"is_reserved":false,"is_disabled":false,"rental_uris":{"android":"levelo://app?vid=06675062-bb1f-46b7-97da-c1704ea15c05","ios":"levelo://app?vid=06675062-bb1f-46b7-97da-c1704ea15c05"},"vehicle_type_id":"4","last_reported":1684400790,"current_range_meters":26800,"station_id":"ce4bgup2rcd13ifvqcn0","pricing_plan_id":"free"},{"bike_id":"7ec1910c-4073-4865-a75d-ceda3ffef3aa","system_id":"levelo_inurba_marseille","lat":43.30461,"lon":5.37903,"is_reserved":false,"is_disabled":false,"rental_uris":{"android":"levelo://app?vid=7ec1910c-4073-4865-a75d-ceda3ffef3aa","ios":"levelo://app?vid=7ec1910c-4073-4865-a75d-ceda3ffef3aa"},"vehicle_type_id":"4","last_reported":1684400790,"current_range_meters":26000,"station_id":"ce4bgup2rcd13ifvqcn0","pricing_plan_id":"free"},{"bike_id":"c9f13d38-3b34-40ba-bd4c-cc41c5988aaa","system_id":"levelo_inurba_marseille","lat":43.304606,"lon":5.379026,"is_reserved":false,"is_disabled":false,"rental_uris":{"android":"levelo://app?vid=c9f13d38-3b34-40ba-bd4c-cc41c5988aaa","ios":"levelo://app?vid=c9f13d38-3b34-40ba-bd4c-cc41c5988aaa"},"vehicle_type_id":"4","last_reported":1684400790,"current_range_meters":31200,"station_id":"ce4bgup2rcd13ifvqcn0","pricing_plan_id":"free"},{"bike_id":"81d4222a-a396-49f6-a668-14f719a95c5d","system_id":"levelo_inurba_marseille","lat":43.304606,"lon":5.379026,"is_reserved":false,"is_disabled":false,"rental_uris":{"android":"levelo://app?vid=81d4222a-a396-49f6-a668-14f719a95c5d","ios":"levelo://app?vid=81d4222a-a396-49f6-a668-14f719a95c5d"},"vehicle_type_id":"4","last_reported":1684400790,"current_range_meters":29200,"station_id":"ce4bgup2rcd13ifvqcn0","pricing_plan_id":"free"},{"bike_id":"a94232a3-a410-42fd-8e26-58574b0248f7","system_id":"levelo_inurba_marseille","lat":43.304606,"lon":5.379026,"is_reserved":false,"is_disabled":false,"rental_uris":{"android":"levelo://app?vid=a94232a3-a410-42fd-8e26-58574b0248f7","ios":"levelo://app?vid=a94232a3-a410-42fd-8e26-58574b0248f7"},"vehicle_type_id":"4","last_reported":1684400790,"current_range_meters":31200,"station_id":"ce4bgup2rcd13ifvqcn0","pricing_plan_id":"free"},{"bike_id":"50d6bd2d-0ad7-4e0f-872a-663aeaffecfd","system_id":"levelo_inurba_marseille","lat":43.30456,"lon":5.37902,"is_reserved":false,"is_disabled":false,"rental_uris":{"android":"levelo://app?vid=50d6bd2d-0ad7-4e0f-872a-663aeaffecfd","ios":"levelo://app?vid=50d6bd2d-0ad7-4e0f-872a-663aeaffecfd"},"vehicle_type_id":"4","last_reported":1684400790,"current_range_meters":29200,"station_id":"ce4bgup2rcd13ifvqcn0","pricing_plan_id":"free"},{"bike_id":"52485ae7-1d29-4674-adc1-ad4164e541af","system_id":"levelo_inurba_marseille","lat":43.304606,"lon":5.379026,"is_reserved":false,"is_disabled":false,"rental_uris":{"android":"levelo://app?vid=52485ae7-1d29-4674-adc1-ad4164e541af","ios":"levelo://app?vid=52485ae7-1d29-4674-adc1-ad4164e541af"},"vehicle_type_id":"4","last_reported":1684400790,"current_range_meters":31200,"station_id":"ce4bgup2rcd13ifvqcn0","pricing_plan_id":"free"},{"bike_id":"cbafcf71-2178-4272-9a86-a7f359d319a6","system_id":"levelo_inurba_marseille","lat":43.304606,"lon":5.379026,"is_reserved":false,"is_disabled":false,"rental_uris":{"android":"levelo://app?vid=cbafcf71-2178-4272-9a86-a7f359d319a6","ios":"levelo://app?vid=cbafcf71-2178-4272-9a86-a7f359d319a6"},"vehicle_type_id":"4","last_reported":1684400790,"current_range_meters":22400,"station_id":"ce4bgup2rcd13ifvqcn0","pricing_plan_id":"free"},{"bike_id":"e0c23da5-e1e4-4016-8213-e8aca45219f7","system_id":"levelo_inurba_marseille","lat":43.304606,"lon":5.379026,"is_reserved":false,"is_disabled":false,"rental_uris":{"android":"levelo://app?vid=e0c23da5-e1e4-4016-8213-e8aca45219f7","ios":"levelo://app?vid=e0c23da5-e1e4-4016-8213-e8aca45219f7"},"vehicle_type_id":"4","last_reported":1684400790,"current_range_meters":29200,"station_id":"ce4bgup2rcd13ifvqcn0","pricing_plan_id":"free"},{"bike_id":"cc126aac-0289-4333-ba76-85c6a3ecc58d","system_id":"levelo_inurba_marseille","lat":43.319935,"lon":5.381699,"is_reserved":false,"is_disabled":false,"rental_uris":{"android":"levelo://app?vid=cc126aac-0289-4333-ba76-85c6a3ecc58d","ios":"levelo://app?vid=cc126aac-0289-4333-ba76-85c6a3ecc58d"},"vehicle_type_id":"4","last_reported":1684400790,"current_range_meters":9600,"station_id":"ce4bhr12rcd13ifvqhpg","pricing_plan_id":"free"},{"bike_id":"30571fcc-d16b-4f05-b1dc-b151f7111d04","system_id":"levelo_inurba_marseille","lat":43.319935,"lon":5.381699,"is_reserved":false,"is_disabled":false,"rental_uris":{"android":"levelo://app?vid=30571fcc-d16b-4f05-b1dc-b151f7111d04","ios":"levelo://app?vid=30571fcc-d16b-4f05-b1dc-b151f7111d04"},"vehicle_type_id":"4","last_reported":1684400790,"current_range_meters":10800,"station_id":"ce4bhr12rcd13ifvqhpg","pricing_plan_id":"free"},{"bike_id":"6a46482f-300e-42fd-9fed-542947b61750","system_id":"levelo_inurba_marseille","lat":43.319935,"lon":5.381699,"is_reserved":false,"is_disabled":false,"rental_uris":{"android":"levelo://app?vid=6a46482f-300e-42fd-9fed-542947b61750","ios":"levelo://app?vid=6a46482f-300e-42fd-9fed-542947b61750"},"vehicle_type_id":"4","last_reported":1684400790,"current_range_meters":23200,"station_id":"ce4bhr12rcd13ifvqhpg","pricing_plan_id":"free"},{"bike_id":"cdb2e06d-a13a-4371-b085-023f63f023c4","system_id":"levelo_inurba_marseille","lat":43.299222,"lon":5.365554,"is_reserved":false,"is_disabled":false,"rental_uris":{"android":"levelo://app?vid=cdb2e06d-a13a-4371-b085-023f63f023c4","ios":"levelo://app?vid=cdb2e06d-a13a-4371-b085-023f63f023c4"},"vehicle_type_id":"4","last_reported":1684400790,"current_range_meters":22000,"station_id":"ce4bgm92rcd13ifvqbr0","pricing_plan_id":"free"},{"bike_id":"0459df0d-42ed-43a1-a7bf-ffb662f24925","system_id":"levelo_inurba_marseille","lat":43.305364,"lon":5.384119,"is_reserved":false,"is_disabled":false,"rental_uris":{"android":"levelo://app?vid=0459df0d-42ed-43a1-a7bf-ffb662f24925","ios":"levelo://app?vid=0459df0d-42ed-43a1-a7bf-ffb662f24925"},"vehicle_type_id":"4","last_reported":1684400790,"current_range_meters":17200,"station_id":"ce4bgg92rcd13ifvqb30","pricing_plan_id":"free"},{"bike_id":"36ed063a-6d43-4e13-9592-02d7fe993b9d","system_id":"levelo_inurba_marseille","lat":43.298433,"lon":5.362774,"is_reserved":false,"is_disabled":false,"rental_uris":{"android":"levelo://app?vid=36ed063a-6d43-4e13-9592-02d7fe993b9d","ios":"levelo://app?vid=36ed063a-6d43-4e13-9592-02d7fe993b9d"},"vehicle_type_id":"4","last_reported":1684400790,"current_range_meters":13200,"station_id":"ce4bgpp2rcd13ifvqc3g","pricing_plan_id":"free"},{"bike_id":"06093df7-8e36-4c41-a963-c71fdf490bb7","system_id":"levelo_inurba_marseille","lat":43.298433,"lon":5.362774,"is_reserved":false,"is_disabled":false,"rental_uris":{"android":"levelo://app?vid=06093df7-8e36-4c41-a963-c71fdf490bb7","ios":"levelo://app?vid=06093df7-8e36-4c41-a963-c71fdf490bb7"},"vehicle_type_id":"4","last_reported":1684400790,"current_range_meters":27200,"station_id":"ce4bgpp2rcd13ifvqc3g","pricing_plan_id":"free"},{"bike_id":"e8550a69-1bf2-4445-b7a1-a1f50c7c2492","system_id":"levelo_inurba_marseille","lat":43.298433,"lon":5.362774,"is_reserved":false,"is_disabled":false,"rental_uris":{"android":"levelo://app?vid=e8550a69-1bf2-4445-b7a1-a1f50c7c2492","ios":"levelo://app?vid=e8550a69-1bf2-4445-b7a1-a1f50c7c2492"},"vehicle_type_id":"4","last_reported":1684400790,"current_range_meters":30400,"station_id":"ce4bgpp2rcd13ifvqc3g","pricing_plan_id":"free"},{"bike_id":"5da727e9-cdb7-487a-978c-cacaf7da986f","system_id":"levelo_inurba_marseille","lat":43.305364,"lon":5.384119,"is_reserved":false,"is_disabled":false,"rental_uris":{"android":"levelo://app?vid=5da727e9-cdb7-487a-978c-cacaf7da986f","ios":"levelo://app?vid=5da727e9-cdb7-487a-978c-cacaf7da986f"},"vehicle_type_id":"4","last_reported":1684400790,"current_range_meters":27200,"station_id":"ce4bgg92rcd13ifvqb30","pricing_plan_id":"free"},{"bike_id":"9c08eeaa-80eb-4cbd-89dd-03ea7ab88db8","system_id":"levelo_inurba_marseille","lat":43.298433,"lon":5.362774,"is_reserved":false,"is_disabled":false,"rental_uris":{"android":"levelo://app?vid=9c08eeaa-80eb-4cbd-89dd-03ea7ab88db8","ios":"levelo://app?vid=9c08eeaa-80eb-4cbd-89dd-03ea7ab88db8"},"vehicle_type_id":"4","last_reported":1684400790,"current_range_meters":21600,"station_id":"ce4bgpp2rcd13ifvqc3g","pricing_plan_id":"free"},{"bike_id":"9a6f1c9d-8f14-4665-b71d-c6b7be189822","system_id":"levelo_inurba_marseille","lat":43.298433,"lon":5.362774,"is_reserved":false,"is_disabled":false,"rental_uris":{"android":"levelo://app?vid=9a6f1c9d-8f14-4665-b71d-c6b7be189822","ios":"levelo://app?vid=9a6f1c9d-8f14-4665-b71d-c6b7be189822"},"vehicle_type_id":"4","last_reported":1684400790,"current_range_meters":26800,"station_id":"ce4bgpp2rcd13ifvqc3g","pricing_plan_id":"free"},{"bike_id":"014ebdc8-f0a1-4ba1-a179-e5b506ac1f88","system_id":"levelo_inurba_marseille","lat":43.298433,"lon":5.362774,"is_reserved":false,"is_disabled":false,"rental_uris":{"android":"levelo://app?vid=014ebdc8-f0a1-4ba1-a179-e5b506ac1f88","ios":"levelo://app?vid=014ebdc8-f0a1-4ba1-a179-e5b506ac1f88"},"vehicle_type_id":"4","last_reported":1684400790,"current_range_meters":29600,"station_id":"ce4bgpp2rcd13ifvqc3g","pricing_plan_id":"free"},{"bike_id":"054edfa0-a4a9-439f-8700-a5e0b8d9af46","system_id":"levelo_inurba_marseille","lat":43.298433,"lon":5.362774,"is_reserved":false,"is_disabled":false,"rental_uris":{"android":"levelo://app?vid=054edfa0-a4a9-439f-8700-a5e0b8d9af46","ios":"levelo://app?vid=054edfa0-a4a9-439f-8700-a5e0b8d9af46"},"vehicle_type_id":"4","last_reported":1684400790,"current_range_meters":31200,"station_id":"ce4bgpp2rcd13ifvqc3g","pricing_plan_id":"free"},{"bike_id":"c8b261f5-c2d4-4afc-a426-1aa9a1678e53","system_id":"levelo_inurba_marseille","lat":43.298433,"lon":5.362774,"is_reserved":false,"is_disabled":false,"rental_uris":{"android":"levelo://app?vid=c8b261f5-c2d4-4afc-a426-1aa9a1678e53","ios":"levelo://app?vid=c8b261f5-c2d4-4afc-a426-1aa9a1678e53"},"vehicle_type_id":"4","last_reported":1684400790,"current_range_meters":24000,"station_id":"ce4bgpp2rcd13ifvqc3g","pricing_plan_id":"free"},{"bike_id":"06169fac-8174-4374-93d2-2647cdf8ab90","system_id":"levelo_inurba_marseille","lat":43.298433,"lon":5.362774,"is_reserved":false,"is_disabled":false,"rental_uris":{"android":"levelo://app?vid=06169fac-8174-4374-93d2-2647cdf8ab90","ios":"levelo://app?vid=06169fac-8174-4374-93d2-2647cdf8ab90"},"vehicle_type_id":"4","last_reported":1684400790,"current_range_meters":22800,"station_id":"ce4bgpp2rcd13ifvqc3g","pricing_plan_id":"free"},{"bike_id":"5f48308e-b4ca-4f6d-99fa-6b25c298ffe5","system_id":"levelo_inurba_marseille","lat":43.297794,"lon":5.370888,"is_reserved":false,"is_disabled":false,"rental_uris":{"android":"levelo://app?vid=5f48308e-b4ca-4f6d-99fa-6b25c298ffe5","ios":"levelo://app?vid=5f48308e-b4ca-4f6d-99fa-6b25c298ffe5"},"vehicle_type_id":"4","last_reported":1684400790,"current_range_meters":30000,"station_id":"ce4bgop2rcd13ifvqc1g","pricing_plan_id":"free"},{"bike_id":"fccfd339-db22-4277-bdd0-196f87e474ac","system_id":"levelo_inurba_marseille","lat":43.32812,"lon":5.36675,"is_reserved":false,"is_disabled":false,"rental_uris":{"android":"levelo://app?vid=fccfd339-db22-4277-bdd0-196f87e474ac","ios":"levelo://app?vid=fccfd339-db22-4277-bdd0-196f87e474ac"},"vehicle_type_id":"4","last_reported":1684400790,"current_range_meters":13600,"station_id":"ce4bhs92rcd13ifvqi0g","pricing_plan_id":"free"},{"bike_id":"9d891959-73d6-4c5c-ad12-227228d64e9d","system_id":"levelo_inurba_marseille","lat":43.328371,"lon":5.366912,"is_reserved":false,"is_disabled":false,"rental_uris":{"android":"levelo://app?vid=9d891959-73d6-4c5c-ad12-227228d64e9d","ios":"levelo://app?vid=9d891959-73d6-4c5c-ad12-227228d64e9d"},"vehicle_type_id":"4","last_reported":1684400790,"current_range_meters":30000,"station_id":"ce4bhs92rcd13ifvqi0g","pricing_plan_id":"free"},{"bike_id":"71a7cd51-c98e-4b63-902f-c2f5a808a065","system_id":"levelo_inurba_marseille","lat":43.32823,"lon":5.36678,"is_reserved":false,"is_disabled":false,"rental_uris":{"android":"levelo://app?vid=71a7cd51-c98e-4b63-902f-c2f5a808a065","ios":"levelo://app?vid=71a7cd51-c98e-4b63-902f-c2f5a808a065"},"vehicle_type_id":"4","last_reported":1684400790,"current_range_meters":8400,"station_id":"ce4bhs92rcd13ifvqi0g","pricing_plan_id":"free"},{"bike_id":"411c53dc-8a67-493a-b123-b1e299cae53c","system_id":"levelo_inurba_marseille","lat":43.328371,"lon":5.366912,"is_reserved":false,"is_disabled":false,"rental_uris":{"android":"levelo://app?vid=411c53dc-8a67-493a-b123-b1e299cae53c","ios":"levelo://app?vid=411c53dc-8a67-493a-b123-b1e299cae53c"},"vehicle_type_id":"4","last_reported":1684400790,"current_range_meters":21200,"station_id":"ce4bhs92rcd13ifvqi0g","pricing_plan_id":"free"},{"bike_id":"3dfbf270-cc58-4cc7-8b0a-1d6f9e745a9b","system_id":"levelo_inurba_marseille","lat":43.32828,"lon":5.36692,"is_reserved":false,"is_disabled":false,"rental_uris":{"android":"levelo://app?vid=3dfbf270-cc58-4cc7-8b0a-1d6f9e745a9b","ios":"levelo://app?vid=3dfbf270-cc58-4cc7-8b0a-1d6f9e745a9b"},"vehicle_type_id":"4","last_reported":1684400790,"current_range_meters":11600,"station_id":"ce4bhs92rcd13ifvqi0g","pricing_plan_id":"free"},{"bike_id":"a7fb6a73-9ebf-4b56-938e-67995ffda768","system_id":"levelo_inurba_marseille","lat":43.32828,"lon":5.36686,"is_reserved":false,"is_disabled":false,"rental_uris":{"android":"levelo://app?vid=a7fb6a73-9ebf-4b56-938e-67995ffda768","ios":"levelo://app?vid=a7fb6a73-9ebf-4b56-938e-67995ffda768"},"vehicle_type_id":"4","last_reported":1684400790,"current_range_meters":16800,"station_id":"ce4bhs92rcd13ifvqi0g","pricing_plan_id":"free"},{"bike_id":"b7a4e082-92e4-4de1-841b-169813c8b8b1","system_id":"levelo_inurba_marseille","lat":43.32828,"lon":5.36678,"is_reserved":false,"is_disabled":false,"rental_uris":{"android":"levelo://app?vid=b7a4e082-92e4-4de1-841b-169813c8b8b1","ios":"levelo://app?vid=b7a4e082-92e4-4de1-841b-169813c8b8b1"},"vehicle_type_id":"4","last_reported":1684400790,"current_range_meters":11200,"station_id":"ce4bhs92rcd13ifvqi0g","pricing_plan_id":"free"},{"bike_id":"0fbcaf83-aedd-4d6f-92e5-5a889a0b7a04","system_id":"levelo_inurba_marseille","lat":43.32829,"lon":5.3668,"is_reserved":false,"is_disabled":false,"rental_uris":{"android":"levelo://app?vid=0fbcaf83-aedd-4d6f-92e5-5a889a0b7a04","ios":"levelo://app?vid=0fbcaf83-aedd-4d6f-92e5-5a889a0b7a04"},"vehicle_type_id":"4","last_reported":1684400790,"current_range_meters":3600,"station_id":"ce4bhs92rcd13ifvqi0g","pricing_plan_id":"free"},{"bike_id":"007905e1-2dbf-4a05-81e8-d677239bfaa7","system_id":"levelo_inurba_marseille","lat":43.3283,"lon":5.36687,"is_reserved":false,"is_disabled":false,"rental_uris":{"android":"levelo://app?vid=007905e1-2dbf-4a05-81e8-d677239bfaa7","ios":"levelo://app?vid=007905e1-2dbf-4a05-81e8-d677239bfaa7"},"vehicle_type_id":"4","last_reported":1684400790,"current_range_meters":6000,"station_id":"ce4bhs92rcd13ifvqi0g","pricing_plan_id":"free"},{"bike_id":"e7421adf-5ab1-4459-816d-e244431bbd14","system_id":"levelo_inurba_marseille","lat":43.3283,"lon":5.36682,"is_reserved":false,"is_disabled":false,"rental_uris":{"android":"levelo://app?vid=e7421adf-5ab1-4459-816d-e244431bbd14","ios":"levelo://app?vid=e7421adf-5ab1-4459-816d-e244431bbd14"},"vehicle_type_id":"4","last_reported":1684400790,"current_range_meters":8000,"station_id":"ce4bhs92rcd13ifvqi0g","pricing_plan_id":"free"},{"bike_id":"548efb9d-91f7-4f61-af0e-8e48476c6371","system_id":"levelo_inurba_marseille","lat":43.328371,"lon":5.366909,"is_reserved":false,"is_disabled":false,"rental_uris":{"android":"levelo://app?vid=548efb9d-91f7-4f61-af0e-8e48476c6371","ios":"levelo://app?vid=548efb9d-91f7-4f61-af0e-8e48476c6371"},"vehicle_type_id":"4","last_reported":1684400790,"current_range_meters":26400,"station_id":"ce4bhs92rcd13ifvqi0g","pricing_plan_id":"free"},{"bike_id":"85040fb9-cb76-4685-bebf-b2d5a56e2ff7","system_id":"levelo_inurba_marseille","lat":43.2968,"lon":5.37291,"is_reserved":false,"is_disabled":false,"rental_uris":{"android":"levelo://app?vid=85040fb9-cb76-4685-bebf-b2d5a56e2ff7","ios":"levelo://app?vid=85040fb9-cb76-4685-bebf-b2d5a56e2ff7"},"vehicle_type_id":"4","last_reported":1684400790,"current_range_meters":28400,"station_id":"ce4bgk12rcd13ifvqbj0","pricing_plan_id":"free"},{"bike_id":"f6af4a15-a823-4e75-b7f3-665cbd263db9","system_id":"levelo_inurba_marseille","lat":43.296131,"lon":5.370791,"is_reserved":false,"is_disabled":false,"rental_uris":{"android":"levelo://app?vid=f6af4a15-a823-4e75-b7f3-665cbd263db9","ios":"levelo://app?vid=f6af4a15-a823-4e75-b7f3-665cbd263db9"},"vehicle_type_id":"4","last_reported":1684400790,"current_range_meters":31200,"station_id":"ce4bgnh2rcd13ifvqc0g","pricing_plan_id":"free"},{"bike_id":"54b02b5f-93f5-4980-a7fb-3ea8662ce279","system_id":"levelo_inurba_marseille","lat":43.296131,"lon":5.370791,"is_reserved":false,"is_disabled":false,"rental_uris":{"android":"levelo://app?vid=54b02b5f-93f5-4980-a7fb-3ea8662ce279","ios":"levelo://app?vid=54b02b5f-93f5-4980-a7fb-3ea8662ce279"},"vehicle_type_id":"4","last_reported":1684400790,"current_range_meters":31600,"station_id":"ce4bgnh2rcd13ifvqc0g","pricing_plan_id":"free"},{"bike_id":"43b48ed4-b3c4-478d-93e6-b8b789f5eaa8","system_id":"levelo_inurba_marseille","lat":43.296129,"lon":5.370777,"is_reserved":false,"is_disabled":false,"rental_uris":{"android":"levelo://app?vid=43b48ed4-b3c4-478d-93e6-b8b789f5eaa8","ios":"levelo://app?vid=43b48ed4-b3c4-478d-93e6-b8b789f5eaa8"},"vehicle_type_id":"4","last_reported":1684400790,"current_range_meters":31200,"station_id":"ce4bgnh2rcd13ifvqc0g","pricing_plan_id":"free"},{"bike_id":"bab6b981-9989-48b4-9ee4-cd9fa28fd210","system_id":"levelo_inurba_marseille","lat":43.29573,"lon":5.367355,"is_reserved":false,"is_disabled":false,"rental_uris":{"android":"levelo://app?vid=bab6b981-9989-48b4-9ee4-cd9fa28fd210","ios":"levelo://app?vid=bab6b981-9989-48b4-9ee4-cd9fa28fd210"},"vehicle_type_id":"4","last_reported":1684400790,"current_range_meters":26800,"station_id":"ce4bgph2rcd13ifvqc2g","pricing_plan_id":"free"},{"bike_id":"cabe1c20-efba-4e5a-a2f6-a8368dc09af1","system_id":"levelo_inurba_marseille","lat":43.296131,"lon":5.370791,"is_reserved":false,"is_disabled":false,"rental_uris":{"android":"levelo://app?vid=cabe1c20-efba-4e5a-a2f6-a8368dc09af1","ios":"levelo://app?vid=cabe1c20-efba-4e5a-a2f6-a8368dc09af1"},"vehicle_type_id":"4","last_reported":1684400790,"current_range_meters":31200,"station_id":"ce4bgnh2rcd13ifvqc0g","pricing_plan_id":"free"},{"bike_id":"e9475d35-2861-4d06-b183-dc085c1c071e","system_id":"levelo_inurba_marseille","lat":43.29625,"lon":5.37153,"is_reserved":false,"is_disabled":false,"rental_uris":{"android":"levelo://app?vid=e9475d35-2861-4d06-b183-dc085c1c071e","ios":"levelo://app?vid=e9475d35-2861-4d06-b183-dc085c1c071e"},"vehicle_type_id":"4","last_reported":1684400790,"current_range_meters":31200,"station_id":"","pricing_plan_id":"free"},{"bike_id":"1ac57608-05de-4bc6-8a77-0eb3460fd607","system_id":"levelo_inurba_marseille","lat":43.29573,"lon":5.367355,"is_reserved":false,"is_disabled":false,"rental_uris":{"android":"levelo://app?vid=1ac57608-05de-4bc6-8a77-0eb3460fd607","ios":"levelo://app?vid=1ac57608-05de-4bc6-8a77-0eb3460fd607"},"vehicle_type_id":"4","last_reported":1684400790,"current_range_meters":11600,"station_id":"ce4bgph2rcd13ifvqc2g","pricing_plan_id":"free"},{"bike_id":"479ba563-831b-4403-a176-a96735f2beb7","system_id":"levelo_inurba_marseille","lat":43.296131,"lon":5.370791,"is_reserved":false,"is_disabled":false,"rental_uris":{"android":"levelo://app?vid=479ba563-831b-4403-a176-a96735f2beb7","ios":"levelo://app?vid=479ba563-831b-4403-a176-a96735f2beb7"},"vehicle_type_id":"4","last_reported":1684400790,"current_range_meters":26400,"station_id":"ce4bgnh2rcd13ifvqc0g","pricing_plan_id":"free"},{"bike_id":"0373fcf2-305e-4bb3-931e-eba0283276a4","system_id":"levelo_inurba_marseille","lat":43.296129,"lon":5.370777,"is_reserved":false,"is_disabled":false,"rental_uris":{"android":"levelo://app?vid=0373fcf2-305e-4bb3-931e-eba0283276a4","ios":"levelo://app?vid=0373fcf2-305e-4bb3-931e-eba0283276a4"},"vehicle_type_id":"4","last_reported":1684400790,"current_range_meters":24400,"station_id":"ce4bgnh2rcd13ifvqc0g","pricing_plan_id":"free"},{"bike_id":"00fe0203-ac1d-47b4-91ea-323b80285d13","system_id":"levelo_inurba_marseille","lat":43.296131,"lon":5.370791,"is_reserved":false,"is_disabled":false,"rental_uris":{"android":"levelo://app?vid=00fe0203-ac1d-47b4-91ea-323b80285d13","ios":"levelo://app?vid=00fe0203-ac1d-47b4-91ea-323b80285d13"},"vehicle_type_id":"4","last_reported":1684400790,"current_range_meters":26800,"station_id":"ce4bgnh2rcd13ifvqc0g","pricing_plan_id":"free"},{"bike_id":"73d0f15e-c26f-4da9-9d91-6e646f90f7d9","system_id":"levelo_inurba_marseille","lat":43.296129,"lon":5.370777,"is_reserved":false,"is_disabled":false,"rental_uris":{"android":"levelo://app?vid=73d0f15e-c26f-4da9-9d91-6e646f90f7d9","ios":"levelo://app?vid=73d0f15e-c26f-4da9-9d91-6e646f90f7d9"},"vehicle_type_id":"4","last_reported":1684400790,"current_range_meters":30000,"station_id":"ce4bgnh2rcd13ifvqc0g","pricing_plan_id":"free"},{"bike_id":"810f6799-1ad9-441d-a5f5-3dee52db5296","system_id":"levelo_inurba_marseille","lat":43.296129,"lon":5.370777,"is_reserved":false,"is_disabled":false,"rental_uris":{"android":"levelo://app?vid=810f6799-1ad9-441d-a5f5-3dee52db5296","ios":"levelo://app?vid=810f6799-1ad9-441d-a5f5-3dee52db5296"},"vehicle_type_id":"4","last_reported":1684400790,"current_range_meters":30400,"station_id":"ce4bgnh2rcd13ifvqc0g","pricing_plan_id":"free"},{"bike_id":"3db1a76d-8f3a-4edc-a2d3-f9a180332813","system_id":"levelo_inurba_marseille","lat":43.29573,"lon":5.367355,"is_reserved":false,"is_disabled":false,"rental_uris":{"android":"levelo://app?vid=3db1a76d-8f3a-4edc-a2d3-f9a180332813","ios":"levelo://app?vid=3db1a76d-8f3a-4edc-a2d3-f9a180332813"},"vehicle_type_id":"4","last_reported":1684400790,"current_range_meters":27200,"station_id":"ce4bgph2rcd13ifvqc2g","pricing_plan_id":"free"},{"bike_id":"c4a2439b-985b-4706-9f4b-164bbea313a8","system_id":"levelo_inurba_marseille","lat":43.29573,"lon":5.367355,"is_reserved":false,"is_disabled":false,"rental_uris":{"android":"levelo://app?vid=c4a2439b-985b-4706-9f4b-164bbea313a8","ios":"levelo://app?vid=c4a2439b-985b-4706-9f4b-164bbea313a8"},"vehicle_type_id":"4","last_reported":1684400790,"current_range_meters":19200,"station_id":"ce4bgph2rcd13ifvqc2g","pricing_plan_id":"free"},{"bike_id":"957f58fc-14bb-4b99-8f9c-c52a744f55da","system_id":"levelo_inurba_marseille","lat":43.31392,"lon":5.39011,"is_reserved":false,"is_disabled":false,"rental_uris":{"android":"levelo://app?vid=957f58fc-14bb-4b99-8f9c-c52a744f55da","ios":"levelo://app?vid=957f58fc-14bb-4b99-8f9c-c52a744f55da"},"vehicle_type_id":"4","last_reported":1684400790,"current_range_meters":13600,"station_id":"","pricing_plan_id":"free"},{"bike_id":"e4482859-92d7-4ae8-abc1-3a8e3c8241ed","system_id":"levelo_inurba_marseille","lat":43.29573,"lon":5.367355,"is_reserved":false,"is_disabled":false,"rental_uris":{"android":"levelo://app?vid=e4482859-92d7-4ae8-abc1-3a8e3c8241ed","ios":"levelo://app?vid=e4482859-92d7-4ae8-abc1-3a8e3c8241ed"},"vehicle_type_id":"4","last_reported":1684400790,"current_range_meters":27600,"station_id":"ce4bgph2rcd13ifvqc2g","pricing_plan_id":"free"},{"bike_id":"297e1eef-a824-4b58-ae56-4f2b057c8073","system_id":"levelo_inurba_marseille","lat":43.296935,"lon":5.376544,"is_reserved":false,"is_disabled":false,"rental_uris":{"android":"levelo://app?vid=297e1eef-a824-4b58-ae56-4f2b057c8073","ios":"levelo://app?vid=297e1eef-a824-4b58-ae56-4f2b057c8073"},"vehicle_type_id":"4","last_reported":1684400790,"current_range_meters":30000,"station_id":"ce4bgkh2rcd13ifvqbl0","pricing_plan_id":"free"},{"bike_id":"023be195-5f1d-4246-9895-41b6f8ca425b","system_id":"levelo_inurba_marseille","lat":43.29597,"lon":5.37182,"is_reserved":false,"is_disabled":false,"rental_uris":{"android":"levelo://app?vid=023be195-5f1d-4246-9895-41b6f8ca425b","ios":"levelo://app?vid=023be195-5f1d-4246-9895-41b6f8ca425b"},"vehicle_type_id":"4","last_reported":1684400790,"current_range_meters":31200,"station_id":"","pricing_plan_id":"free"},{"bike_id":"6f0024d4-21a1-4c0d-8f28-b0fae13e185d","system_id":"levelo_inurba_marseille","lat":43.296921,"lon":5.376579,"is_reserved":false,"is_disabled":false,"rental_uris":{"android":"levelo://app?vid=6f0024d4-21a1-4c0d-8f28-b0fae13e185d","ios":"levelo://app?vid=6f0024d4-21a1-4c0d-8f28-b0fae13e185d"},"vehicle_type_id":"4","last_reported":1684400790,"current_range_meters":31200,"station_id":"ce4bgkh2rcd13ifvqbl0","pricing_plan_id":"free"},{"bike_id":"15a4ef51-c24e-49ca-a4bb-1765533dfe45","system_id":"levelo_inurba_marseille","lat":43.309589,"lon":5.390258,"is_reserved":false,"is_disabled":false,"rental_uris":{"android":"levelo://app?vid=15a4ef51-c24e-49ca-a4bb-1765533dfe45","ios":"levelo://app?vid=15a4ef51-c24e-49ca-a4bb-1765533dfe45"},"vehicle_type_id":"4","last_reported":1684400790,"current_range_meters":27200,"station_id":"ce4bgup2rcd13ifvqco0","pricing_plan_id":"free"},{"bike_id":"1edf5cd2-8648-4fbd-aacf-6bb037f33611","system_id":"levelo_inurba_marseille","lat":43.317557,"lon":5.390173,"is_reserved":false,"is_disabled":false,"rental_uris":{"android":"levelo://app?vid=1edf5cd2-8648-4fbd-aacf-6bb037f33611","ios":"levelo://app?vid=1edf5cd2-8648-4fbd-aacf-6bb037f33611"},"vehicle_type_id":"4","last_reported":1684400790,"current_range_meters":31200,"station_id":"ce4bhqp2rcd13ifvqhng","pricing_plan_id":"free"},{"bike_id":"259d86cb-1dff-44bd-b6ae-63d22a59e568","system_id":"levelo_inurba_marseille","lat":43.317557,"lon":5.390173,"is_reserved":false,"is_disabled":false,"rental_uris":{"android":"levelo://app?vid=259d86cb-1dff-44bd-b6ae-63d22a59e568","ios":"levelo://app?vid=259d86cb-1dff-44bd-b6ae-63d22a59e568"},"vehicle_type_id":"4","last_reported":1684400790,"current_range_meters":31200,"station_id":"ce4bhqp2rcd13ifvqhng","pricing_plan_id":"free"},{"bike_id":"1e2c18be-1bb2-4627-8a75-150192acd526","system_id":"levelo_inurba_marseille","lat":43.317557,"lon":5.390173,"is_reserved":false,"is_disabled":false,"rental_uris":{"android":"levelo://app?vid=1e2c18be-1bb2-4627-8a75-150192acd526","ios":"levelo://app?vid=1e2c18be-1bb2-4627-8a75-150192acd526"},"vehicle_type_id":"4","last_reported":1684400790,"current_range_meters":28400,"station_id":"ce4bhqp2rcd13ifvqhng","pricing_plan_id":"free"},{"bike_id":"0aa0e329-644f-49e3-9a00-e6278d2d289e","system_id":"levelo_inurba_marseille","lat":43.295748,"lon":5.37522,"is_reserved":false,"is_disabled":false,"rental_uris":{"android":"levelo://app?vid=0aa0e329-644f-49e3-9a00-e6278d2d289e","ios":"levelo://app?vid=0aa0e329-644f-49e3-9a00-e6278d2d289e"},"vehicle_type_id":"4","last_reported":1684400790,"current_range_meters":10400,"station_id":"ce4bgh92rcd13ifvqb50","pricing_plan_id":"free"},{"bike_id":"44e9ca07-cb20-4aa2-8da3-457abd058c9e","system_id":"levelo_inurba_marseille","lat":43.295748,"lon":5.37522,"is_reserved":false,"is_disabled":false,"rental_uris":{"android":"levelo://app?vid=44e9ca07-cb20-4aa2-8da3-457abd058c9e","ios":"levelo://app?vid=44e9ca07-cb20-4aa2-8da3-457abd058c9e"},"vehicle_type_id":"4","last_reported":1684400790,"current_range_meters":31600,"station_id":"ce4bgh92rcd13ifvqb50","pricing_plan_id":"free"},{"bike_id":"d55b4c1c-d24f-4dd7-902e-e63488b1771c","system_id":"levelo_inurba_marseille","lat":43.298037,"lon":5.381066,"is_reserved":false,"is_disabled":false,"rental_uris":{"android":"levelo://app?vid=d55b4c1c-d24f-4dd7-902e-e63488b1771c","ios":"levelo://app?vid=d55b4c1c-d24f-4dd7-902e-e63488b1771c"},"vehicle_type_id":"4","last_reported":1684400790,"current_range_meters":21600,"station_id":"ce4bgip2rcd13ifvqbb0","pricing_plan_id":"free"},{"bike_id":"f34f9c58-fb43-4002-b3f6-e61ea3790722","system_id":"levelo_inurba_marseille","lat":43.304278,"lon":5.388868,"is_reserved":false,"is_disabled":false,"rental_uris":{"android":"levelo://app?vid=f34f9c58-fb43-4002-b3f6-e61ea3790722","ios":"levelo://app?vid=f34f9c58-fb43-4002-b3f6-e61ea3790722"},"vehicle_type_id":"4","last_reported":1684400790,"current_range_meters":24800,"station_id":"ce4bgk12rcd13ifvqbi0","pricing_plan_id":"free"},{"bike_id":"dca6f5eb-5167-4509-8036-f58decf3980d","system_id":"levelo_inurba_marseille","lat":43.29574,"lon":5.37503,"is_reserved":false,"is_disabled":false,"rental_uris":{"android":"levelo://app?vid=dca6f5eb-5167-4509-8036-f58decf3980d","ios":"levelo://app?vid=dca6f5eb-5167-4509-8036-f58decf3980d"},"vehicle_type_id":"4","last_reported":1684400790,"current_range_meters":31200,"station_id":"ce4bgh92rcd13ifvqb50","pricing_plan_id":"free"},{"bike_id":"476e5ea4-df51-4216-8b08-1bd283b0ce5c","system_id":"levelo_inurba_marseille","lat":43.295748,"lon":5.37522,"is_reserved":false,"is_disabled":false,"rental_uris":{"android":"levelo://app?vid=476e5ea4-df51-4216-8b08-1bd283b0ce5c","ios":"levelo://app?vid=476e5ea4-df51-4216-8b08-1bd283b0ce5c"},"vehicle_type_id":"4","last_reported":1684400790,"current_range_meters":21600,"station_id":"ce4bgh92rcd13ifvqb50","pricing_plan_id":"free"},{"bike_id":"6a662d9f-6b7e-47c5-8fd9-f1c974524d2b","system_id":"levelo_inurba_marseille","lat":43.295748,"lon":5.37522,"is_reserved":false,"is_disabled":false,"rental_uris":{"android":"levelo://app?vid=6a662d9f-6b7e-47c5-8fd9-f1c974524d2b","ios":"levelo://app?vid=6a662d9f-6b7e-47c5-8fd9-f1c974524d2b"},"vehicle_type_id":"4","last_reported":1684400790,"current_range_meters":23600,"station_id":"ce4bgh92rcd13ifvqb50","pricing_plan_id":"free"},{"bike_id":"0c4f33b1-0a69-4023-89a0-aae92e60cdf9","system_id":"levelo_inurba_marseille","lat":43.29789,"lon":5.38111,"is_reserved":false,"is_disabled":false,"rental_uris":{"android":"levelo://app?vid=0c4f33b1-0a69-4023-89a0-aae92e60cdf9","ios":"levelo://app?vid=0c4f33b1-0a69-4023-89a0-aae92e60cdf9"},"vehicle_type_id":"4","last_reported":1684400790,"current_range_meters":29200,"station_id":"ce4bgip2rcd13ifvqbb0","pricing_plan_id":"free"},{"bike_id":"e9e9d62a-39bb-46fb-bbf4-bab621d382b6","system_id":"levelo_inurba_marseille","lat":43.304274,"lon":5.388873,"is_reserved":false,"is_disabled":false,"rental_uris":{"android":"levelo://app?vid=e9e9d62a-39bb-46fb-bbf4-bab621d382b6","ios":"levelo://app?vid=e9e9d62a-39bb-46fb-bbf4-bab621d382b6"},"vehicle_type_id":"4","last_reported":1684400790,"current_range_meters":28400,"station_id":"ce4bgk12rcd13ifvqbi0","pricing_plan_id":"free"},{"bike_id":"8af7db5c-1368-468f-8af2-0e6167b15242","system_id":"levelo_inurba_marseille","lat":43.295279,"lon":5.375048,"is_reserved":false,"is_disabled":false,"rental_uris":{"android":"levelo://app?vid=8af7db5c-1368-468f-8af2-0e6167b15242","ios":"levelo://app?vid=8af7db5c-1368-468f-8af2-0e6167b15242"},"vehicle_type_id":"4","last_reported":1684400790,"current_range_meters":31200,"station_id":"ce4bgkp2rcd13ifvqbmg","pricing_plan_id":"free"},{"bike_id":"fff36a08-c5ad-46f0-95f1-8a016b10cc50","system_id":"levelo_inurba_marseille","lat":43.295279,"lon":5.375048,"is_reserved":false,"is_disabled":false,"rental_uris":{"android":"levelo://app?vid=fff36a08-c5ad-46f0-95f1-8a016b10cc50","ios":"levelo://app?vid=fff36a08-c5ad-46f0-95f1-8a016b10cc50"},"vehicle_type_id":"4","last_reported":1684400790,"current_range_meters":30800,"station_id":"ce4bgkp2rcd13ifvqbmg","pricing_plan_id":"free"},{"bike_id":"06ffdc0f-592f-4a62-b114-4a91e8760ab1","system_id":"levelo_inurba_marseille","lat":43.295279,"lon":5.375048,"is_reserved":false,"is_disabled":false,"rental_uris":{"android":"levelo://app?vid=06ffdc0f-592f-4a62-b114-4a91e8760ab1","ios":"levelo://app?vid=06ffdc0f-592f-4a62-b114-4a91e8760ab1"},"vehicle_type_id":"4","last_reported":1684400790,"current_range_meters":31200,"station_id":"ce4bgkp2rcd13ifvqbmg","pricing_plan_id":"free"},{"bike_id":"9703d848-3450-4634-ae86-96f573ef0c0f","system_id":"levelo_inurba_marseille","lat":43.295279,"lon":5.375048,"is_reserved":false,"is_disabled":false,"rental_uris":{"android":"levelo://app?vid=9703d848-3450-4634-ae86-96f573ef0c0f","ios":"levelo://app?vid=9703d848-3450-4634-ae86-96f573ef0c0f"},"vehicle_type_id":"4","last_reported":1684400790,"current_range_meters":30000,"station_id":"ce4bgkp2rcd13ifvqbmg","pricing_plan_id":"free"},{"bike_id":"d6fc8a48-0a2d-463c-b5e3-8f41461a0414","system_id":"levelo_inurba_marseille","lat":43.299707,"lon":5.384859,"is_reserved":false,"is_disabled":false,"rental_uris":{"android":"levelo://app?vid=d6fc8a48-0a2d-463c-b5e3-8f41461a0414","ios":"levelo://app?vid=d6fc8a48-0a2d-463c-b5e3-8f41461a0414"},"vehicle_type_id":"4","last_reported":1684400790,"current_range_meters":23600,"station_id":"ce4bgj92rcd13ifvqbd0","pricing_plan_id":"free"},{"bike_id":"eabd8c6a-c31a-466d-b57f-3c87d97f5ea1","system_id":"levelo_inurba_marseille","lat":43.299724,"lon":5.384848,"is_reserved":false,"is_disabled":false,"rental_uris":{"android":"levelo://app?vid=eabd8c6a-c31a-466d-b57f-3c87d97f5ea1","ios":"levelo://app?vid=eabd8c6a-c31a-466d-b57f-3c87d97f5ea1"},"vehicle_type_id":"4","last_reported":1684400790,"current_range_meters":26800,"station_id":"ce4bgj92rcd13ifvqbd0","pricing_plan_id":"free"},{"bike_id":"fa1e722e-58f4-42f7-a3df-73074da1a5e2","system_id":"levelo_inurba_marseille","lat":43.295279,"lon":5.375048,"is_reserved":false,"is_disabled":false,"rental_uris":{"android":"levelo://app?vid=fa1e722e-58f4-42f7-a3df-73074da1a5e2","ios":"levelo://app?vid=fa1e722e-58f4-42f7-a3df-73074da1a5e2"},"vehicle_type_id":"4","last_reported":1684400790,"current_range_meters":31200,"station_id":"ce4bgkp2rcd13ifvqbmg","pricing_plan_id":"free"},{"bike_id":"149eac1e-cf94-4222-839a-d00a16a75a9b","system_id":"levelo_inurba_marseille","lat":43.295279,"lon":5.375048,"is_reserved":false,"is_disabled":false,"rental_uris":{"android":"levelo://app?vid=149eac1e-cf94-4222-839a-d00a16a75a9b","ios":"levelo://app?vid=149eac1e-cf94-4222-839a-d00a16a75a9b"},"vehicle_type_id":"4","last_reported":1684400790,"current_range_meters":30000,"station_id":"ce4bgkp2rcd13ifvqbmg","pricing_plan_id":"free"},{"bike_id":"14e7f9b4-3c4f-40f2-a79b-81f6becceeae","system_id":"levelo_inurba_marseille","lat":43.295279,"lon":5.375048,"is_reserved":false,"is_disabled":false,"rental_uris":{"android":"levelo://app?vid=14e7f9b4-3c4f-40f2-a79b-81f6becceeae","ios":"levelo://app?vid=14e7f9b4-3c4f-40f2-a79b-81f6becceeae"},"vehicle_type_id":"4","last_reported":1684400790,"current_range_meters":23200,"station_id":"ce4bgkp2rcd13ifvqbmg","pricing_plan_id":"free"},{"bike_id":"5f4bb31c-c1c4-45b4-bd2a-fffd4b280434","system_id":"levelo_inurba_marseille","lat":43.309589,"lon":5.390258,"is_reserved":false,"is_disabled":false,"rental_uris":{"android":"levelo://app?vid=5f4bb31c-c1c4-45b4-bd2a-fffd4b280434","ios":"levelo://app?vid=5f4bb31c-c1c4-45b4-bd2a-fffd4b280434"},"vehicle_type_id":"4","last_reported":1684400790,"current_range_meters":16800,"station_id":"ce4bgup2rcd13ifvqco0","pricing_plan_id":"free"},{"bike_id":"0a829054-f413-4a7b-8024-eadbe9ea7a5a","system_id":"levelo_inurba_marseille","lat":43.32696,"lon":5.38414,"is_reserved":false,"is_disabled":false,"rental_uris":{"android":"levelo://app?vid=0a829054-f413-4a7b-8024-eadbe9ea7a5a","ios":"levelo://app?vid=0a829054-f413-4a7b-8024-eadbe9ea7a5a"},"vehicle_type_id":"4","last_reported":1684400790,"current_range_meters":13200,"station_id":"","pricing_plan_id":"free"},{"bike_id":"60b8d965-fa52-4b20-b193-f4afc2907154","system_id":"levelo_inurba_marseille","lat":43.32364,"lon":5.38876,"is_reserved":false,"is_disabled":false,"rental_uris":{"android":"levelo://app?vid=60b8d965-fa52-4b20-b193-f4afc2907154","ios":"levelo://app?vid=60b8d965-fa52-4b20-b193-f4afc2907154"},"vehicle_type_id":"4","last_reported":1684400790,"current_range_meters":0,"station_id":"","pricing_plan_id":"free"},{"bike_id":"ba0be208-22d1-4959-9d2a-ba4929809f6f","system_id":"levelo_inurba_marseille","lat":43.32368,"lon":5.38877,"is_reserved":false,"is_disabled":false,"rental_uris":{"android":"levelo://app?vid=ba0be208-22d1-4959-9d2a-ba4929809f6f","ios":"levelo://app?vid=ba0be208-22d1-4959-9d2a-ba4929809f6f"},"vehicle_type_id":"4","last_reported":1684400790,"current_range_meters":18400,"station_id":"","pricing_plan_id":"free"},{"bike_id":"92247963-69d3-47d4-a7ed-1573307992da","system_id":"levelo_inurba_marseille","lat":43.32369,"lon":5.38879,"is_reserved":false,"is_disabled":false,"rental_uris":{"android":"levelo://app?vid=92247963-69d3-47d4-a7ed-1573307992da","ios":"levelo://app?vid=92247963-69d3-47d4-a7ed-1573307992da"},"vehicle_type_id":"4","last_reported":1684400790,"current_range_meters":21600,"station_id":"","pricing_plan_id":"free"},{"bike_id":"e267f340-98f6-4e1c-9dff-034ba5864fb0","system_id":"levelo_inurba_marseille","lat":43.32368,"lon":5.38882,"is_reserved":false,"is_disabled":false,"rental_uris":{"android":"levelo://app?vid=e267f340-98f6-4e1c-9dff-034ba5864fb0","ios":"levelo://app?vid=e267f340-98f6-4e1c-9dff-034ba5864fb0"},"vehicle_type_id":"4","last_reported":1684400790,"current_range_meters":18400,"station_id":"","pricing_plan_id":"free"},{"bike_id":"9f93f2ed-0a03-4299-8e4a-af4fb439f8e3","system_id":"levelo_inurba_marseille","lat":43.32372,"lon":5.38879,"is_reserved":false,"is_disabled":false,"rental_uris":{"android":"levelo://app?vid=9f93f2ed-0a03-4299-8e4a-af4fb439f8e3","ios":"levelo://app?vid=9f93f2ed-0a03-4299-8e4a-af4fb439f8e3"},"vehicle_type_id":"4","last_reported":1684400790,"current_range_meters":5600,"station_id":"","pricing_plan_id":"free"},{"bike_id":"e1a903f0-67c7-4878-a897-46168f7d8a4b","system_id":"levelo_inurba_marseille","lat":43.3237,"lon":5.38882,"is_reserved":false,"is_disabled":false,"rental_uris":{"android":"levelo://app?vid=e1a903f0-67c7-4878-a897-46168f7d8a4b","ios":"levelo://app?vid=e1a903f0-67c7-4878-a897-46168f7d8a4b"},"vehicle_type_id":"4","last_reported":1684400790,"current_range_meters":11600,"station_id":"","pricing_plan_id":"free"},{"bike_id":"72bc1f58-74ea-4c5a-9e9b-71dca2c4e33d","system_id":"levelo_inurba_marseille","lat":43.32366,"lon":5.38888,"is_reserved":false,"is_disabled":false,"rental_uris":{"android":"levelo://app?vid=72bc1f58-74ea-4c5a-9e9b-71dca2c4e33d","ios":"levelo://app?vid=72bc1f58-74ea-4c5a-9e9b-71dca2c4e33d"},"vehicle_type_id":"4","last_reported":1684400790,"current_range_meters":4400,"station_id":"","pricing_plan_id":"free"},{"bike_id":"45654965-8317-44dd-9f25-dd6c4c4a673a","system_id":"levelo_inurba_marseille","lat":43.32375,"lon":5.38891,"is_reserved":false,"is_disabled":false,"rental_uris":{"android":"levelo://app?vid=45654965-8317-44dd-9f25-dd6c4c4a673a","ios":"levelo://app?vid=45654965-8317-44dd-9f25-dd6c4c4a673a"},"vehicle_type_id":"4","last_reported":1684400790,"current_range_meters":26800,"station_id":"","pricing_plan_id":"free"},{"bike_id":"f483bc52-8943-40b8-86ff-bfd3d6cc9ede","system_id":"levelo_inurba_marseille","lat":43.29601,"lon":5.381084,"is_reserved":false,"is_disabled":false,"rental_uris":{"android":"levelo://app?vid=f483bc52-8943-40b8-86ff-bfd3d6cc9ede","ios":"levelo://app?vid=f483bc52-8943-40b8-86ff-bfd3d6cc9ede"},"vehicle_type_id":"4","last_reported":1684400790,"current_range_meters":30800,"station_id":"ce4bgl12rcd13ifvqbo0","pricing_plan_id":"free"},{"bike_id":"c0e8305b-91d2-42c9-9869-e4b6d7cda064","system_id":"levelo_inurba_marseille","lat":43.29602,"lon":5.381084,"is_reserved":false,"is_disabled":false,"rental_uris":{"android":"levelo://app?vid=c0e8305b-91d2-42c9-9869-e4b6d7cda064","ios":"levelo://app?vid=c0e8305b-91d2-42c9-9869-e4b6d7cda064"},"vehicle_type_id":"4","last_reported":1684400790,"current_range_meters":28000,"station_id":"ce4bgl12rcd13ifvqbo0","pricing_plan_id":"free"},{"bike_id":"ba018d9b-a372-48f2-9106-b8e9b3ba91b4","system_id":"levelo_inurba_marseille","lat":43.29602,"lon":5.381084,"is_reserved":false,"is_disabled":false,"rental_uris":{"android":"levelo://app?vid=ba018d9b-a372-48f2-9106-b8e9b3ba91b4","ios":"levelo://app?vid=ba018d9b-a372-48f2-9106-b8e9b3ba91b4"},"vehicle_type_id":"4","last_reported":1684400790,"current_range_meters":28400,"station_id":"ce4bgl12rcd13ifvqbo0","pricing_plan_id":"free"},{"bike_id":"0aa77fc5-338b-433a-8030-c3a49877c837","system_id":"levelo_inurba_marseille","lat":43.2936,"lon":5.37835,"is_reserved":false,"is_disabled":false,"rental_uris":{"android":"levelo://app?vid=0aa77fc5-338b-433a-8030-c3a49877c837","ios":"levelo://app?vid=0aa77fc5-338b-433a-8030-c3a49877c837"},"vehicle_type_id":"4","last_reported":1684400790,"current_range_meters":28400,"station_id":"ce4bgjh2rcd13ifvqbf0","pricing_plan_id":"free"},{"bike_id":"66595aff-c1bb-42c1-8f84-018879e17c46","system_id":"levelo_inurba_marseille","lat":43.298764,"lon":5.388973,"is_reserved":false,"is_disabled":false,"rental_uris":{"android":"levelo://app?vid=66595aff-c1bb-42c1-8f84-018879e17c46","ios":"levelo://app?vid=66595aff-c1bb-42c1-8f84-018879e17c46"},"vehicle_type_id":"4","last_reported":1684400790,"current_range_meters":22000,"station_id":"ce4bh392rcd13ifvqdl0","pricing_plan_id":"free"},{"bike_id":"15698f56-6eab-4a57-b135-8d4b3ba58d18","system_id":"levelo_inurba_marseille","lat":43.291675,"lon":5.371583,"is_reserved":false,"is_disabled":false,"rental_uris":{"android":"levelo://app?vid=15698f56-6eab-4a57-b135-8d4b3ba58d18","ios":"levelo://app?vid=15698f56-6eab-4a57-b135-8d4b3ba58d18"},"vehicle_type_id":"4","last_reported":1684400790,"current_range_meters":27200,"station_id":"ce4bha92rcd13ifvqeh0","pricing_plan_id":"free"},{"bike_id":"66ef0673-ddc2-477a-8528-3e75478a685d","system_id":"levelo_inurba_marseille","lat":43.309038,"lon":5.396546,"is_reserved":false,"is_disabled":false,"rental_uris":{"android":"levelo://app?vid=66ef0673-ddc2-477a-8528-3e75478a685d","ios":"levelo://app?vid=66ef0673-ddc2-477a-8528-3e75478a685d"},"vehicle_type_id":"4","last_reported":1684400790,"current_range_meters":31200,"station_id":"ce4bh012rcd13ifvqcv0","pricing_plan_id":"free"},{"bike_id":"ae1e2655-33d9-4ac2-aed0-a43277a2828a","system_id":"levelo_inurba_marseille","lat":43.309038,"lon":5.396546,"is_reserved":false,"is_disabled":false,"rental_uris":{"android":"levelo://app?vid=ae1e2655-33d9-4ac2-aed0-a43277a2828a","ios":"levelo://app?vid=ae1e2655-33d9-4ac2-aed0-a43277a2828a"},"vehicle_type_id":"4","last_reported":1684400790,"current_range_meters":31200,"station_id":"ce4bh012rcd13ifvqcv0","pricing_plan_id":"free"},{"bike_id":"b6f55b41-67a5-44c6-8094-cc73ba5dad7a","system_id":"levelo_inurba_marseille","lat":43.309038,"lon":5.396546,"is_reserved":false,"is_disabled":false,"rental_uris":{"android":"levelo://app?vid=b6f55b41-67a5-44c6-8094-cc73ba5dad7a","ios":"levelo://app?vid=b6f55b41-67a5-44c6-8094-cc73ba5dad7a"},"vehicle_type_id":"4","last_reported":1684400790,"current_range_meters":24400,"station_id":"ce4bh012rcd13ifvqcv0","pricing_plan_id":"free"},{"bike_id":"b66dbacb-1b96-410b-b125-40af88c050e3","system_id":"levelo_inurba_marseille","lat":43.309038,"lon":5.396546,"is_reserved":false,"is_disabled":false,"rental_uris":{"android":"levelo://app?vid=b66dbacb-1b96-410b-b125-40af88c050e3","ios":"levelo://app?vid=b66dbacb-1b96-410b-b125-40af88c050e3"},"vehicle_type_id":"4","last_reported":1684400790,"current_range_meters":29200,"station_id":"ce4bh012rcd13ifvqcv0","pricing_plan_id":"free"},{"bike_id":"da203ec8-0370-412d-aa20-162fc9ce4b50","system_id":"levelo_inurba_marseille","lat":43.309038,"lon":5.396546,"is_reserved":false,"is_disabled":false,"rental_uris":{"android":"levelo://app?vid=da203ec8-0370-412d-aa20-162fc9ce4b50","ios":"levelo://app?vid=da203ec8-0370-412d-aa20-162fc9ce4b50"},"vehicle_type_id":"4","last_reported":1684400790,"current_range_meters":31200,"station_id":"ce4bh012rcd13ifvqcv0","pricing_plan_id":"free"},{"bike_id":"80029372-3ee0-4fa6-a177-4c5f73ef76a6","system_id":"levelo_inurba_marseille","lat":43.309038,"lon":5.396546,"is_reserved":false,"is_disabled":false,"rental_uris":{"android":"levelo://app?vid=80029372-3ee0-4fa6-a177-4c5f73ef76a6","ios":"levelo://app?vid=80029372-3ee0-4fa6-a177-4c5f73ef76a6"},"vehicle_type_id":"4","last_reported":1684400790,"current_range_meters":30800,"station_id":"ce4bh012rcd13ifvqcv0","pricing_plan_id":"free"},{"bike_id":"18eca9d8-665e-4531-bb0c-c3d0bf569d59","system_id":"levelo_inurba_marseille","lat":43.309038,"lon":5.396546,"is_reserved":false,"is_disabled":false,"rental_uris":{"android":"levelo://app?vid=18eca9d8-665e-4531-bb0c-c3d0bf569d59","ios":"levelo://app?vid=18eca9d8-665e-4531-bb0c-c3d0bf569d59"},"vehicle_type_id":"4","last_reported":1684400790,"current_range_meters":22800,"station_id":"ce4bh012rcd13ifvqcv0","pricing_plan_id":"free"},{"bike_id":"69bfd8cf-0996-46bf-9fff-010e90fe0c72","system_id":"levelo_inurba_marseille","lat":43.3133,"lon":5.39694,"is_reserved":false,"is_disabled":false,"rental_uris":{"android":"levelo://app?vid=69bfd8cf-0996-46bf-9fff-010e90fe0c72","ios":"levelo://app?vid=69bfd8cf-0996-46bf-9fff-010e90fe0c72"},"vehicle_type_id":"4","last_reported":1684400790,"current_range_meters":24000,"station_id":"ce4bgvp2rcd13ifvqcu0","pricing_plan_id":"free"},{"bike_id":"62dea5db-77a2-4e4f-a2a8-b4034eb13eca","system_id":"levelo_inurba_marseille","lat":43.313291,"lon":5.396838,"is_reserved":false,"is_disabled":false,"rental_uris":{"android":"levelo://app?vid=62dea5db-77a2-4e4f-a2a8-b4034eb13eca","ios":"levelo://app?vid=62dea5db-77a2-4e4f-a2a8-b4034eb13eca"},"vehicle_type_id":"4","last_reported":1684400790,"current_range_meters":23600,"station_id":"ce4bgvp2rcd13ifvqcu0","pricing_plan_id":"free"},{"bike_id":"35295661-ee04-4cfb-b4e8-f92697b4294d","system_id":"levelo_inurba_marseille","lat":43.31338,"lon":5.39696,"is_reserved":false,"is_disabled":false,"rental_uris":{"android":"levelo://app?vid=35295661-ee04-4cfb-b4e8-f92697b4294d","ios":"levelo://app?vid=35295661-ee04-4cfb-b4e8-f92697b4294d"},"vehicle_type_id":"4","last_reported":1684400790,"current_range_meters":30000,"station_id":"ce4bgvp2rcd13ifvqcu0","pricing_plan_id":"free"},{"bike_id":"088ed05a-2798-41af-9855-afbfd988fbd9","system_id":"levelo_inurba_marseille","lat":43.313291,"lon":5.396838,"is_reserved":false,"is_disabled":false,"rental_uris":{"android":"levelo://app?vid=088ed05a-2798-41af-9855-afbfd988fbd9","ios":"levelo://app?vid=088ed05a-2798-41af-9855-afbfd988fbd9"},"vehicle_type_id":"4","last_reported":1684400790,"current_range_meters":13200,"station_id":"ce4bgvp2rcd13ifvqcu0","pricing_plan_id":"free"},{"bike_id":"f4fac872-bde8-41c4-9f27-c0632c18bc32","system_id":"levelo_inurba_marseille","lat":43.313291,"lon":5.396838,"is_reserved":false,"is_disabled":false,"rental_uris":{"android":"levelo://app?vid=f4fac872-bde8-41c4-9f27-c0632c18bc32","ios":"levelo://app?vid=f4fac872-bde8-41c4-9f27-c0632c18bc32"},"vehicle_type_id":"4","last_reported":1684400790,"current_range_meters":28400,"station_id":"ce4bgvp2rcd13ifvqcu0","pricing_plan_id":"free"},{"bike_id":"e90f38b4-2322-4dcc-a4a1-151e668b0704","system_id":"levelo_inurba_marseille","lat":43.313291,"lon":5.396838,"is_reserved":false,"is_disabled":false,"rental_uris":{"android":"levelo://app?vid=e90f38b4-2322-4dcc-a4a1-151e668b0704","ios":"levelo://app?vid=e90f38b4-2322-4dcc-a4a1-151e668b0704"},"vehicle_type_id":"4","last_reported":1684400790,"current_range_meters":30800,"station_id":"ce4bgvp2rcd13ifvqcu0","pricing_plan_id":"free"},{"bike_id":"021ce307-0641-445e-bd47-65a0cf67c91c","system_id":"levelo_inurba_marseille","lat":43.309038,"lon":5.396546,"is_reserved":false,"is_disabled":false,"rental_uris":{"android":"levelo://app?vid=021ce307-0641-445e-bd47-65a0cf67c91c","ios":"levelo://app?vid=021ce307-0641-445e-bd47-65a0cf67c91c"},"vehicle_type_id":"4","last_reported":1684400790,"current_range_meters":21600,"station_id":"ce4bh012rcd13ifvqcv0","pricing_plan_id":"free"},{"bike_id":"10be9a9b-44d6-4ef4-9181-2fe1718f28b3","system_id":"levelo_inurba_marseille","lat":43.313291,"lon":5.396838,"is_reserved":false,"is_disabled":false,"rental_uris":{"android":"levelo://app?vid=10be9a9b-44d6-4ef4-9181-2fe1718f28b3","ios":"levelo://app?vid=10be9a9b-44d6-4ef4-9181-2fe1718f28b3"},"vehicle_type_id":"4","last_reported":1684400790,"current_range_meters":16000,"station_id":"ce4bgvp2rcd13ifvqcu0","pricing_plan_id":"free"},{"bike_id":"a6dcbe86-c2c8-4833-868e-ae7eba8c5633","system_id":"levelo_inurba_marseille","lat":43.29529,"lon":5.385581,"is_reserved":false,"is_disabled":false,"rental_uris":{"android":"levelo://app?vid=a6dcbe86-c2c8-4833-868e-ae7eba8c5633","ios":"levelo://app?vid=a6dcbe86-c2c8-4833-868e-ae7eba8c5633"},"vehicle_type_id":"4","last_reported":1684400790,"current_range_meters":9600,"station_id":"ce4bgih2rcd13ifvqba0","pricing_plan_id":"free"},{"bike_id":"2c2dea5d-3833-44e3-8f59-e92b03128189","system_id":"levelo_inurba_marseille","lat":43.290327,"lon":5.375711,"is_reserved":false,"is_disabled":false,"rental_uris":{"android":"levelo://app?vid=2c2dea5d-3833-44e3-8f59-e92b03128189","ios":"levelo://app?vid=2c2dea5d-3833-44e3-8f59-e92b03128189"},"vehicle_type_id":"4","last_reported":1684400790,"current_range_meters":20000,"station_id":"ce4bh692rcd13ifvqe90","pricing_plan_id":"free"},{"bike_id":"e28114f3-3117-42ca-9816-3f896712f8c7","system_id":"levelo_inurba_marseille","lat":43.294162,"lon":5.386292,"is_reserved":false,"is_disabled":false,"rental_uris":{"android":"levelo://app?vid=e28114f3-3117-42ca-9816-3f896712f8c7","ios":"levelo://app?vid=e28114f3-3117-42ca-9816-3f896712f8c7"},"vehicle_type_id":"4","last_reported":1684400790,"current_range_meters":16800,"station_id":"ce4bh2h2rcd13ifvqdh0","pricing_plan_id":"free"},{"bike_id":"a70eb74f-2267-4790-bc97-fe18af4ffb5a","system_id":"levelo_inurba_marseille","lat":43.304274,"lon":5.397513,"is_reserved":false,"is_disabled":false,"rental_uris":{"android":"levelo://app?vid=a70eb74f-2267-4790-bc97-fe18af4ffb5a","ios":"levelo://app?vid=a70eb74f-2267-4790-bc97-fe18af4ffb5a"},"vehicle_type_id":"4","last_reported":1684400790,"current_range_meters":20400,"station_id":"ce4bh092rcd13ifvqd20","pricing_plan_id":"free"},{"bike_id":"f99e8222-685c-420c-b6cf-5521cfb30e31","system_id":"levelo_inurba_marseille","lat":43.304296,"lon":5.397513,"is_reserved":false,"is_disabled":false,"rental_uris":{"android":"levelo://app?vid=f99e8222-685c-420c-b6cf-5521cfb30e31","ios":"levelo://app?vid=f99e8222-685c-420c-b6cf-5521cfb30e31"},"vehicle_type_id":"4","last_reported":1684400790,"current_range_meters":30400,"station_id":"ce4bh092rcd13ifvqd20","pricing_plan_id":"free"},{"bike_id":"c3d1388e-3324-4ee0-a8b9-51be80d2e218","system_id":"levelo_inurba_marseille","lat":43.292644,"lon":5.384257,"is_reserved":false,"is_disabled":false,"rental_uris":{"android":"levelo://app?vid=c3d1388e-3324-4ee0-a8b9-51be80d2e218","ios":"levelo://app?vid=c3d1388e-3324-4ee0-a8b9-51be80d2e218"},"vehicle_type_id":"4","last_reported":1684400790,"current_range_meters":25200,"station_id":"ce4bh692rcd13ifvqea0","pricing_plan_id":"free"},{"bike_id":"de139b1b-b5e2-4a15-a10b-787dc0358ec6","system_id":"levelo_inurba_marseille","lat":43.292644,"lon":5.384257,"is_reserved":false,"is_disabled":false,"rental_uris":{"android":"levelo://app?vid=de139b1b-b5e2-4a15-a10b-787dc0358ec6","ios":"levelo://app?vid=de139b1b-b5e2-4a15-a10b-787dc0358ec6"},"vehicle_type_id":"4","last_reported":1684400790,"current_range_meters":31200,"station_id":"ce4bh692rcd13ifvqea0","pricing_plan_id":"free"},{"bike_id":"7f0c878c-140e-4e57-8275-1a83a6001e16","system_id":"levelo_inurba_marseille","lat":43.292642,"lon":5.384254,"is_reserved":false,"is_disabled":false,"rental_uris":{"android":"levelo://app?vid=7f0c878c-140e-4e57-8275-1a83a6001e16","ios":"levelo://app?vid=7f0c878c-140e-4e57-8275-1a83a6001e16"},"vehicle_type_id":"4","last_reported":1684400790,"current_range_meters":28400,"station_id":"ce4bh692rcd13ifvqea0","pricing_plan_id":"free"},{"bike_id":"9dc67b5d-f2cf-4547-ad1b-1245387e69f6","system_id":"levelo_inurba_marseille","lat":43.292644,"lon":5.384257,"is_reserved":false,"is_disabled":false,"rental_uris":{"android":"levelo://app?vid=9dc67b5d-f2cf-4547-ad1b-1245387e69f6","ios":"levelo://app?vid=9dc67b5d-f2cf-4547-ad1b-1245387e69f6"},"vehicle_type_id":"4","last_reported":1684400790,"current_range_meters":30800,"station_id":"ce4bh692rcd13ifvqea0","pricing_plan_id":"free"},{"bike_id":"6786d553-8428-47ad-9558-6b0611d802d6","system_id":"levelo_inurba_marseille","lat":43.292642,"lon":5.384254,"is_reserved":false,"is_disabled":false,"rental_uris":{"android":"levelo://app?vid=6786d553-8428-47ad-9558-6b0611d802d6","ios":"levelo://app?vid=6786d553-8428-47ad-9558-6b0611d802d6"},"vehicle_type_id":"4","last_reported":1684400790,"current_range_meters":29600,"station_id":"ce4bh692rcd13ifvqea0","pricing_plan_id":"free"},{"bike_id":"d86888c8-57b7-425e-b800-01d4e58cbf5b","system_id":"levelo_inurba_marseille","lat":43.33039,"lon":5.38917,"is_reserved":false,"is_disabled":false,"rental_uris":{"android":"levelo://app?vid=d86888c8-57b7-425e-b800-01d4e58cbf5b","ios":"levelo://app?vid=d86888c8-57b7-425e-b800-01d4e58cbf5b"},"vehicle_type_id":"4","last_reported":1684400790,"current_range_meters":20800,"station_id":"ce4bhr92rcd13ifvqhrg","pricing_plan_id":"free"},{"bike_id":"6793e188-0a59-41ed-ad3e-4c50d6148415","system_id":"levelo_inurba_marseille","lat":43.33043,"lon":5.38913,"is_reserved":false,"is_disabled":false,"rental_uris":{"android":"levelo://app?vid=6793e188-0a59-41ed-ad3e-4c50d6148415","ios":"levelo://app?vid=6793e188-0a59-41ed-ad3e-4c50d6148415"},"vehicle_type_id":"4","last_reported":1684400790,"current_range_meters":15600,"station_id":"ce4bhr92rcd13ifvqhrg","pricing_plan_id":"free"},{"bike_id":"0a8f8ec2-b756-4e79-ac26-03bcb4c9817c","system_id":"levelo_inurba_marseille","lat":43.3304,"lon":5.3892,"is_reserved":false,"is_disabled":false,"rental_uris":{"android":"levelo://app?vid=0a8f8ec2-b756-4e79-ac26-03bcb4c9817c","ios":"levelo://app?vid=0a8f8ec2-b756-4e79-ac26-03bcb4c9817c"},"vehicle_type_id":"4","last_reported":1684400790,"current_range_meters":3600,"station_id":"ce4bhr92rcd13ifvqhrg","pricing_plan_id":"free"},{"bike_id":"17a83864-e891-4536-ade5-f23e4dd60e52","system_id":"levelo_inurba_marseille","lat":43.3305,"lon":5.38909,"is_reserved":false,"is_disabled":false,"rental_uris":{"android":"levelo://app?vid=17a83864-e891-4536-ade5-f23e4dd60e52","ios":"levelo://app?vid=17a83864-e891-4536-ade5-f23e4dd60e52"},"vehicle_type_id":"4","last_reported":1684400790,"current_range_meters":12400,"station_id":"ce4bhr92rcd13ifvqhrg","pricing_plan_id":"free"},{"bike_id":"f5a3dd16-2790-49a9-a4f3-1a6f9ff54c80","system_id":"levelo_inurba_marseille","lat":43.33041,"lon":5.38923,"is_reserved":false,"is_disabled":false,"rental_uris":{"android":"levelo://app?vid=f5a3dd16-2790-49a9-a4f3-1a6f9ff54c80","ios":"levelo://app?vid=f5a3dd16-2790-49a9-a4f3-1a6f9ff54c80"},"vehicle_type_id":"4","last_reported":1684400790,"current_range_meters":12400,"station_id":"ce4bhr92rcd13ifvqhrg","pricing_plan_id":"free"},{"bike_id":"a370176b-62ca-4524-a3a9-d5698318adc5","system_id":"levelo_inurba_marseille","lat":43.33041,"lon":5.38923,"is_reserved":false,"is_disabled":false,"rental_uris":{"android":"levelo://app?vid=a370176b-62ca-4524-a3a9-d5698318adc5","ios":"levelo://app?vid=a370176b-62ca-4524-a3a9-d5698318adc5"},"vehicle_type_id":"4","last_reported":1684400790,"current_range_meters":24400,"station_id":"ce4bhr92rcd13ifvqhrg","pricing_plan_id":"free"},{"bike_id":"9911d34c-c929-41ad-bf6a-8cf19a4fed5f","system_id":"levelo_inurba_marseille","lat":43.3305,"lon":5.3891,"is_reserved":false,"is_disabled":false,"rental_uris":{"android":"levelo://app?vid=9911d34c-c929-41ad-bf6a-8cf19a4fed5f","ios":"levelo://app?vid=9911d34c-c929-41ad-bf6a-8cf19a4fed5f"},"vehicle_type_id":"4","last_reported":1684400790,"current_range_meters":17600,"station_id":"ce4bhr92rcd13ifvqhrg","pricing_plan_id":"free"},{"bike_id":"00498d77-2166-4980-a219-37d31581ba0f","system_id":"levelo_inurba_marseille","lat":43.33046,"lon":5.38917,"is_reserved":false,"is_disabled":false,"rental_uris":{"android":"levelo://app?vid=00498d77-2166-4980-a219-37d31581ba0f","ios":"levelo://app?vid=00498d77-2166-4980-a219-37d31581ba0f"},"vehicle_type_id":"4","last_reported":1684400790,"current_range_meters":21200,"station_id":"ce4bhr92rcd13ifvqhrg","pricing_plan_id":"free"},{"bike_id":"d1867f60-c93c-4f2b-b35d-269382d301f7","system_id":"levelo_inurba_marseille","lat":43.33045,"lon":5.3892,"is_reserved":false,"is_disabled":false,"rental_uris":{"android":"levelo://app?vid=d1867f60-c93c-4f2b-b35d-269382d301f7","ios":"levelo://app?vid=d1867f60-c93c-4f2b-b35d-269382d301f7"},"vehicle_type_id":"4","last_reported":1684400790,"current_range_meters":16800,"station_id":"ce4bhr92rcd13ifvqhrg","pricing_plan_id":"free"},{"bike_id":"d32712cd-5468-46ad-af60-1d9b445ee375","system_id":"levelo_inurba_marseille","lat":43.33044,"lon":5.38927,"is_reserved":false,"is_disabled":false,"rental_uris":{"android":"levelo://app?vid=d32712cd-5468-46ad-af60-1d9b445ee375","ios":"levelo://app?vid=d32712cd-5468-46ad-af60-1d9b445ee375"},"vehicle_type_id":"4","last_reported":1684400790,"current_range_meters":22400,"station_id":"ce4bhr92rcd13ifvqhrg","pricing_plan_id":"free"},{"bike_id":"53c29fc8-2073-4dd7-9571-d3c4528bf247","system_id":"levelo_inurba_marseille","lat":43.29003,"lon":5.35604,"is_reserved":false,"is_disabled":false,"rental_uris":{"android":"levelo://app?vid=53c29fc8-2073-4dd7-9571-d3c4528bf247","ios":"levelo://app?vid=53c29fc8-2073-4dd7-9571-d3c4528bf247"},"vehicle_type_id":"4","last_reported":1684400790,"current_range_meters":0,"station_id":"ce4bhb92rcd13ifvqen0","pricing_plan_id":"free"},{"bike_id":"414e54ce-ba22-4a4d-9806-b6e5e79532c5","system_id":"levelo_inurba_marseille","lat":43.33055,"lon":5.38916,"is_reserved":false,"is_disabled":false,"rental_uris":{"android":"levelo://app?vid=414e54ce-ba22-4a4d-9806-b6e5e79532c5","ios":"levelo://app?vid=414e54ce-ba22-4a4d-9806-b6e5e79532c5"},"vehicle_type_id":"4","last_reported":1684400790,"current_range_meters":11200,"station_id":"ce4bhr92rcd13ifvqhrg","pricing_plan_id":"free"},{"bike_id":"d6609ba4-5447-49d8-9b20-79c0ed8f307c","system_id":"levelo_inurba_marseille","lat":43.290995,"lon":5.381361,"is_reserved":false,"is_disabled":false,"rental_uris":{"android":"levelo://app?vid=d6609ba4-5447-49d8-9b20-79c0ed8f307c","ios":"levelo://app?vid=d6609ba4-5447-49d8-9b20-79c0ed8f307c"},"vehicle_type_id":"4","last_reported":1684400790,"current_range_meters":29600,"station_id":"ce4bh512rcd13ifvqe2g","pricing_plan_id":"free"},{"bike_id":"3417a0fb-7177-4cfd-9ea4-6c72cd190518","system_id":"levelo_inurba_marseille","lat":43.295196,"lon":5.39397,"is_reserved":false,"is_disabled":false,"rental_uris":{"android":"levelo://app?vid=3417a0fb-7177-4cfd-9ea4-6c72cd190518","ios":"levelo://app?vid=3417a0fb-7177-4cfd-9ea4-6c72cd190518"},"vehicle_type_id":"4","last_reported":1684400790,"current_range_meters":28400,"station_id":"ce4bh292rcd13ifvqdf0","pricing_plan_id":"free"},{"bike_id":"87c37843-5a26-4678-8bbe-d3f588363d8f","system_id":"levelo_inurba_marseille","lat":43.290995,"lon":5.381361,"is_reserved":false,"is_disabled":false,"rental_uris":{"android":"levelo://app?vid=87c37843-5a26-4678-8bbe-d3f588363d8f","ios":"levelo://app?vid=87c37843-5a26-4678-8bbe-d3f588363d8f"},"vehicle_type_id":"4","last_reported":1684400790,"current_range_meters":28400,"station_id":"ce4bh512rcd13ifvqe2g","pricing_plan_id":"free"},{"bike_id":"c9136417-22b0-4216-b1a8-bfbef6dbfea3","system_id":"levelo_inurba_marseille","lat":43.30512,"lon":5.39925,"is_reserved":false,"is_disabled":false,"rental_uris":{"android":"levelo://app?vid=c9136417-22b0-4216-b1a8-bfbef6dbfea3","ios":"levelo://app?vid=c9136417-22b0-4216-b1a8-bfbef6dbfea3"},"vehicle_type_id":"4","last_reported":1684400790,"current_range_meters":25600,"station_id":"","pricing_plan_id":"free"},{"bike_id":"134fbf9a-2f99-47c1-9875-45b185a0a3ce","system_id":"levelo_inurba_marseille","lat":43.337436,"lon":5.374627,"is_reserved":false,"is_disabled":false,"rental_uris":{"android":"levelo://app?vid=134fbf9a-2f99-47c1-9875-45b185a0a3ce","ios":"levelo://app?vid=134fbf9a-2f99-47c1-9875-45b185a0a3ce"},"vehicle_type_id":"4","last_reported":1684400790,"current_range_meters":13200,"station_id":"ce4bhnp2rcd13ifvqgvg","pricing_plan_id":"free"},{"bike_id":"81ab69a5-484f-4a23-9f73-2a353e3d4c06","system_id":"levelo_inurba_marseille","lat":43.3046,"lon":5.39989,"is_reserved":false,"is_disabled":false,"rental_uris":{"android":"levelo://app?vid=81ab69a5-484f-4a23-9f73-2a353e3d4c06","ios":"levelo://app?vid=81ab69a5-484f-4a23-9f73-2a353e3d4c06"},"vehicle_type_id":"4","last_reported":1684400790,"current_range_meters":0,"station_id":"","pricing_plan_id":"free"},{"bike_id":"ac95d558-c1e2-4d44-b1bb-1e29246ccff8","system_id":"levelo_inurba_marseille","lat":43.33756,"lon":5.37439,"is_reserved":false,"is_disabled":false,"rental_uris":{"android":"levelo://app?vid=ac95d558-c1e2-4d44-b1bb-1e29246ccff8","ios":"levelo://app?vid=ac95d558-c1e2-4d44-b1bb-1e29246ccff8"},"vehicle_type_id":"4","last_reported":1684400790,"current_range_meters":25200,"station_id":"","pricing_plan_id":"free"},{"bike_id":"389c4698-02aa-43a6-8580-f0423acef6ba","system_id":"levelo_inurba_marseille","lat":43.30642,"lon":5.401031,"is_reserved":false,"is_disabled":false,"rental_uris":{"android":"levelo://app?vid=389c4698-02aa-43a6-8580-f0423acef6ba","ios":"levelo://app?vid=389c4698-02aa-43a6-8580-f0423acef6ba"},"vehicle_type_id":"4","last_reported":1684400790,"current_range_meters":21200,"station_id":"ce4bh112rcd13ifvqda0","pricing_plan_id":"free"},{"bike_id":"74544150-9999-419b-9aca-20e08a9370aa","system_id":"levelo_inurba_marseille","lat":43.3376,"lon":5.37437,"is_reserved":false,"is_disabled":false,"rental_uris":{"android":"levelo://app?vid=74544150-9999-419b-9aca-20e08a9370aa","ios":"levelo://app?vid=74544150-9999-419b-9aca-20e08a9370aa"},"vehicle_type_id":"4","last_reported":1684400790,"current_range_meters":4400,"station_id":"","pricing_plan_id":"free"},{"bike_id":"4a849c94-13ed-4ee4-970c-a4d1f9b674db","system_id":"levelo_inurba_marseille","lat":43.33762,"lon":5.37431,"is_reserved":false,"is_disabled":false,"rental_uris":{"android":"levelo://app?vid=4a849c94-13ed-4ee4-970c-a4d1f9b674db","ios":"levelo://app?vid=4a849c94-13ed-4ee4-970c-a4d1f9b674db"},"vehicle_type_id":"4","last_reported":1684400790,"current_range_meters":26800,"station_id":"","pricing_plan_id":"free"},{"bike_id":"21eeb7b6-d4a1-44ad-987c-0764d131d48b","system_id":"levelo_inurba_marseille","lat":43.30642,"lon":5.401031,"is_reserved":false,"is_disabled":false,"rental_uris":{"android":"levelo://app?vid=21eeb7b6-d4a1-44ad-987c-0764d131d48b","ios":"levelo://app?vid=21eeb7b6-d4a1-44ad-987c-0764d131d48b"},"vehicle_type_id":"4","last_reported":1684400790,"current_range_meters":31200,"station_id":"ce4bh112rcd13ifvqda0","pricing_plan_id":"free"},{"bike_id":"67db9acf-63d5-4f89-8b54-c329e38ab384","system_id":"levelo_inurba_marseille","lat":43.30647,"lon":5.401,"is_reserved":false,"is_disabled":false,"rental_uris":{"android":"levelo://app?vid=67db9acf-63d5-4f89-8b54-c329e38ab384","ios":"levelo://app?vid=67db9acf-63d5-4f89-8b54-c329e38ab384"},"vehicle_type_id":"4","last_reported":1684400790,"current_range_meters":25200,"station_id":"ce4bh112rcd13ifvqda0","pricing_plan_id":"free"},{"bike_id":"12662545-3bce-4afe-9b74-7ec4a3a7b258","system_id":"levelo_inurba_marseille","lat":43.33774,"lon":5.37438,"is_reserved":false,"is_disabled":false,"rental_uris":{"android":"levelo://app?vid=12662545-3bce-4afe-9b74-7ec4a3a7b258","ios":"levelo://app?vid=12662545-3bce-4afe-9b74-7ec4a3a7b258"},"vehicle_type_id":"4","last_reported":1684400790,"current_range_meters":4400,"station_id":"","pricing_plan_id":"free"},{"bike_id":"62d3f081-ecab-4a25-bd8e-b130f62f6ac1","system_id":"levelo_inurba_marseille","lat":43.33777,"lon":5.37474,"is_reserved":false,"is_disabled":false,"rental_uris":{"android":"levelo://app?vid=62d3f081-ecab-4a25-bd8e-b130f62f6ac1","ios":"levelo://app?vid=62d3f081-ecab-4a25-bd8e-b130f62f6ac1"},"vehicle_type_id":"4","last_reported":1684400790,"current_range_meters":26000,"station_id":"","pricing_plan_id":"free"},{"bike_id":"e910335b-a4c5-44b8-a920-8f330082f4bb","system_id":"levelo_inurba_marseille","lat":43.30141,"lon":5.39874,"is_reserved":false,"is_disabled":false,"rental_uris":{"android":"levelo://app?vid=e910335b-a4c5-44b8-a920-8f330082f4bb","ios":"levelo://app?vid=e910335b-a4c5-44b8-a920-8f330082f4bb"},"vehicle_type_id":"4","last_reported":1684400790,"current_range_meters":0,"station_id":"","pricing_plan_id":"free"},{"bike_id":"e1a45aaf-a12c-4251-8e08-5dcecabe44fb","system_id":"levelo_inurba_marseille","lat":43.301117,"lon":5.398795,"is_reserved":false,"is_disabled":false,"rental_uris":{"android":"levelo://app?vid=e1a45aaf-a12c-4251-8e08-5dcecabe44fb","ios":"levelo://app?vid=e1a45aaf-a12c-4251-8e08-5dcecabe44fb"},"vehicle_type_id":"4","last_reported":1684400790,"current_range_meters":27600,"station_id":"ce4bh0h2rcd13ifvqd40","pricing_plan_id":"free"},{"bike_id":"dfda79bd-7ac6-48fd-a318-6555f90d49c0","system_id":"levelo_inurba_marseille","lat":43.286591,"lon":5.363346,"is_reserved":false,"is_disabled":false,"rental_uris":{"android":"levelo://app?vid=dfda79bd-7ac6-48fd-a318-6555f90d49c0","ios":"levelo://app?vid=dfda79bd-7ac6-48fd-a318-6555f90d49c0"},"vehicle_type_id":"4","last_reported":1684400790,"current_range_meters":29200,"station_id":"ce4bhah2rcd13ifvqej0","pricing_plan_id":"free"},{"bike_id":"e2ffd7a5-4bdf-4d89-8028-087a15753a55","system_id":"levelo_inurba_marseille","lat":43.28751,"lon":5.37687,"is_reserved":false,"is_disabled":false,"rental_uris":{"android":"levelo://app?vid=e2ffd7a5-4bdf-4d89-8028-087a15753a55","ios":"levelo://app?vid=e2ffd7a5-4bdf-4d89-8028-087a15753a55"},"vehicle_type_id":"4","last_reported":1684400790,"current_range_meters":24000,"station_id":"","pricing_plan_id":"free"},{"bike_id":"24cbfb8a-64d7-485e-8eb7-6afef9ab5752","system_id":"levelo_inurba_marseille","lat":43.295713,"lon":5.399639,"is_reserved":false,"is_disabled":false,"rental_uris":{"android":"levelo://app?vid=24cbfb8a-64d7-485e-8eb7-6afef9ab5752","ios":"levelo://app?vid=24cbfb8a-64d7-485e-8eb7-6afef9ab5752"},"vehicle_type_id":"4","last_reported":1684400790,"current_range_meters":30000,"station_id":"ce4bh312rcd13ifvqdj0","pricing_plan_id":"free"},{"bike_id":"79d94117-cf2c-47fb-8a50-af0fe4909085","system_id":"levelo_inurba_marseille","lat":43.295196,"lon":5.39397,"is_reserved":false,"is_disabled":false,"rental_uris":{"android":"levelo://app?vid=79d94117-cf2c-47fb-8a50-af0fe4909085","ios":"levelo://app?vid=79d94117-cf2c-47fb-8a50-af0fe4909085"},"vehicle_type_id":"4","last_reported":1684400790,"current_range_meters":31200,"station_id":"ce4bh292rcd13ifvqdf0","pricing_plan_id":"free"},{"bike_id":"c3785b09-8b19-4697-b30c-f5d908b72b57","system_id":"levelo_inurba_marseille","lat":43.302759,"lon":5.400793,"is_reserved":false,"is_disabled":false,"rental_uris":{"android":"levelo://app?vid=c3785b09-8b19-4697-b30c-f5d908b72b57","ios":"levelo://app?vid=c3785b09-8b19-4697-b30c-f5d908b72b57"},"vehicle_type_id":"4","last_reported":1684400790,"current_range_meters":27600,"station_id":"ce4bgvh2rcd13ifvqcs0","pricing_plan_id":"free"},{"bike_id":"2bfd69d7-7c16-4493-838e-f1b99f00df2b","system_id":"levelo_inurba_marseille","lat":43.302759,"lon":5.400793,"is_reserved":false,"is_disabled":false,"rental_uris":{"android":"levelo://app?vid=2bfd69d7-7c16-4493-838e-f1b99f00df2b","ios":"levelo://app?vid=2bfd69d7-7c16-4493-838e-f1b99f00df2b"},"vehicle_type_id":"4","last_reported":1684400790,"current_range_meters":30000,"station_id":"ce4bgvh2rcd13ifvqcs0","pricing_plan_id":"free"},{"bike_id":"f89d2693-c84a-4f74-a476-87f4afc233b9","system_id":"levelo_inurba_marseille","lat":43.286039,"lon":5.370681,"is_reserved":false,"is_disabled":false,"rental_uris":{"android":"levelo://app?vid=f89d2693-c84a-4f74-a476-87f4afc233b9","ios":"levelo://app?vid=f89d2693-c84a-4f74-a476-87f4afc233b9"},"vehicle_type_id":"4","last_reported":1684400790,"current_range_meters":25600,"station_id":"ce4bht12rcd13ifvqi60","pricing_plan_id":"free"},{"bike_id":"8942c193-c174-434f-9ba9-7877147a78ab","system_id":"levelo_inurba_marseille","lat":43.286039,"lon":5.370679,"is_reserved":false,"is_disabled":false,"rental_uris":{"android":"levelo://app?vid=8942c193-c174-434f-9ba9-7877147a78ab","ios":"levelo://app?vid=8942c193-c174-434f-9ba9-7877147a78ab"},"vehicle_type_id":"4","last_reported":1684400790,"current_range_meters":28400,"station_id":"ce4bht12rcd13ifvqi60","pricing_plan_id":"free"},{"bike_id":"2c7a43d1-a9bd-4ac4-a199-f53401253cd3","system_id":"levelo_inurba_marseille","lat":43.286039,"lon":5.370679,"is_reserved":false,"is_disabled":false,"rental_uris":{"android":"levelo://app?vid=2c7a43d1-a9bd-4ac4-a199-f53401253cd3","ios":"levelo://app?vid=2c7a43d1-a9bd-4ac4-a199-f53401253cd3"},"vehicle_type_id":"4","last_reported":1684400790,"current_range_meters":29200,"station_id":"ce4bht12rcd13ifvqi60","pricing_plan_id":"free"},{"bike_id":"5bf1f18d-bfc5-4b7a-bb52-a68e0c577286","system_id":"levelo_inurba_marseille","lat":43.28613,"lon":5.37061,"is_reserved":false,"is_disabled":false,"rental_uris":{"android":"levelo://app?vid=5bf1f18d-bfc5-4b7a-bb52-a68e0c577286","ios":"levelo://app?vid=5bf1f18d-bfc5-4b7a-bb52-a68e0c577286"},"vehicle_type_id":"4","last_reported":1684400790,"current_range_meters":22000,"station_id":"ce4bht12rcd13ifvqi60","pricing_plan_id":"free"},{"bike_id":"7882c59b-a338-474e-a4ca-28c27b2346f3","system_id":"levelo_inurba_marseille","lat":43.31185,"lon":5.40391,"is_reserved":false,"is_disabled":false,"rental_uris":{"android":"levelo://app?vid=7882c59b-a338-474e-a4ca-28c27b2346f3","ios":"levelo://app?vid=7882c59b-a338-474e-a4ca-28c27b2346f3"},"vehicle_type_id":"4","last_reported":1684400790,"current_range_meters":8400,"station_id":"","pricing_plan_id":"free"},{"bike_id":"36874bbd-aa10-448e-9a89-31de5928be1e","system_id":"levelo_inurba_marseille","lat":43.316517,"lon":5.404375,"is_reserved":false,"is_disabled":false,"rental_uris":{"android":"levelo://app?vid=36874bbd-aa10-448e-9a89-31de5928be1e","ios":"levelo://app?vid=36874bbd-aa10-448e-9a89-31de5928be1e"},"vehicle_type_id":"4","last_reported":1684400790,"current_range_meters":27600,"station_id":"ce4bh012rcd13ifvqd00","pricing_plan_id":"free"},{"bike_id":"c5a82075-f476-4915-8e65-4db15d9d3710","system_id":"levelo_inurba_marseille","lat":43.291994,"lon":5.392907,"is_reserved":false,"is_disabled":false,"rental_uris":{"android":"levelo://app?vid=c5a82075-f476-4915-8e65-4db15d9d3710","ios":"levelo://app?vid=c5a82075-f476-4915-8e65-4db15d9d3710"},"vehicle_type_id":"4","last_reported":1684400790,"current_range_meters":12800,"station_id":"ce4bh192rcd13ifvqdd0","pricing_plan_id":"free"},{"bike_id":"eaef2449-951f-4a5f-ac1e-874dabc59b7b","system_id":"levelo_inurba_marseille","lat":43.28618,"lon":5.35104,"is_reserved":false,"is_disabled":false,"rental_uris":{"android":"levelo://app?vid=eaef2449-951f-4a5f-ac1e-874dabc59b7b","ios":"levelo://app?vid=eaef2449-951f-4a5f-ac1e-874dabc59b7b"},"vehicle_type_id":"4","last_reported":1684400790,"current_range_meters":26000,"station_id":"","pricing_plan_id":"free"},{"bike_id":"157172d0-b873-4a82-ad5d-6e97cddf7f2e","system_id":"levelo_inurba_marseille","lat":43.28616,"lon":5.35108,"is_reserved":false,"is_disabled":false,"rental_uris":{"android":"levelo://app?vid=157172d0-b873-4a82-ad5d-6e97cddf7f2e","ios":"levelo://app?vid=157172d0-b873-4a82-ad5d-6e97cddf7f2e"},"vehicle_type_id":"4","last_reported":1684400790,"current_range_meters":26800,"station_id":"","pricing_plan_id":"free"},{"bike_id":"88bc1530-d3a7-4027-8816-882df45ec874","system_id":"levelo_inurba_marseille","lat":43.295713,"lon":5.399639,"is_reserved":false,"is_disabled":false,"rental_uris":{"android":"levelo://app?vid=88bc1530-d3a7-4027-8816-882df45ec874","ios":"levelo://app?vid=88bc1530-d3a7-4027-8816-882df45ec874"},"vehicle_type_id":"4","last_reported":1684400790,"current_range_meters":26000,"station_id":"ce4bh312rcd13ifvqdj0","pricing_plan_id":"free"},{"bike_id":"7e1eb95d-5edc-4f55-918a-3daab968c3bc","system_id":"levelo_inurba_marseille","lat":43.295713,"lon":5.399639,"is_reserved":false,"is_disabled":false,"rental_uris":{"android":"levelo://app?vid=7e1eb95d-5edc-4f55-918a-3daab968c3bc","ios":"levelo://app?vid=7e1eb95d-5edc-4f55-918a-3daab968c3bc"},"vehicle_type_id":"4","last_reported":1684400790,"current_range_meters":29600,"station_id":"ce4bh312rcd13ifvqdj0","pricing_plan_id":"free"},{"bike_id":"b02185ac-d394-46d3-84d7-f5ac4b13e666","system_id":"levelo_inurba_marseille","lat":43.29582,"lon":5.39977,"is_reserved":false,"is_disabled":false,"rental_uris":{"android":"levelo://app?vid=b02185ac-d394-46d3-84d7-f5ac4b13e666","ios":"levelo://app?vid=b02185ac-d394-46d3-84d7-f5ac4b13e666"},"vehicle_type_id":"4","last_reported":1684400790,"current_range_meters":30800,"station_id":"ce4bh312rcd13ifvqdj0","pricing_plan_id":"free"},{"bike_id":"cfc17ee2-69ac-4c20-ad09-ee3e249da10a","system_id":"levelo_inurba_marseille","lat":43.295713,"lon":5.399639,"is_reserved":false,"is_disabled":false,"rental_uris":{"android":"levelo://app?vid=cfc17ee2-69ac-4c20-ad09-ee3e249da10a","ios":"levelo://app?vid=cfc17ee2-69ac-4c20-ad09-ee3e249da10a"},"vehicle_type_id":"4","last_reported":1684400790,"current_range_meters":29200,"station_id":"ce4bh312rcd13ifvqdj0","pricing_plan_id":"free"},{"bike_id":"e5f6d7c3-3ace-41e4-ae9f-48ce810657f7","system_id":"levelo_inurba_marseille","lat":43.29573,"lon":5.39975,"is_reserved":false,"is_disabled":false,"rental_uris":{"android":"levelo://app?vid=e5f6d7c3-3ace-41e4-ae9f-48ce810657f7","ios":"levelo://app?vid=e5f6d7c3-3ace-41e4-ae9f-48ce810657f7"},"vehicle_type_id":"4","last_reported":1684400790,"current_range_meters":31200,"station_id":"ce4bh312rcd13ifvqdj0","pricing_plan_id":"free"},{"bike_id":"2b215d01-b75c-4291-b15c-953a66be1ef8","system_id":"levelo_inurba_marseille","lat":43.295713,"lon":5.399639,"is_reserved":false,"is_disabled":false,"rental_uris":{"android":"levelo://app?vid=2b215d01-b75c-4291-b15c-953a66be1ef8","ios":"levelo://app?vid=2b215d01-b75c-4291-b15c-953a66be1ef8"},"vehicle_type_id":"4","last_reported":1684400790,"current_range_meters":27200,"station_id":"ce4bh312rcd13ifvqdj0","pricing_plan_id":"free"},{"bike_id":"dfc649e9-2087-4213-b0c6-f9a677483557","system_id":"levelo_inurba_marseille","lat":43.28675,"lon":5.3866,"is_reserved":false,"is_disabled":false,"rental_uris":{"android":"levelo://app?vid=dfc649e9-2087-4213-b0c6-f9a677483557","ios":"levelo://app?vid=dfc649e9-2087-4213-b0c6-f9a677483557"},"vehicle_type_id":"4","last_reported":1684400790,"current_range_meters":5200,"station_id":"","pricing_plan_id":"free"},{"bike_id":"098145c7-1fd2-4fd6-b6cd-235b3d6dc564","system_id":"levelo_inurba_marseille","lat":43.286595,"lon":5.386795,"is_reserved":false,"is_disabled":false,"rental_uris":{"android":"levelo://app?vid=098145c7-1fd2-4fd6-b6cd-235b3d6dc564","ios":"levelo://app?vid=098145c7-1fd2-4fd6-b6cd-235b3d6dc564"},"vehicle_type_id":"4","last_reported":1684400790,"current_range_meters":24000,"station_id":"ce4bh492rcd13ifvqdug","pricing_plan_id":"free"},{"bike_id":"e6f6bfc2-6800-45d0-89dd-128d24df1956","system_id":"levelo_inurba_marseille","lat":43.286595,"lon":5.386795,"is_reserved":false,"is_disabled":false,"rental_uris":{"android":"levelo://app?vid=e6f6bfc2-6800-45d0-89dd-128d24df1956","ios":"levelo://app?vid=e6f6bfc2-6800-45d0-89dd-128d24df1956"},"vehicle_type_id":"4","last_reported":1684400790,"current_range_meters":28400,"station_id":"ce4bh492rcd13ifvqdug","pricing_plan_id":"free"},{"bike_id":"06117f06-2836-4b1d-8a64-584f8f51f4e8","system_id":"levelo_inurba_marseille","lat":43.286595,"lon":5.386795,"is_reserved":false,"is_disabled":false,"rental_uris":{"android":"levelo://app?vid=06117f06-2836-4b1d-8a64-584f8f51f4e8","ios":"levelo://app?vid=06117f06-2836-4b1d-8a64-584f8f51f4e8"},"vehicle_type_id":"4","last_reported":1684400790,"current_range_meters":30400,"station_id":"ce4bh492rcd13ifvqdug","pricing_plan_id":"free"},{"bike_id":"638ce055-ce67-4c82-a1c5-b66dae7d9d88","system_id":"levelo_inurba_marseille","lat":43.286595,"lon":5.386795,"is_reserved":false,"is_disabled":false,"rental_uris":{"android":"levelo://app?vid=638ce055-ce67-4c82-a1c5-b66dae7d9d88","ios":"levelo://app?vid=638ce055-ce67-4c82-a1c5-b66dae7d9d88"},"vehicle_type_id":"4","last_reported":1684400790,"current_range_meters":25600,"station_id":"ce4bh492rcd13ifvqdug","pricing_plan_id":"free"},{"bike_id":"24d532e8-35f6-49ae-a277-55010800c624","system_id":"levelo_inurba_marseille","lat":43.323464,"lon":5.406297,"is_reserved":false,"is_disabled":false,"rental_uris":{"android":"levelo://app?vid=24d532e8-35f6-49ae-a277-55010800c624","ios":"levelo://app?vid=24d532e8-35f6-49ae-a277-55010800c624"},"vehicle_type_id":"4","last_reported":1684400790,"current_range_meters":6800,"station_id":"ce4bhq92rcd13ifvqhjg","pricing_plan_id":"free"},{"bike_id":"041dd965-03e5-4740-bf05-ede7d8c76798","system_id":"levelo_inurba_marseille","lat":43.323464,"lon":5.406297,"is_reserved":false,"is_disabled":false,"rental_uris":{"android":"levelo://app?vid=041dd965-03e5-4740-bf05-ede7d8c76798","ios":"levelo://app?vid=041dd965-03e5-4740-bf05-ede7d8c76798"},"vehicle_type_id":"4","last_reported":1684400790,"current_range_meters":8800,"station_id":"ce4bhq92rcd13ifvqhjg","pricing_plan_id":"free"},{"bike_id":"0036f072-56d5-4205-9a9d-f111b00c0aa9","system_id":"levelo_inurba_marseille","lat":43.32328,"lon":5.40617,"is_reserved":false,"is_disabled":false,"rental_uris":{"android":"levelo://app?vid=0036f072-56d5-4205-9a9d-f111b00c0aa9","ios":"levelo://app?vid=0036f072-56d5-4205-9a9d-f111b00c0aa9"},"vehicle_type_id":"4","last_reported":1684400790,"current_range_meters":12800,"station_id":"ce4bhq92rcd13ifvqhjg","pricing_plan_id":"free"},{"bike_id":"e21e6b02-9dd7-492d-964f-1185274fc7be","system_id":"levelo_inurba_marseille","lat":43.28492,"lon":5.38405,"is_reserved":false,"is_disabled":false,"rental_uris":{"android":"levelo://app?vid=e21e6b02-9dd7-492d-964f-1185274fc7be","ios":"levelo://app?vid=e21e6b02-9dd7-492d-964f-1185274fc7be"},"vehicle_type_id":"4","last_reported":1684400790,"current_range_meters":23600,"station_id":"ce4bh512rcd13ifvqe3g","pricing_plan_id":"free"},{"bike_id":"8a4973b0-641c-4af3-81ed-837ade35584a","system_id":"levelo_inurba_marseille","lat":43.28494,"lon":5.38412,"is_reserved":false,"is_disabled":false,"rental_uris":{"android":"levelo://app?vid=8a4973b0-641c-4af3-81ed-837ade35584a","ios":"levelo://app?vid=8a4973b0-641c-4af3-81ed-837ade35584a"},"vehicle_type_id":"4","last_reported":1684400790,"current_range_meters":24000,"station_id":"ce4bh512rcd13ifvqe3g","pricing_plan_id":"free"},{"bike_id":"02ee6c29-bdb6-4985-9271-138e7d459108","system_id":"levelo_inurba_marseille","lat":43.2848,"lon":5.38408,"is_reserved":false,"is_disabled":false,"rental_uris":{"android":"levelo://app?vid=02ee6c29-bdb6-4985-9271-138e7d459108","ios":"levelo://app?vid=02ee6c29-bdb6-4985-9271-138e7d459108"},"vehicle_type_id":"4","last_reported":1684400790,"current_range_meters":27200,"station_id":"ce4bh512rcd13ifvqe3g","pricing_plan_id":"free"},{"bike_id":"ebc6f379-ee9f-44ac-8784-9613b6848b4c","system_id":"levelo_inurba_marseille","lat":43.28476,"lon":5.38409,"is_reserved":false,"is_disabled":false,"rental_uris":{"android":"levelo://app?vid=ebc6f379-ee9f-44ac-8784-9613b6848b4c","ios":"levelo://app?vid=ebc6f379-ee9f-44ac-8784-9613b6848b4c"},"vehicle_type_id":"4","last_reported":1684400790,"current_range_meters":26800,"station_id":"ce4bh512rcd13ifvqe3g","pricing_plan_id":"free"},{"bike_id":"de1db406-fb40-49f1-85dc-eef62c6b72a4","system_id":"levelo_inurba_marseille","lat":43.284787,"lon":5.384116,"is_reserved":false,"is_disabled":false,"rental_uris":{"android":"levelo://app?vid=de1db406-fb40-49f1-85dc-eef62c6b72a4","ios":"levelo://app?vid=de1db406-fb40-49f1-85dc-eef62c6b72a4"},"vehicle_type_id":"4","last_reported":1684400790,"current_range_meters":31200,"station_id":"ce4bh512rcd13ifvqe3g","pricing_plan_id":"free"},{"bike_id":"b2d07e7d-53b0-4285-a57e-0457b56d10d4","system_id":"levelo_inurba_marseille","lat":43.28473,"lon":5.38406,"is_reserved":false,"is_disabled":false,"rental_uris":{"android":"levelo://app?vid=b2d07e7d-53b0-4285-a57e-0457b56d10d4","ios":"levelo://app?vid=b2d07e7d-53b0-4285-a57e-0457b56d10d4"},"vehicle_type_id":"4","last_reported":1684400790,"current_range_meters":5200,"station_id":"ce4bh512rcd13ifvqe3g","pricing_plan_id":"free"},{"bike_id":"a7d940c4-8213-4188-a0ce-b89581b9e248","system_id":"levelo_inurba_marseille","lat":43.284787,"lon":5.384116,"is_reserved":false,"is_disabled":false,"rental_uris":{"android":"levelo://app?vid=a7d940c4-8213-4188-a0ce-b89581b9e248","ios":"levelo://app?vid=a7d940c4-8213-4188-a0ce-b89581b9e248"},"vehicle_type_id":"4","last_reported":1684400790,"current_range_meters":31200,"station_id":"ce4bh512rcd13ifvqe3g","pricing_plan_id":"free"},{"bike_id":"b85fdf24-43b1-4b7f-944f-878c185ebcd3","system_id":"levelo_inurba_marseille","lat":43.284787,"lon":5.384116,"is_reserved":false,"is_disabled":false,"rental_uris":{"android":"levelo://app?vid=b85fdf24-43b1-4b7f-944f-878c185ebcd3","ios":"levelo://app?vid=b85fdf24-43b1-4b7f-944f-878c185ebcd3"},"vehicle_type_id":"4","last_reported":1684400790,"current_range_meters":31200,"station_id":"ce4bh512rcd13ifvqe3g","pricing_plan_id":"free"},{"bike_id":"e9e12096-196e-402b-bc83-3b62e591d856","system_id":"levelo_inurba_marseille","lat":43.284787,"lon":5.384116,"is_reserved":false,"is_disabled":false,"rental_uris":{"android":"levelo://app?vid=e9e12096-196e-402b-bc83-3b62e591d856","ios":"levelo://app?vid=e9e12096-196e-402b-bc83-3b62e591d856"},"vehicle_type_id":"4","last_reported":1684400790,"current_range_meters":29600,"station_id":"ce4bh512rcd13ifvqe3g","pricing_plan_id":"free"},{"bike_id":"1c00152f-e707-4072-aefe-10409b3dbf3e","system_id":"levelo_inurba_marseille","lat":43.284793,"lon":5.384119,"is_reserved":false,"is_disabled":false,"rental_uris":{"android":"levelo://app?vid=1c00152f-e707-4072-aefe-10409b3dbf3e","ios":"levelo://app?vid=1c00152f-e707-4072-aefe-10409b3dbf3e"},"vehicle_type_id":"4","last_reported":1684400790,"current_range_meters":31600,"station_id":"ce4bh512rcd13ifvqe3g","pricing_plan_id":"free"},{"bike_id":"3640acf1-80a4-47a7-abc3-cdcdf45097ae","system_id":"levelo_inurba_marseille","lat":43.288501,"lon":5.393087,"is_reserved":false,"is_disabled":false,"rental_uris":{"android":"levelo://app?vid=3640acf1-80a4-47a7-abc3-cdcdf45097ae","ios":"levelo://app?vid=3640acf1-80a4-47a7-abc3-cdcdf45097ae"},"vehicle_type_id":"4","last_reported":1684400790,"current_range_meters":28000,"station_id":"ce4bh2p2rcd13ifvqdi0","pricing_plan_id":"free"},{"bike_id":"79d68df3-ef20-4225-b9a5-ad2079e5de53","system_id":"levelo_inurba_marseille","lat":43.288501,"lon":5.393087,"is_reserved":false,"is_disabled":false,"rental_uris":{"android":"levelo://app?vid=79d68df3-ef20-4225-b9a5-ad2079e5de53","ios":"levelo://app?vid=79d68df3-ef20-4225-b9a5-ad2079e5de53"},"vehicle_type_id":"4","last_reported":1684400790,"current_range_meters":29200,"station_id":"ce4bh2p2rcd13ifvqdi0","pricing_plan_id":"free"},{"bike_id":"65e6b464-7622-42b6-90c1-44bf6d5a4a68","system_id":"levelo_inurba_marseille","lat":43.28844,"lon":5.39313,"is_reserved":false,"is_disabled":false,"rental_uris":{"android":"levelo://app?vid=65e6b464-7622-42b6-90c1-44bf6d5a4a68","ios":"levelo://app?vid=65e6b464-7622-42b6-90c1-44bf6d5a4a68"},"vehicle_type_id":"4","last_reported":1684400790,"current_range_meters":20400,"station_id":"ce4bh2p2rcd13ifvqdi0","pricing_plan_id":"free"},{"bike_id":"59dcb9ea-afc0-494d-88b2-2c06418af825","system_id":"levelo_inurba_marseille","lat":43.283494,"lon":5.380945,"is_reserved":false,"is_disabled":false,"rental_uris":{"android":"levelo://app?vid=59dcb9ea-afc0-494d-88b2-2c06418af825","ios":"levelo://app?vid=59dcb9ea-afc0-494d-88b2-2c06418af825"},"vehicle_type_id":"4","last_reported":1684400790,"current_range_meters":27600,"station_id":"ce4bh412rcd13ifvqdr0","pricing_plan_id":"free"},{"bike_id":"c3d3d65b-45c2-479c-b52b-214851f5a359","system_id":"levelo_inurba_marseille","lat":43.283498,"lon":5.380948,"is_reserved":false,"is_disabled":false,"rental_uris":{"android":"levelo://app?vid=c3d3d65b-45c2-479c-b52b-214851f5a359","ios":"levelo://app?vid=c3d3d65b-45c2-479c-b52b-214851f5a359"},"vehicle_type_id":"4","last_reported":1684400790,"current_range_meters":31600,"station_id":"ce4bh412rcd13ifvqdr0","pricing_plan_id":"free"},{"bike_id":"c7cae0c1-dde5-4166-b8e1-6d965b12a87d","system_id":"levelo_inurba_marseille","lat":43.283498,"lon":5.380948,"is_reserved":false,"is_disabled":false,"rental_uris":{"android":"levelo://app?vid=c7cae0c1-dde5-4166-b8e1-6d965b12a87d","ios":"levelo://app?vid=c7cae0c1-dde5-4166-b8e1-6d965b12a87d"},"vehicle_type_id":"4","last_reported":1684400790,"current_range_meters":30800,"station_id":"ce4bh412rcd13ifvqdr0","pricing_plan_id":"free"},{"bike_id":"126229e3-bfb4-4c4f-9e38-c1ef290b43e3","system_id":"levelo_inurba_marseille","lat":43.283498,"lon":5.380948,"is_reserved":false,"is_disabled":false,"rental_uris":{"android":"levelo://app?vid=126229e3-bfb4-4c4f-9e38-c1ef290b43e3","ios":"levelo://app?vid=126229e3-bfb4-4c4f-9e38-c1ef290b43e3"},"vehicle_type_id":"4","last_reported":1684400790,"current_range_meters":31600,"station_id":"ce4bh412rcd13ifvqdr0","pricing_plan_id":"free"},{"bike_id":"0131bcae-c97a-4e25-a079-3099dad10cd3","system_id":"levelo_inurba_marseille","lat":43.28946,"lon":5.39637,"is_reserved":false,"is_disabled":false,"rental_uris":{"android":"levelo://app?vid=0131bcae-c97a-4e25-a079-3099dad10cd3","ios":"levelo://app?vid=0131bcae-c97a-4e25-a079-3099dad10cd3"},"vehicle_type_id":"4","last_reported":1684400790,"current_range_meters":21600,"station_id":"ce4bh3h2rcd13ifvqdn0","pricing_plan_id":"free"},{"bike_id":"6b4a9d24-c662-4f3b-9ada-fa209b23bf6d","system_id":"levelo_inurba_marseille","lat":43.28939,"lon":5.39629,"is_reserved":false,"is_disabled":false,"rental_uris":{"android":"levelo://app?vid=6b4a9d24-c662-4f3b-9ada-fa209b23bf6d","ios":"levelo://app?vid=6b4a9d24-c662-4f3b-9ada-fa209b23bf6d"},"vehicle_type_id":"4","last_reported":1684400790,"current_range_meters":12000,"station_id":"ce4bh3h2rcd13ifvqdn0","pricing_plan_id":"free"},{"bike_id":"626ea888-a181-4733-a025-4368223fb27e","system_id":"levelo_inurba_marseille","lat":43.28939,"lon":5.39631,"is_reserved":false,"is_disabled":false,"rental_uris":{"android":"levelo://app?vid=626ea888-a181-4733-a025-4368223fb27e","ios":"levelo://app?vid=626ea888-a181-4733-a025-4368223fb27e"},"vehicle_type_id":"4","last_reported":1684400790,"current_range_meters":25600,"station_id":"ce4bh3h2rcd13ifvqdn0","pricing_plan_id":"free"},