{"last_updated":1734430230,"ttl":60,"version":"2.2","data":{"bikes":[{"bike_id":"55259469-20b7-4df7-bc06-2aaa3f400ee2","system_id":"levelo_inurba_marseille","lat":43.27068,"lon":5.40247,"is_reserved":false,"is_disabled":false,"rental_uris":{"android":"levelo://app?vid=55259469-20b7-4df7-bc06-2aaa3f400ee2","ios":"levelo://app?vid=55259469-20b7-4df7-bc06-2aaa3f400ee2"},"vehicle_type_id":"4","last_reported":1734430230,"current_range_meters":38800,"station_id":"ce4bhk92rcd13ifvqgc0","pricing_plan_id":"cebpf4jnsgd1na2vs0mg"},{"bike_id":"fa77a26e-608b-4278-828c-372923432d70","system_id":"levelo_inurba_marseille","lat":43.29172,"lon":5.3715,"is_reserved":false,"is_disabled":false,"rental_uris":{"android":"levelo://app?vid=fa77a26e-608b-4278-828c-372923432d70","ios":"levelo://app?vid=fa77a26e-608b-4278-828c-372923432d70"},"vehicle_type_id":"4","last_reported":1734430230,"current_range_meters":16000,"station_id":"ce4bha92rcd13ifvqeh0","pricing_plan_id":"cebpf4jnsgd1na2vs0mg"},{"bike_id":"cba81d63-11b8-432b-b2e7-b74b6d8e5a97","system_id":"levelo_inurba_marseille","lat":43.30346,"lon":5.41875,"is_reserved":false,"is_disabled":true,"rental_uris":{"android":"levelo://app?vid=cba81d63-11b8-432b-b2e7-b74b6d8e5a97","ios":"levelo://app?vid=cba81d63-11b8-432b-b2e7-b74b6d8e5a97"},"vehicle_type_id":"4","last_reported":1734430230,"current_range_meters":0,"station_id":"ce4bhop2rcd13ifvqh7g","pricing_plan_id":"cebpf4jnsgd1na2vs0mg"},{"bike_id":"c8e9abad-8a0c-4b67-aadf-1da4ae8bf89e","system_id":"levelo_inurba_marseille","lat":43.31363,"lon":5.36721,"is_reserved":false,"is_disabled":false,"rental_uris":{"android":"levelo://app?vid=c8e9abad-8a0c-4b67-aadf-1da4ae8bf89e","ios":"levelo://app?vid=c8e9abad-8a0c-4b67-aadf-1da4ae8bf89e"},"vehicle_type_id":"4","last_reported":1734430230,"current_range_meters":32400,"station_id":"ce4bgr92rcd13ifvqc6g","pricing_plan_id":"cebpf4jnsgd1na2vs0mg"},{"bike_id":"eee77d90-3808-4d78-a14f-c07954719075","system_id":"levelo_inurba_marseille","lat":43.30908,"lon":5.36848,"is_reserved":false,"is_disabled":false,"rental_uris":{"android":"levelo://app?vid=eee77d90-3808-4d78-a14f-c07954719075","ios":"levelo://app?vid=eee77d90-3808-4d78-a14f-c07954719075"},"vehicle_type_id":"4","last_reported":1734430230,"current_range_meters":24400,"station_id":"ce4bgn92rcd13ifvqbvg","pricing_plan_id":"cebpf4jnsgd1na2vs0mg"},{"bike_id":"37048610-0aea-4ee8-88b6-948fe69bca7c","system_id":"levelo_inurba_marseille","lat":43.33746,"lon":5.37452,"is_reserved":false,"is_disabled":true,"rental_uris":{"android":"levelo://app?vid=37048610-0aea-4ee8-88b6-948fe69bca7c","ios":"levelo://app?vid=37048610-0aea-4ee8-88b6-948fe69bca7c"},"vehicle_type_id":"4","last_reported":1734430230,"current_range_meters":4800,"station_id":"","pricing_plan_id":"cebpf4jnsgd1na2vs0mg"},{"bike_id":"b8e4337f-6a61-432c-8f06-b11abad0dd5c","system_id":"levelo_inurba_marseille","lat":43.26194,"lon":5.3792,"is_reserved":false,"is_disabled":false,"rental_uris":{"android":"levelo://app?vid=b8e4337f-6a61-432c-8f06-b11abad0dd5c","ios":"levelo://app?vid=b8e4337f-6a61-432c-8f06-b11abad0dd5c"},"vehicle_type_id":"4","last_reported":1734430230,"current_range_meters":10800,"station_id":"ce4bhjp2rcd13ifvqg90","pricing_plan_id":"cebpf4jnsgd1na2vs0mg"},{"bike_id":"b2fae302-f5eb-4bc2-b462-662e3f43cfa7","system_id":"levelo_inurba_marseille","lat":43.26924,"lon":5.40258,"is_reserved":false,"is_disabled":false,"rental_uris":{"android":"levelo://app?vid=b2fae302-f5eb-4bc2-b462-662e3f43cfa7","ios":"levelo://app?vid=b2fae302-f5eb-4bc2-b462-662e3f43cfa7"},"vehicle_type_id":"4","last_reported":1734430230,"current_range_meters":39200,"station_id":"cjm6bp8fraef2m0cb0m0","pricing_plan_id":"cebpf4jnsgd1na2vs0mg"},{"bike_id":"d53555b0-975d-4e57-be3a-dcf75e79d6eb","system_id":"levelo_inurba_marseille","lat":43.30266,"lon":5.4008,"is_reserved":false,"is_disabled":false,"rental_uris":{"android":"levelo://app?vid=d53555b0-975d-4e57-be3a-dcf75e79d6eb","ios":"levelo://app?vid=d53555b0-975d-4e57-be3a-dcf75e79d6eb"},"vehicle_type_id":"4","last_reported":1734430230,"current_range_meters":32400,"station_id":"ce4bgvh2rcd13ifvqcs0","pricing_plan_id":"cebpf4jnsgd1na2vs0mg"},{"bike_id":"1e552aad-9f85-47bb-af83-d9d0da697dbe","system_id":"levelo_inurba_marseille","lat":43.313382,"lon":5.367091,"is_reserved":false,"is_disabled":false,"rental_uris":{"android":"levelo://app?vid=1e552aad-9f85-47bb-af83-d9d0da697dbe","ios":"levelo://app?vid=1e552aad-9f85-47bb-af83-d9d0da697dbe"},"vehicle_type_id":"4","last_reported":1734430230,"current_range_meters":37600,"station_id":"ce4bgr92rcd13ifvqc6g","pricing_plan_id":"cebpf4jnsgd1na2vs0mg"},{"bike_id":"a3628e7f-34e6-487b-bf65-3b8010500349","system_id":"levelo_inurba_marseille","lat":43.27051,"lon":5.40257,"is_reserved":false,"is_disabled":false,"rental_uris":{"android":"levelo://app?vid=a3628e7f-34e6-487b-bf65-3b8010500349","ios":"levelo://app?vid=a3628e7f-34e6-487b-bf65-3b8010500349"},"vehicle_type_id":"4","last_reported":1734430230,"current_range_meters":38800,"station_id":"ce4bhk92rcd13ifvqgc0","pricing_plan_id":"cebpf4jnsgd1na2vs0mg"},{"bike_id":"44aee39b-be51-4930-8d8a-cb88296559b0","system_id":"levelo_inurba_marseille","lat":43.28519,"lon":5.38029,"is_reserved":false,"is_disabled":true,"rental_uris":{"android":"levelo://app?vid=44aee39b-be51-4930-8d8a-cb88296559b0","ios":"levelo://app?vid=44aee39b-be51-4930-8d8a-cb88296559b0"},"vehicle_type_id":"4","last_reported":1734430230,"current_range_meters":20400,"station_id":"","pricing_plan_id":"cebpf4jnsgd1na2vs0mg"},{"bike_id":"37d7adf1-667b-4281-8a8e-4648237fdcf8","system_id":"levelo_inurba_marseille","lat":43.25488,"lon":5.37643,"is_reserved":false,"is_disabled":false,"rental_uris":{"android":"levelo://app?vid=37d7adf1-667b-4281-8a8e-4648237fdcf8","ios":"levelo://app?vid=37d7adf1-667b-4281-8a8e-4648237fdcf8"},"vehicle_type_id":"4","last_reported":1734430230,"current_range_meters":36800,"station_id":"ce4bhh12rcd13ifvqff0","pricing_plan_id":"cebpf4jnsgd1na2vs0mg"},{"bike_id":"20358b83-225d-4ff6-8386-f5d7e4ace024","system_id":"levelo_inurba_marseille","lat":43.30017,"lon":5.37735,"is_reserved":false,"is_disabled":true,"rental_uris":{"android":"levelo://app?vid=20358b83-225d-4ff6-8386-f5d7e4ace024","ios":"levelo://app?vid=20358b83-225d-4ff6-8386-f5d7e4ace024"},"vehicle_type_id":"4","last_reported":1734430230,"current_range_meters":8000,"station_id":"","pricing_plan_id":"cebpf4jnsgd1na2vs0mg"},{"bike_id":"e875744d-92e2-401f-9abb-d96354e7a4a5","system_id":"levelo_inurba_marseille","lat":43.30133,"lon":5.37415,"is_reserved":false,"is_disabled":false,"rental_uris":{"android":"levelo://app?vid=e875744d-92e2-401f-9abb-d96354e7a4a5","ios":"levelo://app?vid=e875744d-92e2-401f-9abb-d96354e7a4a5"},"vehicle_type_id":"4","last_reported":1734430230,"current_range_meters":38000,"station_id":"ce4bgs92rcd13ifvqcc0","pricing_plan_id":"cebpf4jnsgd1na2vs0mg"},{"bike_id":"31ff14a8-42cf-4195-9f69-ad8e0a51b343","system_id":"levelo_inurba_marseille","lat":43.29848,"lon":5.3628,"is_reserved":false,"is_disabled":false,"rental_uris":{"android":"levelo://app?vid=31ff14a8-42cf-4195-9f69-ad8e0a51b343","ios":"levelo://app?vid=31ff14a8-42cf-4195-9f69-ad8e0a51b343"},"vehicle_type_id":"4","last_reported":1734430230,"current_range_meters":38800,"station_id":"ce4bgpp2rcd13ifvqc3g","pricing_plan_id":"cebpf4jnsgd1na2vs0mg"},{"bike_id":"2c31a8db-b2e8-4068-865a-ba376c5f2045","system_id":"levelo_inurba_marseille","lat":43.30088,"lon":5.39104,"is_reserved":false,"is_disabled":false,"rental_uris":{"android":"levelo://app?vid=2c31a8db-b2e8-4068-865a-ba376c5f2045","ios":"levelo://app?vid=2c31a8db-b2e8-4068-865a-ba376c5f2045"},"vehicle_type_id":"4","last_reported":1734430230,"current_range_meters":36000,"station_id":"ce4bh192rcd13ifvqdb0","pricing_plan_id":"cebpf4jnsgd1na2vs0mg"},{"bike_id":"97c72130-fbd7-4b03-80f2-44ecd5df2702","system_id":"levelo_inurba_marseille","lat":43.2849,"lon":5.35077,"is_reserved":false,"is_disabled":false,"rental_uris":{"android":"levelo://app?vid=97c72130-fbd7-4b03-80f2-44ecd5df2702","ios":"levelo://app?vid=97c72130-fbd7-4b03-80f2-44ecd5df2702"},"vehicle_type_id":"4","last_reported":1734430230,"current_range_meters":29600,"station_id":"","pricing_plan_id":"cebpf4jnsgd1na2vs0mg"},{"bike_id":"4ef58d0d-8e30-4280-aa40-6d3ae5111f3b","system_id":"levelo_inurba_marseille","lat":43.30973,"lon":5.36791,"is_reserved":false,"is_disabled":false,"rental_uris":{"android":"levelo://app?vid=4ef58d0d-8e30-4280-aa40-6d3ae5111f3b","ios":"levelo://app?vid=4ef58d0d-8e30-4280-aa40-6d3ae5111f3b"},"vehicle_type_id":"4","last_reported":1734430230,"current_range_meters":38800,"station_id":"ce4bgn92rcd13ifvqbvg","pricing_plan_id":"cebpf4jnsgd1na2vs0mg"},{"bike_id":"5a19f5b7-0895-4104-931e-eaa1de51783a","system_id":"levelo_inurba_marseille","lat":43.34142,"lon":5.40907,"is_reserved":false,"is_disabled":false,"rental_uris":{"android":"levelo://app?vid=5a19f5b7-0895-4104-931e-eaa1de51783a","ios":"levelo://app?vid=5a19f5b7-0895-4104-931e-eaa1de51783a"},"vehicle_type_id":"4","last_reported":1734430230,"current_range_meters":38000,"station_id":"ce4bhqh2rcd13ifvqhlg","pricing_plan_id":"cebpf4jnsgd1na2vs0mg"},{"bike_id":"afb8faed-965b-412e-a506-02decfaceca9","system_id":"levelo_inurba_marseille","lat":43.30537,"lon":5.36699,"is_reserved":false,"is_disabled":false,"rental_uris":{"android":"levelo://app?vid=afb8faed-965b-412e-a506-02decfaceca9","ios":"levelo://app?vid=afb8faed-965b-412e-a506-02decfaceca9"},"vehicle_type_id":"4","last_reported":1734430230,"current_range_meters":32000,"station_id":"ce4bgrp2rcd13ifvqc9g","pricing_plan_id":"cebpf4jnsgd1na2vs0mg"},{"bike_id":"6647a823-5689-42c5-bb9b-7c35c2d0c3d9","system_id":"levelo_inurba_marseille","lat":43.26197,"lon":5.37935,"is_reserved":false,"is_disabled":false,"rental_uris":{"android":"levelo://app?vid=6647a823-5689-42c5-bb9b-7c35c2d0c3d9","ios":"levelo://app?vid=6647a823-5689-42c5-bb9b-7c35c2d0c3d9"},"vehicle_type_id":"4","last_reported":1734430230,"current_range_meters":32000,"station_id":"ce4bhjp2rcd13ifvqg90","pricing_plan_id":"cebpf4jnsgd1na2vs0mg"},{"bike_id":"d82b67ee-add0-4917-8c51-42d9fe838e14","system_id":"levelo_inurba_marseille","lat":43.31249,"lon":5.36859,"is_reserved":false,"is_disabled":true,"rental_uris":{"android":"levelo://app?vid=d82b67ee-add0-4917-8c51-42d9fe838e14","ios":"levelo://app?vid=d82b67ee-add0-4917-8c51-42d9fe838e14"},"vehicle_type_id":"4","last_reported":1734430230,"current_range_meters":1600,"station_id":"ce4bgl92rcd13ifvqbq0","pricing_plan_id":"cebpf4jnsgd1na2vs0mg"},{"bike_id":"62970c6f-dbb2-4b5f-ab9f-905c114ca7d6","system_id":"levelo_inurba_marseille","lat":43.27498,"lon":5.42443,"is_reserved":false,"is_disabled":false,"rental_uris":{"android":"levelo://app?vid=62970c6f-dbb2-4b5f-ab9f-905c114ca7d6","ios":"levelo://app?vid=62970c6f-dbb2-4b5f-ab9f-905c114ca7d6"},"vehicle_type_id":"4","last_reported":1734430230,"current_range_meters":25600,"station_id":"ce4bhn92rcd13ifvqgrg","pricing_plan_id":"cebpf4jnsgd1na2vs0mg"},{"bike_id":"97b6c823-a455-42fa-aeaa-a2b902e6d5ca","system_id":"levelo_inurba_marseille","lat":43.29249,"lon":5.40908,"is_reserved":false,"is_disabled":true,"rental_uris":{"android":"levelo://app?vid=97b6c823-a455-42fa-aeaa-a2b902e6d5ca","ios":"levelo://app?vid=97b6c823-a455-42fa-aeaa-a2b902e6d5ca"},"vehicle_type_id":"4","last_reported":1734430230,"current_range_meters":36000,"station_id":"ce4bh192rcd13ifvqdc0","pricing_plan_id":"cebpf4jnsgd1na2vs0mg"},{"bike_id":"937c90ec-cf04-465b-97b2-ee54435829e8","system_id":"levelo_inurba_marseille","lat":43.301974,"lon":5.366212,"is_reserved":false,"is_disabled":true,"rental_uris":{"android":"levelo://app?vid=937c90ec-cf04-465b-97b2-ee54435829e8","ios":"levelo://app?vid=937c90ec-cf04-465b-97b2-ee54435829e8"},"vehicle_type_id":"4","last_reported":1734430230,"current_range_meters":32400,"station_id":"","pricing_plan_id":"cebpf4jnsgd1na2vs0mg"},{"bike_id":"d663afee-b13c-40f4-881c-b7873bf86cad","system_id":"levelo_inurba_marseille","lat":43.30909,"lon":5.36858,"is_reserved":false,"is_disabled":false,"rental_uris":{"android":"levelo://app?vid=d663afee-b13c-40f4-881c-b7873bf86cad","ios":"levelo://app?vid=d663afee-b13c-40f4-881c-b7873bf86cad"},"vehicle_type_id":"4","last_reported":1734430230,"current_range_meters":28400,"station_id":"ce4bgn92rcd13ifvqbvg","pricing_plan_id":"cebpf4jnsgd1na2vs0mg"},{"bike_id":"85e6d22a-686d-40fe-a122-ac012b69ef9d","system_id":"levelo_inurba_marseille","lat":43.27492,"lon":5.42444,"is_reserved":false,"is_disabled":false,"rental_uris":{"android":"levelo://app?vid=85e6d22a-686d-40fe-a122-ac012b69ef9d","ios":"levelo://app?vid=85e6d22a-686d-40fe-a122-ac012b69ef9d"},"vehicle_type_id":"4","last_reported":1734430230,"current_range_meters":38400,"station_id":"ce4bhn92rcd13ifvqgrg","pricing_plan_id":"cebpf4jnsgd1na2vs0mg"},{"bike_id":"af50809c-c0a7-46cc-a973-e44dee78efd4","system_id":"levelo_inurba_marseille","lat":43.24166,"lon":5.39735,"is_reserved":false,"is_disabled":false,"rental_uris":{"android":"levelo://app?vid=af50809c-c0a7-46cc-a973-e44dee78efd4","ios":"levelo://app?vid=af50809c-c0a7-46cc-a973-e44dee78efd4"},"vehicle_type_id":"4","last_reported":1734430230,"current_range_meters":38800,"station_id":"ce4bhn12rcd13ifvqgpg","pricing_plan_id":"cebpf4jnsgd1na2vs0mg"},{"bike_id":"7e8161db-b04a-40cb-98b7-5e4f9c1c5a8c","system_id":"levelo_inurba_marseille","lat":43.30917,"lon":5.36856,"is_reserved":false,"is_disabled":false,"rental_uris":{"android":"levelo://app?vid=7e8161db-b04a-40cb-98b7-5e4f9c1c5a8c","ios":"levelo://app?vid=7e8161db-b04a-40cb-98b7-5e4f9c1c5a8c"},"vehicle_type_id":"4","last_reported":1734430230,"current_range_meters":32400,"station_id":"ce4bgn92rcd13ifvqbvg","pricing_plan_id":"cebpf4jnsgd1na2vs0mg"},{"bike_id":"dc0e6df7-295d-4e62-8939-9c7a9d49b036","system_id":"levelo_inurba_marseille","lat":43.30032,"lon":5.41231,"is_reserved":false,"is_disabled":true,"rental_uris":{"android":"levelo://app?vid=dc0e6df7-295d-4e62-8939-9c7a9d49b036","ios":"levelo://app?vid=dc0e6df7-295d-4e62-8939-9c7a9d49b036"},"vehicle_type_id":"4","last_reported":1734430230,"current_range_meters":30400,"station_id":"","pricing_plan_id":"cebpf4jnsgd1na2vs0mg"},{"bike_id":"7a5ffb90-db1f-4139-bce2-4f1860ad3559","system_id":"levelo_inurba_marseille","lat":43.3051,"lon":5.36719,"is_reserved":false,"is_disabled":false,"rental_uris":{"android":"levelo://app?vid=7a5ffb90-db1f-4139-bce2-4f1860ad3559","ios":"levelo://app?vid=7a5ffb90-db1f-4139-bce2-4f1860ad3559"},"vehicle_type_id":"4","last_reported":1734430230,"current_range_meters":38800,"station_id":"ce4bgrp2rcd13ifvqc9g","pricing_plan_id":"cebpf4jnsgd1na2vs0mg"},{"bike_id":"0dba4919-5f90-4467-a457-68db4473569c","system_id":"levelo_inurba_marseille","lat":43.32536,"lon":5.41463,"is_reserved":false,"is_disabled":true,"rental_uris":{"android":"levelo://app?vid=0dba4919-5f90-4467-a457-68db4473569c","ios":"levelo://app?vid=0dba4919-5f90-4467-a457-68db4473569c"},"vehicle_type_id":"4","last_reported":1734430230,"current_range_meters":33600,"station_id":"ce4bhq12rcd13ifvqhhg","pricing_plan_id":"cebpf4jnsgd1na2vs0mg"},{"bike_id":"d2d0ef7a-738a-4025-b86d-99f472add6b4","system_id":"levelo_inurba_marseille","lat":43.24648,"lon":5.38898,"is_reserved":false,"is_disabled":false,"rental_uris":{"android":"levelo://app?vid=d2d0ef7a-738a-4025-b86d-99f472add6b4","ios":"levelo://app?vid=d2d0ef7a-738a-4025-b86d-99f472add6b4"},"vehicle_type_id":"4","last_reported":1734430230,"current_range_meters":28400,"station_id":"ce4bhg12rcd13ifvqf60","pricing_plan_id":"cebpf4jnsgd1na2vs0mg"},{"bike_id":"d159f797-9811-4fb4-a3e8-37da34d17c4b","system_id":"levelo_inurba_marseille","lat":43.30534,"lon":5.365342,"is_reserved":false,"is_disabled":false,"rental_uris":{"android":"levelo://app?vid=d159f797-9811-4fb4-a3e8-37da34d17c4b","ios":"levelo://app?vid=d159f797-9811-4fb4-a3e8-37da34d17c4b"},"vehicle_type_id":"4","last_reported":1734430230,"current_range_meters":38800,"station_id":"ce4bgs12rcd13ifvqcag","pricing_plan_id":"cebpf4jnsgd1na2vs0mg"},{"bike_id":"162477b8-da33-4d9d-be45-0af1a3229da1","system_id":"levelo_inurba_marseille","lat":43.29679,"lon":5.37291,"is_reserved":false,"is_disabled":false,"rental_uris":{"android":"levelo://app?vid=162477b8-da33-4d9d-be45-0af1a3229da1","ios":"levelo://app?vid=162477b8-da33-4d9d-be45-0af1a3229da1"},"vehicle_type_id":"4","last_reported":1734430230,"current_range_meters":38400,"station_id":"ce4bgk12rcd13ifvqbj0","pricing_plan_id":"cebpf4jnsgd1na2vs0mg"},{"bike_id":"ea1ee0a0-f240-4d25-84d9-e6fb6fc7a18c","system_id":"levelo_inurba_marseille","lat":43.3378,"lon":5.42089,"is_reserved":false,"is_disabled":true,"rental_uris":{"android":"levelo://app?vid=ea1ee0a0-f240-4d25-84d9-e6fb6fc7a18c","ios":"levelo://app?vid=ea1ee0a0-f240-4d25-84d9-e6fb6fc7a18c"},"vehicle_type_id":"4","last_reported":1734430230,"current_range_meters":0,"station_id":"","pricing_plan_id":"cebpf4jnsgd1na2vs0mg"},{"bike_id":"146a42e3-1081-443f-8946-09f94a81a402","system_id":"levelo_inurba_marseille","lat":43.262082,"lon":5.374477,"is_reserved":false,"is_disabled":false,"rental_uris":{"android":"levelo://app?vid=146a42e3-1081-443f-8946-09f94a81a402","ios":"levelo://app?vid=146a42e3-1081-443f-8946-09f94a81a402"},"vehicle_type_id":"4","last_reported":1734430230,"current_range_meters":38000,"station_id":"ce4bhgp2rcd13ifvqfc0","pricing_plan_id":"cebpf4jnsgd1na2vs0mg"},{"bike_id":"01cbc605-bac0-4657-80b3-483498d41154","system_id":"levelo_inurba_marseille","lat":43.30152,"lon":5.38078,"is_reserved":false,"is_disabled":false,"rental_uris":{"android":"levelo://app?vid=01cbc605-bac0-4657-80b3-483498d41154","ios":"levelo://app?vid=01cbc605-bac0-4657-80b3-483498d41154"},"vehicle_type_id":"4","last_reported":1734430230,"current_range_meters":20000,"station_id":"ce4bgjp2rcd13ifvqbh0","pricing_plan_id":"cebpf4jnsgd1na2vs0mg"},{"bike_id":"a2f60cbb-aa02-4530-92a3-7597251e95e4","system_id":"levelo_inurba_marseille","lat":43.26668,"lon":5.38229,"is_reserved":false,"is_disabled":false,"rental_uris":{"android":"levelo://app?vid=a2f60cbb-aa02-4530-92a3-7597251e95e4","ios":"levelo://app?vid=a2f60cbb-aa02-4530-92a3-7597251e95e4"},"vehicle_type_id":"4","last_reported":1734430230,"current_range_meters":35600,"station_id":"ce4bhg92rcd13ifvqf90","pricing_plan_id":"cebpf4jnsgd1na2vs0mg"},{"bike_id":"f7e69d34-8828-4052-8df7-8abcee80b6b2","system_id":"levelo_inurba_marseille","lat":43.240858,"lon":5.377492,"is_reserved":false,"is_disabled":false,"rental_uris":{"android":"levelo://app?vid=f7e69d34-8828-4052-8df7-8abcee80b6b2","ios":"levelo://app?vid=f7e69d34-8828-4052-8df7-8abcee80b6b2"},"vehicle_type_id":"4","last_reported":1734430230,"current_range_meters":38800,"station_id":"ce4bhnp2rcd13ifvqgvg","pricing_plan_id":"cebpf4jnsgd1na2vs0mg"},{"bike_id":"00f694cf-3a25-43bc-a129-dfeee772a105","system_id":"levelo_inurba_marseille","lat":43.27052,"lon":5.40261,"is_reserved":false,"is_disabled":false,"rental_uris":{"android":"levelo://app?vid=00f694cf-3a25-43bc-a129-dfeee772a105","ios":"levelo://app?vid=00f694cf-3a25-43bc-a129-dfeee772a105"},"vehicle_type_id":"4","last_reported":1734430230,"current_range_meters":25600,"station_id":"ce4bhk92rcd13ifvqgc0","pricing_plan_id":"cebpf4jnsgd1na2vs0mg"},{"bike_id":"fec44f43-c388-4de9-96f2-4289a3cc705a","system_id":"levelo_inurba_marseille","lat":43.29633,"lon":5.3715,"is_reserved":false,"is_disabled":true,"rental_uris":{"android":"levelo://app?vid=fec44f43-c388-4de9-96f2-4289a3cc705a","ios":"levelo://app?vid=fec44f43-c388-4de9-96f2-4289a3cc705a"},"vehicle_type_id":"4","last_reported":1734430230,"current_range_meters":38800,"station_id":"ce4bh0p2rcd13ifvqd70","pricing_plan_id":"cebpf4jnsgd1na2vs0mg"},{"bike_id":"80ca011d-d32d-497e-852b-b59a8111cbf4","system_id":"levelo_inurba_marseille","lat":43.26654,"lon":5.38273,"is_reserved":false,"is_disabled":false,"rental_uris":{"android":"levelo://app?vid=80ca011d-d32d-497e-852b-b59a8111cbf4","ios":"levelo://app?vid=80ca011d-d32d-497e-852b-b59a8111cbf4"},"vehicle_type_id":"4","last_reported":1734430230,"current_range_meters":28000,"station_id":"ce4bhg92rcd13ifvqf90","pricing_plan_id":"cebpf4jnsgd1na2vs0mg"},{"bike_id":"4929c3a1-f254-4987-9192-3d43ca2722a8","system_id":"levelo_inurba_marseille","lat":43.3116,"lon":5.38719,"is_reserved":false,"is_disabled":false,"rental_uris":{"android":"levelo://app?vid=4929c3a1-f254-4987-9192-3d43ca2722a8","ios":"levelo://app?vid=4929c3a1-f254-4987-9192-3d43ca2722a8"},"vehicle_type_id":"4","last_reported":1734430230,"current_range_meters":16800,"station_id":"ce4bgv12rcd13ifvqcp0","pricing_plan_id":"cebpf4jnsgd1na2vs0mg"},{"bike_id":"ee42b594-c814-417e-9015-47da108b4afb","system_id":"levelo_inurba_marseille","lat":43.30907,"lon":5.36844,"is_reserved":false,"is_disabled":false,"rental_uris":{"android":"levelo://app?vid=ee42b594-c814-417e-9015-47da108b4afb","ios":"levelo://app?vid=ee42b594-c814-417e-9015-47da108b4afb"},"vehicle_type_id":"4","last_reported":1734430230,"current_range_meters":35600,"station_id":"ce4bgn92rcd13ifvqbvg","pricing_plan_id":"cebpf4jnsgd1na2vs0mg"},{"bike_id":"cd9c4237-357e-43dd-87ea-b819a10fbb0e","system_id":"levelo_inurba_marseille","lat":43.30449,"lon":5.379,"is_reserved":false,"is_disabled":true,"rental_uris":{"android":"levelo://app?vid=cd9c4237-357e-43dd-87ea-b819a10fbb0e","ios":"levelo://app?vid=cd9c4237-357e-43dd-87ea-b819a10fbb0e"},"vehicle_type_id":"4","last_reported":1734430230,"current_range_meters":0,"station_id":"ce4bgup2rcd13ifvqcn0","pricing_plan_id":"cebpf4jnsgd1na2vs0mg"},{"bike_id":"33f85b2c-94af-459b-8409-cc8cf3a6d228","system_id":"levelo_inurba_marseille","lat":43.26698,"lon":5.38276,"is_reserved":false,"is_disabled":false,"rental_uris":{"android":"levelo://app?vid=33f85b2c-94af-459b-8409-cc8cf3a6d228","ios":"levelo://app?vid=33f85b2c-94af-459b-8409-cc8cf3a6d228"},"vehicle_type_id":"4","last_reported":1734430230,"current_range_meters":19200,"station_id":"ce4bhg92rcd13ifvqf90","pricing_plan_id":"cebpf4jnsgd1na2vs0mg"},{"bike_id":"c4f1da37-0960-4a66-af96-9019e459648e","system_id":"levelo_inurba_marseille","lat":43.2656,"lon":5.37285,"is_reserved":false,"is_disabled":false,"rental_uris":{"android":"levelo://app?vid=c4f1da37-0960-4a66-af96-9019e459648e","ios":"levelo://app?vid=c4f1da37-0960-4a66-af96-9019e459648e"},"vehicle_type_id":"4","last_reported":1734430230,"current_range_meters":36800,"station_id":"ce4bhg12rcd13ifvqf70","pricing_plan_id":"cebpf4jnsgd1na2vs0mg"},{"bike_id":"fc18fbaa-0ae0-4bf9-b7a7-2dfffbaf1f58","system_id":"levelo_inurba_marseille","lat":43.301,"lon":5.39079,"is_reserved":false,"is_disabled":false,"rental_uris":{"android":"levelo://app?vid=fc18fbaa-0ae0-4bf9-b7a7-2dfffbaf1f58","ios":"levelo://app?vid=fc18fbaa-0ae0-4bf9-b7a7-2dfffbaf1f58"},"vehicle_type_id":"4","last_reported":1734430230,"current_range_meters":28800,"station_id":"ce4bh192rcd13ifvqdb0","pricing_plan_id":"cebpf4jnsgd1na2vs0mg"},{"bike_id":"db42c0f5-45c0-4ec5-af34-75b6b7142a73","system_id":"levelo_inurba_marseille","lat":43.30352,"lon":5.41892,"is_reserved":false,"is_disabled":false,"rental_uris":{"android":"levelo://app?vid=db42c0f5-45c0-4ec5-af34-75b6b7142a73","ios":"levelo://app?vid=db42c0f5-45c0-4ec5-af34-75b6b7142a73"},"vehicle_type_id":"4","last_reported":1734430230,"current_range_meters":38800,"station_id":"ce4bhop2rcd13ifvqh7g","pricing_plan_id":"cebpf4jnsgd1na2vs0mg"},{"bike_id":"7a79d496-5769-4e52-84b3-365d5c06a0ed","system_id":"levelo_inurba_marseille","lat":43.29019,"lon":5.37575,"is_reserved":false,"is_disabled":false,"rental_uris":{"android":"levelo://app?vid=7a79d496-5769-4e52-84b3-365d5c06a0ed","ios":"levelo://app?vid=7a79d496-5769-4e52-84b3-365d5c06a0ed"},"vehicle_type_id":"4","last_reported":1734430230,"current_range_meters":38800,"station_id":"ce4bh692rcd13ifvqe90","pricing_plan_id":"cebpf4jnsgd1na2vs0mg"},{"bike_id":"d95b5929-d9bd-4e45-8d48-6054291d86a5","system_id":"levelo_inurba_marseille","lat":43.23128,"lon":5.43732,"is_reserved":false,"is_disabled":true,"rental_uris":{"android":"levelo://app?vid=d95b5929-d9bd-4e45-8d48-6054291d86a5","ios":"levelo://app?vid=d95b5929-d9bd-4e45-8d48-6054291d86a5"},"vehicle_type_id":"4","last_reported":1734430230,"current_range_meters":0,"station_id":"ce4bhmp2rcd13ifvqgog","pricing_plan_id":"cebpf4jnsgd1na2vs0mg"},{"bike_id":"18cb3e79-9874-4dfd-8dcf-20f9175efa1f","system_id":"levelo_inurba_marseille","lat":43.26025,"lon":5.37553,"is_reserved":false,"is_disabled":false,"rental_uris":{"android":"levelo://app?vid=18cb3e79-9874-4dfd-8dcf-20f9175efa1f","ios":"levelo://app?vid=18cb3e79-9874-4dfd-8dcf-20f9175efa1f"},"vehicle_type_id":"4","last_reported":1734430230,"current_range_meters":38800,"station_id":"ce4bhgh2rcd13ifvqfa0","pricing_plan_id":"cebpf4jnsgd1na2vs0mg"},{"bike_id":"fd1ab650-2cfe-4d5f-8d1c-51cc6bc3a9b4","system_id":"levelo_inurba_marseille","lat":43.26784,"lon":5.3941,"is_reserved":false,"is_disabled":false,"rental_uris":{"android":"levelo://app?vid=fd1ab650-2cfe-4d5f-8d1c-51cc6bc3a9b4","ios":"levelo://app?vid=fd1ab650-2cfe-4d5f-8d1c-51cc6bc3a9b4"},"vehicle_type_id":"4","last_reported":1734430230,"current_range_meters":33200,"station_id":"ce4bhh12rcd13ifvqfg0","pricing_plan_id":"cebpf4jnsgd1na2vs0mg"},{"bike_id":"382bfc4e-8106-42e8-9236-354181fb5cad","system_id":"levelo_inurba_marseille","lat":43.3137,"lon":5.385,"is_reserved":false,"is_disabled":false,"rental_uris":{"android":"levelo://app?vid=382bfc4e-8106-42e8-9236-354181fb5cad","ios":"levelo://app?vid=382bfc4e-8106-42e8-9236-354181fb5cad"},"vehicle_type_id":"4","last_reported":1734430230,"current_range_meters":38800,"station_id":"ce4bgt92rcd13ifvqcf0","pricing_plan_id":"cebpf4jnsgd1na2vs0mg"},{"bike_id":"f4e8f060-7ff3-45ce-8eeb-d502cfc1d324","system_id":"levelo_inurba_marseille","lat":43.28939,"lon":5.36628,"is_reserved":false,"is_disabled":false,"rental_uris":{"android":"levelo://app?vid=f4e8f060-7ff3-45ce-8eeb-d502cfc1d324","ios":"levelo://app?vid=f4e8f060-7ff3-45ce-8eeb-d502cfc1d324"},"vehicle_type_id":"4","last_reported":1734430230,"current_range_meters":26000,"station_id":"ce4bhap2rcd13ifvqek0","pricing_plan_id":"cebpf4jnsgd1na2vs0mg"},{"bike_id":"2efe5cd0-3061-4c4f-877d-3ab1d5f8411e","system_id":"levelo_inurba_marseille","lat":43.30528,"lon":5.3652,"is_reserved":false,"is_disabled":false,"rental_uris":{"android":"levelo://app?vid=2efe5cd0-3061-4c4f-877d-3ab1d5f8411e","ios":"levelo://app?vid=2efe5cd0-3061-4c4f-877d-3ab1d5f8411e"},"vehicle_type_id":"4","last_reported":1734430230,"current_range_meters":38800,"station_id":"ce4bgs12rcd13ifvqcag","pricing_plan_id":"cebpf4jnsgd1na2vs0mg"},{"bike_id":"f15daedf-d3bc-4270-a7f1-1cc1f93a1e7f","system_id":"levelo_inurba_marseille","lat":43.27492,"lon":5.42437,"is_reserved":false,"is_disabled":false,"rental_uris":{"android":"levelo://app?vid=f15daedf-d3bc-4270-a7f1-1cc1f93a1e7f","ios":"levelo://app?vid=f15daedf-d3bc-4270-a7f1-1cc1f93a1e7f"},"vehicle_type_id":"4","last_reported":1734430230,"current_range_meters":6400,"station_id":"ce4bhn92rcd13ifvqgrg","pricing_plan_id":"cebpf4jnsgd1na2vs0mg"},{"bike_id":"6be42052-7353-4c0e-8fd4-f0e791f5b5ef","system_id":"levelo_inurba_marseille","lat":43.2861,"lon":5.35106,"is_reserved":false,"is_disabled":false,"rental_uris":{"android":"levelo://app?vid=6be42052-7353-4c0e-8fd4-f0e791f5b5ef","ios":"levelo://app?vid=6be42052-7353-4c0e-8fd4-f0e791f5b5ef"},"vehicle_type_id":"4","last_reported":1734430230,"current_range_meters":24800,"station_id":"ce4bhch2rcd13ifvqeug","pricing_plan_id":"cebpf4jnsgd1na2vs0mg"},{"bike_id":"d92d7831-65b6-4cd3-b0e7-e057b0b33c02","system_id":"levelo_inurba_marseille","lat":43.29713,"lon":5.37712,"is_reserved":false,"is_disabled":false,"rental_uris":{"android":"levelo://app?vid=d92d7831-65b6-4cd3-b0e7-e057b0b33c02","ios":"levelo://app?vid=d92d7831-65b6-4cd3-b0e7-e057b0b33c02"},"vehicle_type_id":"4","last_reported":1734430230,"current_range_meters":9600,"station_id":"ce4bgkh2rcd13ifvqbl0","pricing_plan_id":"cebpf4jnsgd1na2vs0mg"},{"bike_id":"6d5d4483-1d56-424f-a960-f8190e42890c","system_id":"levelo_inurba_marseille","lat":43.27184,"lon":5.40992,"is_reserved":false,"is_disabled":true,"rental_uris":{"android":"levelo://app?vid=6d5d4483-1d56-424f-a960-f8190e42890c","ios":"levelo://app?vid=6d5d4483-1d56-424f-a960-f8190e42890c"},"vehicle_type_id":"4","last_reported":1734430230,"current_range_meters":11200,"station_id":"ce4bhl12rcd13ifvqgf0","pricing_plan_id":"cebpf4jnsgd1na2vs0mg"},{"bike_id":"6685d166-2998-4e69-8231-b733dfdb918e","system_id":"levelo_inurba_marseille","lat":43.26679,"lon":5.38266,"is_reserved":false,"is_disabled":false,"rental_uris":{"android":"levelo://app?vid=6685d166-2998-4e69-8231-b733dfdb918e","ios":"levelo://app?vid=6685d166-2998-4e69-8231-b733dfdb918e"},"vehicle_type_id":"4","last_reported":1734430230,"current_range_meters":23200,"station_id":"ce4bhg92rcd13ifvqf90","pricing_plan_id":"cebpf4jnsgd1na2vs0mg"},{"bike_id":"a74e2f2e-5305-46cf-a4a9-9eb5976ad548","system_id":"levelo_inurba_marseille","lat":43.27898,"lon":5.39598,"is_reserved":false,"is_disabled":false,"rental_uris":{"android":"levelo://app?vid=a74e2f2e-5305-46cf-a4a9-9eb5976ad548","ios":"levelo://app?vid=a74e2f2e-5305-46cf-a4a9-9eb5976ad548"},"vehicle_type_id":"4","last_reported":1734430230,"current_range_meters":5600,"station_id":"ce4bhf92rcd13ifvqf40","pricing_plan_id":"cebpf4jnsgd1na2vs0mg"},{"bike_id":"67b8fb37-58ea-498b-8732-22a3a491a250","system_id":"levelo_inurba_marseille","lat":43.24386,"lon":5.37048,"is_reserved":false,"is_disabled":false,"rental_uris":{"android":"levelo://app?vid=67b8fb37-58ea-498b-8732-22a3a491a250","ios":"levelo://app?vid=67b8fb37-58ea-498b-8732-22a3a491a250"},"vehicle_type_id":"4","last_reported":1734430230,"current_range_meters":38800,"station_id":"ce4bhhh2rcd13ifvqfk0","pricing_plan_id":"cebpf4jnsgd1na2vs0mg"},{"bike_id":"94486c75-00f7-41da-8797-6de13a7bb0fc","system_id":"levelo_inurba_marseille","lat":43.30453,"lon":5.38906,"is_reserved":false,"is_disabled":true,"rental_uris":{"android":"levelo://app?vid=94486c75-00f7-41da-8797-6de13a7bb0fc","ios":"levelo://app?vid=94486c75-00f7-41da-8797-6de13a7bb0fc"},"vehicle_type_id":"4","last_reported":1734430230,"current_range_meters":24000,"station_id":"ce4bgk12rcd13ifvqbi0","pricing_plan_id":"cebpf4jnsgd1na2vs0mg"},{"bike_id":"ca15d5c7-c86b-4f93-82a5-8c6edfe3f73d","system_id":"levelo_inurba_marseille","lat":43.29552,"lon":5.42281,"is_reserved":false,"is_disabled":false,"rental_uris":{"android":"levelo://app?vid=ca15d5c7-c86b-4f93-82a5-8c6edfe3f73d","ios":"levelo://app?vid=ca15d5c7-c86b-4f93-82a5-8c6edfe3f73d"},"vehicle_type_id":"4","last_reported":1734430230,"current_range_meters":8400,"station_id":"ce4bhph2rcd13ifvqhdg","pricing_plan_id":"cebpf4jnsgd1na2vs0mg"},{"bike_id":"ee4fe79c-c520-4959-ae99-c940903a93fa","system_id":"levelo_inurba_marseille","lat":43.27209,"lon":5.39182,"is_reserved":false,"is_disabled":false,"rental_uris":{"android":"levelo://app?vid=ee4fe79c-c520-4959-ae99-c940903a93fa","ios":"levelo://app?vid=ee4fe79c-c520-4959-ae99-c940903a93fa"},"vehicle_type_id":"4","last_reported":1734430230,"current_range_meters":16800,"station_id":"ce4bhhp2rcd13ifvqfm0","pricing_plan_id":"cebpf4jnsgd1na2vs0mg"},{"bike_id":"a17d8a24-cf75-44f7-a3d7-fb5b6312e49a","system_id":"levelo_inurba_marseille","lat":43.26778,"lon":5.39418,"is_reserved":false,"is_disabled":false,"rental_uris":{"android":"levelo://app?vid=a17d8a24-cf75-44f7-a3d7-fb5b6312e49a","ios":"levelo://app?vid=a17d8a24-cf75-44f7-a3d7-fb5b6312e49a"},"vehicle_type_id":"4","last_reported":1734430230,"current_range_meters":30800,"station_id":"ce4bhh12rcd13ifvqfg0","pricing_plan_id":"cebpf4jnsgd1na2vs0mg"},{"bike_id":"1edec296-68f8-4b8c-9970-7e72e454b854","system_id":"levelo_inurba_marseille","lat":43.30949,"lon":5.3903,"is_reserved":false,"is_disabled":false,"rental_uris":{"android":"levelo://app?vid=1edec296-68f8-4b8c-9970-7e72e454b854","ios":"levelo://app?vid=1edec296-68f8-4b8c-9970-7e72e454b854"},"vehicle_type_id":"4","last_reported":1734430230,"current_range_meters":10800,"station_id":"ce4bgup2rcd13ifvqco0","pricing_plan_id":"cebpf4jnsgd1na2vs0mg"},{"bike_id":"e4792bb6-9e6d-483a-a5ae-2b1904da6da2","system_id":"levelo_inurba_marseille","lat":43.30536,"lon":5.36702,"is_reserved":false,"is_disabled":false,"rental_uris":{"android":"levelo://app?vid=e4792bb6-9e6d-483a-a5ae-2b1904da6da2","ios":"levelo://app?vid=e4792bb6-9e6d-483a-a5ae-2b1904da6da2"},"vehicle_type_id":"4","last_reported":1734430230,"current_range_meters":36400,"station_id":"ce4bgrp2rcd13ifvqc9g","pricing_plan_id":"cebpf4jnsgd1na2vs0mg"},{"bike_id":"e985f49e-0349-487b-874f-13d929802c6a","system_id":"levelo_inurba_marseille","lat":43.29005,"lon":5.35617,"is_reserved":false,"is_disabled":false,"rental_uris":{"android":"levelo://app?vid=e985f49e-0349-487b-874f-13d929802c6a","ios":"levelo://app?vid=e985f49e-0349-487b-874f-13d929802c6a"},"vehicle_type_id":"4","last_reported":1734430230,"current_range_meters":36800,"station_id":"ce4bhb92rcd13ifvqen0","pricing_plan_id":"cebpf4jnsgd1na2vs0mg"},{"bike_id":"782bcbf2-b7de-4b04-bebc-aaa0329dd90c","system_id":"levelo_inurba_marseille","lat":43.23192,"lon":5.35557,"is_reserved":false,"is_disabled":false,"rental_uris":{"android":"levelo://app?vid=782bcbf2-b7de-4b04-bebc-aaa0329dd90c","ios":"levelo://app?vid=782bcbf2-b7de-4b04-bebc-aaa0329dd90c"},"vehicle_type_id":"4","last_reported":1734430230,"current_range_meters":39200,"station_id":"ce4bhu92rcd13ifvqi70","pricing_plan_id":"cebpf4jnsgd1na2vs0mg"},{"bike_id":"a925316d-9d31-43b0-a430-5cb1bef87372","system_id":"levelo_inurba_marseille","lat":43.2718,"lon":5.40992,"is_reserved":false,"is_disabled":false,"rental_uris":{"android":"levelo://app?vid=a925316d-9d31-43b0-a430-5cb1bef87372","ios":"levelo://app?vid=a925316d-9d31-43b0-a430-5cb1bef87372"},"vehicle_type_id":"4","last_reported":1734430230,"current_range_meters":25600,"station_id":"ce4bhl12rcd13ifvqgf0","pricing_plan_id":"cebpf4jnsgd1na2vs0mg"},{"bike_id":"540c19ab-e8ac-4092-909b-c3e5069b6978","system_id":"levelo_inurba_marseille","lat":43.337444,"lon":5.374475,"is_reserved":false,"is_disabled":true,"rental_uris":{"android":"levelo://app?vid=540c19ab-e8ac-4092-909b-c3e5069b6978","ios":"levelo://app?vid=540c19ab-e8ac-4092-909b-c3e5069b6978"},"vehicle_type_id":"4","last_reported":1734430230,"current_range_meters":0,"station_id":"","pricing_plan_id":"cebpf4jnsgd1na2vs0mg"},{"bike_id":"ba12455c-57e1-4da7-9845-cefbaf6a06ed","system_id":"levelo_inurba_marseille","lat":43.28847,"lon":5.358457,"is_reserved":false,"is_disabled":true,"rental_uris":{"android":"levelo://app?vid=ba12455c-57e1-4da7-9845-cefbaf6a06ed","ios":"levelo://app?vid=ba12455c-57e1-4da7-9845-cefbaf6a06ed"},"vehicle_type_id":"4","last_reported":1734430230,"current_range_meters":800,"station_id":"ce4bhb12rcd13ifvqem0","pricing_plan_id":"cebpf4jnsgd1na2vs0mg"},{"bike_id":"c7faf4d1-2749-45d7-8164-23a8ed263c9c","system_id":"levelo_inurba_marseille","lat":43.30645,"lon":5.40106,"is_reserved":false,"is_disabled":false,"rental_uris":{"android":"levelo://app?vid=c7faf4d1-2749-45d7-8164-23a8ed263c9c","ios":"levelo://app?vid=c7faf4d1-2749-45d7-8164-23a8ed263c9c"},"vehicle_type_id":"4","last_reported":1734430230,"current_range_meters":38800,"station_id":"ce4bh112rcd13ifvqda0","pricing_plan_id":"cebpf4jnsgd1na2vs0mg"},{"bike_id":"e1bacc09-ef87-4ae3-9a72-2d7da1edc268","system_id":"levelo_inurba_marseille","lat":43.29303,"lon":5.37156,"is_reserved":false,"is_disabled":false,"rental_uris":{"android":"levelo://app?vid=e1bacc09-ef87-4ae3-9a72-2d7da1edc268","ios":"levelo://app?vid=e1bacc09-ef87-4ae3-9a72-2d7da1edc268"},"vehicle_type_id":"4","last_reported":1734430230,"current_range_meters":28400,"station_id":"ce4bgh92rcd13ifvqb40","pricing_plan_id":"cebpf4jnsgd1na2vs0mg"},{"bike_id":"62a16437-72da-45dc-9af6-6cc13519cf1b","system_id":"levelo_inurba_marseille","lat":43.29591,"lon":5.3675,"is_reserved":false,"is_disabled":true,"rental_uris":{"android":"levelo://app?vid=62a16437-72da-45dc-9af6-6cc13519cf1b","ios":"levelo://app?vid=62a16437-72da-45dc-9af6-6cc13519cf1b"},"vehicle_type_id":"4","last_reported":1734430230,"current_range_meters":38800,"station_id":"ce4bgph2rcd13ifvqc2g","pricing_plan_id":"cebpf4jnsgd1na2vs0mg"},{"bike_id":"0a25e016-1189-4887-a2b1-8e4bf9fd5606","system_id":"levelo_inurba_marseille","lat":43.31265,"lon":5.40171,"is_reserved":false,"is_disabled":false,"rental_uris":{"android":"levelo://app?vid=0a25e016-1189-4887-a2b1-8e4bf9fd5606","ios":"levelo://app?vid=0a25e016-1189-4887-a2b1-8e4bf9fd5606"},"vehicle_type_id":"4","last_reported":1734430230,"current_range_meters":28000,"station_id":"ce4bh092rcd13ifvqd30","pricing_plan_id":"cebpf4jnsgd1na2vs0mg"},{"bike_id":"5b9dadf4-f3ef-496a-933f-556a1442196c","system_id":"levelo_inurba_marseille","lat":43.27943,"lon":5.41046,"is_reserved":false,"is_disabled":false,"rental_uris":{"android":"levelo://app?vid=5b9dadf4-f3ef-496a-933f-556a1442196c","ios":"levelo://app?vid=5b9dadf4-f3ef-496a-933f-556a1442196c"},"vehicle_type_id":"4","last_reported":1734430230,"current_range_meters":11600,"station_id":"ce4bhnp2rcd13ifvqh0g","pricing_plan_id":"cebpf4jnsgd1na2vs0mg"},{"bike_id":"6440d92a-2c08-4c14-a219-1c528079799e","system_id":"levelo_inurba_marseille","lat":43.29004,"lon":5.35615,"is_reserved":false,"is_disabled":false,"rental_uris":{"android":"levelo://app?vid=6440d92a-2c08-4c14-a219-1c528079799e","ios":"levelo://app?vid=6440d92a-2c08-4c14-a219-1c528079799e"},"vehicle_type_id":"4","last_reported":1734430230,"current_range_meters":30400,"station_id":"ce4bhb92rcd13ifvqen0","pricing_plan_id":"cebpf4jnsgd1na2vs0mg"},{"bike_id":"d4b8fd6a-8db4-4412-b950-920b26686b75","system_id":"levelo_inurba_marseille","lat":43.25717,"lon":5.41114,"is_reserved":false,"is_disabled":false,"rental_uris":{"android":"levelo://app?vid=d4b8fd6a-8db4-4412-b950-920b26686b75","ios":"levelo://app?vid=d4b8fd6a-8db4-4412-b950-920b26686b75"},"vehicle_type_id":"4","last_reported":1734430230,"current_range_meters":38800,"station_id":"ce4bhkp2rcd13ifvqgd0","pricing_plan_id":"cebpf4jnsgd1na2vs0mg"},{"bike_id":"6b34f46a-24ff-4228-81fb-a49aa77f94e7","system_id":"levelo_inurba_marseille","lat":43.28457,"lon":5.38417,"is_reserved":false,"is_disabled":false,"rental_uris":{"android":"levelo://app?vid=6b34f46a-24ff-4228-81fb-a49aa77f94e7","ios":"levelo://app?vid=6b34f46a-24ff-4228-81fb-a49aa77f94e7"},"vehicle_type_id":"4","last_reported":1734430230,"current_range_meters":37600,"station_id":"ce4bh512rcd13ifvqe3g","pricing_plan_id":"cebpf4jnsgd1na2vs0mg"},{"bike_id":"a1cff14c-d2c0-444e-8558-5e5da8e4b5c4","system_id":"levelo_inurba_marseille","lat":43.30421,"lon":5.39749,"is_reserved":false,"is_disabled":false,"rental_uris":{"android":"levelo://app?vid=a1cff14c-d2c0-444e-8558-5e5da8e4b5c4","ios":"levelo://app?vid=a1cff14c-d2c0-444e-8558-5e5da8e4b5c4"},"vehicle_type_id":"4","last_reported":1734430230,"current_range_meters":38800,"station_id":"ce4bh092rcd13ifvqd20","pricing_plan_id":"cebpf4jnsgd1na2vs0mg"},{"bike_id":"a512b00d-0ece-4908-8090-be8edc9dbfdf","system_id":"levelo_inurba_marseille","lat":43.30944,"lon":5.3679,"is_reserved":false,"is_disabled":false,"rental_uris":{"android":"levelo://app?vid=a512b00d-0ece-4908-8090-be8edc9dbfdf","ios":"levelo://app?vid=a512b00d-0ece-4908-8090-be8edc9dbfdf"},"vehicle_type_id":"4","last_reported":1734430230,"current_range_meters":25600,"station_id":"ce4bgn92rcd13ifvqbvg","pricing_plan_id":"cebpf4jnsgd1na2vs0mg"},{"bike_id":"e82f4bcc-e8c7-45fb-935b-84f0ae3e27c2","system_id":"levelo_inurba_marseille","lat":43.24543,"lon":5.3953,"is_reserved":false,"is_disabled":false,"rental_uris":{"android":"levelo://app?vid=e82f4bcc-e8c7-45fb-935b-84f0ae3e27c2","ios":"levelo://app?vid=e82f4bcc-e8c7-45fb-935b-84f0ae3e27c2"},"vehicle_type_id":"4","last_reported":1734430230,"current_range_meters":31200,"station_id":"ce4bhlp2rcd13ifvqgjg","pricing_plan_id":"cebpf4jnsgd1na2vs0mg"},{"bike_id":"ddbbfe5d-94ec-4ed2-8677-23a6e78f43c1","system_id":"levelo_inurba_marseille","lat":43.25584,"lon":5.38234,"is_reserved":false,"is_disabled":false,"rental_uris":{"android":"levelo://app?vid=ddbbfe5d-94ec-4ed2-8677-23a6e78f43c1","ios":"levelo://app?vid=ddbbfe5d-94ec-4ed2-8677-23a6e78f43c1"},"vehicle_type_id":"4","last_reported":1734430230,"current_range_meters":30400,"station_id":"ce4bhih2rcd13ifvqfs0","pricing_plan_id":"cebpf4jnsgd1na2vs0mg"},{"bike_id":"0759478d-8962-4d43-8206-3454e81b4bc5","system_id":"levelo_inurba_marseille","lat":43.30709,"lon":5.36814,"is_reserved":false,"is_disabled":false,"rental_uris":{"android":"levelo://app?vid=0759478d-8962-4d43-8206-3454e81b4bc5","ios":"levelo://app?vid=0759478d-8962-4d43-8206-3454e81b4bc5"},"vehicle_type_id":"4","last_reported":1734430230,"current_range_meters":10800,"station_id":"","pricing_plan_id":"cebpf4jnsgd1na2vs0mg"},{"bike_id":"2fb756ce-2e49-4f8c-a203-f7605ef4b232","system_id":"levelo_inurba_marseille","lat":43.24645,"lon":5.38887,"is_reserved":false,"is_disabled":false,"rental_uris":{"android":"levelo://app?vid=2fb756ce-2e49-4f8c-a203-f7605ef4b232","ios":"levelo://app?vid=2fb756ce-2e49-4f8c-a203-f7605ef4b232"},"vehicle_type_id":"4","last_reported":1734430230,"current_range_meters":15200,"station_id":"ce4bhg12rcd13ifvqf60","pricing_plan_id":"cebpf4jnsgd1na2vs0mg"},{"bike_id":"c096fd4b-e881-4158-a46f-38ce1c416d1d","system_id":"levelo_inurba_marseille","lat":43.324839,"lon":5.36564,"is_reserved":false,"is_disabled":true,"rental_uris":{"android":"levelo://app?vid=c096fd4b-e881-4158-a46f-38ce1c416d1d","ios":"levelo://app?vid=c096fd4b-e881-4158-a46f-38ce1c416d1d"},"vehicle_type_id":"4","last_reported":1734430230,"current_range_meters":38800,"station_id":"ce4bhs12rcd13ifvqhvg","pricing_plan_id":"cebpf4jnsgd1na2vs0mg"},{"bike_id":"e570e38a-85d6-4b1d-89e9-03facfda4fdf","system_id":"levelo_inurba_marseille","lat":43.30507,"lon":5.36692,"is_reserved":false,"is_disabled":false,"rental_uris":{"android":"levelo://app?vid=e570e38a-85d6-4b1d-89e9-03facfda4fdf","ios":"levelo://app?vid=e570e38a-85d6-4b1d-89e9-03facfda4fdf"},"vehicle_type_id":"4","last_reported":1734430230,"current_range_meters":28400,"station_id":"ce4bgrp2rcd13ifvqc9g","pricing_plan_id":"cebpf4jnsgd1na2vs0mg"},{"bike_id":"7e1ea073-627a-434f-baa4-9373e72dcd62","system_id":"levelo_inurba_marseille","lat":43.31366,"lon":5.38501,"is_reserved":false,"is_disabled":false,"rental_uris":{"android":"levelo://app?vid=7e1ea073-627a-434f-baa4-9373e72dcd62","ios":"levelo://app?vid=7e1ea073-627a-434f-baa4-9373e72dcd62"},"vehicle_type_id":"4","last_reported":1734430230,"current_range_meters":32800,"station_id":"ce4bgt92rcd13ifvqcf0","pricing_plan_id":"cebpf4jnsgd1na2vs0mg"},{"bike_id":"63b972ac-79d3-401e-a211-4de6f7ea11b5","system_id":"levelo_inurba_marseille","lat":43.31351,"lon":5.36708,"is_reserved":false,"is_disabled":false,"rental_uris":{"android":"levelo://app?vid=63b972ac-79d3-401e-a211-4de6f7ea11b5","ios":"levelo://app?vid=63b972ac-79d3-401e-a211-4de6f7ea11b5"},"vehicle_type_id":"4","last_reported":1734430230,"current_range_meters":16000,"station_id":"ce4bgr92rcd13ifvqc6g","pricing_plan_id":"cebpf4jnsgd1na2vs0mg"},{"bike_id":"71989ed0-0b50-4d50-bd28-7fbcff9710c1","system_id":"levelo_inurba_marseille","lat":43.2465,"lon":5.38896,"is_reserved":false,"is_disabled":false,"rental_uris":{"android":"levelo://app?vid=71989ed0-0b50-4d50-bd28-7fbcff9710c1","ios":"levelo://app?vid=71989ed0-0b50-4d50-bd28-7fbcff9710c1"},"vehicle_type_id":"4","last_reported":1734430230,"current_range_meters":16800,"station_id":"ce4bhg12rcd13ifvqf60","pricing_plan_id":"cebpf4jnsgd1na2vs0mg"},{"bike_id":"ca1cea99-57b3-4dac-a5bc-b5ca0136e7aa","system_id":"levelo_inurba_marseille","lat":43.30529,"lon":5.3653,"is_reserved":false,"is_disabled":false,"rental_uris":{"android":"levelo://app?vid=ca1cea99-57b3-4dac-a5bc-b5ca0136e7aa","ios":"levelo://app?vid=ca1cea99-57b3-4dac-a5bc-b5ca0136e7aa"},"vehicle_type_id":"4","last_reported":1734430230,"current_range_meters":38800,"station_id":"ce4bgs12rcd13ifvqcag","pricing_plan_id":"cebpf4jnsgd1na2vs0mg"},{"bike_id":"94fa7a48-d01a-4c85-8ce8-5db4c055f1c9","system_id":"levelo_inurba_marseille","lat":43.29201,"lon":5.39933,"is_reserved":false,"is_disabled":false,"rental_uris":{"android":"levelo://app?vid=94fa7a48-d01a-4c85-8ce8-5db4c055f1c9","ios":"levelo://app?vid=94fa7a48-d01a-4c85-8ce8-5db4c055f1c9"},"vehicle_type_id":"4","last_reported":1734430230,"current_range_meters":12400,"station_id":"","pricing_plan_id":"cebpf4jnsgd1na2vs0mg"},{"bike_id":"140b7c77-450d-4ce4-8982-6cc405fe0924","system_id":"levelo_inurba_marseille","lat":43.27981,"lon":5.41664,"is_reserved":false,"is_disabled":false,"rental_uris":{"android":"levelo://app?vid=140b7c77-450d-4ce4-8982-6cc405fe0924","ios":"levelo://app?vid=140b7c77-450d-4ce4-8982-6cc405fe0924"},"vehicle_type_id":"4","last_reported":1734430230,"current_range_meters":26800,"station_id":"ce4bho12rcd13ifvqh1g","pricing_plan_id":"cebpf4jnsgd1na2vs0mg"},{"bike_id":"95ebe174-9d63-4177-8bfa-51e08f99db47","system_id":"levelo_inurba_marseille","lat":43.27741,"lon":5.38879,"is_reserved":false,"is_disabled":true,"rental_uris":{"android":"levelo://app?vid=95ebe174-9d63-4177-8bfa-51e08f99db47","ios":"levelo://app?vid=95ebe174-9d63-4177-8bfa-51e08f99db47"},"vehicle_type_id":"4","last_reported":1734430230,"current_range_meters":38800,"station_id":"","pricing_plan_id":"cebpf4jnsgd1na2vs0mg"},{"bike_id":"215c2ee6-5c55-4293-823f-ab36743cf925","system_id":"levelo_inurba_marseille","lat":43.26542,"lon":5.37335,"is_reserved":false,"is_disabled":false,"rental_uris":{"android":"levelo://app?vid=215c2ee6-5c55-4293-823f-ab36743cf925","ios":"levelo://app?vid=215c2ee6-5c55-4293-823f-ab36743cf925"},"vehicle_type_id":"4","last_reported":1734430230,"current_range_meters":27600,"station_id":"ce4bhg12rcd13ifvqf70","pricing_plan_id":"cebpf4jnsgd1na2vs0mg"},{"bike_id":"cdb0b79b-c747-49ec-9c4e-a338d34cf2bb","system_id":"levelo_inurba_marseille","lat":43.26195,"lon":5.37922,"is_reserved":false,"is_disabled":false,"rental_uris":{"android":"levelo://app?vid=cdb0b79b-c747-49ec-9c4e-a338d34cf2bb","ios":"levelo://app?vid=cdb0b79b-c747-49ec-9c4e-a338d34cf2bb"},"vehicle_type_id":"4","last_reported":1734430230,"current_range_meters":36000,"station_id":"ce4bhjp2rcd13ifvqg90","pricing_plan_id":"cebpf4jnsgd1na2vs0mg"},{"bike_id":"e7003594-66f3-4f16-8a8f-22796d18fc63","system_id":"levelo_inurba_marseille","lat":43.30527,"lon":5.3653,"is_reserved":false,"is_disabled":false,"rental_uris":{"android":"levelo://app?vid=e7003594-66f3-4f16-8a8f-22796d18fc63","ios":"levelo://app?vid=e7003594-66f3-4f16-8a8f-22796d18fc63"},"vehicle_type_id":"4","last_reported":1734430230,"current_range_meters":39200,"station_id":"ce4bgs12rcd13ifvqcag","pricing_plan_id":"cebpf4jnsgd1na2vs0mg"},{"bike_id":"6cdb4950-1b7e-4415-abc4-2362b7e51082","system_id":"levelo_inurba_marseille","lat":43.324826,"lon":5.365608,"is_reserved":false,"is_disabled":false,"rental_uris":{"android":"levelo://app?vid=6cdb4950-1b7e-4415-abc4-2362b7e51082","ios":"levelo://app?vid=6cdb4950-1b7e-4415-abc4-2362b7e51082"},"vehicle_type_id":"4","last_reported":1734430230,"current_range_meters":38800,"station_id":"ce4bhs12rcd13ifvqhvg","pricing_plan_id":"cebpf4jnsgd1na2vs0mg"},{"bike_id":"0b3b9222-07b8-447e-9c22-23221cec3e45","system_id":"levelo_inurba_marseille","lat":43.30307,"lon":5.36902,"is_reserved":false,"is_disabled":false,"rental_uris":{"android":"levelo://app?vid=0b3b9222-07b8-447e-9c22-23221cec3e45","ios":"levelo://app?vid=0b3b9222-07b8-447e-9c22-23221cec3e45"},"vehicle_type_id":"4","last_reported":1734430230,"current_range_meters":35200,"station_id":"ce4bgqh2rcd13ifvqc5g","pricing_plan_id":"cebpf4jnsgd1na2vs0mg"},{"bike_id":"f3119a5e-7ee6-4d78-845a-d1f2e2cabe36","system_id":"levelo_inurba_marseille","lat":43.28664,"lon":5.3635,"is_reserved":false,"is_disabled":false,"rental_uris":{"android":"levelo://app?vid=f3119a5e-7ee6-4d78-845a-d1f2e2cabe36","ios":"levelo://app?vid=f3119a5e-7ee6-4d78-845a-d1f2e2cabe36"},"vehicle_type_id":"4","last_reported":1734430230,"current_range_meters":23200,"station_id":"ce4bhah2rcd13ifvqej0","pricing_plan_id":"cebpf4jnsgd1na2vs0mg"},{"bike_id":"4b6e1560-ae0a-4c4e-adbf-8263ae29060d","system_id":"levelo_inurba_marseille","lat":43.27052,"lon":5.40261,"is_reserved":false,"is_disabled":false,"rental_uris":{"android":"levelo://app?vid=4b6e1560-ae0a-4c4e-adbf-8263ae29060d","ios":"levelo://app?vid=4b6e1560-ae0a-4c4e-adbf-8263ae29060d"},"vehicle_type_id":"4","last_reported":1734430230,"current_range_meters":13600,"station_id":"ce4bhk92rcd13ifvqgc0","pricing_plan_id":"cebpf4jnsgd1na2vs0mg"},{"bike_id":"20ea503d-5e12-4fb4-af5c-d40361cb7a04","system_id":"levelo_inurba_marseille","lat":43.24548,"lon":5.39525,"is_reserved":false,"is_disabled":false,"rental_uris":{"android":"levelo://app?vid=20ea503d-5e12-4fb4-af5c-d40361cb7a04","ios":"levelo://app?vid=20ea503d-5e12-4fb4-af5c-d40361cb7a04"},"vehicle_type_id":"4","last_reported":1734430230,"current_range_meters":17200,"station_id":"ce4bhlp2rcd13ifvqgjg","pricing_plan_id":"cebpf4jnsgd1na2vs0mg"},{"bike_id":"ec2ad4b9-df76-47ce-b357-d0ad056250eb","system_id":"levelo_inurba_marseille","lat":43.29037,"lon":5.37562,"is_reserved":false,"is_disabled":false,"rental_uris":{"android":"levelo://app?vid=ec2ad4b9-df76-47ce-b357-d0ad056250eb","ios":"levelo://app?vid=ec2ad4b9-df76-47ce-b357-d0ad056250eb"},"vehicle_type_id":"4","last_reported":1734430230,"current_range_meters":36800,"station_id":"ce4bh692rcd13ifvqe90","pricing_plan_id":"cebpf4jnsgd1na2vs0mg"},{"bike_id":"9327ea68-7a87-40f3-94ea-0b43155a6148","system_id":"levelo_inurba_marseille","lat":43.24072,"lon":5.37762,"is_reserved":false,"is_disabled":false,"rental_uris":{"android":"levelo://app?vid=9327ea68-7a87-40f3-94ea-0b43155a6148","ios":"levelo://app?vid=9327ea68-7a87-40f3-94ea-0b43155a6148"},"vehicle_type_id":"4","last_reported":1734430230,"current_range_meters":38000,"station_id":"ce4bhnp2rcd13ifvqgvg","pricing_plan_id":"cebpf4jnsgd1na2vs0mg"},{"bike_id":"645c7daf-6ef1-4c01-8904-078f4b7bafd4","system_id":"levelo_inurba_marseille","lat":43.29608,"lon":5.37734,"is_reserved":false,"is_disabled":true,"rental_uris":{"android":"levelo://app?vid=645c7daf-6ef1-4c01-8904-078f4b7bafd4","ios":"levelo://app?vid=645c7daf-6ef1-4c01-8904-078f4b7bafd4"},"vehicle_type_id":"4","last_reported":1734430230,"current_range_meters":0,"station_id":"ce4bgi92rcd13ifvqb90","pricing_plan_id":"cebpf4jnsgd1na2vs0mg"},{"bike_id":"ecc92a4b-6d16-4860-bc04-550f608dd01d","system_id":"levelo_inurba_marseille","lat":43.30314,"lon":5.36906,"is_reserved":false,"is_disabled":false,"rental_uris":{"android":"levelo://app?vid=ecc92a4b-6d16-4860-bc04-550f608dd01d","ios":"levelo://app?vid=ecc92a4b-6d16-4860-bc04-550f608dd01d"},"vehicle_type_id":"4","last_reported":1734430230,"current_range_meters":26800,"station_id":"ce4bgqh2rcd13ifvqc5g","pricing_plan_id":"cebpf4jnsgd1na2vs0mg"},{"bike_id":"cb71125f-f15f-4cf9-9db3-a382db86e685","system_id":"levelo_inurba_marseille","lat":43.29783,"lon":5.37098,"is_reserved":false,"is_disabled":true,"rental_uris":{"android":"levelo://app?vid=cb71125f-f15f-4cf9-9db3-a382db86e685","ios":"levelo://app?vid=cb71125f-f15f-4cf9-9db3-a382db86e685"},"vehicle_type_id":"4","last_reported":1734430230,"current_range_meters":35200,"station_id":"ce4bgop2rcd13ifvqc1g","pricing_plan_id":"cebpf4jnsgd1na2vs0mg"},{"bike_id":"7e23e9cb-b6ee-4233-9e4a-321349524cc3","system_id":"levelo_inurba_marseille","lat":43.32485,"lon":5.36561,"is_reserved":false,"is_disabled":false,"rental_uris":{"android":"levelo://app?vid=7e23e9cb-b6ee-4233-9e4a-321349524cc3","ios":"levelo://app?vid=7e23e9cb-b6ee-4233-9e4a-321349524cc3"},"vehicle_type_id":"4","last_reported":1734430230,"current_range_meters":34000,"station_id":"ce4bhs12rcd13ifvqhvg","pricing_plan_id":"cebpf4jnsgd1na2vs0mg"},{"bike_id":"9ecf799a-8322-4531-9a6a-9b11f6d255a4","system_id":"levelo_inurba_marseille","lat":43.297,"lon":5.37714,"is_reserved":false,"is_disabled":false,"rental_uris":{"android":"levelo://app?vid=9ecf799a-8322-4531-9a6a-9b11f6d255a4","ios":"levelo://app?vid=9ecf799a-8322-4531-9a6a-9b11f6d255a4"},"vehicle_type_id":"4","last_reported":1734430230,"current_range_meters":24400,"station_id":"ce4bgkh2rcd13ifvqbl0","pricing_plan_id":"cebpf4jnsgd1na2vs0mg"},{"bike_id":"8d75bee7-b5cd-4a79-9029-cbc9cb1e0eb4","system_id":"levelo_inurba_marseille","lat":43.32471,"lon":5.36565,"is_reserved":false,"is_disabled":false,"rental_uris":{"android":"levelo://app?vid=8d75bee7-b5cd-4a79-9029-cbc9cb1e0eb4","ios":"levelo://app?vid=8d75bee7-b5cd-4a79-9029-cbc9cb1e0eb4"},"vehicle_type_id":"4","last_reported":1734430230,"current_range_meters":36000,"station_id":"ce4bhs12rcd13ifvqhvg","pricing_plan_id":"cebpf4jnsgd1na2vs0mg"},{"bike_id":"bb337245-7c41-4671-900b-a4d92ae562c6","system_id":"levelo_inurba_marseille","lat":43.29538,"lon":5.39031,"is_reserved":false,"is_disabled":true,"rental_uris":{"android":"levelo://app?vid=bb337245-7c41-4671-900b-a4d92ae562c6","ios":"levelo://app?vid=bb337245-7c41-4671-900b-a4d92ae562c6"},"vehicle_type_id":"4","last_reported":1734430230,"current_range_meters":6400,"station_id":"ce4bh3p2rcd13ifvqdp0","pricing_plan_id":"cebpf4jnsgd1na2vs0mg"},{"bike_id":"a46d6562-18eb-473a-bb8c-ff9b321a857a","system_id":"levelo_inurba_marseille","lat":43.32519,"lon":5.41447,"is_reserved":false,"is_disabled":false,"rental_uris":{"android":"levelo://app?vid=a46d6562-18eb-473a-bb8c-ff9b321a857a","ios":"levelo://app?vid=a46d6562-18eb-473a-bb8c-ff9b321a857a"},"vehicle_type_id":"4","last_reported":1734430230,"current_range_meters":26800,"station_id":"ce4bhq12rcd13ifvqhhg","pricing_plan_id":"cebpf4jnsgd1na2vs0mg"},{"bike_id":"5a1ccfa8-0852-4ba1-a859-7ecb0bb82a2b","system_id":"levelo_inurba_marseille","lat":43.29615,"lon":5.37167,"is_reserved":false,"is_disabled":false,"rental_uris":{"android":"levelo://app?vid=5a1ccfa8-0852-4ba1-a859-7ecb0bb82a2b","ios":"levelo://app?vid=5a1ccfa8-0852-4ba1-a859-7ecb0bb82a2b"},"vehicle_type_id":"4","last_reported":1734430230,"current_range_meters":39200,"station_id":"ce4bgnh2rcd13ifvqc0g","pricing_plan_id":"cebpf4jnsgd1na2vs0mg"},{"bike_id":"dc4bde75-52ec-4c1c-8084-afa3c20d4608","system_id":"levelo_inurba_marseille","lat":43.30877,"lon":5.39647,"is_reserved":false,"is_disabled":false,"rental_uris":{"android":"levelo://app?vid=dc4bde75-52ec-4c1c-8084-afa3c20d4608","ios":"levelo://app?vid=dc4bde75-52ec-4c1c-8084-afa3c20d4608"},"vehicle_type_id":"4","last_reported":1734430230,"current_range_meters":34000,"station_id":"ce4bh012rcd13ifvqcv0","pricing_plan_id":"cebpf4jnsgd1na2vs0mg"},{"bike_id":"8581049f-4c13-4689-a676-8eee36d3fcce","system_id":"levelo_inurba_marseille","lat":43.273215,"lon":5.390775,"is_reserved":false,"is_disabled":false,"rental_uris":{"android":"levelo://app?vid=8581049f-4c13-4689-a676-8eee36d3fcce","ios":"levelo://app?vid=8581049f-4c13-4689-a676-8eee36d3fcce"},"vehicle_type_id":"4","last_reported":1734430230,"current_range_meters":32800,"station_id":"ce4bhgp2rcd13ifvqfe0","pricing_plan_id":"cebpf4jnsgd1na2vs0mg"},{"bike_id":"afd25d54-ae74-43f9-a617-2bfd110605b9","system_id":"levelo_inurba_marseille","lat":43.27485,"lon":5.4245,"is_reserved":false,"is_disabled":false,"rental_uris":{"android":"levelo://app?vid=afd25d54-ae74-43f9-a617-2bfd110605b9","ios":"levelo://app?vid=afd25d54-ae74-43f9-a617-2bfd110605b9"},"vehicle_type_id":"4","last_reported":1734430230,"current_range_meters":8800,"station_id":"ce4bhn92rcd13ifvqgrg","pricing_plan_id":"cebpf4jnsgd1na2vs0mg"},{"bike_id":"60479ea3-250b-46d3-868d-6f2f92f28d99","system_id":"levelo_inurba_marseille","lat":43.26509,"lon":5.39519,"is_reserved":false,"is_disabled":false,"rental_uris":{"android":"levelo://app?vid=60479ea3-250b-46d3-868d-6f2f92f28d99","ios":"levelo://app?vid=60479ea3-250b-46d3-868d-6f2f92f28d99"},"vehicle_type_id":"4","last_reported":1734430230,"current_range_meters":10000,"station_id":"ce4bhi12rcd13ifvqfq0","pricing_plan_id":"cebpf4jnsgd1na2vs0mg"},{"bike_id":"44ff8e7d-1339-43c2-b508-1f594ee49259","system_id":"levelo_inurba_marseille","lat":43.27911,"lon":5.39574,"is_reserved":false,"is_disabled":false,"rental_uris":{"android":"levelo://app?vid=44ff8e7d-1339-43c2-b508-1f594ee49259","ios":"levelo://app?vid=44ff8e7d-1339-43c2-b508-1f594ee49259"},"vehicle_type_id":"4","last_reported":1734430230,"current_range_meters":38400,"station_id":"ce4bhf92rcd13ifvqf40","pricing_plan_id":"cebpf4jnsgd1na2vs0mg"},{"bike_id":"efad3903-21ac-4cd9-ba9c-bf70bc007e1e","system_id":"levelo_inurba_marseille","lat":43.30246,"lon":5.4008,"is_reserved":false,"is_disabled":true,"rental_uris":{"android":"levelo://app?vid=efad3903-21ac-4cd9-ba9c-bf70bc007e1e","ios":"levelo://app?vid=efad3903-21ac-4cd9-ba9c-bf70bc007e1e"},"vehicle_type_id":"4","last_reported":1734430230,"current_range_meters":33600,"station_id":"ce4bgvh2rcd13ifvqcs0","pricing_plan_id":"cebpf4jnsgd1na2vs0mg"},{"bike_id":"ff52c0f9-5bc3-4147-97cc-1c9a6030d599","system_id":"levelo_inurba_marseille","lat":43.27066,"lon":5.4026,"is_reserved":false,"is_disabled":false,"rental_uris":{"android":"levelo://app?vid=ff52c0f9-5bc3-4147-97cc-1c9a6030d599","ios":"levelo://app?vid=ff52c0f9-5bc3-4147-97cc-1c9a6030d599"},"vehicle_type_id":"4","last_reported":1734430230,"current_range_meters":38000,"station_id":"ce4bhk92rcd13ifvqgc0","pricing_plan_id":"cebpf4jnsgd1na2vs0mg"},{"bike_id":"e0038344-8ccf-4f7b-b6e2-f026a51ac57b","system_id":"levelo_inurba_marseille","lat":43.30882,"lon":5.39652,"is_reserved":false,"is_disabled":false,"rental_uris":{"android":"levelo://app?vid=e0038344-8ccf-4f7b-b6e2-f026a51ac57b","ios":"levelo://app?vid=e0038344-8ccf-4f7b-b6e2-f026a51ac57b"},"vehicle_type_id":"4","last_reported":1734430230,"current_range_meters":38000,"station_id":"ce4bh012rcd13ifvqcv0","pricing_plan_id":"cebpf4jnsgd1na2vs0mg"},{"bike_id":"6f4d7796-010c-412b-a86d-5cbad99253f0","system_id":"levelo_inurba_marseille","lat":43.27429,"lon":5.39423,"is_reserved":false,"is_disabled":false,"rental_uris":{"android":"levelo://app?vid=6f4d7796-010c-412b-a86d-5cbad99253f0","ios":"levelo://app?vid=6f4d7796-010c-412b-a86d-5cbad99253f0"},"vehicle_type_id":"4","last_reported":1734430230,"current_range_meters":30000,"station_id":"ce4bhdp2rcd13ifvqf20","pricing_plan_id":"cebpf4jnsgd1na2vs0mg"},{"bike_id":"eba901e5-0847-4fc0-b2b6-9eb1834c3e7a","system_id":"levelo_inurba_marseille","lat":43.2954,"lon":5.42283,"is_reserved":false,"is_disabled":true,"rental_uris":{"android":"levelo://app?vid=eba901e5-0847-4fc0-b2b6-9eb1834c3e7a","ios":"levelo://app?vid=eba901e5-0847-4fc0-b2b6-9eb1834c3e7a"},"vehicle_type_id":"4","last_reported":1734430230,"current_range_meters":0,"station_id":"ce4bhph2rcd13ifvqhdg","pricing_plan_id":"cebpf4jnsgd1na2vs0mg"},{"bike_id":"cb72b0e9-af1b-421e-a83d-520db76f99cc","system_id":"levelo_inurba_marseille","lat":43.30907,"lon":5.36853,"is_reserved":false,"is_disabled":false,"rental_uris":{"android":"levelo://app?vid=cb72b0e9-af1b-421e-a83d-520db76f99cc","ios":"levelo://app?vid=cb72b0e9-af1b-421e-a83d-520db76f99cc"},"vehicle_type_id":"4","last_reported":1734430230,"current_range_meters":24400,"station_id":"ce4bgn92rcd13ifvqbvg","pricing_plan_id":"cebpf4jnsgd1na2vs0mg"},{"bike_id":"4532d3ac-9337-4a68-9993-85eaf71067f9","system_id":"levelo_inurba_marseille","lat":43.29792,"lon":5.38093,"is_reserved":false,"is_disabled":false,"rental_uris":{"android":"levelo://app?vid=4532d3ac-9337-4a68-9993-85eaf71067f9","ios":"levelo://app?vid=4532d3ac-9337-4a68-9993-85eaf71067f9"},"vehicle_type_id":"4","last_reported":1734430230,"current_range_meters":24000,"station_id":"ce4bgip2rcd13ifvqbb0","pricing_plan_id":"cebpf4jnsgd1na2vs0mg"},{"bike_id":"f00a63f1-ffba-457a-93eb-7ff0315f6052","system_id":"levelo_inurba_marseille","lat":43.24667,"lon":5.38166,"is_reserved":false,"is_disabled":true,"rental_uris":{"android":"levelo://app?vid=f00a63f1-ffba-457a-93eb-7ff0315f6052","ios":"levelo://app?vid=f00a63f1-ffba-457a-93eb-7ff0315f6052"},"vehicle_type_id":"4","last_reported":1734430230,"current_range_meters":38000,"station_id":"ce4bhih2rcd13ifvqfr0","pricing_plan_id":"cebpf4jnsgd1na2vs0mg"},{"bike_id":"1b35c38b-b763-472e-ab0e-c507ff9dd034","system_id":"levelo_inurba_marseille","lat":43.26193,"lon":5.37444,"is_reserved":false,"is_disabled":false,"rental_uris":{"android":"levelo://app?vid=1b35c38b-b763-472e-ab0e-c507ff9dd034","ios":"levelo://app?vid=1b35c38b-b763-472e-ab0e-c507ff9dd034"},"vehicle_type_id":"4","last_reported":1734430230,"current_range_meters":36000,"station_id":"ce4bhgp2rcd13ifvqfc0","pricing_plan_id":"cebpf4jnsgd1na2vs0mg"},{"bike_id":"357496ad-ca9a-4100-b6b8-6905a2d42768","system_id":"levelo_inurba_marseille","lat":43.29005,"lon":5.35617,"is_reserved":false,"is_disabled":false,"rental_uris":{"android":"levelo://app?vid=357496ad-ca9a-4100-b6b8-6905a2d42768","ios":"levelo://app?vid=357496ad-ca9a-4100-b6b8-6905a2d42768"},"vehicle_type_id":"4","last_reported":1734430230,"current_range_meters":36000,"station_id":"ce4bhb92rcd13ifvqen0","pricing_plan_id":"cebpf4jnsgd1na2vs0mg"},{"bike_id":"5a2daf4b-5018-4575-b909-272bf976b2a3","system_id":"levelo_inurba_marseille","lat":43.30305,"lon":5.36909,"is_reserved":false,"is_disabled":false,"rental_uris":{"android":"levelo://app?vid=5a2daf4b-5018-4575-b909-272bf976b2a3","ios":"levelo://app?vid=5a2daf4b-5018-4575-b909-272bf976b2a3"},"vehicle_type_id":"4","last_reported":1734430230,"current_range_meters":27200,"station_id":"ce4bgqh2rcd13ifvqc5g","pricing_plan_id":"cebpf4jnsgd1na2vs0mg"},{"bike_id":"491c9d1e-d534-4418-8bdc-23649286cf0b","system_id":"levelo_inurba_marseille","lat":43.24389,"lon":5.37063,"is_reserved":false,"is_disabled":false,"rental_uris":{"android":"levelo://app?vid=491c9d1e-d534-4418-8bdc-23649286cf0b","ios":"levelo://app?vid=491c9d1e-d534-4418-8bdc-23649286cf0b"},"vehicle_type_id":"4","last_reported":1734430230,"current_range_meters":29600,"station_id":"ce4bhhh2rcd13ifvqfk0","pricing_plan_id":"cebpf4jnsgd1na2vs0mg"},{"bike_id":"a1c1fbba-9f8b-4e55-a7e6-e3031108193b","system_id":"levelo_inurba_marseille","lat":43.29841,"lon":5.36264,"is_reserved":false,"is_disabled":false,"rental_uris":{"android":"levelo://app?vid=a1c1fbba-9f8b-4e55-a7e6-e3031108193b","ios":"levelo://app?vid=a1c1fbba-9f8b-4e55-a7e6-e3031108193b"},"vehicle_type_id":"4","last_reported":1734430230,"current_range_meters":38800,"station_id":"ce4bgpp2rcd13ifvqc3g","pricing_plan_id":"cebpf4jnsgd1na2vs0mg"},{"bike_id":"96e2bfe0-396c-449a-89d2-45310e000184","system_id":"levelo_inurba_marseille","lat":43.27675,"lon":5.38899,"is_reserved":false,"is_disabled":true,"rental_uris":{"android":"levelo://app?vid=96e2bfe0-396c-449a-89d2-45310e000184","ios":"levelo://app?vid=96e2bfe0-396c-449a-89d2-45310e000184"},"vehicle_type_id":"4","last_reported":1734430230,"current_range_meters":30800,"station_id":"ce4bhi12rcd13ifvqfo0","pricing_plan_id":"cebpf4jnsgd1na2vs0mg"},{"bike_id":"8323bf76-e10b-4b0d-ad44-019751e77865","system_id":"levelo_inurba_marseille","lat":43.30466,"lon":5.37904,"is_reserved":false,"is_disabled":false,"rental_uris":{"android":"levelo://app?vid=8323bf76-e10b-4b0d-ad44-019751e77865","ios":"levelo://app?vid=8323bf76-e10b-4b0d-ad44-019751e77865"},"vehicle_type_id":"4","last_reported":1734430230,"current_range_meters":37600,"station_id":"ce4bgup2rcd13ifvqcn0","pricing_plan_id":"cebpf4jnsgd1na2vs0mg"},{"bike_id":"b35c22b6-d843-48cc-b013-9cf85618d5d2","system_id":"levelo_inurba_marseille","lat":43.27422,"lon":5.42527,"is_reserved":false,"is_disabled":false,"rental_uris":{"android":"levelo://app?vid=b35c22b6-d843-48cc-b013-9cf85618d5d2","ios":"levelo://app?vid=b35c22b6-d843-48cc-b013-9cf85618d5d2"},"vehicle_type_id":"4","last_reported":1734430230,"current_range_meters":28800,"station_id":"","pricing_plan_id":"cebpf4jnsgd1na2vs0mg"},{"bike_id":"628ebc57-49da-4537-b862-e631ecd1aef0","system_id":"levelo_inurba_marseille","lat":43.28424,"lon":5.34997,"is_reserved":false,"is_disabled":false,"rental_uris":{"android":"levelo://app?vid=628ebc57-49da-4537-b862-e631ecd1aef0","ios":"levelo://app?vid=628ebc57-49da-4537-b862-e631ecd1aef0"},"vehicle_type_id":"4","last_reported":1734430230,"current_range_meters":36800,"station_id":"ce4bhbh2rcd13ifvqepg","pricing_plan_id":"cebpf4jnsgd1na2vs0mg"},{"bike_id":"76b85fd9-94a8-4d27-9836-3b405519d0c6","system_id":"levelo_inurba_marseille","lat":43.26952,"lon":5.38632,"is_reserved":false,"is_disabled":true,"rental_uris":{"android":"levelo://app?vid=76b85fd9-94a8-4d27-9836-3b405519d0c6","ios":"levelo://app?vid=76b85fd9-94a8-4d27-9836-3b405519d0c6"},"vehicle_type_id":"4","last_reported":1734430230,"current_range_meters":36800,"station_id":"ce4bhh92rcd13ifvqfh0","pricing_plan_id":"cebpf4jnsgd1na2vs0mg"},{"bike_id":"d7555f75-e3a4-4132-831d-4d469450cbaf","system_id":"levelo_inurba_marseille","lat":43.30183,"lon":5.36605,"is_reserved":false,"is_disabled":false,"rental_uris":{"android":"levelo://app?vid=d7555f75-e3a4-4132-831d-4d469450cbaf","ios":"levelo://app?vid=d7555f75-e3a4-4132-831d-4d469450cbaf"},"vehicle_type_id":"4","last_reported":1734430230,"current_range_meters":22400,"station_id":"ce4bgrh2rcd13ifvqc8g","pricing_plan_id":"cebpf4jnsgd1na2vs0mg"},{"bike_id":"1656f9ab-fd26-4a85-868e-4a7e014a2c11","system_id":"levelo_inurba_marseille","lat":43.30271,"lon":5.37698,"is_reserved":false,"is_disabled":false,"rental_uris":{"android":"levelo://app?vid=1656f9ab-fd26-4a85-868e-4a7e014a2c11","ios":"levelo://app?vid=1656f9ab-fd26-4a85-868e-4a7e014a2c11"},"vehicle_type_id":"4","last_reported":1734430230,"current_range_meters":37600,"station_id":"ce4bguh2rcd13ifvqcj0","pricing_plan_id":"cebpf4jnsgd1na2vs0mg"},{"bike_id":"76cd01b6-e882-46bc-bc57-b1b40fc28a5e","system_id":"levelo_inurba_marseille","lat":43.25085,"lon":5.39529,"is_reserved":false,"is_disabled":false,"rental_uris":{"android":"levelo://app?vid=76cd01b6-e882-46bc-bc57-b1b40fc28a5e","ios":"levelo://app?vid=76cd01b6-e882-46bc-bc57-b1b40fc28a5e"},"vehicle_type_id":"4","last_reported":1734430230,"current_range_meters":33200,"station_id":"ce4bhm12rcd13ifvqgkg","pricing_plan_id":"cebpf4jnsgd1na2vs0mg"},{"bike_id":"d283b9e9-469d-4791-9530-ca9134c5a01e","system_id":"levelo_inurba_marseille","lat":43.27059,"lon":5.4027,"is_reserved":false,"is_disabled":false,"rental_uris":{"android":"levelo://app?vid=d283b9e9-469d-4791-9530-ca9134c5a01e","ios":"levelo://app?vid=d283b9e9-469d-4791-9530-ca9134c5a01e"},"vehicle_type_id":"4","last_reported":1734430230,"current_range_meters":27600,"station_id":"ce4bhk92rcd13ifvqgc0","pricing_plan_id":"cebpf4jnsgd1na2vs0mg"},{"bike_id":"8260ede8-ac66-4a56-bba5-bb99589211b3","system_id":"levelo_inurba_marseille","lat":43.30306,"lon":5.40423,"is_reserved":false,"is_disabled":false,"rental_uris":{"android":"levelo://app?vid=8260ede8-ac66-4a56-bba5-bb99589211b3","ios":"levelo://app?vid=8260ede8-ac66-4a56-bba5-bb99589211b3"},"vehicle_type_id":"4","last_reported":1734430230,"current_range_meters":38800,"station_id":"ce4bh012rcd13ifvqd10","pricing_plan_id":"cebpf4jnsgd1na2vs0mg"},{"bike_id":"3efdec17-64da-40d2-8462-4d5ce1797b2e","system_id":"levelo_inurba_marseille","lat":43.269433,"lon":5.386303,"is_reserved":false,"is_disabled":false,"rental_uris":{"android":"levelo://app?vid=3efdec17-64da-40d2-8462-4d5ce1797b2e","ios":"levelo://app?vid=3efdec17-64da-40d2-8462-4d5ce1797b2e"},"vehicle_type_id":"4","last_reported":1734430230,"current_range_meters":21600,"station_id":"ce4bhh92rcd13ifvqfh0","pricing_plan_id":"cebpf4jnsgd1na2vs0mg"},{"bike_id":"6f8392b8-dc79-45d6-a5f6-87062623c3af","system_id":"levelo_inurba_marseille","lat":43.24805,"lon":5.37457,"is_reserved":false,"is_disabled":false,"rental_uris":{"android":"levelo://app?vid=6f8392b8-dc79-45d6-a5f6-87062623c3af","ios":"levelo://app?vid=6f8392b8-dc79-45d6-a5f6-87062623c3af"},"vehicle_type_id":"4","last_reported":1734430230,"current_range_meters":39200,"station_id":"ce4bhgh2rcd13ifvqfb0","pricing_plan_id":"cebpf4jnsgd1na2vs0mg"},{"bike_id":"b3c803b8-48d9-435d-9a51-01ddee3fbce2","system_id":"levelo_inurba_marseille","lat":43.2885,"lon":5.35847,"is_reserved":false,"is_disabled":false,"rental_uris":{"android":"levelo://app?vid=b3c803b8-48d9-435d-9a51-01ddee3fbce2","ios":"levelo://app?vid=b3c803b8-48d9-435d-9a51-01ddee3fbce2"},"vehicle_type_id":"4","last_reported":1734430230,"current_range_meters":38800,"station_id":"ce4bhb12rcd13ifvqem0","pricing_plan_id":"cebpf4jnsgd1na2vs0mg"},{"bike_id":"670adf65-263b-48f2-a7fe-0f3ce2ac126c","system_id":"levelo_inurba_marseille","lat":43.26934,"lon":5.4026,"is_reserved":false,"is_disabled":false,"rental_uris":{"android":"levelo://app?vid=670adf65-263b-48f2-a7fe-0f3ce2ac126c","ios":"levelo://app?vid=670adf65-263b-48f2-a7fe-0f3ce2ac126c"},"vehicle_type_id":"4","last_reported":1734430230,"current_range_meters":38000,"station_id":"cjm6bp8fraef2m0cb0m0","pricing_plan_id":"cebpf4jnsgd1na2vs0mg"},{"bike_id":"1932cd64-6f99-4e16-99e6-db78f393fdb9","system_id":"levelo_inurba_marseille","lat":43.29307,"lon":5.37172,"is_reserved":false,"is_disabled":false,"rental_uris":{"android":"levelo://app?vid=1932cd64-6f99-4e16-99e6-db78f393fdb9","ios":"levelo://app?vid=1932cd64-6f99-4e16-99e6-db78f393fdb9"},"vehicle_type_id":"4","last_reported":1734430230,"current_range_meters":19200,"station_id":"ce4bgh92rcd13ifvqb40","pricing_plan_id":"cebpf4jnsgd1na2vs0mg"},{"bike_id":"5ddaa923-2930-4172-a73b-d154671112ec","system_id":"levelo_inurba_marseille","lat":43.30095,"lon":5.39084,"is_reserved":false,"is_disabled":false,"rental_uris":{"android":"levelo://app?vid=5ddaa923-2930-4172-a73b-d154671112ec","ios":"levelo://app?vid=5ddaa923-2930-4172-a73b-d154671112ec"},"vehicle_type_id":"4","last_reported":1734430230,"current_range_meters":38800,"station_id":"ce4bh192rcd13ifvqdb0","pricing_plan_id":"cebpf4jnsgd1na2vs0mg"},{"bike_id":"ebef13cd-16d0-4396-9ebc-078adb879fe9","system_id":"levelo_inurba_marseille","lat":43.298418,"lon":5.362665,"is_reserved":false,"is_disabled":false,"rental_uris":{"android":"levelo://app?vid=ebef13cd-16d0-4396-9ebc-078adb879fe9","ios":"levelo://app?vid=ebef13cd-16d0-4396-9ebc-078adb879fe9"},"vehicle_type_id":"4","last_reported":1734430230,"current_range_meters":38000,"station_id":"ce4bgpp2rcd13ifvqc3g","pricing_plan_id":"cebpf4jnsgd1na2vs0mg"},{"bike_id":"49576a8e-1c5a-4635-86b7-1f78190e351d","system_id":"levelo_inurba_marseille","lat":43.30978,"lon":5.40125,"is_reserved":false,"is_disabled":true,"rental_uris":{"android":"levelo://app?vid=49576a8e-1c5a-4635-86b7-1f78190e351d","ios":"levelo://app?vid=49576a8e-1c5a-4635-86b7-1f78190e351d"},"vehicle_type_id":"4","last_reported":1734430230,"current_range_meters":34000,"station_id":"ce4bgvp2rcd13ifvqct0","pricing_plan_id":"cebpf4jnsgd1na2vs0mg"},{"bike_id":"2145d229-7839-4ece-b3f9-3d679533add2","system_id":"levelo_inurba_marseille","lat":43.33746,"lon":5.374741,"is_reserved":false,"is_disabled":true,"rental_uris":{"android":"levelo://app?vid=2145d229-7839-4ece-b3f9-3d679533add2","ios":"levelo://app?vid=2145d229-7839-4ece-b3f9-3d679533add2"},"vehicle_type_id":"4","last_reported":1734430230,"current_range_meters":30000,"station_id":"","pricing_plan_id":"cebpf4jnsgd1na2vs0mg"},{"bike_id":"f0648bce-be14-4a18-bfde-65f1ef8de5f1","system_id":"levelo_inurba_marseille","lat":43.26936,"lon":5.38645,"is_reserved":false,"is_disabled":false,"rental_uris":{"android":"levelo://app?vid=f0648bce-be14-4a18-bfde-65f1ef8de5f1","ios":"levelo://app?vid=f0648bce-be14-4a18-bfde-65f1ef8de5f1"},"vehicle_type_id":"4","last_reported":1734430230,"current_range_meters":38800,"station_id":"ce4bhh92rcd13ifvqfh0","pricing_plan_id":"cebpf4jnsgd1na2vs0mg"},{"bike_id":"afb54eed-6863-4cc8-bba3-57e9d17b9d55","system_id":"levelo_inurba_marseille","lat":43.2835,"lon":5.38101,"is_reserved":false,"is_disabled":false,"rental_uris":{"android":"levelo://app?vid=afb54eed-6863-4cc8-bba3-57e9d17b9d55","ios":"levelo://app?vid=afb54eed-6863-4cc8-bba3-57e9d17b9d55"},"vehicle_type_id":"4","last_reported":1734430230,"current_range_meters":22000,"station_id":"ce4bh412rcd13ifvqdr0","pricing_plan_id":"cebpf4jnsgd1na2vs0mg"},{"bike_id":"8544c0a0-3510-415b-b7f1-615184cba56f","system_id":"levelo_inurba_marseille","lat":43.29471,"lon":5.36234,"is_reserved":false,"is_disabled":false,"rental_uris":{"android":"levelo://app?vid=8544c0a0-3510-415b-b7f1-615184cba56f","ios":"levelo://app?vid=8544c0a0-3510-415b-b7f1-615184cba56f"},"vehicle_type_id":"4","last_reported":1734430230,"current_range_meters":4800,"station_id":"","pricing_plan_id":"cebpf4jnsgd1na2vs0mg"},{"bike_id":"77f27944-d4b2-47b0-ae59-4bbc3c6af428","system_id":"levelo_inurba_marseille","lat":43.29031,"lon":5.39971,"is_reserved":false,"is_disabled":false,"rental_uris":{"android":"levelo://app?vid=77f27944-d4b2-47b0-ae59-4bbc3c6af428","ios":"levelo://app?vid=77f27944-d4b2-47b0-ae59-4bbc3c6af428"},"vehicle_type_id":"4","last_reported":1734430230,"current_range_meters":27200,"station_id":"ce4bh392rcd13ifvqdm0","pricing_plan_id":"cebpf4jnsgd1na2vs0mg"},{"bike_id":"59f3f0ba-2ef1-403f-885d-6f5b1ea4c104","system_id":"levelo_inurba_marseille","lat":43.28639,"lon":5.3585,"is_reserved":false,"is_disabled":false,"rental_uris":{"android":"levelo://app?vid=59f3f0ba-2ef1-403f-885d-6f5b1ea4c104","ios":"levelo://app?vid=59f3f0ba-2ef1-403f-885d-6f5b1ea4c104"},"vehicle_type_id":"4","last_reported":1734430230,"current_range_meters":28400,"station_id":"ce4bha92rcd13ifvqeg0","pricing_plan_id":"cebpf4jnsgd1na2vs0mg"},{"bike_id":"78f5dcee-b6ca-4cfa-ae6f-ebcf64be1236","system_id":"levelo_inurba_marseille","lat":43.32345,"lon":5.40617,"is_reserved":false,"is_disabled":true,"rental_uris":{"android":"levelo://app?vid=78f5dcee-b6ca-4cfa-ae6f-ebcf64be1236","ios":"levelo://app?vid=78f5dcee-b6ca-4cfa-ae6f-ebcf64be1236"},"vehicle_type_id":"4","last_reported":1734430230,"current_range_meters":400,"station_id":"ce4bhq92rcd13ifvqhjg","pricing_plan_id":"cebpf4jnsgd1na2vs0mg"},{"bike_id":"1164a888-86ca-442e-aceb-65a1f3f33fc8","system_id":"levelo_inurba_marseille","lat":43.26056,"lon":5.39401,"is_reserved":false,"is_disabled":false,"rental_uris":{"android":"levelo://app?vid=1164a888-86ca-442e-aceb-65a1f3f33fc8","ios":"levelo://app?vid=1164a888-86ca-442e-aceb-65a1f3f33fc8"},"vehicle_type_id":"4","last_reported":1734430230,"current_range_meters":36800,"station_id":"ce4bhh92rcd13ifvqfj0","pricing_plan_id":"cebpf4jnsgd1na2vs0mg"},{"bike_id":"d1adb045-11f4-4330-9d2b-f77d89c262d4","system_id":"levelo_inurba_marseille","lat":43.29303,"lon":5.37176,"is_reserved":false,"is_disabled":true,"rental_uris":{"android":"levelo://app?vid=d1adb045-11f4-4330-9d2b-f77d89c262d4","ios":"levelo://app?vid=d1adb045-11f4-4330-9d2b-f77d89c262d4"},"vehicle_type_id":"4","last_reported":1734430230,"current_range_meters":37600,"station_id":"ce4bgh92rcd13ifvqb40","pricing_plan_id":"cebpf4jnsgd1na2vs0mg"},{"bike_id":"012615fc-228f-48b8-b33d-bee14c10635d","system_id":"levelo_inurba_marseille","lat":43.28677,"lon":5.38671,"is_reserved":false,"is_disabled":false,"rental_uris":{"android":"levelo://app?vid=012615fc-228f-48b8-b33d-bee14c10635d","ios":"levelo://app?vid=012615fc-228f-48b8-b33d-bee14c10635d"},"vehicle_type_id":"4","last_reported":1734430230,"current_range_meters":34800,"station_id":"ce4bh492rcd13ifvqdug","pricing_plan_id":"cebpf4jnsgd1na2vs0mg"},{"bike_id":"44db48ef-81f5-4bd4-b576-ffe92dc77ac1","system_id":"levelo_inurba_marseille","lat":43.27064,"lon":5.42267,"is_reserved":false,"is_disabled":false,"rental_uris":{"android":"levelo://app?vid=44db48ef-81f5-4bd4-b576-ffe92dc77ac1","ios":"levelo://app?vid=44db48ef-81f5-4bd4-b576-ffe92dc77ac1"},"vehicle_type_id":"4","last_reported":1734430230,"current_range_meters":10000,"station_id":"ce4bhk92rcd13ifvqgb0","pricing_plan_id":"cebpf4jnsgd1na2vs0mg"},{"bike_id":"465d9142-d766-4100-b771-8274207478b5","system_id":"levelo_inurba_marseille","lat":43.25859,"lon":5.39901,"is_reserved":false,"is_disabled":false,"rental_uris":{"android":"levelo://app?vid=465d9142-d766-4100-b771-8274207478b5","ios":"levelo://app?vid=465d9142-d766-4100-b771-8274207478b5"},"vehicle_type_id":"4","last_reported":1734430230,"current_range_meters":30400,"station_id":"ce4bhl92rcd13ifvqghg","pricing_plan_id":"cebpf4jnsgd1na2vs0mg"},{"bike_id":"bfbabb6f-cbcf-4a00-ac65-d6345a496269","system_id":"levelo_inurba_marseille","lat":43.30549,"lon":5.36537,"is_reserved":false,"is_disabled":false,"rental_uris":{"android":"levelo://app?vid=bfbabb6f-cbcf-4a00-ac65-d6345a496269","ios":"levelo://app?vid=bfbabb6f-cbcf-4a00-ac65-d6345a496269"},"vehicle_type_id":"4","last_reported":1734430230,"current_range_meters":19600,"station_id":"ce4bgs12rcd13ifvqcag","pricing_plan_id":"cebpf4jnsgd1na2vs0mg"},{"bike_id":"f12903b9-055b-44dd-9209-8a9bf4dc467f","system_id":"levelo_inurba_marseille","lat":43.29628,"lon":5.40604,"is_reserved":false,"is_disabled":false,"rental_uris":{"android":"levelo://app?vid=f12903b9-055b-44dd-9209-8a9bf4dc467f","ios":"levelo://app?vid=f12903b9-055b-44dd-9209-8a9bf4dc467f"},"vehicle_type_id":"4","last_reported":1734430230,"current_range_meters":9200,"station_id":"ce4bh0h2rcd13ifvqd60","pricing_plan_id":"cebpf4jnsgd1na2vs0mg"},{"bike_id":"20a00061-431f-4160-af8a-b4048eb9841e","system_id":"levelo_inurba_marseille","lat":43.29618,"lon":5.3717,"is_reserved":false,"is_disabled":false,"rental_uris":{"android":"levelo://app?vid=20a00061-431f-4160-af8a-b4048eb9841e","ios":"levelo://app?vid=20a00061-431f-4160-af8a-b4048eb9841e"},"vehicle_type_id":"4","last_reported":1734430230,"current_range_meters":38800,"station_id":"ce4bgnh2rcd13ifvqc0g","pricing_plan_id":"cebpf4jnsgd1na2vs0mg"},{"bike_id":"6b8141dc-ae1c-4820-be3f-de92d472a83f","system_id":"levelo_inurba_marseille","lat":43.26936,"lon":5.38646,"is_reserved":false,"is_disabled":false,"rental_uris":{"android":"levelo://app?vid=6b8141dc-ae1c-4820-be3f-de92d472a83f","ios":"levelo://app?vid=6b8141dc-ae1c-4820-be3f-de92d472a83f"},"vehicle_type_id":"4","last_reported":1734430230,"current_range_meters":38800,"station_id":"ce4bhh92rcd13ifvqfh0","pricing_plan_id":"cebpf4jnsgd1na2vs0mg"},{"bike_id":"7f9c5791-2e11-4528-934d-c55836803ea1","system_id":"levelo_inurba_marseille","lat":43.30943,"lon":5.39028,"is_reserved":false,"is_disabled":false,"rental_uris":{"android":"levelo://app?vid=7f9c5791-2e11-4528-934d-c55836803ea1","ios":"levelo://app?vid=7f9c5791-2e11-4528-934d-c55836803ea1"},"vehicle_type_id":"4","last_reported":1734430230,"current_range_meters":32000,"station_id":"ce4bgup2rcd13ifvqco0","pricing_plan_id":"cebpf4jnsgd1na2vs0mg"},{"bike_id":"9a9ca54f-8f83-4db0-b780-a7eb0fa7f88d","system_id":"levelo_inurba_marseille","lat":43.26021,"lon":5.37558,"is_reserved":false,"is_disabled":false,"rental_uris":{"android":"levelo://app?vid=9a9ca54f-8f83-4db0-b780-a7eb0fa7f88d","ios":"levelo://app?vid=9a9ca54f-8f83-4db0-b780-a7eb0fa7f88d"},"vehicle_type_id":"4","last_reported":1734430230,"current_range_meters":38000,"station_id":"ce4bhgh2rcd13ifvqfa0","pricing_plan_id":"cebpf4jnsgd1na2vs0mg"},{"bike_id":"c95988c2-c8eb-41d0-876d-7ef83f3c500e","system_id":"levelo_inurba_marseille","lat":43.24386,"lon":5.37054,"is_reserved":false,"is_disabled":false,"rental_uris":{"android":"levelo://app?vid=c95988c2-c8eb-41d0-876d-7ef83f3c500e","ios":"levelo://app?vid=c95988c2-c8eb-41d0-876d-7ef83f3c500e"},"vehicle_type_id":"4","last_reported":1734430230,"current_range_meters":39200,"station_id":"ce4bhhh2rcd13ifvqfk0","pricing_plan_id":"cebpf4jnsgd1na2vs0mg"},{"bike_id":"d0ca391f-2284-4a21-9f70-07a8c21ff454","system_id":"levelo_inurba_marseille","lat":43.29594,"lon":5.42262,"is_reserved":false,"is_disabled":true,"rental_uris":{"android":"levelo://app?vid=d0ca391f-2284-4a21-9f70-07a8c21ff454","ios":"levelo://app?vid=d0ca391f-2284-4a21-9f70-07a8c21ff454"},"vehicle_type_id":"4","last_reported":1734430230,"current_range_meters":35600,"station_id":"","pricing_plan_id":"cebpf4jnsgd1na2vs0mg"},{"bike_id":"94266e61-9934-4ba0-84c4-e6f06169c812","system_id":"levelo_inurba_marseille","lat":43.30136,"lon":5.37416,"is_reserved":false,"is_disabled":false,"rental_uris":{"android":"levelo://app?vid=94266e61-9934-4ba0-84c4-e6f06169c812","ios":"levelo://app?vid=94266e61-9934-4ba0-84c4-e6f06169c812"},"vehicle_type_id":"4","last_reported":1734430230,"current_range_meters":19600,"station_id":"ce4bgs92rcd13ifvqcc0","pricing_plan_id":"cebpf4jnsgd1na2vs0mg"},{"bike_id":"2fb89adf-305b-43ac-b40a-b2c625a19cf4","system_id":"levelo_inurba_marseille","lat":43.24656,"lon":5.38898,"is_reserved":false,"is_disabled":false,"rental_uris":{"android":"levelo://app?vid=2fb89adf-305b-43ac-b40a-b2c625a19cf4","ios":"levelo://app?vid=2fb89adf-305b-43ac-b40a-b2c625a19cf4"},"vehicle_type_id":"4","last_reported":1734430230,"current_range_meters":16800,"station_id":"ce4bhg12rcd13ifvqf60","pricing_plan_id":"cebpf4jnsgd1na2vs0mg"},{"bike_id":"c219a7df-ad09-4d1f-888c-f951431d2cc1","system_id":"levelo_inurba_marseille","lat":43.282712,"lon":5.350655,"is_reserved":false,"is_disabled":false,"rental_uris":{"android":"levelo://app?vid=c219a7df-ad09-4d1f-888c-f951431d2cc1","ios":"levelo://app?vid=c219a7df-ad09-4d1f-888c-f951431d2cc1"},"vehicle_type_id":"4","last_reported":1734430230,"current_range_meters":36400,"station_id":"ce4bhbp2rcd13ifvqerg","pricing_plan_id":"cebpf4jnsgd1na2vs0mg"},{"bike_id":"cf60e44d-51d4-4657-87fc-5ffdc1235c8f","system_id":"levelo_inurba_marseille","lat":43.32521,"lon":5.41442,"is_reserved":false,"is_disabled":false,"rental_uris":{"android":"levelo://app?vid=cf60e44d-51d4-4657-87fc-5ffdc1235c8f","ios":"levelo://app?vid=cf60e44d-51d4-4657-87fc-5ffdc1235c8f"},"vehicle_type_id":"4","last_reported":1734430230,"current_range_meters":26000,"station_id":"ce4bhq12rcd13ifvqhhg","pricing_plan_id":"cebpf4jnsgd1na2vs0mg"},{"bike_id":"736e4f42-d8d3-4d96-9a2a-2201488198e3","system_id":"levelo_inurba_marseille","lat":43.24162,"lon":5.36395,"is_reserved":false,"is_disabled":false,"rental_uris":{"android":"levelo://app?vid=736e4f42-d8d3-4d96-9a2a-2201488198e3","ios":"levelo://app?vid=736e4f42-d8d3-4d96-9a2a-2201488198e3"},"vehicle_type_id":"4","last_reported":1734430230,"current_range_meters":38800,"station_id":"cpo36qri1sfpv3e86is0","pricing_plan_id":"cebpf4jnsgd1na2vs0mg"},{"bike_id":"bdf3034e-62b9-4ee0-8cec-ae18930d0c4b","system_id":"levelo_inurba_marseille","lat":43.26677,"lon":5.38296,"is_reserved":false,"is_disabled":false,"rental_uris":{"android":"levelo://app?vid=bdf3034e-62b9-4ee0-8cec-ae18930d0c4b","ios":"levelo://app?vid=bdf3034e-62b9-4ee0-8cec-ae18930d0c4b"},"vehicle_type_id":"4","last_reported":1734430230,"current_range_meters":33200,"station_id":"ce4bhg92rcd13ifvqf90","pricing_plan_id":"cebpf4jnsgd1na2vs0mg"},{"bike_id":"b42aa0b9-2916-4bd6-9a68-017dfc3b06ae","system_id":"levelo_inurba_marseille","lat":43.24156,"lon":5.36402,"is_reserved":false,"is_disabled":false,"rental_uris":{"android":"levelo://app?vid=b42aa0b9-2916-4bd6-9a68-017dfc3b06ae","ios":"levelo://app?vid=b42aa0b9-2916-4bd6-9a68-017dfc3b06ae"},"vehicle_type_id":"4","last_reported":1734430230,"current_range_meters":20000,"station_id":"cpo36qri1sfpv3e86is0","pricing_plan_id":"cebpf4jnsgd1na2vs0mg"},{"bike_id":"e78edaac-3243-4c27-906c-c045d4be04c7","system_id":"levelo_inurba_marseille","lat":43.29127,"lon":5.37121,"is_reserved":false,"is_disabled":false,"rental_uris":{"android":"levelo://app?vid=e78edaac-3243-4c27-906c-c045d4be04c7","ios":"levelo://app?vid=e78edaac-3243-4c27-906c-c045d4be04c7"},"vehicle_type_id":"4","last_reported":1734430230,"current_range_meters":34800,"station_id":"ce4bh5p2rcd13ifvqe4g","pricing_plan_id":"cebpf4jnsgd1na2vs0mg"},{"bike_id":"c15520b7-726f-4045-b5ea-be7f5a078c75","system_id":"levelo_inurba_marseille","lat":43.32017,"lon":5.40958,"is_reserved":false,"is_disabled":false,"rental_uris":{"android":"levelo://app?vid=c15520b7-726f-4045-b5ea-be7f5a078c75","ios":"levelo://app?vid=c15520b7-726f-4045-b5ea-be7f5a078c75"},"vehicle_type_id":"4","last_reported":1734430230,"current_range_meters":25600,"station_id":"ce4bhqh2rcd13ifvqhmg","pricing_plan_id":"cebpf4jnsgd1na2vs0mg"},{"bike_id":"55eea66e-096e-4f60-aa22-9af0806b204b","system_id":"levelo_inurba_marseille","lat":43.26503,"lon":5.39568,"is_reserved":false,"is_disabled":false,"rental_uris":{"android":"levelo://app?vid=55eea66e-096e-4f60-aa22-9af0806b204b","ios":"levelo://app?vid=55eea66e-096e-4f60-aa22-9af0806b204b"},"vehicle_type_id":"4","last_reported":1734430230,"current_range_meters":25200,"station_id":"ce4bhi12rcd13ifvqfq0","pricing_plan_id":"cebpf4jnsgd1na2vs0mg"},{"bike_id":"1c06df37-cafa-447f-bba3-6451f09547fe","system_id":"levelo_inurba_marseille","lat":43.30525,"lon":5.36526,"is_reserved":false,"is_disabled":false,"rental_uris":{"android":"levelo://app?vid=1c06df37-cafa-447f-bba3-6451f09547fe","ios":"levelo://app?vid=1c06df37-cafa-447f-bba3-6451f09547fe"},"vehicle_type_id":"4","last_reported":1734430230,"current_range_meters":38800,"station_id":"ce4bgs12rcd13ifvqcag","pricing_plan_id":"cebpf4jnsgd1na2vs0mg"},{"bike_id":"6160836a-3486-4d8f-a717-72d2b5b8e084","system_id":"levelo_inurba_marseille","lat":43.30146,"lon":5.38081,"is_reserved":false,"is_disabled":false,"rental_uris":{"android":"levelo://app?vid=6160836a-3486-4d8f-a717-72d2b5b8e084","ios":"levelo://app?vid=6160836a-3486-4d8f-a717-72d2b5b8e084"},"vehicle_type_id":"4","last_reported":1734430230,"current_range_meters":33600,"station_id":"ce4bgjp2rcd13ifvqbh0","pricing_plan_id":"cebpf4jnsgd1na2vs0mg"},{"bike_id":"dfd34f69-2bcd-47b1-8f0c-a84f7a90d493","system_id":"levelo_inurba_marseille","lat":43.30913,"lon":5.36854,"is_reserved":false,"is_disabled":false,"rental_uris":{"android":"levelo://app?vid=dfd34f69-2bcd-47b1-8f0c-a84f7a90d493","ios":"levelo://app?vid=dfd34f69-2bcd-47b1-8f0c-a84f7a90d493"},"vehicle_type_id":"4","last_reported":1734430230,"current_range_meters":38800,"station_id":"ce4bgn92rcd13ifvqbvg","pricing_plan_id":"cebpf4jnsgd1na2vs0mg"},{"bike_id":"c8399855-72d4-4f25-aa5a-52a18924a7b8","system_id":"levelo_inurba_marseille","lat":43.24164,"lon":5.36383,"is_reserved":false,"is_disabled":false,"rental_uris":{"android":"levelo://app?vid=c8399855-72d4-4f25-aa5a-52a18924a7b8","ios":"levelo://app?vid=c8399855-72d4-4f25-aa5a-52a18924a7b8"},"vehicle_type_id":"4","last_reported":1734430230,"current_range_meters":11600,"station_id":"cpo36qri1sfpv3e86is0","pricing_plan_id":"cebpf4jnsgd1na2vs0mg"},{"bike_id":"e5405d64-38de-4a5c-99ce-858cf83d090f","system_id":"levelo_inurba_marseille","lat":43.29049,"lon":5.37176,"is_reserved":false,"is_disabled":false,"rental_uris":{"android":"levelo://app?vid=e5405d64-38de-4a5c-99ce-858cf83d090f","ios":"levelo://app?vid=e5405d64-38de-4a5c-99ce-858cf83d090f"},"vehicle_type_id":"4","last_reported":1734430230,"current_range_meters":39200,"station_id":"ce4bh5p2rcd13ifvqe4g","pricing_plan_id":"cebpf4jnsgd1na2vs0mg"},{"bike_id":"614cde01-1638-4f62-9972-885d82f861dc","system_id":"levelo_inurba_marseille","lat":43.30592,"lon":5.39347,"is_reserved":false,"is_disabled":true,"rental_uris":{"android":"levelo://app?vid=614cde01-1638-4f62-9972-885d82f861dc","ios":"levelo://app?vid=614cde01-1638-4f62-9972-885d82f861dc"},"vehicle_type_id":"4","last_reported":1734430230,"current_range_meters":28400,"station_id":"ce4bh0p2rcd13ifvqd80","pricing_plan_id":"cebpf4jnsgd1na2vs0mg"},{"bike_id":"856a6bd1-4357-4db7-a4e2-9aef5a52b6e3","system_id":"levelo_inurba_marseille","lat":43.30641,"lon":5.40089,"is_reserved":false,"is_disabled":false,"rental_uris":{"android":"levelo://app?vid=856a6bd1-4357-4db7-a4e2-9aef5a52b6e3","ios":"levelo://app?vid=856a6bd1-4357-4db7-a4e2-9aef5a52b6e3"},"vehicle_type_id":"4","last_reported":1734430230,"current_range_meters":36800,"station_id":"ce4bh112rcd13ifvqda0","pricing_plan_id":"cebpf4jnsgd1na2vs0mg"},{"bike_id":"aa8ad162-0fab-44f2-a72b-c4c6288ec375","system_id":"levelo_inurba_marseille","lat":43.24548,"lon":5.39522,"is_reserved":false,"is_disabled":false,"rental_uris":{"android":"levelo://app?vid=aa8ad162-0fab-44f2-a72b-c4c6288ec375","ios":"levelo://app?vid=aa8ad162-0fab-44f2-a72b-c4c6288ec375"},"vehicle_type_id":"4","last_reported":1734430230,"current_range_meters":9200,"station_id":"ce4bhlp2rcd13ifvqgjg","pricing_plan_id":"cebpf4jnsgd1na2vs0mg"},{"bike_id":"5314aefe-f931-4c7d-8b9e-4f6e48fd0640","system_id":"levelo_inurba_marseille","lat":43.30373,"lon":5.41897,"is_reserved":false,"is_disabled":false,"rental_uris":{"android":"levelo://app?vid=5314aefe-f931-4c7d-8b9e-4f6e48fd0640","ios":"levelo://app?vid=5314aefe-f931-4c7d-8b9e-4f6e48fd0640"},"vehicle_type_id":"4","last_reported":1734430230,"current_range_meters":38000,"station_id":"ce4bhop2rcd13ifvqh7g","pricing_plan_id":"cebpf4jnsgd1na2vs0mg"},{"bike_id":"ddcc80db-a1cb-4299-b09b-e8f3fcce14ce","system_id":"levelo_inurba_marseille","lat":43.23144,"lon":5.43713,"is_reserved":false,"is_disabled":false,"rental_uris":{"android":"levelo://app?vid=ddcc80db-a1cb-4299-b09b-e8f3fcce14ce","ios":"levelo://app?vid=ddcc80db-a1cb-4299-b09b-e8f3fcce14ce"},"vehicle_type_id":"4","last_reported":1734430230,"current_range_meters":35200,"station_id":"ce4bhmp2rcd13ifvqgog","pricing_plan_id":"cebpf4jnsgd1na2vs0mg"},{"bike_id":"b3437820-fff1-40e3-8bc3-3a2cab1bc520","system_id":"levelo_inurba_marseille","lat":43.29513,"lon":5.3751,"is_reserved":false,"is_disabled":false,"rental_uris":{"android":"levelo://app?vid=b3437820-fff1-40e3-8bc3-3a2cab1bc520","ios":"levelo://app?vid=b3437820-fff1-40e3-8bc3-3a2cab1bc520"},"vehicle_type_id":"4","last_reported":1734430230,"current_range_meters":36800,"station_id":"ce4bgkp2rcd13ifvqbmg","pricing_plan_id":"cebpf4jnsgd1na2vs0mg"},{"bike_id":"baa64ce6-a47c-4237-a875-11258c853f53","system_id":"levelo_inurba_marseille","lat":43.33725,"lon":5.39179,"is_reserved":false,"is_disabled":false,"rental_uris":{"android":"levelo://app?vid=baa64ce6-a47c-4237-a875-11258c853f53","ios":"levelo://app?vid=baa64ce6-a47c-4237-a875-11258c853f53"},"vehicle_type_id":"4","last_reported":1734430230,"current_range_meters":38000,"station_id":"ce4bhr92rcd13ifvqhsg","pricing_plan_id":"cebpf4jnsgd1na2vs0mg"},{"bike_id":"406f1595-fcb6-4b10-be8f-044b4d6a1713","system_id":"levelo_inurba_marseille","lat":43.29784,"lon":5.38118,"is_reserved":false,"is_disabled":true,"rental_uris":{"android":"levelo://app?vid=406f1595-fcb6-4b10-be8f-044b4d6a1713","ios":"levelo://app?vid=406f1595-fcb6-4b10-be8f-044b4d6a1713"},"vehicle_type_id":"4","last_reported":1734430230,"current_range_meters":38800,"station_id":"ce4bgip2rcd13ifvqbb0","pricing_plan_id":"cebpf4jnsgd1na2vs0mg"},{"bike_id":"45eed315-4e7b-405c-a074-46441b8dab52","system_id":"levelo_inurba_marseille","lat":43.32469,"lon":5.36563,"is_reserved":false,"is_disabled":false,"rental_uris":{"android":"levelo://app?vid=45eed315-4e7b-405c-a074-46441b8dab52","ios":"levelo://app?vid=45eed315-4e7b-405c-a074-46441b8dab52"},"vehicle_type_id":"4","last_reported":1734430230,"current_range_meters":26800,"station_id":"ce4bhs12rcd13ifvqhvg","pricing_plan_id":"cebpf4jnsgd1na2vs0mg"},{"bike_id":"f1372b2a-55ee-4765-82c4-db590ee444a2","system_id":"levelo_inurba_marseille","lat":43.26808,"lon":5.4026,"is_reserved":false,"is_disabled":false,"rental_uris":{"android":"levelo://app?vid=f1372b2a-55ee-4765-82c4-db590ee444a2","ios":"levelo://app?vid=f1372b2a-55ee-4765-82c4-db590ee444a2"},"vehicle_type_id":"4","last_reported":1734430230,"current_range_meters":38400,"station_id":"ce501612rcd8frsf0b60","pricing_plan_id":"cebpf4jnsgd1na2vs0mg"},{"bike_id":"062265ca-bf84-43c1-b6f6-09fd2914a38a","system_id":"levelo_inurba_marseille","lat":43.26789,"lon":5.3941,"is_reserved":false,"is_disabled":false,"rental_uris":{"android":"levelo://app?vid=062265ca-bf84-43c1-b6f6-09fd2914a38a","ios":"levelo://app?vid=062265ca-bf84-43c1-b6f6-09fd2914a38a"},"vehicle_type_id":"4","last_reported":1734430230,"current_range_meters":30400,"station_id":"ce4bhh12rcd13ifvqfg0","pricing_plan_id":"cebpf4jnsgd1na2vs0mg"},{"bike_id":"356b5095-ec83-44d2-99d0-4caa99cd6bd5","system_id":"levelo_inurba_marseille","lat":43.25935,"lon":5.40917,"is_reserved":false,"is_disabled":false,"rental_uris":{"android":"levelo://app?vid=356b5095-ec83-44d2-99d0-4caa99cd6bd5","ios":"levelo://app?vid=356b5095-ec83-44d2-99d0-4caa99cd6bd5"},"vehicle_type_id":"4","last_reported":1734430230,"current_range_meters":28800,"station_id":"ce4bhm92rcd13ifvqglg","pricing_plan_id":"cebpf4jnsgd1na2vs0mg"},{"bike_id":"eee55238-5227-4fae-954d-f4ab0e738654","system_id":"levelo_inurba_marseille","lat":43.29724,"lon":5.37688,"is_reserved":false,"is_disabled":false,"rental_uris":{"android":"levelo://app?vid=eee55238-5227-4fae-954d-f4ab0e738654","ios":"levelo://app?vid=eee55238-5227-4fae-954d-f4ab0e738654"},"vehicle_type_id":"4","last_reported":1734430230,"current_range_meters":38800,"station_id":"ce4bgkh2rcd13ifvqbl0","pricing_plan_id":"cebpf4jnsgd1na2vs0mg"},{"bike_id":"11ef9d34-088a-47e2-a56f-ba15a795f9c1","system_id":"levelo_inurba_marseille","lat":43.29218,"lon":5.36042,"is_reserved":false,"is_disabled":true,"rental_uris":{"android":"levelo://app?vid=11ef9d34-088a-47e2-a56f-ba15a795f9c1","ios":"levelo://app?vid=11ef9d34-088a-47e2-a56f-ba15a795f9c1"},"vehicle_type_id":"4","last_reported":1734430230,"current_range_meters":0,"station_id":"ce4bhbh2rcd13ifvqeqg","pricing_plan_id":"cebpf4jnsgd1na2vs0mg"},{"bike_id":"a8f22455-98d4-4c95-b28d-f657875e5dc5","system_id":"levelo_inurba_marseille","lat":43.2672,"lon":5.38213,"is_reserved":false,"is_disabled":false,"rental_uris":{"android":"levelo://app?vid=a8f22455-98d4-4c95-b28d-f657875e5dc5","ios":"levelo://app?vid=a8f22455-98d4-4c95-b28d-f657875e5dc5"},"vehicle_type_id":"4","last_reported":1734430230,"current_range_meters":18000,"station_id":"ce4bhg92rcd13ifvqf90","pricing_plan_id":"cebpf4jnsgd1na2vs0mg"},{"bike_id":"6580baad-3a21-4baa-ad5d-bc89e9179e6c","system_id":"levelo_inurba_marseille","lat":43.26926,"lon":5.3865,"is_reserved":false,"is_disabled":false,"rental_uris":{"android":"levelo://app?vid=6580baad-3a21-4baa-ad5d-bc89e9179e6c","ios":"levelo://app?vid=6580baad-3a21-4baa-ad5d-bc89e9179e6c"},"vehicle_type_id":"4","last_reported":1734430230,"current_range_meters":24400,"station_id":"ce4bhh92rcd13ifvqfh0","pricing_plan_id":"cebpf4jnsgd1na2vs0mg"},{"bike_id":"b2d380e8-08ed-495f-a052-5d7dfa068f5b","system_id":"levelo_inurba_marseille","lat":43.26949,"lon":5.3863,"is_reserved":false,"is_disabled":true,"rental_uris":{"android":"levelo://app?vid=b2d380e8-08ed-495f-a052-5d7dfa068f5b","ios":"levelo://app?vid=b2d380e8-08ed-495f-a052-5d7dfa068f5b"},"vehicle_type_id":"4","last_reported":1734430230,"current_range_meters":0,"station_id":"ce4bhh92rcd13ifvqfh0","pricing_plan_id":"cebpf4jnsgd1na2vs0mg"},{"bike_id":"e8d2f030-03ed-4e57-bb11-98232d104bfa","system_id":"levelo_inurba_marseille","lat":43.27812,"lon":5.40705,"is_reserved":false,"is_disabled":false,"rental_uris":{"android":"levelo://app?vid=e8d2f030-03ed-4e57-bb11-98232d104bfa","ios":"levelo://app?vid=e8d2f030-03ed-4e57-bb11-98232d104bfa"},"vehicle_type_id":"4","last_reported":1734430230,"current_range_meters":20400,"station_id":"ce4bhnh2rcd13ifvqgtg","pricing_plan_id":"cebpf4jnsgd1na2vs0mg"},{"bike_id":"19fc6bf2-d5a1-43c9-b912-c79a7692f6ac","system_id":"levelo_inurba_marseille","lat":43.26676,"lon":5.38263,"is_reserved":false,"is_disabled":false,"rental_uris":{"android":"levelo://app?vid=19fc6bf2-d5a1-43c9-b912-c79a7692f6ac","ios":"levelo://app?vid=19fc6bf2-d5a1-43c9-b912-c79a7692f6ac"},"vehicle_type_id":"4","last_reported":1734430230,"current_range_meters":39200,"station_id":"ce4bhg92rcd13ifvqf90","pricing_plan_id":"cebpf4jnsgd1na2vs0mg"},{"bike_id":"f64ba8ba-600f-46fb-ba95-0ac8bd29392f","system_id":"levelo_inurba_marseille","lat":43.26184,"lon":5.37962,"is_reserved":false,"is_disabled":false,"rental_uris":{"android":"levelo://app?vid=f64ba8ba-600f-46fb-ba95-0ac8bd29392f","ios":"levelo://app?vid=f64ba8ba-600f-46fb-ba95-0ac8bd29392f"},"vehicle_type_id":"4","last_reported":1734430230,"current_range_meters":31200,"station_id":"ce4bhjp2rcd13ifvqg90","pricing_plan_id":"cebpf4jnsgd1na2vs0mg"},{"bike_id":"0ce1c656-2f4a-431f-b4a6-0ce5e59434d8","system_id":"levelo_inurba_marseille","lat":43.288574,"lon":5.358748,"is_reserved":false,"is_disabled":false,"rental_uris":{"android":"levelo://app?vid=0ce1c656-2f4a-431f-b4a6-0ce5e59434d8","ios":"levelo://app?vid=0ce1c656-2f4a-431f-b4a6-0ce5e59434d8"},"vehicle_type_id":"4","last_reported":1734430230,"current_range_meters":38000,"station_id":"ce4bhb12rcd13ifvqem0","pricing_plan_id":"cebpf4jnsgd1na2vs0mg"},{"bike_id":"82f7f145-591c-4ce0-8f76-660882a2845e","system_id":"levelo_inurba_marseille","lat":43.33609,"lon":5.41067,"is_reserved":false,"is_disabled":true,"rental_uris":{"android":"levelo://app?vid=82f7f145-591c-4ce0-8f76-660882a2845e","ios":"levelo://app?vid=82f7f145-591c-4ce0-8f76-660882a2845e"},"vehicle_type_id":"4","last_reported":1734430230,"current_range_meters":35600,"station_id":"ce4bhqh2rcd13ifvqhmg","pricing_plan_id":"cebpf4jnsgd1na2vs0mg"},{"bike_id":"3cbd3730-c384-4a6b-9719-fc4f0183bbff","system_id":"levelo_inurba_marseille","lat":43.27829,"lon":5.40699,"is_reserved":false,"is_disabled":false,"rental_uris":{"android":"levelo://app?vid=3cbd3730-c384-4a6b-9719-fc4f0183bbff","ios":"levelo://app?vid=3cbd3730-c384-4a6b-9719-fc4f0183bbff"},"vehicle_type_id":"4","last_reported":1734430230,"current_range_meters":31200,"station_id":"ce4bhnh2rcd13ifvqgtg","pricing_plan_id":"cebpf4jnsgd1na2vs0mg"},{"bike_id":"ac7c5f56-daad-496c-965f-9103737000e8","system_id":"levelo_inurba_marseille","lat":43.23964,"lon":5.36644,"is_reserved":false,"is_disabled":false,"rental_uris":{"android":"levelo://app?vid=ac7c5f56-daad-496c-965f-9103737000e8","ios":"levelo://app?vid=ac7c5f56-daad-496c-965f-9103737000e8"},"vehicle_type_id":"4","last_reported":1734430230,"current_range_meters":38800,"station_id":"ce4bhi12rcd13ifvqfp0","pricing_plan_id":"cebpf4jnsgd1na2vs0mg"},{"bike_id":"30943ecb-ecb0-4ac9-9219-dc3c35f2f4ec","system_id":"levelo_inurba_marseille","lat":43.27995,"lon":5.41663,"is_reserved":false,"is_disabled":false,"rental_uris":{"android":"levelo://app?vid=30943ecb-ecb0-4ac9-9219-dc3c35f2f4ec","ios":"levelo://app?vid=30943ecb-ecb0-4ac9-9219-dc3c35f2f4ec"},"vehicle_type_id":"4","last_reported":1734430230,"current_range_meters":26000,"station_id":"ce4bho12rcd13ifvqh1g","pricing_plan_id":"cebpf4jnsgd1na2vs0mg"},{"bike_id":"677f2f20-67b1-43ae-ab0d-c86c94aad358","system_id":"levelo_inurba_marseille","lat":43.3302,"lon":5.39038,"is_reserved":false,"is_disabled":false,"rental_uris":{"android":"levelo://app?vid=677f2f20-67b1-43ae-ab0d-c86c94aad358","ios":"levelo://app?vid=677f2f20-67b1-43ae-ab0d-c86c94aad358"},"vehicle_type_id":"4","last_reported":1734430230,"current_range_meters":12400,"station_id":"ce4bhr92rcd13ifvqhrg","pricing_plan_id":"cebpf4jnsgd1na2vs0mg"},{"bike_id":"93dedfd6-5256-4e92-840a-063078ef1d82","system_id":"levelo_inurba_marseille","lat":43.25932,"lon":5.40912,"is_reserved":false,"is_disabled":false,"rental_uris":{"android":"levelo://app?vid=93dedfd6-5256-4e92-840a-063078ef1d82","ios":"levelo://app?vid=93dedfd6-5256-4e92-840a-063078ef1d82"},"vehicle_type_id":"4","last_reported":1734430230,"current_range_meters":22000,"station_id":"ce4bhm92rcd13ifvqglg","pricing_plan_id":"cebpf4jnsgd1na2vs0mg"},{"bike_id":"eb4fbc72-772b-46f6-8868-aa017a64e2d8","system_id":"levelo_inurba_marseille","lat":43.29971,"lon":5.37176,"is_reserved":false,"is_disabled":true,"rental_uris":{"android":"levelo://app?vid=eb4fbc72-772b-46f6-8868-aa017a64e2d8","ios":"levelo://app?vid=eb4fbc72-772b-46f6-8868-aa017a64e2d8"},"vehicle_type_id":"4","last_reported":1734430230,"current_range_meters":12000,"station_id":"ce4bgr92rcd13ifvqc7g","pricing_plan_id":"cebpf4jnsgd1na2vs0mg"},{"bike_id":"3a732610-d683-458f-8820-d54dbfe49ec6","system_id":"levelo_inurba_marseille","lat":43.25929,"lon":5.40908,"is_reserved":false,"is_disabled":false,"rental_uris":{"android":"levelo://app?vid=3a732610-d683-458f-8820-d54dbfe49ec6","ios":"levelo://app?vid=3a732610-d683-458f-8820-d54dbfe49ec6"},"vehicle_type_id":"4","last_reported":1734430230,"current_range_meters":36400,"station_id":"ce4bhm92rcd13ifvqglg","pricing_plan_id":"cebpf4jnsgd1na2vs0mg"},{"bike_id":"ad1b4809-98f4-4501-8bab-68d78d13c446","system_id":"levelo_inurba_marseille","lat":43.30949,"lon":5.39038,"is_reserved":false,"is_disabled":false,"rental_uris":{"android":"levelo://app?vid=ad1b4809-98f4-4501-8bab-68d78d13c446","ios":"levelo://app?vid=ad1b4809-98f4-4501-8bab-68d78d13c446"},"vehicle_type_id":"4","last_reported":1734430230,"current_range_meters":30800,"station_id":"ce4bgup2rcd13ifvqco0","pricing_plan_id":"cebpf4jnsgd1na2vs0mg"},