{"last_updated":1729418931,"ttl":60,"version":"2.2","data":{"bikes":[{"bike_id":"699f43bc-fa06-4f4f-b302-24a9789a5d98","system_id":"levelo_inurba_marseille","lat":43.26206,"lon":5.37924,"is_reserved":false,"is_disabled":false,"rental_uris":{"android":"levelo://app?vid=699f43bc-fa06-4f4f-b302-24a9789a5d98","ios":"levelo://app?vid=699f43bc-fa06-4f4f-b302-24a9789a5d98"},"vehicle_type_id":"4","last_reported":1729418931,"current_range_meters":29600,"station_id":"ce4bhjp2rcd13ifvqg90","pricing_plan_id":"cebpf4jnsgd1na2vs0mg"},{"bike_id":"7682a437-f604-4846-a82a-03c6e005475b","system_id":"levelo_inurba_marseille","lat":43.2678,"lon":5.39416,"is_reserved":false,"is_disabled":false,"rental_uris":{"android":"levelo://app?vid=7682a437-f604-4846-a82a-03c6e005475b","ios":"levelo://app?vid=7682a437-f604-4846-a82a-03c6e005475b"},"vehicle_type_id":"4","last_reported":1729418931,"current_range_meters":38000,"station_id":"ce4bhh12rcd13ifvqfg0","pricing_plan_id":"cebpf4jnsgd1na2vs0mg"},{"bike_id":"cc7efa44-13df-4e12-a405-4e45667f6687","system_id":"levelo_inurba_marseille","lat":43.31117,"lon":5.37762,"is_reserved":false,"is_disabled":false,"rental_uris":{"android":"levelo://app?vid=cc7efa44-13df-4e12-a405-4e45667f6687","ios":"levelo://app?vid=cc7efa44-13df-4e12-a405-4e45667f6687"},"vehicle_type_id":"4","last_reported":1729418931,"current_range_meters":38000,"station_id":"ce4bgt92rcd13ifvqcg0","pricing_plan_id":"cebpf4jnsgd1na2vs0mg"},{"bike_id":"fe93bfb2-7aeb-4c17-8248-6549ba71e9ff","system_id":"levelo_inurba_marseille","lat":43.28271,"lon":5.35069,"is_reserved":false,"is_disabled":false,"rental_uris":{"android":"levelo://app?vid=fe93bfb2-7aeb-4c17-8248-6549ba71e9ff","ios":"levelo://app?vid=fe93bfb2-7aeb-4c17-8248-6549ba71e9ff"},"vehicle_type_id":"4","last_reported":1729418931,"current_range_meters":38400,"station_id":"ce4bhbp2rcd13ifvqerg","pricing_plan_id":"cebpf4jnsgd1na2vs0mg"},{"bike_id":"079f0eb0-2f43-406f-bfbc-68285c577f87","system_id":"levelo_inurba_marseille","lat":43.2815,"lon":5.42639,"is_reserved":false,"is_disabled":false,"rental_uris":{"android":"levelo://app?vid=079f0eb0-2f43-406f-bfbc-68285c577f87","ios":"levelo://app?vid=079f0eb0-2f43-406f-bfbc-68285c577f87"},"vehicle_type_id":"4","last_reported":1729418931,"current_range_meters":7200,"station_id":"ce4bhnh2rcd13ifvqgug","pricing_plan_id":"cebpf4jnsgd1na2vs0mg"},{"bike_id":"814a8b4c-43f0-4f31-87f7-0f70c081bccd","system_id":"levelo_inurba_marseille","lat":43.24811,"lon":5.37459,"is_reserved":false,"is_disabled":false,"rental_uris":{"android":"levelo://app?vid=814a8b4c-43f0-4f31-87f7-0f70c081bccd","ios":"levelo://app?vid=814a8b4c-43f0-4f31-87f7-0f70c081bccd"},"vehicle_type_id":"4","last_reported":1729418931,"current_range_meters":38000,"station_id":"ce4bhgh2rcd13ifvqfb0","pricing_plan_id":"cebpf4jnsgd1na2vs0mg"},{"bike_id":"d38cc3f6-a7bf-4256-8001-f9f7f3e311fe","system_id":"levelo_inurba_marseille","lat":43.3211,"lon":5.36766,"is_reserved":false,"is_disabled":false,"rental_uris":{"android":"levelo://app?vid=d38cc3f6-a7bf-4256-8001-f9f7f3e311fe","ios":"levelo://app?vid=d38cc3f6-a7bf-4256-8001-f9f7f3e311fe"},"vehicle_type_id":"4","last_reported":1729418931,"current_range_meters":13600,"station_id":"ce4bhrh2rcd13ifvqhug","pricing_plan_id":"cebpf4jnsgd1na2vs0mg"},{"bike_id":"e0879c3f-10eb-4d3b-8053-605cb1c6310c","system_id":"levelo_inurba_marseille","lat":43.26064,"lon":5.39392,"is_reserved":false,"is_disabled":false,"rental_uris":{"android":"levelo://app?vid=e0879c3f-10eb-4d3b-8053-605cb1c6310c","ios":"levelo://app?vid=e0879c3f-10eb-4d3b-8053-605cb1c6310c"},"vehicle_type_id":"4","last_reported":1729418931,"current_range_meters":21600,"station_id":"ce4bhh92rcd13ifvqfj0","pricing_plan_id":"cebpf4jnsgd1na2vs0mg"},{"bike_id":"3004b950-b0c0-48bc-a4a3-1bfbe720a1c0","system_id":"levelo_inurba_marseille","lat":43.298248,"lon":5.397534,"is_reserved":false,"is_disabled":false,"rental_uris":{"android":"levelo://app?vid=3004b950-b0c0-48bc-a4a3-1bfbe720a1c0","ios":"levelo://app?vid=3004b950-b0c0-48bc-a4a3-1bfbe720a1c0"},"vehicle_type_id":"4","last_reported":1729418931,"current_range_meters":20400,"station_id":"ce4bh0h2rcd13ifvqd50","pricing_plan_id":"cebpf4jnsgd1na2vs0mg"},{"bike_id":"481d201b-0f9b-4ded-8406-5042d6b7a84b","system_id":"levelo_inurba_marseille","lat":43.23961,"lon":5.36622,"is_reserved":false,"is_disabled":false,"rental_uris":{"android":"levelo://app?vid=481d201b-0f9b-4ded-8406-5042d6b7a84b","ios":"levelo://app?vid=481d201b-0f9b-4ded-8406-5042d6b7a84b"},"vehicle_type_id":"4","last_reported":1729418931,"current_range_meters":32800,"station_id":"ce4bhi12rcd13ifvqfp0","pricing_plan_id":"cebpf4jnsgd1na2vs0mg"},{"bike_id":"3c542d24-c53e-4899-8c72-748e72210bc5","system_id":"levelo_inurba_marseille","lat":43.22926,"lon":5.35375,"is_reserved":false,"is_disabled":false,"rental_uris":{"android":"levelo://app?vid=3c542d24-c53e-4899-8c72-748e72210bc5","ios":"levelo://app?vid=3c542d24-c53e-4899-8c72-748e72210bc5"},"vehicle_type_id":"4","last_reported":1729418931,"current_range_meters":38400,"station_id":"cpo3532slgdg3j2ikp40","pricing_plan_id":"cebpf4jnsgd1na2vs0mg"},{"bike_id":"6967c4c2-f057-49d9-80b0-41170e417f9c","system_id":"levelo_inurba_marseille","lat":43.24077,"lon":5.37767,"is_reserved":false,"is_disabled":false,"rental_uris":{"android":"levelo://app?vid=6967c4c2-f057-49d9-80b0-41170e417f9c","ios":"levelo://app?vid=6967c4c2-f057-49d9-80b0-41170e417f9c"},"vehicle_type_id":"4","last_reported":1729418931,"current_range_meters":36800,"station_id":"ce4bhnp2rcd13ifvqgvg","pricing_plan_id":"cebpf4jnsgd1na2vs0mg"},{"bike_id":"8a73e7ba-a0f3-44c6-966e-e18fb2e0d01f","system_id":"levelo_inurba_marseille","lat":43.24169,"lon":5.36398,"is_reserved":false,"is_disabled":false,"rental_uris":{"android":"levelo://app?vid=8a73e7ba-a0f3-44c6-966e-e18fb2e0d01f","ios":"levelo://app?vid=8a73e7ba-a0f3-44c6-966e-e18fb2e0d01f"},"vehicle_type_id":"4","last_reported":1729418931,"current_range_meters":24400,"station_id":"cpo36qri1sfpv3e86is0","pricing_plan_id":"cebpf4jnsgd1na2vs0mg"},{"bike_id":"dfa34bab-96b7-4f7c-89c2-301229ba8900","system_id":"levelo_inurba_marseille","lat":43.28273,"lon":5.35071,"is_reserved":false,"is_disabled":false,"rental_uris":{"android":"levelo://app?vid=dfa34bab-96b7-4f7c-89c2-301229ba8900","ios":"levelo://app?vid=dfa34bab-96b7-4f7c-89c2-301229ba8900"},"vehicle_type_id":"4","last_reported":1729418931,"current_range_meters":17200,"station_id":"ce4bhbp2rcd13ifvqerg","pricing_plan_id":"cebpf4jnsgd1na2vs0mg"},{"bike_id":"20e38597-d6b9-4786-8ed5-68a88af1dc1b","system_id":"levelo_inurba_marseille","lat":43.24809,"lon":5.37455,"is_reserved":false,"is_disabled":false,"rental_uris":{"android":"levelo://app?vid=20e38597-d6b9-4786-8ed5-68a88af1dc1b","ios":"levelo://app?vid=20e38597-d6b9-4786-8ed5-68a88af1dc1b"},"vehicle_type_id":"4","last_reported":1729418931,"current_range_meters":30000,"station_id":"ce4bhgh2rcd13ifvqfb0","pricing_plan_id":"cebpf4jnsgd1na2vs0mg"},{"bike_id":"481cffd0-bd3a-4827-9e2c-2ef60f9d0829","system_id":"levelo_inurba_marseille","lat":43.28456,"lon":5.35898,"is_reserved":false,"is_disabled":false,"rental_uris":{"android":"levelo://app?vid=481cffd0-bd3a-4827-9e2c-2ef60f9d0829","ios":"levelo://app?vid=481cffd0-bd3a-4827-9e2c-2ef60f9d0829"},"vehicle_type_id":"4","last_reported":1729418931,"current_range_meters":24000,"station_id":"ce4bhah2rcd13ifvqei0","pricing_plan_id":"cebpf4jnsgd1na2vs0mg"},{"bike_id":"4cd14b17-8407-441c-a135-b03a687e064d","system_id":"levelo_inurba_marseille","lat":43.32662,"lon":5.40992,"is_reserved":false,"is_disabled":false,"rental_uris":{"android":"levelo://app?vid=4cd14b17-8407-441c-a135-b03a687e064d","ios":"levelo://app?vid=4cd14b17-8407-441c-a135-b03a687e064d"},"vehicle_type_id":"4","last_reported":1729418931,"current_range_meters":18800,"station_id":"ce4bhpp2rcd13ifvqhgg","pricing_plan_id":"cebpf4jnsgd1na2vs0mg"},{"bike_id":"474ccd54-d884-4c48-ac27-1f7190ae4438","system_id":"levelo_inurba_marseille","lat":43.337313,"lon":5.391878,"is_reserved":false,"is_disabled":false,"rental_uris":{"android":"levelo://app?vid=474ccd54-d884-4c48-ac27-1f7190ae4438","ios":"levelo://app?vid=474ccd54-d884-4c48-ac27-1f7190ae4438"},"vehicle_type_id":"4","last_reported":1729418931,"current_range_meters":8000,"station_id":"ce4bhr92rcd13ifvqhsg","pricing_plan_id":"cebpf4jnsgd1na2vs0mg"},{"bike_id":"e6c39cb4-813a-449b-9c48-eefac286cf54","system_id":"levelo_inurba_marseille","lat":43.25863,"lon":5.39895,"is_reserved":false,"is_disabled":false,"rental_uris":{"android":"levelo://app?vid=e6c39cb4-813a-449b-9c48-eefac286cf54","ios":"levelo://app?vid=e6c39cb4-813a-449b-9c48-eefac286cf54"},"vehicle_type_id":"4","last_reported":1729418931,"current_range_meters":25200,"station_id":"ce4bhl92rcd13ifvqghg","pricing_plan_id":"cebpf4jnsgd1na2vs0mg"},{"bike_id":"ca3a98fb-1eae-48f5-aca4-b718a35664a0","system_id":"levelo_inurba_marseille","lat":43.32344,"lon":5.40608,"is_reserved":false,"is_disabled":false,"rental_uris":{"android":"levelo://app?vid=ca3a98fb-1eae-48f5-aca4-b718a35664a0","ios":"levelo://app?vid=ca3a98fb-1eae-48f5-aca4-b718a35664a0"},"vehicle_type_id":"4","last_reported":1729418931,"current_range_meters":39200,"station_id":"ce4bhq92rcd13ifvqhjg","pricing_plan_id":"cebpf4jnsgd1na2vs0mg"},{"bike_id":"f75bac43-de1c-46ee-b029-720a38aa18a4","system_id":"levelo_inurba_marseille","lat":43.28617,"lon":5.35101,"is_reserved":false,"is_disabled":false,"rental_uris":{"android":"levelo://app?vid=f75bac43-de1c-46ee-b029-720a38aa18a4","ios":"levelo://app?vid=f75bac43-de1c-46ee-b029-720a38aa18a4"},"vehicle_type_id":"4","last_reported":1729418931,"current_range_meters":37600,"station_id":"ce4bhch2rcd13ifvqeug","pricing_plan_id":"cebpf4jnsgd1na2vs0mg"},{"bike_id":"d7ab71a7-f38c-4d71-a210-da4f38716924","system_id":"levelo_inurba_marseille","lat":43.28617,"lon":5.35101,"is_reserved":false,"is_disabled":false,"rental_uris":{"android":"levelo://app?vid=d7ab71a7-f38c-4d71-a210-da4f38716924","ios":"levelo://app?vid=d7ab71a7-f38c-4d71-a210-da4f38716924"},"vehicle_type_id":"4","last_reported":1729418931,"current_range_meters":31200,"station_id":"ce4bhch2rcd13ifvqeug","pricing_plan_id":"cebpf4jnsgd1na2vs0mg"},{"bike_id":"f3b69c34-10e7-4317-9526-21af752e0d86","system_id":"levelo_inurba_marseille","lat":43.27608,"lon":5.36118,"is_reserved":false,"is_disabled":false,"rental_uris":{"android":"levelo://app?vid=f3b69c34-10e7-4317-9526-21af752e0d86","ios":"levelo://app?vid=f3b69c34-10e7-4317-9526-21af752e0d86"},"vehicle_type_id":"4","last_reported":1729418931,"current_range_meters":38000,"station_id":"ce4bgj92rcd13ifvqbe0","pricing_plan_id":"cebpf4jnsgd1na2vs0mg"},{"bike_id":"abf89b06-8e5d-4c13-9f38-ee65f3c4b547","system_id":"levelo_inurba_marseille","lat":43.25088,"lon":5.39527,"is_reserved":false,"is_disabled":false,"rental_uris":{"android":"levelo://app?vid=abf89b06-8e5d-4c13-9f38-ee65f3c4b547","ios":"levelo://app?vid=abf89b06-8e5d-4c13-9f38-ee65f3c4b547"},"vehicle_type_id":"4","last_reported":1729418931,"current_range_meters":38800,"station_id":"ce4bhm12rcd13ifvqgkg","pricing_plan_id":"cebpf4jnsgd1na2vs0mg"},{"bike_id":"9d912eba-02a5-41c2-8d48-c02ba9a29689","system_id":"levelo_inurba_marseille","lat":43.27499,"lon":5.42449,"is_reserved":false,"is_disabled":false,"rental_uris":{"android":"levelo://app?vid=9d912eba-02a5-41c2-8d48-c02ba9a29689","ios":"levelo://app?vid=9d912eba-02a5-41c2-8d48-c02ba9a29689"},"vehicle_type_id":"4","last_reported":1729418931,"current_range_meters":36400,"station_id":"ce4bhn92rcd13ifvqgrg","pricing_plan_id":"cebpf4jnsgd1na2vs0mg"},{"bike_id":"98f7b4ed-0d9f-453b-9176-41ebd99c3142","system_id":"levelo_inurba_marseille","lat":43.336,"lon":5.41023,"is_reserved":false,"is_disabled":false,"rental_uris":{"android":"levelo://app?vid=98f7b4ed-0d9f-453b-9176-41ebd99c3142","ios":"levelo://app?vid=98f7b4ed-0d9f-453b-9176-41ebd99c3142"},"vehicle_type_id":"4","last_reported":1729418931,"current_range_meters":37600,"station_id":"ce4bhqh2rcd13ifvqhmg","pricing_plan_id":"cebpf4jnsgd1na2vs0mg"},{"bike_id":"d85aed35-4005-4c2e-863d-273016e09085","system_id":"levelo_inurba_marseille","lat":43.24394,"lon":5.37059,"is_reserved":false,"is_disabled":false,"rental_uris":{"android":"levelo://app?vid=d85aed35-4005-4c2e-863d-273016e09085","ios":"levelo://app?vid=d85aed35-4005-4c2e-863d-273016e09085"},"vehicle_type_id":"4","last_reported":1729418931,"current_range_meters":30400,"station_id":"ce4bhhh2rcd13ifvqfk0","pricing_plan_id":"cebpf4jnsgd1na2vs0mg"},{"bike_id":"9fa7c963-2f9d-4588-8236-ff860a4358c6","system_id":"levelo_inurba_marseille","lat":43.27384,"lon":5.36252,"is_reserved":false,"is_disabled":false,"rental_uris":{"android":"levelo://app?vid=9fa7c963-2f9d-4588-8236-ff860a4358c6","ios":"levelo://app?vid=9fa7c963-2f9d-4588-8236-ff860a4358c6"},"vehicle_type_id":"4","last_reported":1729418931,"current_range_meters":37600,"station_id":"ce4bhbh2rcd13ifvqeo0","pricing_plan_id":"cebpf4jnsgd1na2vs0mg"},{"bike_id":"68ecf5b1-3e27-4073-bcfd-9b4d888b6f5c","system_id":"levelo_inurba_marseille","lat":43.32112,"lon":5.36782,"is_reserved":false,"is_disabled":false,"rental_uris":{"android":"levelo://app?vid=68ecf5b1-3e27-4073-bcfd-9b4d888b6f5c","ios":"levelo://app?vid=68ecf5b1-3e27-4073-bcfd-9b4d888b6f5c"},"vehicle_type_id":"4","last_reported":1729418931,"current_range_meters":36800,"station_id":"ce4bhrh2rcd13ifvqhug","pricing_plan_id":"cebpf4jnsgd1na2vs0mg"},{"bike_id":"6c4fed87-6be3-4d97-9301-4412accaca73","system_id":"levelo_inurba_marseille","lat":43.23967,"lon":5.36636,"is_reserved":false,"is_disabled":false,"rental_uris":{"android":"levelo://app?vid=6c4fed87-6be3-4d97-9301-4412accaca73","ios":"levelo://app?vid=6c4fed87-6be3-4d97-9301-4412accaca73"},"vehicle_type_id":"4","last_reported":1729418931,"current_range_meters":31200,"station_id":"ce4bhi12rcd13ifvqfp0","pricing_plan_id":"cebpf4jnsgd1na2vs0mg"},{"bike_id":"3429dbea-ec63-42a0-80fa-1a5946b7a15e","system_id":"levelo_inurba_marseille","lat":43.2477,"lon":5.37425,"is_reserved":false,"is_disabled":false,"rental_uris":{"android":"levelo://app?vid=3429dbea-ec63-42a0-80fa-1a5946b7a15e","ios":"levelo://app?vid=3429dbea-ec63-42a0-80fa-1a5946b7a15e"},"vehicle_type_id":"4","last_reported":1729418931,"current_range_meters":20000,"station_id":"ce4bhgh2rcd13ifvqfb0","pricing_plan_id":"cebpf4jnsgd1na2vs0mg"},{"bike_id":"32c65db3-a0c8-4aca-bd02-3287e5e668b1","system_id":"levelo_inurba_marseille","lat":43.262,"lon":5.37925,"is_reserved":false,"is_disabled":false,"rental_uris":{"android":"levelo://app?vid=32c65db3-a0c8-4aca-bd02-3287e5e668b1","ios":"levelo://app?vid=32c65db3-a0c8-4aca-bd02-3287e5e668b1"},"vehicle_type_id":"4","last_reported":1729418931,"current_range_meters":39200,"station_id":"ce4bhjp2rcd13ifvqg90","pricing_plan_id":"cebpf4jnsgd1na2vs0mg"},{"bike_id":"40478088-7cfb-495e-8765-8259e3400ba3","system_id":"levelo_inurba_marseille","lat":43.28419,"lon":5.37522,"is_reserved":false,"is_disabled":false,"rental_uris":{"android":"levelo://app?vid=40478088-7cfb-495e-8765-8259e3400ba3","ios":"levelo://app?vid=40478088-7cfb-495e-8765-8259e3400ba3"},"vehicle_type_id":"4","last_reported":1729418931,"current_range_meters":32800,"station_id":"ce4bh412rcd13ifvqds0","pricing_plan_id":"cebpf4jnsgd1na2vs0mg"},{"bike_id":"ab25e50e-031e-49b2-92c3-bc31c1e4e638","system_id":"levelo_inurba_marseille","lat":43.27978,"lon":5.41677,"is_reserved":false,"is_disabled":false,"rental_uris":{"android":"levelo://app?vid=ab25e50e-031e-49b2-92c3-bc31c1e4e638","ios":"levelo://app?vid=ab25e50e-031e-49b2-92c3-bc31c1e4e638"},"vehicle_type_id":"4","last_reported":1729418931,"current_range_meters":9200,"station_id":"ce4bho12rcd13ifvqh1g","pricing_plan_id":"cebpf4jnsgd1na2vs0mg"},{"bike_id":"57dd0012-e7c2-43e3-90a1-087125ac63fa","system_id":"levelo_inurba_marseille","lat":43.33753,"lon":5.37454,"is_reserved":false,"is_disabled":false,"rental_uris":{"android":"levelo://app?vid=57dd0012-e7c2-43e3-90a1-087125ac63fa","ios":"levelo://app?vid=57dd0012-e7c2-43e3-90a1-087125ac63fa"},"vehicle_type_id":"4","last_reported":1729418931,"current_range_meters":35600,"station_id":"","pricing_plan_id":"cebpf4jnsgd1na2vs0mg"},{"bike_id":"dbf5ea83-8818-4c92-b0db-0c9245fa4d6c","system_id":"levelo_inurba_marseille","lat":43.23158,"lon":5.43705,"is_reserved":false,"is_disabled":false,"rental_uris":{"android":"levelo://app?vid=dbf5ea83-8818-4c92-b0db-0c9245fa4d6c","ios":"levelo://app?vid=dbf5ea83-8818-4c92-b0db-0c9245fa4d6c"},"vehicle_type_id":"4","last_reported":1729418931,"current_range_meters":24800,"station_id":"ce4bhmp2rcd13ifvqgog","pricing_plan_id":"cebpf4jnsgd1na2vs0mg"},{"bike_id":"308cc78b-7ede-41af-8473-9264aefaaa72","system_id":"levelo_inurba_marseille","lat":43.24806,"lon":5.37455,"is_reserved":false,"is_disabled":false,"rental_uris":{"android":"levelo://app?vid=308cc78b-7ede-41af-8473-9264aefaaa72","ios":"levelo://app?vid=308cc78b-7ede-41af-8473-9264aefaaa72"},"vehicle_type_id":"4","last_reported":1729418931,"current_range_meters":35200,"station_id":"ce4bhgh2rcd13ifvqfb0","pricing_plan_id":"cebpf4jnsgd1na2vs0mg"},{"bike_id":"56089be0-332d-429c-85dd-3b8dbab7080a","system_id":"levelo_inurba_marseille","lat":43.31689,"lon":5.4047,"is_reserved":false,"is_disabled":false,"rental_uris":{"android":"levelo://app?vid=56089be0-332d-429c-85dd-3b8dbab7080a","ios":"levelo://app?vid=56089be0-332d-429c-85dd-3b8dbab7080a"},"vehicle_type_id":"4","last_reported":1729418931,"current_range_meters":5600,"station_id":"ce4bh012rcd13ifvqd00","pricing_plan_id":"cebpf4jnsgd1na2vs0mg"},{"bike_id":"5694eb7f-ac74-444e-8124-7b93c24b932f","system_id":"levelo_inurba_marseille","lat":43.28615,"lon":5.35101,"is_reserved":false,"is_disabled":false,"rental_uris":{"android":"levelo://app?vid=5694eb7f-ac74-444e-8124-7b93c24b932f","ios":"levelo://app?vid=5694eb7f-ac74-444e-8124-7b93c24b932f"},"vehicle_type_id":"4","last_reported":1729418931,"current_range_meters":19600,"station_id":"ce4bhch2rcd13ifvqeug","pricing_plan_id":"cebpf4jnsgd1na2vs0mg"},{"bike_id":"970ce056-93b7-4b51-889b-8fcf2f52c05f","system_id":"levelo_inurba_marseille","lat":43.24546,"lon":5.39519,"is_reserved":false,"is_disabled":false,"rental_uris":{"android":"levelo://app?vid=970ce056-93b7-4b51-889b-8fcf2f52c05f","ios":"levelo://app?vid=970ce056-93b7-4b51-889b-8fcf2f52c05f"},"vehicle_type_id":"4","last_reported":1729418931,"current_range_meters":8400,"station_id":"ce4bhlp2rcd13ifvqgjg","pricing_plan_id":"cebpf4jnsgd1na2vs0mg"},{"bike_id":"00616245-e70e-40c2-8bfd-808c71661f98","system_id":"levelo_inurba_marseille","lat":43.311768,"lon":5.38714,"is_reserved":false,"is_disabled":false,"rental_uris":{"android":"levelo://app?vid=00616245-e70e-40c2-8bfd-808c71661f98","ios":"levelo://app?vid=00616245-e70e-40c2-8bfd-808c71661f98"},"vehicle_type_id":"4","last_reported":1729418931,"current_range_meters":30400,"station_id":"ce4bgv12rcd13ifvqcp0","pricing_plan_id":"cebpf4jnsgd1na2vs0mg"},{"bike_id":"c2359229-823b-410c-ba1a-ced72b589bbf","system_id":"levelo_inurba_marseille","lat":43.27421,"lon":5.39411,"is_reserved":false,"is_disabled":false,"rental_uris":{"android":"levelo://app?vid=c2359229-823b-410c-ba1a-ced72b589bbf","ios":"levelo://app?vid=c2359229-823b-410c-ba1a-ced72b589bbf"},"vehicle_type_id":"4","last_reported":1729418931,"current_range_meters":38800,"station_id":"ce4bhdp2rcd13ifvqf20","pricing_plan_id":"cebpf4jnsgd1na2vs0mg"},{"bike_id":"ccfe3b3c-6495-4eaa-9764-c4646df21006","system_id":"levelo_inurba_marseille","lat":43.23152,"lon":5.43705,"is_reserved":false,"is_disabled":false,"rental_uris":{"android":"levelo://app?vid=ccfe3b3c-6495-4eaa-9764-c4646df21006","ios":"levelo://app?vid=ccfe3b3c-6495-4eaa-9764-c4646df21006"},"vehicle_type_id":"4","last_reported":1729418931,"current_range_meters":17200,"station_id":"ce4bhmp2rcd13ifvqgog","pricing_plan_id":"cebpf4jnsgd1na2vs0mg"},{"bike_id":"3f330c29-c7e3-4c1d-ac90-30d1aaec240b","system_id":"levelo_inurba_marseille","lat":43.24075,"lon":5.37761,"is_reserved":false,"is_disabled":false,"rental_uris":{"android":"levelo://app?vid=3f330c29-c7e3-4c1d-ac90-30d1aaec240b","ios":"levelo://app?vid=3f330c29-c7e3-4c1d-ac90-30d1aaec240b"},"vehicle_type_id":"4","last_reported":1729418931,"current_range_meters":38000,"station_id":"ce4bhnp2rcd13ifvqgvg","pricing_plan_id":"cebpf4jnsgd1na2vs0mg"},{"bike_id":"5d847fac-c7d4-43c6-aa6f-5b3a6f03ba9c","system_id":"levelo_inurba_marseille","lat":43.30139,"lon":5.37422,"is_reserved":false,"is_disabled":false,"rental_uris":{"android":"levelo://app?vid=5d847fac-c7d4-43c6-aa6f-5b3a6f03ba9c","ios":"levelo://app?vid=5d847fac-c7d4-43c6-aa6f-5b3a6f03ba9c"},"vehicle_type_id":"4","last_reported":1729418931,"current_range_meters":39200,"station_id":"ce4bgs92rcd13ifvqcc0","pricing_plan_id":"cebpf4jnsgd1na2vs0mg"},{"bike_id":"3688470e-6d40-4bbb-a815-cea881c34cb3","system_id":"levelo_inurba_marseille","lat":43.2679,"lon":5.39416,"is_reserved":false,"is_disabled":false,"rental_uris":{"android":"levelo://app?vid=3688470e-6d40-4bbb-a815-cea881c34cb3","ios":"levelo://app?vid=3688470e-6d40-4bbb-a815-cea881c34cb3"},"vehicle_type_id":"4","last_reported":1729418931,"current_range_meters":38800,"station_id":"ce4bhh12rcd13ifvqfg0","pricing_plan_id":"cebpf4jnsgd1na2vs0mg"},{"bike_id":"6efe2dd2-a32d-4db7-892a-8226ac965d8e","system_id":"levelo_inurba_marseille","lat":43.27185,"lon":5.4099,"is_reserved":false,"is_disabled":false,"rental_uris":{"android":"levelo://app?vid=6efe2dd2-a32d-4db7-892a-8226ac965d8e","ios":"levelo://app?vid=6efe2dd2-a32d-4db7-892a-8226ac965d8e"},"vehicle_type_id":"4","last_reported":1729418931,"current_range_meters":38000,"station_id":"ce4bhl12rcd13ifvqgf0","pricing_plan_id":"cebpf4jnsgd1na2vs0mg"},{"bike_id":"343aa4d1-f953-489c-ab86-dc9d91d2a18b","system_id":"levelo_inurba_marseille","lat":43.304,"lon":5.37011,"is_reserved":false,"is_disabled":false,"rental_uris":{"android":"levelo://app?vid=343aa4d1-f953-489c-ab86-dc9d91d2a18b","ios":"levelo://app?vid=343aa4d1-f953-489c-ab86-dc9d91d2a18b"},"vehicle_type_id":"4","last_reported":1729418931,"current_range_meters":24400,"station_id":"ce4bgnh2rcd13ifvqc0g","pricing_plan_id":"cebpf4jnsgd1na2vs0mg"},{"bike_id":"3fc3344c-8b02-4a3d-b256-2e7a5003b4bf","system_id":"levelo_inurba_marseille","lat":43.239677,"lon":5.3663,"is_reserved":false,"is_disabled":false,"rental_uris":{"android":"levelo://app?vid=3fc3344c-8b02-4a3d-b256-2e7a5003b4bf","ios":"levelo://app?vid=3fc3344c-8b02-4a3d-b256-2e7a5003b4bf"},"vehicle_type_id":"4","last_reported":1729418931,"current_range_meters":12000,"station_id":"ce4bhi12rcd13ifvqfp0","pricing_plan_id":"cebpf4jnsgd1na2vs0mg"},{"bike_id":"a8974f40-a9a1-4432-8314-6a4642ac28a4","system_id":"levelo_inurba_marseille","lat":43.28105,"lon":5.37839,"is_reserved":false,"is_disabled":false,"rental_uris":{"android":"levelo://app?vid=a8974f40-a9a1-4432-8314-6a4642ac28a4","ios":"levelo://app?vid=a8974f40-a9a1-4432-8314-6a4642ac28a4"},"vehicle_type_id":"4","last_reported":1729418931,"current_range_meters":38800,"station_id":"ce4bha12rcd13ifvqee0","pricing_plan_id":"cebpf4jnsgd1na2vs0mg"},{"bike_id":"6cf6e3f2-d67f-4577-85be-79bfa89d8097","system_id":"levelo_inurba_marseille","lat":43.28471,"lon":5.3589,"is_reserved":false,"is_disabled":false,"rental_uris":{"android":"levelo://app?vid=6cf6e3f2-d67f-4577-85be-79bfa89d8097","ios":"levelo://app?vid=6cf6e3f2-d67f-4577-85be-79bfa89d8097"},"vehicle_type_id":"4","last_reported":1729418931,"current_range_meters":38800,"station_id":"ce4bhah2rcd13ifvqei0","pricing_plan_id":"cebpf4jnsgd1na2vs0mg"},{"bike_id":"9032d96b-507c-452d-97c0-38b7559bf1f5","system_id":"levelo_inurba_marseille","lat":43.27373,"lon":5.36257,"is_reserved":false,"is_disabled":false,"rental_uris":{"android":"levelo://app?vid=9032d96b-507c-452d-97c0-38b7559bf1f5","ios":"levelo://app?vid=9032d96b-507c-452d-97c0-38b7559bf1f5"},"vehicle_type_id":"4","last_reported":1729418931,"current_range_meters":33200,"station_id":"ce4bhbh2rcd13ifvqeo0","pricing_plan_id":"cebpf4jnsgd1na2vs0mg"},{"bike_id":"e3b6f8d6-715d-433b-8ab0-718ff6b21ad1","system_id":"levelo_inurba_marseille","lat":43.27067,"lon":5.42272,"is_reserved":false,"is_disabled":false,"rental_uris":{"android":"levelo://app?vid=e3b6f8d6-715d-433b-8ab0-718ff6b21ad1","ios":"levelo://app?vid=e3b6f8d6-715d-433b-8ab0-718ff6b21ad1"},"vehicle_type_id":"4","last_reported":1729418931,"current_range_meters":8400,"station_id":"ce4bhk92rcd13ifvqgb0","pricing_plan_id":"cebpf4jnsgd1na2vs0mg"},{"bike_id":"fca55886-769e-4104-8bc2-0030b8dbff79","system_id":"levelo_inurba_marseille","lat":43.24084,"lon":5.3773,"is_reserved":false,"is_disabled":false,"rental_uris":{"android":"levelo://app?vid=fca55886-769e-4104-8bc2-0030b8dbff79","ios":"levelo://app?vid=fca55886-769e-4104-8bc2-0030b8dbff79"},"vehicle_type_id":"4","last_reported":1729418931,"current_range_meters":38000,"station_id":"ce4bhnp2rcd13ifvqgvg","pricing_plan_id":"cebpf4jnsgd1na2vs0mg"},{"bike_id":"c1a10003-2496-456b-9c14-55fceeb3724a","system_id":"levelo_inurba_marseille","lat":43.32483,"lon":5.36571,"is_reserved":false,"is_disabled":false,"rental_uris":{"android":"levelo://app?vid=c1a10003-2496-456b-9c14-55fceeb3724a","ios":"levelo://app?vid=c1a10003-2496-456b-9c14-55fceeb3724a"},"vehicle_type_id":"4","last_reported":1729418931,"current_range_meters":40000,"station_id":"ce4bhs12rcd13ifvqhvg","pricing_plan_id":"cebpf4jnsgd1na2vs0mg"},{"bike_id":"35e7f867-368c-476c-a860-684a9be05389","system_id":"levelo_inurba_marseille","lat":43.26564,"lon":5.39004,"is_reserved":false,"is_disabled":false,"rental_uris":{"android":"levelo://app?vid=35e7f867-368c-476c-a860-684a9be05389","ios":"levelo://app?vid=35e7f867-368c-476c-a860-684a9be05389"},"vehicle_type_id":"4","last_reported":1729418931,"current_range_meters":36000,"station_id":"ce4bhe12rcd13ifvqf30","pricing_plan_id":"cebpf4jnsgd1na2vs0mg"},{"bike_id":"f490017a-613e-4e2e-9bf4-2c1653c07048","system_id":"levelo_inurba_marseille","lat":43.30608,"lon":5.37225,"is_reserved":false,"is_disabled":false,"rental_uris":{"android":"levelo://app?vid=f490017a-613e-4e2e-9bf4-2c1653c07048","ios":"levelo://app?vid=f490017a-613e-4e2e-9bf4-2c1653c07048"},"vehicle_type_id":"4","last_reported":1729418931,"current_range_meters":38800,"station_id":"ce4bgqh2rcd13ifvqc4g","pricing_plan_id":"cebpf4jnsgd1na2vs0mg"},{"bike_id":"3a032f4e-c93b-40cf-b208-ace4e29a756b","system_id":"levelo_inurba_marseille","lat":43.3089,"lon":5.37197,"is_reserved":false,"is_disabled":false,"rental_uris":{"android":"levelo://app?vid=3a032f4e-c93b-40cf-b208-ace4e29a756b","ios":"levelo://app?vid=3a032f4e-c93b-40cf-b208-ace4e29a756b"},"vehicle_type_id":"4","last_reported":1729418931,"current_range_meters":25600,"station_id":"ce4bguh2rcd13ifvqckg","pricing_plan_id":"cebpf4jnsgd1na2vs0mg"},{"bike_id":"44ee44ae-99eb-4679-9b95-0975a5bc106f","system_id":"levelo_inurba_marseille","lat":43.29029,"lon":5.3864,"is_reserved":false,"is_disabled":false,"rental_uris":{"android":"levelo://app?vid=44ee44ae-99eb-4679-9b95-0975a5bc106f","ios":"levelo://app?vid=44ee44ae-99eb-4679-9b95-0975a5bc106f"},"vehicle_type_id":"4","last_reported":1729418931,"current_range_meters":22800,"station_id":"ce4bh4p2rcd13ifvqe0g","pricing_plan_id":"cebpf4jnsgd1na2vs0mg"},{"bike_id":"336d97b2-77c8-4d9d-ace7-04668b54be02","system_id":"levelo_inurba_marseille","lat":43.3091,"lon":5.36858,"is_reserved":false,"is_disabled":false,"rental_uris":{"android":"levelo://app?vid=336d97b2-77c8-4d9d-ace7-04668b54be02","ios":"levelo://app?vid=336d97b2-77c8-4d9d-ace7-04668b54be02"},"vehicle_type_id":"4","last_reported":1729418931,"current_range_meters":32400,"station_id":"ce4bgn92rcd13ifvqbvg","pricing_plan_id":"cebpf4jnsgd1na2vs0mg"},{"bike_id":"e51f2988-7e18-4959-b529-31b52045dc80","system_id":"levelo_inurba_marseille","lat":43.28279,"lon":5.35072,"is_reserved":false,"is_disabled":false,"rental_uris":{"android":"levelo://app?vid=e51f2988-7e18-4959-b529-31b52045dc80","ios":"levelo://app?vid=e51f2988-7e18-4959-b529-31b52045dc80"},"vehicle_type_id":"4","last_reported":1729418931,"current_range_meters":38800,"station_id":"ce4bhbp2rcd13ifvqerg","pricing_plan_id":"cebpf4jnsgd1na2vs0mg"},{"bike_id":"55b3a8f5-19d1-4d08-bf99-ccf2c312bc04","system_id":"levelo_inurba_marseille","lat":43.23188,"lon":5.35546,"is_reserved":false,"is_disabled":false,"rental_uris":{"android":"levelo://app?vid=55b3a8f5-19d1-4d08-bf99-ccf2c312bc04","ios":"levelo://app?vid=55b3a8f5-19d1-4d08-bf99-ccf2c312bc04"},"vehicle_type_id":"4","last_reported":1729418931,"current_range_meters":38400,"station_id":"ce4bhu92rcd13ifvqi70","pricing_plan_id":"cebpf4jnsgd1na2vs0mg"},{"bike_id":"da58c229-f218-4a25-bd5c-1b04ed0d7c0f","system_id":"levelo_inurba_marseille","lat":43.27798,"lon":5.39053,"is_reserved":false,"is_disabled":false,"rental_uris":{"android":"levelo://app?vid=da58c229-f218-4a25-bd5c-1b04ed0d7c0f","ios":"levelo://app?vid=da58c229-f218-4a25-bd5c-1b04ed0d7c0f"},"vehicle_type_id":"4","last_reported":1729418931,"current_range_meters":38800,"station_id":"ce4bhf92rcd13ifvqf50","pricing_plan_id":"cebpf4jnsgd1na2vs0mg"},{"bike_id":"bab89061-c289-4af1-b926-7294305734ac","system_id":"levelo_inurba_marseille","lat":43.32343,"lon":5.40624,"is_reserved":false,"is_disabled":false,"rental_uris":{"android":"levelo://app?vid=bab89061-c289-4af1-b926-7294305734ac","ios":"levelo://app?vid=bab89061-c289-4af1-b926-7294305734ac"},"vehicle_type_id":"4","last_reported":1729418931,"current_range_meters":24400,"station_id":"ce4bhq92rcd13ifvqhjg","pricing_plan_id":"cebpf4jnsgd1na2vs0mg"},{"bike_id":"43d24770-4ece-4a77-a029-fe46e9bde13b","system_id":"levelo_inurba_marseille","lat":43.31571,"lon":5.37418,"is_reserved":false,"is_disabled":false,"rental_uris":{"android":"levelo://app?vid=43d24770-4ece-4a77-a029-fe46e9bde13b","ios":"levelo://app?vid=43d24770-4ece-4a77-a029-fe46e9bde13b"},"vehicle_type_id":"4","last_reported":1729418931,"current_range_meters":37600,"station_id":"","pricing_plan_id":"cebpf4jnsgd1na2vs0mg"},{"bike_id":"52649006-e59a-4d1d-82aa-f4e6b86222eb","system_id":"levelo_inurba_marseille","lat":43.32295,"lon":5.3827,"is_reserved":false,"is_disabled":false,"rental_uris":{"android":"levelo://app?vid=52649006-e59a-4d1d-82aa-f4e6b86222eb","ios":"levelo://app?vid=52649006-e59a-4d1d-82aa-f4e6b86222eb"},"vehicle_type_id":"4","last_reported":1729418931,"current_range_meters":12800,"station_id":"ce4bhr12rcd13ifvqhqg","pricing_plan_id":"cebpf4jnsgd1na2vs0mg"},{"bike_id":"d54dc545-6cb0-450e-bb07-4dcea31d733f","system_id":"levelo_inurba_marseille","lat":43.29869,"lon":5.38906,"is_reserved":false,"is_disabled":false,"rental_uris":{"android":"levelo://app?vid=d54dc545-6cb0-450e-bb07-4dcea31d733f","ios":"levelo://app?vid=d54dc545-6cb0-450e-bb07-4dcea31d733f"},"vehicle_type_id":"4","last_reported":1729418931,"current_range_meters":30000,"station_id":"ce4bh392rcd13ifvqdl0","pricing_plan_id":"cebpf4jnsgd1na2vs0mg"},{"bike_id":"fc7f4567-a446-45c7-ad62-ebccfaf94f09","system_id":"levelo_inurba_marseille","lat":43.26793,"lon":5.39408,"is_reserved":false,"is_disabled":false,"rental_uris":{"android":"levelo://app?vid=fc7f4567-a446-45c7-ad62-ebccfaf94f09","ios":"levelo://app?vid=fc7f4567-a446-45c7-ad62-ebccfaf94f09"},"vehicle_type_id":"4","last_reported":1729418931,"current_range_meters":17600,"station_id":"ce4bhh12rcd13ifvqfg0","pricing_plan_id":"cebpf4jnsgd1na2vs0mg"},{"bike_id":"766da900-471d-42f5-8cfa-8db494f945d7","system_id":"levelo_inurba_marseille","lat":43.28917,"lon":5.46057,"is_reserved":false,"is_disabled":false,"rental_uris":{"android":"levelo://app?vid=766da900-471d-42f5-8cfa-8db494f945d7","ios":"levelo://app?vid=766da900-471d-42f5-8cfa-8db494f945d7"},"vehicle_type_id":"4","last_reported":1729418931,"current_range_meters":25200,"station_id":"","pricing_plan_id":"cebpf4jnsgd1na2vs0mg"},{"bike_id":"8e27a1bb-94f1-4044-8b2a-a44b88f9fae1","system_id":"levelo_inurba_marseille","lat":43.28421,"lon":5.3498,"is_reserved":false,"is_disabled":false,"rental_uris":{"android":"levelo://app?vid=8e27a1bb-94f1-4044-8b2a-a44b88f9fae1","ios":"levelo://app?vid=8e27a1bb-94f1-4044-8b2a-a44b88f9fae1"},"vehicle_type_id":"4","last_reported":1729418931,"current_range_meters":32400,"station_id":"ce4bhbh2rcd13ifvqepg","pricing_plan_id":"cebpf4jnsgd1na2vs0mg"},{"bike_id":"f49bd908-6226-4721-9fcd-84d8afde0171","system_id":"levelo_inurba_marseille","lat":43.260572,"lon":5.375334,"is_reserved":false,"is_disabled":false,"rental_uris":{"android":"levelo://app?vid=f49bd908-6226-4721-9fcd-84d8afde0171","ios":"levelo://app?vid=f49bd908-6226-4721-9fcd-84d8afde0171"},"vehicle_type_id":"4","last_reported":1729418931,"current_range_meters":4000,"station_id":"ce4bhgh2rcd13ifvqfa0","pricing_plan_id":"cebpf4jnsgd1na2vs0mg"},{"bike_id":"5bf63a10-4d26-4900-ae57-eea03a0625eb","system_id":"levelo_inurba_marseille","lat":43.30306,"lon":5.36891,"is_reserved":false,"is_disabled":false,"rental_uris":{"android":"levelo://app?vid=5bf63a10-4d26-4900-ae57-eea03a0625eb","ios":"levelo://app?vid=5bf63a10-4d26-4900-ae57-eea03a0625eb"},"vehicle_type_id":"4","last_reported":1729418931,"current_range_meters":28400,"station_id":"ce4bgqh2rcd13ifvqc5g","pricing_plan_id":"cebpf4jnsgd1na2vs0mg"},{"bike_id":"eefa5202-0b98-49ff-b525-e6f7b27c8f69","system_id":"levelo_inurba_marseille","lat":43.25087,"lon":5.39519,"is_reserved":false,"is_disabled":false,"rental_uris":{"android":"levelo://app?vid=eefa5202-0b98-49ff-b525-e6f7b27c8f69","ios":"levelo://app?vid=eefa5202-0b98-49ff-b525-e6f7b27c8f69"},"vehicle_type_id":"4","last_reported":1729418931,"current_range_meters":30000,"station_id":"ce4bhm12rcd13ifvqgkg","pricing_plan_id":"cebpf4jnsgd1na2vs0mg"},{"bike_id":"cc10d048-9360-4f1c-b075-bd6d08c1c67a","system_id":"levelo_inurba_marseille","lat":43.24168,"lon":5.36395,"is_reserved":false,"is_disabled":false,"rental_uris":{"android":"levelo://app?vid=cc10d048-9360-4f1c-b075-bd6d08c1c67a","ios":"levelo://app?vid=cc10d048-9360-4f1c-b075-bd6d08c1c67a"},"vehicle_type_id":"4","last_reported":1729418931,"current_range_meters":14800,"station_id":"cpo36qri1sfpv3e86is0","pricing_plan_id":"cebpf4jnsgd1na2vs0mg"},{"bike_id":"48e31542-40b2-4d9a-9066-b8fd489905a2","system_id":"levelo_inurba_marseille","lat":43.27375,"lon":5.36258,"is_reserved":false,"is_disabled":false,"rental_uris":{"android":"levelo://app?vid=48e31542-40b2-4d9a-9066-b8fd489905a2","ios":"levelo://app?vid=48e31542-40b2-4d9a-9066-b8fd489905a2"},"vehicle_type_id":"4","last_reported":1729418931,"current_range_meters":8800,"station_id":"ce4bhbh2rcd13ifvqeo0","pricing_plan_id":"cebpf4jnsgd1na2vs0mg"},{"bike_id":"b1987f79-3507-468b-81ed-924312b61f29","system_id":"levelo_inurba_marseille","lat":43.27369,"lon":5.3626,"is_reserved":false,"is_disabled":false,"rental_uris":{"android":"levelo://app?vid=b1987f79-3507-468b-81ed-924312b61f29","ios":"levelo://app?vid=b1987f79-3507-468b-81ed-924312b61f29"},"vehicle_type_id":"4","last_reported":1729418931,"current_range_meters":39200,"station_id":"ce4bhbh2rcd13ifvqeo0","pricing_plan_id":"cebpf4jnsgd1na2vs0mg"},{"bike_id":"68dd0e9a-435f-4944-be2e-18dd27411802","system_id":"levelo_inurba_marseille","lat":43.29707,"lon":5.36619,"is_reserved":false,"is_disabled":false,"rental_uris":{"android":"levelo://app?vid=68dd0e9a-435f-4944-be2e-18dd27411802","ios":"levelo://app?vid=68dd0e9a-435f-4944-be2e-18dd27411802"},"vehicle_type_id":"4","last_reported":1729418931,"current_range_meters":37600,"station_id":"ce4bgn12rcd13ifvqbt0","pricing_plan_id":"cebpf4jnsgd1na2vs0mg"},{"bike_id":"d814f68c-7da8-427e-a5ac-8b8ef4a55e75","system_id":"levelo_inurba_marseille","lat":43.30537,"lon":5.36533,"is_reserved":false,"is_disabled":false,"rental_uris":{"android":"levelo://app?vid=d814f68c-7da8-427e-a5ac-8b8ef4a55e75","ios":"levelo://app?vid=d814f68c-7da8-427e-a5ac-8b8ef4a55e75"},"vehicle_type_id":"4","last_reported":1729418931,"current_range_meters":19600,"station_id":"ce4bgs12rcd13ifvqcag","pricing_plan_id":"cebpf4jnsgd1na2vs0mg"},{"bike_id":"6827e683-dc26-4492-aea8-b26fdf2a9add","system_id":"levelo_inurba_marseille","lat":43.32347,"lon":5.40624,"is_reserved":false,"is_disabled":false,"rental_uris":{"android":"levelo://app?vid=6827e683-dc26-4492-aea8-b26fdf2a9add","ios":"levelo://app?vid=6827e683-dc26-4492-aea8-b26fdf2a9add"},"vehicle_type_id":"4","last_reported":1729418931,"current_range_meters":6800,"station_id":"ce4bhq92rcd13ifvqhjg","pricing_plan_id":"cebpf4jnsgd1na2vs0mg"},{"bike_id":"377d350b-9df2-4f48-972e-2d520cb9c9ab","system_id":"levelo_inurba_marseille","lat":43.29853,"lon":5.36281,"is_reserved":false,"is_disabled":false,"rental_uris":{"android":"levelo://app?vid=377d350b-9df2-4f48-972e-2d520cb9c9ab","ios":"levelo://app?vid=377d350b-9df2-4f48-972e-2d520cb9c9ab"},"vehicle_type_id":"4","last_reported":1729418931,"current_range_meters":39200,"station_id":"ce4bgpp2rcd13ifvqc3g","pricing_plan_id":"cebpf4jnsgd1na2vs0mg"},{"bike_id":"9f7a3d33-c807-4daf-b39c-972b0750f33d","system_id":"levelo_inurba_marseille","lat":43.25585,"lon":5.3823,"is_reserved":false,"is_disabled":false,"rental_uris":{"android":"levelo://app?vid=9f7a3d33-c807-4daf-b39c-972b0750f33d","ios":"levelo://app?vid=9f7a3d33-c807-4daf-b39c-972b0750f33d"},"vehicle_type_id":"4","last_reported":1729418931,"current_range_meters":36400,"station_id":"ce4bhih2rcd13ifvqfs0","pricing_plan_id":"cebpf4jnsgd1na2vs0mg"},{"bike_id":"6e706dcb-6e41-41b6-a172-73765c66fdaa","system_id":"levelo_inurba_marseille","lat":43.26239,"lon":5.37584,"is_reserved":false,"is_disabled":false,"rental_uris":{"android":"levelo://app?vid=6e706dcb-6e41-41b6-a172-73765c66fdaa","ios":"levelo://app?vid=6e706dcb-6e41-41b6-a172-73765c66fdaa"},"vehicle_type_id":"4","last_reported":1729418931,"current_range_meters":34800,"station_id":"ce4bhhp2rcd13ifvqfm0","pricing_plan_id":"cebpf4jnsgd1na2vs0mg"},{"bike_id":"f2d47076-87a9-44e7-87ef-e23a32296373","system_id":"levelo_inurba_marseille","lat":43.30432,"lon":5.397393,"is_reserved":false,"is_disabled":false,"rental_uris":{"android":"levelo://app?vid=f2d47076-87a9-44e7-87ef-e23a32296373","ios":"levelo://app?vid=f2d47076-87a9-44e7-87ef-e23a32296373"},"vehicle_type_id":"4","last_reported":1729418931,"current_range_meters":12800,"station_id":"ce4bh012rcd13ifvqcv0","pricing_plan_id":"cebpf4jnsgd1na2vs0mg"},{"bike_id":"522bb5dc-efc4-45ac-a026-aafe838b2839","system_id":"levelo_inurba_marseille","lat":43.29786,"lon":5.37097,"is_reserved":false,"is_disabled":false,"rental_uris":{"android":"levelo://app?vid=522bb5dc-efc4-45ac-a026-aafe838b2839","ios":"levelo://app?vid=522bb5dc-efc4-45ac-a026-aafe838b2839"},"vehicle_type_id":"4","last_reported":1729418931,"current_range_meters":37600,"station_id":"ce4bgop2rcd13ifvqc1g","pricing_plan_id":"cebpf4jnsgd1na2vs0mg"},{"bike_id":"ec9d3b43-aaa9-4aa1-9332-56a28ff981eb","system_id":"levelo_inurba_marseille","lat":43.33025,"lon":5.39038,"is_reserved":false,"is_disabled":false,"rental_uris":{"android":"levelo://app?vid=ec9d3b43-aaa9-4aa1-9332-56a28ff981eb","ios":"levelo://app?vid=ec9d3b43-aaa9-4aa1-9332-56a28ff981eb"},"vehicle_type_id":"4","last_reported":1729418931,"current_range_meters":39200,"station_id":"ce4bhr92rcd13ifvqhrg","pricing_plan_id":"cebpf4jnsgd1na2vs0mg"},{"bike_id":"7772d39f-5e28-445c-af91-069b0cf63793","system_id":"levelo_inurba_marseille","lat":43.33765,"lon":5.37438,"is_reserved":false,"is_disabled":false,"rental_uris":{"android":"levelo://app?vid=7772d39f-5e28-445c-af91-069b0cf63793","ios":"levelo://app?vid=7772d39f-5e28-445c-af91-069b0cf63793"},"vehicle_type_id":"4","last_reported":1729418931,"current_range_meters":4800,"station_id":"","pricing_plan_id":"cebpf4jnsgd1na2vs0mg"},{"bike_id":"733eb2c5-00ab-4d49-8038-dfb888b12557","system_id":"levelo_inurba_marseille","lat":43.3199,"lon":5.38156,"is_reserved":false,"is_disabled":false,"rental_uris":{"android":"levelo://app?vid=733eb2c5-00ab-4d49-8038-dfb888b12557","ios":"levelo://app?vid=733eb2c5-00ab-4d49-8038-dfb888b12557"},"vehicle_type_id":"4","last_reported":1729418931,"current_range_meters":33200,"station_id":"ce4bhr12rcd13ifvqhpg","pricing_plan_id":"cebpf4jnsgd1na2vs0mg"},{"bike_id":"3213665e-989c-4d22-9f5a-31c8522597dd","system_id":"levelo_inurba_marseille","lat":43.296,"lon":5.36142,"is_reserved":false,"is_disabled":false,"rental_uris":{"android":"levelo://app?vid=3213665e-989c-4d22-9f5a-31c8522597dd","ios":"levelo://app?vid=3213665e-989c-4d22-9f5a-31c8522597dd"},"vehicle_type_id":"4","last_reported":1729418931,"current_range_meters":15200,"station_id":"","pricing_plan_id":"cebpf4jnsgd1na2vs0mg"},{"bike_id":"23bad941-e7bc-4f53-853a-62bdf995de8f","system_id":"levelo_inurba_marseille","lat":43.33025,"lon":5.39042,"is_reserved":false,"is_disabled":false,"rental_uris":{"android":"levelo://app?vid=23bad941-e7bc-4f53-853a-62bdf995de8f","ios":"levelo://app?vid=23bad941-e7bc-4f53-853a-62bdf995de8f"},"vehicle_type_id":"4","last_reported":1729418931,"current_range_meters":33600,"station_id":"ce4bhr92rcd13ifvqhrg","pricing_plan_id":"cebpf4jnsgd1na2vs0mg"},{"bike_id":"fd15510c-cb22-4d4b-b285-6de1e0fb4b50","system_id":"levelo_inurba_marseille","lat":43.23153,"lon":5.43711,"is_reserved":false,"is_disabled":false,"rental_uris":{"android":"levelo://app?vid=fd15510c-cb22-4d4b-b285-6de1e0fb4b50","ios":"levelo://app?vid=fd15510c-cb22-4d4b-b285-6de1e0fb4b50"},"vehicle_type_id":"4","last_reported":1729418931,"current_range_meters":17200,"station_id":"ce4bhmp2rcd13ifvqgog","pricing_plan_id":"cebpf4jnsgd1na2vs0mg"},{"bike_id":"3f3c663d-a6fd-4091-8533-6c09ca965902","system_id":"levelo_inurba_marseille","lat":43.31194,"lon":5.3771,"is_reserved":false,"is_disabled":false,"rental_uris":{"android":"levelo://app?vid=3f3c663d-a6fd-4091-8533-6c09ca965902","ios":"levelo://app?vid=3f3c663d-a6fd-4091-8533-6c09ca965902"},"vehicle_type_id":"4","last_reported":1729418931,"current_range_meters":14800,"station_id":"","pricing_plan_id":"cebpf4jnsgd1na2vs0mg"},{"bike_id":"275e8b97-c257-4f5b-9606-c19c9133569b","system_id":"levelo_inurba_marseille","lat":43.294779,"lon":5.363127,"is_reserved":false,"is_disabled":false,"rental_uris":{"android":"levelo://app?vid=275e8b97-c257-4f5b-9606-c19c9133569b","ios":"levelo://app?vid=275e8b97-c257-4f5b-9606-c19c9133569b"},"vehicle_type_id":"4","last_reported":1729418931,"current_range_meters":11600,"station_id":"","pricing_plan_id":"cebpf4jnsgd1na2vs0mg"},{"bike_id":"9a2117f0-c5b0-4dc2-891b-026a24af23f1","system_id":"levelo_inurba_marseille","lat":43.3105,"lon":5.40092,"is_reserved":false,"is_disabled":false,"rental_uris":{"android":"levelo://app?vid=9a2117f0-c5b0-4dc2-891b-026a24af23f1","ios":"levelo://app?vid=9a2117f0-c5b0-4dc2-891b-026a24af23f1"},"vehicle_type_id":"4","last_reported":1729418931,"current_range_meters":36000,"station_id":"","pricing_plan_id":"cebpf4jnsgd1na2vs0mg"},{"bike_id":"41d12afe-d43b-4212-9958-e7c01d02bfc5","system_id":"levelo_inurba_marseille","lat":43.25006,"lon":5.38921,"is_reserved":false,"is_disabled":false,"rental_uris":{"android":"levelo://app?vid=41d12afe-d43b-4212-9958-e7c01d02bfc5","ios":"levelo://app?vid=41d12afe-d43b-4212-9958-e7c01d02bfc5"},"vehicle_type_id":"4","last_reported":1729418931,"current_range_meters":38000,"station_id":"ce4bhgp2rcd13ifvqfd0","pricing_plan_id":"cebpf4jnsgd1na2vs0mg"},{"bike_id":"5dd719ab-a213-4094-b2e1-609f6924f39b","system_id":"levelo_inurba_marseille","lat":43.31992,"lon":5.38153,"is_reserved":false,"is_disabled":false,"rental_uris":{"android":"levelo://app?vid=5dd719ab-a213-4094-b2e1-609f6924f39b","ios":"levelo://app?vid=5dd719ab-a213-4094-b2e1-609f6924f39b"},"vehicle_type_id":"4","last_reported":1729418931,"current_range_meters":39200,"station_id":"ce4bhr12rcd13ifvqhpg","pricing_plan_id":"cebpf4jnsgd1na2vs0mg"},{"bike_id":"d1eaed94-2ffc-4609-a3b8-b0df4a991b21","system_id":"levelo_inurba_marseille","lat":43.31236,"lon":5.38478,"is_reserved":false,"is_disabled":false,"rental_uris":{"android":"levelo://app?vid=d1eaed94-2ffc-4609-a3b8-b0df4a991b21","ios":"levelo://app?vid=d1eaed94-2ffc-4609-a3b8-b0df4a991b21"},"vehicle_type_id":"4","last_reported":1729418931,"current_range_meters":14800,"station_id":"","pricing_plan_id":"cebpf4jnsgd1na2vs0mg"},{"bike_id":"77eda452-1677-4e1e-a2d7-0a5d96dbe3ce","system_id":"levelo_inurba_marseille","lat":43.34145,"lon":5.4091,"is_reserved":false,"is_disabled":false,"rental_uris":{"android":"levelo://app?vid=77eda452-1677-4e1e-a2d7-0a5d96dbe3ce","ios":"levelo://app?vid=77eda452-1677-4e1e-a2d7-0a5d96dbe3ce"},"vehicle_type_id":"4","last_reported":1729418931,"current_range_meters":38000,"station_id":"ce4bhqh2rcd13ifvqhlg","pricing_plan_id":"cebpf4jnsgd1na2vs0mg"},{"bike_id":"7aa216d4-9013-4827-88c3-51b73d7ae2a1","system_id":"levelo_inurba_marseille","lat":43.28619,"lon":5.35103,"is_reserved":false,"is_disabled":false,"rental_uris":{"android":"levelo://app?vid=7aa216d4-9013-4827-88c3-51b73d7ae2a1","ios":"levelo://app?vid=7aa216d4-9013-4827-88c3-51b73d7ae2a1"},"vehicle_type_id":"4","last_reported":1729418931,"current_range_meters":31200,"station_id":"ce4bhch2rcd13ifvqeug","pricing_plan_id":"cebpf4jnsgd1na2vs0mg"},{"bike_id":"b8b721e3-c0e7-4491-844f-191085275f86","system_id":"levelo_inurba_marseille","lat":43.24548,"lon":5.39521,"is_reserved":false,"is_disabled":false,"rental_uris":{"android":"levelo://app?vid=b8b721e3-c0e7-4491-844f-191085275f86","ios":"levelo://app?vid=b8b721e3-c0e7-4491-844f-191085275f86"},"vehicle_type_id":"4","last_reported":1729418931,"current_range_meters":38400,"station_id":"ce4bhlp2rcd13ifvqgjg","pricing_plan_id":"cebpf4jnsgd1na2vs0mg"},{"bike_id":"2a429aa6-0197-4f73-9dbd-b2b190eba55b","system_id":"levelo_inurba_marseille","lat":43.240021,"lon":5.376879,"is_reserved":false,"is_disabled":false,"rental_uris":{"android":"levelo://app?vid=2a429aa6-0197-4f73-9dbd-b2b190eba55b","ios":"levelo://app?vid=2a429aa6-0197-4f73-9dbd-b2b190eba55b"},"vehicle_type_id":"4","last_reported":1729418931,"current_range_meters":34800,"station_id":"ce4bhnp2rcd13ifvqgvg","pricing_plan_id":"cebpf4jnsgd1na2vs0mg"},{"bike_id":"d19899e1-d550-44f8-b12f-fa0eebaa1718","system_id":"levelo_inurba_marseille","lat":43.29691,"lon":5.37291,"is_reserved":false,"is_disabled":false,"rental_uris":{"android":"levelo://app?vid=d19899e1-d550-44f8-b12f-fa0eebaa1718","ios":"levelo://app?vid=d19899e1-d550-44f8-b12f-fa0eebaa1718"},"vehicle_type_id":"4","last_reported":1729418931,"current_range_meters":39200,"station_id":"ce4bgk12rcd13ifvqbj0","pricing_plan_id":"cebpf4jnsgd1na2vs0mg"},{"bike_id":"88a6c16e-2cb9-4142-9434-e66382622780","system_id":"levelo_inurba_marseille","lat":43.32338,"lon":5.40621,"is_reserved":false,"is_disabled":false,"rental_uris":{"android":"levelo://app?vid=88a6c16e-2cb9-4142-9434-e66382622780","ios":"levelo://app?vid=88a6c16e-2cb9-4142-9434-e66382622780"},"vehicle_type_id":"4","last_reported":1729418931,"current_range_meters":32000,"station_id":"ce4bhq92rcd13ifvqhjg","pricing_plan_id":"cebpf4jnsgd1na2vs0mg"},{"bike_id":"9aa0f5ce-7207-4726-95c5-7abdffd45e16","system_id":"levelo_inurba_marseille","lat":43.299,"lon":5.43668,"is_reserved":false,"is_disabled":false,"rental_uris":{"android":"levelo://app?vid=9aa0f5ce-7207-4726-95c5-7abdffd45e16","ios":"levelo://app?vid=9aa0f5ce-7207-4726-95c5-7abdffd45e16"},"vehicle_type_id":"4","last_reported":1729418931,"current_range_meters":31200,"station_id":"ce4bhpp2rcd13ifvqhfg","pricing_plan_id":"cebpf4jnsgd1na2vs0mg"},{"bike_id":"f7b5f56c-96a1-445f-b511-773f0f01cf87","system_id":"levelo_inurba_marseille","lat":43.28156,"lon":5.42645,"is_reserved":false,"is_disabled":false,"rental_uris":{"android":"levelo://app?vid=f7b5f56c-96a1-445f-b511-773f0f01cf87","ios":"levelo://app?vid=f7b5f56c-96a1-445f-b511-773f0f01cf87"},"vehicle_type_id":"4","last_reported":1729418931,"current_range_meters":38800,"station_id":"ce4bhnh2rcd13ifvqgug","pricing_plan_id":"cebpf4jnsgd1na2vs0mg"},{"bike_id":"1c4ce82e-f03f-4873-b4e8-87353cd83dbd","system_id":"levelo_inurba_marseille","lat":43.29897,"lon":5.43662,"is_reserved":false,"is_disabled":false,"rental_uris":{"android":"levelo://app?vid=1c4ce82e-f03f-4873-b4e8-87353cd83dbd","ios":"levelo://app?vid=1c4ce82e-f03f-4873-b4e8-87353cd83dbd"},"vehicle_type_id":"4","last_reported":1729418931,"current_range_meters":38000,"station_id":"ce4bhpp2rcd13ifvqhfg","pricing_plan_id":"cebpf4jnsgd1na2vs0mg"},{"bike_id":"fac9a3a2-2dd0-4efd-afd6-73cc4f4edd9a","system_id":"levelo_inurba_marseille","lat":43.24813,"lon":5.37456,"is_reserved":false,"is_disabled":false,"rental_uris":{"android":"levelo://app?vid=fac9a3a2-2dd0-4efd-afd6-73cc4f4edd9a","ios":"levelo://app?vid=fac9a3a2-2dd0-4efd-afd6-73cc4f4edd9a"},"vehicle_type_id":"4","last_reported":1729418931,"current_range_meters":37600,"station_id":"ce4bhgh2rcd13ifvqfb0","pricing_plan_id":"cebpf4jnsgd1na2vs0mg"},{"bike_id":"331c1650-cd9b-40fb-a1c2-29f6fdfbe05e","system_id":"levelo_inurba_marseille","lat":43.30136,"lon":5.38785,"is_reserved":false,"is_disabled":false,"rental_uris":{"android":"levelo://app?vid=331c1650-cd9b-40fb-a1c2-29f6fdfbe05e","ios":"levelo://app?vid=331c1650-cd9b-40fb-a1c2-29f6fdfbe05e"},"vehicle_type_id":"4","last_reported":1729418931,"current_range_meters":16800,"station_id":"ce4bgt92rcd13ifvqcf0","pricing_plan_id":"cebpf4jnsgd1na2vs0mg"},{"bike_id":"ca4436b6-ef84-437a-acb8-3bff7e58e93c","system_id":"levelo_inurba_marseille","lat":43.23714,"lon":5.43572,"is_reserved":false,"is_disabled":false,"rental_uris":{"android":"levelo://app?vid=ca4436b6-ef84-437a-acb8-3bff7e58e93c","ios":"levelo://app?vid=ca4436b6-ef84-437a-acb8-3bff7e58e93c"},"vehicle_type_id":"4","last_reported":1729418931,"current_range_meters":24800,"station_id":"","pricing_plan_id":"cebpf4jnsgd1na2vs0mg"},{"bike_id":"47a83542-3b6e-4948-8a89-994f6f22f737","system_id":"levelo_inurba_marseille","lat":43.26203,"lon":5.37935,"is_reserved":false,"is_disabled":false,"rental_uris":{"android":"levelo://app?vid=47a83542-3b6e-4948-8a89-994f6f22f737","ios":"levelo://app?vid=47a83542-3b6e-4948-8a89-994f6f22f737"},"vehicle_type_id":"4","last_reported":1729418931,"current_range_meters":3600,"station_id":"ce4bhjp2rcd13ifvqg90","pricing_plan_id":"cebpf4jnsgd1na2vs0mg"},{"bike_id":"65bdf8a7-581b-4618-bccb-c8132147d71a","system_id":"levelo_inurba_marseille","lat":43.27562,"lon":5.36017,"is_reserved":false,"is_disabled":false,"rental_uris":{"android":"levelo://app?vid=65bdf8a7-581b-4618-bccb-c8132147d71a","ios":"levelo://app?vid=65bdf8a7-581b-4618-bccb-c8132147d71a"},"vehicle_type_id":"4","last_reported":1729418931,"current_range_meters":12400,"station_id":"","pricing_plan_id":"cebpf4jnsgd1na2vs0mg"},{"bike_id":"3b4ba1e5-ac30-42f2-bc8a-d6e4130c1c65","system_id":"levelo_inurba_marseille","lat":43.26192,"lon":5.37455,"is_reserved":false,"is_disabled":false,"rental_uris":{"android":"levelo://app?vid=3b4ba1e5-ac30-42f2-bc8a-d6e4130c1c65","ios":"levelo://app?vid=3b4ba1e5-ac30-42f2-bc8a-d6e4130c1c65"},"vehicle_type_id":"4","last_reported":1729418931,"current_range_meters":38400,"station_id":"ce4bhgp2rcd13ifvqfc0","pricing_plan_id":"cebpf4jnsgd1na2vs0mg"},{"bike_id":"c13cafff-f91c-49a1-b44c-39d457fc994f","system_id":"levelo_inurba_marseille","lat":43.29198,"lon":5.35807,"is_reserved":false,"is_disabled":false,"rental_uris":{"android":"levelo://app?vid=c13cafff-f91c-49a1-b44c-39d457fc994f","ios":"levelo://app?vid=c13cafff-f91c-49a1-b44c-39d457fc994f"},"vehicle_type_id":"4","last_reported":1729418931,"current_range_meters":36000,"station_id":"ce4bhb12rcd13ifvqel0","pricing_plan_id":"cebpf4jnsgd1na2vs0mg"},{"bike_id":"528fef3b-bb8b-42d1-985d-ca1adbc390f0","system_id":"levelo_inurba_marseille","lat":43.24386,"lon":5.3706,"is_reserved":false,"is_disabled":false,"rental_uris":{"android":"levelo://app?vid=528fef3b-bb8b-42d1-985d-ca1adbc390f0","ios":"levelo://app?vid=528fef3b-bb8b-42d1-985d-ca1adbc390f0"},"vehicle_type_id":"4","last_reported":1729418931,"current_range_meters":11200,"station_id":"ce4bhhh2rcd13ifvqfk0","pricing_plan_id":"cebpf4jnsgd1na2vs0mg"},{"bike_id":"ceb1603d-2c49-4a2f-971f-80e7a3348d6a","system_id":"levelo_inurba_marseille","lat":43.33025,"lon":5.39043,"is_reserved":false,"is_disabled":false,"rental_uris":{"android":"levelo://app?vid=ceb1603d-2c49-4a2f-971f-80e7a3348d6a","ios":"levelo://app?vid=ceb1603d-2c49-4a2f-971f-80e7a3348d6a"},"vehicle_type_id":"4","last_reported":1729418931,"current_range_meters":39200,"station_id":"ce4bhr92rcd13ifvqhrg","pricing_plan_id":"cebpf4jnsgd1na2vs0mg"},{"bike_id":"6e381a53-a71c-4852-98a7-a49e81768caf","system_id":"levelo_inurba_marseille","lat":43.295197,"lon":5.375022,"is_reserved":false,"is_disabled":false,"rental_uris":{"android":"levelo://app?vid=6e381a53-a71c-4852-98a7-a49e81768caf","ios":"levelo://app?vid=6e381a53-a71c-4852-98a7-a49e81768caf"},"vehicle_type_id":"4","last_reported":1729418931,"current_range_meters":27600,"station_id":"ce4bgkp2rcd13ifvqbmg","pricing_plan_id":"cebpf4jnsgd1na2vs0mg"},{"bike_id":"621b8332-57b4-4ca8-9c01-33b18a8aede3","system_id":"levelo_inurba_marseille","lat":43.26201,"lon":5.37932,"is_reserved":false,"is_disabled":false,"rental_uris":{"android":"levelo://app?vid=621b8332-57b4-4ca8-9c01-33b18a8aede3","ios":"levelo://app?vid=621b8332-57b4-4ca8-9c01-33b18a8aede3"},"vehicle_type_id":"4","last_reported":1729418931,"current_range_meters":18800,"station_id":"ce4bhjp2rcd13ifvqg90","pricing_plan_id":"cebpf4jnsgd1na2vs0mg"},{"bike_id":"0d23ce13-96ff-4bdf-8190-c9be19f399ba","system_id":"levelo_inurba_marseille","lat":43.32551,"lon":5.41441,"is_reserved":false,"is_disabled":false,"rental_uris":{"android":"levelo://app?vid=0d23ce13-96ff-4bdf-8190-c9be19f399ba","ios":"levelo://app?vid=0d23ce13-96ff-4bdf-8190-c9be19f399ba"},"vehicle_type_id":"4","last_reported":1729418931,"current_range_meters":20000,"station_id":"ce4bhq12rcd13ifvqhhg","pricing_plan_id":"cebpf4jnsgd1na2vs0mg"},{"bike_id":"4cf3e5d8-4f9a-4007-b965-622ecd99339e","system_id":"levelo_inurba_marseille","lat":43.31074,"lon":5.40085,"is_reserved":false,"is_disabled":false,"rental_uris":{"android":"levelo://app?vid=4cf3e5d8-4f9a-4007-b965-622ecd99339e","ios":"levelo://app?vid=4cf3e5d8-4f9a-4007-b965-622ecd99339e"},"vehicle_type_id":"4","last_reported":1729418931,"current_range_meters":9200,"station_id":"","pricing_plan_id":"cebpf4jnsgd1na2vs0mg"},{"bike_id":"c34e2acb-3afe-4aa1-8cdb-c481d100b683","system_id":"levelo_inurba_marseille","lat":43.32482,"lon":5.36569,"is_reserved":false,"is_disabled":false,"rental_uris":{"android":"levelo://app?vid=c34e2acb-3afe-4aa1-8cdb-c481d100b683","ios":"levelo://app?vid=c34e2acb-3afe-4aa1-8cdb-c481d100b683"},"vehicle_type_id":"4","last_reported":1729418931,"current_range_meters":22400,"station_id":"ce4bhs12rcd13ifvqhvg","pricing_plan_id":"cebpf4jnsgd1na2vs0mg"},{"bike_id":"19e0c7ba-a3f7-43e2-aca8-366f22e4e87d","system_id":"levelo_inurba_marseille","lat":43.33731,"lon":5.39183,"is_reserved":false,"is_disabled":false,"rental_uris":{"android":"levelo://app?vid=19e0c7ba-a3f7-43e2-aca8-366f22e4e87d","ios":"levelo://app?vid=19e0c7ba-a3f7-43e2-aca8-366f22e4e87d"},"vehicle_type_id":"4","last_reported":1729418931,"current_range_meters":39200,"station_id":"ce4bhr92rcd13ifvqhsg","pricing_plan_id":"cebpf4jnsgd1na2vs0mg"},{"bike_id":"f9928a1b-5e01-4359-8549-3825d8c7f41a","system_id":"levelo_inurba_marseille","lat":43.22928,"lon":5.35377,"is_reserved":false,"is_disabled":false,"rental_uris":{"android":"levelo://app?vid=f9928a1b-5e01-4359-8549-3825d8c7f41a","ios":"levelo://app?vid=f9928a1b-5e01-4359-8549-3825d8c7f41a"},"vehicle_type_id":"4","last_reported":1729418931,"current_range_meters":38000,"station_id":"cpo3532slgdg3j2ikp40","pricing_plan_id":"cebpf4jnsgd1na2vs0mg"},{"bike_id":"d8ec393f-4484-4f65-969b-8ae2145a9b2b","system_id":"levelo_inurba_marseille","lat":43.3189,"lon":5.40734,"is_reserved":false,"is_disabled":false,"rental_uris":{"android":"levelo://app?vid=d8ec393f-4484-4f65-969b-8ae2145a9b2b","ios":"levelo://app?vid=d8ec393f-4484-4f65-969b-8ae2145a9b2b"},"vehicle_type_id":"4","last_reported":1729418931,"current_range_meters":38800,"station_id":"ce4bhq12rcd13ifvqhig","pricing_plan_id":"cebpf4jnsgd1na2vs0mg"},{"bike_id":"b3da6c3a-2a10-4172-a1ac-14d12204275b","system_id":"levelo_inurba_marseille","lat":43.27495,"lon":5.42458,"is_reserved":false,"is_disabled":false,"rental_uris":{"android":"levelo://app?vid=b3da6c3a-2a10-4172-a1ac-14d12204275b","ios":"levelo://app?vid=b3da6c3a-2a10-4172-a1ac-14d12204275b"},"vehicle_type_id":"4","last_reported":1729418931,"current_range_meters":39200,"station_id":"ce4bhn92rcd13ifvqgrg","pricing_plan_id":"cebpf4jnsgd1na2vs0mg"},{"bike_id":"30bea7cc-0594-45ae-8079-334f233d785a","system_id":"levelo_inurba_marseille","lat":43.30547,"lon":5.36709,"is_reserved":false,"is_disabled":false,"rental_uris":{"android":"levelo://app?vid=30bea7cc-0594-45ae-8079-334f233d785a","ios":"levelo://app?vid=30bea7cc-0594-45ae-8079-334f233d785a"},"vehicle_type_id":"4","last_reported":1729418931,"current_range_meters":33600,"station_id":"ce4bgrp2rcd13ifvqc9g","pricing_plan_id":"cebpf4jnsgd1na2vs0mg"},{"bike_id":"a7b7a404-4daf-4700-b81b-e63a35f02840","system_id":"levelo_inurba_marseille","lat":43.24395,"lon":5.37064,"is_reserved":false,"is_disabled":false,"rental_uris":{"android":"levelo://app?vid=a7b7a404-4daf-4700-b81b-e63a35f02840","ios":"levelo://app?vid=a7b7a404-4daf-4700-b81b-e63a35f02840"},"vehicle_type_id":"4","last_reported":1729418931,"current_range_meters":36400,"station_id":"ce4bhhh2rcd13ifvqfk0","pricing_plan_id":"cebpf4jnsgd1na2vs0mg"},{"bike_id":"df79050e-4b09-405e-be7e-48cf6c248ce9","system_id":"levelo_inurba_marseille","lat":43.24817,"lon":5.37461,"is_reserved":false,"is_disabled":false,"rental_uris":{"android":"levelo://app?vid=df79050e-4b09-405e-be7e-48cf6c248ce9","ios":"levelo://app?vid=df79050e-4b09-405e-be7e-48cf6c248ce9"},"vehicle_type_id":"4","last_reported":1729418931,"current_range_meters":36000,"station_id":"ce4bhgh2rcd13ifvqfb0","pricing_plan_id":"cebpf4jnsgd1na2vs0mg"},{"bike_id":"a0b4c194-1974-4888-85e2-7cfc7aeed116","system_id":"levelo_inurba_marseille","lat":43.3171,"lon":5.43705,"is_reserved":false,"is_disabled":false,"rental_uris":{"android":"levelo://app?vid=a0b4c194-1974-4888-85e2-7cfc7aeed116","ios":"levelo://app?vid=a0b4c194-1974-4888-85e2-7cfc7aeed116"},"vehicle_type_id":"4","last_reported":1729418931,"current_range_meters":38000,"station_id":"ce4bhp92rcd13ifvqhcg","pricing_plan_id":"cebpf4jnsgd1na2vs0mg"},{"bike_id":"95f8a184-9d82-4fec-9fa0-282171399779","system_id":"levelo_inurba_marseille","lat":43.28848,"lon":5.39304,"is_reserved":false,"is_disabled":false,"rental_uris":{"android":"levelo://app?vid=95f8a184-9d82-4fec-9fa0-282171399779","ios":"levelo://app?vid=95f8a184-9d82-4fec-9fa0-282171399779"},"vehicle_type_id":"4","last_reported":1729418931,"current_range_meters":16800,"station_id":"ce4bh2p2rcd13ifvqdi0","pricing_plan_id":"cebpf4jnsgd1na2vs0mg"},{"bike_id":"bc347e0a-3f4e-4f5a-9c07-aef3fc7cd93f","system_id":"levelo_inurba_marseille","lat":43.29009,"lon":5.35612,"is_reserved":false,"is_disabled":false,"rental_uris":{"android":"levelo://app?vid=bc347e0a-3f4e-4f5a-9c07-aef3fc7cd93f","ios":"levelo://app?vid=bc347e0a-3f4e-4f5a-9c07-aef3fc7cd93f"},"vehicle_type_id":"4","last_reported":1729418931,"current_range_meters":38000,"station_id":"ce4bhb92rcd13ifvqen0","pricing_plan_id":"cebpf4jnsgd1na2vs0mg"},{"bike_id":"d85acfe7-8a3c-43f4-83b9-747a558fc2b4","system_id":"levelo_inurba_marseille","lat":43.28614,"lon":5.35106,"is_reserved":false,"is_disabled":false,"rental_uris":{"android":"levelo://app?vid=d85acfe7-8a3c-43f4-83b9-747a558fc2b4","ios":"levelo://app?vid=d85acfe7-8a3c-43f4-83b9-747a558fc2b4"},"vehicle_type_id":"4","last_reported":1729418931,"current_range_meters":37600,"station_id":"ce4bhch2rcd13ifvqeug","pricing_plan_id":"cebpf4jnsgd1na2vs0mg"},{"bike_id":"37f0e992-73e4-4dab-afab-7fe5f665460e","system_id":"levelo_inurba_marseille","lat":43.30474,"lon":5.37912,"is_reserved":false,"is_disabled":false,"rental_uris":{"android":"levelo://app?vid=37f0e992-73e4-4dab-afab-7fe5f665460e","ios":"levelo://app?vid=37f0e992-73e4-4dab-afab-7fe5f665460e"},"vehicle_type_id":"4","last_reported":1729418931,"current_range_meters":38800,"station_id":"ce4bgup2rcd13ifvqcn0","pricing_plan_id":"cebpf4jnsgd1na2vs0mg"},{"bike_id":"772078c8-c709-4f60-bd2d-f4d6e3aa1011","system_id":"levelo_inurba_marseille","lat":43.30531,"lon":5.36536,"is_reserved":false,"is_disabled":false,"rental_uris":{"android":"levelo://app?vid=772078c8-c709-4f60-bd2d-f4d6e3aa1011","ios":"levelo://app?vid=772078c8-c709-4f60-bd2d-f4d6e3aa1011"},"vehicle_type_id":"4","last_reported":1729418931,"current_range_meters":38000,"station_id":"ce4bgs12rcd13ifvqcag","pricing_plan_id":"cebpf4jnsgd1na2vs0mg"},{"bike_id":"289d734b-fd3d-433c-9cec-60039eadc376","system_id":"levelo_inurba_marseille","lat":43.24809,"lon":5.37455,"is_reserved":false,"is_disabled":false,"rental_uris":{"android":"levelo://app?vid=289d734b-fd3d-433c-9cec-60039eadc376","ios":"levelo://app?vid=289d734b-fd3d-433c-9cec-60039eadc376"},"vehicle_type_id":"4","last_reported":1729418931,"current_range_meters":27200,"station_id":"ce4bhgh2rcd13ifvqfb0","pricing_plan_id":"cebpf4jnsgd1na2vs0mg"},{"bike_id":"251c2ece-8912-4dfb-9847-d8f9ff013dd6","system_id":"levelo_inurba_marseille","lat":43.24672,"lon":5.38162,"is_reserved":false,"is_disabled":false,"rental_uris":{"android":"levelo://app?vid=251c2ece-8912-4dfb-9847-d8f9ff013dd6","ios":"levelo://app?vid=251c2ece-8912-4dfb-9847-d8f9ff013dd6"},"vehicle_type_id":"4","last_reported":1729418931,"current_range_meters":21600,"station_id":"ce4bhih2rcd13ifvqfr0","pricing_plan_id":"cebpf4jnsgd1na2vs0mg"},{"bike_id":"fbc3e821-a9d3-4074-84ed-a7cfbdaebccd","system_id":"levelo_inurba_marseille","lat":43.26806,"lon":5.40271,"is_reserved":false,"is_disabled":false,"rental_uris":{"android":"levelo://app?vid=fbc3e821-a9d3-4074-84ed-a7cfbdaebccd","ios":"levelo://app?vid=fbc3e821-a9d3-4074-84ed-a7cfbdaebccd"},"vehicle_type_id":"4","last_reported":1729418931,"current_range_meters":36000,"station_id":"ce501612rcd8frsf0b60","pricing_plan_id":"cebpf4jnsgd1na2vs0mg"},{"bike_id":"9a3a0a5d-83bb-4455-828c-fcd023da6592","system_id":"levelo_inurba_marseille","lat":43.28274,"lon":5.35071,"is_reserved":false,"is_disabled":false,"rental_uris":{"android":"levelo://app?vid=9a3a0a5d-83bb-4455-828c-fcd023da6592","ios":"levelo://app?vid=9a3a0a5d-83bb-4455-828c-fcd023da6592"},"vehicle_type_id":"4","last_reported":1729418931,"current_range_meters":29600,"station_id":"ce4bhbp2rcd13ifvqerg","pricing_plan_id":"cebpf4jnsgd1na2vs0mg"},{"bike_id":"d66bd0ae-b590-4029-ae7d-0fa65a35f925","system_id":"levelo_inurba_marseille","lat":43.336,"lon":5.41019,"is_reserved":false,"is_disabled":false,"rental_uris":{"android":"levelo://app?vid=d66bd0ae-b590-4029-ae7d-0fa65a35f925","ios":"levelo://app?vid=d66bd0ae-b590-4029-ae7d-0fa65a35f925"},"vehicle_type_id":"4","last_reported":1729418931,"current_range_meters":17200,"station_id":"ce4bhqh2rcd13ifvqhmg","pricing_plan_id":"cebpf4jnsgd1na2vs0mg"},{"bike_id":"0070ae3c-019c-45a4-b7c4-cac83bbfa099","system_id":"levelo_inurba_marseille","lat":43.28454,"lon":5.35899,"is_reserved":false,"is_disabled":false,"rental_uris":{"android":"levelo://app?vid=0070ae3c-019c-45a4-b7c4-cac83bbfa099","ios":"levelo://app?vid=0070ae3c-019c-45a4-b7c4-cac83bbfa099"},"vehicle_type_id":"4","last_reported":1729418931,"current_range_meters":38800,"station_id":"ce4bhah2rcd13ifvqei0","pricing_plan_id":"cebpf4jnsgd1na2vs0mg"},{"bike_id":"c364be15-9dc0-4e6b-95be-6a3b7664c430","system_id":"levelo_inurba_marseille","lat":43.28104,"lon":5.3783,"is_reserved":false,"is_disabled":false,"rental_uris":{"android":"levelo://app?vid=c364be15-9dc0-4e6b-95be-6a3b7664c430","ios":"levelo://app?vid=c364be15-9dc0-4e6b-95be-6a3b7664c430"},"vehicle_type_id":"4","last_reported":1729418931,"current_range_meters":9600,"station_id":"ce4bha12rcd13ifvqee0","pricing_plan_id":"cebpf4jnsgd1na2vs0mg"},{"bike_id":"f3b18d4c-688e-4e02-9104-7f1d559134af","system_id":"levelo_inurba_marseille","lat":43.32099,"lon":5.36774,"is_reserved":false,"is_disabled":false,"rental_uris":{"android":"levelo://app?vid=f3b18d4c-688e-4e02-9104-7f1d559134af","ios":"levelo://app?vid=f3b18d4c-688e-4e02-9104-7f1d559134af"},"vehicle_type_id":"4","last_reported":1729418931,"current_range_meters":36800,"station_id":"ce4bhrh2rcd13ifvqhug","pricing_plan_id":"cebpf4jnsgd1na2vs0mg"},{"bike_id":"99a36e8e-83dc-4174-97c1-e95b5764b998","system_id":"levelo_inurba_marseille","lat":43.23952,"lon":5.36645,"is_reserved":false,"is_disabled":false,"rental_uris":{"android":"levelo://app?vid=99a36e8e-83dc-4174-97c1-e95b5764b998","ios":"levelo://app?vid=99a36e8e-83dc-4174-97c1-e95b5764b998"},"vehicle_type_id":"4","last_reported":1729418931,"current_range_meters":9600,"station_id":"ce4bhi12rcd13ifvqfp0","pricing_plan_id":"cebpf4jnsgd1na2vs0mg"},{"bike_id":"044e7643-e166-4e08-bae3-a8ed673622ad","system_id":"levelo_inurba_marseille","lat":43.27065,"lon":5.42275,"is_reserved":false,"is_disabled":false,"rental_uris":{"android":"levelo://app?vid=044e7643-e166-4e08-bae3-a8ed673622ad","ios":"levelo://app?vid=044e7643-e166-4e08-bae3-a8ed673622ad"},"vehicle_type_id":"4","last_reported":1729418931,"current_range_meters":39200,"station_id":"ce4bhk92rcd13ifvqgb0","pricing_plan_id":"cebpf4jnsgd1na2vs0mg"},{"bike_id":"fc9b3fc1-600b-416a-b916-9cf37562dae6","system_id":"levelo_inurba_marseille","lat":43.31329,"lon":5.39696,"is_reserved":false,"is_disabled":false,"rental_uris":{"android":"levelo://app?vid=fc9b3fc1-600b-416a-b916-9cf37562dae6","ios":"levelo://app?vid=fc9b3fc1-600b-416a-b916-9cf37562dae6"},"vehicle_type_id":"4","last_reported":1729418931,"current_range_meters":38000,"station_id":"ce4bgvp2rcd13ifvqcu0","pricing_plan_id":"cebpf4jnsgd1na2vs0mg"},{"bike_id":"8a61b0d3-96ba-49fc-af75-dd8176297036","system_id":"levelo_inurba_marseille","lat":43.23965,"lon":5.36616,"is_reserved":false,"is_disabled":false,"rental_uris":{"android":"levelo://app?vid=8a61b0d3-96ba-49fc-af75-dd8176297036","ios":"levelo://app?vid=8a61b0d3-96ba-49fc-af75-dd8176297036"},"vehicle_type_id":"4","last_reported":1729418931,"current_range_meters":9600,"station_id":"ce4bhi12rcd13ifvqfp0","pricing_plan_id":"cebpf4jnsgd1na2vs0mg"},{"bike_id":"d7a5da64-f663-4074-99ca-f99be41b9b60","system_id":"levelo_inurba_marseille","lat":43.28466,"lon":5.359,"is_reserved":false,"is_disabled":false,"rental_uris":{"android":"levelo://app?vid=d7a5da64-f663-4074-99ca-f99be41b9b60","ios":"levelo://app?vid=d7a5da64-f663-4074-99ca-f99be41b9b60"},"vehicle_type_id":"4","last_reported":1729418931,"current_range_meters":8800,"station_id":"ce4bhah2rcd13ifvqei0","pricing_plan_id":"cebpf4jnsgd1na2vs0mg"},{"bike_id":"9b81f963-bd88-4ba0-bca9-298170f8d2c4","system_id":"levelo_inurba_marseille","lat":43.33026,"lon":5.39041,"is_reserved":false,"is_disabled":false,"rental_uris":{"android":"levelo://app?vid=9b81f963-bd88-4ba0-bca9-298170f8d2c4","ios":"levelo://app?vid=9b81f963-bd88-4ba0-bca9-298170f8d2c4"},"vehicle_type_id":"4","last_reported":1729418931,"current_range_meters":38000,"station_id":"ce4bhr92rcd13ifvqhrg","pricing_plan_id":"cebpf4jnsgd1na2vs0mg"},{"bike_id":"f79e2990-8308-47b7-8681-08ad567265a1","system_id":"levelo_inurba_marseille","lat":43.30801,"lon":5.43521,"is_reserved":false,"is_disabled":false,"rental_uris":{"android":"levelo://app?vid=f79e2990-8308-47b7-8681-08ad567265a1","ios":"levelo://app?vid=f79e2990-8308-47b7-8681-08ad567265a1"},"vehicle_type_id":"4","last_reported":1729418931,"current_range_meters":24000,"station_id":"ce4bhph2rcd13ifvqheg","pricing_plan_id":"cebpf4jnsgd1na2vs0mg"},{"bike_id":"85d3ade6-3665-431a-a885-89ce0aed83ce","system_id":"levelo_inurba_marseille","lat":43.33605,"lon":5.41026,"is_reserved":false,"is_disabled":false,"rental_uris":{"android":"levelo://app?vid=85d3ade6-3665-431a-a885-89ce0aed83ce","ios":"levelo://app?vid=85d3ade6-3665-431a-a885-89ce0aed83ce"},"vehicle_type_id":"4","last_reported":1729418931,"current_range_meters":17200,"station_id":"ce4bhqh2rcd13ifvqhmg","pricing_plan_id":"cebpf4jnsgd1na2vs0mg"},{"bike_id":"554c25bf-6348-4ef4-9525-96b062ddf7c6","system_id":"levelo_inurba_marseille","lat":43.26201,"lon":5.37924,"is_reserved":false,"is_disabled":false,"rental_uris":{"android":"levelo://app?vid=554c25bf-6348-4ef4-9525-96b062ddf7c6","ios":"levelo://app?vid=554c25bf-6348-4ef4-9525-96b062ddf7c6"},"vehicle_type_id":"4","last_reported":1729418931,"current_range_meters":32000,"station_id":"ce4bhjp2rcd13ifvqg90","pricing_plan_id":"cebpf4jnsgd1na2vs0mg"},{"bike_id":"aad71523-dd0e-43d2-bc68-c70147db6945","system_id":"levelo_inurba_marseille","lat":43.29005,"lon":5.35613,"is_reserved":false,"is_disabled":false,"rental_uris":{"android":"levelo://app?vid=aad71523-dd0e-43d2-bc68-c70147db6945","ios":"levelo://app?vid=aad71523-dd0e-43d2-bc68-c70147db6945"},"vehicle_type_id":"4","last_reported":1729418931,"current_range_meters":38800,"station_id":"ce4bhb92rcd13ifvqen0","pricing_plan_id":"cebpf4jnsgd1na2vs0mg"},{"bike_id":"8f62c7cb-c314-499f-b86f-2462ccb19e2f","system_id":"levelo_inurba_marseille","lat":43.29798,"lon":5.38103,"is_reserved":false,"is_disabled":false,"rental_uris":{"android":"levelo://app?vid=8f62c7cb-c314-499f-b86f-2462ccb19e2f","ios":"levelo://app?vid=8f62c7cb-c314-499f-b86f-2462ccb19e2f"},"vehicle_type_id":"4","last_reported":1729418931,"current_range_meters":38400,"station_id":"ce4bgip2rcd13ifvqbb0","pricing_plan_id":"cebpf4jnsgd1na2vs0mg"},{"bike_id":"f9b3de78-0a7a-448f-900c-725df95752d1","system_id":"levelo_inurba_marseille","lat":43.27371,"lon":5.36257,"is_reserved":false,"is_disabled":false,"rental_uris":{"android":"levelo://app?vid=f9b3de78-0a7a-448f-900c-725df95752d1","ios":"levelo://app?vid=f9b3de78-0a7a-448f-900c-725df95752d1"},"vehicle_type_id":"4","last_reported":1729418931,"current_range_meters":38800,"station_id":"ce4bhbh2rcd13ifvqeo0","pricing_plan_id":"cebpf4jnsgd1na2vs0mg"},{"bike_id":"65941c34-59b9-4e11-88ad-0a98aa2a83f2","system_id":"levelo_inurba_marseille","lat":43.29597,"lon":5.38115,"is_reserved":false,"is_disabled":false,"rental_uris":{"android":"levelo://app?vid=65941c34-59b9-4e11-88ad-0a98aa2a83f2","ios":"levelo://app?vid=65941c34-59b9-4e11-88ad-0a98aa2a83f2"},"vehicle_type_id":"4","last_reported":1729418931,"current_range_meters":33200,"station_id":"ce4bgl12rcd13ifvqbo0","pricing_plan_id":"cebpf4jnsgd1na2vs0mg"},{"bike_id":"4f357a8f-803f-4ef1-b82a-19fa9f305e74","system_id":"levelo_inurba_marseille","lat":43.23195,"lon":5.35555,"is_reserved":false,"is_disabled":false,"rental_uris":{"android":"levelo://app?vid=4f357a8f-803f-4ef1-b82a-19fa9f305e74","ios":"levelo://app?vid=4f357a8f-803f-4ef1-b82a-19fa9f305e74"},"vehicle_type_id":"4","last_reported":1729418931,"current_range_meters":37600,"station_id":"ce4bhu92rcd13ifvqi70","pricing_plan_id":"cebpf4jnsgd1na2vs0mg"},{"bike_id":"870a0567-683b-4d05-928b-954fe947f3ad","system_id":"levelo_inurba_marseille","lat":43.30797,"lon":5.38167,"is_reserved":false,"is_disabled":false,"rental_uris":{"android":"levelo://app?vid=870a0567-683b-4d05-928b-954fe947f3ad","ios":"levelo://app?vid=870a0567-683b-4d05-928b-954fe947f3ad"},"vehicle_type_id":"4","last_reported":1729418931,"current_range_meters":36800,"station_id":"","pricing_plan_id":"cebpf4jnsgd1na2vs0mg"},{"bike_id":"57d6c459-9f04-4869-8203-b0341cdb2874","system_id":"levelo_inurba_marseille","lat":43.290009,"lon":5.356181,"is_reserved":false,"is_disabled":false,"rental_uris":{"android":"levelo://app?vid=57d6c459-9f04-4869-8203-b0341cdb2874","ios":"levelo://app?vid=57d6c459-9f04-4869-8203-b0341cdb2874"},"vehicle_type_id":"4","last_reported":1729418931,"current_range_meters":20400,"station_id":"","pricing_plan_id":"cebpf4jnsgd1na2vs0mg"},{"bike_id":"a1bec14e-f154-4b56-b5e5-2b4f2b1cd12a","system_id":"levelo_inurba_marseille","lat":43.267835,"lon":5.394156,"is_reserved":false,"is_disabled":false,"rental_uris":{"android":"levelo://app?vid=a1bec14e-f154-4b56-b5e5-2b4f2b1cd12a","ios":"levelo://app?vid=a1bec14e-f154-4b56-b5e5-2b4f2b1cd12a"},"vehicle_type_id":"4","last_reported":1729418931,"current_range_meters":29600,"station_id":"ce4bhh12rcd13ifvqfg0","pricing_plan_id":"cebpf4jnsgd1na2vs0mg"},{"bike_id":"e78e5b07-8aad-4233-8caa-3a2852780ccb","system_id":"levelo_inurba_marseille","lat":43.23962,"lon":5.36632,"is_reserved":false,"is_disabled":false,"rental_uris":{"android":"levelo://app?vid=e78e5b07-8aad-4233-8caa-3a2852780ccb","ios":"levelo://app?vid=e78e5b07-8aad-4233-8caa-3a2852780ccb"},"vehicle_type_id":"4","last_reported":1729418931,"current_range_meters":17200,"station_id":"ce4bhi12rcd13ifvqfp0","pricing_plan_id":"cebpf4jnsgd1na2vs0mg"},{"bike_id":"0f8cdbbd-1607-4b72-9cc6-3a273ab3a87c","system_id":"levelo_inurba_marseille","lat":43.26572,"lon":5.39006,"is_reserved":false,"is_disabled":false,"rental_uris":{"android":"levelo://app?vid=0f8cdbbd-1607-4b72-9cc6-3a273ab3a87c","ios":"levelo://app?vid=0f8cdbbd-1607-4b72-9cc6-3a273ab3a87c"},"vehicle_type_id":"4","last_reported":1729418931,"current_range_meters":36400,"station_id":"ce4bhe12rcd13ifvqf30","pricing_plan_id":"cebpf4jnsgd1na2vs0mg"},{"bike_id":"f2724e2b-9fba-4e49-b1f0-3157feb68807","system_id":"levelo_inurba_marseille","lat":43.28266,"lon":5.35071,"is_reserved":false,"is_disabled":false,"rental_uris":{"android":"levelo://app?vid=f2724e2b-9fba-4e49-b1f0-3157feb68807","ios":"levelo://app?vid=f2724e2b-9fba-4e49-b1f0-3157feb68807"},"vehicle_type_id":"4","last_reported":1729418931,"current_range_meters":39200,"station_id":"ce4bhbp2rcd13ifvqerg","pricing_plan_id":"cebpf4jnsgd1na2vs0mg"},{"bike_id":"9362a3c1-a524-424a-8405-9c9a41216ff5","system_id":"levelo_inurba_marseille","lat":43.28276,"lon":5.35064,"is_reserved":false,"is_disabled":false,"rental_uris":{"android":"levelo://app?vid=9362a3c1-a524-424a-8405-9c9a41216ff5","ios":"levelo://app?vid=9362a3c1-a524-424a-8405-9c9a41216ff5"},"vehicle_type_id":"4","last_reported":1729418931,"current_range_meters":37600,"station_id":"ce4bhbp2rcd13ifvqerg","pricing_plan_id":"cebpf4jnsgd1na2vs0mg"},{"bike_id":"3c807220-758f-40c8-b4f1-96669d1b8d8b","system_id":"levelo_inurba_marseille","lat":43.2319,"lon":5.35557,"is_reserved":false,"is_disabled":false,"rental_uris":{"android":"levelo://app?vid=3c807220-758f-40c8-b4f1-96669d1b8d8b","ios":"levelo://app?vid=3c807220-758f-40c8-b4f1-96669d1b8d8b"},"vehicle_type_id":"4","last_reported":1729418931,"current_range_meters":3200,"station_id":"ce4bhu92rcd13ifvqi70","pricing_plan_id":"cebpf4jnsgd1na2vs0mg"},{"bike_id":"b32b3978-141a-404e-8c5d-45d7faf73b78","system_id":"levelo_inurba_marseille","lat":43.2923,"lon":5.36067,"is_reserved":false,"is_disabled":false,"rental_uris":{"android":"levelo://app?vid=b32b3978-141a-404e-8c5d-45d7faf73b78","ios":"levelo://app?vid=b32b3978-141a-404e-8c5d-45d7faf73b78"},"vehicle_type_id":"4","last_reported":1729418931,"current_range_meters":10800,"station_id":"ce4bhbh2rcd13ifvqeqg","pricing_plan_id":"cebpf4jnsgd1na2vs0mg"},{"bike_id":"c11b0555-b997-4036-8536-79587f1a9f2e","system_id":"levelo_inurba_marseille","lat":43.27665,"lon":5.38912,"is_reserved":false,"is_disabled":false,"rental_uris":{"android":"levelo://app?vid=c11b0555-b997-4036-8536-79587f1a9f2e","ios":"levelo://app?vid=c11b0555-b997-4036-8536-79587f1a9f2e"},"vehicle_type_id":"4","last_reported":1729418931,"current_range_meters":32800,"station_id":"ce4bhi12rcd13ifvqfo0","pricing_plan_id":"cebpf4jnsgd1na2vs0mg"},{"bike_id":"b5c40a57-fde0-4b3a-8522-4717ef7108e9","system_id":"levelo_inurba_marseille","lat":43.310718,"lon":5.400911,"is_reserved":false,"is_disabled":false,"rental_uris":{"android":"levelo://app?vid=b5c40a57-fde0-4b3a-8522-4717ef7108e9","ios":"levelo://app?vid=b5c40a57-fde0-4b3a-8522-4717ef7108e9"},"vehicle_type_id":"4","last_reported":1729418931,"current_range_meters":2800,"station_id":"","pricing_plan_id":"cebpf4jnsgd1na2vs0mg"},{"bike_id":"03eb1a7a-6b4f-4ede-b7b4-76daf8714793","system_id":"levelo_inurba_marseille","lat":43.28613,"lon":5.35101,"is_reserved":false,"is_disabled":false,"rental_uris":{"android":"levelo://app?vid=03eb1a7a-6b4f-4ede-b7b4-76daf8714793","ios":"levelo://app?vid=03eb1a7a-6b4f-4ede-b7b4-76daf8714793"},"vehicle_type_id":"4","last_reported":1729418931,"current_range_meters":35200,"station_id":"ce4bhch2rcd13ifvqeug","pricing_plan_id":"cebpf4jnsgd1na2vs0mg"},{"bike_id":"6955ec0f-6191-4323-8dda-74bb7a9f5b4a","system_id":"levelo_inurba_marseille","lat":43.25718,"lon":5.41113,"is_reserved":false,"is_disabled":false,"rental_uris":{"android":"levelo://app?vid=6955ec0f-6191-4323-8dda-74bb7a9f5b4a","ios":"levelo://app?vid=6955ec0f-6191-4323-8dda-74bb7a9f5b4a"},"vehicle_type_id":"4","last_reported":1729418931,"current_range_meters":38000,"station_id":"ce4bhkp2rcd13ifvqgd0","pricing_plan_id":"cebpf4jnsgd1na2vs0mg"},{"bike_id":"f28c22d6-4d0a-4d75-b856-530d5c7bf70d","system_id":"levelo_inurba_marseille","lat":43.250058,"lon":5.389283,"is_reserved":false,"is_disabled":false,"rental_uris":{"android":"levelo://app?vid=f28c22d6-4d0a-4d75-b856-530d5c7bf70d","ios":"levelo://app?vid=f28c22d6-4d0a-4d75-b856-530d5c7bf70d"},"vehicle_type_id":"4","last_reported":1729418931,"current_range_meters":38800,"station_id":"ce4bhgp2rcd13ifvqfd0","pricing_plan_id":"cebpf4jnsgd1na2vs0mg"},{"bike_id":"961ca728-23dc-46ad-9caa-a1da61086e42","system_id":"levelo_inurba_marseille","lat":43.30543,"lon":5.36559,"is_reserved":false,"is_disabled":false,"rental_uris":{"android":"levelo://app?vid=961ca728-23dc-46ad-9caa-a1da61086e42","ios":"levelo://app?vid=961ca728-23dc-46ad-9caa-a1da61086e42"},"vehicle_type_id":"4","last_reported":1729418931,"current_range_meters":26800,"station_id":"ce4bgs12rcd13ifvqcag","pricing_plan_id":"cebpf4jnsgd1na2vs0mg"},{"bike_id":"77291753-8c8c-4497-aa81-5ef2d0e5d1d8","system_id":"levelo_inurba_marseille","lat":43.28425,"lon":5.34989,"is_reserved":false,"is_disabled":false,"rental_uris":{"android":"levelo://app?vid=77291753-8c8c-4497-aa81-5ef2d0e5d1d8","ios":"levelo://app?vid=77291753-8c8c-4497-aa81-5ef2d0e5d1d8"},"vehicle_type_id":"4","last_reported":1729418931,"current_range_meters":36400,"station_id":"ce4bhbh2rcd13ifvqepg","pricing_plan_id":"cebpf4jnsgd1na2vs0mg"},{"bike_id":"783145dc-f5e4-48af-86bb-16e58b096754","system_id":"levelo_inurba_marseille","lat":43.25872,"lon":5.39899,"is_reserved":false,"is_disabled":false,"rental_uris":{"android":"levelo://app?vid=783145dc-f5e4-48af-86bb-16e58b096754","ios":"levelo://app?vid=783145dc-f5e4-48af-86bb-16e58b096754"},"vehicle_type_id":"4","last_reported":1729418931,"current_range_meters":33200,"station_id":"ce4bhl92rcd13ifvqghg","pricing_plan_id":"cebpf4jnsgd1na2vs0mg"},{"bike_id":"1139d6de-46ec-48f1-9f6d-7de875fe0fde","system_id":"levelo_inurba_marseille","lat":43.29234,"lon":5.360176,"is_reserved":false,"is_disabled":false,"rental_uris":{"android":"levelo://app?vid=1139d6de-46ec-48f1-9f6d-7de875fe0fde","ios":"levelo://app?vid=1139d6de-46ec-48f1-9f6d-7de875fe0fde"},"vehicle_type_id":"4","last_reported":1729418931,"current_range_meters":18800,"station_id":"ce4bhbh2rcd13ifvqeqg","pricing_plan_id":"cebpf4jnsgd1na2vs0mg"},{"bike_id":"bf088e9d-7e9e-4a23-a409-6f10e6c600de","system_id":"levelo_inurba_marseille","lat":43.27999,"lon":5.40026,"is_reserved":false,"is_disabled":false,"rental_uris":{"android":"levelo://app?vid=bf088e9d-7e9e-4a23-a409-6f10e6c600de","ios":"levelo://app?vid=bf088e9d-7e9e-4a23-a409-6f10e6c600de"},"vehicle_type_id":"4","last_reported":1729418931,"current_range_meters":28000,"station_id":"ce4bho92rcd13ifvqh4g","pricing_plan_id":"cebpf4jnsgd1na2vs0mg"},{"bike_id":"b952f70c-3710-40db-86a6-eb24dc11b3ca","system_id":"levelo_inurba_marseille","lat":43.32491,"lon":5.36557,"is_reserved":false,"is_disabled":false,"rental_uris":{"android":"levelo://app?vid=b952f70c-3710-40db-86a6-eb24dc11b3ca","ios":"levelo://app?vid=b952f70c-3710-40db-86a6-eb24dc11b3ca"},"vehicle_type_id":"4","last_reported":1729418931,"current_range_meters":39200,"station_id":"ce4bhs12rcd13ifvqhvg","pricing_plan_id":"cebpf4jnsgd1na2vs0mg"},{"bike_id":"1b3d1e02-4034-4a63-9da3-993302b804b1","system_id":"levelo_inurba_marseille","lat":43.31332,"lon":5.39693,"is_reserved":false,"is_disabled":false,"rental_uris":{"android":"levelo://app?vid=1b3d1e02-4034-4a63-9da3-993302b804b1","ios":"levelo://app?vid=1b3d1e02-4034-4a63-9da3-993302b804b1"},"vehicle_type_id":"4","last_reported":1729418931,"current_range_meters":38000,"station_id":"ce4bgvp2rcd13ifvqcu0","pricing_plan_id":"cebpf4jnsgd1na2vs0mg"},{"bike_id":"2d4d859a-6a51-4e5c-a842-75354e6e4217","system_id":"levelo_inurba_marseille","lat":43.33017,"lon":5.390366,"is_reserved":false,"is_disabled":false,"rental_uris":{"android":"levelo://app?vid=2d4d859a-6a51-4e5c-a842-75354e6e4217","ios":"levelo://app?vid=2d4d859a-6a51-4e5c-a842-75354e6e4217"},"vehicle_type_id":"4","last_reported":1729418931,"current_range_meters":8000,"station_id":"ce4bhr92rcd13ifvqhrg","pricing_plan_id":"cebpf4jnsgd1na2vs0mg"},{"bike_id":"b5d2d5bd-e19c-4bde-b5ea-93a31869f3e9","system_id":"levelo_inurba_marseille","lat":43.2842,"lon":5.34981,"is_reserved":false,"is_disabled":false,"rental_uris":{"android":"levelo://app?vid=b5d2d5bd-e19c-4bde-b5ea-93a31869f3e9","ios":"levelo://app?vid=b5d2d5bd-e19c-4bde-b5ea-93a31869f3e9"},"vehicle_type_id":"4","last_reported":1729418931,"current_range_meters":36400,"station_id":"ce4bhbh2rcd13ifvqepg","pricing_plan_id":"cebpf4jnsgd1na2vs0mg"},{"bike_id":"2d9e3df1-0dca-43ea-b82c-f5159aab9faa","system_id":"levelo_inurba_marseille","lat":43.23966,"lon":5.36636,"is_reserved":false,"is_disabled":false,"rental_uris":{"android":"levelo://app?vid=2d9e3df1-0dca-43ea-b82c-f5159aab9faa","ios":"levelo://app?vid=2d9e3df1-0dca-43ea-b82c-f5159aab9faa"},"vehicle_type_id":"4","last_reported":1729418931,"current_range_meters":19200,"station_id":"ce4bhi12rcd13ifvqfp0","pricing_plan_id":"cebpf4jnsgd1na2vs0mg"},{"bike_id":"b95209e8-3f84-4bf4-bcf4-8ff165ba3dcc","system_id":"levelo_inurba_marseille","lat":43.27923,"lon":5.39584,"is_reserved":false,"is_disabled":false,"rental_uris":{"android":"levelo://app?vid=b95209e8-3f84-4bf4-bcf4-8ff165ba3dcc","ios":"levelo://app?vid=b95209e8-3f84-4bf4-bcf4-8ff165ba3dcc"},"vehicle_type_id":"4","last_reported":1729418931,"current_range_meters":38000,"station_id":"ce4bhf92rcd13ifvqf40","pricing_plan_id":"cebpf4jnsgd1na2vs0mg"},{"bike_id":"48a16bc1-29b7-46af-9e05-9a9658f9a83a","system_id":"levelo_inurba_marseille","lat":43.25573,"lon":5.38228,"is_reserved":false,"is_disabled":false,"rental_uris":{"android":"levelo://app?vid=48a16bc1-29b7-46af-9e05-9a9658f9a83a","ios":"levelo://app?vid=48a16bc1-29b7-46af-9e05-9a9658f9a83a"},"vehicle_type_id":"4","last_reported":1729418931,"current_range_meters":20400,"station_id":"ce4bhih2rcd13ifvqfs0","pricing_plan_id":"cebpf4jnsgd1na2vs0mg"},{"bike_id":"d6a385a2-77b0-433b-9501-5c61817b36da","system_id":"levelo_inurba_marseille","lat":43.30547,"lon":5.36554,"is_reserved":false,"is_disabled":false,"rental_uris":{"android":"levelo://app?vid=d6a385a2-77b0-433b-9501-5c61817b36da","ios":"levelo://app?vid=d6a385a2-77b0-433b-9501-5c61817b36da"},"vehicle_type_id":"4","last_reported":1729418931,"current_range_meters":16800,"station_id":"ce4bgs12rcd13ifvqcag","pricing_plan_id":"cebpf4jnsgd1na2vs0mg"},{"bike_id":"cb54994a-1c31-4e91-8e01-893898e0c746","system_id":"levelo_inurba_marseille","lat":43.296109,"lon":5.390641,"is_reserved":false,"is_disabled":false,"rental_uris":{"android":"levelo://app?vid=cb54994a-1c31-4e91-8e01-893898e0c746","ios":"levelo://app?vid=cb54994a-1c31-4e91-8e01-893898e0c746"},"vehicle_type_id":"4","last_reported":1729418931,"current_range_meters":39200,"station_id":"ce4bh292rcd13ifvqdf0","pricing_plan_id":"cebpf4jnsgd1na2vs0mg"},{"bike_id":"765477b4-7648-4c7a-8240-1916f126a509","system_id":"levelo_inurba_marseille","lat":43.28151,"lon":5.42641,"is_reserved":false,"is_disabled":false,"rental_uris":{"android":"levelo://app?vid=765477b4-7648-4c7a-8240-1916f126a509","ios":"levelo://app?vid=765477b4-7648-4c7a-8240-1916f126a509"},"vehicle_type_id":"4","last_reported":1729418931,"current_range_meters":38000,"station_id":"ce4bhnh2rcd13ifvqgug","pricing_plan_id":"cebpf4jnsgd1na2vs0mg"},{"bike_id":"5c28a995-646a-4a1d-888e-296e57e3c789","system_id":"levelo_inurba_marseille","lat":43.23963,"lon":5.36625,"is_reserved":false,"is_disabled":false,"rental_uris":{"android":"levelo://app?vid=5c28a995-646a-4a1d-888e-296e57e3c789","ios":"levelo://app?vid=5c28a995-646a-4a1d-888e-296e57e3c789"},"vehicle_type_id":"4","last_reported":1729418931,"current_range_meters":32000,"station_id":"ce4bhi12rcd13ifvqfp0","pricing_plan_id":"cebpf4jnsgd1na2vs0mg"},{"bike_id":"e9d6bd79-d122-4ee4-91a9-ecfca56c86b9","system_id":"levelo_inurba_marseille","lat":43.24813,"lon":5.37458,"is_reserved":false,"is_disabled":false,"rental_uris":{"android":"levelo://app?vid=e9d6bd79-d122-4ee4-91a9-ecfca56c86b9","ios":"levelo://app?vid=e9d6bd79-d122-4ee4-91a9-ecfca56c86b9"},"vehicle_type_id":"4","last_reported":1729418931,"current_range_meters":36000,"station_id":"ce4bhgh2rcd13ifvqfb0","pricing_plan_id":"cebpf4jnsgd1na2vs0mg"},{"bike_id":"11447612-b154-40e7-a4b9-c7f23405aff1","system_id":"levelo_inurba_marseille","lat":43.30538,"lon":5.36536,"is_reserved":false,"is_disabled":false,"rental_uris":{"android":"levelo://app?vid=11447612-b154-40e7-a4b9-c7f23405aff1","ios":"levelo://app?vid=11447612-b154-40e7-a4b9-c7f23405aff1"},"vehicle_type_id":"4","last_reported":1729418931,"current_range_meters":20800,"station_id":"ce4bgs12rcd13ifvqcag","pricing_plan_id":"cebpf4jnsgd1na2vs0mg"},{"bike_id":"b80efdaf-3742-49ab-aebc-2bf5cb54e108","system_id":"levelo_inurba_marseille","lat":43.28416,"lon":5.37512,"is_reserved":false,"is_disabled":false,"rental_uris":{"android":"levelo://app?vid=b80efdaf-3742-49ab-aebc-2bf5cb54e108","ios":"levelo://app?vid=b80efdaf-3742-49ab-aebc-2bf5cb54e108"},"vehicle_type_id":"4","last_reported":1729418931,"current_range_meters":22800,"station_id":"ce4bh412rcd13ifvqds0","pricing_plan_id":"cebpf4jnsgd1na2vs0mg"},{"bike_id":"5da00efa-ab96-4c9a-9eed-c68c91c7a6cc","system_id":"levelo_inurba_marseille","lat":43.284529,"lon":5.358891,"is_reserved":false,"is_disabled":false,"rental_uris":{"android":"levelo://app?vid=5da00efa-ab96-4c9a-9eed-c68c91c7a6cc","ios":"levelo://app?vid=5da00efa-ab96-4c9a-9eed-c68c91c7a6cc"},"vehicle_type_id":"4","last_reported":1729418931,"current_range_meters":38000,"station_id":"ce4bhah2rcd13ifvqei0","pricing_plan_id":"cebpf4jnsgd1na2vs0mg"},{"bike_id":"8607dfae-0230-4a05-8be2-80542b6f7da9","system_id":"levelo_inurba_marseille","lat":43.24079,"lon":5.37758,"is_reserved":false,"is_disabled":false,"rental_uris":{"android":"levelo://app?vid=8607dfae-0230-4a05-8be2-80542b6f7da9","ios":"levelo://app?vid=8607dfae-0230-4a05-8be2-80542b6f7da9"},"vehicle_type_id":"4","last_reported":1729418931,"current_range_meters":27600,"station_id":"ce4bhnp2rcd13ifvqgvg","pricing_plan_id":"cebpf4jnsgd1na2vs0mg"},{"bike_id":"401d27b2-8f28-45bb-8c0a-e379ec341dd1","system_id":"levelo_inurba_marseille","lat":43.23959,"lon":5.36635,"is_reserved":false,"is_disabled":false,"rental_uris":{"android":"levelo://app?vid=401d27b2-8f28-45bb-8c0a-e379ec341dd1","ios":"levelo://app?vid=401d27b2-8f28-45bb-8c0a-e379ec341dd1"},"vehicle_type_id":"4","last_reported":1729418931,"current_range_meters":33600,"station_id":"ce4bhi12rcd13ifvqfp0","pricing_plan_id":"cebpf4jnsgd1na2vs0mg"},{"bike_id":"023fd4ad-0b97-4192-b5e1-73d82911bd9a","system_id":"levelo_inurba_marseille","lat":43.25084,"lon":5.39512,"is_reserved":false,"is_disabled":false,"rental_uris":{"android":"levelo://app?vid=023fd4ad-0b97-4192-b5e1-73d82911bd9a","ios":"levelo://app?vid=023fd4ad-0b97-4192-b5e1-73d82911bd9a"},"vehicle_type_id":"4","last_reported":1729418931,"current_range_meters":39200,"station_id":"ce4bhm12rcd13ifvqgkg","pricing_plan_id":"cebpf4jnsgd1na2vs0mg"},{"bike_id":"5af46886-a0e4-4f85-8458-02e323c75e59","system_id":"levelo_inurba_marseille","lat":43.29309,"lon":5.37457,"is_reserved":false,"is_disabled":false,"rental_uris":{"android":"levelo://app?vid=5af46886-a0e4-4f85-8458-02e323c75e59","ios":"levelo://app?vid=5af46886-a0e4-4f85-8458-02e323c75e59"},"vehicle_type_id":"4","last_reported":1729418931,"current_range_meters":17200,"station_id":"ce4bgi12rcd13ifvqb70","pricing_plan_id":"cebpf4jnsgd1na2vs0mg"},{"bike_id":"f739c5a5-6cc1-4a10-9151-8d8447774477","system_id":"levelo_inurba_marseille","lat":43.28424,"lon":5.34992,"is_reserved":false,"is_disabled":false,"rental_uris":{"android":"levelo://app?vid=f739c5a5-6cc1-4a10-9151-8d8447774477","ios":"levelo://app?vid=f739c5a5-6cc1-4a10-9151-8d8447774477"},"vehicle_type_id":"4","last_reported":1729418931,"current_range_meters":33200,"station_id":"ce4bhbh2rcd13ifvqepg","pricing_plan_id":"cebpf4jnsgd1na2vs0mg"},{"bike_id":"e137ae2c-f87e-4c77-8d1a-af3366bda4c0","system_id":"levelo_inurba_marseille","lat":43.2738,"lon":5.36263,"is_reserved":false,"is_disabled":false,"rental_uris":{"android":"levelo://app?vid=e137ae2c-f87e-4c77-8d1a-af3366bda4c0","ios":"levelo://app?vid=e137ae2c-f87e-4c77-8d1a-af3366bda4c0"},"vehicle_type_id":"4","last_reported":1729418931,"current_range_meters":20400,"station_id":"ce4bhbh2rcd13ifvqeo0","pricing_plan_id":"cebpf4jnsgd1na2vs0mg"},{"bike_id":"c61834e5-ab0c-4e12-b32f-eb9d3c1af5fe","system_id":"levelo_inurba_marseille","lat":43.23966,"lon":5.36627,"is_reserved":false,"is_disabled":false,"rental_uris":{"android":"levelo://app?vid=c61834e5-ab0c-4e12-b32f-eb9d3c1af5fe","ios":"levelo://app?vid=c61834e5-ab0c-4e12-b32f-eb9d3c1af5fe"},"vehicle_type_id":"4","last_reported":1729418931,"current_range_meters":16000,"station_id":"ce4bhi12rcd13ifvqfp0","pricing_plan_id":"cebpf4jnsgd1na2vs0mg"},{"bike_id":"1fb323b7-506e-4cf3-b734-7282deb3a50b","system_id":"levelo_inurba_marseille","lat":43.29229,"lon":5.3607,"is_reserved":false,"is_disabled":false,"rental_uris":{"android":"levelo://app?vid=1fb323b7-506e-4cf3-b734-7282deb3a50b","ios":"levelo://app?vid=1fb323b7-506e-4cf3-b734-7282deb3a50b"},"vehicle_type_id":"4","last_reported":1729418931,"current_range_meters":38800,"station_id":"ce4bhbh2rcd13ifvqeqg","pricing_plan_id":"cebpf4jnsgd1na2vs0mg"},{"bike_id":"4ccecc8e-1d26-4861-adad-d5959602cfe6","system_id":"levelo_inurba_marseille","lat":43.25579,"lon":5.38229,"is_reserved":false,"is_disabled":false,"rental_uris":{"android":"levelo://app?vid=4ccecc8e-1d26-4861-adad-d5959602cfe6","ios":"levelo://app?vid=4ccecc8e-1d26-4861-adad-d5959602cfe6"},"vehicle_type_id":"4","last_reported":1729418931,"current_range_meters":32800,"station_id":"ce4bhih2rcd13ifvqfs0","pricing_plan_id":"cebpf4jnsgd1na2vs0mg"},{"bike_id":"f3523a6a-a401-4615-b003-5ae148863e13","system_id":"levelo_inurba_marseille","lat":43.29304,"lon":5.37454,"is_reserved":false,"is_disabled":false,"rental_uris":{"android":"levelo://app?vid=f3523a6a-a401-4615-b003-5ae148863e13","ios":"levelo://app?vid=f3523a6a-a401-4615-b003-5ae148863e13"},"vehicle_type_id":"4","last_reported":1729418931,"current_range_meters":38000,"station_id":"ce4bgi12rcd13ifvqb70","pricing_plan_id":"cebpf4jnsgd1na2vs0mg"},{"bike_id":"f0cb3290-4bd1-41ce-892a-9de768273c4d","system_id":"levelo_inurba_marseille","lat":43.27373,"lon":5.36263,"is_reserved":false,"is_disabled":false,"rental_uris":{"android":"levelo://app?vid=f0cb3290-4bd1-41ce-892a-9de768273c4d","ios":"levelo://app?vid=f0cb3290-4bd1-41ce-892a-9de768273c4d"},"vehicle_type_id":"4","last_reported":1729418931,"current_range_meters":29600,"station_id":"ce4bhbh2rcd13ifvqeo0","pricing_plan_id":"cebpf4jnsgd1na2vs0mg"},{"bike_id":"9b9628b3-8432-4f59-8342-5fdd034b483d","system_id":"levelo_inurba_marseille","lat":43.27995,"lon":5.40008,"is_reserved":false,"is_disabled":false,"rental_uris":{"android":"levelo://app?vid=9b9628b3-8432-4f59-8342-5fdd034b483d","ios":"levelo://app?vid=9b9628b3-8432-4f59-8342-5fdd034b483d"},"vehicle_type_id":"4","last_reported":1729418931,"current_range_meters":16400,"station_id":"ce4bho92rcd13ifvqh4g","pricing_plan_id":"cebpf4jnsgd1na2vs0mg"},{"bike_id":"4237405c-9e6b-4a04-b9b9-8793afd0eedb","system_id":"levelo_inurba_marseille","lat":43.32115,"lon":5.36765,"is_reserved":false,"is_disabled":false,"rental_uris":{"android":"levelo://app?vid=4237405c-9e6b-4a04-b9b9-8793afd0eedb","ios":"levelo://app?vid=4237405c-9e6b-4a04-b9b9-8793afd0eedb"},"vehicle_type_id":"4","last_reported":1729418931,"current_range_meters":27200,"station_id":"ce4bhrh2rcd13ifvqhug","pricing_plan_id":"cebpf4jnsgd1na2vs0mg"},{"bike_id":"654359f0-ab6b-4b57-9bdd-510a6c401e0c","system_id":"levelo_inurba_marseille","lat":43.32336,"lon":5.40622,"is_reserved":false,"is_disabled":false,"rental_uris":{"android":"levelo://app?vid=654359f0-ab6b-4b57-9bdd-510a6c401e0c","ios":"levelo://app?vid=654359f0-ab6b-4b57-9bdd-510a6c401e0c"},"vehicle_type_id":"4","last_reported":1729418931,"current_range_meters":16800,"station_id":"ce4bhq92rcd13ifvqhjg","pricing_plan_id":"cebpf4jnsgd1na2vs0mg"},{"bike_id":"7e4aab87-88f2-4318-a981-5f11b7abe31a","system_id":"levelo_inurba_marseille","lat":43.33023,"lon":5.39043,"is_reserved":false,"is_disabled":false,"rental_uris":{"android":"levelo://app?vid=7e4aab87-88f2-4318-a981-5f11b7abe31a","ios":"levelo://app?vid=7e4aab87-88f2-4318-a981-5f11b7abe31a"},"vehicle_type_id":"4","last_reported":1729418931,"current_range_meters":20800,"station_id":"ce4bhr92rcd13ifvqhrg","pricing_plan_id":"cebpf4jnsgd1na2vs0mg"},{"bike_id":"f7149b6e-5b7f-44c6-a523-753d1a0ddad0","system_id":"levelo_inurba_marseille","lat":43.29713,"lon":5.37686,"is_reserved":false,"is_disabled":false,"rental_uris":{"android":"levelo://app?vid=f7149b6e-5b7f-44c6-a523-753d1a0ddad0","ios":"levelo://app?vid=f7149b6e-5b7f-44c6-a523-753d1a0ddad0"},"vehicle_type_id":"4","last_reported":1729418931,"current_range_meters":20400,"station_id":"ce4bgkh2rcd13ifvqbl0","pricing_plan_id":"cebpf4jnsgd1na2vs0mg"},{"bike_id":"373022c6-0c5e-4ab5-a096-0f5e1d5769b4","system_id":"levelo_inurba_marseille","lat":43.25204,"lon":5.37342,"is_reserved":false,"is_disabled":false,"rental_uris":{"android":"levelo://app?vid=373022c6-0c5e-4ab5-a096-0f5e1d5769b4","ios":"levelo://app?vid=373022c6-0c5e-4ab5-a096-0f5e1d5769b4"},"vehicle_type_id":"4","last_reported":1729418931,"current_range_meters":3200,"station_id":"","pricing_plan_id":"cebpf4jnsgd1na2vs0mg"},{"bike_id":"2fd4d4b5-d04b-41eb-9bb8-acfa159140fc","system_id":"levelo_inurba_marseille","lat":43.29194,"lon":5.35805,"is_reserved":false,"is_disabled":false,"rental_uris":{"android":"levelo://app?vid=2fd4d4b5-d04b-41eb-9bb8-acfa159140fc","ios":"levelo://app?vid=2fd4d4b5-d04b-41eb-9bb8-acfa159140fc"},"vehicle_type_id":"4","last_reported":1729418931,"current_range_meters":32800,"station_id":"ce4bhb12rcd13ifvqel0","pricing_plan_id":"cebpf4jnsgd1na2vs0mg"},{"bike_id":"526786c0-12c6-4dc3-a415-c5c3eccedd1c","system_id":"levelo_inurba_marseille","lat":43.28416,"lon":5.34982,"is_reserved":false,"is_disabled":false,"rental_uris":{"android":"levelo://app?vid=526786c0-12c6-4dc3-a415-c5c3eccedd1c","ios":"levelo://app?vid=526786c0-12c6-4dc3-a415-c5c3eccedd1c"},"vehicle_type_id":"4","last_reported":1729418931,"current_range_meters":37600,"station_id":"ce4bhbh2rcd13ifvqepg","pricing_plan_id":"cebpf4jnsgd1na2vs0mg"},{"bike_id":"9607628f-1765-4d4c-bf7f-ec7512d6ee9b","system_id":"levelo_inurba_marseille","lat":43.2815,"lon":5.42637,"is_reserved":false,"is_disabled":false,"rental_uris":{"android":"levelo://app?vid=9607628f-1765-4d4c-bf7f-ec7512d6ee9b","ios":"levelo://app?vid=9607628f-1765-4d4c-bf7f-ec7512d6ee9b"},"vehicle_type_id":"4","last_reported":1729418931,"current_range_meters":38800,"station_id":"ce4bhnh2rcd13ifvqgug","pricing_plan_id":"cebpf4jnsgd1na2vs0mg"},{"bike_id":"996b68ea-a3b8-48c9-9cf2-f66df1d63882","system_id":"levelo_inurba_marseille","lat":43.23194,"lon":5.35547,"is_reserved":false,"is_disabled":false,"rental_uris":{"android":"levelo://app?vid=996b68ea-a3b8-48c9-9cf2-f66df1d63882","ios":"levelo://app?vid=996b68ea-a3b8-48c9-9cf2-f66df1d63882"},"vehicle_type_id":"4","last_reported":1729418931,"current_range_meters":12000,"station_id":"ce4bhu92rcd13ifvqi70","pricing_plan_id":"cebpf4jnsgd1na2vs0mg"},{"bike_id":"eec98611-20a2-4d13-a256-fcb8c41f9648","system_id":"levelo_inurba_marseille","lat":43.28781,"lon":5.36249,"is_reserved":false,"is_disabled":false,"rental_uris":{"android":"levelo://app?vid=eec98611-20a2-4d13-a256-fcb8c41f9648","ios":"levelo://app?vid=eec98611-20a2-4d13-a256-fcb8c41f9648"},"vehicle_type_id":"4","last_reported":1729418931,"current_range_meters":4400,"station_id":"","pricing_plan_id":"cebpf4jnsgd1na2vs0mg"},{"bike_id":"ad69aca3-c1cd-44d3-80db-24a334c1709d","system_id":"levelo_inurba_marseille","lat":43.29039,"lon":5.39967,"is_reserved":false,"is_disabled":false,"rental_uris":{"android":"levelo://app?vid=ad69aca3-c1cd-44d3-80db-24a334c1709d","ios":"levelo://app?vid=ad69aca3-c1cd-44d3-80db-24a334c1709d"},"vehicle_type_id":"4","last_reported":1729418931,"current_range_meters":15200,"station_id":"ce4bh392rcd13ifvqdm0","pricing_plan_id":"cebpf4jnsgd1na2vs0mg"},{"bike_id":"051cb29e-efe1-4b01-99a9-3b3cd0822f79","system_id":"levelo_inurba_marseille","lat":43.30301,"lon":5.39211,"is_reserved":false,"is_disabled":false,"rental_uris":{"android":"levelo://app?vid=051cb29e-efe1-4b01-99a9-3b3cd0822f79","ios":"levelo://app?vid=051cb29e-efe1-4b01-99a9-3b3cd0822f79"},"vehicle_type_id":"4","last_reported":1729418931,"current_range_meters":5600,"station_id":"ce4bgkh2rcd13ifvqbk0","pricing_plan_id":"cebpf4jnsgd1na2vs0mg"},{"bike_id":"3cecd1af-2d1f-4ed1-85c0-5e6f9c348ad8","system_id":"levelo_inurba_marseille","lat":43.3079,"lon":5.37637,"is_reserved":false,"is_disabled":false,"rental_uris":{"android":"levelo://app?vid=3cecd1af-2d1f-4ed1-85c0-5e6f9c348ad8","ios":"levelo://app?vid=3cecd1af-2d1f-4ed1-85c0-5e6f9c348ad8"},"vehicle_type_id":"4","last_reported":1729418931,"current_range_meters":38800,"station_id":"ce4bgv92rcd13ifvqcq0","pricing_plan_id":"cebpf4jnsgd1na2vs0mg"},{"bike_id":"4921af5c-d200-49ae-b416-4e46b4973a41","system_id":"levelo_inurba_marseille","lat":43.24547,"lon":5.39527,"is_reserved":false,"is_disabled":false,"rental_uris":{"android":"levelo://app?vid=4921af5c-d200-49ae-b416-4e46b4973a41","ios":"levelo://app?vid=4921af5c-d200-49ae-b416-4e46b4973a41"},"vehicle_type_id":"4","last_reported":1729418931,"current_range_meters":28000,"station_id":"ce4bhlp2rcd13ifvqgjg","pricing_plan_id":"cebpf4jnsgd1na2vs0mg"},{"bike_id":"af029ca5-2a41-4dba-be3c-484de0cf955e","system_id":"levelo_inurba_marseille","lat":43.27382,"lon":5.36253,"is_reserved":false,"is_disabled":false,"rental_uris":{"android":"levelo://app?vid=af029ca5-2a41-4dba-be3c-484de0cf955e","ios":"levelo://app?vid=af029ca5-2a41-4dba-be3c-484de0cf955e"},"vehicle_type_id":"4","last_reported":1729418931,"current_range_meters":38400,"station_id":"ce4bhbh2rcd13ifvqeo0","pricing_plan_id":"cebpf4jnsgd1na2vs0mg"},{"bike_id":"474d5c64-4154-4ae7-b02e-9a105d79c6fa","system_id":"levelo_inurba_marseille","lat":43.23964,"lon":5.36638,"is_reserved":false,"is_disabled":false,"rental_uris":{"android":"levelo://app?vid=474d5c64-4154-4ae7-b02e-9a105d79c6fa","ios":"levelo://app?vid=474d5c64-4154-4ae7-b02e-9a105d79c6fa"},"vehicle_type_id":"4","last_reported":1729418931,"current_range_meters":12000,"station_id":"ce4bhi12rcd13ifvqfp0","pricing_plan_id":"cebpf4jnsgd1na2vs0mg"},{"bike_id":"d52ccc40-0010-4b67-8f87-a21e481e1258","system_id":"levelo_inurba_marseille","lat":43.28459,"lon":5.35895,"is_reserved":false,"is_disabled":false,"rental_uris":{"android":"levelo://app?vid=d52ccc40-0010-4b67-8f87-a21e481e1258","ios":"levelo://app?vid=d52ccc40-0010-4b67-8f87-a21e481e1258"},"vehicle_type_id":"4","last_reported":1729418931,"current_range_meters":29600,"station_id":"ce4bhah2rcd13ifvqei0","pricing_plan_id":"cebpf4jnsgd1na2vs0mg"},{"bike_id":"e14d615c-73ea-431a-9ff6-0ed950a9fac7","system_id":"levelo_inurba_marseille","lat":43.24384,"lon":5.37053,"is_reserved":false,"is_disabled":false,"rental_uris":{"android":"levelo://app?vid=e14d615c-73ea-431a-9ff6-0ed950a9fac7","ios":"levelo://app?vid=e14d615c-73ea-431a-9ff6-0ed950a9fac7"},"vehicle_type_id":"4","last_reported":1729418931,"current_range_meters":34000,"station_id":"ce4bhhh2rcd13ifvqfk0","pricing_plan_id":"cebpf4jnsgd1na2vs0mg"},{"bike_id":"2a872878-13ad-4e79-a33b-c1cc4c23f1e9","system_id":"levelo_inurba_marseille","lat":43.27072,"lon":5.42272,"is_reserved":false,"is_disabled":false,"rental_uris":{"android":"levelo://app?vid=2a872878-13ad-4e79-a33b-c1cc4c23f1e9","ios":"levelo://app?vid=2a872878-13ad-4e79-a33b-c1cc4c23f1e9"},"vehicle_type_id":"4","last_reported":1729418931,"current_range_meters":24400,"station_id":"ce4bhk92rcd13ifvqgb0","pricing_plan_id":"cebpf4jnsgd1na2vs0mg"},