{"last_updated":1745600955,"ttl":60,"version":"2.2","data":{"bikes":[{"bike_id":"16cb1ddf-669f-46ce-8566-979b57ee392e","system_id":"levelo_inurba_marseille","lat":43.290101,"lon":5.381256,"is_reserved":false,"is_disabled":false,"rental_uris":{"android":"levelo://app?vid=16cb1ddf-669f-46ce-8566-979b57ee392e","ios":"levelo://app?vid=16cb1ddf-669f-46ce-8566-979b57ee392e"},"vehicle_type_id":"4","last_reported":1745600955,"current_range_meters":2800,"station_id":"ce4bh4p2rcd13ifvqe1g","pricing_plan_id":"cebpf4jnsgd1na2vs0mg"},{"bike_id":"7bc9e0f0-1858-48cc-bec0-f8a244c96ec7","system_id":"levelo_inurba_marseille","lat":43.27495,"lon":5.42452,"is_reserved":false,"is_disabled":false,"rental_uris":{"android":"levelo://app?vid=7bc9e0f0-1858-48cc-bec0-f8a244c96ec7","ios":"levelo://app?vid=7bc9e0f0-1858-48cc-bec0-f8a244c96ec7"},"vehicle_type_id":"4","last_reported":1745600955,"current_range_meters":2800,"station_id":"ce4bhn92rcd13ifvqgrg","pricing_plan_id":"cebpf4jnsgd1na2vs0mg"},{"bike_id":"b720d36e-4e34-4cb5-8734-a497ab63667e","system_id":"levelo_inurba_marseille","lat":43.28358,"lon":5.38629,"is_reserved":false,"is_disabled":false,"rental_uris":{"android":"levelo://app?vid=b720d36e-4e34-4cb5-8734-a497ab63667e","ios":"levelo://app?vid=b720d36e-4e34-4cb5-8734-a497ab63667e"},"vehicle_type_id":"4","last_reported":1745600955,"current_range_meters":2800,"station_id":"ce4bh492rcd13ifvqdvg","pricing_plan_id":"cebpf4jnsgd1na2vs0mg"},{"bike_id":"9fa198ea-fcfa-4e47-80b8-644d9f3819f5","system_id":"levelo_inurba_marseille","lat":43.2843,"lon":5.34988,"is_reserved":false,"is_disabled":false,"rental_uris":{"android":"levelo://app?vid=9fa198ea-fcfa-4e47-80b8-644d9f3819f5","ios":"levelo://app?vid=9fa198ea-fcfa-4e47-80b8-644d9f3819f5"},"vehicle_type_id":"4","last_reported":1745600955,"current_range_meters":2800,"station_id":"ce4bhbh2rcd13ifvqepg","pricing_plan_id":"cebpf4jnsgd1na2vs0mg"},{"bike_id":"04de76c4-a1ad-45bf-9e28-7c78bfcbb5c0","system_id":"levelo_inurba_marseille","lat":43.25202,"lon":5.37388,"is_reserved":false,"is_disabled":false,"rental_uris":{"android":"levelo://app?vid=04de76c4-a1ad-45bf-9e28-7c78bfcbb5c0","ios":"levelo://app?vid=04de76c4-a1ad-45bf-9e28-7c78bfcbb5c0"},"vehicle_type_id":"4","last_reported":1745600955,"current_range_meters":2800,"station_id":"","pricing_plan_id":"cebpf4jnsgd1na2vs0mg"},{"bike_id":"64a0b060-c5c5-46a0-8d64-9d352c43d96d","system_id":"levelo_inurba_marseille","lat":43.31112,"lon":5.37773,"is_reserved":false,"is_disabled":false,"rental_uris":{"android":"levelo://app?vid=64a0b060-c5c5-46a0-8d64-9d352c43d96d","ios":"levelo://app?vid=64a0b060-c5c5-46a0-8d64-9d352c43d96d"},"vehicle_type_id":"4","last_reported":1745600955,"current_range_meters":2800,"station_id":"ce4bgt92rcd13ifvqcg0","pricing_plan_id":"cebpf4jnsgd1na2vs0mg"},{"bike_id":"8cf8da14-e1fd-4fcc-b81a-bf72a0e4400c","system_id":"levelo_inurba_marseille","lat":43.26707,"lon":5.38307,"is_reserved":false,"is_disabled":true,"rental_uris":{"android":"levelo://app?vid=8cf8da14-e1fd-4fcc-b81a-bf72a0e4400c","ios":"levelo://app?vid=8cf8da14-e1fd-4fcc-b81a-bf72a0e4400c"},"vehicle_type_id":"4","last_reported":1745600955,"current_range_meters":2800,"station_id":"ce4bhg92rcd13ifvqf90","pricing_plan_id":"cebpf4jnsgd1na2vs0mg"},{"bike_id":"cb0e11aa-c4c4-4028-9e85-0fb0186f6f7f","system_id":"levelo_inurba_marseille","lat":43.287994,"lon":5.388481,"is_reserved":false,"is_disabled":false,"rental_uris":{"android":"levelo://app?vid=cb0e11aa-c4c4-4028-9e85-0fb0186f6f7f","ios":"levelo://app?vid=cb0e11aa-c4c4-4028-9e85-0fb0186f6f7f"},"vehicle_type_id":"4","last_reported":1745600955,"current_range_meters":2800,"station_id":"ce4bh4p2rcd13ifvqe0g","pricing_plan_id":"cebpf4jnsgd1na2vs0mg"},{"bike_id":"4abd78a1-ae5b-4df8-9c08-37320fef4d39","system_id":"levelo_inurba_marseille","lat":43.273819,"lon":5.362588,"is_reserved":false,"is_disabled":true,"rental_uris":{"android":"levelo://app?vid=4abd78a1-ae5b-4df8-9c08-37320fef4d39","ios":"levelo://app?vid=4abd78a1-ae5b-4df8-9c08-37320fef4d39"},"vehicle_type_id":"4","last_reported":1745600955,"current_range_meters":2800,"station_id":"ce4bhbh2rcd13ifvqeo0","pricing_plan_id":"cebpf4jnsgd1na2vs0mg"},{"bike_id":"6e3abe62-c4e5-42e2-84f5-24f00292925b","system_id":"levelo_inurba_marseille","lat":43.22953,"lon":5.35424,"is_reserved":false,"is_disabled":false,"rental_uris":{"android":"levelo://app?vid=6e3abe62-c4e5-42e2-84f5-24f00292925b","ios":"levelo://app?vid=6e3abe62-c4e5-42e2-84f5-24f00292925b"},"vehicle_type_id":"4","last_reported":1745600955,"current_range_meters":3200,"station_id":"cpo3532slgdg3j2ikp40","pricing_plan_id":"cebpf4jnsgd1na2vs0mg"},{"bike_id":"e8d236b9-bd63-4aba-bf98-58c57e468536","system_id":"levelo_inurba_marseille","lat":43.30883,"lon":5.39658,"is_reserved":false,"is_disabled":false,"rental_uris":{"android":"levelo://app?vid=e8d236b9-bd63-4aba-bf98-58c57e468536","ios":"levelo://app?vid=e8d236b9-bd63-4aba-bf98-58c57e468536"},"vehicle_type_id":"4","last_reported":1745600955,"current_range_meters":3200,"station_id":"ce4bh012rcd13ifvqcv0","pricing_plan_id":"cebpf4jnsgd1na2vs0mg"},{"bike_id":"d3a2af0b-07b4-4abf-9e40-0158c33178f0","system_id":"levelo_inurba_marseille","lat":43.31212,"lon":5.36821,"is_reserved":false,"is_disabled":false,"rental_uris":{"android":"levelo://app?vid=d3a2af0b-07b4-4abf-9e40-0158c33178f0","ios":"levelo://app?vid=d3a2af0b-07b4-4abf-9e40-0158c33178f0"},"vehicle_type_id":"4","last_reported":1745600955,"current_range_meters":3200,"station_id":"ce4bgl92rcd13ifvqbq0","pricing_plan_id":"cebpf4jnsgd1na2vs0mg"},{"bike_id":"bf3e2f81-926d-443b-9109-e0eee421f836","system_id":"levelo_inurba_marseille","lat":43.29172,"lon":5.3717,"is_reserved":false,"is_disabled":false,"rental_uris":{"android":"levelo://app?vid=bf3e2f81-926d-443b-9109-e0eee421f836","ios":"levelo://app?vid=bf3e2f81-926d-443b-9109-e0eee421f836"},"vehicle_type_id":"4","last_reported":1745600955,"current_range_meters":3200,"station_id":"ce4bha92rcd13ifvqeh0","pricing_plan_id":"cebpf4jnsgd1na2vs0mg"},{"bike_id":"d52511a6-7963-4e98-8170-f21372fd572d","system_id":"levelo_inurba_marseille","lat":43.254957,"lon":5.376479,"is_reserved":false,"is_disabled":false,"rental_uris":{"android":"levelo://app?vid=d52511a6-7963-4e98-8170-f21372fd572d","ios":"levelo://app?vid=d52511a6-7963-4e98-8170-f21372fd572d"},"vehicle_type_id":"4","last_reported":1745600955,"current_range_meters":3200,"station_id":"ce4bhh12rcd13ifvqff0","pricing_plan_id":"cebpf4jnsgd1na2vs0mg"},{"bike_id":"4f472310-f78f-4b4b-a6cd-abe8b72b4c00","system_id":"levelo_inurba_marseille","lat":43.25823,"lon":5.39433,"is_reserved":false,"is_disabled":false,"rental_uris":{"android":"levelo://app?vid=4f472310-f78f-4b4b-a6cd-abe8b72b4c00","ios":"levelo://app?vid=4f472310-f78f-4b4b-a6cd-abe8b72b4c00"},"vehicle_type_id":"4","last_reported":1745600955,"current_range_meters":3200,"station_id":"ce4bhip2rcd13ifvqft0","pricing_plan_id":"cebpf4jnsgd1na2vs0mg"},{"bike_id":"ecdd0875-7d56-4cd2-a14a-671f78e26c97","system_id":"levelo_inurba_marseille","lat":43.2305,"lon":5.355,"is_reserved":false,"is_disabled":false,"rental_uris":{"android":"levelo://app?vid=ecdd0875-7d56-4cd2-a14a-671f78e26c97","ios":"levelo://app?vid=ecdd0875-7d56-4cd2-a14a-671f78e26c97"},"vehicle_type_id":"4","last_reported":1745600955,"current_range_meters":3600,"station_id":"cpo3342slgdg3j2ifvpg","pricing_plan_id":"cebpf4jnsgd1na2vs0mg"},{"bike_id":"06c2c4b2-b6ca-42c7-a56a-54c7771e94b7","system_id":"levelo_inurba_marseille","lat":43.30461,"lon":5.379,"is_reserved":false,"is_disabled":false,"rental_uris":{"android":"levelo://app?vid=06c2c4b2-b6ca-42c7-a56a-54c7771e94b7","ios":"levelo://app?vid=06c2c4b2-b6ca-42c7-a56a-54c7771e94b7"},"vehicle_type_id":"4","last_reported":1745600955,"current_range_meters":3600,"station_id":"ce4bgup2rcd13ifvqcn0","pricing_plan_id":"cebpf4jnsgd1na2vs0mg"},{"bike_id":"fd265570-119b-4158-9264-8701f39090e6","system_id":"levelo_inurba_marseille","lat":43.29073,"lon":5.37174,"is_reserved":false,"is_disabled":true,"rental_uris":{"android":"levelo://app?vid=fd265570-119b-4158-9264-8701f39090e6","ios":"levelo://app?vid=fd265570-119b-4158-9264-8701f39090e6"},"vehicle_type_id":"4","last_reported":1745600955,"current_range_meters":3600,"station_id":"ce4bh5p2rcd13ifvqe4g","pricing_plan_id":"cebpf4jnsgd1na2vs0mg"},{"bike_id":"4784111a-f704-413c-8a7d-ea42481a7486","system_id":"levelo_inurba_marseille","lat":43.29523,"lon":5.39048,"is_reserved":false,"is_disabled":false,"rental_uris":{"android":"levelo://app?vid=4784111a-f704-413c-8a7d-ea42481a7486","ios":"levelo://app?vid=4784111a-f704-413c-8a7d-ea42481a7486"},"vehicle_type_id":"4","last_reported":1745600955,"current_range_meters":3600,"station_id":"ce4bh3p2rcd13ifvqdp0","pricing_plan_id":"cebpf4jnsgd1na2vs0mg"},{"bike_id":"67eddf72-5002-47f7-b18e-b2150df8bec7","system_id":"levelo_inurba_marseille","lat":43.27205,"lon":5.39182,"is_reserved":false,"is_disabled":false,"rental_uris":{"android":"levelo://app?vid=67eddf72-5002-47f7-b18e-b2150df8bec7","ios":"levelo://app?vid=67eddf72-5002-47f7-b18e-b2150df8bec7"},"vehicle_type_id":"4","last_reported":1745600955,"current_range_meters":3600,"station_id":"ce4bhhp2rcd13ifvqfm0","pricing_plan_id":"cebpf4jnsgd1na2vs0mg"},{"bike_id":"b329df08-9bfd-4a44-9dad-7258822bbfed","system_id":"levelo_inurba_marseille","lat":43.30365,"lon":5.41876,"is_reserved":false,"is_disabled":false,"rental_uris":{"android":"levelo://app?vid=b329df08-9bfd-4a44-9dad-7258822bbfed","ios":"levelo://app?vid=b329df08-9bfd-4a44-9dad-7258822bbfed"},"vehicle_type_id":"4","last_reported":1745600955,"current_range_meters":3600,"station_id":"ce4bhop2rcd13ifvqh7g","pricing_plan_id":"cebpf4jnsgd1na2vs0mg"},{"bike_id":"47c415eb-9c02-4094-bc4c-e5bc6add6cc6","system_id":"levelo_inurba_marseille","lat":43.2119,"lon":5.35076,"is_reserved":false,"is_disabled":false,"rental_uris":{"android":"levelo://app?vid=47c415eb-9c02-4094-bc4c-e5bc6add6cc6","ios":"levelo://app?vid=47c415eb-9c02-4094-bc4c-e5bc6add6cc6"},"vehicle_type_id":"4","last_reported":1745600955,"current_range_meters":3600,"station_id":"st_cvj6sg6p6f1abm77japg","pricing_plan_id":"cebpf4jnsgd1na2vs0mg"},{"bike_id":"fcaac76b-cf3c-49c9-9f1c-694c0d8547cc","system_id":"levelo_inurba_marseille","lat":43.2902,"lon":5.38631,"is_reserved":false,"is_disabled":false,"rental_uris":{"android":"levelo://app?vid=fcaac76b-cf3c-49c9-9f1c-694c0d8547cc","ios":"levelo://app?vid=fcaac76b-cf3c-49c9-9f1c-694c0d8547cc"},"vehicle_type_id":"4","last_reported":1745600955,"current_range_meters":3600,"station_id":"ce4bh4p2rcd13ifvqe0g","pricing_plan_id":"cebpf4jnsgd1na2vs0mg"},{"bike_id":"70e93854-164c-4889-ad07-e65988336f8d","system_id":"levelo_inurba_marseille","lat":43.295258,"lon":5.394002,"is_reserved":false,"is_disabled":false,"rental_uris":{"android":"levelo://app?vid=70e93854-164c-4889-ad07-e65988336f8d","ios":"levelo://app?vid=70e93854-164c-4889-ad07-e65988336f8d"},"vehicle_type_id":"4","last_reported":1745600955,"current_range_meters":3600,"station_id":"ce4bh292rcd13ifvqdf0","pricing_plan_id":"cebpf4jnsgd1na2vs0mg"},{"bike_id":"32cd9a69-27e9-47b1-bbb5-9d0bdb72dcd2","system_id":"levelo_inurba_marseille","lat":43.26057,"lon":5.39397,"is_reserved":false,"is_disabled":false,"rental_uris":{"android":"levelo://app?vid=32cd9a69-27e9-47b1-bbb5-9d0bdb72dcd2","ios":"levelo://app?vid=32cd9a69-27e9-47b1-bbb5-9d0bdb72dcd2"},"vehicle_type_id":"4","last_reported":1745600955,"current_range_meters":3600,"station_id":"ce4bhh92rcd13ifvqfj0","pricing_plan_id":"cebpf4jnsgd1na2vs0mg"},{"bike_id":"456312fe-c242-4ff4-9165-6b325c10c281","system_id":"levelo_inurba_marseille","lat":43.30323,"lon":5.40412,"is_reserved":false,"is_disabled":false,"rental_uris":{"android":"levelo://app?vid=456312fe-c242-4ff4-9165-6b325c10c281","ios":"levelo://app?vid=456312fe-c242-4ff4-9165-6b325c10c281"},"vehicle_type_id":"4","last_reported":1745600955,"current_range_meters":3600,"station_id":"ce4bh012rcd13ifvqd10","pricing_plan_id":"cebpf4jnsgd1na2vs0mg"},{"bike_id":"b72edb9c-62d6-4347-b4ed-ba4ab567f429","system_id":"levelo_inurba_marseille","lat":43.28412,"lon":5.34986,"is_reserved":false,"is_disabled":false,"rental_uris":{"android":"levelo://app?vid=b72edb9c-62d6-4347-b4ed-ba4ab567f429","ios":"levelo://app?vid=b72edb9c-62d6-4347-b4ed-ba4ab567f429"},"vehicle_type_id":"4","last_reported":1745600955,"current_range_meters":3600,"station_id":"ce4bhbh2rcd13ifvqepg","pricing_plan_id":"cebpf4jnsgd1na2vs0mg"},{"bike_id":"93a4512a-8292-45ba-aeaa-5229ddae833d","system_id":"levelo_inurba_marseille","lat":43.30942,"lon":5.39032,"is_reserved":false,"is_disabled":false,"rental_uris":{"android":"levelo://app?vid=93a4512a-8292-45ba-aeaa-5229ddae833d","ios":"levelo://app?vid=93a4512a-8292-45ba-aeaa-5229ddae833d"},"vehicle_type_id":"4","last_reported":1745600955,"current_range_meters":4000,"station_id":"ce4bgup2rcd13ifvqco0","pricing_plan_id":"cebpf4jnsgd1na2vs0mg"},{"bike_id":"54875d93-5e6c-41f7-82b4-90258a7f6016","system_id":"levelo_inurba_marseille","lat":43.29702,"lon":5.36615,"is_reserved":false,"is_disabled":false,"rental_uris":{"android":"levelo://app?vid=54875d93-5e6c-41f7-82b4-90258a7f6016","ios":"levelo://app?vid=54875d93-5e6c-41f7-82b4-90258a7f6016"},"vehicle_type_id":"4","last_reported":1745600955,"current_range_meters":3600,"station_id":"ce4bgn12rcd13ifvqbt0","pricing_plan_id":"cebpf4jnsgd1na2vs0mg"},{"bike_id":"83cf408d-bd48-48dc-ac06-024e0418cc58","system_id":"levelo_inurba_marseille","lat":43.29299,"lon":5.37447,"is_reserved":false,"is_disabled":true,"rental_uris":{"android":"levelo://app?vid=83cf408d-bd48-48dc-ac06-024e0418cc58","ios":"levelo://app?vid=83cf408d-bd48-48dc-ac06-024e0418cc58"},"vehicle_type_id":"4","last_reported":1745600955,"current_range_meters":4000,"station_id":"ce4bgi12rcd13ifvqb70","pricing_plan_id":"cebpf4jnsgd1na2vs0mg"},{"bike_id":"0665421a-052d-4840-9df9-d527b568d595","system_id":"levelo_inurba_marseille","lat":43.32412,"lon":5.39086,"is_reserved":false,"is_disabled":false,"rental_uris":{"android":"levelo://app?vid=0665421a-052d-4840-9df9-d527b568d595","ios":"levelo://app?vid=0665421a-052d-4840-9df9-d527b568d595"},"vehicle_type_id":"4","last_reported":1745600955,"current_range_meters":4000,"station_id":"","pricing_plan_id":"cebpf4jnsgd1na2vs0mg"},{"bike_id":"86e1c924-6951-4730-9f32-3b0e54f3980d","system_id":"levelo_inurba_marseille","lat":43.30509,"lon":5.36523,"is_reserved":false,"is_disabled":false,"rental_uris":{"android":"levelo://app?vid=86e1c924-6951-4730-9f32-3b0e54f3980d","ios":"levelo://app?vid=86e1c924-6951-4730-9f32-3b0e54f3980d"},"vehicle_type_id":"4","last_reported":1745600955,"current_range_meters":4400,"station_id":"ce4bgs12rcd13ifvqcag","pricing_plan_id":"cebpf4jnsgd1na2vs0mg"},{"bike_id":"6ca75eae-87b4-49fa-a433-b8726157ef1c","system_id":"levelo_inurba_marseille","lat":43.2902,"lon":5.38127,"is_reserved":false,"is_disabled":false,"rental_uris":{"android":"levelo://app?vid=6ca75eae-87b4-49fa-a433-b8726157ef1c","ios":"levelo://app?vid=6ca75eae-87b4-49fa-a433-b8726157ef1c"},"vehicle_type_id":"4","last_reported":1745600955,"current_range_meters":4400,"station_id":"ce4bh4p2rcd13ifvqe1g","pricing_plan_id":"cebpf4jnsgd1na2vs0mg"},{"bike_id":"141535cf-fb3b-46b7-aef5-8d6d20a2c722","system_id":"levelo_inurba_marseille","lat":43.28127,"lon":5.3782,"is_reserved":false,"is_disabled":false,"rental_uris":{"android":"levelo://app?vid=141535cf-fb3b-46b7-aef5-8d6d20a2c722","ios":"levelo://app?vid=141535cf-fb3b-46b7-aef5-8d6d20a2c722"},"vehicle_type_id":"4","last_reported":1745600955,"current_range_meters":4400,"station_id":"ce4bha12rcd13ifvqee0","pricing_plan_id":"cebpf4jnsgd1na2vs0mg"},{"bike_id":"f9582914-560a-460e-a927-4b8e10d8240b","system_id":"levelo_inurba_marseille","lat":43.2842,"lon":5.3499,"is_reserved":false,"is_disabled":false,"rental_uris":{"android":"levelo://app?vid=f9582914-560a-460e-a927-4b8e10d8240b","ios":"levelo://app?vid=f9582914-560a-460e-a927-4b8e10d8240b"},"vehicle_type_id":"4","last_reported":1745600955,"current_range_meters":4400,"station_id":"ce4bhbh2rcd13ifvqepg","pricing_plan_id":"cebpf4jnsgd1na2vs0mg"},{"bike_id":"93310e93-582e-4962-b528-fc42fd359fd7","system_id":"levelo_inurba_marseille","lat":43.29711,"lon":5.377,"is_reserved":false,"is_disabled":false,"rental_uris":{"android":"levelo://app?vid=93310e93-582e-4962-b528-fc42fd359fd7","ios":"levelo://app?vid=93310e93-582e-4962-b528-fc42fd359fd7"},"vehicle_type_id":"4","last_reported":1745600955,"current_range_meters":4400,"station_id":"ce4bgkh2rcd13ifvqbl0","pricing_plan_id":"cebpf4jnsgd1na2vs0mg"},{"bike_id":"2b158555-8706-4c56-adec-b4f11f548a15","system_id":"levelo_inurba_marseille","lat":43.284991,"lon":5.350153,"is_reserved":false,"is_disabled":false,"rental_uris":{"android":"levelo://app?vid=2b158555-8706-4c56-adec-b4f11f548a15","ios":"levelo://app?vid=2b158555-8706-4c56-adec-b4f11f548a15"},"vehicle_type_id":"4","last_reported":1745600955,"current_range_meters":4800,"station_id":"ce4bhb92rcd13ifvqen0","pricing_plan_id":"cebpf4jnsgd1na2vs0mg"},{"bike_id":"1cf61123-f817-460b-8375-5257900da415","system_id":"levelo_inurba_marseille","lat":43.28005,"lon":5.4001,"is_reserved":false,"is_disabled":false,"rental_uris":{"android":"levelo://app?vid=1cf61123-f817-460b-8375-5257900da415","ios":"levelo://app?vid=1cf61123-f817-460b-8375-5257900da415"},"vehicle_type_id":"4","last_reported":1745600955,"current_range_meters":4800,"station_id":"ce4bho92rcd13ifvqh4g","pricing_plan_id":"cebpf4jnsgd1na2vs0mg"},{"bike_id":"182f3cf4-9dd4-47aa-ad1d-48539ee6ce0b","system_id":"levelo_inurba_marseille","lat":43.23066,"lon":5.3549,"is_reserved":false,"is_disabled":false,"rental_uris":{"android":"levelo://app?vid=182f3cf4-9dd4-47aa-ad1d-48539ee6ce0b","ios":"levelo://app?vid=182f3cf4-9dd4-47aa-ad1d-48539ee6ce0b"},"vehicle_type_id":"4","last_reported":1745600955,"current_range_meters":5600,"station_id":"cpo3342slgdg3j2ifvpg","pricing_plan_id":"cebpf4jnsgd1na2vs0mg"},{"bike_id":"7fb3a2c8-a2ef-4260-8941-a73f316b29e2","system_id":"levelo_inurba_marseille","lat":43.29415,"lon":5.38617,"is_reserved":false,"is_disabled":false,"rental_uris":{"android":"levelo://app?vid=7fb3a2c8-a2ef-4260-8941-a73f316b29e2","ios":"levelo://app?vid=7fb3a2c8-a2ef-4260-8941-a73f316b29e2"},"vehicle_type_id":"4","last_reported":1745600955,"current_range_meters":5600,"station_id":"ce4bh2h2rcd13ifvqdh0","pricing_plan_id":"cebpf4jnsgd1na2vs0mg"},{"bike_id":"3a92cea4-18fa-4133-8fd3-5a27e12243f0","system_id":"levelo_inurba_marseille","lat":43.28262,"lon":5.3506,"is_reserved":false,"is_disabled":false,"rental_uris":{"android":"levelo://app?vid=3a92cea4-18fa-4133-8fd3-5a27e12243f0","ios":"levelo://app?vid=3a92cea4-18fa-4133-8fd3-5a27e12243f0"},"vehicle_type_id":"4","last_reported":1745600955,"current_range_meters":5600,"station_id":"ce4bhbp2rcd13ifvqerg","pricing_plan_id":"cebpf4jnsgd1na2vs0mg"},{"bike_id":"ae0542a5-b839-4b74-9f90-5f87ad9aae69","system_id":"levelo_inurba_marseille","lat":43.30534,"lon":5.367,"is_reserved":false,"is_disabled":false,"rental_uris":{"android":"levelo://app?vid=ae0542a5-b839-4b74-9f90-5f87ad9aae69","ios":"levelo://app?vid=ae0542a5-b839-4b74-9f90-5f87ad9aae69"},"vehicle_type_id":"4","last_reported":1745600955,"current_range_meters":5600,"station_id":"ce4bgrp2rcd13ifvqc9g","pricing_plan_id":"cebpf4jnsgd1na2vs0mg"},{"bike_id":"a871774f-3a80-4239-9948-7251fb909aa4","system_id":"levelo_inurba_marseille","lat":43.294024,"lon":5.386348,"is_reserved":false,"is_disabled":false,"rental_uris":{"android":"levelo://app?vid=a871774f-3a80-4239-9948-7251fb909aa4","ios":"levelo://app?vid=a871774f-3a80-4239-9948-7251fb909aa4"},"vehicle_type_id":"4","last_reported":1745600955,"current_range_meters":5600,"station_id":"ce4bh2h2rcd13ifvqdh0","pricing_plan_id":"cebpf4jnsgd1na2vs0mg"},{"bike_id":"f7fe4a76-aaf0-4370-8b61-811429ca60d7","system_id":"levelo_inurba_marseille","lat":43.28028,"lon":5.36954,"is_reserved":false,"is_disabled":false,"rental_uris":{"android":"levelo://app?vid=f7fe4a76-aaf0-4370-8b61-811429ca60d7","ios":"levelo://app?vid=f7fe4a76-aaf0-4370-8b61-811429ca60d7"},"vehicle_type_id":"4","last_reported":1745600955,"current_range_meters":5600,"station_id":"ce4bha12rcd13ifvqef0","pricing_plan_id":"cebpf4jnsgd1na2vs0mg"},{"bike_id":"93816a58-87b9-4716-aa86-00402b0b20cf","system_id":"levelo_inurba_marseille","lat":43.24161,"lon":5.36413,"is_reserved":false,"is_disabled":false,"rental_uris":{"android":"levelo://app?vid=93816a58-87b9-4716-aa86-00402b0b20cf","ios":"levelo://app?vid=93816a58-87b9-4716-aa86-00402b0b20cf"},"vehicle_type_id":"4","last_reported":1745600955,"current_range_meters":5600,"station_id":"cpo36qri1sfpv3e86is0","pricing_plan_id":"cebpf4jnsgd1na2vs0mg"},{"bike_id":"0d7b90e0-71b4-4516-81ef-f406eaedf7f7","system_id":"levelo_inurba_marseille","lat":43.29801,"lon":5.38123,"is_reserved":false,"is_disabled":false,"rental_uris":{"android":"levelo://app?vid=0d7b90e0-71b4-4516-81ef-f406eaedf7f7","ios":"levelo://app?vid=0d7b90e0-71b4-4516-81ef-f406eaedf7f7"},"vehicle_type_id":"4","last_reported":1745600955,"current_range_meters":6000,"station_id":"ce4bgip2rcd13ifvqbb0","pricing_plan_id":"cebpf4jnsgd1na2vs0mg"},{"bike_id":"43164aca-eb9d-48d9-acb1-086dc019eea3","system_id":"levelo_inurba_marseille","lat":43.28037,"lon":5.36954,"is_reserved":false,"is_disabled":false,"rental_uris":{"android":"levelo://app?vid=43164aca-eb9d-48d9-acb1-086dc019eea3","ios":"levelo://app?vid=43164aca-eb9d-48d9-acb1-086dc019eea3"},"vehicle_type_id":"4","last_reported":1745600955,"current_range_meters":5600,"station_id":"ce4bha12rcd13ifvqef0","pricing_plan_id":"cebpf4jnsgd1na2vs0mg"},{"bike_id":"1d05cc77-7a0e-4f41-bbcd-232f2ff70d7d","system_id":"levelo_inurba_marseille","lat":43.28696,"lon":5.37936,"is_reserved":false,"is_disabled":false,"rental_uris":{"android":"levelo://app?vid=1d05cc77-7a0e-4f41-bbcd-232f2ff70d7d","ios":"levelo://app?vid=1d05cc77-7a0e-4f41-bbcd-232f2ff70d7d"},"vehicle_type_id":"4","last_reported":1745600955,"current_range_meters":6000,"station_id":"ce4bh9p2rcd13ifvqec0","pricing_plan_id":"cebpf4jnsgd1na2vs0mg"},{"bike_id":"40354107-22a0-4db0-972a-dbac56ecfaca","system_id":"levelo_inurba_marseille","lat":43.29967,"lon":5.38492,"is_reserved":false,"is_disabled":false,"rental_uris":{"android":"levelo://app?vid=40354107-22a0-4db0-972a-dbac56ecfaca","ios":"levelo://app?vid=40354107-22a0-4db0-972a-dbac56ecfaca"},"vehicle_type_id":"4","last_reported":1745600955,"current_range_meters":6000,"station_id":"ce4bgj92rcd13ifvqbd0","pricing_plan_id":"cebpf4jnsgd1na2vs0mg"},{"bike_id":"41528498-d76f-4998-934c-429ad804d4cc","system_id":"levelo_inurba_marseille","lat":43.29027,"lon":5.38139,"is_reserved":false,"is_disabled":true,"rental_uris":{"android":"levelo://app?vid=41528498-d76f-4998-934c-429ad804d4cc","ios":"levelo://app?vid=41528498-d76f-4998-934c-429ad804d4cc"},"vehicle_type_id":"4","last_reported":1745600955,"current_range_meters":6400,"station_id":"ce4bh4p2rcd13ifvqe1g","pricing_plan_id":"cebpf4jnsgd1na2vs0mg"},{"bike_id":"46374c49-3adc-4c5a-8966-e00f056c0d57","system_id":"levelo_inurba_marseille","lat":43.27846,"lon":5.35442,"is_reserved":false,"is_disabled":false,"rental_uris":{"android":"levelo://app?vid=46374c49-3adc-4c5a-8966-e00f056c0d57","ios":"levelo://app?vid=46374c49-3adc-4c5a-8966-e00f056c0d57"},"vehicle_type_id":"4","last_reported":1745600955,"current_range_meters":6400,"station_id":"","pricing_plan_id":"cebpf4jnsgd1na2vs0mg"},{"bike_id":"0ef090c8-b30d-42aa-a986-f1a5509bf3d5","system_id":"levelo_inurba_marseille","lat":43.25994,"lon":5.37567,"is_reserved":false,"is_disabled":false,"rental_uris":{"android":"levelo://app?vid=0ef090c8-b30d-42aa-a986-f1a5509bf3d5","ios":"levelo://app?vid=0ef090c8-b30d-42aa-a986-f1a5509bf3d5"},"vehicle_type_id":"4","last_reported":1745600955,"current_range_meters":6400,"station_id":"ce4bhgh2rcd13ifvqfa0","pricing_plan_id":"cebpf4jnsgd1na2vs0mg"},{"bike_id":"76aa1e3b-0fcd-4731-b078-1f38f213cdb8","system_id":"levelo_inurba_marseille","lat":43.33022,"lon":5.39037,"is_reserved":false,"is_disabled":false,"rental_uris":{"android":"levelo://app?vid=76aa1e3b-0fcd-4731-b078-1f38f213cdb8","ios":"levelo://app?vid=76aa1e3b-0fcd-4731-b078-1f38f213cdb8"},"vehicle_type_id":"4","last_reported":1745600955,"current_range_meters":6400,"station_id":"ce4bhr92rcd13ifvqhrg","pricing_plan_id":"cebpf4jnsgd1na2vs0mg"},{"bike_id":"21bcd074-111c-4669-90cd-347179443db4","system_id":"levelo_inurba_marseille","lat":43.30789,"lon":5.37641,"is_reserved":false,"is_disabled":false,"rental_uris":{"android":"levelo://app?vid=21bcd074-111c-4669-90cd-347179443db4","ios":"levelo://app?vid=21bcd074-111c-4669-90cd-347179443db4"},"vehicle_type_id":"4","last_reported":1745600955,"current_range_meters":6400,"station_id":"ce4bgv92rcd13ifvqcq0","pricing_plan_id":"cebpf4jnsgd1na2vs0mg"},{"bike_id":"235e6c4c-1700-48f4-838b-913c87b67a52","system_id":"levelo_inurba_marseille","lat":43.292664,"lon":5.408381,"is_reserved":false,"is_disabled":false,"rental_uris":{"android":"levelo://app?vid=235e6c4c-1700-48f4-838b-913c87b67a52","ios":"levelo://app?vid=235e6c4c-1700-48f4-838b-913c87b67a52"},"vehicle_type_id":"4","last_reported":1745600955,"current_range_meters":6400,"station_id":"ce4bh192rcd13ifvqdc0","pricing_plan_id":"cebpf4jnsgd1na2vs0mg"},{"bike_id":"f587b1ad-8767-42fd-bb98-bdf1bb330f9a","system_id":"levelo_inurba_marseille","lat":43.32375,"lon":5.42103,"is_reserved":false,"is_disabled":false,"rental_uris":{"android":"levelo://app?vid=f587b1ad-8767-42fd-bb98-bdf1bb330f9a","ios":"levelo://app?vid=f587b1ad-8767-42fd-bb98-bdf1bb330f9a"},"vehicle_type_id":"4","last_reported":1745600955,"current_range_meters":6400,"station_id":"","pricing_plan_id":"cebpf4jnsgd1na2vs0mg"},{"bike_id":"74ac4502-28cf-4461-aee1-24b54a3d334c","system_id":"levelo_inurba_marseille","lat":43.31528,"lon":5.38038,"is_reserved":false,"is_disabled":false,"rental_uris":{"android":"levelo://app?vid=74ac4502-28cf-4461-aee1-24b54a3d334c","ios":"levelo://app?vid=74ac4502-28cf-4461-aee1-24b54a3d334c"},"vehicle_type_id":"4","last_reported":1745600955,"current_range_meters":6400,"station_id":"ce4bhsp2rcd13ifvqi50","pricing_plan_id":"cebpf4jnsgd1na2vs0mg"},{"bike_id":"98182166-4fcb-4dc0-9c52-de1b349f298b","system_id":"levelo_inurba_marseille","lat":43.28719,"lon":5.39995,"is_reserved":false,"is_disabled":true,"rental_uris":{"android":"levelo://app?vid=98182166-4fcb-4dc0-9c52-de1b349f298b","ios":"levelo://app?vid=98182166-4fcb-4dc0-9c52-de1b349f298b"},"vehicle_type_id":"4","last_reported":1745600955,"current_range_meters":6400,"station_id":"ce4bho92rcd13ifvqh3g","pricing_plan_id":"cebpf4jnsgd1na2vs0mg"},{"bike_id":"05ded502-7fcd-42aa-bb61-2543fe0f3c63","system_id":"levelo_inurba_marseille","lat":43.29909,"lon":5.38135,"is_reserved":false,"is_disabled":false,"rental_uris":{"android":"levelo://app?vid=05ded502-7fcd-42aa-bb61-2543fe0f3c63","ios":"levelo://app?vid=05ded502-7fcd-42aa-bb61-2543fe0f3c63"},"vehicle_type_id":"4","last_reported":1745600955,"current_range_meters":6800,"station_id":"ce4bgj12rcd13ifvqbc0","pricing_plan_id":"cebpf4jnsgd1na2vs0mg"},{"bike_id":"566af3c7-55e6-47d8-98d6-26dbaee4cf9e","system_id":"levelo_inurba_marseille","lat":43.30224,"lon":5.37144,"is_reserved":false,"is_disabled":false,"rental_uris":{"android":"levelo://app?vid=566af3c7-55e6-47d8-98d6-26dbaee4cf9e","ios":"levelo://app?vid=566af3c7-55e6-47d8-98d6-26dbaee4cf9e"},"vehicle_type_id":"4","last_reported":1745600955,"current_range_meters":6800,"station_id":"","pricing_plan_id":"cebpf4jnsgd1na2vs0mg"},{"bike_id":"a95458b6-4661-440e-975d-11a8b3298e4f","system_id":"levelo_inurba_marseille","lat":43.26803,"lon":5.40264,"is_reserved":false,"is_disabled":false,"rental_uris":{"android":"levelo://app?vid=a95458b6-4661-440e-975d-11a8b3298e4f","ios":"levelo://app?vid=a95458b6-4661-440e-975d-11a8b3298e4f"},"vehicle_type_id":"4","last_reported":1745600955,"current_range_meters":6800,"station_id":"ce501612rcd8frsf0b60","pricing_plan_id":"cebpf4jnsgd1na2vs0mg"},{"bike_id":"1f26b023-b3f4-445b-8ab7-44a37e964bf5","system_id":"levelo_inurba_marseille","lat":43.29032,"lon":5.37566,"is_reserved":false,"is_disabled":false,"rental_uris":{"android":"levelo://app?vid=1f26b023-b3f4-445b-8ab7-44a37e964bf5","ios":"levelo://app?vid=1f26b023-b3f4-445b-8ab7-44a37e964bf5"},"vehicle_type_id":"4","last_reported":1745600955,"current_range_meters":6800,"station_id":"ce4bh692rcd13ifvqe90","pricing_plan_id":"cebpf4jnsgd1na2vs0mg"},{"bike_id":"9430818e-b63c-4790-a8e3-2641bf6feaef","system_id":"levelo_inurba_marseille","lat":43.30906,"lon":5.36833,"is_reserved":false,"is_disabled":false,"rental_uris":{"android":"levelo://app?vid=9430818e-b63c-4790-a8e3-2641bf6feaef","ios":"levelo://app?vid=9430818e-b63c-4790-a8e3-2641bf6feaef"},"vehicle_type_id":"4","last_reported":1745600955,"current_range_meters":6800,"station_id":"ce4bgn92rcd13ifvqbvg","pricing_plan_id":"cebpf4jnsgd1na2vs0mg"},{"bike_id":"5f62e0ae-f66f-42cd-88d7-6738460b8220","system_id":"levelo_inurba_marseille","lat":43.262,"lon":5.37935,"is_reserved":false,"is_disabled":false,"rental_uris":{"android":"levelo://app?vid=5f62e0ae-f66f-42cd-88d7-6738460b8220","ios":"levelo://app?vid=5f62e0ae-f66f-42cd-88d7-6738460b8220"},"vehicle_type_id":"4","last_reported":1745600955,"current_range_meters":7200,"station_id":"ce4bhjp2rcd13ifvqg90","pricing_plan_id":"cebpf4jnsgd1na2vs0mg"},{"bike_id":"b579a2c4-c860-4afe-a16d-043eac478d22","system_id":"levelo_inurba_marseille","lat":43.29961,"lon":5.4132,"is_reserved":false,"is_disabled":false,"rental_uris":{"android":"levelo://app?vid=b579a2c4-c860-4afe-a16d-043eac478d22","ios":"levelo://app?vid=b579a2c4-c860-4afe-a16d-043eac478d22"},"vehicle_type_id":"4","last_reported":1745600955,"current_range_meters":7200,"station_id":"ce4bhp12rcd13ifvqh9g","pricing_plan_id":"cebpf4jnsgd1na2vs0mg"},{"bike_id":"f7a7396d-d15d-4226-8086-2c356d9edd63","system_id":"levelo_inurba_marseille","lat":43.28691,"lon":5.37381,"is_reserved":false,"is_disabled":false,"rental_uris":{"android":"levelo://app?vid=f7a7396d-d15d-4226-8086-2c356d9edd63","ios":"levelo://app?vid=f7a7396d-d15d-4226-8086-2c356d9edd63"},"vehicle_type_id":"4","last_reported":1745600955,"current_range_meters":7200,"station_id":"ce4bh3p2rcd13ifvqdq0","pricing_plan_id":"cebpf4jnsgd1na2vs0mg"},{"bike_id":"2eac7331-3bc9-4cfc-995f-71c08293c70b","system_id":"levelo_inurba_marseille","lat":43.33024,"lon":5.39035,"is_reserved":false,"is_disabled":false,"rental_uris":{"android":"levelo://app?vid=2eac7331-3bc9-4cfc-995f-71c08293c70b","ios":"levelo://app?vid=2eac7331-3bc9-4cfc-995f-71c08293c70b"},"vehicle_type_id":"4","last_reported":1745600955,"current_range_meters":7200,"station_id":"ce4bhr92rcd13ifvqhrg","pricing_plan_id":"cebpf4jnsgd1na2vs0mg"},{"bike_id":"fa08c917-15f0-46bf-9b4b-3ce0e752e62f","system_id":"levelo_inurba_marseille","lat":43.33429,"lon":5.40066,"is_reserved":false,"is_disabled":false,"rental_uris":{"android":"levelo://app?vid=fa08c917-15f0-46bf-9b4b-3ce0e752e62f","ios":"levelo://app?vid=fa08c917-15f0-46bf-9b4b-3ce0e752e62f"},"vehicle_type_id":"4","last_reported":1745600955,"current_range_meters":7200,"station_id":"","pricing_plan_id":"cebpf4jnsgd1na2vs0mg"},{"bike_id":"400b6174-af7c-481d-aa52-fe38c2c590dc","system_id":"levelo_inurba_marseille","lat":43.26678,"lon":5.38266,"is_reserved":false,"is_disabled":false,"rental_uris":{"android":"levelo://app?vid=400b6174-af7c-481d-aa52-fe38c2c590dc","ios":"levelo://app?vid=400b6174-af7c-481d-aa52-fe38c2c590dc"},"vehicle_type_id":"4","last_reported":1745600955,"current_range_meters":7200,"station_id":"ce4bhg92rcd13ifvqf90","pricing_plan_id":"cebpf4jnsgd1na2vs0mg"},{"bike_id":"7be18f71-c1b2-47a2-b0ff-98e58245f38e","system_id":"levelo_inurba_marseille","lat":43.28658,"lon":5.36351,"is_reserved":false,"is_disabled":false,"rental_uris":{"android":"levelo://app?vid=7be18f71-c1b2-47a2-b0ff-98e58245f38e","ios":"levelo://app?vid=7be18f71-c1b2-47a2-b0ff-98e58245f38e"},"vehicle_type_id":"4","last_reported":1745600955,"current_range_meters":6800,"station_id":"ce4bhah2rcd13ifvqej0","pricing_plan_id":"cebpf4jnsgd1na2vs0mg"},{"bike_id":"52cb41a7-5096-4f42-a09a-abce4785d5e2","system_id":"levelo_inurba_marseille","lat":43.27061,"lon":5.42278,"is_reserved":false,"is_disabled":true,"rental_uris":{"android":"levelo://app?vid=52cb41a7-5096-4f42-a09a-abce4785d5e2","ios":"levelo://app?vid=52cb41a7-5096-4f42-a09a-abce4785d5e2"},"vehicle_type_id":"4","last_reported":1745600955,"current_range_meters":7200,"station_id":"ce4bhk92rcd13ifvqgb0","pricing_plan_id":"cebpf4jnsgd1na2vs0mg"},{"bike_id":"4bf0cade-afa0-4731-b40e-ef3f8f4a4fe5","system_id":"levelo_inurba_marseille","lat":43.300987,"lon":5.39094,"is_reserved":false,"is_disabled":true,"rental_uris":{"android":"levelo://app?vid=4bf0cade-afa0-4731-b40e-ef3f8f4a4fe5","ios":"levelo://app?vid=4bf0cade-afa0-4731-b40e-ef3f8f4a4fe5"},"vehicle_type_id":"4","last_reported":1745600955,"current_range_meters":8000,"station_id":"ce4bh192rcd13ifvqdb0","pricing_plan_id":"cebpf4jnsgd1na2vs0mg"},{"bike_id":"7d8eaac2-19ec-428d-b303-d61f64dbdfd2","system_id":"levelo_inurba_marseille","lat":43.28454,"lon":5.35892,"is_reserved":false,"is_disabled":false,"rental_uris":{"android":"levelo://app?vid=7d8eaac2-19ec-428d-b303-d61f64dbdfd2","ios":"levelo://app?vid=7d8eaac2-19ec-428d-b303-d61f64dbdfd2"},"vehicle_type_id":"4","last_reported":1745600955,"current_range_meters":8000,"station_id":"ce4bhah2rcd13ifvqei0","pricing_plan_id":"cebpf4jnsgd1na2vs0mg"},{"bike_id":"2775e374-0787-4432-98a6-68694e0b114d","system_id":"levelo_inurba_marseille","lat":43.24542,"lon":5.3952,"is_reserved":false,"is_disabled":false,"rental_uris":{"android":"levelo://app?vid=2775e374-0787-4432-98a6-68694e0b114d","ios":"levelo://app?vid=2775e374-0787-4432-98a6-68694e0b114d"},"vehicle_type_id":"4","last_reported":1745600955,"current_range_meters":8000,"station_id":"ce4bhlp2rcd13ifvqgjg","pricing_plan_id":"cebpf4jnsgd1na2vs0mg"},{"bike_id":"19a26c4a-e757-4960-b9f6-8258c3b1f70b","system_id":"levelo_inurba_marseille","lat":43.29212,"lon":5.38282,"is_reserved":false,"is_disabled":false,"rental_uris":{"android":"levelo://app?vid=19a26c4a-e757-4960-b9f6-8258c3b1f70b","ios":"levelo://app?vid=19a26c4a-e757-4960-b9f6-8258c3b1f70b"},"vehicle_type_id":"4","last_reported":1745600955,"current_range_meters":8000,"station_id":"ce4bh692rcd13ifvqea0","pricing_plan_id":"cebpf4jnsgd1na2vs0mg"},{"bike_id":"ad8e5f10-8633-4ee1-a87f-363a1a3a274a","system_id":"levelo_inurba_marseille","lat":43.24167,"lon":5.36403,"is_reserved":false,"is_disabled":false,"rental_uris":{"android":"levelo://app?vid=ad8e5f10-8633-4ee1-a87f-363a1a3a274a","ios":"levelo://app?vid=ad8e5f10-8633-4ee1-a87f-363a1a3a274a"},"vehicle_type_id":"4","last_reported":1745600955,"current_range_meters":8000,"station_id":"cpo36qri1sfpv3e86is0","pricing_plan_id":"cebpf4jnsgd1na2vs0mg"},{"bike_id":"3767ba54-0ee2-464a-8805-d28bad95405b","system_id":"levelo_inurba_marseille","lat":43.2598,"lon":5.37575,"is_reserved":false,"is_disabled":false,"rental_uris":{"android":"levelo://app?vid=3767ba54-0ee2-464a-8805-d28bad95405b","ios":"levelo://app?vid=3767ba54-0ee2-464a-8805-d28bad95405b"},"vehicle_type_id":"4","last_reported":1745600955,"current_range_meters":8000,"station_id":"","pricing_plan_id":"cebpf4jnsgd1na2vs0mg"},{"bike_id":"319d50d6-5fac-4450-a710-bfdbd65c6fa9","system_id":"levelo_inurba_marseille","lat":43.29518,"lon":5.39046,"is_reserved":false,"is_disabled":false,"rental_uris":{"android":"levelo://app?vid=319d50d6-5fac-4450-a710-bfdbd65c6fa9","ios":"levelo://app?vid=319d50d6-5fac-4450-a710-bfdbd65c6fa9"},"vehicle_type_id":"4","last_reported":1745600955,"current_range_meters":8000,"station_id":"ce4bh3p2rcd13ifvqdp0","pricing_plan_id":"cebpf4jnsgd1na2vs0mg"},{"bike_id":"c1ccd199-3bfe-4293-a4cb-6829c97c125f","system_id":"levelo_inurba_marseille","lat":43.32415,"lon":5.39097,"is_reserved":false,"is_disabled":false,"rental_uris":{"android":"levelo://app?vid=c1ccd199-3bfe-4293-a4cb-6829c97c125f","ios":"levelo://app?vid=c1ccd199-3bfe-4293-a4cb-6829c97c125f"},"vehicle_type_id":"4","last_reported":1745600955,"current_range_meters":8400,"station_id":"","pricing_plan_id":"cebpf4jnsgd1na2vs0mg"},{"bike_id":"ab49b0ae-90ee-4214-bbd8-e0867a6763e8","system_id":"levelo_inurba_marseille","lat":43.31255,"lon":5.37167,"is_reserved":false,"is_disabled":false,"rental_uris":{"android":"levelo://app?vid=ab49b0ae-90ee-4214-bbd8-e0867a6763e8","ios":"levelo://app?vid=ab49b0ae-90ee-4214-bbd8-e0867a6763e8"},"vehicle_type_id":"4","last_reported":1745600955,"current_range_meters":8400,"station_id":"","pricing_plan_id":"cebpf4jnsgd1na2vs0mg"},{"bike_id":"78293dca-20d0-4eca-87a1-2005046f22a9","system_id":"levelo_inurba_marseille","lat":43.24167,"lon":5.36392,"is_reserved":false,"is_disabled":false,"rental_uris":{"android":"levelo://app?vid=78293dca-20d0-4eca-87a1-2005046f22a9","ios":"levelo://app?vid=78293dca-20d0-4eca-87a1-2005046f22a9"},"vehicle_type_id":"4","last_reported":1745600955,"current_range_meters":8400,"station_id":"cpo36qri1sfpv3e86is0","pricing_plan_id":"cebpf4jnsgd1na2vs0mg"},{"bike_id":"9a63435f-70a1-480e-900b-e0cea3449d6f","system_id":"levelo_inurba_marseille","lat":43.29305,"lon":5.37174,"is_reserved":false,"is_disabled":false,"rental_uris":{"android":"levelo://app?vid=9a63435f-70a1-480e-900b-e0cea3449d6f","ios":"levelo://app?vid=9a63435f-70a1-480e-900b-e0cea3449d6f"},"vehicle_type_id":"4","last_reported":1745600955,"current_range_meters":8000,"station_id":"ce4bgh92rcd13ifvqb40","pricing_plan_id":"cebpf4jnsgd1na2vs0mg"},{"bike_id":"73648265-77b8-4464-80e0-c5a608db46fd","system_id":"levelo_inurba_marseille","lat":43.32065,"lon":5.4153,"is_reserved":false,"is_disabled":false,"rental_uris":{"android":"levelo://app?vid=73648265-77b8-4464-80e0-c5a608db46fd","ios":"levelo://app?vid=73648265-77b8-4464-80e0-c5a608db46fd"},"vehicle_type_id":"4","last_reported":1745600955,"current_range_meters":8400,"station_id":"ce4bhq92rcd13ifvqhkg","pricing_plan_id":"cebpf4jnsgd1na2vs0mg"},{"bike_id":"2ce072e6-f342-4ac2-8110-eb6c957cacda","system_id":"levelo_inurba_marseille","lat":43.275452,"lon":5.384524,"is_reserved":false,"is_disabled":false,"rental_uris":{"android":"levelo://app?vid=2ce072e6-f342-4ac2-8110-eb6c957cacda","ios":"levelo://app?vid=2ce072e6-f342-4ac2-8110-eb6c957cacda"},"vehicle_type_id":"4","last_reported":1745600955,"current_range_meters":8400,"station_id":"","pricing_plan_id":"cebpf4jnsgd1na2vs0mg"},{"bike_id":"328003a3-a0ed-4ea9-bc4a-54317062df71","system_id":"levelo_inurba_marseille","lat":43.28701,"lon":5.39915,"is_reserved":false,"is_disabled":false,"rental_uris":{"android":"levelo://app?vid=328003a3-a0ed-4ea9-bc4a-54317062df71","ios":"levelo://app?vid=328003a3-a0ed-4ea9-bc4a-54317062df71"},"vehicle_type_id":"4","last_reported":1745600955,"current_range_meters":8400,"station_id":"ce4bho92rcd13ifvqh3g","pricing_plan_id":"cebpf4jnsgd1na2vs0mg"},{"bike_id":"1c1817a7-669b-43dc-8a06-9e52acb98b5f","system_id":"levelo_inurba_marseille","lat":43.29531,"lon":5.39397,"is_reserved":false,"is_disabled":false,"rental_uris":{"android":"levelo://app?vid=1c1817a7-669b-43dc-8a06-9e52acb98b5f","ios":"levelo://app?vid=1c1817a7-669b-43dc-8a06-9e52acb98b5f"},"vehicle_type_id":"4","last_reported":1745600955,"current_range_meters":8400,"station_id":"ce4bh292rcd13ifvqdf0","pricing_plan_id":"cebpf4jnsgd1na2vs0mg"},{"bike_id":"1746265e-27ad-4913-8a06-b6dc5372d844","system_id":"levelo_inurba_marseille","lat":43.2602,"lon":5.37503,"is_reserved":false,"is_disabled":false,"rental_uris":{"android":"levelo://app?vid=1746265e-27ad-4913-8a06-b6dc5372d844","ios":"levelo://app?vid=1746265e-27ad-4913-8a06-b6dc5372d844"},"vehicle_type_id":"4","last_reported":1745600955,"current_range_meters":8800,"station_id":"ce4bhgh2rcd13ifvqfa0","pricing_plan_id":"cebpf4jnsgd1na2vs0mg"},{"bike_id":"cfa34a75-efec-4eb8-a020-77feca0ad5e2","system_id":"levelo_inurba_marseille","lat":43.21228,"lon":5.3507,"is_reserved":false,"is_disabled":false,"rental_uris":{"android":"levelo://app?vid=cfa34a75-efec-4eb8-a020-77feca0ad5e2","ios":"levelo://app?vid=cfa34a75-efec-4eb8-a020-77feca0ad5e2"},"vehicle_type_id":"4","last_reported":1745600955,"current_range_meters":8800,"station_id":"","pricing_plan_id":"cebpf4jnsgd1na2vs0mg"},{"bike_id":"1d6d102f-89dc-4052-9661-a1eaff1c6b0a","system_id":"levelo_inurba_marseille","lat":43.24831,"lon":5.37458,"is_reserved":false,"is_disabled":false,"rental_uris":{"android":"levelo://app?vid=1d6d102f-89dc-4052-9661-a1eaff1c6b0a","ios":"levelo://app?vid=1d6d102f-89dc-4052-9661-a1eaff1c6b0a"},"vehicle_type_id":"4","last_reported":1745600955,"current_range_meters":8800,"station_id":"ce4bhgh2rcd13ifvqfb0","pricing_plan_id":"cebpf4jnsgd1na2vs0mg"},{"bike_id":"f4c797e7-53da-46a9-aea9-d97bfb06342b","system_id":"levelo_inurba_marseille","lat":43.30952,"lon":5.39037,"is_reserved":false,"is_disabled":false,"rental_uris":{"android":"levelo://app?vid=f4c797e7-53da-46a9-aea9-d97bfb06342b","ios":"levelo://app?vid=f4c797e7-53da-46a9-aea9-d97bfb06342b"},"vehicle_type_id":"4","last_reported":1745600955,"current_range_meters":8800,"station_id":"ce4bgup2rcd13ifvqco0","pricing_plan_id":"cebpf4jnsgd1na2vs0mg"},{"bike_id":"db6c024c-5f0c-4970-8971-a36fddd54a83","system_id":"levelo_inurba_marseille","lat":43.24393,"lon":5.37045,"is_reserved":false,"is_disabled":false,"rental_uris":{"android":"levelo://app?vid=db6c024c-5f0c-4970-8971-a36fddd54a83","ios":"levelo://app?vid=db6c024c-5f0c-4970-8971-a36fddd54a83"},"vehicle_type_id":"4","last_reported":1745600955,"current_range_meters":8800,"station_id":"ce4bhhh2rcd13ifvqfk0","pricing_plan_id":"cebpf4jnsgd1na2vs0mg"},{"bike_id":"fd8c1e29-bcf5-467f-9017-3a1a6039d214","system_id":"levelo_inurba_marseille","lat":43.24389,"lon":5.37049,"is_reserved":false,"is_disabled":false,"rental_uris":{"android":"levelo://app?vid=fd8c1e29-bcf5-467f-9017-3a1a6039d214","ios":"levelo://app?vid=fd8c1e29-bcf5-467f-9017-3a1a6039d214"},"vehicle_type_id":"4","last_reported":1745600955,"current_range_meters":9200,"station_id":"ce4bhhh2rcd13ifvqfk0","pricing_plan_id":"cebpf4jnsgd1na2vs0mg"},{"bike_id":"4c79909e-3dc1-4e69-b98e-60c41d6d3d0c","system_id":"levelo_inurba_marseille","lat":43.23074,"lon":5.3553,"is_reserved":false,"is_disabled":false,"rental_uris":{"android":"levelo://app?vid=4c79909e-3dc1-4e69-b98e-60c41d6d3d0c","ios":"levelo://app?vid=4c79909e-3dc1-4e69-b98e-60c41d6d3d0c"},"vehicle_type_id":"4","last_reported":1745600955,"current_range_meters":9200,"station_id":"cpo3342slgdg3j2ifvpg","pricing_plan_id":"cebpf4jnsgd1na2vs0mg"},{"bike_id":"b4b8b15e-686f-497c-afea-c9240fe04802","system_id":"levelo_inurba_marseille","lat":43.28715,"lon":5.36093,"is_reserved":false,"is_disabled":false,"rental_uris":{"android":"levelo://app?vid=b4b8b15e-686f-497c-afea-c9240fe04802","ios":"levelo://app?vid=b4b8b15e-686f-497c-afea-c9240fe04802"},"vehicle_type_id":"4","last_reported":1745600955,"current_range_meters":9200,"station_id":"cki0cbj6b192h4jlfktg","pricing_plan_id":"cebpf4jnsgd1na2vs0mg"},{"bike_id":"b3b0884f-0c93-473e-8bbc-8f75d4cb72a7","system_id":"levelo_inurba_marseille","lat":43.29284,"lon":5.38456,"is_reserved":false,"is_disabled":false,"rental_uris":{"android":"levelo://app?vid=b3b0884f-0c93-473e-8bbc-8f75d4cb72a7","ios":"levelo://app?vid=b3b0884f-0c93-473e-8bbc-8f75d4cb72a7"},"vehicle_type_id":"4","last_reported":1745600955,"current_range_meters":9200,"station_id":"ce4bh692rcd13ifvqea0","pricing_plan_id":"cebpf4jnsgd1na2vs0mg"},{"bike_id":"f53ca2be-5e14-4232-a442-dc2e98de0bb7","system_id":"levelo_inurba_marseille","lat":43.27335,"lon":5.39127,"is_reserved":false,"is_disabled":true,"rental_uris":{"android":"levelo://app?vid=f53ca2be-5e14-4232-a442-dc2e98de0bb7","ios":"levelo://app?vid=f53ca2be-5e14-4232-a442-dc2e98de0bb7"},"vehicle_type_id":"4","last_reported":1745600955,"current_range_meters":9200,"station_id":"","pricing_plan_id":"cebpf4jnsgd1na2vs0mg"},{"bike_id":"05999366-7524-40e9-a357-1cebab3a76a8","system_id":"levelo_inurba_marseille","lat":43.25086,"lon":5.39513,"is_reserved":false,"is_disabled":false,"rental_uris":{"android":"levelo://app?vid=05999366-7524-40e9-a357-1cebab3a76a8","ios":"levelo://app?vid=05999366-7524-40e9-a357-1cebab3a76a8"},"vehicle_type_id":"4","last_reported":1745600955,"current_range_meters":9200,"station_id":"ce4bhm12rcd13ifvqgkg","pricing_plan_id":"cebpf4jnsgd1na2vs0mg"},{"bike_id":"b26ed8c6-fb03-4fcd-9177-c61b960065ac","system_id":"levelo_inurba_marseille","lat":43.285649,"lon":5.394917,"is_reserved":false,"is_disabled":false,"rental_uris":{"android":"levelo://app?vid=b26ed8c6-fb03-4fcd-9177-c61b960065ac","ios":"levelo://app?vid=b26ed8c6-fb03-4fcd-9177-c61b960065ac"},"vehicle_type_id":"4","last_reported":1745600955,"current_range_meters":9600,"station_id":"ce4bh292rcd13ifvqdg0","pricing_plan_id":"cebpf4jnsgd1na2vs0mg"},{"bike_id":"bdeed0e0-24fc-4968-9c46-5e701d0d0664","system_id":"levelo_inurba_marseille","lat":43.298664,"lon":5.397204,"is_reserved":false,"is_disabled":false,"rental_uris":{"android":"levelo://app?vid=bdeed0e0-24fc-4968-9c46-5e701d0d0664","ios":"levelo://app?vid=bdeed0e0-24fc-4968-9c46-5e701d0d0664"},"vehicle_type_id":"4","last_reported":1745600955,"current_range_meters":9600,"station_id":"ce4bh0h2rcd13ifvqd50","pricing_plan_id":"cebpf4jnsgd1na2vs0mg"},{"bike_id":"863e8ff7-7d81-4292-9eea-c0ebb602429a","system_id":"levelo_inurba_marseille","lat":43.31085,"lon":5.40044,"is_reserved":false,"is_disabled":false,"rental_uris":{"android":"levelo://app?vid=863e8ff7-7d81-4292-9eea-c0ebb602429a","ios":"levelo://app?vid=863e8ff7-7d81-4292-9eea-c0ebb602429a"},"vehicle_type_id":"4","last_reported":1745600955,"current_range_meters":9600,"station_id":"","pricing_plan_id":"cebpf4jnsgd1na2vs0mg"},{"bike_id":"f6d9f58d-7021-4b9b-92a5-666421f83c07","system_id":"levelo_inurba_marseille","lat":43.295697,"lon":5.39964,"is_reserved":false,"is_disabled":false,"rental_uris":{"android":"levelo://app?vid=f6d9f58d-7021-4b9b-92a5-666421f83c07","ios":"levelo://app?vid=f6d9f58d-7021-4b9b-92a5-666421f83c07"},"vehicle_type_id":"4","last_reported":1745600955,"current_range_meters":9600,"station_id":"ce4bh312rcd13ifvqdj0","pricing_plan_id":"cebpf4jnsgd1na2vs0mg"},{"bike_id":"e2a56a74-3990-4ffe-b1ed-c889fd3d9eda","system_id":"levelo_inurba_marseille","lat":43.316803,"lon":5.404699,"is_reserved":false,"is_disabled":false,"rental_uris":{"android":"levelo://app?vid=e2a56a74-3990-4ffe-b1ed-c889fd3d9eda","ios":"levelo://app?vid=e2a56a74-3990-4ffe-b1ed-c889fd3d9eda"},"vehicle_type_id":"4","last_reported":1745600955,"current_range_meters":10000,"station_id":"ce4bh012rcd13ifvqd00","pricing_plan_id":"cebpf4jnsgd1na2vs0mg"},{"bike_id":"5f5e08bf-0bf7-41df-acb8-2572e86a9d25","system_id":"levelo_inurba_marseille","lat":43.23201,"lon":5.35554,"is_reserved":false,"is_disabled":false,"rental_uris":{"android":"levelo://app?vid=5f5e08bf-0bf7-41df-acb8-2572e86a9d25","ios":"levelo://app?vid=5f5e08bf-0bf7-41df-acb8-2572e86a9d25"},"vehicle_type_id":"4","last_reported":1745600955,"current_range_meters":10000,"station_id":"ce4bhu92rcd13ifvqi70","pricing_plan_id":"cebpf4jnsgd1na2vs0mg"},{"bike_id":"98ef5170-6144-4c1e-9712-ef0b1a61ba79","system_id":"levelo_inurba_marseille","lat":43.26221,"lon":5.40443,"is_reserved":false,"is_disabled":false,"rental_uris":{"android":"levelo://app?vid=98ef5170-6144-4c1e-9712-ef0b1a61ba79","ios":"levelo://app?vid=98ef5170-6144-4c1e-9712-ef0b1a61ba79"},"vehicle_type_id":"4","last_reported":1745600955,"current_range_meters":10800,"station_id":"ce4bhmh2rcd13ifvqgmg","pricing_plan_id":"cebpf4jnsgd1na2vs0mg"},{"bike_id":"78ccf9cf-3886-40f2-9dbf-f0a3a0dfc102","system_id":"levelo_inurba_marseille","lat":43.29408,"lon":5.38618,"is_reserved":false,"is_disabled":true,"rental_uris":{"android":"levelo://app?vid=78ccf9cf-3886-40f2-9dbf-f0a3a0dfc102","ios":"levelo://app?vid=78ccf9cf-3886-40f2-9dbf-f0a3a0dfc102"},"vehicle_type_id":"4","last_reported":1745600955,"current_range_meters":10800,"station_id":"ce4bh2h2rcd13ifvqdh0","pricing_plan_id":"cebpf4jnsgd1na2vs0mg"},{"bike_id":"df121ff1-38c0-4863-a70c-713bf9696da8","system_id":"levelo_inurba_marseille","lat":43.29537,"lon":5.38541,"is_reserved":false,"is_disabled":false,"rental_uris":{"android":"levelo://app?vid=df121ff1-38c0-4863-a70c-713bf9696da8","ios":"levelo://app?vid=df121ff1-38c0-4863-a70c-713bf9696da8"},"vehicle_type_id":"4","last_reported":1745600955,"current_range_meters":10800,"station_id":"ce4bgih2rcd13ifvqba0","pricing_plan_id":"cebpf4jnsgd1na2vs0mg"},{"bike_id":"ffce1071-921f-431a-8edb-e60c46a1da21","system_id":"levelo_inurba_marseille","lat":43.29563,"lon":5.4229,"is_reserved":false,"is_disabled":false,"rental_uris":{"android":"levelo://app?vid=ffce1071-921f-431a-8edb-e60c46a1da21","ios":"levelo://app?vid=ffce1071-921f-431a-8edb-e60c46a1da21"},"vehicle_type_id":"4","last_reported":1745600955,"current_range_meters":10000,"station_id":"ce4bhph2rcd13ifvqhdg","pricing_plan_id":"cebpf4jnsgd1na2vs0mg"},{"bike_id":"05064c24-51c8-47e7-9af4-109d736a69a0","system_id":"levelo_inurba_marseille","lat":43.26226,"lon":5.40452,"is_reserved":false,"is_disabled":false,"rental_uris":{"android":"levelo://app?vid=05064c24-51c8-47e7-9af4-109d736a69a0","ios":"levelo://app?vid=05064c24-51c8-47e7-9af4-109d736a69a0"},"vehicle_type_id":"4","last_reported":1745600955,"current_range_meters":10800,"station_id":"ce4bhmh2rcd13ifvqgmg","pricing_plan_id":"cebpf4jnsgd1na2vs0mg"},{"bike_id":"7f9c0433-f054-454b-ac2d-cb88d78c1d19","system_id":"levelo_inurba_marseille","lat":43.24184,"lon":5.39735,"is_reserved":false,"is_disabled":false,"rental_uris":{"android":"levelo://app?vid=7f9c0433-f054-454b-ac2d-cb88d78c1d19","ios":"levelo://app?vid=7f9c0433-f054-454b-ac2d-cb88d78c1d19"},"vehicle_type_id":"4","last_reported":1745600955,"current_range_meters":10800,"station_id":"ce4bhn12rcd13ifvqgpg","pricing_plan_id":"cebpf4jnsgd1na2vs0mg"},{"bike_id":"15b91c61-812e-42f8-92d9-57e3e6f6dec0","system_id":"levelo_inurba_marseille","lat":43.289095,"lon":5.35945,"is_reserved":false,"is_disabled":false,"rental_uris":{"android":"levelo://app?vid=15b91c61-812e-42f8-92d9-57e3e6f6dec0","ios":"levelo://app?vid=15b91c61-812e-42f8-92d9-57e3e6f6dec0"},"vehicle_type_id":"4","last_reported":1745600955,"current_range_meters":10800,"station_id":"ce4bhb12rcd13ifvqem0","pricing_plan_id":"cebpf4jnsgd1na2vs0mg"},{"bike_id":"b661c7f8-7a1d-465d-a79f-5efab8239e57","system_id":"levelo_inurba_marseille","lat":43.28566,"lon":5.39497,"is_reserved":false,"is_disabled":false,"rental_uris":{"android":"levelo://app?vid=b661c7f8-7a1d-465d-a79f-5efab8239e57","ios":"levelo://app?vid=b661c7f8-7a1d-465d-a79f-5efab8239e57"},"vehicle_type_id":"4","last_reported":1745600955,"current_range_meters":10800,"station_id":"ce4bh292rcd13ifvqdg0","pricing_plan_id":"cebpf4jnsgd1na2vs0mg"},{"bike_id":"5c8dde23-03af-4ec7-8c64-b6a7b95cfa5a","system_id":"levelo_inurba_marseille","lat":43.337239,"lon":5.391831,"is_reserved":false,"is_disabled":false,"rental_uris":{"android":"levelo://app?vid=5c8dde23-03af-4ec7-8c64-b6a7b95cfa5a","ios":"levelo://app?vid=5c8dde23-03af-4ec7-8c64-b6a7b95cfa5a"},"vehicle_type_id":"4","last_reported":1745600955,"current_range_meters":10800,"station_id":"","pricing_plan_id":"cebpf4jnsgd1na2vs0mg"},{"bike_id":"bd95f0bb-c5b1-4d5c-837c-b505e5069d47","system_id":"levelo_inurba_marseille","lat":43.33233,"lon":5.39813,"is_reserved":false,"is_disabled":false,"rental_uris":{"android":"levelo://app?vid=bd95f0bb-c5b1-4d5c-837c-b505e5069d47","ios":"levelo://app?vid=bd95f0bb-c5b1-4d5c-837c-b505e5069d47"},"vehicle_type_id":"4","last_reported":1745600955,"current_range_meters":10800,"station_id":"","pricing_plan_id":"cebpf4jnsgd1na2vs0mg"},{"bike_id":"734bb115-74ba-4c96-aaf5-00aea4f72e4f","system_id":"levelo_inurba_marseille","lat":43.26683,"lon":5.38269,"is_reserved":false,"is_disabled":false,"rental_uris":{"android":"levelo://app?vid=734bb115-74ba-4c96-aaf5-00aea4f72e4f","ios":"levelo://app?vid=734bb115-74ba-4c96-aaf5-00aea4f72e4f"},"vehicle_type_id":"4","last_reported":1745600955,"current_range_meters":10800,"station_id":"ce4bhg92rcd13ifvqf90","pricing_plan_id":"cebpf4jnsgd1na2vs0mg"},{"bike_id":"e9b40b8c-aa8b-493b-9704-ac204b4fdb74","system_id":"levelo_inurba_marseille","lat":43.22503,"lon":5.34777,"is_reserved":false,"is_disabled":false,"rental_uris":{"android":"levelo://app?vid=e9b40b8c-aa8b-493b-9704-ac204b4fdb74","ios":"levelo://app?vid=e9b40b8c-aa8b-493b-9704-ac204b4fdb74"},"vehicle_type_id":"4","last_reported":1745600955,"current_range_meters":11200,"station_id":"st_cvj5dfep6f1abm77gieg","pricing_plan_id":"cebpf4jnsgd1na2vs0mg"},{"bike_id":"3518dcd6-7a0c-41fd-a31a-c496cc374f29","system_id":"levelo_inurba_marseille","lat":43.25875,"lon":5.39968,"is_reserved":false,"is_disabled":false,"rental_uris":{"android":"levelo://app?vid=3518dcd6-7a0c-41fd-a31a-c496cc374f29","ios":"levelo://app?vid=3518dcd6-7a0c-41fd-a31a-c496cc374f29"},"vehicle_type_id":"4","last_reported":1745600955,"current_range_meters":10800,"station_id":"ce4bhl92rcd13ifvqghg","pricing_plan_id":"cebpf4jnsgd1na2vs0mg"},{"bike_id":"355970cd-c36a-481d-8c7b-1cb0a0171de5","system_id":"levelo_inurba_marseille","lat":43.30154,"lon":5.3812,"is_reserved":false,"is_disabled":false,"rental_uris":{"android":"levelo://app?vid=355970cd-c36a-481d-8c7b-1cb0a0171de5","ios":"levelo://app?vid=355970cd-c36a-481d-8c7b-1cb0a0171de5"},"vehicle_type_id":"4","last_reported":1745600955,"current_range_meters":10800,"station_id":"ce4bgjp2rcd13ifvqbh0","pricing_plan_id":"cebpf4jnsgd1na2vs0mg"},{"bike_id":"edbc9bff-8242-42ee-887f-3b5d28f3a582","system_id":"levelo_inurba_marseille","lat":43.29403,"lon":5.37907,"is_reserved":false,"is_disabled":true,"rental_uris":{"android":"levelo://app?vid=edbc9bff-8242-42ee-887f-3b5d28f3a582","ios":"levelo://app?vid=edbc9bff-8242-42ee-887f-3b5d28f3a582"},"vehicle_type_id":"4","last_reported":1745600955,"current_range_meters":11200,"station_id":"ce4bgjh2rcd13ifvqbf0","pricing_plan_id":"cebpf4jnsgd1na2vs0mg"},{"bike_id":"dc01f0b5-b1ff-492a-9187-c2aa24895f43","system_id":"levelo_inurba_marseille","lat":43.23191,"lon":5.39989,"is_reserved":false,"is_disabled":false,"rental_uris":{"android":"levelo://app?vid=dc01f0b5-b1ff-492a-9187-c2aa24895f43","ios":"levelo://app?vid=dc01f0b5-b1ff-492a-9187-c2aa24895f43"},"vehicle_type_id":"4","last_reported":1745600955,"current_range_meters":11200,"station_id":"ce4bhn12rcd13ifvqgqg","pricing_plan_id":"cebpf4jnsgd1na2vs0mg"},{"bike_id":"7ef7bf54-505d-46fe-9283-00e5edcc7c68","system_id":"levelo_inurba_marseille","lat":43.284027,"lon":5.37502,"is_reserved":false,"is_disabled":false,"rental_uris":{"android":"levelo://app?vid=7ef7bf54-505d-46fe-9283-00e5edcc7c68","ios":"levelo://app?vid=7ef7bf54-505d-46fe-9283-00e5edcc7c68"},"vehicle_type_id":"4","last_reported":1745600955,"current_range_meters":11600,"station_id":"ce4bh412rcd13ifvqds0","pricing_plan_id":"cebpf4jnsgd1na2vs0mg"},{"bike_id":"136f84c0-411f-4ad5-a18e-dceeffa8d448","system_id":"levelo_inurba_marseille","lat":43.29248,"lon":5.40137,"is_reserved":false,"is_disabled":false,"rental_uris":{"android":"levelo://app?vid=136f84c0-411f-4ad5-a18e-dceeffa8d448","ios":"levelo://app?vid=136f84c0-411f-4ad5-a18e-dceeffa8d448"},"vehicle_type_id":"4","last_reported":1745600955,"current_range_meters":11600,"station_id":"ce4bh312rcd13ifvqdk0","pricing_plan_id":"cebpf4jnsgd1na2vs0mg"},{"bike_id":"fa72b649-3018-4187-96fe-d31c0b11e0f8","system_id":"levelo_inurba_marseille","lat":43.29448,"lon":5.37359,"is_reserved":false,"is_disabled":false,"rental_uris":{"android":"levelo://app?vid=fa72b649-3018-4187-96fe-d31c0b11e0f8","ios":"levelo://app?vid=fa72b649-3018-4187-96fe-d31c0b11e0f8"},"vehicle_type_id":"4","last_reported":1745600955,"current_range_meters":11600,"station_id":"","pricing_plan_id":"cebpf4jnsgd1na2vs0mg"},{"bike_id":"0370b3f6-a647-4ce6-85ee-a160c04dbccb","system_id":"levelo_inurba_marseille","lat":43.24546,"lon":5.39532,"is_reserved":false,"is_disabled":false,"rental_uris":{"android":"levelo://app?vid=0370b3f6-a647-4ce6-85ee-a160c04dbccb","ios":"levelo://app?vid=0370b3f6-a647-4ce6-85ee-a160c04dbccb"},"vehicle_type_id":"4","last_reported":1745600955,"current_range_meters":11600,"station_id":"ce4bhlp2rcd13ifvqgjg","pricing_plan_id":"cebpf4jnsgd1na2vs0mg"},{"bike_id":"3c976c1b-644c-4432-ad5a-b823ebcbcc9c","system_id":"levelo_inurba_marseille","lat":43.30131,"lon":5.37405,"is_reserved":false,"is_disabled":true,"rental_uris":{"android":"levelo://app?vid=3c976c1b-644c-4432-ad5a-b823ebcbcc9c","ios":"levelo://app?vid=3c976c1b-644c-4432-ad5a-b823ebcbcc9c"},"vehicle_type_id":"4","last_reported":1745600955,"current_range_meters":11600,"station_id":"ce4bgs92rcd13ifvqcc0","pricing_plan_id":"cebpf4jnsgd1na2vs0mg"},{"bike_id":"12245583-66c7-4071-8f53-06f85677a6b2","system_id":"levelo_inurba_marseille","lat":43.29964,"lon":5.38495,"is_reserved":false,"is_disabled":false,"rental_uris":{"android":"levelo://app?vid=12245583-66c7-4071-8f53-06f85677a6b2","ios":"levelo://app?vid=12245583-66c7-4071-8f53-06f85677a6b2"},"vehicle_type_id":"4","last_reported":1745600955,"current_range_meters":11200,"station_id":"ce4bgj92rcd13ifvqbd0","pricing_plan_id":"cebpf4jnsgd1na2vs0mg"},{"bike_id":"ef1d234e-c515-4f97-94a3-b2e3df87d6b0","system_id":"levelo_inurba_marseille","lat":43.24387,"lon":5.37052,"is_reserved":false,"is_disabled":false,"rental_uris":{"android":"levelo://app?vid=ef1d234e-c515-4f97-94a3-b2e3df87d6b0","ios":"levelo://app?vid=ef1d234e-c515-4f97-94a3-b2e3df87d6b0"},"vehicle_type_id":"4","last_reported":1745600955,"current_range_meters":12000,"station_id":"ce4bhhh2rcd13ifvqfk0","pricing_plan_id":"cebpf4jnsgd1na2vs0mg"},{"bike_id":"f1f99f26-864c-445b-88a7-2fb3607142d9","system_id":"levelo_inurba_marseille","lat":43.2931,"lon":5.37167,"is_reserved":false,"is_disabled":false,"rental_uris":{"android":"levelo://app?vid=f1f99f26-864c-445b-88a7-2fb3607142d9","ios":"levelo://app?vid=f1f99f26-864c-445b-88a7-2fb3607142d9"},"vehicle_type_id":"4","last_reported":1745600955,"current_range_meters":12000,"station_id":"ce4bgh92rcd13ifvqb40","pricing_plan_id":"cebpf4jnsgd1na2vs0mg"},{"bike_id":"7a02a621-e46d-4e1b-aa3e-3aec8a81dc3d","system_id":"levelo_inurba_marseille","lat":43.28717,"lon":5.37942,"is_reserved":false,"is_disabled":false,"rental_uris":{"android":"levelo://app?vid=7a02a621-e46d-4e1b-aa3e-3aec8a81dc3d","ios":"levelo://app?vid=7a02a621-e46d-4e1b-aa3e-3aec8a81dc3d"},"vehicle_type_id":"4","last_reported":1745600955,"current_range_meters":12000,"station_id":"ce4bh9p2rcd13ifvqec0","pricing_plan_id":"cebpf4jnsgd1na2vs0mg"},{"bike_id":"ed2b0d01-ad60-4130-9dc7-c386a16f7736","system_id":"levelo_inurba_marseille","lat":43.31118,"lon":5.37774,"is_reserved":false,"is_disabled":false,"rental_uris":{"android":"levelo://app?vid=ed2b0d01-ad60-4130-9dc7-c386a16f7736","ios":"levelo://app?vid=ed2b0d01-ad60-4130-9dc7-c386a16f7736"},"vehicle_type_id":"4","last_reported":1745600955,"current_range_meters":12000,"station_id":"ce4bgt92rcd13ifvqcg0","pricing_plan_id":"cebpf4jnsgd1na2vs0mg"},{"bike_id":"106903cc-5275-43b1-bffe-15e4002893fc","system_id":"levelo_inurba_marseille","lat":43.32045,"lon":5.41542,"is_reserved":false,"is_disabled":false,"rental_uris":{"android":"levelo://app?vid=106903cc-5275-43b1-bffe-15e4002893fc","ios":"levelo://app?vid=106903cc-5275-43b1-bffe-15e4002893fc"},"vehicle_type_id":"4","last_reported":1745600955,"current_range_meters":12000,"station_id":"ce4bhq92rcd13ifvqhkg","pricing_plan_id":"cebpf4jnsgd1na2vs0mg"},{"bike_id":"422b5989-c8b6-43aa-b2b9-3bfeb2e1ddc0","system_id":"levelo_inurba_marseille","lat":43.247123,"lon":5.41173,"is_reserved":false,"is_disabled":false,"rental_uris":{"android":"levelo://app?vid=422b5989-c8b6-43aa-b2b9-3bfeb2e1ddc0","ios":"levelo://app?vid=422b5989-c8b6-43aa-b2b9-3bfeb2e1ddc0"},"vehicle_type_id":"4","last_reported":1745600955,"current_range_meters":12400,"station_id":"","pricing_plan_id":"cebpf4jnsgd1na2vs0mg"},{"bike_id":"4f3dcfec-60f0-4241-8c7d-26b3667d3f01","system_id":"levelo_inurba_marseille","lat":43.25491,"lon":5.37644,"is_reserved":false,"is_disabled":false,"rental_uris":{"android":"levelo://app?vid=4f3dcfec-60f0-4241-8c7d-26b3667d3f01","ios":"levelo://app?vid=4f3dcfec-60f0-4241-8c7d-26b3667d3f01"},"vehicle_type_id":"4","last_reported":1745600955,"current_range_meters":12400,"station_id":"ce4bhh12rcd13ifvqff0","pricing_plan_id":"cebpf4jnsgd1na2vs0mg"},{"bike_id":"03ec5728-5a8d-475c-be69-d63e54c8d683","system_id":"levelo_inurba_marseille","lat":43.32499,"lon":5.36738,"is_reserved":false,"is_disabled":false,"rental_uris":{"android":"levelo://app?vid=03ec5728-5a8d-475c-be69-d63e54c8d683","ios":"levelo://app?vid=03ec5728-5a8d-475c-be69-d63e54c8d683"},"vehicle_type_id":"4","last_reported":1745600955,"current_range_meters":12400,"station_id":"","pricing_plan_id":"cebpf4jnsgd1na2vs0mg"},{"bike_id":"dd76458e-7e14-4853-8b1a-aafcdeed1245","system_id":"levelo_inurba_marseille","lat":43.29279,"lon":5.40118,"is_reserved":false,"is_disabled":false,"rental_uris":{"android":"levelo://app?vid=dd76458e-7e14-4853-8b1a-aafcdeed1245","ios":"levelo://app?vid=dd76458e-7e14-4853-8b1a-aafcdeed1245"},"vehicle_type_id":"4","last_reported":1745600955,"current_range_meters":12400,"station_id":"ce4bh312rcd13ifvqdk0","pricing_plan_id":"cebpf4jnsgd1na2vs0mg"},{"bike_id":"baf3993a-9585-4cdb-9001-4ac38cc2c33d","system_id":"levelo_inurba_marseille","lat":43.28611,"lon":5.351043,"is_reserved":false,"is_disabled":false,"rental_uris":{"android":"levelo://app?vid=baf3993a-9585-4cdb-9001-4ac38cc2c33d","ios":"levelo://app?vid=baf3993a-9585-4cdb-9001-4ac38cc2c33d"},"vehicle_type_id":"4","last_reported":1745600955,"current_range_meters":12400,"station_id":"ce4bhch2rcd13ifvqeug","pricing_plan_id":"cebpf4jnsgd1na2vs0mg"},{"bike_id":"5861149e-6ec7-4465-97ec-01c7f2b334e3","system_id":"levelo_inurba_marseille","lat":43.29626,"lon":5.40596,"is_reserved":false,"is_disabled":false,"rental_uris":{"android":"levelo://app?vid=5861149e-6ec7-4465-97ec-01c7f2b334e3","ios":"levelo://app?vid=5861149e-6ec7-4465-97ec-01c7f2b334e3"},"vehicle_type_id":"4","last_reported":1745600955,"current_range_meters":12400,"station_id":"ce4bh0h2rcd13ifvqd60","pricing_plan_id":"cebpf4jnsgd1na2vs0mg"},{"bike_id":"9579858c-f276-4733-b065-de22bb9f0076","system_id":"levelo_inurba_marseille","lat":43.26775,"lon":5.40247,"is_reserved":false,"is_disabled":false,"rental_uris":{"android":"levelo://app?vid=9579858c-f276-4733-b065-de22bb9f0076","ios":"levelo://app?vid=9579858c-f276-4733-b065-de22bb9f0076"},"vehicle_type_id":"4","last_reported":1745600955,"current_range_meters":12800,"station_id":"ce501612rcd8frsf0b60","pricing_plan_id":"cebpf4jnsgd1na2vs0mg"},{"bike_id":"3fcc81d6-14de-45d5-9020-58be81aa1484","system_id":"levelo_inurba_marseille","lat":43.30544,"lon":5.38421,"is_reserved":false,"is_disabled":false,"rental_uris":{"android":"levelo://app?vid=3fcc81d6-14de-45d5-9020-58be81aa1484","ios":"levelo://app?vid=3fcc81d6-14de-45d5-9020-58be81aa1484"},"vehicle_type_id":"4","last_reported":1745600955,"current_range_meters":12800,"station_id":"ce4bgg92rcd13ifvqb30","pricing_plan_id":"cebpf4jnsgd1na2vs0mg"},{"bike_id":"e2dcabcf-64d8-4394-bb9a-ff877bee611a","system_id":"levelo_inurba_marseille","lat":43.32048,"lon":5.41509,"is_reserved":false,"is_disabled":false,"rental_uris":{"android":"levelo://app?vid=e2dcabcf-64d8-4394-bb9a-ff877bee611a","ios":"levelo://app?vid=e2dcabcf-64d8-4394-bb9a-ff877bee611a"},"vehicle_type_id":"4","last_reported":1745600955,"current_range_meters":12800,"station_id":"ce4bhq92rcd13ifvqhkg","pricing_plan_id":"cebpf4jnsgd1na2vs0mg"},{"bike_id":"4c11ff0f-a579-4f78-9960-a443174b0bdd","system_id":"levelo_inurba_marseille","lat":43.212,"lon":5.35083,"is_reserved":false,"is_disabled":false,"rental_uris":{"android":"levelo://app?vid=4c11ff0f-a579-4f78-9960-a443174b0bdd","ios":"levelo://app?vid=4c11ff0f-a579-4f78-9960-a443174b0bdd"},"vehicle_type_id":"4","last_reported":1745600955,"current_range_meters":12800,"station_id":"st_cvj6sg6p6f1abm77japg","pricing_plan_id":"cebpf4jnsgd1na2vs0mg"},{"bike_id":"0bfff189-ec6a-4439-b345-e9dd168ab867","system_id":"levelo_inurba_marseille","lat":43.337195,"lon":5.392045,"is_reserved":false,"is_disabled":false,"rental_uris":{"android":"levelo://app?vid=0bfff189-ec6a-4439-b345-e9dd168ab867","ios":"levelo://app?vid=0bfff189-ec6a-4439-b345-e9dd168ab867"},"vehicle_type_id":"4","last_reported":1745600955,"current_range_meters":12800,"station_id":"ce4bhr92rcd13ifvqhsg","pricing_plan_id":"cebpf4jnsgd1na2vs0mg"},{"bike_id":"db7d7242-8c7e-4f94-b69e-661206cd7af4","system_id":"levelo_inurba_marseille","lat":43.29038,"lon":5.378,"is_reserved":false,"is_disabled":false,"rental_uris":{"android":"levelo://app?vid=db7d7242-8c7e-4f94-b69e-661206cd7af4","ios":"levelo://app?vid=db7d7242-8c7e-4f94-b69e-661206cd7af4"},"vehicle_type_id":"4","last_reported":1745600955,"current_range_meters":12800,"station_id":"","pricing_plan_id":"cebpf4jnsgd1na2vs0mg"},{"bike_id":"c65adb3e-50be-42af-92da-68dd7e4eacc9","system_id":"levelo_inurba_marseille","lat":43.30169,"lon":5.38091,"is_reserved":false,"is_disabled":true,"rental_uris":{"android":"levelo://app?vid=c65adb3e-50be-42af-92da-68dd7e4eacc9","ios":"levelo://app?vid=c65adb3e-50be-42af-92da-68dd7e4eacc9"},"vehicle_type_id":"4","last_reported":1745600955,"current_range_meters":13600,"station_id":"ce4bgjp2rcd13ifvqbh0","pricing_plan_id":"cebpf4jnsgd1na2vs0mg"},{"bike_id":"cf321fcd-510e-4cab-abc0-429185b210f0","system_id":"levelo_inurba_marseille","lat":43.23119,"lon":5.35526,"is_reserved":false,"is_disabled":false,"rental_uris":{"android":"levelo://app?vid=cf321fcd-510e-4cab-abc0-429185b210f0","ios":"levelo://app?vid=cf321fcd-510e-4cab-abc0-429185b210f0"},"vehicle_type_id":"4","last_reported":1745600955,"current_range_meters":14000,"station_id":"cpo3342slgdg3j2ifvpg","pricing_plan_id":"cebpf4jnsgd1na2vs0mg"},{"bike_id":"836fe3df-07ed-48b9-b957-4fcb8e2ed030","system_id":"levelo_inurba_marseille","lat":43.29266,"lon":5.3845,"is_reserved":false,"is_disabled":false,"rental_uris":{"android":"levelo://app?vid=836fe3df-07ed-48b9-b957-4fcb8e2ed030","ios":"levelo://app?vid=836fe3df-07ed-48b9-b957-4fcb8e2ed030"},"vehicle_type_id":"4","last_reported":1745600955,"current_range_meters":14400,"station_id":"ce4bh692rcd13ifvqea0","pricing_plan_id":"cebpf4jnsgd1na2vs0mg"},{"bike_id":"532f83ee-e4cc-4423-bd81-45851fd096c0","system_id":"levelo_inurba_marseille","lat":43.29168,"lon":5.37169,"is_reserved":false,"is_disabled":false,"rental_uris":{"android":"levelo://app?vid=532f83ee-e4cc-4423-bd81-45851fd096c0","ios":"levelo://app?vid=532f83ee-e4cc-4423-bd81-45851fd096c0"},"vehicle_type_id":"4","last_reported":1745600955,"current_range_meters":14400,"station_id":"ce4bha92rcd13ifvqeh0","pricing_plan_id":"cebpf4jnsgd1na2vs0mg"},{"bike_id":"dcfa1fea-f8b3-477f-bba7-001e250d8e2a","system_id":"levelo_inurba_marseille","lat":43.28851,"lon":5.35854,"is_reserved":false,"is_disabled":false,"rental_uris":{"android":"levelo://app?vid=dcfa1fea-f8b3-477f-bba7-001e250d8e2a","ios":"levelo://app?vid=dcfa1fea-f8b3-477f-bba7-001e250d8e2a"},"vehicle_type_id":"4","last_reported":1745600955,"current_range_meters":14400,"station_id":"ce4bhb12rcd13ifvqem0","pricing_plan_id":"cebpf4jnsgd1na2vs0mg"},{"bike_id":"a6e2c3ac-1395-4455-9f8f-9428e67f2e57","system_id":"levelo_inurba_marseille","lat":43.25496,"lon":5.37648,"is_reserved":false,"is_disabled":false,"rental_uris":{"android":"levelo://app?vid=a6e2c3ac-1395-4455-9f8f-9428e67f2e57","ios":"levelo://app?vid=a6e2c3ac-1395-4455-9f8f-9428e67f2e57"},"vehicle_type_id":"4","last_reported":1745600955,"current_range_meters":14400,"station_id":"ce4bhh12rcd13ifvqff0","pricing_plan_id":"cebpf4jnsgd1na2vs0mg"},{"bike_id":"a6a59b9e-989d-4b61-a83d-e96ee6d83664","system_id":"levelo_inurba_marseille","lat":43.26201,"lon":5.37928,"is_reserved":false,"is_disabled":false,"rental_uris":{"android":"levelo://app?vid=a6a59b9e-989d-4b61-a83d-e96ee6d83664","ios":"levelo://app?vid=a6a59b9e-989d-4b61-a83d-e96ee6d83664"},"vehicle_type_id":"4","last_reported":1745600955,"current_range_meters":14800,"station_id":"ce4bhjp2rcd13ifvqg90","pricing_plan_id":"cebpf4jnsgd1na2vs0mg"},{"bike_id":"63cb504c-cdb9-43e8-8180-64066b83175a","system_id":"levelo_inurba_marseille","lat":43.29032,"lon":5.38652,"is_reserved":false,"is_disabled":false,"rental_uris":{"android":"levelo://app?vid=63cb504c-cdb9-43e8-8180-64066b83175a","ios":"levelo://app?vid=63cb504c-cdb9-43e8-8180-64066b83175a"},"vehicle_type_id":"4","last_reported":1745600955,"current_range_meters":14800,"station_id":"ce4bh4p2rcd13ifvqe0g","pricing_plan_id":"cebpf4jnsgd1na2vs0mg"},{"bike_id":"b6c6d9f7-b123-42c6-8ea7-68299b7c9958","system_id":"levelo_inurba_marseille","lat":43.324,"lon":5.39156,"is_reserved":false,"is_disabled":false,"rental_uris":{"android":"levelo://app?vid=b6c6d9f7-b123-42c6-8ea7-68299b7c9958","ios":"levelo://app?vid=b6c6d9f7-b123-42c6-8ea7-68299b7c9958"},"vehicle_type_id":"4","last_reported":1745600955,"current_range_meters":14800,"station_id":"","pricing_plan_id":"cebpf4jnsgd1na2vs0mg"},{"bike_id":"2de6cd5d-2788-44eb-9768-95b0caba2fc1","system_id":"levelo_inurba_marseille","lat":43.29496,"lon":5.39025,"is_reserved":false,"is_disabled":false,"rental_uris":{"android":"levelo://app?vid=2de6cd5d-2788-44eb-9768-95b0caba2fc1","ios":"levelo://app?vid=2de6cd5d-2788-44eb-9768-95b0caba2fc1"},"vehicle_type_id":"4","last_reported":1745600955,"current_range_meters":14800,"station_id":"ce4bh3p2rcd13ifvqdp0","pricing_plan_id":"cebpf4jnsgd1na2vs0mg"},{"bike_id":"b54ecb6b-cf2f-452f-a00a-63d17929c9d5","system_id":"levelo_inurba_marseille","lat":43.27434,"lon":5.39403,"is_reserved":false,"is_disabled":false,"rental_uris":{"android":"levelo://app?vid=b54ecb6b-cf2f-452f-a00a-63d17929c9d5","ios":"levelo://app?vid=b54ecb6b-cf2f-452f-a00a-63d17929c9d5"},"vehicle_type_id":"4","last_reported":1745600955,"current_range_meters":15200,"station_id":"ce4bhdp2rcd13ifvqf20","pricing_plan_id":"cebpf4jnsgd1na2vs0mg"},{"bike_id":"7675da40-a572-49a0-a148-43c092148cfb","system_id":"levelo_inurba_marseille","lat":43.28938,"lon":5.3663,"is_reserved":false,"is_disabled":false,"rental_uris":{"android":"levelo://app?vid=7675da40-a572-49a0-a148-43c092148cfb","ios":"levelo://app?vid=7675da40-a572-49a0-a148-43c092148cfb"},"vehicle_type_id":"4","last_reported":1745600955,"current_range_meters":15200,"station_id":"ce4bhap2rcd13ifvqek0","pricing_plan_id":"cebpf4jnsgd1na2vs0mg"},{"bike_id":"8a4791f0-615a-46bf-82e4-616858ffd3ee","system_id":"levelo_inurba_marseille","lat":43.33024,"lon":5.39043,"is_reserved":false,"is_disabled":false,"rental_uris":{"android":"levelo://app?vid=8a4791f0-615a-46bf-82e4-616858ffd3ee","ios":"levelo://app?vid=8a4791f0-615a-46bf-82e4-616858ffd3ee"},"vehicle_type_id":"4","last_reported":1745600955,"current_range_meters":15200,"station_id":"ce4bhr92rcd13ifvqhrg","pricing_plan_id":"cebpf4jnsgd1na2vs0mg"},{"bike_id":"a899eb90-fb46-45e6-869e-27305c6380b1","system_id":"levelo_inurba_marseille","lat":43.29701,"lon":5.36611,"is_reserved":false,"is_disabled":false,"rental_uris":{"android":"levelo://app?vid=a899eb90-fb46-45e6-869e-27305c6380b1","ios":"levelo://app?vid=a899eb90-fb46-45e6-869e-27305c6380b1"},"vehicle_type_id":"4","last_reported":1745600955,"current_range_meters":15200,"station_id":"ce4bgn12rcd13ifvqbt0","pricing_plan_id":"cebpf4jnsgd1na2vs0mg"},{"bike_id":"ec5f1667-0436-4eda-ad90-b2165f76a59a","system_id":"levelo_inurba_marseille","lat":43.28149,"lon":5.42654,"is_reserved":false,"is_disabled":false,"rental_uris":{"android":"levelo://app?vid=ec5f1667-0436-4eda-ad90-b2165f76a59a","ios":"levelo://app?vid=ec5f1667-0436-4eda-ad90-b2165f76a59a"},"vehicle_type_id":"4","last_reported":1745600955,"current_range_meters":16000,"station_id":"ce4bhnh2rcd13ifvqgug","pricing_plan_id":"cebpf4jnsgd1na2vs0mg"},{"bike_id":"568053e1-9183-4cee-acca-959027493876","system_id":"levelo_inurba_marseille","lat":43.3089,"lon":5.36855,"is_reserved":false,"is_disabled":true,"rental_uris":{"android":"levelo://app?vid=568053e1-9183-4cee-acca-959027493876","ios":"levelo://app?vid=568053e1-9183-4cee-acca-959027493876"},"vehicle_type_id":"4","last_reported":1745600955,"current_range_meters":16000,"station_id":"ce4bgn92rcd13ifvqbvg","pricing_plan_id":"cebpf4jnsgd1na2vs0mg"},{"bike_id":"af6af1ea-83a0-4448-a6b9-d143557f7290","system_id":"levelo_inurba_marseille","lat":43.27062,"lon":5.402,"is_reserved":false,"is_disabled":false,"rental_uris":{"android":"levelo://app?vid=af6af1ea-83a0-4448-a6b9-d143557f7290","ios":"levelo://app?vid=af6af1ea-83a0-4448-a6b9-d143557f7290"},"vehicle_type_id":"4","last_reported":1745600955,"current_range_meters":16000,"station_id":"ce4bhk92rcd13ifvqgc0","pricing_plan_id":"cebpf4jnsgd1na2vs0mg"},{"bike_id":"49a5be0b-2b23-4d57-a2bd-3a5d802fab0b","system_id":"levelo_inurba_marseille","lat":43.28997,"lon":5.35615,"is_reserved":false,"is_disabled":true,"rental_uris":{"android":"levelo://app?vid=49a5be0b-2b23-4d57-a2bd-3a5d802fab0b","ios":"levelo://app?vid=49a5be0b-2b23-4d57-a2bd-3a5d802fab0b"},"vehicle_type_id":"4","last_reported":1745600955,"current_range_meters":16000,"station_id":"ce4bhb92rcd13ifvqen0","pricing_plan_id":"cebpf4jnsgd1na2vs0mg"},{"bike_id":"3f3a62c5-4f10-428b-84cf-61f55d24a2ee","system_id":"levelo_inurba_marseille","lat":43.25577,"lon":5.38231,"is_reserved":false,"is_disabled":false,"rental_uris":{"android":"levelo://app?vid=3f3a62c5-4f10-428b-84cf-61f55d24a2ee","ios":"levelo://app?vid=3f3a62c5-4f10-428b-84cf-61f55d24a2ee"},"vehicle_type_id":"4","last_reported":1745600955,"current_range_meters":16000,"station_id":"ce4bhih2rcd13ifvqfs0","pricing_plan_id":"cebpf4jnsgd1na2vs0mg"},{"bike_id":"5d9c1574-7299-43ae-a032-cbfe0be61242","system_id":"levelo_inurba_marseille","lat":43.23083,"lon":5.355,"is_reserved":false,"is_disabled":false,"rental_uris":{"android":"levelo://app?vid=5d9c1574-7299-43ae-a032-cbfe0be61242","ios":"levelo://app?vid=5d9c1574-7299-43ae-a032-cbfe0be61242"},"vehicle_type_id":"4","last_reported":1745600955,"current_range_meters":16400,"station_id":"cpo3342slgdg3j2ifvpg","pricing_plan_id":"cebpf4jnsgd1na2vs0mg"},{"bike_id":"f1eac2e2-bd13-46fb-b982-39038846ebf9","system_id":"levelo_inurba_marseille","lat":43.295417,"lon":5.385386,"is_reserved":false,"is_disabled":false,"rental_uris":{"android":"levelo://app?vid=f1eac2e2-bd13-46fb-b982-39038846ebf9","ios":"levelo://app?vid=f1eac2e2-bd13-46fb-b982-39038846ebf9"},"vehicle_type_id":"4","last_reported":1745600955,"current_range_meters":16400,"station_id":"ce4bgih2rcd13ifvqba0","pricing_plan_id":"cebpf4jnsgd1na2vs0mg"},{"bike_id":"987d7900-bb2a-45cb-bed7-6d69f6fd4fa3","system_id":"levelo_inurba_marseille","lat":43.28474,"lon":5.38434,"is_reserved":false,"is_disabled":false,"rental_uris":{"android":"levelo://app?vid=987d7900-bb2a-45cb-bed7-6d69f6fd4fa3","ios":"levelo://app?vid=987d7900-bb2a-45cb-bed7-6d69f6fd4fa3"},"vehicle_type_id":"4","last_reported":1745600955,"current_range_meters":16400,"station_id":"ce4bh512rcd13ifvqe3g","pricing_plan_id":"cebpf4jnsgd1na2vs0mg"},{"bike_id":"2e678bc5-f5aa-4f82-a57a-f612435d7518","system_id":"levelo_inurba_marseille","lat":43.24652,"lon":5.38893,"is_reserved":false,"is_disabled":false,"rental_uris":{"android":"levelo://app?vid=2e678bc5-f5aa-4f82-a57a-f612435d7518","ios":"levelo://app?vid=2e678bc5-f5aa-4f82-a57a-f612435d7518"},"vehicle_type_id":"4","last_reported":1745600955,"current_range_meters":16800,"station_id":"ce4bhg12rcd13ifvqf60","pricing_plan_id":"cebpf4jnsgd1na2vs0mg"},{"bike_id":"249bd623-bde8-4edd-b89a-5eadd3b0d8cc","system_id":"levelo_inurba_marseille","lat":43.30417,"lon":5.41299,"is_reserved":false,"is_disabled":false,"rental_uris":{"android":"levelo://app?vid=249bd623-bde8-4edd-b89a-5eadd3b0d8cc","ios":"levelo://app?vid=249bd623-bde8-4edd-b89a-5eadd3b0d8cc"},"vehicle_type_id":"4","last_reported":1745600955,"current_range_meters":17200,"station_id":"ce4bhop2rcd13ifvqh8g","pricing_plan_id":"cebpf4jnsgd1na2vs0mg"},{"bike_id":"5c59969d-437f-43ab-990f-664c9830a931","system_id":"levelo_inurba_marseille","lat":43.31363,"lon":5.3866,"is_reserved":false,"is_disabled":false,"rental_uris":{"android":"levelo://app?vid=5c59969d-437f-43ab-990f-664c9830a931","ios":"levelo://app?vid=5c59969d-437f-43ab-990f-664c9830a931"},"vehicle_type_id":"4","last_reported":1745600955,"current_range_meters":17200,"station_id":"","pricing_plan_id":"cebpf4jnsgd1na2vs0mg"},{"bike_id":"83763cfa-4071-40ec-8cf9-68d53ea242d0","system_id":"levelo_inurba_marseille","lat":43.31168,"lon":5.38714,"is_reserved":false,"is_disabled":false,"rental_uris":{"android":"levelo://app?vid=83763cfa-4071-40ec-8cf9-68d53ea242d0","ios":"levelo://app?vid=83763cfa-4071-40ec-8cf9-68d53ea242d0"},"vehicle_type_id":"4","last_reported":1745600955,"current_range_meters":17200,"station_id":"ce4bgv12rcd13ifvqcp0","pricing_plan_id":"cebpf4jnsgd1na2vs0mg"},{"bike_id":"a4edb5ba-4905-43f2-99ad-32c94af8e8e2","system_id":"levelo_inurba_marseille","lat":43.3024,"lon":5.40055,"is_reserved":false,"is_disabled":false,"rental_uris":{"android":"levelo://app?vid=a4edb5ba-4905-43f2-99ad-32c94af8e8e2","ios":"levelo://app?vid=a4edb5ba-4905-43f2-99ad-32c94af8e8e2"},"vehicle_type_id":"4","last_reported":1745600955,"current_range_meters":17200,"station_id":"ce4bgvh2rcd13ifvqcs0","pricing_plan_id":"cebpf4jnsgd1na2vs0mg"},{"bike_id":"4e5e6385-d178-47d8-90e9-8e58c3b66cfc","system_id":"levelo_inurba_marseille","lat":43.298981,"lon":5.387578,"is_reserved":false,"is_disabled":false,"rental_uris":{"android":"levelo://app?vid=4e5e6385-d178-47d8-90e9-8e58c3b66cfc","ios":"levelo://app?vid=4e5e6385-d178-47d8-90e9-8e58c3b66cfc"},"vehicle_type_id":"4","last_reported":1745600955,"current_range_meters":17200,"station_id":"ce4bh392rcd13ifvqdl0","pricing_plan_id":"cebpf4jnsgd1na2vs0mg"},{"bike_id":"6af27718-a240-4511-b105-026b1985396f","system_id":"levelo_inurba_marseille","lat":43.29492,"lon":5.36365,"is_reserved":false,"is_disabled":false,"rental_uris":{"android":"levelo://app?vid=6af27718-a240-4511-b105-026b1985396f","ios":"levelo://app?vid=6af27718-a240-4511-b105-026b1985396f"},"vehicle_type_id":"4","last_reported":1745600955,"current_range_meters":17200,"station_id":"","pricing_plan_id":"cebpf4jnsgd1na2vs0mg"},{"bike_id":"009b4d31-b1e1-449b-99fe-26b589d67db6","system_id":"levelo_inurba_marseille","lat":43.28608,"lon":5.37062,"is_reserved":false,"is_disabled":false,"rental_uris":{"android":"levelo://app?vid=009b4d31-b1e1-449b-99fe-26b589d67db6","ios":"levelo://app?vid=009b4d31-b1e1-449b-99fe-26b589d67db6"},"vehicle_type_id":"4","last_reported":1745600955,"current_range_meters":17200,"station_id":"ce4bht12rcd13ifvqi60","pricing_plan_id":"cebpf4jnsgd1na2vs0mg"},{"bike_id":"192c55f4-623b-4be2-a8b5-d35b84dcfc30","system_id":"levelo_inurba_marseille","lat":43.30549,"lon":5.36549,"is_reserved":false,"is_disabled":false,"rental_uris":{"android":"levelo://app?vid=192c55f4-623b-4be2-a8b5-d35b84dcfc30","ios":"levelo://app?vid=192c55f4-623b-4be2-a8b5-d35b84dcfc30"},"vehicle_type_id":"4","last_reported":1745600955,"current_range_meters":17200,"station_id":"ce4bhoh2rcd13ifvqh5g","pricing_plan_id":"cebpf4jnsgd1na2vs0mg"},{"bike_id":"51a4b1f4-4cfb-4b9e-b7e6-50254ee4c796","system_id":"levelo_inurba_marseille","lat":43.28632,"lon":5.37091,"is_reserved":false,"is_disabled":true,"rental_uris":{"android":"levelo://app?vid=51a4b1f4-4cfb-4b9e-b7e6-50254ee4c796","ios":"levelo://app?vid=51a4b1f4-4cfb-4b9e-b7e6-50254ee4c796"},"vehicle_type_id":"4","last_reported":1745600955,"current_range_meters":17200,"station_id":"ce4bht12rcd13ifvqi60","pricing_plan_id":"cebpf4jnsgd1na2vs0mg"},{"bike_id":"08ba14c4-5e90-4e60-968a-650c59a213a8","system_id":"levelo_inurba_marseille","lat":43.25819,"lon":5.39431,"is_reserved":false,"is_disabled":false,"rental_uris":{"android":"levelo://app?vid=08ba14c4-5e90-4e60-968a-650c59a213a8","ios":"levelo://app?vid=08ba14c4-5e90-4e60-968a-650c59a213a8"},"vehicle_type_id":"4","last_reported":1745600955,"current_range_meters":17600,"station_id":"ce4bhip2rcd13ifvqft0","pricing_plan_id":"cebpf4jnsgd1na2vs0mg"},{"bike_id":"31de0553-c9b8-4cd4-844d-7d7b36fa3ecd","system_id":"levelo_inurba_marseille","lat":43.28182,"lon":5.42676,"is_reserved":false,"is_disabled":false,"rental_uris":{"android":"levelo://app?vid=31de0553-c9b8-4cd4-844d-7d7b36fa3ecd","ios":"levelo://app?vid=31de0553-c9b8-4cd4-844d-7d7b36fa3ecd"},"vehicle_type_id":"4","last_reported":1745600955,"current_range_meters":17600,"station_id":"ce4bhnh2rcd13ifvqgug","pricing_plan_id":"cebpf4jnsgd1na2vs0mg"},{"bike_id":"d141ce11-44c0-4303-b6ea-325aa91dd67b","system_id":"levelo_inurba_marseille","lat":43.26198,"lon":5.37936,"is_reserved":false,"is_disabled":false,"rental_uris":{"android":"levelo://app?vid=d141ce11-44c0-4303-b6ea-325aa91dd67b","ios":"levelo://app?vid=d141ce11-44c0-4303-b6ea-325aa91dd67b"},"vehicle_type_id":"4","last_reported":1745600955,"current_range_meters":17600,"station_id":"ce4bhjp2rcd13ifvqg90","pricing_plan_id":"cebpf4jnsgd1na2vs0mg"},{"bike_id":"e3cdf67a-5fc2-4703-9c39-57d29454c8ba","system_id":"levelo_inurba_marseille","lat":43.340425,"lon":5.386994,"is_reserved":false,"is_disabled":false,"rental_uris":{"android":"levelo://app?vid=e3cdf67a-5fc2-4703-9c39-57d29454c8ba","ios":"levelo://app?vid=e3cdf67a-5fc2-4703-9c39-57d29454c8ba"},"vehicle_type_id":"4","last_reported":1745600955,"current_range_meters":18000,"station_id":"","pricing_plan_id":"cebpf4jnsgd1na2vs0mg"},{"bike_id":"4046a82f-66e8-4b55-bd0a-356edea772d8","system_id":"levelo_inurba_marseille","lat":43.30798,"lon":5.37458,"is_reserved":false,"is_disabled":false,"rental_uris":{"android":"levelo://app?vid=4046a82f-66e8-4b55-bd0a-356edea772d8","ios":"levelo://app?vid=4046a82f-66e8-4b55-bd0a-356edea772d8"},"vehicle_type_id":"4","last_reported":1745600955,"current_range_meters":18000,"station_id":"","pricing_plan_id":"cebpf4jnsgd1na2vs0mg"},{"bike_id":"d28bf9af-5868-40cf-bc78-dd7cb5c022b5","system_id":"levelo_inurba_marseille","lat":43.29949,"lon":5.38496,"is_reserved":false,"is_disabled":true,"rental_uris":{"android":"levelo://app?vid=d28bf9af-5868-40cf-bc78-dd7cb5c022b5","ios":"levelo://app?vid=d28bf9af-5868-40cf-bc78-dd7cb5c022b5"},"vehicle_type_id":"4","last_reported":1745600955,"current_range_meters":18000,"station_id":"ce4bgj92rcd13ifvqbd0","pricing_plan_id":"cebpf4jnsgd1na2vs0mg"},{"bike_id":"79ffd577-c06f-4898-b813-2dd8142120d9","system_id":"levelo_inurba_marseille","lat":43.28611,"lon":5.35115,"is_reserved":false,"is_disabled":false,"rental_uris":{"android":"levelo://app?vid=79ffd577-c06f-4898-b813-2dd8142120d9","ios":"levelo://app?vid=79ffd577-c06f-4898-b813-2dd8142120d9"},"vehicle_type_id":"4","last_reported":1745600955,"current_range_meters":18000,"station_id":"ce4bhch2rcd13ifvqeug","pricing_plan_id":"cebpf4jnsgd1na2vs0mg"},{"bike_id":"736af298-31c4-4a65-8c88-aabcf775aed5","system_id":"levelo_inurba_marseille","lat":43.30947,"lon":5.39029,"is_reserved":false,"is_disabled":false,"rental_uris":{"android":"levelo://app?vid=736af298-31c4-4a65-8c88-aabcf775aed5","ios":"levelo://app?vid=736af298-31c4-4a65-8c88-aabcf775aed5"},"vehicle_type_id":"4","last_reported":1745600955,"current_range_meters":18000,"station_id":"ce4bgup2rcd13ifvqco0","pricing_plan_id":"cebpf4jnsgd1na2vs0mg"},{"bike_id":"b2263012-8822-4919-bebd-fe58d0519919","system_id":"levelo_inurba_marseille","lat":43.29795,"lon":5.38094,"is_reserved":false,"is_disabled":false,"rental_uris":{"android":"levelo://app?vid=b2263012-8822-4919-bebd-fe58d0519919","ios":"levelo://app?vid=b2263012-8822-4919-bebd-fe58d0519919"},"vehicle_type_id":"4","last_reported":1745600955,"current_range_meters":18800,"station_id":"ce4bgip2rcd13ifvqbb0","pricing_plan_id":"cebpf4jnsgd1na2vs0mg"},{"bike_id":"c87b7b48-8249-48ef-8214-c17a96effb89","system_id":"levelo_inurba_marseille","lat":43.24166,"lon":5.36391,"is_reserved":false,"is_disabled":false,"rental_uris":{"android":"levelo://app?vid=c87b7b48-8249-48ef-8214-c17a96effb89","ios":"levelo://app?vid=c87b7b48-8249-48ef-8214-c17a96effb89"},"vehicle_type_id":"4","last_reported":1745600955,"current_range_meters":18800,"station_id":"cpo36qri1sfpv3e86is0","pricing_plan_id":"cebpf4jnsgd1na2vs0mg"},{"bike_id":"9fac8949-580c-4814-ac69-31148581f4a2","system_id":"levelo_inurba_marseille","lat":43.33026,"lon":5.39147,"is_reserved":false,"is_disabled":false,"rental_uris":{"android":"levelo://app?vid=9fac8949-580c-4814-ac69-31148581f4a2","ios":"levelo://app?vid=9fac8949-580c-4814-ac69-31148581f4a2"},"vehicle_type_id":"4","last_reported":1745600955,"current_range_meters":18800,"station_id":"","pricing_plan_id":"cebpf4jnsgd1na2vs0mg"},{"bike_id":"2837d1d2-d096-4929-8269-e12200360c4d","system_id":"levelo_inurba_marseille","lat":43.26059,"lon":5.39397,"is_reserved":false,"is_disabled":false,"rental_uris":{"android":"levelo://app?vid=2837d1d2-d096-4929-8269-e12200360c4d","ios":"levelo://app?vid=2837d1d2-d096-4929-8269-e12200360c4d"},"vehicle_type_id":"4","last_reported":1745600955,"current_range_meters":19200,"station_id":"ce4bhh92rcd13ifvqfj0","pricing_plan_id":"cebpf4jnsgd1na2vs0mg"},{"bike_id":"e600afaa-aff7-4504-b6f9-f74c04917343","system_id":"levelo_inurba_marseille","lat":43.28712,"lon":5.4,"is_reserved":false,"is_disabled":false,"rental_uris":{"android":"levelo://app?vid=e600afaa-aff7-4504-b6f9-f74c04917343","ios":"levelo://app?vid=e600afaa-aff7-4504-b6f9-f74c04917343"},"vehicle_type_id":"4","last_reported":1745600955,"current_range_meters":19200,"station_id":"ce4bho92rcd13ifvqh3g","pricing_plan_id":"cebpf4jnsgd1na2vs0mg"},{"bike_id":"eb55b5d3-d5e8-4533-8d0a-a2ae5cdd94a0","system_id":"levelo_inurba_marseille","lat":43.2501,"lon":5.40375,"is_reserved":false,"is_disabled":false,"rental_uris":{"android":"levelo://app?vid=eb55b5d3-d5e8-4533-8d0a-a2ae5cdd94a0","ios":"levelo://app?vid=eb55b5d3-d5e8-4533-8d0a-a2ae5cdd94a0"},"vehicle_type_id":"4","last_reported":1745600955,"current_range_meters":19200,"station_id":"","pricing_plan_id":"cebpf4jnsgd1na2vs0mg"},{"bike_id":"ce635803-bedf-40bc-9360-b1dbbf17902e","system_id":"levelo_inurba_marseille","lat":43.28636,"lon":5.35101,"is_reserved":false,"is_disabled":false,"rental_uris":{"android":"levelo://app?vid=ce635803-bedf-40bc-9360-b1dbbf17902e","ios":"levelo://app?vid=ce635803-bedf-40bc-9360-b1dbbf17902e"},"vehicle_type_id":"4","last_reported":1745600955,"current_range_meters":19200,"station_id":"ce4bhch2rcd13ifvqeug","pricing_plan_id":"cebpf4jnsgd1na2vs0mg"},{"bike_id":"5e80261d-8f35-4abb-8e49-2145b0bae580","system_id":"levelo_inurba_marseille","lat":43.24805,"lon":5.37455,"is_reserved":false,"is_disabled":false,"rental_uris":{"android":"levelo://app?vid=5e80261d-8f35-4abb-8e49-2145b0bae580","ios":"levelo://app?vid=5e80261d-8f35-4abb-8e49-2145b0bae580"},"vehicle_type_id":"4","last_reported":1745600955,"current_range_meters":19600,"station_id":"ce4bhgh2rcd13ifvqfb0","pricing_plan_id":"cebpf4jnsgd1na2vs0mg"},{"bike_id":"fe2402f8-c689-4bd0-8f87-924e47a14230","system_id":"levelo_inurba_marseille","lat":43.33027,"lon":5.39036,"is_reserved":false,"is_disabled":false,"rental_uris":{"android":"levelo://app?vid=fe2402f8-c689-4bd0-8f87-924e47a14230","ios":"levelo://app?vid=fe2402f8-c689-4bd0-8f87-924e47a14230"},"vehicle_type_id":"4","last_reported":1745600955,"current_range_meters":19600,"station_id":"ce4bhr92rcd13ifvqhrg","pricing_plan_id":"cebpf4jnsgd1na2vs0mg"},{"bike_id":"390bd2b5-e6a8-4f87-b937-6418abb8aad1","system_id":"levelo_inurba_marseille","lat":43.266775,"lon":5.40254,"is_reserved":false,"is_disabled":false,"rental_uris":{"android":"levelo://app?vid=390bd2b5-e6a8-4f87-b937-6418abb8aad1","ios":"levelo://app?vid=390bd2b5-e6a8-4f87-b937-6418abb8aad1"},"vehicle_type_id":"4","last_reported":1745600955,"current_range_meters":19600,"station_id":"ce4bhmh2rcd13ifvqgmg","pricing_plan_id":"cebpf4jnsgd1na2vs0mg"},{"bike_id":"724a46db-4740-4309-9e4d-3258f23e3b2e","system_id":"levelo_inurba_marseille","lat":43.24808,"lon":5.37453,"is_reserved":false,"is_disabled":false,"rental_uris":{"android":"levelo://app?vid=724a46db-4740-4309-9e4d-3258f23e3b2e","ios":"levelo://app?vid=724a46db-4740-4309-9e4d-3258f23e3b2e"},"vehicle_type_id":"4","last_reported":1745600955,"current_range_meters":19600,"station_id":"ce4bhgh2rcd13ifvqfb0","pricing_plan_id":"cebpf4jnsgd1na2vs0mg"},{"bike_id":"59d918f1-b31d-4e19-9c3c-a7d69b8446d5","system_id":"levelo_inurba_marseille","lat":43.29909,"lon":5.38142,"is_reserved":false,"is_disabled":false,"rental_uris":{"android":"levelo://app?vid=59d918f1-b31d-4e19-9c3c-a7d69b8446d5","ios":"levelo://app?vid=59d918f1-b31d-4e19-9c3c-a7d69b8446d5"},"vehicle_type_id":"4","last_reported":1745600955,"current_range_meters":20000,"station_id":"ce4bgj12rcd13ifvqbc0","pricing_plan_id":"cebpf4jnsgd1na2vs0mg"},{"bike_id":"3d8c5914-383a-4509-8539-1561f0bf8036","system_id":"levelo_inurba_marseille","lat":43.29098,"lon":5.401,"is_reserved":false,"is_disabled":true,"rental_uris":{"android":"levelo://app?vid=3d8c5914-383a-4509-8539-1561f0bf8036","ios":"levelo://app?vid=3d8c5914-383a-4509-8539-1561f0bf8036"},"vehicle_type_id":"4","last_reported":1745600955,"current_range_meters":20000,"station_id":"","pricing_plan_id":"cebpf4jnsgd1na2vs0mg"},{"bike_id":"f415d2f2-0682-467a-80ca-9aa7e2bfd0fa","system_id":"levelo_inurba_marseille","lat":43.29175,"lon":5.35827,"is_reserved":false,"is_disabled":true,"rental_uris":{"android":"levelo://app?vid=f415d2f2-0682-467a-80ca-9aa7e2bfd0fa","ios":"levelo://app?vid=f415d2f2-0682-467a-80ca-9aa7e2bfd0fa"},"vehicle_type_id":"4","last_reported":1745600955,"current_range_meters":20000,"station_id":"ce4bhb12rcd13ifvqel0","pricing_plan_id":"cebpf4jnsgd1na2vs0mg"},{"bike_id":"9e46094b-184a-4a8b-857b-2efbdcdc2008","system_id":"levelo_inurba_marseille","lat":43.322895,"lon":5.382743,"is_reserved":false,"is_disabled":false,"rental_uris":{"android":"levelo://app?vid=9e46094b-184a-4a8b-857b-2efbdcdc2008","ios":"levelo://app?vid=9e46094b-184a-4a8b-857b-2efbdcdc2008"},"vehicle_type_id":"4","last_reported":1745600955,"current_range_meters":20400,"station_id":"ce4bhr12rcd13ifvqhqg","pricing_plan_id":"cebpf4jnsgd1na2vs0mg"},{"bike_id":"1504a7b4-3c2b-41cd-85cd-57aa88641e7e","system_id":"levelo_inurba_marseille","lat":43.29677,"lon":5.36581,"is_reserved":false,"is_disabled":true,"rental_uris":{"android":"levelo://app?vid=1504a7b4-3c2b-41cd-85cd-57aa88641e7e","ios":"levelo://app?vid=1504a7b4-3c2b-41cd-85cd-57aa88641e7e"},"vehicle_type_id":"4","last_reported":1745600955,"current_range_meters":20400,"station_id":"ce4bgn12rcd13ifvqbt0","pricing_plan_id":"cebpf4jnsgd1na2vs0mg"},{"bike_id":"a887dcb7-5287-4127-a92d-79b6018d203a","system_id":"levelo_inurba_marseille","lat":43.30328,"lon":5.4045,"is_reserved":false,"is_disabled":false,"rental_uris":{"android":"levelo://app?vid=a887dcb7-5287-4127-a92d-79b6018d203a","ios":"levelo://app?vid=a887dcb7-5287-4127-a92d-79b6018d203a"},"vehicle_type_id":"4","last_reported":1745600955,"current_range_meters":20400,"station_id":"ce4bh012rcd13ifvqd10","pricing_plan_id":"cebpf4jnsgd1na2vs0mg"},{"bike_id":"faa8334f-d698-4b2b-8f65-d27f28dd59cc","system_id":"levelo_inurba_marseille","lat":43.33721,"lon":5.39188,"is_reserved":false,"is_disabled":false,"rental_uris":{"android":"levelo://app?vid=faa8334f-d698-4b2b-8f65-d27f28dd59cc","ios":"levelo://app?vid=faa8334f-d698-4b2b-8f65-d27f28dd59cc"},"vehicle_type_id":"4","last_reported":1745600955,"current_range_meters":20400,"station_id":"ce4bhr92rcd13ifvqhsg","pricing_plan_id":"cebpf4jnsgd1na2vs0mg"},{"bike_id":"7f5175ff-8aff-42c6-84da-341c9bd93c63","system_id":"levelo_inurba_marseille","lat":43.26491,"lon":5.3954,"is_reserved":false,"is_disabled":false,"rental_uris":{"android":"levelo://app?vid=7f5175ff-8aff-42c6-84da-341c9bd93c63","ios":"levelo://app?vid=7f5175ff-8aff-42c6-84da-341c9bd93c63"},"vehicle_type_id":"4","last_reported":1745600955,"current_range_meters":20400,"station_id":"ce4bhi12rcd13ifvqfq0","pricing_plan_id":"cebpf4jnsgd1na2vs0mg"},{"bike_id":"99c56d61-0100-4d52-9b43-897527fbe05d","system_id":"levelo_inurba_marseille","lat":43.30146,"lon":5.38073,"is_reserved":false,"is_disabled":false,"rental_uris":{"android":"levelo://app?vid=99c56d61-0100-4d52-9b43-897527fbe05d","ios":"levelo://app?vid=99c56d61-0100-4d52-9b43-897527fbe05d"},"vehicle_type_id":"4","last_reported":1745600955,"current_range_meters":21600,"station_id":"ce4bgjp2rcd13ifvqbh0","pricing_plan_id":"cebpf4jnsgd1na2vs0mg"},{"bike_id":"0ec95e57-e866-45d9-9839-0feb74f439bc","system_id":"levelo_inurba_marseille","lat":43.28701,"lon":5.37388,"is_reserved":false,"is_disabled":false,"rental_uris":{"android":"levelo://app?vid=0ec95e57-e866-45d9-9839-0feb74f439bc","ios":"levelo://app?vid=0ec95e57-e866-45d9-9839-0feb74f439bc"},"vehicle_type_id":"4","last_reported":1745600955,"current_range_meters":21600,"station_id":"ce4bh3p2rcd13ifvqdq0","pricing_plan_id":"cebpf4jnsgd1na2vs0mg"},{"bike_id":"db7c95e7-571a-49c7-9c07-b016c4e7740e","system_id":"levelo_inurba_marseille","lat":43.29528,"lon":5.38545,"is_reserved":false,"is_disabled":false,"rental_uris":{"android":"levelo://app?vid=db7c95e7-571a-49c7-9c07-b016c4e7740e","ios":"levelo://app?vid=db7c95e7-571a-49c7-9c07-b016c4e7740e"},"vehicle_type_id":"4","last_reported":1745600955,"current_range_meters":21600,"station_id":"ce4bgih2rcd13ifvqba0","pricing_plan_id":"cebpf4jnsgd1na2vs0mg"},{"bike_id":"90247d6f-8643-4375-a65e-e049ac76ef9d","system_id":"levelo_inurba_marseille","lat":43.29533,"lon":5.38542,"is_reserved":false,"is_disabled":false,"rental_uris":{"android":"levelo://app?vid=90247d6f-8643-4375-a65e-e049ac76ef9d","ios":"levelo://app?vid=90247d6f-8643-4375-a65e-e049ac76ef9d"},"vehicle_type_id":"4","last_reported":1745600955,"current_range_meters":21600,"station_id":"ce4bgih2rcd13ifvqba0","pricing_plan_id":"cebpf4jnsgd1na2vs0mg"},{"bike_id":"532fd114-81e4-4dce-8f26-7eaf1d8121c9","system_id":"levelo_inurba_marseille","lat":43.28618,"lon":5.35099,"is_reserved":false,"is_disabled":false,"rental_uris":{"android":"levelo://app?vid=532fd114-81e4-4dce-8f26-7eaf1d8121c9","ios":"levelo://app?vid=532fd114-81e4-4dce-8f26-7eaf1d8121c9"},"vehicle_type_id":"4","last_reported":1745600955,"current_range_meters":21600,"station_id":"ce4bhch2rcd13ifvqeug","pricing_plan_id":"cebpf4jnsgd1na2vs0mg"},{"bike_id":"c593f301-43d5-44af-8148-f477da1ee554","system_id":"levelo_inurba_marseille","lat":43.26808,"lon":5.40277,"is_reserved":false,"is_disabled":false,"rental_uris":{"android":"levelo://app?vid=c593f301-43d5-44af-8148-f477da1ee554","ios":"levelo://app?vid=c593f301-43d5-44af-8148-f477da1ee554"},"vehicle_type_id":"4","last_reported":1745600955,"current_range_meters":21600,"station_id":"ce501612rcd8frsf0b60","pricing_plan_id":"cebpf4jnsgd1na2vs0mg"},{"bike_id":"d32903dc-3d7a-49e7-bb89-2c0d599f3766","system_id":"levelo_inurba_marseille","lat":43.29304,"lon":5.37167,"is_reserved":false,"is_disabled":true,"rental_uris":{"android":"levelo://app?vid=d32903dc-3d7a-49e7-bb89-2c0d599f3766","ios":"levelo://app?vid=d32903dc-3d7a-49e7-bb89-2c0d599f3766"},"vehicle_type_id":"4","last_reported":1745600955,"current_range_meters":21600,"station_id":"ce4bgh92rcd13ifvqb40","pricing_plan_id":"cebpf4jnsgd1na2vs0mg"},{"bike_id":"e10849ab-f14c-42eb-bf35-8ad4ea47ec28","system_id":"levelo_inurba_marseille","lat":43.30322,"lon":5.40422,"is_reserved":false,"is_disabled":true,"rental_uris":{"android":"levelo://app?vid=e10849ab-f14c-42eb-bf35-8ad4ea47ec28","ios":"levelo://app?vid=e10849ab-f14c-42eb-bf35-8ad4ea47ec28"},"vehicle_type_id":"4","last_reported":1745600955,"current_range_meters":22000,"station_id":"ce4bh012rcd13ifvqd10","pricing_plan_id":"cebpf4jnsgd1na2vs0mg"},{"bike_id":"b64aa273-5cc3-449e-ba92-14833edf0136","system_id":"levelo_inurba_marseille","lat":43.30904,"lon":5.39653,"is_reserved":false,"is_disabled":true,"rental_uris":{"android":"levelo://app?vid=b64aa273-5cc3-449e-ba92-14833edf0136","ios":"levelo://app?vid=b64aa273-5cc3-449e-ba92-14833edf0136"},"vehicle_type_id":"4","last_reported":1745600955,"current_range_meters":22000,"station_id":"ce4bh012rcd13ifvqcv0","pricing_plan_id":"cebpf4jnsgd1na2vs0mg"},{"bike_id":"586a9560-e195-49db-87da-295974d8b67a","system_id":"levelo_inurba_marseille","lat":43.29312,"lon":5.3718,"is_reserved":false,"is_disabled":true,"rental_uris":{"android":"levelo://app?vid=586a9560-e195-49db-87da-295974d8b67a","ios":"levelo://app?vid=586a9560-e195-49db-87da-295974d8b67a"},"vehicle_type_id":"4","last_reported":1745600955,"current_range_meters":22000,"station_id":"ce4bgh92rcd13ifvqb40","pricing_plan_id":"cebpf4jnsgd1na2vs0mg"},{"bike_id":"1aecb737-cd5a-47ef-80e8-bed7d832e9a3","system_id":"levelo_inurba_marseille","lat":43.29039,"lon":5.39965,"is_reserved":false,"is_disabled":false,"rental_uris":{"android":"levelo://app?vid=1aecb737-cd5a-47ef-80e8-bed7d832e9a3","ios":"levelo://app?vid=1aecb737-cd5a-47ef-80e8-bed7d832e9a3"},"vehicle_type_id":"4","last_reported":1745600955,"current_range_meters":22000,"station_id":"ce4bh392rcd13ifvqdm0","pricing_plan_id":"cebpf4jnsgd1na2vs0mg"},{"bike_id":"334476ee-3350-4a3c-b1da-bc82cdf6dcf4","system_id":"levelo_inurba_marseille","lat":43.28841,"lon":5.35866,"is_reserved":false,"is_disabled":false,"rental_uris":{"android":"levelo://app?vid=334476ee-3350-4a3c-b1da-bc82cdf6dcf4","ios":"levelo://app?vid=334476ee-3350-4a3c-b1da-bc82cdf6dcf4"},"vehicle_type_id":"4","last_reported":1745600955,"current_range_meters":22000,"station_id":"ce4bhb12rcd13ifvqem0","pricing_plan_id":"cebpf4jnsgd1na2vs0mg"},{"bike_id":"abca1288-ae9a-4a2e-a1f9-c37cd8c1116e","system_id":"levelo_inurba_marseille","lat":43.23191,"lon":5.39984,"is_reserved":false,"is_disabled":false,"rental_uris":{"android":"levelo://app?vid=abca1288-ae9a-4a2e-a1f9-c37cd8c1116e","ios":"levelo://app?vid=abca1288-ae9a-4a2e-a1f9-c37cd8c1116e"},"vehicle_type_id":"4","last_reported":1745600955,"current_range_meters":22000,"station_id":"ce4bhn12rcd13ifvqgqg","pricing_plan_id":"cebpf4jnsgd1na2vs0mg"},{"bike_id":"ba214147-0dba-42c5-9433-0b141b650bc3","system_id":"levelo_inurba_marseille","lat":43.23187,"lon":5.39982,"is_reserved":false,"is_disabled":false,"rental_uris":{"android":"levelo://app?vid=ba214147-0dba-42c5-9433-0b141b650bc3","ios":"levelo://app?vid=ba214147-0dba-42c5-9433-0b141b650bc3"},"vehicle_type_id":"4","last_reported":1745600955,"current_range_meters":22000,"station_id":"ce4bhn12rcd13ifvqgqg","pricing_plan_id":"cebpf4jnsgd1na2vs0mg"},{"bike_id":"af566126-295a-40c9-ae35-23cc2a7d5182","system_id":"levelo_inurba_marseille","lat":43.29874,"lon":5.38911,"is_reserved":false,"is_disabled":false,"rental_uris":{"android":"levelo://app?vid=af566126-295a-40c9-ae35-23cc2a7d5182","ios":"levelo://app?vid=af566126-295a-40c9-ae35-23cc2a7d5182"},"vehicle_type_id":"4","last_reported":1745600955,"current_range_meters":22400,"station_id":"ce4bh392rcd13ifvqdl0","pricing_plan_id":"cebpf4jnsgd1na2vs0mg"},{"bike_id":"d7b060d2-8295-4d56-ac10-48170628df85","system_id":"levelo_inurba_marseille","lat":43.297115,"lon":5.373501,"is_reserved":false,"is_disabled":false,"rental_uris":{"android":"levelo://app?vid=d7b060d2-8295-4d56-ac10-48170628df85","ios":"levelo://app?vid=d7b060d2-8295-4d56-ac10-48170628df85"},"vehicle_type_id":"4","last_reported":1745600955,"current_range_meters":22400,"station_id":"ce4bgqh2rcd13ifvqc5g","pricing_plan_id":"cebpf4jnsgd1na2vs0mg"},{"bike_id":"2659a14a-e913-4c7e-8c3c-218c155b9776","system_id":"levelo_inurba_marseille","lat":43.25084,"lon":5.39524,"is_reserved":false,"is_disabled":false,"rental_uris":{"android":"levelo://app?vid=2659a14a-e913-4c7e-8c3c-218c155b9776","ios":"levelo://app?vid=2659a14a-e913-4c7e-8c3c-218c155b9776"},"vehicle_type_id":"4","last_reported":1745600955,"current_range_meters":22400,"station_id":"ce4bhm12rcd13ifvqgkg","pricing_plan_id":"cebpf4jnsgd1na2vs0mg"},{"bike_id":"e31f550b-9aba-404d-b7da-bb67b4a1300e","system_id":"levelo_inurba_marseille","lat":43.262177,"lon":5.379159,"is_reserved":false,"is_disabled":false,"rental_uris":{"android":"levelo://app?vid=e31f550b-9aba-404d-b7da-bb67b4a1300e","ios":"levelo://app?vid=e31f550b-9aba-404d-b7da-bb67b4a1300e"},"vehicle_type_id":"4","last_reported":1745600955,"current_range_meters":22400,"station_id":"ce4bhjp2rcd13ifvqg90","pricing_plan_id":"cebpf4jnsgd1na2vs0mg"},{"bike_id":"8f08a329-316f-4d27-bf2f-8d20cccb8581","system_id":"levelo_inurba_marseille","lat":43.28945,"lon":5.36403,"is_reserved":false,"is_disabled":false,"rental_uris":{"android":"levelo://app?vid=8f08a329-316f-4d27-bf2f-8d20cccb8581","ios":"levelo://app?vid=8f08a329-316f-4d27-bf2f-8d20cccb8581"},"vehicle_type_id":"4","last_reported":1745600955,"current_range_meters":22800,"station_id":"ce4bhc92rcd13ifvqetg","pricing_plan_id":"cebpf4jnsgd1na2vs0mg"},