{"last_updated":1727363361,"ttl":60,"version":"2.2","data":{"bikes":[{"bike_id":"2f3efc0e-dc90-4c60-98eb-a6d5b154f6e0","system_id":"levelo_inurba_marseille","lat":43.29845,"lon":5.36262,"is_reserved":false,"is_disabled":false,"rental_uris":{"android":"levelo://app?vid=2f3efc0e-dc90-4c60-98eb-a6d5b154f6e0","ios":"levelo://app?vid=2f3efc0e-dc90-4c60-98eb-a6d5b154f6e0"},"vehicle_type_id":"4","last_reported":1727363361,"current_range_meters":38800,"station_id":"ce4bgpp2rcd13ifvqc3g","pricing_plan_id":"cebpf4jnsgd1na2vs0mg"},{"bike_id":"b171a8f7-3161-4746-b224-a078a9e1a932","system_id":"levelo_inurba_marseille","lat":43.29591,"lon":5.38094,"is_reserved":false,"is_disabled":false,"rental_uris":{"android":"levelo://app?vid=b171a8f7-3161-4746-b224-a078a9e1a932","ios":"levelo://app?vid=b171a8f7-3161-4746-b224-a078a9e1a932"},"vehicle_type_id":"4","last_reported":1727363361,"current_range_meters":33600,"station_id":"ce4bgl12rcd13ifvqbo0","pricing_plan_id":"cebpf4jnsgd1na2vs0mg"},{"bike_id":"6da83d68-cc2e-48d9-b7fc-6230c9f3f2dd","system_id":"levelo_inurba_marseille","lat":43.279,"lon":5.38014,"is_reserved":false,"is_disabled":false,"rental_uris":{"android":"levelo://app?vid=6da83d68-cc2e-48d9-b7fc-6230c9f3f2dd","ios":"levelo://app?vid=6da83d68-cc2e-48d9-b7fc-6230c9f3f2dd"},"vehicle_type_id":"4","last_reported":1727363361,"current_range_meters":11200,"station_id":"ce4bhf92rcd13ifvqf50","pricing_plan_id":"cebpf4jnsgd1na2vs0mg"},{"bike_id":"a9669d3a-c989-4bbf-988b-b787f6909497","system_id":"levelo_inurba_marseille","lat":43.32659,"lon":5.40978,"is_reserved":false,"is_disabled":false,"rental_uris":{"android":"levelo://app?vid=a9669d3a-c989-4bbf-988b-b787f6909497","ios":"levelo://app?vid=a9669d3a-c989-4bbf-988b-b787f6909497"},"vehicle_type_id":"4","last_reported":1727363361,"current_range_meters":38800,"station_id":"ce4bhpp2rcd13ifvqhgg","pricing_plan_id":"cebpf4jnsgd1na2vs0mg"},{"bike_id":"b2d736cc-c34c-4c3b-8b0b-44c1161d8284","system_id":"levelo_inurba_marseille","lat":43.29527,"lon":5.39044,"is_reserved":false,"is_disabled":false,"rental_uris":{"android":"levelo://app?vid=b2d736cc-c34c-4c3b-8b0b-44c1161d8284","ios":"levelo://app?vid=b2d736cc-c34c-4c3b-8b0b-44c1161d8284"},"vehicle_type_id":"4","last_reported":1727363361,"current_range_meters":28400,"station_id":"ce4bh3p2rcd13ifvqdp0","pricing_plan_id":"cebpf4jnsgd1na2vs0mg"},{"bike_id":"de566fec-c1ec-44e7-a0e9-074f5a4a0f57","system_id":"levelo_inurba_marseille","lat":43.3042,"lon":5.41277,"is_reserved":false,"is_disabled":false,"rental_uris":{"android":"levelo://app?vid=de566fec-c1ec-44e7-a0e9-074f5a4a0f57","ios":"levelo://app?vid=de566fec-c1ec-44e7-a0e9-074f5a4a0f57"},"vehicle_type_id":"4","last_reported":1727363361,"current_range_meters":28800,"station_id":"ce4bhop2rcd13ifvqh8g","pricing_plan_id":"cebpf4jnsgd1na2vs0mg"},{"bike_id":"deb6ccfb-7e32-46d8-9007-36116fcf0d5e","system_id":"levelo_inurba_marseille","lat":43.30542,"lon":5.36527,"is_reserved":false,"is_disabled":false,"rental_uris":{"android":"levelo://app?vid=deb6ccfb-7e32-46d8-9007-36116fcf0d5e","ios":"levelo://app?vid=deb6ccfb-7e32-46d8-9007-36116fcf0d5e"},"vehicle_type_id":"4","last_reported":1727363361,"current_range_meters":38800,"station_id":"ce4bgs12rcd13ifvqcag","pricing_plan_id":"cebpf4jnsgd1na2vs0mg"},{"bike_id":"5ed9e2b6-223d-494e-8ca1-5253b787f22e","system_id":"levelo_inurba_marseille","lat":43.30541,"lon":5.36528,"is_reserved":false,"is_disabled":false,"rental_uris":{"android":"levelo://app?vid=5ed9e2b6-223d-494e-8ca1-5253b787f22e","ios":"levelo://app?vid=5ed9e2b6-223d-494e-8ca1-5253b787f22e"},"vehicle_type_id":"4","last_reported":1727363361,"current_range_meters":38800,"station_id":"ce4bgs12rcd13ifvqcag","pricing_plan_id":"cebpf4jnsgd1na2vs0mg"},{"bike_id":"25feb3e7-6e4e-4df8-8302-5cfdcc5e12b1","system_id":"levelo_inurba_marseille","lat":43.27997,"lon":5.41656,"is_reserved":false,"is_disabled":false,"rental_uris":{"android":"levelo://app?vid=25feb3e7-6e4e-4df8-8302-5cfdcc5e12b1","ios":"levelo://app?vid=25feb3e7-6e4e-4df8-8302-5cfdcc5e12b1"},"vehicle_type_id":"4","last_reported":1727363361,"current_range_meters":28800,"station_id":"ce4bho12rcd13ifvqh1g","pricing_plan_id":"cebpf4jnsgd1na2vs0mg"},{"bike_id":"971a6cd9-7d8b-4ea0-a015-7c69aba55de2","system_id":"levelo_inurba_marseille","lat":43.31228,"lon":5.36861,"is_reserved":false,"is_disabled":false,"rental_uris":{"android":"levelo://app?vid=971a6cd9-7d8b-4ea0-a015-7c69aba55de2","ios":"levelo://app?vid=971a6cd9-7d8b-4ea0-a015-7c69aba55de2"},"vehicle_type_id":"4","last_reported":1727363361,"current_range_meters":8000,"station_id":"ce4bgl92rcd13ifvqbq0","pricing_plan_id":"cebpf4jnsgd1na2vs0mg"},{"bike_id":"7737b815-6daf-41f0-8354-4b28ba75917f","system_id":"levelo_inurba_marseille","lat":43.30191,"lon":5.39821,"is_reserved":false,"is_disabled":false,"rental_uris":{"android":"levelo://app?vid=7737b815-6daf-41f0-8354-4b28ba75917f","ios":"levelo://app?vid=7737b815-6daf-41f0-8354-4b28ba75917f"},"vehicle_type_id":"4","last_reported":1727363361,"current_range_meters":11200,"station_id":"ce4bgvp2rcd13ifvqct0","pricing_plan_id":"cebpf4jnsgd1na2vs0mg"},{"bike_id":"054324a5-47ce-418f-8dc7-fae3bd70c555","system_id":"levelo_inurba_marseille","lat":43.28266,"lon":5.35057,"is_reserved":false,"is_disabled":false,"rental_uris":{"android":"levelo://app?vid=054324a5-47ce-418f-8dc7-fae3bd70c555","ios":"levelo://app?vid=054324a5-47ce-418f-8dc7-fae3bd70c555"},"vehicle_type_id":"4","last_reported":1727363361,"current_range_meters":12800,"station_id":"ce4bhbp2rcd13ifvqerg","pricing_plan_id":"cebpf4jnsgd1na2vs0mg"},{"bike_id":"5f02ca69-586f-4396-9c77-c1f61d451bee","system_id":"levelo_inurba_marseille","lat":43.312714,"lon":5.401741,"is_reserved":false,"is_disabled":false,"rental_uris":{"android":"levelo://app?vid=5f02ca69-586f-4396-9c77-c1f61d451bee","ios":"levelo://app?vid=5f02ca69-586f-4396-9c77-c1f61d451bee"},"vehicle_type_id":"4","last_reported":1727363361,"current_range_meters":4400,"station_id":"ce4bh392rcd13ifvqdm0","pricing_plan_id":"cebpf4jnsgd1na2vs0mg"},{"bike_id":"b6daf4df-7c90-4c5e-b397-06a87d15013f","system_id":"levelo_inurba_marseille","lat":43.33752,"lon":5.37361,"is_reserved":false,"is_disabled":false,"rental_uris":{"android":"levelo://app?vid=b6daf4df-7c90-4c5e-b397-06a87d15013f","ios":"levelo://app?vid=b6daf4df-7c90-4c5e-b397-06a87d15013f"},"vehicle_type_id":"4","last_reported":1727363361,"current_range_meters":30800,"station_id":"","pricing_plan_id":"cebpf4jnsgd1na2vs0mg"},{"bike_id":"3edd9b76-7722-41b9-92f4-d56e26ea17a6","system_id":"levelo_inurba_marseille","lat":43.27995,"lon":5.40008,"is_reserved":false,"is_disabled":false,"rental_uris":{"android":"levelo://app?vid=3edd9b76-7722-41b9-92f4-d56e26ea17a6","ios":"levelo://app?vid=3edd9b76-7722-41b9-92f4-d56e26ea17a6"},"vehicle_type_id":"4","last_reported":1727363361,"current_range_meters":38800,"station_id":"ce4bho92rcd13ifvqh4g","pricing_plan_id":"cebpf4jnsgd1na2vs0mg"},{"bike_id":"289c9d96-eb99-4235-bc28-477f33f8c391","system_id":"levelo_inurba_marseille","lat":43.31712,"lon":5.43705,"is_reserved":false,"is_disabled":false,"rental_uris":{"android":"levelo://app?vid=289c9d96-eb99-4235-bc28-477f33f8c391","ios":"levelo://app?vid=289c9d96-eb99-4235-bc28-477f33f8c391"},"vehicle_type_id":"4","last_reported":1727363361,"current_range_meters":16400,"station_id":"ce4bhp92rcd13ifvqhcg","pricing_plan_id":"cebpf4jnsgd1na2vs0mg"},{"bike_id":"e3c5fbbf-73cf-4f2d-b2d6-f67ffdb80c53","system_id":"levelo_inurba_marseille","lat":43.33025,"lon":5.39031,"is_reserved":false,"is_disabled":false,"rental_uris":{"android":"levelo://app?vid=e3c5fbbf-73cf-4f2d-b2d6-f67ffdb80c53","ios":"levelo://app?vid=e3c5fbbf-73cf-4f2d-b2d6-f67ffdb80c53"},"vehicle_type_id":"4","last_reported":1727363361,"current_range_meters":28800,"station_id":"ce4bhr92rcd13ifvqhrg","pricing_plan_id":"cebpf4jnsgd1na2vs0mg"},{"bike_id":"920a992c-b9bd-467d-8738-97c73c4e43f7","system_id":"levelo_inurba_marseille","lat":43.31223,"lon":5.3686,"is_reserved":false,"is_disabled":false,"rental_uris":{"android":"levelo://app?vid=920a992c-b9bd-467d-8738-97c73c4e43f7","ios":"levelo://app?vid=920a992c-b9bd-467d-8738-97c73c4e43f7"},"vehicle_type_id":"4","last_reported":1727363361,"current_range_meters":38800,"station_id":"ce4bgl92rcd13ifvqbq0","pricing_plan_id":"cebpf4jnsgd1na2vs0mg"},{"bike_id":"57bc1e84-e83e-4198-85b5-3e7f9c3f0b0b","system_id":"levelo_inurba_marseille","lat":43.24167,"lon":5.36392,"is_reserved":false,"is_disabled":false,"rental_uris":{"android":"levelo://app?vid=57bc1e84-e83e-4198-85b5-3e7f9c3f0b0b","ios":"levelo://app?vid=57bc1e84-e83e-4198-85b5-3e7f9c3f0b0b"},"vehicle_type_id":"4","last_reported":1727363361,"current_range_meters":27600,"station_id":"cpo36qri1sfpv3e86is0","pricing_plan_id":"cebpf4jnsgd1na2vs0mg"},{"bike_id":"7a8458d5-44ac-4f2e-abef-3f01eb31f7ca","system_id":"levelo_inurba_marseille","lat":43.337444,"lon":5.374475,"is_reserved":false,"is_disabled":false,"rental_uris":{"android":"levelo://app?vid=7a8458d5-44ac-4f2e-abef-3f01eb31f7ca","ios":"levelo://app?vid=7a8458d5-44ac-4f2e-abef-3f01eb31f7ca"},"vehicle_type_id":"4","last_reported":1727363361,"current_range_meters":20400,"station_id":"","pricing_plan_id":"cebpf4jnsgd1na2vs0mg"},{"bike_id":"245322ad-98ce-4a03-920e-f8861ea4255a","system_id":"levelo_inurba_marseille","lat":43.23067,"lon":5.35491,"is_reserved":false,"is_disabled":false,"rental_uris":{"android":"levelo://app?vid=245322ad-98ce-4a03-920e-f8861ea4255a","ios":"levelo://app?vid=245322ad-98ce-4a03-920e-f8861ea4255a"},"vehicle_type_id":"4","last_reported":1727363361,"current_range_meters":6000,"station_id":"cpo3342slgdg3j2ifvpg","pricing_plan_id":"cebpf4jnsgd1na2vs0mg"},{"bike_id":"923c31b4-f0ab-48f7-8acd-51eb2e2b6f81","system_id":"levelo_inurba_marseille","lat":43.30251,"lon":5.40028,"is_reserved":false,"is_disabled":false,"rental_uris":{"android":"levelo://app?vid=923c31b4-f0ab-48f7-8acd-51eb2e2b6f81","ios":"levelo://app?vid=923c31b4-f0ab-48f7-8acd-51eb2e2b6f81"},"vehicle_type_id":"4","last_reported":1727363361,"current_range_meters":20000,"station_id":"ce4bgvh2rcd13ifvqcs0","pricing_plan_id":"cebpf4jnsgd1na2vs0mg"},{"bike_id":"d59b21f0-7bec-4115-9189-e54b54589187","system_id":"levelo_inurba_marseille","lat":43.31705,"lon":5.37747,"is_reserved":false,"is_disabled":false,"rental_uris":{"android":"levelo://app?vid=d59b21f0-7bec-4115-9189-e54b54589187","ios":"levelo://app?vid=d59b21f0-7bec-4115-9189-e54b54589187"},"vehicle_type_id":"4","last_reported":1727363361,"current_range_meters":9200,"station_id":"ce4bgth2rcd13ifvqch0","pricing_plan_id":"cebpf4jnsgd1na2vs0mg"},{"bike_id":"0ff4805d-5eb0-413d-9fd8-adffbbf2ce16","system_id":"levelo_inurba_marseille","lat":43.29851,"lon":5.36277,"is_reserved":false,"is_disabled":false,"rental_uris":{"android":"levelo://app?vid=0ff4805d-5eb0-413d-9fd8-adffbbf2ce16","ios":"levelo://app?vid=0ff4805d-5eb0-413d-9fd8-adffbbf2ce16"},"vehicle_type_id":"4","last_reported":1727363361,"current_range_meters":38800,"station_id":"ce4bgpp2rcd13ifvqc3g","pricing_plan_id":"cebpf4jnsgd1na2vs0mg"},{"bike_id":"4905ea4a-99c2-4591-8874-f5f42b9d2591","system_id":"levelo_inurba_marseille","lat":43.30534,"lon":5.36532,"is_reserved":false,"is_disabled":false,"rental_uris":{"android":"levelo://app?vid=4905ea4a-99c2-4591-8874-f5f42b9d2591","ios":"levelo://app?vid=4905ea4a-99c2-4591-8874-f5f42b9d2591"},"vehicle_type_id":"4","last_reported":1727363361,"current_range_meters":21600,"station_id":"ce4bgs12rcd13ifvqcag","pricing_plan_id":"cebpf4jnsgd1na2vs0mg"},{"bike_id":"8d17f10b-cb18-4a62-9a7c-043318106e2d","system_id":"levelo_inurba_marseille","lat":43.30224,"lon":5.36639,"is_reserved":false,"is_disabled":false,"rental_uris":{"android":"levelo://app?vid=8d17f10b-cb18-4a62-9a7c-043318106e2d","ios":"levelo://app?vid=8d17f10b-cb18-4a62-9a7c-043318106e2d"},"vehicle_type_id":"4","last_reported":1727363361,"current_range_meters":7200,"station_id":"ce4bgrh2rcd13ifvqc8g","pricing_plan_id":"cebpf4jnsgd1na2vs0mg"},{"bike_id":"246ce280-4dc5-4111-9a0a-827981169348","system_id":"levelo_inurba_marseille","lat":43.29868,"lon":5.39728,"is_reserved":false,"is_disabled":false,"rental_uris":{"android":"levelo://app?vid=246ce280-4dc5-4111-9a0a-827981169348","ios":"levelo://app?vid=246ce280-4dc5-4111-9a0a-827981169348"},"vehicle_type_id":"4","last_reported":1727363361,"current_range_meters":26000,"station_id":"ce4bh0h2rcd13ifvqd50","pricing_plan_id":"cebpf4jnsgd1na2vs0mg"},{"bike_id":"48f1249b-5560-4315-be6c-3e4548da6f2c","system_id":"levelo_inurba_marseille","lat":43.27996,"lon":5.41664,"is_reserved":false,"is_disabled":false,"rental_uris":{"android":"levelo://app?vid=48f1249b-5560-4315-be6c-3e4548da6f2c","ios":"levelo://app?vid=48f1249b-5560-4315-be6c-3e4548da6f2c"},"vehicle_type_id":"4","last_reported":1727363361,"current_range_meters":2000,"station_id":"ce4bho12rcd13ifvqh1g","pricing_plan_id":"cebpf4jnsgd1na2vs0mg"},{"bike_id":"097c6598-9463-4969-9cb9-e6db1899af49","system_id":"levelo_inurba_marseille","lat":43.25873,"lon":5.39899,"is_reserved":false,"is_disabled":false,"rental_uris":{"android":"levelo://app?vid=097c6598-9463-4969-9cb9-e6db1899af49","ios":"levelo://app?vid=097c6598-9463-4969-9cb9-e6db1899af49"},"vehicle_type_id":"4","last_reported":1727363361,"current_range_meters":38800,"station_id":"ce4bhl92rcd13ifvqghg","pricing_plan_id":"cebpf4jnsgd1na2vs0mg"},{"bike_id":"2c7b29c2-9d7b-4b41-9984-9f52d66d2d6b","system_id":"levelo_inurba_marseille","lat":43.29875,"lon":5.39736,"is_reserved":false,"is_disabled":false,"rental_uris":{"android":"levelo://app?vid=2c7b29c2-9d7b-4b41-9984-9f52d66d2d6b","ios":"levelo://app?vid=2c7b29c2-9d7b-4b41-9984-9f52d66d2d6b"},"vehicle_type_id":"4","last_reported":1727363361,"current_range_meters":21600,"station_id":"ce4bh0h2rcd13ifvqd50","pricing_plan_id":"cebpf4jnsgd1na2vs0mg"},{"bike_id":"e0321300-37ad-4bce-a17c-4bf73cb9114f","system_id":"levelo_inurba_marseille","lat":43.29898,"lon":5.43658,"is_reserved":false,"is_disabled":false,"rental_uris":{"android":"levelo://app?vid=e0321300-37ad-4bce-a17c-4bf73cb9114f","ios":"levelo://app?vid=e0321300-37ad-4bce-a17c-4bf73cb9114f"},"vehicle_type_id":"4","last_reported":1727363361,"current_range_meters":34800,"station_id":"ce4bhpp2rcd13ifvqhfg","pricing_plan_id":"cebpf4jnsgd1na2vs0mg"},{"bike_id":"fb8dbcb4-f3ca-4dc2-8469-db6b421828f0","system_id":"levelo_inurba_marseille","lat":43.30553,"lon":5.36704,"is_reserved":false,"is_disabled":false,"rental_uris":{"android":"levelo://app?vid=fb8dbcb4-f3ca-4dc2-8469-db6b421828f0","ios":"levelo://app?vid=fb8dbcb4-f3ca-4dc2-8469-db6b421828f0"},"vehicle_type_id":"4","last_reported":1727363361,"current_range_meters":30000,"station_id":"ce4bgrp2rcd13ifvqc9g","pricing_plan_id":"cebpf4jnsgd1na2vs0mg"},{"bike_id":"8a66d306-b409-4697-a87b-511736d17e37","system_id":"levelo_inurba_marseille","lat":43.2582,"lon":5.3943,"is_reserved":false,"is_disabled":false,"rental_uris":{"android":"levelo://app?vid=8a66d306-b409-4697-a87b-511736d17e37","ios":"levelo://app?vid=8a66d306-b409-4697-a87b-511736d17e37"},"vehicle_type_id":"4","last_reported":1727363361,"current_range_meters":20000,"station_id":"ce4bhip2rcd13ifvqft0","pricing_plan_id":"cebpf4jnsgd1na2vs0mg"},{"bike_id":"6940c29a-00d5-485e-8acd-fd1f5c7be4e5","system_id":"levelo_inurba_marseille","lat":43.29784,"lon":5.37095,"is_reserved":false,"is_disabled":false,"rental_uris":{"android":"levelo://app?vid=6940c29a-00d5-485e-8acd-fd1f5c7be4e5","ios":"levelo://app?vid=6940c29a-00d5-485e-8acd-fd1f5c7be4e5"},"vehicle_type_id":"4","last_reported":1727363361,"current_range_meters":24800,"station_id":"ce4bgop2rcd13ifvqc1g","pricing_plan_id":"cebpf4jnsgd1na2vs0mg"},{"bike_id":"79a05bb1-ccec-47f0-8ebd-1f95854549f8","system_id":"levelo_inurba_marseille","lat":43.31282,"lon":5.380327,"is_reserved":false,"is_disabled":false,"rental_uris":{"android":"levelo://app?vid=79a05bb1-ccec-47f0-8ebd-1f95854549f8","ios":"levelo://app?vid=79a05bb1-ccec-47f0-8ebd-1f95854549f8"},"vehicle_type_id":"4","last_reported":1727363361,"current_range_meters":6800,"station_id":"","pricing_plan_id":"cebpf4jnsgd1na2vs0mg"},{"bike_id":"ca773917-fd3d-491c-a782-60d4807ce677","system_id":"levelo_inurba_marseille","lat":43.25004,"lon":5.3891,"is_reserved":false,"is_disabled":false,"rental_uris":{"android":"levelo://app?vid=ca773917-fd3d-491c-a782-60d4807ce677","ios":"levelo://app?vid=ca773917-fd3d-491c-a782-60d4807ce677"},"vehicle_type_id":"4","last_reported":1727363361,"current_range_meters":19200,"station_id":"ce4bhgp2rcd13ifvqfd0","pricing_plan_id":"cebpf4jnsgd1na2vs0mg"},{"bike_id":"bad58605-6169-4afb-82e8-2b212e1f3fba","system_id":"levelo_inurba_marseille","lat":43.27814,"lon":5.4071,"is_reserved":false,"is_disabled":false,"rental_uris":{"android":"levelo://app?vid=bad58605-6169-4afb-82e8-2b212e1f3fba","ios":"levelo://app?vid=bad58605-6169-4afb-82e8-2b212e1f3fba"},"vehicle_type_id":"4","last_reported":1727363361,"current_range_meters":12800,"station_id":"ce4bhnh2rcd13ifvqgtg","pricing_plan_id":"cebpf4jnsgd1na2vs0mg"},{"bike_id":"89e7dedb-87b3-4227-a9f3-f889cd8070d6","system_id":"levelo_inurba_marseille","lat":43.29641,"lon":5.38022,"is_reserved":false,"is_disabled":false,"rental_uris":{"android":"levelo://app?vid=89e7dedb-87b3-4227-a9f3-f889cd8070d6","ios":"levelo://app?vid=89e7dedb-87b3-4227-a9f3-f889cd8070d6"},"vehicle_type_id":"4","last_reported":1727363361,"current_range_meters":38000,"station_id":"","pricing_plan_id":"cebpf4jnsgd1na2vs0mg"},{"bike_id":"825dd3c1-923c-41c8-bf28-5f5e8f4efb8a","system_id":"levelo_inurba_marseille","lat":43.284424,"lon":5.358549,"is_reserved":false,"is_disabled":false,"rental_uris":{"android":"levelo://app?vid=825dd3c1-923c-41c8-bf28-5f5e8f4efb8a","ios":"levelo://app?vid=825dd3c1-923c-41c8-bf28-5f5e8f4efb8a"},"vehicle_type_id":"4","last_reported":1727363361,"current_range_meters":31200,"station_id":"ce4bhah2rcd13ifvqei0","pricing_plan_id":"cebpf4jnsgd1na2vs0mg"},{"bike_id":"6c140d31-369a-421b-9908-5ae1a45aa6ba","system_id":"levelo_inurba_marseille","lat":43.30256,"lon":5.40083,"is_reserved":false,"is_disabled":false,"rental_uris":{"android":"levelo://app?vid=6c140d31-369a-421b-9908-5ae1a45aa6ba","ios":"levelo://app?vid=6c140d31-369a-421b-9908-5ae1a45aa6ba"},"vehicle_type_id":"4","last_reported":1727363361,"current_range_meters":32800,"station_id":"ce4bgvh2rcd13ifvqcs0","pricing_plan_id":"cebpf4jnsgd1na2vs0mg"},{"bike_id":"ba477672-d3a2-4048-accf-b9e924a53dec","system_id":"levelo_inurba_marseille","lat":43.24391,"lon":5.3705,"is_reserved":false,"is_disabled":false,"rental_uris":{"android":"levelo://app?vid=ba477672-d3a2-4048-accf-b9e924a53dec","ios":"levelo://app?vid=ba477672-d3a2-4048-accf-b9e924a53dec"},"vehicle_type_id":"4","last_reported":1727363361,"current_range_meters":38800,"station_id":"ce4bhhh2rcd13ifvqfk0","pricing_plan_id":"cebpf4jnsgd1na2vs0mg"},{"bike_id":"0f9ce742-99d0-4325-811d-31e150165bcd","system_id":"levelo_inurba_marseille","lat":43.29551,"lon":5.4229,"is_reserved":false,"is_disabled":false,"rental_uris":{"android":"levelo://app?vid=0f9ce742-99d0-4325-811d-31e150165bcd","ios":"levelo://app?vid=0f9ce742-99d0-4325-811d-31e150165bcd"},"vehicle_type_id":"4","last_reported":1727363361,"current_range_meters":8800,"station_id":"ce4bhph2rcd13ifvqhdg","pricing_plan_id":"cebpf4jnsgd1na2vs0mg"},{"bike_id":"d282e7b5-14a3-4313-b024-72bd786979f5","system_id":"levelo_inurba_marseille","lat":43.32368,"lon":5.38885,"is_reserved":false,"is_disabled":false,"rental_uris":{"android":"levelo://app?vid=d282e7b5-14a3-4313-b024-72bd786979f5","ios":"levelo://app?vid=d282e7b5-14a3-4313-b024-72bd786979f5"},"vehicle_type_id":"4","last_reported":1727363361,"current_range_meters":15200,"station_id":"ce4bhqp2rcd13ifvqhog","pricing_plan_id":"cebpf4jnsgd1na2vs0mg"},{"bike_id":"f3bf7448-e739-4978-bd33-4a56cc415f41","system_id":"levelo_inurba_marseille","lat":43.32632,"lon":5.37536,"is_reserved":false,"is_disabled":false,"rental_uris":{"android":"levelo://app?vid=f3bf7448-e739-4978-bd33-4a56cc415f41","ios":"levelo://app?vid=f3bf7448-e739-4978-bd33-4a56cc415f41"},"vehicle_type_id":"4","last_reported":1727363361,"current_range_meters":24400,"station_id":"","pricing_plan_id":"cebpf4jnsgd1na2vs0mg"},{"bike_id":"b242579e-a203-40b2-97f3-679950ed6d31","system_id":"levelo_inurba_marseille","lat":43.27619,"lon":5.36099,"is_reserved":false,"is_disabled":false,"rental_uris":{"android":"levelo://app?vid=b242579e-a203-40b2-97f3-679950ed6d31","ios":"levelo://app?vid=b242579e-a203-40b2-97f3-679950ed6d31"},"vehicle_type_id":"4","last_reported":1727363361,"current_range_meters":25600,"station_id":"ce4bhbp2rcd13ifvqerg","pricing_plan_id":"cebpf4jnsgd1na2vs0mg"},{"bike_id":"3a88c8b4-de16-4bac-9b89-e235c7a84981","system_id":"levelo_inurba_marseille","lat":43.27178,"lon":5.40996,"is_reserved":false,"is_disabled":false,"rental_uris":{"android":"levelo://app?vid=3a88c8b4-de16-4bac-9b89-e235c7a84981","ios":"levelo://app?vid=3a88c8b4-de16-4bac-9b89-e235c7a84981"},"vehicle_type_id":"4","last_reported":1727363361,"current_range_meters":35200,"station_id":"ce4bhl12rcd13ifvqgf0","pricing_plan_id":"cebpf4jnsgd1na2vs0mg"},{"bike_id":"793f896e-ad54-433e-a879-1145c5aae290","system_id":"levelo_inurba_marseille","lat":43.29871,"lon":5.39732,"is_reserved":false,"is_disabled":false,"rental_uris":{"android":"levelo://app?vid=793f896e-ad54-433e-a879-1145c5aae290","ios":"levelo://app?vid=793f896e-ad54-433e-a879-1145c5aae290"},"vehicle_type_id":"4","last_reported":1727363361,"current_range_meters":32400,"station_id":"ce4bh0h2rcd13ifvqd50","pricing_plan_id":"cebpf4jnsgd1na2vs0mg"},{"bike_id":"5325b546-be8c-45ee-8bcb-8af51028126d","system_id":"levelo_inurba_marseille","lat":43.3123,"lon":5.36861,"is_reserved":false,"is_disabled":false,"rental_uris":{"android":"levelo://app?vid=5325b546-be8c-45ee-8bcb-8af51028126d","ios":"levelo://app?vid=5325b546-be8c-45ee-8bcb-8af51028126d"},"vehicle_type_id":"4","last_reported":1727363361,"current_range_meters":38800,"station_id":"ce4bgl92rcd13ifvqbq0","pricing_plan_id":"cebpf4jnsgd1na2vs0mg"},{"bike_id":"2ad7e519-0fd7-41e8-8a0e-8a418ef3dadf","system_id":"levelo_inurba_marseille","lat":43.2417,"lon":5.3639,"is_reserved":false,"is_disabled":false,"rental_uris":{"android":"levelo://app?vid=2ad7e519-0fd7-41e8-8a0e-8a418ef3dadf","ios":"levelo://app?vid=2ad7e519-0fd7-41e8-8a0e-8a418ef3dadf"},"vehicle_type_id":"4","last_reported":1727363361,"current_range_meters":28400,"station_id":"cpo36qri1sfpv3e86is0","pricing_plan_id":"cebpf4jnsgd1na2vs0mg"},{"bike_id":"b0a5c5c8-b96f-4d5c-ad0a-9a4c9139d21f","system_id":"levelo_inurba_marseille","lat":43.29785,"lon":5.37108,"is_reserved":false,"is_disabled":false,"rental_uris":{"android":"levelo://app?vid=b0a5c5c8-b96f-4d5c-ad0a-9a4c9139d21f","ios":"levelo://app?vid=b0a5c5c8-b96f-4d5c-ad0a-9a4c9139d21f"},"vehicle_type_id":"4","last_reported":1727363361,"current_range_meters":18800,"station_id":"ce4bgop2rcd13ifvqc1g","pricing_plan_id":"cebpf4jnsgd1na2vs0mg"},{"bike_id":"10037d21-4327-4584-9a65-f53b8339892a","system_id":"levelo_inurba_marseille","lat":43.30553,"lon":5.36516,"is_reserved":false,"is_disabled":false,"rental_uris":{"android":"levelo://app?vid=10037d21-4327-4584-9a65-f53b8339892a","ios":"levelo://app?vid=10037d21-4327-4584-9a65-f53b8339892a"},"vehicle_type_id":"4","last_reported":1727363361,"current_range_meters":10000,"station_id":"ce4bgs12rcd13ifvqcag","pricing_plan_id":"cebpf4jnsgd1na2vs0mg"},{"bike_id":"078c0f4b-c9ff-4931-8ddb-9bd5d513ae3f","system_id":"levelo_inurba_marseille","lat":43.26564,"lon":5.39004,"is_reserved":false,"is_disabled":false,"rental_uris":{"android":"levelo://app?vid=078c0f4b-c9ff-4931-8ddb-9bd5d513ae3f","ios":"levelo://app?vid=078c0f4b-c9ff-4931-8ddb-9bd5d513ae3f"},"vehicle_type_id":"4","last_reported":1727363361,"current_range_meters":33600,"station_id":"ce4bhe12rcd13ifvqf30","pricing_plan_id":"cebpf4jnsgd1na2vs0mg"},{"bike_id":"ad5a4461-2b28-4f81-94de-e42bde49d6e2","system_id":"levelo_inurba_marseille","lat":43.28038,"lon":5.36942,"is_reserved":false,"is_disabled":false,"rental_uris":{"android":"levelo://app?vid=ad5a4461-2b28-4f81-94de-e42bde49d6e2","ios":"levelo://app?vid=ad5a4461-2b28-4f81-94de-e42bde49d6e2"},"vehicle_type_id":"4","last_reported":1727363361,"current_range_meters":4400,"station_id":"ce4bha12rcd13ifvqef0","pricing_plan_id":"cebpf4jnsgd1na2vs0mg"},{"bike_id":"8215196a-b4e4-4ea1-a6f1-ffa0c76a2b77","system_id":"levelo_inurba_marseille","lat":43.287,"lon":5.39991,"is_reserved":false,"is_disabled":false,"rental_uris":{"android":"levelo://app?vid=8215196a-b4e4-4ea1-a6f1-ffa0c76a2b77","ios":"levelo://app?vid=8215196a-b4e4-4ea1-a6f1-ffa0c76a2b77"},"vehicle_type_id":"4","last_reported":1727363361,"current_range_meters":3200,"station_id":"ce4bho92rcd13ifvqh3g","pricing_plan_id":"cebpf4jnsgd1na2vs0mg"},{"bike_id":"65b9fb8a-3e24-4a7f-9c20-639e8452a2dd","system_id":"levelo_inurba_marseille","lat":43.302902,"lon":5.399958,"is_reserved":false,"is_disabled":false,"rental_uris":{"android":"levelo://app?vid=65b9fb8a-3e24-4a7f-9c20-639e8452a2dd","ios":"levelo://app?vid=65b9fb8a-3e24-4a7f-9c20-639e8452a2dd"},"vehicle_type_id":"4","last_reported":1727363361,"current_range_meters":3600,"station_id":"ce4bgl12rcd13ifvqbo0","pricing_plan_id":"cebpf4jnsgd1na2vs0mg"},{"bike_id":"f5d2eb6d-471e-40ee-9f94-9e77722bdbe7","system_id":"levelo_inurba_marseille","lat":43.31528,"lon":5.3802,"is_reserved":false,"is_disabled":false,"rental_uris":{"android":"levelo://app?vid=f5d2eb6d-471e-40ee-9f94-9e77722bdbe7","ios":"levelo://app?vid=f5d2eb6d-471e-40ee-9f94-9e77722bdbe7"},"vehicle_type_id":"4","last_reported":1727363361,"current_range_meters":38800,"station_id":"ce4bhsp2rcd13ifvqi50","pricing_plan_id":"cebpf4jnsgd1na2vs0mg"},{"bike_id":"b097e812-cd0f-47bb-995a-69ea6fc293f1","system_id":"levelo_inurba_marseille","lat":43.27309,"lon":5.39075,"is_reserved":false,"is_disabled":false,"rental_uris":{"android":"levelo://app?vid=b097e812-cd0f-47bb-995a-69ea6fc293f1","ios":"levelo://app?vid=b097e812-cd0f-47bb-995a-69ea6fc293f1"},"vehicle_type_id":"4","last_reported":1727363361,"current_range_meters":24000,"station_id":"ce4bhgp2rcd13ifvqfe0","pricing_plan_id":"cebpf4jnsgd1na2vs0mg"},{"bike_id":"e913f89c-5a32-4587-bbfb-100a135d0350","system_id":"levelo_inurba_marseille","lat":43.30449,"lon":5.39312,"is_reserved":false,"is_disabled":false,"rental_uris":{"android":"levelo://app?vid=e913f89c-5a32-4587-bbfb-100a135d0350","ios":"levelo://app?vid=e913f89c-5a32-4587-bbfb-100a135d0350"},"vehicle_type_id":"4","last_reported":1727363361,"current_range_meters":22800,"station_id":"","pricing_plan_id":"cebpf4jnsgd1na2vs0mg"},{"bike_id":"21882b6a-01b5-4f28-8b65-e968f2062415","system_id":"levelo_inurba_marseille","lat":43.28461,"lon":5.35896,"is_reserved":false,"is_disabled":false,"rental_uris":{"android":"levelo://app?vid=21882b6a-01b5-4f28-8b65-e968f2062415","ios":"levelo://app?vid=21882b6a-01b5-4f28-8b65-e968f2062415"},"vehicle_type_id":"4","last_reported":1727363361,"current_range_meters":38000,"station_id":"ce4bhah2rcd13ifvqei0","pricing_plan_id":"cebpf4jnsgd1na2vs0mg"},{"bike_id":"668d0fcc-0834-4061-8622-da320ddaa1f7","system_id":"levelo_inurba_marseille","lat":43.26564,"lon":5.39002,"is_reserved":false,"is_disabled":false,"rental_uris":{"android":"levelo://app?vid=668d0fcc-0834-4061-8622-da320ddaa1f7","ios":"levelo://app?vid=668d0fcc-0834-4061-8622-da320ddaa1f7"},"vehicle_type_id":"4","last_reported":1727363361,"current_range_meters":3600,"station_id":"ce4bhe12rcd13ifvqf30","pricing_plan_id":"cebpf4jnsgd1na2vs0mg"},{"bike_id":"654a03d5-bec5-4071-80fc-43d4c7450086","system_id":"levelo_inurba_marseille","lat":43.28409,"lon":5.37504,"is_reserved":false,"is_disabled":false,"rental_uris":{"android":"levelo://app?vid=654a03d5-bec5-4071-80fc-43d4c7450086","ios":"levelo://app?vid=654a03d5-bec5-4071-80fc-43d4c7450086"},"vehicle_type_id":"4","last_reported":1727363361,"current_range_meters":32800,"station_id":"ce4bh412rcd13ifvqds0","pricing_plan_id":"cebpf4jnsgd1na2vs0mg"},{"bike_id":"7e5b969e-24a4-4e43-a0fa-8cacccc5b82a","system_id":"levelo_inurba_marseille","lat":43.29873,"lon":5.39732,"is_reserved":false,"is_disabled":false,"rental_uris":{"android":"levelo://app?vid=7e5b969e-24a4-4e43-a0fa-8cacccc5b82a","ios":"levelo://app?vid=7e5b969e-24a4-4e43-a0fa-8cacccc5b82a"},"vehicle_type_id":"4","last_reported":1727363361,"current_range_meters":10800,"station_id":"ce4bh0h2rcd13ifvqd50","pricing_plan_id":"cebpf4jnsgd1na2vs0mg"},{"bike_id":"59c8225e-8fca-45f4-8c44-cac2b5af246c","system_id":"levelo_inurba_marseille","lat":43.32476,"lon":5.36562,"is_reserved":false,"is_disabled":false,"rental_uris":{"android":"levelo://app?vid=59c8225e-8fca-45f4-8c44-cac2b5af246c","ios":"levelo://app?vid=59c8225e-8fca-45f4-8c44-cac2b5af246c"},"vehicle_type_id":"4","last_reported":1727363361,"current_range_meters":4400,"station_id":"ce4bhs12rcd13ifvqhvg","pricing_plan_id":"cebpf4jnsgd1na2vs0mg"},{"bike_id":"91372296-66f0-4955-9ea7-af2aeb756cbd","system_id":"levelo_inurba_marseille","lat":43.29842,"lon":5.36271,"is_reserved":false,"is_disabled":false,"rental_uris":{"android":"levelo://app?vid=91372296-66f0-4955-9ea7-af2aeb756cbd","ios":"levelo://app?vid=91372296-66f0-4955-9ea7-af2aeb756cbd"},"vehicle_type_id":"4","last_reported":1727363361,"current_range_meters":38400,"station_id":"ce4bgpp2rcd13ifvqc3g","pricing_plan_id":"cebpf4jnsgd1na2vs0mg"},{"bike_id":"26a04b40-19b7-4281-b5d5-b683292f7600","system_id":"levelo_inurba_marseille","lat":43.32491,"lon":5.36566,"is_reserved":false,"is_disabled":false,"rental_uris":{"android":"levelo://app?vid=26a04b40-19b7-4281-b5d5-b683292f7600","ios":"levelo://app?vid=26a04b40-19b7-4281-b5d5-b683292f7600"},"vehicle_type_id":"4","last_reported":1727363361,"current_range_meters":3600,"station_id":"ce4bhs12rcd13ifvqhvg","pricing_plan_id":"cebpf4jnsgd1na2vs0mg"},{"bike_id":"b5cdcddb-a8b5-45ca-ab1b-f1ccec65f8ae","system_id":"levelo_inurba_marseille","lat":43.299392,"lon":5.36542,"is_reserved":false,"is_disabled":false,"rental_uris":{"android":"levelo://app?vid=b5cdcddb-a8b5-45ca-ab1b-f1ccec65f8ae","ios":"levelo://app?vid=b5cdcddb-a8b5-45ca-ab1b-f1ccec65f8ae"},"vehicle_type_id":"4","last_reported":1727363361,"current_range_meters":27200,"station_id":"ce4bgm92rcd13ifvqbr0","pricing_plan_id":"cebpf4jnsgd1na2vs0mg"},{"bike_id":"d8898c38-d84b-4a32-81d5-f35fe017d87f","system_id":"levelo_inurba_marseille","lat":43.31224,"lon":5.36863,"is_reserved":false,"is_disabled":false,"rental_uris":{"android":"levelo://app?vid=d8898c38-d84b-4a32-81d5-f35fe017d87f","ios":"levelo://app?vid=d8898c38-d84b-4a32-81d5-f35fe017d87f"},"vehicle_type_id":"4","last_reported":1727363361,"current_range_meters":39200,"station_id":"ce4bgl92rcd13ifvqbq0","pricing_plan_id":"cebpf4jnsgd1na2vs0mg"},{"bike_id":"12bb2fa0-def4-44f9-9009-061dd94ed221","system_id":"levelo_inurba_marseille","lat":43.2417,"lon":5.36388,"is_reserved":false,"is_disabled":false,"rental_uris":{"android":"levelo://app?vid=12bb2fa0-def4-44f9-9009-061dd94ed221","ios":"levelo://app?vid=12bb2fa0-def4-44f9-9009-061dd94ed221"},"vehicle_type_id":"4","last_reported":1727363361,"current_range_meters":8000,"station_id":"cpo36qri1sfpv3e86is0","pricing_plan_id":"cebpf4jnsgd1na2vs0mg"},{"bike_id":"0e1d5774-c491-4534-8599-aa978b9548dd","system_id":"levelo_inurba_marseille","lat":43.30642,"lon":5.40093,"is_reserved":false,"is_disabled":false,"rental_uris":{"android":"levelo://app?vid=0e1d5774-c491-4534-8599-aa978b9548dd","ios":"levelo://app?vid=0e1d5774-c491-4534-8599-aa978b9548dd"},"vehicle_type_id":"4","last_reported":1727363361,"current_range_meters":9200,"station_id":"ce4bh112rcd13ifvqda0","pricing_plan_id":"cebpf4jnsgd1na2vs0mg"},{"bike_id":"75abec1b-fd84-44a3-a455-86f7817fde69","system_id":"levelo_inurba_marseille","lat":43.29596,"lon":5.38085,"is_reserved":false,"is_disabled":false,"rental_uris":{"android":"levelo://app?vid=75abec1b-fd84-44a3-a455-86f7817fde69","ios":"levelo://app?vid=75abec1b-fd84-44a3-a455-86f7817fde69"},"vehicle_type_id":"4","last_reported":1727363361,"current_range_meters":3200,"station_id":"ce4bgl12rcd13ifvqbo0","pricing_plan_id":"cebpf4jnsgd1na2vs0mg"},{"bike_id":"1c9251e2-48a0-46a4-8163-9eec219fa261","system_id":"levelo_inurba_marseille","lat":43.25087,"lon":5.39523,"is_reserved":false,"is_disabled":false,"rental_uris":{"android":"levelo://app?vid=1c9251e2-48a0-46a4-8163-9eec219fa261","ios":"levelo://app?vid=1c9251e2-48a0-46a4-8163-9eec219fa261"},"vehicle_type_id":"4","last_reported":1727363361,"current_range_meters":20800,"station_id":"ce4bhm12rcd13ifvqgkg","pricing_plan_id":"cebpf4jnsgd1na2vs0mg"},{"bike_id":"9eb411c8-8aad-4a36-9416-98ab961a8c2a","system_id":"levelo_inurba_marseille","lat":43.28846,"lon":5.35847,"is_reserved":false,"is_disabled":false,"rental_uris":{"android":"levelo://app?vid=9eb411c8-8aad-4a36-9416-98ab961a8c2a","ios":"levelo://app?vid=9eb411c8-8aad-4a36-9416-98ab961a8c2a"},"vehicle_type_id":"4","last_reported":1727363361,"current_range_meters":25200,"station_id":"ce4bhb12rcd13ifvqem0","pricing_plan_id":"cebpf4jnsgd1na2vs0mg"},{"bike_id":"6ffa163c-a476-46d2-ad24-0c23cc9e38cf","system_id":"levelo_inurba_marseille","lat":43.27188,"lon":5.41001,"is_reserved":false,"is_disabled":false,"rental_uris":{"android":"levelo://app?vid=6ffa163c-a476-46d2-ad24-0c23cc9e38cf","ios":"levelo://app?vid=6ffa163c-a476-46d2-ad24-0c23cc9e38cf"},"vehicle_type_id":"4","last_reported":1727363361,"current_range_meters":9600,"station_id":"ce4bhl12rcd13ifvqgf0","pricing_plan_id":"cebpf4jnsgd1na2vs0mg"},{"bike_id":"69208b23-7db1-480c-b0ec-f4801f9b475d","system_id":"levelo_inurba_marseille","lat":43.30153,"lon":5.38093,"is_reserved":false,"is_disabled":false,"rental_uris":{"android":"levelo://app?vid=69208b23-7db1-480c-b0ec-f4801f9b475d","ios":"levelo://app?vid=69208b23-7db1-480c-b0ec-f4801f9b475d"},"vehicle_type_id":"4","last_reported":1727363361,"current_range_meters":11200,"station_id":"ce4bgjp2rcd13ifvqbh0","pricing_plan_id":"cebpf4jnsgd1na2vs0mg"},{"bike_id":"168f790d-cd8c-4ea6-b8ac-926f90fc0f14","system_id":"levelo_inurba_marseille","lat":43.2963,"lon":5.40592,"is_reserved":false,"is_disabled":false,"rental_uris":{"android":"levelo://app?vid=168f790d-cd8c-4ea6-b8ac-926f90fc0f14","ios":"levelo://app?vid=168f790d-cd8c-4ea6-b8ac-926f90fc0f14"},"vehicle_type_id":"4","last_reported":1727363361,"current_range_meters":8400,"station_id":"ce4bh0h2rcd13ifvqd60","pricing_plan_id":"cebpf4jnsgd1na2vs0mg"},{"bike_id":"637beff3-55bd-4f15-99c0-4cb53d5dddb9","system_id":"levelo_inurba_marseille","lat":43.30651,"lon":5.39523,"is_reserved":false,"is_disabled":false,"rental_uris":{"android":"levelo://app?vid=637beff3-55bd-4f15-99c0-4cb53d5dddb9","ios":"levelo://app?vid=637beff3-55bd-4f15-99c0-4cb53d5dddb9"},"vehicle_type_id":"4","last_reported":1727363361,"current_range_meters":36800,"station_id":"","pricing_plan_id":"cebpf4jnsgd1na2vs0mg"},{"bike_id":"d4dd08a0-4ad2-4608-a088-ad28fa619762","system_id":"levelo_inurba_marseille","lat":43.25005,"lon":5.38923,"is_reserved":false,"is_disabled":false,"rental_uris":{"android":"levelo://app?vid=d4dd08a0-4ad2-4608-a088-ad28fa619762","ios":"levelo://app?vid=d4dd08a0-4ad2-4608-a088-ad28fa619762"},"vehicle_type_id":"4","last_reported":1727363361,"current_range_meters":27600,"station_id":"ce4bhgp2rcd13ifvqfd0","pricing_plan_id":"cebpf4jnsgd1na2vs0mg"},{"bike_id":"4312a66e-ddc9-4f71-95e6-672f46e819fd","system_id":"levelo_inurba_marseille","lat":43.26559,"lon":5.37284,"is_reserved":false,"is_disabled":false,"rental_uris":{"android":"levelo://app?vid=4312a66e-ddc9-4f71-95e6-672f46e819fd","ios":"levelo://app?vid=4312a66e-ddc9-4f71-95e6-672f46e819fd"},"vehicle_type_id":"4","last_reported":1727363361,"current_range_meters":30800,"station_id":"ce4bhg12rcd13ifvqf70","pricing_plan_id":"cebpf4jnsgd1na2vs0mg"},{"bike_id":"141ebdc2-0d8f-4d36-92ec-427b302d9f7e","system_id":"levelo_inurba_marseille","lat":43.30653,"lon":5.40074,"is_reserved":false,"is_disabled":false,"rental_uris":{"android":"levelo://app?vid=141ebdc2-0d8f-4d36-92ec-427b302d9f7e","ios":"levelo://app?vid=141ebdc2-0d8f-4d36-92ec-427b302d9f7e"},"vehicle_type_id":"4","last_reported":1727363361,"current_range_meters":9200,"station_id":"ce4bh112rcd13ifvqda0","pricing_plan_id":"cebpf4jnsgd1na2vs0mg"},{"bike_id":"18f89d4c-3f0a-401d-85f2-8f67795e3ddf","system_id":"levelo_inurba_marseille","lat":43.29873,"lon":5.39726,"is_reserved":false,"is_disabled":false,"rental_uris":{"android":"levelo://app?vid=18f89d4c-3f0a-401d-85f2-8f67795e3ddf","ios":"levelo://app?vid=18f89d4c-3f0a-401d-85f2-8f67795e3ddf"},"vehicle_type_id":"4","last_reported":1727363361,"current_range_meters":32800,"station_id":"ce4bh0h2rcd13ifvqd50","pricing_plan_id":"cebpf4jnsgd1na2vs0mg"},{"bike_id":"e9b032e3-b9fb-48d4-af05-8b210d25025d","system_id":"levelo_inurba_marseille","lat":43.29205,"lon":5.39327,"is_reserved":false,"is_disabled":false,"rental_uris":{"android":"levelo://app?vid=e9b032e3-b9fb-48d4-af05-8b210d25025d","ios":"levelo://app?vid=e9b032e3-b9fb-48d4-af05-8b210d25025d"},"vehicle_type_id":"4","last_reported":1727363361,"current_range_meters":14800,"station_id":"ce4bh192rcd13ifvqdd0","pricing_plan_id":"cebpf4jnsgd1na2vs0mg"},{"bike_id":"594692ca-a4e4-4b59-a792-e9034c8f2cc4","system_id":"levelo_inurba_marseille","lat":43.29895,"lon":5.43664,"is_reserved":false,"is_disabled":false,"rental_uris":{"android":"levelo://app?vid=594692ca-a4e4-4b59-a792-e9034c8f2cc4","ios":"levelo://app?vid=594692ca-a4e4-4b59-a792-e9034c8f2cc4"},"vehicle_type_id":"4","last_reported":1727363361,"current_range_meters":14400,"station_id":"ce4bhpp2rcd13ifvqhfg","pricing_plan_id":"cebpf4jnsgd1na2vs0mg"},{"bike_id":"2ed98b51-95b7-4b57-a44b-84e22c01b097","system_id":"levelo_inurba_marseille","lat":43.25938,"lon":5.409,"is_reserved":false,"is_disabled":false,"rental_uris":{"android":"levelo://app?vid=2ed98b51-95b7-4b57-a44b-84e22c01b097","ios":"levelo://app?vid=2ed98b51-95b7-4b57-a44b-84e22c01b097"},"vehicle_type_id":"4","last_reported":1727363361,"current_range_meters":24800,"station_id":"ce4bhm92rcd13ifvqglg","pricing_plan_id":"cebpf4jnsgd1na2vs0mg"},{"bike_id":"76be1586-faad-4038-8890-670240769e0f","system_id":"levelo_inurba_marseille","lat":43.27997,"lon":5.4166,"is_reserved":false,"is_disabled":false,"rental_uris":{"android":"levelo://app?vid=76be1586-faad-4038-8890-670240769e0f","ios":"levelo://app?vid=76be1586-faad-4038-8890-670240769e0f"},"vehicle_type_id":"4","last_reported":1727363361,"current_range_meters":27600,"station_id":"ce4bho12rcd13ifvqh1g","pricing_plan_id":"cebpf4jnsgd1na2vs0mg"},{"bike_id":"10c51aa8-18c7-468e-98b2-4eb910a873bf","system_id":"levelo_inurba_marseille","lat":43.30888,"lon":5.36864,"is_reserved":false,"is_disabled":false,"rental_uris":{"android":"levelo://app?vid=10c51aa8-18c7-468e-98b2-4eb910a873bf","ios":"levelo://app?vid=10c51aa8-18c7-468e-98b2-4eb910a873bf"},"vehicle_type_id":"4","last_reported":1727363361,"current_range_meters":36000,"station_id":"ce4bgn92rcd13ifvqbvg","pricing_plan_id":"cebpf4jnsgd1na2vs0mg"},{"bike_id":"327d401d-1fd9-47a8-b965-873838cfcc94","system_id":"levelo_inurba_marseille","lat":43.30548,"lon":5.36523,"is_reserved":false,"is_disabled":false,"rental_uris":{"android":"levelo://app?vid=327d401d-1fd9-47a8-b965-873838cfcc94","ios":"levelo://app?vid=327d401d-1fd9-47a8-b965-873838cfcc94"},"vehicle_type_id":"4","last_reported":1727363361,"current_range_meters":1600,"station_id":"ce4bgs12rcd13ifvqcag","pricing_plan_id":"cebpf4jnsgd1na2vs0mg"},{"bike_id":"e9a8dbaf-57f8-49f9-b8b9-f8977d9d8a8f","system_id":"levelo_inurba_marseille","lat":43.32475,"lon":5.36551,"is_reserved":false,"is_disabled":false,"rental_uris":{"android":"levelo://app?vid=e9a8dbaf-57f8-49f9-b8b9-f8977d9d8a8f","ios":"levelo://app?vid=e9a8dbaf-57f8-49f9-b8b9-f8977d9d8a8f"},"vehicle_type_id":"4","last_reported":1727363361,"current_range_meters":8800,"station_id":"ce4bhs12rcd13ifvqhvg","pricing_plan_id":"cebpf4jnsgd1na2vs0mg"},{"bike_id":"5962f709-a1d3-4d15-9681-a6e7ad916efa","system_id":"levelo_inurba_marseille","lat":43.26174,"lon":5.3874,"is_reserved":false,"is_disabled":false,"rental_uris":{"android":"levelo://app?vid=5962f709-a1d3-4d15-9681-a6e7ad916efa","ios":"levelo://app?vid=5962f709-a1d3-4d15-9681-a6e7ad916efa"},"vehicle_type_id":"4","last_reported":1727363361,"current_range_meters":20800,"station_id":"","pricing_plan_id":"cebpf4jnsgd1na2vs0mg"},{"bike_id":"998834ef-7112-4794-97cb-841bf660d236","system_id":"levelo_inurba_marseille","lat":43.29866,"lon":5.38397,"is_reserved":false,"is_disabled":false,"rental_uris":{"android":"levelo://app?vid=998834ef-7112-4794-97cb-841bf660d236","ios":"levelo://app?vid=998834ef-7112-4794-97cb-841bf660d236"},"vehicle_type_id":"4","last_reported":1727363361,"current_range_meters":36800,"station_id":"ce4bh0h2rcd13ifvqd50","pricing_plan_id":"cebpf4jnsgd1na2vs0mg"},{"bike_id":"0d5717cc-9d38-4a1c-8f18-e76acf250c48","system_id":"levelo_inurba_marseille","lat":43.27814,"lon":5.40706,"is_reserved":false,"is_disabled":false,"rental_uris":{"android":"levelo://app?vid=0d5717cc-9d38-4a1c-8f18-e76acf250c48","ios":"levelo://app?vid=0d5717cc-9d38-4a1c-8f18-e76acf250c48"},"vehicle_type_id":"4","last_reported":1727363361,"current_range_meters":2000,"station_id":"ce4bhnh2rcd13ifvqgtg","pricing_plan_id":"cebpf4jnsgd1na2vs0mg"},{"bike_id":"b41889c2-0803-48df-984f-531246e95224","system_id":"levelo_inurba_marseille","lat":43.27499,"lon":5.36019,"is_reserved":false,"is_disabled":false,"rental_uris":{"android":"levelo://app?vid=b41889c2-0803-48df-984f-531246e95224","ios":"levelo://app?vid=b41889c2-0803-48df-984f-531246e95224"},"vehicle_type_id":"4","last_reported":1727363361,"current_range_meters":37600,"station_id":"ce4bgj92rcd13ifvqbe0","pricing_plan_id":"cebpf4jnsgd1na2vs0mg"},{"bike_id":"7e79fb31-e985-4705-aa5b-cf1c4e44cc6b","system_id":"levelo_inurba_marseille","lat":43.32053,"lon":5.41547,"is_reserved":false,"is_disabled":false,"rental_uris":{"android":"levelo://app?vid=7e79fb31-e985-4705-aa5b-cf1c4e44cc6b","ios":"levelo://app?vid=7e79fb31-e985-4705-aa5b-cf1c4e44cc6b"},"vehicle_type_id":"4","last_reported":1727363361,"current_range_meters":28800,"station_id":"ce4bhq92rcd13ifvqhkg","pricing_plan_id":"cebpf4jnsgd1na2vs0mg"},{"bike_id":"730a8251-d94a-4277-99a9-1c8f6d01216c","system_id":"levelo_inurba_marseille","lat":43.25937,"lon":5.40903,"is_reserved":false,"is_disabled":false,"rental_uris":{"android":"levelo://app?vid=730a8251-d94a-4277-99a9-1c8f6d01216c","ios":"levelo://app?vid=730a8251-d94a-4277-99a9-1c8f6d01216c"},"vehicle_type_id":"4","last_reported":1727363361,"current_range_meters":16800,"station_id":"ce4bhm92rcd13ifvqglg","pricing_plan_id":"cebpf4jnsgd1na2vs0mg"},{"bike_id":"054c38a3-0ad6-4ca0-91e2-f35597dbf2fe","system_id":"levelo_inurba_marseille","lat":43.26497,"lon":5.39539,"is_reserved":false,"is_disabled":false,"rental_uris":{"android":"levelo://app?vid=054c38a3-0ad6-4ca0-91e2-f35597dbf2fe","ios":"levelo://app?vid=054c38a3-0ad6-4ca0-91e2-f35597dbf2fe"},"vehicle_type_id":"4","last_reported":1727363361,"current_range_meters":25200,"station_id":"ce4bhi12rcd13ifvqfq0","pricing_plan_id":"cebpf4jnsgd1na2vs0mg"},{"bike_id":"5f6c79fc-4a32-4034-b731-a210b1c8c48d","system_id":"levelo_inurba_marseille","lat":43.30526,"lon":5.36706,"is_reserved":false,"is_disabled":false,"rental_uris":{"android":"levelo://app?vid=5f6c79fc-4a32-4034-b731-a210b1c8c48d","ios":"levelo://app?vid=5f6c79fc-4a32-4034-b731-a210b1c8c48d"},"vehicle_type_id":"4","last_reported":1727363361,"current_range_meters":8400,"station_id":"ce4bgrp2rcd13ifvqc9g","pricing_plan_id":"cebpf4jnsgd1na2vs0mg"},{"bike_id":"be627797-ccaa-4c8d-8634-22394497dc5d","system_id":"levelo_inurba_marseille","lat":43.262054,"lon":5.374465,"is_reserved":false,"is_disabled":false,"rental_uris":{"android":"levelo://app?vid=be627797-ccaa-4c8d-8634-22394497dc5d","ios":"levelo://app?vid=be627797-ccaa-4c8d-8634-22394497dc5d"},"vehicle_type_id":"4","last_reported":1727363361,"current_range_meters":19600,"station_id":"ce4bhgp2rcd13ifvqfc0","pricing_plan_id":"cebpf4jnsgd1na2vs0mg"},{"bike_id":"1de41ee2-b859-4346-824d-ed394262bb03","system_id":"levelo_inurba_marseille","lat":43.33752,"lon":5.37444,"is_reserved":false,"is_disabled":false,"rental_uris":{"android":"levelo://app?vid=1de41ee2-b859-4346-824d-ed394262bb03","ios":"levelo://app?vid=1de41ee2-b859-4346-824d-ed394262bb03"},"vehicle_type_id":"4","last_reported":1727363361,"current_range_meters":6400,"station_id":"","pricing_plan_id":"cebpf4jnsgd1na2vs0mg"},{"bike_id":"751bff45-76c1-4c5f-b949-27cb0e9aacd7","system_id":"levelo_inurba_marseille","lat":43.33748,"lon":5.37432,"is_reserved":false,"is_disabled":false,"rental_uris":{"android":"levelo://app?vid=751bff45-76c1-4c5f-b949-27cb0e9aacd7","ios":"levelo://app?vid=751bff45-76c1-4c5f-b949-27cb0e9aacd7"},"vehicle_type_id":"4","last_reported":1727363361,"current_range_meters":36400,"station_id":"","pricing_plan_id":"cebpf4jnsgd1na2vs0mg"},{"bike_id":"0704a6cf-5c7a-4011-b268-b7a37dee5187","system_id":"levelo_inurba_marseille","lat":43.29611,"lon":5.37176,"is_reserved":false,"is_disabled":false,"rental_uris":{"android":"levelo://app?vid=0704a6cf-5c7a-4011-b268-b7a37dee5187","ios":"levelo://app?vid=0704a6cf-5c7a-4011-b268-b7a37dee5187"},"vehicle_type_id":"4","last_reported":1727363361,"current_range_meters":27600,"station_id":"ce4bgnh2rcd13ifvqc0g","pricing_plan_id":"cebpf4jnsgd1na2vs0mg"},{"bike_id":"97c170f5-8710-4100-9834-f1f2a4faac5d","system_id":"levelo_inurba_marseille","lat":43.31224,"lon":5.36855,"is_reserved":false,"is_disabled":false,"rental_uris":{"android":"levelo://app?vid=97c170f5-8710-4100-9834-f1f2a4faac5d","ios":"levelo://app?vid=97c170f5-8710-4100-9834-f1f2a4faac5d"},"vehicle_type_id":"4","last_reported":1727363361,"current_range_meters":20000,"station_id":"ce4bgl92rcd13ifvqbq0","pricing_plan_id":"cebpf4jnsgd1na2vs0mg"},{"bike_id":"97e9bd35-3d2e-4a80-8a05-68bebf260f2b","system_id":"levelo_inurba_marseille","lat":43.25116,"lon":5.40321,"is_reserved":false,"is_disabled":false,"rental_uris":{"android":"levelo://app?vid=97e9bd35-3d2e-4a80-8a05-68bebf260f2b","ios":"levelo://app?vid=97e9bd35-3d2e-4a80-8a05-68bebf260f2b"},"vehicle_type_id":"4","last_reported":1727363361,"current_range_meters":16800,"station_id":"ce4bhlh2rcd13ifvqgig","pricing_plan_id":"cebpf4jnsgd1na2vs0mg"},{"bike_id":"78613fef-22b7-474c-8a76-78989ae98513","system_id":"levelo_inurba_marseille","lat":43.25001,"lon":5.38921,"is_reserved":false,"is_disabled":false,"rental_uris":{"android":"levelo://app?vid=78613fef-22b7-474c-8a76-78989ae98513","ios":"levelo://app?vid=78613fef-22b7-474c-8a76-78989ae98513"},"vehicle_type_id":"4","last_reported":1727363361,"current_range_meters":2000,"station_id":"ce4bhgp2rcd13ifvqfd0","pricing_plan_id":"cebpf4jnsgd1na2vs0mg"},{"bike_id":"2b54ac53-19b0-4913-a370-4a60356b351e","system_id":"levelo_inurba_marseille","lat":43.28484,"lon":5.38566,"is_reserved":false,"is_disabled":false,"rental_uris":{"android":"levelo://app?vid=2b54ac53-19b0-4913-a370-4a60356b351e","ios":"levelo://app?vid=2b54ac53-19b0-4913-a370-4a60356b351e"},"vehicle_type_id":"4","last_reported":1727363361,"current_range_meters":38400,"station_id":"ce4bh8p2rcd13ifvqeb0","pricing_plan_id":"cebpf4jnsgd1na2vs0mg"},{"bike_id":"0a69bd3f-c658-401c-b68c-86b56dee4eab","system_id":"levelo_inurba_marseille","lat":43.290192,"lon":5.373693,"is_reserved":false,"is_disabled":false,"rental_uris":{"android":"levelo://app?vid=0a69bd3f-c658-401c-b68c-86b56dee4eab","ios":"levelo://app?vid=0a69bd3f-c658-401c-b68c-86b56dee4eab"},"vehicle_type_id":"4","last_reported":1727363361,"current_range_meters":10000,"station_id":"ce4bh692rcd13ifvqe90","pricing_plan_id":"cebpf4jnsgd1na2vs0mg"},{"bike_id":"f6dae99c-f3aa-4f32-83c7-342cd308fd58","system_id":"levelo_inurba_marseille","lat":43.30137,"lon":5.37416,"is_reserved":false,"is_disabled":false,"rental_uris":{"android":"levelo://app?vid=f6dae99c-f3aa-4f32-83c7-342cd308fd58","ios":"levelo://app?vid=f6dae99c-f3aa-4f32-83c7-342cd308fd58"},"vehicle_type_id":"4","last_reported":1727363361,"current_range_meters":21600,"station_id":"ce4bgs92rcd13ifvqcc0","pricing_plan_id":"cebpf4jnsgd1na2vs0mg"},{"bike_id":"9238ad14-e0d5-4c32-9a08-f97260c3768d","system_id":"levelo_inurba_marseille","lat":43.32482,"lon":5.36564,"is_reserved":false,"is_disabled":false,"rental_uris":{"android":"levelo://app?vid=9238ad14-e0d5-4c32-9a08-f97260c3768d","ios":"levelo://app?vid=9238ad14-e0d5-4c32-9a08-f97260c3768d"},"vehicle_type_id":"4","last_reported":1727363361,"current_range_meters":28000,"station_id":"ce4bhs12rcd13ifvqhvg","pricing_plan_id":"cebpf4jnsgd1na2vs0mg"},{"bike_id":"c2e5a81e-6912-4cb0-98ad-5f3df477fa43","system_id":"levelo_inurba_marseille","lat":43.28999,"lon":5.37575,"is_reserved":false,"is_disabled":false,"rental_uris":{"android":"levelo://app?vid=c2e5a81e-6912-4cb0-98ad-5f3df477fa43","ios":"levelo://app?vid=c2e5a81e-6912-4cb0-98ad-5f3df477fa43"},"vehicle_type_id":"4","last_reported":1727363361,"current_range_meters":37600,"station_id":"ce4bh692rcd13ifvqe90","pricing_plan_id":"cebpf4jnsgd1na2vs0mg"},{"bike_id":"8460a7e8-1a9d-4ecf-8e31-4e5a3fd8d5e0","system_id":"levelo_inurba_marseille","lat":43.29933,"lon":5.36542,"is_reserved":false,"is_disabled":false,"rental_uris":{"android":"levelo://app?vid=8460a7e8-1a9d-4ecf-8e31-4e5a3fd8d5e0","ios":"levelo://app?vid=8460a7e8-1a9d-4ecf-8e31-4e5a3fd8d5e0"},"vehicle_type_id":"4","last_reported":1727363361,"current_range_meters":16000,"station_id":"ce4bgm92rcd13ifvqbr0","pricing_plan_id":"cebpf4jnsgd1na2vs0mg"},{"bike_id":"8944e257-4ce7-446e-8a27-7cb63c29eb25","system_id":"levelo_inurba_marseille","lat":43.29267,"lon":5.36841,"is_reserved":false,"is_disabled":false,"rental_uris":{"android":"levelo://app?vid=8944e257-4ce7-446e-8a27-7cb63c29eb25","ios":"levelo://app?vid=8944e257-4ce7-446e-8a27-7cb63c29eb25"},"vehicle_type_id":"4","last_reported":1727363361,"current_range_meters":25200,"station_id":"ce4bhbp2rcd13ifvqesg","pricing_plan_id":"cebpf4jnsgd1na2vs0mg"},{"bike_id":"90ac1ad5-37b3-4172-a4ce-a11a00d55343","system_id":"levelo_inurba_marseille","lat":43.28023,"lon":5.36954,"is_reserved":false,"is_disabled":false,"rental_uris":{"android":"levelo://app?vid=90ac1ad5-37b3-4172-a4ce-a11a00d55343","ios":"levelo://app?vid=90ac1ad5-37b3-4172-a4ce-a11a00d55343"},"vehicle_type_id":"4","last_reported":1727363361,"current_range_meters":30800,"station_id":"ce4bha12rcd13ifvqef0","pricing_plan_id":"cebpf4jnsgd1na2vs0mg"},{"bike_id":"65ed82ef-c966-4d54-a060-0cc5c81b7d22","system_id":"levelo_inurba_marseille","lat":43.26939,"lon":5.38923,"is_reserved":false,"is_disabled":false,"rental_uris":{"android":"levelo://app?vid=65ed82ef-c966-4d54-a060-0cc5c81b7d22","ios":"levelo://app?vid=65ed82ef-c966-4d54-a060-0cc5c81b7d22"},"vehicle_type_id":"4","last_reported":1727363361,"current_range_meters":10000,"station_id":"ce4bhhh2rcd13ifvqfl0","pricing_plan_id":"cebpf4jnsgd1na2vs0mg"},{"bike_id":"64577474-503b-47b8-ba02-db6057494fc8","system_id":"levelo_inurba_marseille","lat":43.25941,"lon":5.40906,"is_reserved":false,"is_disabled":false,"rental_uris":{"android":"levelo://app?vid=64577474-503b-47b8-ba02-db6057494fc8","ios":"levelo://app?vid=64577474-503b-47b8-ba02-db6057494fc8"},"vehicle_type_id":"4","last_reported":1727363361,"current_range_meters":33600,"station_id":"ce4bhm92rcd13ifvqglg","pricing_plan_id":"cebpf4jnsgd1na2vs0mg"},{"bike_id":"d89a6b44-b264-4a99-8b3c-f07b95bc3cb9","system_id":"levelo_inurba_marseille","lat":43.32287,"lon":5.38271,"is_reserved":false,"is_disabled":false,"rental_uris":{"android":"levelo://app?vid=d89a6b44-b264-4a99-8b3c-f07b95bc3cb9","ios":"levelo://app?vid=d89a6b44-b264-4a99-8b3c-f07b95bc3cb9"},"vehicle_type_id":"4","last_reported":1727363361,"current_range_meters":14800,"station_id":"ce4bhr12rcd13ifvqhqg","pricing_plan_id":"cebpf4jnsgd1na2vs0mg"},{"bike_id":"12eacd2f-3711-4050-a352-e59dd1b5717a","system_id":"levelo_inurba_marseille","lat":43.29873,"lon":5.39735,"is_reserved":false,"is_disabled":false,"rental_uris":{"android":"levelo://app?vid=12eacd2f-3711-4050-a352-e59dd1b5717a","ios":"levelo://app?vid=12eacd2f-3711-4050-a352-e59dd1b5717a"},"vehicle_type_id":"4","last_reported":1727363361,"current_range_meters":31200,"station_id":"ce4bh0h2rcd13ifvqd50","pricing_plan_id":"cebpf4jnsgd1na2vs0mg"},{"bike_id":"c6ebdc49-4729-4e81-a2ad-ad9c2b48e60f","system_id":"levelo_inurba_marseille","lat":43.29927,"lon":5.36542,"is_reserved":false,"is_disabled":false,"rental_uris":{"android":"levelo://app?vid=c6ebdc49-4729-4e81-a2ad-ad9c2b48e60f","ios":"levelo://app?vid=c6ebdc49-4729-4e81-a2ad-ad9c2b48e60f"},"vehicle_type_id":"4","last_reported":1727363361,"current_range_meters":30400,"station_id":"ce4bgm92rcd13ifvqbr0","pricing_plan_id":"cebpf4jnsgd1na2vs0mg"},{"bike_id":"9526b666-8f0b-4da0-9001-079f4a6dc2e6","system_id":"levelo_inurba_marseille","lat":43.30631,"lon":5.40084,"is_reserved":false,"is_disabled":false,"rental_uris":{"android":"levelo://app?vid=9526b666-8f0b-4da0-9001-079f4a6dc2e6","ios":"levelo://app?vid=9526b666-8f0b-4da0-9001-079f4a6dc2e6"},"vehicle_type_id":"4","last_reported":1727363361,"current_range_meters":8400,"station_id":"ce4bh112rcd13ifvqda0","pricing_plan_id":"cebpf4jnsgd1na2vs0mg"},{"bike_id":"6b2d6110-047a-4374-b820-0abaa9613131","system_id":"levelo_inurba_marseille","lat":43.32478,"lon":5.36567,"is_reserved":false,"is_disabled":false,"rental_uris":{"android":"levelo://app?vid=6b2d6110-047a-4374-b820-0abaa9613131","ios":"levelo://app?vid=6b2d6110-047a-4374-b820-0abaa9613131"},"vehicle_type_id":"4","last_reported":1727363361,"current_range_meters":36000,"station_id":"ce4bhs12rcd13ifvqhvg","pricing_plan_id":"cebpf4jnsgd1na2vs0mg"},{"bike_id":"e1011166-328e-4f85-b030-2e058ea34f2c","system_id":"levelo_inurba_marseille","lat":43.23189,"lon":5.39962,"is_reserved":false,"is_disabled":false,"rental_uris":{"android":"levelo://app?vid=e1011166-328e-4f85-b030-2e058ea34f2c","ios":"levelo://app?vid=e1011166-328e-4f85-b030-2e058ea34f2c"},"vehicle_type_id":"4","last_reported":1727363361,"current_range_meters":22400,"station_id":"ce4bhn12rcd13ifvqgqg","pricing_plan_id":"cebpf4jnsgd1na2vs0mg"},{"bike_id":"a7bca3df-0344-4204-86d7-b742d4769839","system_id":"levelo_inurba_marseille","lat":43.30863,"lon":5.3685,"is_reserved":false,"is_disabled":false,"rental_uris":{"android":"levelo://app?vid=a7bca3df-0344-4204-86d7-b742d4769839","ios":"levelo://app?vid=a7bca3df-0344-4204-86d7-b742d4769839"},"vehicle_type_id":"4","last_reported":1727363361,"current_range_meters":22800,"station_id":"ce4bgn92rcd13ifvqbvg","pricing_plan_id":"cebpf4jnsgd1na2vs0mg"},{"bike_id":"e35edc70-4e16-46a6-b127-cc24f579bac5","system_id":"levelo_inurba_marseille","lat":43.24393,"lon":5.37063,"is_reserved":false,"is_disabled":false,"rental_uris":{"android":"levelo://app?vid=e35edc70-4e16-46a6-b127-cc24f579bac5","ios":"levelo://app?vid=e35edc70-4e16-46a6-b127-cc24f579bac5"},"vehicle_type_id":"4","last_reported":1727363361,"current_range_meters":36400,"station_id":"ce4bhhh2rcd13ifvqfk0","pricing_plan_id":"cebpf4jnsgd1na2vs0mg"},{"bike_id":"80d1d5df-61ca-4f88-bada-c65e746a68df","system_id":"levelo_inurba_marseille","lat":43.29841,"lon":5.3627,"is_reserved":false,"is_disabled":false,"rental_uris":{"android":"levelo://app?vid=80d1d5df-61ca-4f88-bada-c65e746a68df","ios":"levelo://app?vid=80d1d5df-61ca-4f88-bada-c65e746a68df"},"vehicle_type_id":"4","last_reported":1727363361,"current_range_meters":38800,"station_id":"ce4bgpp2rcd13ifvqc3g","pricing_plan_id":"cebpf4jnsgd1na2vs0mg"},{"bike_id":"9af202ed-b468-4f71-a0b8-74184374d8df","system_id":"levelo_inurba_marseille","lat":43.298602,"lon":5.39735,"is_reserved":false,"is_disabled":false,"rental_uris":{"android":"levelo://app?vid=9af202ed-b468-4f71-a0b8-74184374d8df","ios":"levelo://app?vid=9af202ed-b468-4f71-a0b8-74184374d8df"},"vehicle_type_id":"4","last_reported":1727363361,"current_range_meters":9600,"station_id":"ce4bh0h2rcd13ifvqd50","pricing_plan_id":"cebpf4jnsgd1na2vs0mg"},{"bike_id":"87307054-7320-4c58-bf5f-720ef35a9795","system_id":"levelo_inurba_marseille","lat":43.25085,"lon":5.39519,"is_reserved":false,"is_disabled":false,"rental_uris":{"android":"levelo://app?vid=87307054-7320-4c58-bf5f-720ef35a9795","ios":"levelo://app?vid=87307054-7320-4c58-bf5f-720ef35a9795"},"vehicle_type_id":"4","last_reported":1727363361,"current_range_meters":23200,"station_id":"ce4bhm12rcd13ifvqgkg","pricing_plan_id":"cebpf4jnsgd1na2vs0mg"},{"bike_id":"6738e146-f267-4f25-b891-642f57002f2e","system_id":"levelo_inurba_marseille","lat":43.28462,"lon":5.35882,"is_reserved":false,"is_disabled":false,"rental_uris":{"android":"levelo://app?vid=6738e146-f267-4f25-b891-642f57002f2e","ios":"levelo://app?vid=6738e146-f267-4f25-b891-642f57002f2e"},"vehicle_type_id":"4","last_reported":1727363361,"current_range_meters":35200,"station_id":"ce4bhah2rcd13ifvqei0","pricing_plan_id":"cebpf4jnsgd1na2vs0mg"},{"bike_id":"f0b7805f-753b-4eba-b8f1-9732afa947b7","system_id":"levelo_inurba_marseille","lat":43.3083,"lon":5.3768,"is_reserved":false,"is_disabled":false,"rental_uris":{"android":"levelo://app?vid=f0b7805f-753b-4eba-b8f1-9732afa947b7","ios":"levelo://app?vid=f0b7805f-753b-4eba-b8f1-9732afa947b7"},"vehicle_type_id":"4","last_reported":1727363361,"current_range_meters":26000,"station_id":"ce4bgv92rcd13ifvqcq0","pricing_plan_id":"cebpf4jnsgd1na2vs0mg"},{"bike_id":"4507051e-dbe2-4197-98eb-12b963417d27","system_id":"levelo_inurba_marseille","lat":43.29869,"lon":5.39736,"is_reserved":false,"is_disabled":false,"rental_uris":{"android":"levelo://app?vid=4507051e-dbe2-4197-98eb-12b963417d27","ios":"levelo://app?vid=4507051e-dbe2-4197-98eb-12b963417d27"},"vehicle_type_id":"4","last_reported":1727363361,"current_range_meters":39200,"station_id":"ce4bh0h2rcd13ifvqd50","pricing_plan_id":"cebpf4jnsgd1na2vs0mg"},{"bike_id":"4a4bfd88-bdfc-4802-b3a8-e798e4274727","system_id":"levelo_inurba_marseille","lat":43.3229,"lon":5.38249,"is_reserved":false,"is_disabled":false,"rental_uris":{"android":"levelo://app?vid=4a4bfd88-bdfc-4802-b3a8-e798e4274727","ios":"levelo://app?vid=4a4bfd88-bdfc-4802-b3a8-e798e4274727"},"vehicle_type_id":"4","last_reported":1727363361,"current_range_meters":24000,"station_id":"ce4bhr12rcd13ifvqhqg","pricing_plan_id":"cebpf4jnsgd1na2vs0mg"},{"bike_id":"b7e81b67-9d18-4816-8d18-3f53b667781e","system_id":"levelo_inurba_marseille","lat":43.26209,"lon":5.37442,"is_reserved":false,"is_disabled":false,"rental_uris":{"android":"levelo://app?vid=b7e81b67-9d18-4816-8d18-3f53b667781e","ios":"levelo://app?vid=b7e81b67-9d18-4816-8d18-3f53b667781e"},"vehicle_type_id":"4","last_reported":1727363361,"current_range_meters":25600,"station_id":"ce4bhgp2rcd13ifvqfc0","pricing_plan_id":"cebpf4jnsgd1na2vs0mg"},{"bike_id":"2ba09575-244f-487f-8743-7cdef664b4d1","system_id":"levelo_inurba_marseille","lat":43.29897,"lon":5.43669,"is_reserved":false,"is_disabled":false,"rental_uris":{"android":"levelo://app?vid=2ba09575-244f-487f-8743-7cdef664b4d1","ios":"levelo://app?vid=2ba09575-244f-487f-8743-7cdef664b4d1"},"vehicle_type_id":"4","last_reported":1727363361,"current_range_meters":17600,"station_id":"ce4bhpp2rcd13ifvqhfg","pricing_plan_id":"cebpf4jnsgd1na2vs0mg"},{"bike_id":"5109b96c-3add-47ca-89b6-b5297ec2a53a","system_id":"levelo_inurba_marseille","lat":43.26192,"lon":5.37451,"is_reserved":false,"is_disabled":false,"rental_uris":{"android":"levelo://app?vid=5109b96c-3add-47ca-89b6-b5297ec2a53a","ios":"levelo://app?vid=5109b96c-3add-47ca-89b6-b5297ec2a53a"},"vehicle_type_id":"4","last_reported":1727363361,"current_range_meters":25600,"station_id":"ce4bhgp2rcd13ifvqfc0","pricing_plan_id":"cebpf4jnsgd1na2vs0mg"},{"bike_id":"81c79a5f-f1a7-4420-97f8-092caaa8c88e","system_id":"levelo_inurba_marseille","lat":43.30553,"lon":5.36696,"is_reserved":false,"is_disabled":false,"rental_uris":{"android":"levelo://app?vid=81c79a5f-f1a7-4420-97f8-092caaa8c88e","ios":"levelo://app?vid=81c79a5f-f1a7-4420-97f8-092caaa8c88e"},"vehicle_type_id":"4","last_reported":1727363361,"current_range_meters":16000,"station_id":"ce4bgrp2rcd13ifvqc9g","pricing_plan_id":"cebpf4jnsgd1na2vs0mg"},{"bike_id":"b8d4cfe5-fa00-4798-bb3b-a5cd96b0fee5","system_id":"levelo_inurba_marseille","lat":43.24216,"lon":5.38436,"is_reserved":false,"is_disabled":false,"rental_uris":{"android":"levelo://app?vid=b8d4cfe5-fa00-4798-bb3b-a5cd96b0fee5","ios":"levelo://app?vid=b8d4cfe5-fa00-4798-bb3b-a5cd96b0fee5"},"vehicle_type_id":"4","last_reported":1727363361,"current_range_meters":8000,"station_id":"","pricing_plan_id":"cebpf4jnsgd1na2vs0mg"},{"bike_id":"ba4c5032-c3d2-4269-a986-f31426cbb7ba","system_id":"levelo_inurba_marseille","lat":43.30928,"lon":5.40141,"is_reserved":false,"is_disabled":false,"rental_uris":{"android":"levelo://app?vid=ba4c5032-c3d2-4269-a986-f31426cbb7ba","ios":"levelo://app?vid=ba4c5032-c3d2-4269-a986-f31426cbb7ba"},"vehicle_type_id":"4","last_reported":1727363361,"current_range_meters":36400,"station_id":"ce4bgvp2rcd13ifvqct0","pricing_plan_id":"cebpf4jnsgd1na2vs0mg"},{"bike_id":"5636585a-5320-404f-9a73-d63fb4cbf02c","system_id":"levelo_inurba_marseille","lat":43.303,"lon":5.39216,"is_reserved":false,"is_disabled":false,"rental_uris":{"android":"levelo://app?vid=5636585a-5320-404f-9a73-d63fb4cbf02c","ios":"levelo://app?vid=5636585a-5320-404f-9a73-d63fb4cbf02c"},"vehicle_type_id":"4","last_reported":1727363361,"current_range_meters":24800,"station_id":"ce4bgkh2rcd13ifvqbk0","pricing_plan_id":"cebpf4jnsgd1na2vs0mg"},{"bike_id":"112072b6-2ec6-48f1-870c-58ef76c869ff","system_id":"levelo_inurba_marseille","lat":43.279606,"lon":5.379287,"is_reserved":false,"is_disabled":false,"rental_uris":{"android":"levelo://app?vid=112072b6-2ec6-48f1-870c-58ef76c869ff","ios":"levelo://app?vid=112072b6-2ec6-48f1-870c-58ef76c869ff"},"vehicle_type_id":"4","last_reported":1727363361,"current_range_meters":22000,"station_id":"ce4bha12rcd13ifvqee0","pricing_plan_id":"cebpf4jnsgd1na2vs0mg"},{"bike_id":"c1d42387-df29-461d-9d89-44c111747671","system_id":"levelo_inurba_marseille","lat":43.26037,"lon":5.37546,"is_reserved":false,"is_disabled":false,"rental_uris":{"android":"levelo://app?vid=c1d42387-df29-461d-9d89-44c111747671","ios":"levelo://app?vid=c1d42387-df29-461d-9d89-44c111747671"},"vehicle_type_id":"4","last_reported":1727363361,"current_range_meters":27600,"station_id":"ce4bhgh2rcd13ifvqfa0","pricing_plan_id":"cebpf4jnsgd1na2vs0mg"},{"bike_id":"eda8bcde-5e1d-4538-802b-7a2e14d9f52d","system_id":"levelo_inurba_marseille","lat":43.22926,"lon":5.3537,"is_reserved":false,"is_disabled":false,"rental_uris":{"android":"levelo://app?vid=eda8bcde-5e1d-4538-802b-7a2e14d9f52d","ios":"levelo://app?vid=eda8bcde-5e1d-4538-802b-7a2e14d9f52d"},"vehicle_type_id":"4","last_reported":1727363361,"current_range_meters":21600,"station_id":"cpo3532slgdg3j2ikp40","pricing_plan_id":"cebpf4jnsgd1na2vs0mg"},{"bike_id":"e40484e9-70c8-45b4-a955-dd4728390521","system_id":"levelo_inurba_marseille","lat":43.28943,"lon":5.38401,"is_reserved":false,"is_disabled":false,"rental_uris":{"android":"levelo://app?vid=e40484e9-70c8-45b4-a955-dd4728390521","ios":"levelo://app?vid=e40484e9-70c8-45b4-a955-dd4728390521"},"vehicle_type_id":"4","last_reported":1727363361,"current_range_meters":1600,"station_id":"ce4bh612rcd13ifvqe6g","pricing_plan_id":"cebpf4jnsgd1na2vs0mg"},{"bike_id":"1e6b0c16-c6ca-44c3-8633-a751ebbb6842","system_id":"levelo_inurba_marseille","lat":43.28608,"lon":5.37068,"is_reserved":false,"is_disabled":false,"rental_uris":{"android":"levelo://app?vid=1e6b0c16-c6ca-44c3-8633-a751ebbb6842","ios":"levelo://app?vid=1e6b0c16-c6ca-44c3-8633-a751ebbb6842"},"vehicle_type_id":"4","last_reported":1727363361,"current_range_meters":30800,"station_id":"ce4bht12rcd13ifvqi60","pricing_plan_id":"cebpf4jnsgd1na2vs0mg"},{"bike_id":"53deaf3b-2794-42be-8008-13cad0c27413","system_id":"levelo_inurba_marseille","lat":43.29005,"lon":5.35608,"is_reserved":false,"is_disabled":false,"rental_uris":{"android":"levelo://app?vid=53deaf3b-2794-42be-8008-13cad0c27413","ios":"levelo://app?vid=53deaf3b-2794-42be-8008-13cad0c27413"},"vehicle_type_id":"4","last_reported":1727363361,"current_range_meters":38000,"station_id":"ce4bhb92rcd13ifvqen0","pricing_plan_id":"cebpf4jnsgd1na2vs0mg"},{"bike_id":"7e06aaaa-a3eb-45f3-b488-d847eb00575d","system_id":"levelo_inurba_marseille","lat":43.30525,"lon":5.36547,"is_reserved":false,"is_disabled":false,"rental_uris":{"android":"levelo://app?vid=7e06aaaa-a3eb-45f3-b488-d847eb00575d","ios":"levelo://app?vid=7e06aaaa-a3eb-45f3-b488-d847eb00575d"},"vehicle_type_id":"4","last_reported":1727363361,"current_range_meters":38800,"station_id":"ce4bgs12rcd13ifvqcag","pricing_plan_id":"cebpf4jnsgd1na2vs0mg"},{"bike_id":"e73af504-3f3c-40af-9dd9-52475f9bf7d1","system_id":"levelo_inurba_marseille","lat":43.30153,"lon":5.38089,"is_reserved":false,"is_disabled":false,"rental_uris":{"android":"levelo://app?vid=e73af504-3f3c-40af-9dd9-52475f9bf7d1","ios":"levelo://app?vid=e73af504-3f3c-40af-9dd9-52475f9bf7d1"},"vehicle_type_id":"4","last_reported":1727363361,"current_range_meters":21600,"station_id":"ce4bgjp2rcd13ifvqbh0","pricing_plan_id":"cebpf4jnsgd1na2vs0mg"},{"bike_id":"80d74471-1073-4c22-b553-5650cd38e347","system_id":"levelo_inurba_marseille","lat":43.28934,"lon":5.38381,"is_reserved":false,"is_disabled":false,"rental_uris":{"android":"levelo://app?vid=80d74471-1073-4c22-b553-5650cd38e347","ios":"levelo://app?vid=80d74471-1073-4c22-b553-5650cd38e347"},"vehicle_type_id":"4","last_reported":1727363361,"current_range_meters":27600,"station_id":"ce4bh612rcd13ifvqe6g","pricing_plan_id":"cebpf4jnsgd1na2vs0mg"},{"bike_id":"ca3e4d3d-4a90-4363-b562-bb0e74f1f4e9","system_id":"levelo_inurba_marseille","lat":43.279967,"lon":5.40006,"is_reserved":false,"is_disabled":false,"rental_uris":{"android":"levelo://app?vid=ca3e4d3d-4a90-4363-b562-bb0e74f1f4e9","ios":"levelo://app?vid=ca3e4d3d-4a90-4363-b562-bb0e74f1f4e9"},"vehicle_type_id":"4","last_reported":1727363361,"current_range_meters":30000,"station_id":"ce4bho92rcd13ifvqh4g","pricing_plan_id":"cebpf4jnsgd1na2vs0mg"},{"bike_id":"b0edbbbb-ef0a-4a65-bb38-113ac03cbfc7","system_id":"levelo_inurba_marseille","lat":43.29781,"lon":5.38149,"is_reserved":false,"is_disabled":false,"rental_uris":{"android":"levelo://app?vid=b0edbbbb-ef0a-4a65-bb38-113ac03cbfc7","ios":"levelo://app?vid=b0edbbbb-ef0a-4a65-bb38-113ac03cbfc7"},"vehicle_type_id":"4","last_reported":1727363361,"current_range_meters":24800,"station_id":"ce4bgip2rcd13ifvqbb0","pricing_plan_id":"cebpf4jnsgd1na2vs0mg"},{"bike_id":"38b57a66-e8b7-4f9f-a2ee-4509a615cb0d","system_id":"levelo_inurba_marseille","lat":43.24658,"lon":5.38158,"is_reserved":false,"is_disabled":false,"rental_uris":{"android":"levelo://app?vid=38b57a66-e8b7-4f9f-a2ee-4509a615cb0d","ios":"levelo://app?vid=38b57a66-e8b7-4f9f-a2ee-4509a615cb0d"},"vehicle_type_id":"4","last_reported":1727363361,"current_range_meters":3600,"station_id":"ce4bhih2rcd13ifvqfr0","pricing_plan_id":"cebpf4jnsgd1na2vs0mg"},{"bike_id":"1fafca9e-1bf4-4b8b-a9f6-2ea0b5022f94","system_id":"levelo_inurba_marseille","lat":43.23195,"lon":5.35553,"is_reserved":false,"is_disabled":false,"rental_uris":{"android":"levelo://app?vid=1fafca9e-1bf4-4b8b-a9f6-2ea0b5022f94","ios":"levelo://app?vid=1fafca9e-1bf4-4b8b-a9f6-2ea0b5022f94"},"vehicle_type_id":"4","last_reported":1727363361,"current_range_meters":28000,"station_id":"ce4bhu92rcd13ifvqi70","pricing_plan_id":"cebpf4jnsgd1na2vs0mg"},{"bike_id":"26bd3a05-d57c-4b9a-8414-dd13781228a9","system_id":"levelo_inurba_marseille","lat":43.26555,"lon":5.37288,"is_reserved":false,"is_disabled":false,"rental_uris":{"android":"levelo://app?vid=26bd3a05-d57c-4b9a-8414-dd13781228a9","ios":"levelo://app?vid=26bd3a05-d57c-4b9a-8414-dd13781228a9"},"vehicle_type_id":"4","last_reported":1727363361,"current_range_meters":36400,"station_id":"ce4bhg12rcd13ifvqf70","pricing_plan_id":"cebpf4jnsgd1na2vs0mg"},{"bike_id":"1f4162d7-3cd5-4a3c-a557-f5d64a7bd417","system_id":"levelo_inurba_marseille","lat":43.32477,"lon":5.36564,"is_reserved":false,"is_disabled":false,"rental_uris":{"android":"levelo://app?vid=1f4162d7-3cd5-4a3c-a557-f5d64a7bd417","ios":"levelo://app?vid=1f4162d7-3cd5-4a3c-a557-f5d64a7bd417"},"vehicle_type_id":"4","last_reported":1727363361,"current_range_meters":24000,"station_id":"ce4bhs12rcd13ifvqhvg","pricing_plan_id":"cebpf4jnsgd1na2vs0mg"},{"bike_id":"fc09ae45-1afc-4cd0-a841-ed2588645d04","system_id":"levelo_inurba_marseille","lat":43.27614,"lon":5.39468,"is_reserved":false,"is_disabled":false,"rental_uris":{"android":"levelo://app?vid=fc09ae45-1afc-4cd0-a841-ed2588645d04","ios":"levelo://app?vid=fc09ae45-1afc-4cd0-a841-ed2588645d04"},"vehicle_type_id":"4","last_reported":1727363361,"current_range_meters":24800,"station_id":"ce4bha92rcd13ifvqeg0","pricing_plan_id":"cebpf4jnsgd1na2vs0mg"},{"bike_id":"6c1fda78-a27a-41ea-9d99-03a440f5f874","system_id":"levelo_inurba_marseille","lat":43.23062,"lon":5.35487,"is_reserved":false,"is_disabled":false,"rental_uris":{"android":"levelo://app?vid=6c1fda78-a27a-41ea-9d99-03a440f5f874","ios":"levelo://app?vid=6c1fda78-a27a-41ea-9d99-03a440f5f874"},"vehicle_type_id":"4","last_reported":1727363361,"current_range_meters":5600,"station_id":"cpo3342slgdg3j2ifvpg","pricing_plan_id":"cebpf4jnsgd1na2vs0mg"},{"bike_id":"9560daa0-c4e3-4ff9-8735-b7bf5fec25a2","system_id":"levelo_inurba_marseille","lat":43.3377,"lon":5.37479,"is_reserved":false,"is_disabled":false,"rental_uris":{"android":"levelo://app?vid=9560daa0-c4e3-4ff9-8735-b7bf5fec25a2","ios":"levelo://app?vid=9560daa0-c4e3-4ff9-8735-b7bf5fec25a2"},"vehicle_type_id":"4","last_reported":1727363361,"current_range_meters":7200,"station_id":"ce4bhg12rcd13ifvqf80","pricing_plan_id":"cebpf4jnsgd1na2vs0mg"},{"bike_id":"b4646ddf-5607-4f29-a71d-6c3f295f60ba","system_id":"levelo_inurba_marseille","lat":43.30888,"lon":5.39632,"is_reserved":false,"is_disabled":false,"rental_uris":{"android":"levelo://app?vid=b4646ddf-5607-4f29-a71d-6c3f295f60ba","ios":"levelo://app?vid=b4646ddf-5607-4f29-a71d-6c3f295f60ba"},"vehicle_type_id":"4","last_reported":1727363361,"current_range_meters":19600,"station_id":"ce4bh012rcd13ifvqcv0","pricing_plan_id":"cebpf4jnsgd1na2vs0mg"},{"bike_id":"55541a0a-17cf-434a-b3de-6116ad7910e3","system_id":"levelo_inurba_marseille","lat":43.26681,"lon":5.38268,"is_reserved":false,"is_disabled":false,"rental_uris":{"android":"levelo://app?vid=55541a0a-17cf-434a-b3de-6116ad7910e3","ios":"levelo://app?vid=55541a0a-17cf-434a-b3de-6116ad7910e3"},"vehicle_type_id":"4","last_reported":1727363361,"current_range_meters":16800,"station_id":"ce4bhg92rcd13ifvqf90","pricing_plan_id":"cebpf4jnsgd1na2vs0mg"},{"bike_id":"4b7ea96f-7830-4830-9287-4a14834ebc21","system_id":"levelo_inurba_marseille","lat":43.28573,"lon":5.39498,"is_reserved":false,"is_disabled":false,"rental_uris":{"android":"levelo://app?vid=4b7ea96f-7830-4830-9287-4a14834ebc21","ios":"levelo://app?vid=4b7ea96f-7830-4830-9287-4a14834ebc21"},"vehicle_type_id":"4","last_reported":1727363361,"current_range_meters":18800,"station_id":"ce4bh292rcd13ifvqdg0","pricing_plan_id":"cebpf4jnsgd1na2vs0mg"},{"bike_id":"b44402de-ddfb-41c6-ab2f-dfc56577d35f","system_id":"levelo_inurba_marseille","lat":43.32476,"lon":5.36562,"is_reserved":false,"is_disabled":false,"rental_uris":{"android":"levelo://app?vid=b44402de-ddfb-41c6-ab2f-dfc56577d35f","ios":"levelo://app?vid=b44402de-ddfb-41c6-ab2f-dfc56577d35f"},"vehicle_type_id":"4","last_reported":1727363361,"current_range_meters":11600,"station_id":"ce4bhs12rcd13ifvqhvg","pricing_plan_id":"cebpf4jnsgd1na2vs0mg"},{"bike_id":"62700dfd-baf4-4c20-a87a-52b26765bdd5","system_id":"levelo_inurba_marseille","lat":43.31884,"lon":5.40728,"is_reserved":false,"is_disabled":false,"rental_uris":{"android":"levelo://app?vid=62700dfd-baf4-4c20-a87a-52b26765bdd5","ios":"levelo://app?vid=62700dfd-baf4-4c20-a87a-52b26765bdd5"},"vehicle_type_id":"4","last_reported":1727363361,"current_range_meters":20000,"station_id":"ce4bhq12rcd13ifvqhig","pricing_plan_id":"cebpf4jnsgd1na2vs0mg"},{"bike_id":"f2cb862f-f97c-4ea4-bbb8-e16845a57bbd","system_id":"levelo_inurba_marseille","lat":43.32487,"lon":5.36553,"is_reserved":false,"is_disabled":false,"rental_uris":{"android":"levelo://app?vid=f2cb862f-f97c-4ea4-bbb8-e16845a57bbd","ios":"levelo://app?vid=f2cb862f-f97c-4ea4-bbb8-e16845a57bbd"},"vehicle_type_id":"4","last_reported":1727363361,"current_range_meters":37600,"station_id":"ce4bhs12rcd13ifvqhvg","pricing_plan_id":"cebpf4jnsgd1na2vs0mg"},{"bike_id":"b35a9017-0b6e-4759-a530-01a91d066ca9","system_id":"levelo_inurba_marseille","lat":43.26028,"lon":5.37547,"is_reserved":false,"is_disabled":false,"rental_uris":{"android":"levelo://app?vid=b35a9017-0b6e-4759-a530-01a91d066ca9","ios":"levelo://app?vid=b35a9017-0b6e-4759-a530-01a91d066ca9"},"vehicle_type_id":"4","last_reported":1727363361,"current_range_meters":8800,"station_id":"ce4bhgh2rcd13ifvqfa0","pricing_plan_id":"cebpf4jnsgd1na2vs0mg"},{"bike_id":"fb49434d-b28e-4ac7-bcd7-176d074f1f91","system_id":"levelo_inurba_marseille","lat":43.30595,"lon":5.37229,"is_reserved":false,"is_disabled":false,"rental_uris":{"android":"levelo://app?vid=fb49434d-b28e-4ac7-bcd7-176d074f1f91","ios":"levelo://app?vid=fb49434d-b28e-4ac7-bcd7-176d074f1f91"},"vehicle_type_id":"4","last_reported":1727363361,"current_range_meters":38800,"station_id":"ce4bgqh2rcd13ifvqc4g","pricing_plan_id":"cebpf4jnsgd1na2vs0mg"},{"bike_id":"2892e1f9-2e28-4d00-9857-8b3388c09db5","system_id":"levelo_inurba_marseille","lat":43.33026,"lon":5.39035,"is_reserved":false,"is_disabled":false,"rental_uris":{"android":"levelo://app?vid=2892e1f9-2e28-4d00-9857-8b3388c09db5","ios":"levelo://app?vid=2892e1f9-2e28-4d00-9857-8b3388c09db5"},"vehicle_type_id":"4","last_reported":1727363361,"current_range_meters":12000,"station_id":"ce4bhr92rcd13ifvqhrg","pricing_plan_id":"cebpf4jnsgd1na2vs0mg"},{"bike_id":"571c23f9-84b8-4dea-b2bc-06f7588d01ff","system_id":"levelo_inurba_marseille","lat":43.26805,"lon":5.40265,"is_reserved":false,"is_disabled":false,"rental_uris":{"android":"levelo://app?vid=571c23f9-84b8-4dea-b2bc-06f7588d01ff","ios":"levelo://app?vid=571c23f9-84b8-4dea-b2bc-06f7588d01ff"},"vehicle_type_id":"4","last_reported":1727363361,"current_range_meters":18800,"station_id":"ce501612rcd8frsf0b60","pricing_plan_id":"cebpf4jnsgd1na2vs0mg"},{"bike_id":"f50b2a4a-939d-4e49-81dc-7df6ef79aba9","system_id":"levelo_inurba_marseille","lat":43.2439,"lon":5.37062,"is_reserved":false,"is_disabled":false,"rental_uris":{"android":"levelo://app?vid=f50b2a4a-939d-4e49-81dc-7df6ef79aba9","ios":"levelo://app?vid=f50b2a4a-939d-4e49-81dc-7df6ef79aba9"},"vehicle_type_id":"4","last_reported":1727363361,"current_range_meters":8000,"station_id":"ce4bhhh2rcd13ifvqfk0","pricing_plan_id":"cebpf4jnsgd1na2vs0mg"},{"bike_id":"953cc26b-c2f7-43f2-a7d2-0da53f5ef26d","system_id":"levelo_inurba_marseille","lat":43.32477,"lon":5.3657,"is_reserved":false,"is_disabled":false,"rental_uris":{"android":"levelo://app?vid=953cc26b-c2f7-43f2-a7d2-0da53f5ef26d","ios":"levelo://app?vid=953cc26b-c2f7-43f2-a7d2-0da53f5ef26d"},"vehicle_type_id":"4","last_reported":1727363361,"current_range_meters":38400,"station_id":"ce4bhs12rcd13ifvqhvg","pricing_plan_id":"cebpf4jnsgd1na2vs0mg"},{"bike_id":"574fcece-6598-4460-bc07-1110205a4b10","system_id":"levelo_inurba_marseille","lat":43.26559,"lon":5.37283,"is_reserved":false,"is_disabled":false,"rental_uris":{"android":"levelo://app?vid=574fcece-6598-4460-bc07-1110205a4b10","ios":"levelo://app?vid=574fcece-6598-4460-bc07-1110205a4b10"},"vehicle_type_id":"4","last_reported":1727363361,"current_range_meters":24000,"station_id":"ce4bhg12rcd13ifvqf70","pricing_plan_id":"cebpf4jnsgd1na2vs0mg"},{"bike_id":"d6e0c4a3-9804-46b9-a295-0df9259f4e20","system_id":"levelo_inurba_marseille","lat":43.30808,"lon":5.37334,"is_reserved":false,"is_disabled":false,"rental_uris":{"android":"levelo://app?vid=d6e0c4a3-9804-46b9-a295-0df9259f4e20","ios":"levelo://app?vid=d6e0c4a3-9804-46b9-a295-0df9259f4e20"},"vehicle_type_id":"4","last_reported":1727363361,"current_range_meters":32000,"station_id":"","pricing_plan_id":"cebpf4jnsgd1na2vs0mg"},{"bike_id":"a11a759f-a05e-4ece-9eb1-5e0f28214819","system_id":"levelo_inurba_marseille","lat":43.2954,"lon":5.394,"is_reserved":false,"is_disabled":false,"rental_uris":{"android":"levelo://app?vid=a11a759f-a05e-4ece-9eb1-5e0f28214819","ios":"levelo://app?vid=a11a759f-a05e-4ece-9eb1-5e0f28214819"},"vehicle_type_id":"4","last_reported":1727363361,"current_range_meters":33200,"station_id":"ce4bh292rcd13ifvqdf0","pricing_plan_id":"cebpf4jnsgd1na2vs0mg"},{"bike_id":"52da0ad5-6983-4d1a-b277-26ba695c5bb6","system_id":"levelo_inurba_marseille","lat":43.28075,"lon":5.39649,"is_reserved":false,"is_disabled":false,"rental_uris":{"android":"levelo://app?vid=52da0ad5-6983-4d1a-b277-26ba695c5bb6","ios":"levelo://app?vid=52da0ad5-6983-4d1a-b277-26ba695c5bb6"},"vehicle_type_id":"4","last_reported":1727363361,"current_range_meters":8800,"station_id":"ce4bho12rcd13ifvqh2g","pricing_plan_id":"cebpf4jnsgd1na2vs0mg"},{"bike_id":"bec3454e-48f2-4cfa-8b06-3544701edb61","system_id":"levelo_inurba_marseille","lat":43.25942,"lon":5.40899,"is_reserved":false,"is_disabled":false,"rental_uris":{"android":"levelo://app?vid=bec3454e-48f2-4cfa-8b06-3544701edb61","ios":"levelo://app?vid=bec3454e-48f2-4cfa-8b06-3544701edb61"},"vehicle_type_id":"4","last_reported":1727363361,"current_range_meters":25200,"station_id":"ce4bhm92rcd13ifvqglg","pricing_plan_id":"cebpf4jnsgd1na2vs0mg"},{"bike_id":"22ad30ae-7865-4d76-b790-dda81077f92c","system_id":"levelo_inurba_marseille","lat":43.24394,"lon":5.37054,"is_reserved":false,"is_disabled":false,"rental_uris":{"android":"levelo://app?vid=22ad30ae-7865-4d76-b790-dda81077f92c","ios":"levelo://app?vid=22ad30ae-7865-4d76-b790-dda81077f92c"},"vehicle_type_id":"4","last_reported":1727363361,"current_range_meters":20800,"station_id":"ce4bhhh2rcd13ifvqfk0","pricing_plan_id":"cebpf4jnsgd1na2vs0mg"},{"bike_id":"a2e0ae39-2b48-4d8f-a696-fd57386d8135","system_id":"levelo_inurba_marseille","lat":43.31234,"lon":5.36855,"is_reserved":false,"is_disabled":false,"rental_uris":{"android":"levelo://app?vid=a2e0ae39-2b48-4d8f-a696-fd57386d8135","ios":"levelo://app?vid=a2e0ae39-2b48-4d8f-a696-fd57386d8135"},"vehicle_type_id":"4","last_reported":1727363361,"current_range_meters":25200,"station_id":"ce4bgl92rcd13ifvqbq0","pricing_plan_id":"cebpf4jnsgd1na2vs0mg"},{"bike_id":"5b628548-12ea-4cc6-a01b-05cd55aa941e","system_id":"levelo_inurba_marseille","lat":43.27372,"lon":5.36257,"is_reserved":false,"is_disabled":false,"rental_uris":{"android":"levelo://app?vid=5b628548-12ea-4cc6-a01b-05cd55aa941e","ios":"levelo://app?vid=5b628548-12ea-4cc6-a01b-05cd55aa941e"},"vehicle_type_id":"4","last_reported":1727363361,"current_range_meters":27600,"station_id":"ce4bhbh2rcd13ifvqeo0","pricing_plan_id":"cebpf4jnsgd1na2vs0mg"},{"bike_id":"85c12d7a-8642-4d1c-8a64-0dc8042568f2","system_id":"levelo_inurba_marseille","lat":43.29583,"lon":5.3673,"is_reserved":false,"is_disabled":false,"rental_uris":{"android":"levelo://app?vid=85c12d7a-8642-4d1c-8a64-0dc8042568f2","ios":"levelo://app?vid=85c12d7a-8642-4d1c-8a64-0dc8042568f2"},"vehicle_type_id":"4","last_reported":1727363361,"current_range_meters":39200,"station_id":"ce4bgph2rcd13ifvqc2g","pricing_plan_id":"cebpf4jnsgd1na2vs0mg"},{"bike_id":"7f6c0da5-c521-4ae4-9c38-e4887541f9e8","system_id":"levelo_inurba_marseille","lat":43.32473,"lon":5.36568,"is_reserved":false,"is_disabled":false,"rental_uris":{"android":"levelo://app?vid=7f6c0da5-c521-4ae4-9c38-e4887541f9e8","ios":"levelo://app?vid=7f6c0da5-c521-4ae4-9c38-e4887541f9e8"},"vehicle_type_id":"4","last_reported":1727363361,"current_range_meters":5600,"station_id":"ce4bhs12rcd13ifvqhvg","pricing_plan_id":"cebpf4jnsgd1na2vs0mg"},{"bike_id":"b758bb5f-adae-4881-83e7-0e917c4e39a1","system_id":"levelo_inurba_marseille","lat":43.31995,"lon":5.38141,"is_reserved":false,"is_disabled":false,"rental_uris":{"android":"levelo://app?vid=b758bb5f-adae-4881-83e7-0e917c4e39a1","ios":"levelo://app?vid=b758bb5f-adae-4881-83e7-0e917c4e39a1"},"vehicle_type_id":"4","last_reported":1727363361,"current_range_meters":37600,"station_id":"ce4bhr12rcd13ifvqhpg","pricing_plan_id":"cebpf4jnsgd1na2vs0mg"},{"bike_id":"99a4ec35-ad18-40b5-8f15-ec7c0801dce5","system_id":"levelo_inurba_marseille","lat":43.301331,"lon":5.398433,"is_reserved":false,"is_disabled":false,"rental_uris":{"android":"levelo://app?vid=99a4ec35-ad18-40b5-8f15-ec7c0801dce5","ios":"levelo://app?vid=99a4ec35-ad18-40b5-8f15-ec7c0801dce5"},"vehicle_type_id":"4","last_reported":1727363361,"current_range_meters":9600,"station_id":"ce4bh0h2rcd13ifvqd40","pricing_plan_id":"cebpf4jnsgd1na2vs0mg"},{"bike_id":"55308ddf-e8c8-4247-abb7-ab025f388655","system_id":"levelo_inurba_marseille","lat":43.28034,"lon":5.36955,"is_reserved":false,"is_disabled":false,"rental_uris":{"android":"levelo://app?vid=55308ddf-e8c8-4247-abb7-ab025f388655","ios":"levelo://app?vid=55308ddf-e8c8-4247-abb7-ab025f388655"},"vehicle_type_id":"4","last_reported":1727363361,"current_range_meters":30400,"station_id":"ce4bha12rcd13ifvqef0","pricing_plan_id":"cebpf4jnsgd1na2vs0mg"},{"bike_id":"34bc05f8-b04c-4939-b1f8-a930a19ea5f8","system_id":"levelo_inurba_marseille","lat":43.33023,"lon":5.39039,"is_reserved":false,"is_disabled":false,"rental_uris":{"android":"levelo://app?vid=34bc05f8-b04c-4939-b1f8-a930a19ea5f8","ios":"levelo://app?vid=34bc05f8-b04c-4939-b1f8-a930a19ea5f8"},"vehicle_type_id":"4","last_reported":1727363361,"current_range_meters":36800,"station_id":"ce4bhr92rcd13ifvqhrg","pricing_plan_id":"cebpf4jnsgd1na2vs0mg"},{"bike_id":"af4d957f-ce4c-473a-a06a-7f39592a5509","system_id":"levelo_inurba_marseille","lat":43.33021,"lon":5.39042,"is_reserved":false,"is_disabled":false,"rental_uris":{"android":"levelo://app?vid=af4d957f-ce4c-473a-a06a-7f39592a5509","ios":"levelo://app?vid=af4d957f-ce4c-473a-a06a-7f39592a5509"},"vehicle_type_id":"4","last_reported":1727363361,"current_range_meters":38400,"station_id":"ce4bhr92rcd13ifvqhrg","pricing_plan_id":"cebpf4jnsgd1na2vs0mg"},{"bike_id":"07030c9f-b220-4d67-b434-1d818d1c7394","system_id":"levelo_inurba_marseille","lat":43.29901,"lon":5.43654,"is_reserved":false,"is_disabled":false,"rental_uris":{"android":"levelo://app?vid=07030c9f-b220-4d67-b434-1d818d1c7394","ios":"levelo://app?vid=07030c9f-b220-4d67-b434-1d818d1c7394"},"vehicle_type_id":"4","last_reported":1727363361,"current_range_meters":36800,"station_id":"ce4bhpp2rcd13ifvqhfg","pricing_plan_id":"cebpf4jnsgd1na2vs0mg"},{"bike_id":"b10cb576-df9d-4e54-a776-8bcf782a3ce4","system_id":"levelo_inurba_marseille","lat":43.25818,"lon":5.39431,"is_reserved":false,"is_disabled":false,"rental_uris":{"android":"levelo://app?vid=b10cb576-df9d-4e54-a776-8bcf782a3ce4","ios":"levelo://app?vid=b10cb576-df9d-4e54-a776-8bcf782a3ce4"},"vehicle_type_id":"4","last_reported":1727363361,"current_range_meters":8800,"station_id":"ce4bhip2rcd13ifvqft0","pricing_plan_id":"cebpf4jnsgd1na2vs0mg"},{"bike_id":"5135a1dd-24ee-44c0-8b9e-590a4ae53556","system_id":"levelo_inurba_marseille","lat":43.29874,"lon":5.39724,"is_reserved":false,"is_disabled":false,"rental_uris":{"android":"levelo://app?vid=5135a1dd-24ee-44c0-8b9e-590a4ae53556","ios":"levelo://app?vid=5135a1dd-24ee-44c0-8b9e-590a4ae53556"},"vehicle_type_id":"4","last_reported":1727363361,"current_range_meters":29600,"station_id":"ce4bh0h2rcd13ifvqd50","pricing_plan_id":"cebpf4jnsgd1na2vs0mg"},{"bike_id":"f17dbafc-151f-485c-a428-c0c83c10c6c9","system_id":"levelo_inurba_marseille","lat":43.29155,"lon":5.43969,"is_reserved":false,"is_disabled":false,"rental_uris":{"android":"levelo://app?vid=f17dbafc-151f-485c-a428-c0c83c10c6c9","ios":"levelo://app?vid=f17dbafc-151f-485c-a428-c0c83c10c6c9"},"vehicle_type_id":"4","last_reported":1727363361,"current_range_meters":20400,"station_id":"","pricing_plan_id":"cebpf4jnsgd1na2vs0mg"},{"bike_id":"c79d43be-46e3-4a09-b9ab-3e57d307410c","system_id":"levelo_inurba_marseille","lat":43.29634,"lon":5.37783,"is_reserved":false,"is_disabled":false,"rental_uris":{"android":"levelo://app?vid=c79d43be-46e3-4a09-b9ab-3e57d307410c","ios":"levelo://app?vid=c79d43be-46e3-4a09-b9ab-3e57d307410c"},"vehicle_type_id":"4","last_reported":1727363361,"current_range_meters":24400,"station_id":"ce4bgi92rcd13ifvqb90","pricing_plan_id":"cebpf4jnsgd1na2vs0mg"},{"bike_id":"cc0b6c0a-6872-4fe8-b06d-314c8ef793f1","system_id":"levelo_inurba_marseille","lat":43.26554,"lon":5.37291,"is_reserved":false,"is_disabled":false,"rental_uris":{"android":"levelo://app?vid=cc0b6c0a-6872-4fe8-b06d-314c8ef793f1","ios":"levelo://app?vid=cc0b6c0a-6872-4fe8-b06d-314c8ef793f1"},"vehicle_type_id":"4","last_reported":1727363361,"current_range_meters":11600,"station_id":"ce4bhg12rcd13ifvqf70","pricing_plan_id":"cebpf4jnsgd1na2vs0mg"},{"bike_id":"55caec12-1fa8-4c1e-bf85-ede42b91b473","system_id":"levelo_inurba_marseille","lat":43.31756,"lon":5.39021,"is_reserved":false,"is_disabled":false,"rental_uris":{"android":"levelo://app?vid=55caec12-1fa8-4c1e-bf85-ede42b91b473","ios":"levelo://app?vid=55caec12-1fa8-4c1e-bf85-ede42b91b473"},"vehicle_type_id":"4","last_reported":1727363361,"current_range_meters":15200,"station_id":"ce4bhqp2rcd13ifvqhng","pricing_plan_id":"cebpf4jnsgd1na2vs0mg"},{"bike_id":"93393340-1373-4e64-bf58-428b54d6d56e","system_id":"levelo_inurba_marseille","lat":43.25087,"lon":5.39524,"is_reserved":false,"is_disabled":false,"rental_uris":{"android":"levelo://app?vid=93393340-1373-4e64-bf58-428b54d6d56e","ios":"levelo://app?vid=93393340-1373-4e64-bf58-428b54d6d56e"},"vehicle_type_id":"4","last_reported":1727363361,"current_range_meters":30000,"station_id":"ce4bhm12rcd13ifvqgkg","pricing_plan_id":"cebpf4jnsgd1na2vs0mg"},{"bike_id":"7cb42e29-f9dd-416b-bdbf-cb3f6f142bc0","system_id":"levelo_inurba_marseille","lat":43.26559,"lon":5.37281,"is_reserved":false,"is_disabled":false,"rental_uris":{"android":"levelo://app?vid=7cb42e29-f9dd-416b-bdbf-cb3f6f142bc0","ios":"levelo://app?vid=7cb42e29-f9dd-416b-bdbf-cb3f6f142bc0"},"vehicle_type_id":"4","last_reported":1727363361,"current_range_meters":38800,"station_id":"ce4bhg12rcd13ifvqf70","pricing_plan_id":"cebpf4jnsgd1na2vs0mg"},{"bike_id":"3c8ca5fa-5a42-4902-9c70-3c51e8ac616a","system_id":"levelo_inurba_marseille","lat":43.30547,"lon":5.36528,"is_reserved":false,"is_disabled":false,"rental_uris":{"android":"levelo://app?vid=3c8ca5fa-5a42-4902-9c70-3c51e8ac616a","ios":"levelo://app?vid=3c8ca5fa-5a42-4902-9c70-3c51e8ac616a"},"vehicle_type_id":"4","last_reported":1727363361,"current_range_meters":24800,"station_id":"ce4bgs12rcd13ifvqcag","pricing_plan_id":"cebpf4jnsgd1na2vs0mg"},{"bike_id":"b83a07c8-3d44-4aa5-a716-78f6a1bb0564","system_id":"levelo_inurba_marseille","lat":43.32478,"lon":5.36572,"is_reserved":false,"is_disabled":false,"rental_uris":{"android":"levelo://app?vid=b83a07c8-3d44-4aa5-a716-78f6a1bb0564","ios":"levelo://app?vid=b83a07c8-3d44-4aa5-a716-78f6a1bb0564"},"vehicle_type_id":"4","last_reported":1727363361,"current_range_meters":38800,"station_id":"ce4bhs12rcd13ifvqhvg","pricing_plan_id":"cebpf4jnsgd1na2vs0mg"},{"bike_id":"2453f3b5-7d62-449d-9e47-e0f4370ec355","system_id":"levelo_inurba_marseille","lat":43.2987,"lon":5.39736,"is_reserved":false,"is_disabled":false,"rental_uris":{"android":"levelo://app?vid=2453f3b5-7d62-449d-9e47-e0f4370ec355","ios":"levelo://app?vid=2453f3b5-7d62-449d-9e47-e0f4370ec355"},"vehicle_type_id":"4","last_reported":1727363361,"current_range_meters":34800,"station_id":"ce4bh0h2rcd13ifvqd50","pricing_plan_id":"cebpf4jnsgd1na2vs0mg"},{"bike_id":"6f4f89f7-0882-485d-b2cf-ed4734bcb9d6","system_id":"levelo_inurba_marseille","lat":43.298689,"lon":5.397294,"is_reserved":false,"is_disabled":false,"rental_uris":{"android":"levelo://app?vid=6f4f89f7-0882-485d-b2cf-ed4734bcb9d6","ios":"levelo://app?vid=6f4f89f7-0882-485d-b2cf-ed4734bcb9d6"},"vehicle_type_id":"4","last_reported":1727363361,"current_range_meters":37600,"station_id":"ce4bh0h2rcd13ifvqd50","pricing_plan_id":"cebpf4jnsgd1na2vs0mg"},{"bike_id":"913e1bcd-376a-43bf-b048-d7f4e5984617","system_id":"levelo_inurba_marseille","lat":43.292,"lon":5.39327,"is_reserved":false,"is_disabled":false,"rental_uris":{"android":"levelo://app?vid=913e1bcd-376a-43bf-b048-d7f4e5984617","ios":"levelo://app?vid=913e1bcd-376a-43bf-b048-d7f4e5984617"},"vehicle_type_id":"4","last_reported":1727363361,"current_range_meters":6000,"station_id":"ce4bh192rcd13ifvqdd0","pricing_plan_id":"cebpf4jnsgd1na2vs0mg"},{"bike_id":"9b51c4ec-4702-43aa-a8fb-1cc696b9bd8a","system_id":"levelo_inurba_marseille","lat":43.26555,"lon":5.37288,"is_reserved":false,"is_disabled":false,"rental_uris":{"android":"levelo://app?vid=9b51c4ec-4702-43aa-a8fb-1cc696b9bd8a","ios":"levelo://app?vid=9b51c4ec-4702-43aa-a8fb-1cc696b9bd8a"},"vehicle_type_id":"4","last_reported":1727363361,"current_range_meters":38800,"station_id":"ce4bhg12rcd13ifvqf70","pricing_plan_id":"cebpf4jnsgd1na2vs0mg"},{"bike_id":"bda5f711-5e8e-4d77-bdcc-802b9cadc9f1","system_id":"levelo_inurba_marseille","lat":43.26199,"lon":5.37922,"is_reserved":false,"is_disabled":false,"rental_uris":{"android":"levelo://app?vid=bda5f711-5e8e-4d77-bdcc-802b9cadc9f1","ios":"levelo://app?vid=bda5f711-5e8e-4d77-bdcc-802b9cadc9f1"},"vehicle_type_id":"4","last_reported":1727363361,"current_range_meters":24400,"station_id":"ce4bhjp2rcd13ifvqg90","pricing_plan_id":"cebpf4jnsgd1na2vs0mg"},{"bike_id":"72d8739d-7d14-4f0f-854d-a1707c09e939","system_id":"levelo_inurba_marseille","lat":43.29575,"lon":5.37522,"is_reserved":false,"is_disabled":false,"rental_uris":{"android":"levelo://app?vid=72d8739d-7d14-4f0f-854d-a1707c09e939","ios":"levelo://app?vid=72d8739d-7d14-4f0f-854d-a1707c09e939"},"vehicle_type_id":"4","last_reported":1727363361,"current_range_meters":39200,"station_id":"ce4bgh92rcd13ifvqb50","pricing_plan_id":"cebpf4jnsgd1na2vs0mg"},{"bike_id":"a21595e0-a01a-4841-af92-f15448889d2d","system_id":"levelo_inurba_marseille","lat":43.2993,"lon":5.36528,"is_reserved":false,"is_disabled":false,"rental_uris":{"android":"levelo://app?vid=a21595e0-a01a-4841-af92-f15448889d2d","ios":"levelo://app?vid=a21595e0-a01a-4841-af92-f15448889d2d"},"vehicle_type_id":"4","last_reported":1727363361,"current_range_meters":15200,"station_id":"ce4bgm92rcd13ifvqbr0","pricing_plan_id":"cebpf4jnsgd1na2vs0mg"},{"bike_id":"4bc95217-dea4-4a7b-8469-c50852870968","system_id":"levelo_inurba_marseille","lat":43.28462,"lon":5.35885,"is_reserved":false,"is_disabled":false,"rental_uris":{"android":"levelo://app?vid=4bc95217-dea4-4a7b-8469-c50852870968","ios":"levelo://app?vid=4bc95217-dea4-4a7b-8469-c50852870968"},"vehicle_type_id":"4","last_reported":1727363361,"current_range_meters":31200,"station_id":"ce4bhah2rcd13ifvqei0","pricing_plan_id":"cebpf4jnsgd1na2vs0mg"},{"bike_id":"72705e1c-c4dc-430f-944a-389f4252820c","system_id":"levelo_inurba_marseille","lat":43.29548,"lon":5.38571,"is_reserved":false,"is_disabled":false,"rental_uris":{"android":"levelo://app?vid=72705e1c-c4dc-430f-944a-389f4252820c","ios":"levelo://app?vid=72705e1c-c4dc-430f-944a-389f4252820c"},"vehicle_type_id":"4","last_reported":1727363361,"current_range_meters":16000,"station_id":"ce4bgih2rcd13ifvqba0","pricing_plan_id":"cebpf4jnsgd1na2vs0mg"},{"bike_id":"2987d70c-2bef-4ead-a1ee-68e800f55ebf","system_id":"levelo_inurba_marseille","lat":43.28075,"lon":5.39658,"is_reserved":false,"is_disabled":false,"rental_uris":{"android":"levelo://app?vid=2987d70c-2bef-4ead-a1ee-68e800f55ebf","ios":"levelo://app?vid=2987d70c-2bef-4ead-a1ee-68e800f55ebf"},"vehicle_type_id":"4","last_reported":1727363361,"current_range_meters":27200,"station_id":"ce4bho12rcd13ifvqh2g","pricing_plan_id":"cebpf4jnsgd1na2vs0mg"},{"bike_id":"086bf150-8ff0-4d55-b819-b2023be24bfc","system_id":"levelo_inurba_marseille","lat":43.24178,"lon":5.39722,"is_reserved":false,"is_disabled":false,"rental_uris":{"android":"levelo://app?vid=086bf150-8ff0-4d55-b819-b2023be24bfc","ios":"levelo://app?vid=086bf150-8ff0-4d55-b819-b2023be24bfc"},"vehicle_type_id":"4","last_reported":1727363361,"current_range_meters":32400,"station_id":"ce4bhn12rcd13ifvqgpg","pricing_plan_id":"cebpf4jnsgd1na2vs0mg"},{"bike_id":"7c99334a-0830-44a1-9c44-035f9c51d269","system_id":"levelo_inurba_marseille","lat":43.30934,"lon":5.4014,"is_reserved":false,"is_disabled":false,"rental_uris":{"android":"levelo://app?vid=7c99334a-0830-44a1-9c44-035f9c51d269","ios":"levelo://app?vid=7c99334a-0830-44a1-9c44-035f9c51d269"},"vehicle_type_id":"4","last_reported":1727363361,"current_range_meters":24800,"station_id":"ce4bgvp2rcd13ifvqct0","pricing_plan_id":"cebpf4jnsgd1na2vs0mg"},{"bike_id":"aa9b0774-1fb2-4ab5-9d78-b05df5a96c52","system_id":"levelo_inurba_marseille","lat":43.29129,"lon":5.385269,"is_reserved":false,"is_disabled":false,"rental_uris":{"android":"levelo://app?vid=aa9b0774-1fb2-4ab5-9d78-b05df5a96c52","ios":"levelo://app?vid=aa9b0774-1fb2-4ab5-9d78-b05df5a96c52"},"vehicle_type_id":"4","last_reported":1727363361,"current_range_meters":11200,"station_id":"ce4bh4p2rcd13ifvqe0g","pricing_plan_id":"cebpf4jnsgd1na2vs0mg"},{"bike_id":"ea5f2c3b-c36a-436b-9ddd-236efed01a15","system_id":"levelo_inurba_marseille","lat":43.26494,"lon":5.39551,"is_reserved":false,"is_disabled":false,"rental_uris":{"android":"levelo://app?vid=ea5f2c3b-c36a-436b-9ddd-236efed01a15","ios":"levelo://app?vid=ea5f2c3b-c36a-436b-9ddd-236efed01a15"},"vehicle_type_id":"4","last_reported":1727363361,"current_range_meters":29600,"station_id":"ce4bhi12rcd13ifvqfq0","pricing_plan_id":"cebpf4jnsgd1na2vs0mg"},{"bike_id":"34eea600-a37c-41db-817a-1b7731953a8a","system_id":"levelo_inurba_marseille","lat":43.31228,"lon":5.36861,"is_reserved":false,"is_disabled":false,"rental_uris":{"android":"levelo://app?vid=34eea600-a37c-41db-817a-1b7731953a8a","ios":"levelo://app?vid=34eea600-a37c-41db-817a-1b7731953a8a"},"vehicle_type_id":"4","last_reported":1727363361,"current_range_meters":22000,"station_id":"ce4bgl92rcd13ifvqbq0","pricing_plan_id":"cebpf4jnsgd1na2vs0mg"},{"bike_id":"4d365431-6356-4eca-a9f7-52469017e40a","system_id":"levelo_inurba_marseille","lat":43.250697,"lon":5.375491,"is_reserved":false,"is_disabled":false,"rental_uris":{"android":"levelo://app?vid=4d365431-6356-4eca-a9f7-52469017e40a","ios":"levelo://app?vid=4d365431-6356-4eca-a9f7-52469017e40a"},"vehicle_type_id":"4","last_reported":1727363361,"current_range_meters":6000,"station_id":"ce4bhi12rcd13ifvqfo0","pricing_plan_id":"cebpf4jnsgd1na2vs0mg"},{"bike_id":"5da38e69-f62b-4de3-bea3-8379997e85c5","system_id":"levelo_inurba_marseille","lat":43.32476,"lon":5.36558,"is_reserved":false,"is_disabled":false,"rental_uris":{"android":"levelo://app?vid=5da38e69-f62b-4de3-bea3-8379997e85c5","ios":"levelo://app?vid=5da38e69-f62b-4de3-bea3-8379997e85c5"},"vehicle_type_id":"4","last_reported":1727363361,"current_range_meters":33200,"station_id":"ce4bhs12rcd13ifvqhvg","pricing_plan_id":"cebpf4jnsgd1na2vs0mg"},{"bike_id":"291b9cad-6a01-4358-a5af-88db56f625cf","system_id":"levelo_inurba_marseille","lat":43.28074,"lon":5.39649,"is_reserved":false,"is_disabled":false,"rental_uris":{"android":"levelo://app?vid=291b9cad-6a01-4358-a5af-88db56f625cf","ios":"levelo://app?vid=291b9cad-6a01-4358-a5af-88db56f625cf"},"vehicle_type_id":"4","last_reported":1727363361,"current_range_meters":6400,"station_id":"ce4bho12rcd13ifvqh2g","pricing_plan_id":"cebpf4jnsgd1na2vs0mg"},{"bike_id":"27f0e7ef-2f32-4907-8358-3f480205bff0","system_id":"levelo_inurba_marseille","lat":43.26811,"lon":5.40234,"is_reserved":false,"is_disabled":false,"rental_uris":{"android":"levelo://app?vid=27f0e7ef-2f32-4907-8358-3f480205bff0","ios":"levelo://app?vid=27f0e7ef-2f32-4907-8358-3f480205bff0"},"vehicle_type_id":"4","last_reported":1727363361,"current_range_meters":30000,"station_id":"ce501612rcd8frsf0b60","pricing_plan_id":"cebpf4jnsgd1na2vs0mg"},{"bike_id":"a8f3e812-ec70-4c19-a3c0-dd0fa44d30e5","system_id":"levelo_inurba_marseille","lat":43.29264,"lon":5.38433,"is_reserved":false,"is_disabled":false,"rental_uris":{"android":"levelo://app?vid=a8f3e812-ec70-4c19-a3c0-dd0fa44d30e5","ios":"levelo://app?vid=a8f3e812-ec70-4c19-a3c0-dd0fa44d30e5"},"vehicle_type_id":"4","last_reported":1727363361,"current_range_meters":4800,"station_id":"ce4bh692rcd13ifvqea0","pricing_plan_id":"cebpf4jnsgd1na2vs0mg"},{"bike_id":"9be3a72b-5071-4340-bc4b-665e1c70d5fc","system_id":"levelo_inurba_marseille","lat":43.28347,"lon":5.38616,"is_reserved":false,"is_disabled":false,"rental_uris":{"android":"levelo://app?vid=9be3a72b-5071-4340-bc4b-665e1c70d5fc","ios":"levelo://app?vid=9be3a72b-5071-4340-bc4b-665e1c70d5fc"},"vehicle_type_id":"4","last_reported":1727363361,"current_range_meters":38800,"station_id":"ce4bh492rcd13ifvqdvg","pricing_plan_id":"cebpf4jnsgd1na2vs0mg"},{"bike_id":"7702990c-8537-4739-83ad-ce931618c0f5","system_id":"levelo_inurba_marseille","lat":43.2593,"lon":5.40906,"is_reserved":false,"is_disabled":false,"rental_uris":{"android":"levelo://app?vid=7702990c-8537-4739-83ad-ce931618c0f5","ios":"levelo://app?vid=7702990c-8537-4739-83ad-ce931618c0f5"},"vehicle_type_id":"4","last_reported":1727363361,"current_range_meters":20000,"station_id":"ce4bhm92rcd13ifvqglg","pricing_plan_id":"cebpf4jnsgd1na2vs0mg"},{"bike_id":"495af44c-305f-45f7-a848-444063c1500c","system_id":"levelo_inurba_marseille","lat":43.31711,"lon":5.43705,"is_reserved":false,"is_disabled":false,"rental_uris":{"android":"levelo://app?vid=495af44c-305f-45f7-a848-444063c1500c","ios":"levelo://app?vid=495af44c-305f-45f7-a848-444063c1500c"},"vehicle_type_id":"4","last_reported":1727363361,"current_range_meters":31200,"station_id":"ce4bhp92rcd13ifvqhcg","pricing_plan_id":"cebpf4jnsgd1na2vs0mg"},{"bike_id":"e1c54d85-5b43-4b63-85b1-13748f81aee7","system_id":"levelo_inurba_marseille","lat":43.30544,"lon":5.36524,"is_reserved":false,"is_disabled":false,"rental_uris":{"android":"levelo://app?vid=e1c54d85-5b43-4b63-85b1-13748f81aee7","ios":"levelo://app?vid=e1c54d85-5b43-4b63-85b1-13748f81aee7"},"vehicle_type_id":"4","last_reported":1727363361,"current_range_meters":28800,"station_id":"ce4bgs12rcd13ifvqcag","pricing_plan_id":"cebpf4jnsgd1na2vs0mg"},{"bike_id":"2ff6643d-5a36-43ec-8a7f-5abac739b8d2","system_id":"levelo_inurba_marseille","lat":43.28273,"lon":5.35069,"is_reserved":false,"is_disabled":false,"rental_uris":{"android":"levelo://app?vid=2ff6643d-5a36-43ec-8a7f-5abac739b8d2","ios":"levelo://app?vid=2ff6643d-5a36-43ec-8a7f-5abac739b8d2"},"vehicle_type_id":"4","last_reported":1727363361,"current_range_meters":27200,"station_id":"ce4bhbp2rcd13ifvqerg","pricing_plan_id":"cebpf4jnsgd1na2vs0mg"},{"bike_id":"cfb0d988-5687-40d7-90a4-b89fdbb4e017","system_id":"levelo_inurba_marseille","lat":43.324849,"lon":5.365657,"is_reserved":false,"is_disabled":false,"rental_uris":{"android":"levelo://app?vid=cfb0d988-5687-40d7-90a4-b89fdbb4e017","ios":"levelo://app?vid=cfb0d988-5687-40d7-90a4-b89fdbb4e017"},"vehicle_type_id":"4","last_reported":1727363361,"current_range_meters":38800,"station_id":"ce4bhs12rcd13ifvqhvg","pricing_plan_id":"cebpf4jnsgd1na2vs0mg"},{"bike_id":"3b15978d-7d67-4897-beea-f04b24e6b93e","system_id":"levelo_inurba_marseille","lat":43.25716,"lon":5.41114,"is_reserved":false,"is_disabled":false,"rental_uris":{"android":"levelo://app?vid=3b15978d-7d67-4897-beea-f04b24e6b93e","ios":"levelo://app?vid=3b15978d-7d67-4897-beea-f04b24e6b93e"},"vehicle_type_id":"4","last_reported":1727363361,"current_range_meters":11600,"station_id":"ce4bhkp2rcd13ifvqgd0","pricing_plan_id":"cebpf4jnsgd1na2vs0mg"},{"bike_id":"3a8578e1-e10d-4adf-9e60-49ed71fbaa90","system_id":"levelo_inurba_marseille","lat":43.26558,"lon":5.37287,"is_reserved":false,"is_disabled":false,"rental_uris":{"android":"levelo://app?vid=3a8578e1-e10d-4adf-9e60-49ed71fbaa90","ios":"levelo://app?vid=3a8578e1-e10d-4adf-9e60-49ed71fbaa90"},"vehicle_type_id":"4","last_reported":1727363361,"current_range_meters":9200,"station_id":"ce4bhg12rcd13ifvqf70","pricing_plan_id":"cebpf4jnsgd1na2vs0mg"},{"bike_id":"290aaebf-3545-4d05-91ca-351ecb07f9da","system_id":"levelo_inurba_marseille","lat":43.28462,"lon":5.35894,"is_reserved":false,"is_disabled":false,"rental_uris":{"android":"levelo://app?vid=290aaebf-3545-4d05-91ca-351ecb07f9da","ios":"levelo://app?vid=290aaebf-3545-4d05-91ca-351ecb07f9da"},"vehicle_type_id":"4","last_reported":1727363361,"current_range_meters":24400,"station_id":"ce4bhah2rcd13ifvqei0","pricing_plan_id":"cebpf4jnsgd1na2vs0mg"},