{"last_updated":1733300011,"ttl":60,"version":"2.2","data":{"bikes":[{"bike_id":"898b27da-5320-4afd-adf2-6fa4595de308","system_id":"levelo_inurba_marseille","lat":43.272035,"lon":5.390282,"is_reserved":false,"is_disabled":false,"rental_uris":{"android":"levelo://app?vid=898b27da-5320-4afd-adf2-6fa4595de308","ios":"levelo://app?vid=898b27da-5320-4afd-adf2-6fa4595de308"},"vehicle_type_id":"4","last_reported":1733300011,"current_range_meters":35200,"station_id":"","pricing_plan_id":"cebpf4jnsgd1na2vs0mg"},{"bike_id":"c7c9b1ea-ff41-428b-948e-6be817148a30","system_id":"levelo_inurba_marseille","lat":43.27495,"lon":5.42452,"is_reserved":false,"is_disabled":false,"rental_uris":{"android":"levelo://app?vid=c7c9b1ea-ff41-428b-948e-6be817148a30","ios":"levelo://app?vid=c7c9b1ea-ff41-428b-948e-6be817148a30"},"vehicle_type_id":"4","last_reported":1733300011,"current_range_meters":27200,"station_id":"ce4bhn92rcd13ifvqgrg","pricing_plan_id":"cebpf4jnsgd1na2vs0mg"},{"bike_id":"5a1eb732-3c76-4e26-9df5-124a959b075d","system_id":"levelo_inurba_marseille","lat":43.32033,"lon":5.41528,"is_reserved":false,"is_disabled":false,"rental_uris":{"android":"levelo://app?vid=5a1eb732-3c76-4e26-9df5-124a959b075d","ios":"levelo://app?vid=5a1eb732-3c76-4e26-9df5-124a959b075d"},"vehicle_type_id":"4","last_reported":1733300011,"current_range_meters":38800,"station_id":"ce4bhq92rcd13ifvqhkg","pricing_plan_id":"cebpf4jnsgd1na2vs0mg"},{"bike_id":"df479c2c-35ac-44ad-b9d6-81c89ed769ce","system_id":"levelo_inurba_marseille","lat":43.29699,"lon":5.37054,"is_reserved":false,"is_disabled":true,"rental_uris":{"android":"levelo://app?vid=df479c2c-35ac-44ad-b9d6-81c89ed769ce","ios":"levelo://app?vid=df479c2c-35ac-44ad-b9d6-81c89ed769ce"},"vehicle_type_id":"4","last_reported":1733300011,"current_range_meters":0,"station_id":"","pricing_plan_id":"cebpf4jnsgd1na2vs0mg"},{"bike_id":"8e029eaf-e104-4c5d-858d-6cd39de73d09","system_id":"levelo_inurba_marseille","lat":43.24168,"lon":5.36398,"is_reserved":false,"is_disabled":false,"rental_uris":{"android":"levelo://app?vid=8e029eaf-e104-4c5d-858d-6cd39de73d09","ios":"levelo://app?vid=8e029eaf-e104-4c5d-858d-6cd39de73d09"},"vehicle_type_id":"4","last_reported":1733300011,"current_range_meters":10000,"station_id":"cpo36qri1sfpv3e86is0","pricing_plan_id":"cebpf4jnsgd1na2vs0mg"},{"bike_id":"fd85f247-bc9f-4512-8957-89e7641ccdee","system_id":"levelo_inurba_marseille","lat":43.32476,"lon":5.36575,"is_reserved":false,"is_disabled":false,"rental_uris":{"android":"levelo://app?vid=fd85f247-bc9f-4512-8957-89e7641ccdee","ios":"levelo://app?vid=fd85f247-bc9f-4512-8957-89e7641ccdee"},"vehicle_type_id":"4","last_reported":1733300011,"current_range_meters":35600,"station_id":"ce4bhs12rcd13ifvqhvg","pricing_plan_id":"cebpf4jnsgd1na2vs0mg"},{"bike_id":"4701f84a-2e66-4f8e-b13b-3ea643c199cc","system_id":"levelo_inurba_marseille","lat":43.28475,"lon":5.38416,"is_reserved":false,"is_disabled":false,"rental_uris":{"android":"levelo://app?vid=4701f84a-2e66-4f8e-b13b-3ea643c199cc","ios":"levelo://app?vid=4701f84a-2e66-4f8e-b13b-3ea643c199cc"},"vehicle_type_id":"4","last_reported":1733300011,"current_range_meters":25600,"station_id":"ce4bh512rcd13ifvqe3g","pricing_plan_id":"cebpf4jnsgd1na2vs0mg"},{"bike_id":"759ec0f9-7c00-4343-91dd-be7b6e2cf7e0","system_id":"levelo_inurba_marseille","lat":43.27686,"lon":5.38913,"is_reserved":false,"is_disabled":true,"rental_uris":{"android":"levelo://app?vid=759ec0f9-7c00-4343-91dd-be7b6e2cf7e0","ios":"levelo://app?vid=759ec0f9-7c00-4343-91dd-be7b6e2cf7e0"},"vehicle_type_id":"4","last_reported":1733300011,"current_range_meters":30000,"station_id":"ce4bhi12rcd13ifvqfo0","pricing_plan_id":"cebpf4jnsgd1na2vs0mg"},{"bike_id":"51b51fa2-c31e-4579-91e7-095efd534359","system_id":"levelo_inurba_marseille","lat":43.23199,"lon":5.35547,"is_reserved":false,"is_disabled":false,"rental_uris":{"android":"levelo://app?vid=51b51fa2-c31e-4579-91e7-095efd534359","ios":"levelo://app?vid=51b51fa2-c31e-4579-91e7-095efd534359"},"vehicle_type_id":"4","last_reported":1733300011,"current_range_meters":38800,"station_id":"ce4bhu92rcd13ifvqi70","pricing_plan_id":"cebpf4jnsgd1na2vs0mg"},{"bike_id":"c34e62e4-6031-402e-8cf8-50fa962bdd62","system_id":"levelo_inurba_marseille","lat":43.3015,"lon":5.38093,"is_reserved":false,"is_disabled":false,"rental_uris":{"android":"levelo://app?vid=c34e62e4-6031-402e-8cf8-50fa962bdd62","ios":"levelo://app?vid=c34e62e4-6031-402e-8cf8-50fa962bdd62"},"vehicle_type_id":"4","last_reported":1733300011,"current_range_meters":36000,"station_id":"ce4bgjp2rcd13ifvqbh0","pricing_plan_id":"cebpf4jnsgd1na2vs0mg"},{"bike_id":"81b9f42f-e52e-4130-a374-8b84b59ff9ed","system_id":"levelo_inurba_marseille","lat":43.27812,"lon":5.40701,"is_reserved":false,"is_disabled":false,"rental_uris":{"android":"levelo://app?vid=81b9f42f-e52e-4130-a374-8b84b59ff9ed","ios":"levelo://app?vid=81b9f42f-e52e-4130-a374-8b84b59ff9ed"},"vehicle_type_id":"4","last_reported":1733300011,"current_range_meters":31200,"station_id":"ce4bhnh2rcd13ifvqgtg","pricing_plan_id":"cebpf4jnsgd1na2vs0mg"},{"bike_id":"be407bbe-d1ce-48de-8db2-09114af9efd7","system_id":"levelo_inurba_marseille","lat":43.32364,"lon":5.36759,"is_reserved":false,"is_disabled":false,"rental_uris":{"android":"levelo://app?vid=be407bbe-d1ce-48de-8db2-09114af9efd7","ios":"levelo://app?vid=be407bbe-d1ce-48de-8db2-09114af9efd7"},"vehicle_type_id":"4","last_reported":1733300011,"current_range_meters":36000,"station_id":"ce4bhsh2rcd13ifvqi2g","pricing_plan_id":"cebpf4jnsgd1na2vs0mg"},{"bike_id":"cb16add6-7784-4ce1-9466-336edf1b5cce","system_id":"levelo_inurba_marseille","lat":43.28151,"lon":5.42639,"is_reserved":false,"is_disabled":false,"rental_uris":{"android":"levelo://app?vid=cb16add6-7784-4ce1-9466-336edf1b5cce","ios":"levelo://app?vid=cb16add6-7784-4ce1-9466-336edf1b5cce"},"vehicle_type_id":"4","last_reported":1733300011,"current_range_meters":12400,"station_id":"ce4bhnh2rcd13ifvqgug","pricing_plan_id":"cebpf4jnsgd1na2vs0mg"},{"bike_id":"d7d56744-7933-4a02-bc9c-ae58ef8af206","system_id":"levelo_inurba_marseille","lat":43.27497,"lon":5.42474,"is_reserved":false,"is_disabled":false,"rental_uris":{"android":"levelo://app?vid=d7d56744-7933-4a02-bc9c-ae58ef8af206","ios":"levelo://app?vid=d7d56744-7933-4a02-bc9c-ae58ef8af206"},"vehicle_type_id":"4","last_reported":1733300011,"current_range_meters":25600,"station_id":"ce4bhn92rcd13ifvqgrg","pricing_plan_id":"cebpf4jnsgd1na2vs0mg"},{"bike_id":"3d4cb1b0-1be4-498c-83cb-c60623bfb763","system_id":"levelo_inurba_marseille","lat":43.28976,"lon":5.37825,"is_reserved":false,"is_disabled":false,"rental_uris":{"android":"levelo://app?vid=3d4cb1b0-1be4-498c-83cb-c60623bfb763","ios":"levelo://app?vid=3d4cb1b0-1be4-498c-83cb-c60623bfb763"},"vehicle_type_id":"4","last_reported":1733300011,"current_range_meters":6400,"station_id":"ce4bh9p2rcd13ifvqed0","pricing_plan_id":"cebpf4jnsgd1na2vs0mg"},{"bike_id":"8bd642b2-0279-44c7-9ee2-fc3b57332c83","system_id":"levelo_inurba_marseille","lat":43.27455,"lon":5.40073,"is_reserved":false,"is_disabled":true,"rental_uris":{"android":"levelo://app?vid=8bd642b2-0279-44c7-9ee2-fc3b57332c83","ios":"levelo://app?vid=8bd642b2-0279-44c7-9ee2-fc3b57332c83"},"vehicle_type_id":"4","last_reported":1733300011,"current_range_meters":0,"station_id":"","pricing_plan_id":"cebpf4jnsgd1na2vs0mg"},{"bike_id":"6bf4110d-986c-4044-ae49-e1e8b2aadc14","system_id":"levelo_inurba_marseille","lat":43.28154,"lon":5.42645,"is_reserved":false,"is_disabled":false,"rental_uris":{"android":"levelo://app?vid=6bf4110d-986c-4044-ae49-e1e8b2aadc14","ios":"levelo://app?vid=6bf4110d-986c-4044-ae49-e1e8b2aadc14"},"vehicle_type_id":"4","last_reported":1733300011,"current_range_meters":39200,"station_id":"ce4bhnh2rcd13ifvqgug","pricing_plan_id":"cebpf4jnsgd1na2vs0mg"},{"bike_id":"377cecde-5a62-4012-96f6-a6c6965bd36e","system_id":"levelo_inurba_marseille","lat":43.30917,"lon":5.3684,"is_reserved":false,"is_disabled":false,"rental_uris":{"android":"levelo://app?vid=377cecde-5a62-4012-96f6-a6c6965bd36e","ios":"levelo://app?vid=377cecde-5a62-4012-96f6-a6c6965bd36e"},"vehicle_type_id":"4","last_reported":1733300011,"current_range_meters":30400,"station_id":"ce4bgn92rcd13ifvqbvg","pricing_plan_id":"cebpf4jnsgd1na2vs0mg"},{"bike_id":"983de03b-3bae-4e39-986a-982ef0dc0d35","system_id":"levelo_inurba_marseille","lat":43.24179,"lon":5.39718,"is_reserved":false,"is_disabled":false,"rental_uris":{"android":"levelo://app?vid=983de03b-3bae-4e39-986a-982ef0dc0d35","ios":"levelo://app?vid=983de03b-3bae-4e39-986a-982ef0dc0d35"},"vehicle_type_id":"4","last_reported":1733300011,"current_range_meters":28400,"station_id":"ce4bhn12rcd13ifvqgpg","pricing_plan_id":"cebpf4jnsgd1na2vs0mg"},{"bike_id":"2a8bea7a-c003-4a5e-9cc2-8b79eb366d78","system_id":"levelo_inurba_marseille","lat":43.26189,"lon":5.37451,"is_reserved":false,"is_disabled":true,"rental_uris":{"android":"levelo://app?vid=2a8bea7a-c003-4a5e-9cc2-8b79eb366d78","ios":"levelo://app?vid=2a8bea7a-c003-4a5e-9cc2-8b79eb366d78"},"vehicle_type_id":"4","last_reported":1733300011,"current_range_meters":35600,"station_id":"ce4bhgp2rcd13ifvqfc0","pricing_plan_id":"cebpf4jnsgd1na2vs0mg"},{"bike_id":"ab4ec4be-9f6e-4c60-97d8-25eb522e5410","system_id":"levelo_inurba_marseille","lat":43.25938,"lon":5.40901,"is_reserved":false,"is_disabled":false,"rental_uris":{"android":"levelo://app?vid=ab4ec4be-9f6e-4c60-97d8-25eb522e5410","ios":"levelo://app?vid=ab4ec4be-9f6e-4c60-97d8-25eb522e5410"},"vehicle_type_id":"4","last_reported":1733300011,"current_range_meters":33200,"station_id":"ce4bhm92rcd13ifvqglg","pricing_plan_id":"cebpf4jnsgd1na2vs0mg"},{"bike_id":"60455433-2e10-4db3-afb0-e7815633fb4f","system_id":"levelo_inurba_marseille","lat":43.2668,"lon":5.38257,"is_reserved":false,"is_disabled":false,"rental_uris":{"android":"levelo://app?vid=60455433-2e10-4db3-afb0-e7815633fb4f","ios":"levelo://app?vid=60455433-2e10-4db3-afb0-e7815633fb4f"},"vehicle_type_id":"4","last_reported":1733300011,"current_range_meters":32400,"station_id":"ce4bhg92rcd13ifvqf90","pricing_plan_id":"cebpf4jnsgd1na2vs0mg"},{"bike_id":"c9ae347f-afd8-436c-933c-cf5e2e790d85","system_id":"levelo_inurba_marseille","lat":43.30215,"lon":5.39452,"is_reserved":false,"is_disabled":true,"rental_uris":{"android":"levelo://app?vid=c9ae347f-afd8-436c-933c-cf5e2e790d85","ios":"levelo://app?vid=c9ae347f-afd8-436c-933c-cf5e2e790d85"},"vehicle_type_id":"4","last_reported":1733300011,"current_range_meters":30800,"station_id":"ce4bh0p2rcd13ifvqd70","pricing_plan_id":"cebpf4jnsgd1na2vs0mg"},{"bike_id":"8f490f2f-b0ca-46b2-bdf9-7844263bb7a4","system_id":"levelo_inurba_marseille","lat":43.30912,"lon":5.36841,"is_reserved":false,"is_disabled":false,"rental_uris":{"android":"levelo://app?vid=8f490f2f-b0ca-46b2-bdf9-7844263bb7a4","ios":"levelo://app?vid=8f490f2f-b0ca-46b2-bdf9-7844263bb7a4"},"vehicle_type_id":"4","last_reported":1733300011,"current_range_meters":32400,"station_id":"ce4bgn92rcd13ifvqbvg","pricing_plan_id":"cebpf4jnsgd1na2vs0mg"},{"bike_id":"f09894a7-a212-4aa9-a648-c6f35175e321","system_id":"levelo_inurba_marseille","lat":43.295747,"lon":5.375211,"is_reserved":false,"is_disabled":false,"rental_uris":{"android":"levelo://app?vid=f09894a7-a212-4aa9-a648-c6f35175e321","ios":"levelo://app?vid=f09894a7-a212-4aa9-a648-c6f35175e321"},"vehicle_type_id":"4","last_reported":1733300011,"current_range_meters":20000,"station_id":"ce4bgh92rcd13ifvqb50","pricing_plan_id":"cebpf4jnsgd1na2vs0mg"},{"bike_id":"c3b68641-3fe3-4cb2-b7d8-1e88b3201796","system_id":"levelo_inurba_marseille","lat":43.30917,"lon":5.36857,"is_reserved":false,"is_disabled":false,"rental_uris":{"android":"levelo://app?vid=c3b68641-3fe3-4cb2-b7d8-1e88b3201796","ios":"levelo://app?vid=c3b68641-3fe3-4cb2-b7d8-1e88b3201796"},"vehicle_type_id":"4","last_reported":1733300011,"current_range_meters":32800,"station_id":"ce4bgn92rcd13ifvqbvg","pricing_plan_id":"cebpf4jnsgd1na2vs0mg"},{"bike_id":"28b52837-d828-49e4-b4be-cfbac010c328","system_id":"levelo_inurba_marseille","lat":43.33729,"lon":5.39192,"is_reserved":false,"is_disabled":false,"rental_uris":{"android":"levelo://app?vid=28b52837-d828-49e4-b4be-cfbac010c328","ios":"levelo://app?vid=28b52837-d828-49e4-b4be-cfbac010c328"},"vehicle_type_id":"4","last_reported":1733300011,"current_range_meters":36800,"station_id":"ce4bhr92rcd13ifvqhsg","pricing_plan_id":"cebpf4jnsgd1na2vs0mg"},{"bike_id":"b3f478ac-3b05-4edf-bdbf-76399090f8e9","system_id":"levelo_inurba_marseille","lat":43.29994,"lon":5.37639,"is_reserved":false,"is_disabled":true,"rental_uris":{"android":"levelo://app?vid=b3f478ac-3b05-4edf-bdbf-76399090f8e9","ios":"levelo://app?vid=b3f478ac-3b05-4edf-bdbf-76399090f8e9"},"vehicle_type_id":"4","last_reported":1733300011,"current_range_meters":0,"station_id":"","pricing_plan_id":"cebpf4jnsgd1na2vs0mg"},{"bike_id":"c3587c28-5435-41c6-a9b7-aa468e6b19aa","system_id":"levelo_inurba_marseille","lat":43.29746,"lon":5.37916,"is_reserved":false,"is_disabled":true,"rental_uris":{"android":"levelo://app?vid=c3587c28-5435-41c6-a9b7-aa468e6b19aa","ios":"levelo://app?vid=c3587c28-5435-41c6-a9b7-aa468e6b19aa"},"vehicle_type_id":"4","last_reported":1733300011,"current_range_meters":0,"station_id":"","pricing_plan_id":"cebpf4jnsgd1na2vs0mg"},{"bike_id":"75c4f34a-89f4-4145-a2e2-7dafbc1cdf90","system_id":"levelo_inurba_marseille","lat":43.29011,"lon":5.37253,"is_reserved":false,"is_disabled":true,"rental_uris":{"android":"levelo://app?vid=75c4f34a-89f4-4145-a2e2-7dafbc1cdf90","ios":"levelo://app?vid=75c4f34a-89f4-4145-a2e2-7dafbc1cdf90"},"vehicle_type_id":"4","last_reported":1733300011,"current_range_meters":0,"station_id":"","pricing_plan_id":"cebpf4jnsgd1na2vs0mg"},{"bike_id":"0691df20-0cb5-41e2-92d2-1a048a719b38","system_id":"levelo_inurba_marseille","lat":43.31883,"lon":5.40735,"is_reserved":false,"is_disabled":false,"rental_uris":{"android":"levelo://app?vid=0691df20-0cb5-41e2-92d2-1a048a719b38","ios":"levelo://app?vid=0691df20-0cb5-41e2-92d2-1a048a719b38"},"vehicle_type_id":"4","last_reported":1733300011,"current_range_meters":38800,"station_id":"ce4bhq12rcd13ifvqhig","pricing_plan_id":"cebpf4jnsgd1na2vs0mg"},{"bike_id":"e8d9fcd3-6c4c-4c2e-a87e-41c5e4dfa6d0","system_id":"levelo_inurba_marseille","lat":43.25438,"lon":5.38158,"is_reserved":false,"is_disabled":true,"rental_uris":{"android":"levelo://app?vid=e8d9fcd3-6c4c-4c2e-a87e-41c5e4dfa6d0","ios":"levelo://app?vid=e8d9fcd3-6c4c-4c2e-a87e-41c5e4dfa6d0"},"vehicle_type_id":"4","last_reported":1733300011,"current_range_meters":0,"station_id":"","pricing_plan_id":"cebpf4jnsgd1na2vs0mg"},{"bike_id":"e7c2b082-ef91-42b1-9ef0-9e4329cee9cb","system_id":"levelo_inurba_marseille","lat":43.2992,"lon":5.40347,"is_reserved":false,"is_disabled":true,"rental_uris":{"android":"levelo://app?vid=e7c2b082-ef91-42b1-9ef0-9e4329cee9cb","ios":"levelo://app?vid=e7c2b082-ef91-42b1-9ef0-9e4329cee9cb"},"vehicle_type_id":"4","last_reported":1733300011,"current_range_meters":0,"station_id":"","pricing_plan_id":"cebpf4jnsgd1na2vs0mg"},{"bike_id":"b0fd6e58-89f4-4e96-8d88-2bdfbaeed00e","system_id":"levelo_inurba_marseille","lat":43.32485,"lon":5.36566,"is_reserved":false,"is_disabled":false,"rental_uris":{"android":"levelo://app?vid=b0fd6e58-89f4-4e96-8d88-2bdfbaeed00e","ios":"levelo://app?vid=b0fd6e58-89f4-4e96-8d88-2bdfbaeed00e"},"vehicle_type_id":"4","last_reported":1733300011,"current_range_meters":28000,"station_id":"ce4bhs12rcd13ifvqhvg","pricing_plan_id":"cebpf4jnsgd1na2vs0mg"},{"bike_id":"ba2f11c3-a4e2-4666-8f95-d860b1c21946","system_id":"levelo_inurba_marseille","lat":43.23166,"lon":5.39948,"is_reserved":false,"is_disabled":false,"rental_uris":{"android":"levelo://app?vid=ba2f11c3-a4e2-4666-8f95-d860b1c21946","ios":"levelo://app?vid=ba2f11c3-a4e2-4666-8f95-d860b1c21946"},"vehicle_type_id":"4","last_reported":1733300011,"current_range_meters":31200,"station_id":"ce4bhn12rcd13ifvqgqg","pricing_plan_id":"cebpf4jnsgd1na2vs0mg"},{"bike_id":"e5af8f06-b11d-4a9c-a17e-c358f51ba456","system_id":"levelo_inurba_marseille","lat":43.24812,"lon":5.3746,"is_reserved":false,"is_disabled":false,"rental_uris":{"android":"levelo://app?vid=e5af8f06-b11d-4a9c-a17e-c358f51ba456","ios":"levelo://app?vid=e5af8f06-b11d-4a9c-a17e-c358f51ba456"},"vehicle_type_id":"4","last_reported":1733300011,"current_range_meters":37600,"station_id":"ce4bhgh2rcd13ifvqfb0","pricing_plan_id":"cebpf4jnsgd1na2vs0mg"},{"bike_id":"6e63cede-d90f-4523-9b4c-d40156007a90","system_id":"levelo_inurba_marseille","lat":43.26954,"lon":5.3863,"is_reserved":false,"is_disabled":false,"rental_uris":{"android":"levelo://app?vid=6e63cede-d90f-4523-9b4c-d40156007a90","ios":"levelo://app?vid=6e63cede-d90f-4523-9b4c-d40156007a90"},"vehicle_type_id":"4","last_reported":1733300011,"current_range_meters":6400,"station_id":"ce4bhh92rcd13ifvqfh0","pricing_plan_id":"cebpf4jnsgd1na2vs0mg"},{"bike_id":"f4bb9bd4-eab6-413e-91d9-165ec94231f9","system_id":"levelo_inurba_marseille","lat":43.24075,"lon":5.37755,"is_reserved":false,"is_disabled":false,"rental_uris":{"android":"levelo://app?vid=f4bb9bd4-eab6-413e-91d9-165ec94231f9","ios":"levelo://app?vid=f4bb9bd4-eab6-413e-91d9-165ec94231f9"},"vehicle_type_id":"4","last_reported":1733300011,"current_range_meters":32800,"station_id":"ce4bhnp2rcd13ifvqgvg","pricing_plan_id":"cebpf4jnsgd1na2vs0mg"},{"bike_id":"23ec25c2-2bbe-44ce-bcff-21eb1c09301e","system_id":"levelo_inurba_marseille","lat":43.2668,"lon":5.38267,"is_reserved":false,"is_disabled":false,"rental_uris":{"android":"levelo://app?vid=23ec25c2-2bbe-44ce-bcff-21eb1c09301e","ios":"levelo://app?vid=23ec25c2-2bbe-44ce-bcff-21eb1c09301e"},"vehicle_type_id":"4","last_reported":1733300011,"current_range_meters":30000,"station_id":"ce4bhg92rcd13ifvqf90","pricing_plan_id":"cebpf4jnsgd1na2vs0mg"},{"bike_id":"0996ed95-fbc9-4d9b-9fc5-2dde5d170126","system_id":"levelo_inurba_marseille","lat":43.24077,"lon":5.37755,"is_reserved":false,"is_disabled":false,"rental_uris":{"android":"levelo://app?vid=0996ed95-fbc9-4d9b-9fc5-2dde5d170126","ios":"levelo://app?vid=0996ed95-fbc9-4d9b-9fc5-2dde5d170126"},"vehicle_type_id":"4","last_reported":1733300011,"current_range_meters":28000,"station_id":"ce4bhnp2rcd13ifvqgvg","pricing_plan_id":"cebpf4jnsgd1na2vs0mg"},{"bike_id":"6fda6399-1abd-4ae3-8925-126c93ee0147","system_id":"levelo_inurba_marseille","lat":43.31078,"lon":5.38349,"is_reserved":false,"is_disabled":false,"rental_uris":{"android":"levelo://app?vid=6fda6399-1abd-4ae3-8925-126c93ee0147","ios":"levelo://app?vid=6fda6399-1abd-4ae3-8925-126c93ee0147"},"vehicle_type_id":"4","last_reported":1733300011,"current_range_meters":28400,"station_id":"ce4bgv92rcd13ifvqcr0","pricing_plan_id":"cebpf4jnsgd1na2vs0mg"},{"bike_id":"e453e81c-6e84-4531-aced-10942b70cbe6","system_id":"levelo_inurba_marseille","lat":43.29918,"lon":5.37491,"is_reserved":false,"is_disabled":false,"rental_uris":{"android":"levelo://app?vid=e453e81c-6e84-4531-aced-10942b70cbe6","ios":"levelo://app?vid=e453e81c-6e84-4531-aced-10942b70cbe6"},"vehicle_type_id":"4","last_reported":1733300011,"current_range_meters":38800,"station_id":"ce4bgjh2rcd13ifvqbg0","pricing_plan_id":"cebpf4jnsgd1na2vs0mg"},{"bike_id":"e12bdda5-dc2c-4545-bb40-fff311effa17","system_id":"levelo_inurba_marseille","lat":43.29788,"lon":5.38104,"is_reserved":false,"is_disabled":true,"rental_uris":{"android":"levelo://app?vid=e12bdda5-dc2c-4545-bb40-fff311effa17","ios":"levelo://app?vid=e12bdda5-dc2c-4545-bb40-fff311effa17"},"vehicle_type_id":"4","last_reported":1733300011,"current_range_meters":0,"station_id":"ce4bgip2rcd13ifvqbb0","pricing_plan_id":"cebpf4jnsgd1na2vs0mg"},{"bike_id":"2f3968e7-9336-4ee4-ba78-8e92c0a818cc","system_id":"levelo_inurba_marseille","lat":43.31322,"lon":5.36647,"is_reserved":false,"is_disabled":true,"rental_uris":{"android":"levelo://app?vid=2f3968e7-9336-4ee4-ba78-8e92c0a818cc","ios":"levelo://app?vid=2f3968e7-9336-4ee4-ba78-8e92c0a818cc"},"vehicle_type_id":"4","last_reported":1733300011,"current_range_meters":4000,"station_id":"","pricing_plan_id":"cebpf4jnsgd1na2vs0mg"},{"bike_id":"2587f2a5-fbf3-4600-9924-06fab018ca56","system_id":"levelo_inurba_marseille","lat":43.30274,"lon":5.37699,"is_reserved":false,"is_disabled":false,"rental_uris":{"android":"levelo://app?vid=2587f2a5-fbf3-4600-9924-06fab018ca56","ios":"levelo://app?vid=2587f2a5-fbf3-4600-9924-06fab018ca56"},"vehicle_type_id":"4","last_reported":1733300011,"current_range_meters":38800,"station_id":"ce4bguh2rcd13ifvqcj0","pricing_plan_id":"cebpf4jnsgd1na2vs0mg"},{"bike_id":"16bea42d-3248-41fd-8b51-39fb3d7ec2c4","system_id":"levelo_inurba_marseille","lat":43.26471,"lon":5.38525,"is_reserved":false,"is_disabled":true,"rental_uris":{"android":"levelo://app?vid=16bea42d-3248-41fd-8b51-39fb3d7ec2c4","ios":"levelo://app?vid=16bea42d-3248-41fd-8b51-39fb3d7ec2c4"},"vehicle_type_id":"4","last_reported":1733300011,"current_range_meters":0,"station_id":"","pricing_plan_id":"cebpf4jnsgd1na2vs0mg"},{"bike_id":"54660884-8ef8-4b30-aaba-82ac6b4a18bd","system_id":"levelo_inurba_marseille","lat":43.32481,"lon":5.36566,"is_reserved":false,"is_disabled":false,"rental_uris":{"android":"levelo://app?vid=54660884-8ef8-4b30-aaba-82ac6b4a18bd","ios":"levelo://app?vid=54660884-8ef8-4b30-aaba-82ac6b4a18bd"},"vehicle_type_id":"4","last_reported":1733300011,"current_range_meters":38800,"station_id":"ce4bhs12rcd13ifvqhvg","pricing_plan_id":"cebpf4jnsgd1na2vs0mg"},{"bike_id":"8aa77435-38a9-471a-8b27-546833cee6d3","system_id":"levelo_inurba_marseille","lat":43.26069,"lon":5.39388,"is_reserved":false,"is_disabled":false,"rental_uris":{"android":"levelo://app?vid=8aa77435-38a9-471a-8b27-546833cee6d3","ios":"levelo://app?vid=8aa77435-38a9-471a-8b27-546833cee6d3"},"vehicle_type_id":"4","last_reported":1733300011,"current_range_meters":11200,"station_id":"ce4bhh92rcd13ifvqfj0","pricing_plan_id":"cebpf4jnsgd1na2vs0mg"},{"bike_id":"7810630d-c08c-47ca-b983-107dbc0d9458","system_id":"levelo_inurba_marseille","lat":43.24543,"lon":5.39529,"is_reserved":false,"is_disabled":false,"rental_uris":{"android":"levelo://app?vid=7810630d-c08c-47ca-b983-107dbc0d9458","ios":"levelo://app?vid=7810630d-c08c-47ca-b983-107dbc0d9458"},"vehicle_type_id":"4","last_reported":1733300011,"current_range_meters":28000,"station_id":"ce4bhlp2rcd13ifvqgjg","pricing_plan_id":"cebpf4jnsgd1na2vs0mg"},{"bike_id":"821691cd-59d3-4afe-b792-90aa565a871f","system_id":"levelo_inurba_marseille","lat":43.27056,"lon":5.40262,"is_reserved":false,"is_disabled":false,"rental_uris":{"android":"levelo://app?vid=821691cd-59d3-4afe-b792-90aa565a871f","ios":"levelo://app?vid=821691cd-59d3-4afe-b792-90aa565a871f"},"vehicle_type_id":"4","last_reported":1733300011,"current_range_meters":26000,"station_id":"ce4bhk92rcd13ifvqgc0","pricing_plan_id":"cebpf4jnsgd1na2vs0mg"},{"bike_id":"8084e0ef-603d-467e-9469-fe5711058329","system_id":"levelo_inurba_marseille","lat":43.29794,"lon":5.38084,"is_reserved":false,"is_disabled":false,"rental_uris":{"android":"levelo://app?vid=8084e0ef-603d-467e-9469-fe5711058329","ios":"levelo://app?vid=8084e0ef-603d-467e-9469-fe5711058329"},"vehicle_type_id":"4","last_reported":1733300011,"current_range_meters":29600,"station_id":"ce4bgip2rcd13ifvqbb0","pricing_plan_id":"cebpf4jnsgd1na2vs0mg"},{"bike_id":"905f6fa7-82ef-4e81-9fce-69cb34640e29","system_id":"levelo_inurba_marseille","lat":43.304705,"lon":5.379037,"is_reserved":false,"is_disabled":false,"rental_uris":{"android":"levelo://app?vid=905f6fa7-82ef-4e81-9fce-69cb34640e29","ios":"levelo://app?vid=905f6fa7-82ef-4e81-9fce-69cb34640e29"},"vehicle_type_id":"4","last_reported":1733300011,"current_range_meters":16400,"station_id":"ce4bgup2rcd13ifvqcn0","pricing_plan_id":"cebpf4jnsgd1na2vs0mg"},{"bike_id":"571b5aaf-134a-4ac8-b3e6-7a15c89e8a3c","system_id":"levelo_inurba_marseille","lat":43.3135,"lon":5.36705,"is_reserved":false,"is_disabled":false,"rental_uris":{"android":"levelo://app?vid=571b5aaf-134a-4ac8-b3e6-7a15c89e8a3c","ios":"levelo://app?vid=571b5aaf-134a-4ac8-b3e6-7a15c89e8a3c"},"vehicle_type_id":"4","last_reported":1733300011,"current_range_meters":38800,"station_id":"ce4bgr92rcd13ifvqc6g","pricing_plan_id":"cebpf4jnsgd1na2vs0mg"},{"bike_id":"ff100802-4e32-43d9-aea4-c718a448c9dc","system_id":"levelo_inurba_marseille","lat":43.24079,"lon":5.37756,"is_reserved":false,"is_disabled":false,"rental_uris":{"android":"levelo://app?vid=ff100802-4e32-43d9-aea4-c718a448c9dc","ios":"levelo://app?vid=ff100802-4e32-43d9-aea4-c718a448c9dc"},"vehicle_type_id":"4","last_reported":1733300011,"current_range_meters":38800,"station_id":"ce4bhnp2rcd13ifvqgvg","pricing_plan_id":"cebpf4jnsgd1na2vs0mg"},{"bike_id":"8ab932cc-3ef1-4584-bf2d-a132d42d0458","system_id":"levelo_inurba_marseille","lat":43.2798,"lon":5.40028,"is_reserved":false,"is_disabled":false,"rental_uris":{"android":"levelo://app?vid=8ab932cc-3ef1-4584-bf2d-a132d42d0458","ios":"levelo://app?vid=8ab932cc-3ef1-4584-bf2d-a132d42d0458"},"vehicle_type_id":"4","last_reported":1733300011,"current_range_meters":35200,"station_id":"ce4bho92rcd13ifvqh4g","pricing_plan_id":"cebpf4jnsgd1na2vs0mg"},{"bike_id":"146a3b2d-72be-4f9c-a7f8-04adccaef506","system_id":"levelo_inurba_marseille","lat":43.27498,"lon":5.42451,"is_reserved":false,"is_disabled":false,"rental_uris":{"android":"levelo://app?vid=146a3b2d-72be-4f9c-a7f8-04adccaef506","ios":"levelo://app?vid=146a3b2d-72be-4f9c-a7f8-04adccaef506"},"vehicle_type_id":"4","last_reported":1733300011,"current_range_meters":30000,"station_id":"ce4bhn92rcd13ifvqgrg","pricing_plan_id":"cebpf4jnsgd1na2vs0mg"},{"bike_id":"291abf42-3375-4c5b-b0e0-f634b7b1c9eb","system_id":"levelo_inurba_marseille","lat":43.29199,"lon":5.39346,"is_reserved":false,"is_disabled":false,"rental_uris":{"android":"levelo://app?vid=291abf42-3375-4c5b-b0e0-f634b7b1c9eb","ios":"levelo://app?vid=291abf42-3375-4c5b-b0e0-f634b7b1c9eb"},"vehicle_type_id":"4","last_reported":1733300011,"current_range_meters":30400,"station_id":"ce4bh192rcd13ifvqdd0","pricing_plan_id":"cebpf4jnsgd1na2vs0mg"},{"bike_id":"a48f2ab5-dea9-4304-ace3-3d9eea34921c","system_id":"levelo_inurba_marseille","lat":43.27671,"lon":5.3888,"is_reserved":false,"is_disabled":false,"rental_uris":{"android":"levelo://app?vid=a48f2ab5-dea9-4304-ace3-3d9eea34921c","ios":"levelo://app?vid=a48f2ab5-dea9-4304-ace3-3d9eea34921c"},"vehicle_type_id":"4","last_reported":1733300011,"current_range_meters":28000,"station_id":"ce4bhi12rcd13ifvqfo0","pricing_plan_id":"cebpf4jnsgd1na2vs0mg"},{"bike_id":"5a50557a-331c-47f8-82cc-e12807c908db","system_id":"levelo_inurba_marseille","lat":43.33021,"lon":5.39039,"is_reserved":false,"is_disabled":false,"rental_uris":{"android":"levelo://app?vid=5a50557a-331c-47f8-82cc-e12807c908db","ios":"levelo://app?vid=5a50557a-331c-47f8-82cc-e12807c908db"},"vehicle_type_id":"4","last_reported":1733300011,"current_range_meters":24800,"station_id":"ce4bhr92rcd13ifvqhrg","pricing_plan_id":"cebpf4jnsgd1na2vs0mg"},{"bike_id":"47185a4c-7d7b-46e4-a46f-d8e6ec87723e","system_id":"levelo_inurba_marseille","lat":43.25933,"lon":5.40909,"is_reserved":false,"is_disabled":false,"rental_uris":{"android":"levelo://app?vid=47185a4c-7d7b-46e4-a46f-d8e6ec87723e","ios":"levelo://app?vid=47185a4c-7d7b-46e4-a46f-d8e6ec87723e"},"vehicle_type_id":"4","last_reported":1733300011,"current_range_meters":30000,"station_id":"ce4bhm92rcd13ifvqglg","pricing_plan_id":"cebpf4jnsgd1na2vs0mg"},{"bike_id":"305a1697-f162-4bd9-b306-beba9c71727d","system_id":"levelo_inurba_marseille","lat":43.27496,"lon":5.42452,"is_reserved":false,"is_disabled":false,"rental_uris":{"android":"levelo://app?vid=305a1697-f162-4bd9-b306-beba9c71727d","ios":"levelo://app?vid=305a1697-f162-4bd9-b306-beba9c71727d"},"vehicle_type_id":"4","last_reported":1733300011,"current_range_meters":23200,"station_id":"ce4bhn92rcd13ifvqgrg","pricing_plan_id":"cebpf4jnsgd1na2vs0mg"},{"bike_id":"cf3911c9-3eee-4d83-879a-759fabf61198","system_id":"levelo_inurba_marseille","lat":43.30149,"lon":5.38077,"is_reserved":false,"is_disabled":false,"rental_uris":{"android":"levelo://app?vid=cf3911c9-3eee-4d83-879a-759fabf61198","ios":"levelo://app?vid=cf3911c9-3eee-4d83-879a-759fabf61198"},"vehicle_type_id":"4","last_reported":1733300011,"current_range_meters":28400,"station_id":"ce4bgjp2rcd13ifvqbh0","pricing_plan_id":"cebpf4jnsgd1na2vs0mg"},{"bike_id":"ef8dccf7-5c02-4648-910c-2c64ce488a65","system_id":"levelo_inurba_marseille","lat":43.28146,"lon":5.42792,"is_reserved":false,"is_disabled":false,"rental_uris":{"android":"levelo://app?vid=ef8dccf7-5c02-4648-910c-2c64ce488a65","ios":"levelo://app?vid=ef8dccf7-5c02-4648-910c-2c64ce488a65"},"vehicle_type_id":"4","last_reported":1733300011,"current_range_meters":11600,"station_id":"","pricing_plan_id":"cebpf4jnsgd1na2vs0mg"},{"bike_id":"0de557b1-e99b-48a1-b57b-56090c3eaedd","system_id":"levelo_inurba_marseille","lat":43.29374,"lon":5.37833,"is_reserved":false,"is_disabled":false,"rental_uris":{"android":"levelo://app?vid=0de557b1-e99b-48a1-b57b-56090c3eaedd","ios":"levelo://app?vid=0de557b1-e99b-48a1-b57b-56090c3eaedd"},"vehicle_type_id":"4","last_reported":1733300011,"current_range_meters":30000,"station_id":"ce4bgjh2rcd13ifvqbf0","pricing_plan_id":"cebpf4jnsgd1na2vs0mg"},{"bike_id":"b73386f2-fa04-4fae-98be-ff0e17efea9c","system_id":"levelo_inurba_marseille","lat":43.32366,"lon":5.38874,"is_reserved":false,"is_disabled":false,"rental_uris":{"android":"levelo://app?vid=b73386f2-fa04-4fae-98be-ff0e17efea9c","ios":"levelo://app?vid=b73386f2-fa04-4fae-98be-ff0e17efea9c"},"vehicle_type_id":"4","last_reported":1733300011,"current_range_meters":8400,"station_id":"ce4bhqp2rcd13ifvqhog","pricing_plan_id":"cebpf4jnsgd1na2vs0mg"},{"bike_id":"3928df03-15c8-4b0d-a8d4-0b84a58b1e5b","system_id":"levelo_inurba_marseille","lat":43.26958,"lon":5.3863,"is_reserved":false,"is_disabled":true,"rental_uris":{"android":"levelo://app?vid=3928df03-15c8-4b0d-a8d4-0b84a58b1e5b","ios":"levelo://app?vid=3928df03-15c8-4b0d-a8d4-0b84a58b1e5b"},"vehicle_type_id":"4","last_reported":1733300011,"current_range_meters":0,"station_id":"ce4bhh92rcd13ifvqfh0","pricing_plan_id":"cebpf4jnsgd1na2vs0mg"},{"bike_id":"285d4d97-3ab4-419a-84e4-687443bc50a5","system_id":"levelo_inurba_marseille","lat":43.25862,"lon":5.39903,"is_reserved":false,"is_disabled":false,"rental_uris":{"android":"levelo://app?vid=285d4d97-3ab4-419a-84e4-687443bc50a5","ios":"levelo://app?vid=285d4d97-3ab4-419a-84e4-687443bc50a5"},"vehicle_type_id":"4","last_reported":1733300011,"current_range_meters":8800,"station_id":"ce4bhl92rcd13ifvqghg","pricing_plan_id":"cebpf4jnsgd1na2vs0mg"},{"bike_id":"8d3823ea-8728-4708-a8ab-a7316ed9637a","system_id":"levelo_inurba_marseille","lat":43.28942,"lon":5.36631,"is_reserved":false,"is_disabled":true,"rental_uris":{"android":"levelo://app?vid=8d3823ea-8728-4708-a8ab-a7316ed9637a","ios":"levelo://app?vid=8d3823ea-8728-4708-a8ab-a7316ed9637a"},"vehicle_type_id":"4","last_reported":1733300011,"current_range_meters":19600,"station_id":"ce4bhap2rcd13ifvqek0","pricing_plan_id":"cebpf4jnsgd1na2vs0mg"},{"bike_id":"3ea7e42b-9d99-4d0f-b485-adf3e62fd2f3","system_id":"levelo_inurba_marseille","lat":43.24073,"lon":5.37756,"is_reserved":false,"is_disabled":false,"rental_uris":{"android":"levelo://app?vid=3ea7e42b-9d99-4d0f-b485-adf3e62fd2f3","ios":"levelo://app?vid=3ea7e42b-9d99-4d0f-b485-adf3e62fd2f3"},"vehicle_type_id":"4","last_reported":1733300011,"current_range_meters":28400,"station_id":"ce4bhnp2rcd13ifvqgvg","pricing_plan_id":"cebpf4jnsgd1na2vs0mg"},{"bike_id":"45ff3798-a743-4ffc-962c-fbce8ce4e073","system_id":"levelo_inurba_marseille","lat":43.23151,"lon":5.43715,"is_reserved":false,"is_disabled":false,"rental_uris":{"android":"levelo://app?vid=45ff3798-a743-4ffc-962c-fbce8ce4e073","ios":"levelo://app?vid=45ff3798-a743-4ffc-962c-fbce8ce4e073"},"vehicle_type_id":"4","last_reported":1733300011,"current_range_meters":38800,"station_id":"ce4bhmp2rcd13ifvqgog","pricing_plan_id":"cebpf4jnsgd1na2vs0mg"},{"bike_id":"d0ae8c17-172c-441e-ae1e-c77931c183bd","system_id":"levelo_inurba_marseille","lat":43.24177,"lon":5.39727,"is_reserved":false,"is_disabled":false,"rental_uris":{"android":"levelo://app?vid=d0ae8c17-172c-441e-ae1e-c77931c183bd","ios":"levelo://app?vid=d0ae8c17-172c-441e-ae1e-c77931c183bd"},"vehicle_type_id":"4","last_reported":1733300011,"current_range_meters":28000,"station_id":"ce4bhn12rcd13ifvqgpg","pricing_plan_id":"cebpf4jnsgd1na2vs0mg"},{"bike_id":"8afb2c6b-2ac1-4bd9-bd4b-f614642b0e17","system_id":"levelo_inurba_marseille","lat":43.30536,"lon":5.36718,"is_reserved":false,"is_disabled":false,"rental_uris":{"android":"levelo://app?vid=8afb2c6b-2ac1-4bd9-bd4b-f614642b0e17","ios":"levelo://app?vid=8afb2c6b-2ac1-4bd9-bd4b-f614642b0e17"},"vehicle_type_id":"4","last_reported":1733300011,"current_range_meters":32400,"station_id":"ce4bgrp2rcd13ifvqc9g","pricing_plan_id":"cebpf4jnsgd1na2vs0mg"},{"bike_id":"cdfe6590-4984-4014-86c8-6dd70747c27a","system_id":"levelo_inurba_marseille","lat":43.29737,"lon":5.37434,"is_reserved":false,"is_disabled":true,"rental_uris":{"android":"levelo://app?vid=cdfe6590-4984-4014-86c8-6dd70747c27a","ios":"levelo://app?vid=cdfe6590-4984-4014-86c8-6dd70747c27a"},"vehicle_type_id":"4","last_reported":1733300011,"current_range_meters":0,"station_id":"","pricing_plan_id":"cebpf4jnsgd1na2vs0mg"},{"bike_id":"e448c7ef-3c04-453c-a4b8-a62c889873b2","system_id":"levelo_inurba_marseille","lat":43.31071,"lon":5.40089,"is_reserved":false,"is_disabled":false,"rental_uris":{"android":"levelo://app?vid=e448c7ef-3c04-453c-a4b8-a62c889873b2","ios":"levelo://app?vid=e448c7ef-3c04-453c-a4b8-a62c889873b2"},"vehicle_type_id":"4","last_reported":1733300011,"current_range_meters":32400,"station_id":"","pricing_plan_id":"cebpf4jnsgd1na2vs0mg"},{"bike_id":"a597326f-3194-416f-870a-bb660333f9fc","system_id":"levelo_inurba_marseille","lat":43.33721,"lon":5.39183,"is_reserved":false,"is_disabled":false,"rental_uris":{"android":"levelo://app?vid=a597326f-3194-416f-870a-bb660333f9fc","ios":"levelo://app?vid=a597326f-3194-416f-870a-bb660333f9fc"},"vehicle_type_id":"4","last_reported":1733300011,"current_range_meters":38800,"station_id":"ce4bhr92rcd13ifvqhsg","pricing_plan_id":"cebpf4jnsgd1na2vs0mg"},{"bike_id":"0a9295df-0090-4b13-af97-8f7151eb66d8","system_id":"levelo_inurba_marseille","lat":43.24081,"lon":5.37749,"is_reserved":false,"is_disabled":false,"rental_uris":{"android":"levelo://app?vid=0a9295df-0090-4b13-af97-8f7151eb66d8","ios":"levelo://app?vid=0a9295df-0090-4b13-af97-8f7151eb66d8"},"vehicle_type_id":"4","last_reported":1733300011,"current_range_meters":30400,"station_id":"ce4bhnp2rcd13ifvqgvg","pricing_plan_id":"cebpf4jnsgd1na2vs0mg"},{"bike_id":"987a5ab4-d60c-480c-94b6-7cab38975402","system_id":"levelo_inurba_marseille","lat":43.29748,"lon":5.37971,"is_reserved":false,"is_disabled":true,"rental_uris":{"android":"levelo://app?vid=987a5ab4-d60c-480c-94b6-7cab38975402","ios":"levelo://app?vid=987a5ab4-d60c-480c-94b6-7cab38975402"},"vehicle_type_id":"4","last_reported":1733300011,"current_range_meters":0,"station_id":"","pricing_plan_id":"cebpf4jnsgd1na2vs0mg"},{"bike_id":"2c4596ad-0ad9-4016-b92b-0093349de2b4","system_id":"levelo_inurba_marseille","lat":43.30755,"lon":5.38187,"is_reserved":false,"is_disabled":true,"rental_uris":{"android":"levelo://app?vid=2c4596ad-0ad9-4016-b92b-0093349de2b4","ios":"levelo://app?vid=2c4596ad-0ad9-4016-b92b-0093349de2b4"},"vehicle_type_id":"4","last_reported":1733300011,"current_range_meters":0,"station_id":"","pricing_plan_id":"cebpf4jnsgd1na2vs0mg"},{"bike_id":"4c50cfef-44f5-4acf-845e-6e627fcc246e","system_id":"levelo_inurba_marseille","lat":43.26685,"lon":5.38267,"is_reserved":false,"is_disabled":false,"rental_uris":{"android":"levelo://app?vid=4c50cfef-44f5-4acf-845e-6e627fcc246e","ios":"levelo://app?vid=4c50cfef-44f5-4acf-845e-6e627fcc246e"},"vehicle_type_id":"4","last_reported":1733300011,"current_range_meters":38800,"station_id":"ce4bhg92rcd13ifvqf90","pricing_plan_id":"cebpf4jnsgd1na2vs0mg"},{"bike_id":"1f28300c-d8be-4d08-b5ea-d3aadf1e301d","system_id":"levelo_inurba_marseille","lat":43.26239,"lon":5.42109,"is_reserved":false,"is_disabled":false,"rental_uris":{"android":"levelo://app?vid=1f28300c-d8be-4d08-b5ea-d3aadf1e301d","ios":"levelo://app?vid=1f28300c-d8be-4d08-b5ea-d3aadf1e301d"},"vehicle_type_id":"4","last_reported":1733300011,"current_range_meters":14400,"station_id":"","pricing_plan_id":"cebpf4jnsgd1na2vs0mg"},{"bike_id":"b7ab8c01-033f-4395-8276-23c850ad3d02","system_id":"levelo_inurba_marseille","lat":43.30311,"lon":5.36593,"is_reserved":false,"is_disabled":true,"rental_uris":{"android":"levelo://app?vid=b7ab8c01-033f-4395-8276-23c850ad3d02","ios":"levelo://app?vid=b7ab8c01-033f-4395-8276-23c850ad3d02"},"vehicle_type_id":"4","last_reported":1733300011,"current_range_meters":0,"station_id":"","pricing_plan_id":"cebpf4jnsgd1na2vs0mg"},{"bike_id":"6350d0ca-763e-4729-beb2-e60d0b133d64","system_id":"levelo_inurba_marseille","lat":43.28934,"lon":5.36631,"is_reserved":false,"is_disabled":false,"rental_uris":{"android":"levelo://app?vid=6350d0ca-763e-4729-beb2-e60d0b133d64","ios":"levelo://app?vid=6350d0ca-763e-4729-beb2-e60d0b133d64"},"vehicle_type_id":"4","last_reported":1733300011,"current_range_meters":11600,"station_id":"ce4bhap2rcd13ifvqek0","pricing_plan_id":"cebpf4jnsgd1na2vs0mg"},{"bike_id":"6e58a9cf-cf05-4bb7-929a-e5e602548db5","system_id":"levelo_inurba_marseille","lat":43.30416,"lon":5.38882,"is_reserved":false,"is_disabled":false,"rental_uris":{"android":"levelo://app?vid=6e58a9cf-cf05-4bb7-929a-e5e602548db5","ios":"levelo://app?vid=6e58a9cf-cf05-4bb7-929a-e5e602548db5"},"vehicle_type_id":"4","last_reported":1733300011,"current_range_meters":30000,"station_id":"ce4bgk12rcd13ifvqbi0","pricing_plan_id":"cebpf4jnsgd1na2vs0mg"},{"bike_id":"e5099c1a-04fd-45d3-a3b6-a97890f97bbe","system_id":"levelo_inurba_marseille","lat":43.27495,"lon":5.42455,"is_reserved":false,"is_disabled":false,"rental_uris":{"android":"levelo://app?vid=e5099c1a-04fd-45d3-a3b6-a97890f97bbe","ios":"levelo://app?vid=e5099c1a-04fd-45d3-a3b6-a97890f97bbe"},"vehicle_type_id":"4","last_reported":1733300011,"current_range_meters":38400,"station_id":"ce4bhn92rcd13ifvqgrg","pricing_plan_id":"cebpf4jnsgd1na2vs0mg"},{"bike_id":"257d855e-7590-4d29-a8b8-be1f55279f63","system_id":"levelo_inurba_marseille","lat":43.30461,"lon":5.37902,"is_reserved":false,"is_disabled":false,"rental_uris":{"android":"levelo://app?vid=257d855e-7590-4d29-a8b8-be1f55279f63","ios":"levelo://app?vid=257d855e-7590-4d29-a8b8-be1f55279f63"},"vehicle_type_id":"4","last_reported":1733300011,"current_range_meters":14000,"station_id":"ce4bgup2rcd13ifvqcn0","pricing_plan_id":"cebpf4jnsgd1na2vs0mg"},{"bike_id":"7bfc0042-6e7a-42cc-b8e7-3f1417337134","system_id":"levelo_inurba_marseille","lat":43.33752,"lon":5.37441,"is_reserved":false,"is_disabled":false,"rental_uris":{"android":"levelo://app?vid=7bfc0042-6e7a-42cc-b8e7-3f1417337134","ios":"levelo://app?vid=7bfc0042-6e7a-42cc-b8e7-3f1417337134"},"vehicle_type_id":"4","last_reported":1733300011,"current_range_meters":14800,"station_id":"","pricing_plan_id":"cebpf4jnsgd1na2vs0mg"},{"bike_id":"62039b2b-e25c-4eb7-a7b5-63675d853e8e","system_id":"levelo_inurba_marseille","lat":43.3171,"lon":5.3765,"is_reserved":false,"is_disabled":false,"rental_uris":{"android":"levelo://app?vid=62039b2b-e25c-4eb7-a7b5-63675d853e8e","ios":"levelo://app?vid=62039b2b-e25c-4eb7-a7b5-63675d853e8e"},"vehicle_type_id":"4","last_reported":1733300011,"current_range_meters":27200,"station_id":"","pricing_plan_id":"cebpf4jnsgd1na2vs0mg"},{"bike_id":"bc3c8c1b-88da-41f4-a294-3547f388f1f0","system_id":"levelo_inurba_marseille","lat":43.33603,"lon":5.41035,"is_reserved":false,"is_disabled":false,"rental_uris":{"android":"levelo://app?vid=bc3c8c1b-88da-41f4-a294-3547f388f1f0","ios":"levelo://app?vid=bc3c8c1b-88da-41f4-a294-3547f388f1f0"},"vehicle_type_id":"4","last_reported":1733300011,"current_range_meters":19200,"station_id":"ce4bhqh2rcd13ifvqhmg","pricing_plan_id":"cebpf4jnsgd1na2vs0mg"},{"bike_id":"a9b4d1ac-a528-4323-9d6e-64bee0899bdb","system_id":"levelo_inurba_marseille","lat":43.24075,"lon":5.3776,"is_reserved":false,"is_disabled":false,"rental_uris":{"android":"levelo://app?vid=a9b4d1ac-a528-4323-9d6e-64bee0899bdb","ios":"levelo://app?vid=a9b4d1ac-a528-4323-9d6e-64bee0899bdb"},"vehicle_type_id":"4","last_reported":1733300011,"current_range_meters":38000,"station_id":"ce4bhnp2rcd13ifvqgvg","pricing_plan_id":"cebpf4jnsgd1na2vs0mg"},{"bike_id":"2b718f7e-4caf-4442-af73-2f439a33c239","system_id":"levelo_inurba_marseille","lat":43.28701,"lon":5.39978,"is_reserved":false,"is_disabled":false,"rental_uris":{"android":"levelo://app?vid=2b718f7e-4caf-4442-af73-2f439a33c239","ios":"levelo://app?vid=2b718f7e-4caf-4442-af73-2f439a33c239"},"vehicle_type_id":"4","last_reported":1733300011,"current_range_meters":36400,"station_id":"ce4bho92rcd13ifvqh3g","pricing_plan_id":"cebpf4jnsgd1na2vs0mg"},{"bike_id":"6cc6805f-c0ca-4585-bdf1-b5a0339762b0","system_id":"levelo_inurba_marseille","lat":43.29016,"lon":5.42796,"is_reserved":false,"is_disabled":true,"rental_uris":{"android":"levelo://app?vid=6cc6805f-c0ca-4585-bdf1-b5a0339762b0","ios":"levelo://app?vid=6cc6805f-c0ca-4585-bdf1-b5a0339762b0"},"vehicle_type_id":"4","last_reported":1733300011,"current_range_meters":0,"station_id":"","pricing_plan_id":"cebpf4jnsgd1na2vs0mg"},{"bike_id":"136155a8-b0e3-406b-abe6-c8bda028127e","system_id":"levelo_inurba_marseille","lat":43.29554,"lon":5.42291,"is_reserved":false,"is_disabled":false,"rental_uris":{"android":"levelo://app?vid=136155a8-b0e3-406b-abe6-c8bda028127e","ios":"levelo://app?vid=136155a8-b0e3-406b-abe6-c8bda028127e"},"vehicle_type_id":"4","last_reported":1733300011,"current_range_meters":30800,"station_id":"ce4bhph2rcd13ifvqhdg","pricing_plan_id":"cebpf4jnsgd1na2vs0mg"},{"bike_id":"8d1c8b92-79bb-4181-b0d2-5e94db1a14d0","system_id":"levelo_inurba_marseille","lat":43.30013,"lon":5.38263,"is_reserved":false,"is_disabled":true,"rental_uris":{"android":"levelo://app?vid=8d1c8b92-79bb-4181-b0d2-5e94db1a14d0","ios":"levelo://app?vid=8d1c8b92-79bb-4181-b0d2-5e94db1a14d0"},"vehicle_type_id":"4","last_reported":1733300011,"current_range_meters":0,"station_id":"","pricing_plan_id":"cebpf4jnsgd1na2vs0mg"},{"bike_id":"76fee654-7501-410f-8668-e66a20ba7e83","system_id":"levelo_inurba_marseille","lat":43.29623,"lon":5.37151,"is_reserved":false,"is_disabled":true,"rental_uris":{"android":"levelo://app?vid=76fee654-7501-410f-8668-e66a20ba7e83","ios":"levelo://app?vid=76fee654-7501-410f-8668-e66a20ba7e83"},"vehicle_type_id":"4","last_reported":1733300011,"current_range_meters":33600,"station_id":"ce4bgnh2rcd13ifvqc0g","pricing_plan_id":"cebpf4jnsgd1na2vs0mg"},{"bike_id":"9ce77ab6-d985-4c67-b0a5-56a892314fed","system_id":"levelo_inurba_marseille","lat":43.32483,"lon":5.36565,"is_reserved":false,"is_disabled":false,"rental_uris":{"android":"levelo://app?vid=9ce77ab6-d985-4c67-b0a5-56a892314fed","ios":"levelo://app?vid=9ce77ab6-d985-4c67-b0a5-56a892314fed"},"vehicle_type_id":"4","last_reported":1733300011,"current_range_meters":14400,"station_id":"ce4bhs12rcd13ifvqhvg","pricing_plan_id":"cebpf4jnsgd1na2vs0mg"},{"bike_id":"1b210be9-92d0-42b1-bce2-502ffc9da963","system_id":"levelo_inurba_marseille","lat":43.30424,"lon":5.39747,"is_reserved":false,"is_disabled":true,"rental_uris":{"android":"levelo://app?vid=1b210be9-92d0-42b1-bce2-502ffc9da963","ios":"levelo://app?vid=1b210be9-92d0-42b1-bce2-502ffc9da963"},"vehicle_type_id":"4","last_reported":1733300011,"current_range_meters":0,"station_id":"ce4bh092rcd13ifvqd20","pricing_plan_id":"cebpf4jnsgd1na2vs0mg"},{"bike_id":"bf37e039-8e14-4192-88ac-fae4adcf35ce","system_id":"levelo_inurba_marseille","lat":43.30471,"lon":5.3791,"is_reserved":false,"is_disabled":false,"rental_uris":{"android":"levelo://app?vid=bf37e039-8e14-4192-88ac-fae4adcf35ce","ios":"levelo://app?vid=bf37e039-8e14-4192-88ac-fae4adcf35ce"},"vehicle_type_id":"4","last_reported":1733300011,"current_range_meters":27200,"station_id":"ce4bgup2rcd13ifvqcn0","pricing_plan_id":"cebpf4jnsgd1na2vs0mg"},{"bike_id":"39a2a01f-43b9-464c-b12d-afed789938f2","system_id":"levelo_inurba_marseille","lat":43.3112,"lon":5.37771,"is_reserved":false,"is_disabled":false,"rental_uris":{"android":"levelo://app?vid=39a2a01f-43b9-464c-b12d-afed789938f2","ios":"levelo://app?vid=39a2a01f-43b9-464c-b12d-afed789938f2"},"vehicle_type_id":"4","last_reported":1733300011,"current_range_meters":16400,"station_id":"ce4bgt92rcd13ifvqcg0","pricing_plan_id":"cebpf4jnsgd1na2vs0mg"},{"bike_id":"94749631-1f39-4770-8c45-0e1925063e54","system_id":"levelo_inurba_marseille","lat":43.26956,"lon":5.38626,"is_reserved":false,"is_disabled":false,"rental_uris":{"android":"levelo://app?vid=94749631-1f39-4770-8c45-0e1925063e54","ios":"levelo://app?vid=94749631-1f39-4770-8c45-0e1925063e54"},"vehicle_type_id":"4","last_reported":1733300011,"current_range_meters":37600,"station_id":"ce4bhh92rcd13ifvqfh0","pricing_plan_id":"cebpf4jnsgd1na2vs0mg"},{"bike_id":"78062869-b30a-44e3-b5e0-bba791842a81","system_id":"levelo_inurba_marseille","lat":43.26684,"lon":5.38268,"is_reserved":false,"is_disabled":false,"rental_uris":{"android":"levelo://app?vid=78062869-b30a-44e3-b5e0-bba791842a81","ios":"levelo://app?vid=78062869-b30a-44e3-b5e0-bba791842a81"},"vehicle_type_id":"4","last_reported":1733300011,"current_range_meters":34000,"station_id":"ce4bhg92rcd13ifvqf90","pricing_plan_id":"cebpf4jnsgd1na2vs0mg"},{"bike_id":"c9a4a5a9-7de7-4484-96b8-d51e221c4dd9","system_id":"levelo_inurba_marseille","lat":43.26684,"lon":5.38274,"is_reserved":false,"is_disabled":false,"rental_uris":{"android":"levelo://app?vid=c9a4a5a9-7de7-4484-96b8-d51e221c4dd9","ios":"levelo://app?vid=c9a4a5a9-7de7-4484-96b8-d51e221c4dd9"},"vehicle_type_id":"4","last_reported":1733300011,"current_range_meters":36800,"station_id":"ce4bhg92rcd13ifvqf90","pricing_plan_id":"cebpf4jnsgd1na2vs0mg"},{"bike_id":"3ef54e73-ad7e-45c2-b80e-d6d7539f7adf","system_id":"levelo_inurba_marseille","lat":43.31219,"lon":5.36868,"is_reserved":false,"is_disabled":true,"rental_uris":{"android":"levelo://app?vid=3ef54e73-ad7e-45c2-b80e-d6d7539f7adf","ios":"levelo://app?vid=3ef54e73-ad7e-45c2-b80e-d6d7539f7adf"},"vehicle_type_id":"4","last_reported":1733300011,"current_range_meters":0,"station_id":"ce4bgl92rcd13ifvqbq0","pricing_plan_id":"cebpf4jnsgd1na2vs0mg"},{"bike_id":"1ca0aca0-4ca4-4bf8-9b1d-054345c3a341","system_id":"levelo_inurba_marseille","lat":43.28884,"lon":5.39999,"is_reserved":false,"is_disabled":false,"rental_uris":{"android":"levelo://app?vid=1ca0aca0-4ca4-4bf8-9b1d-054345c3a341","ios":"levelo://app?vid=1ca0aca0-4ca4-4bf8-9b1d-054345c3a341"},"vehicle_type_id":"4","last_reported":1733300011,"current_range_meters":28800,"station_id":"","pricing_plan_id":"cebpf4jnsgd1na2vs0mg"},{"bike_id":"1f4af703-ccfd-48bd-b4f8-5dd214f910ce","system_id":"levelo_inurba_marseille","lat":43.23152,"lon":5.43714,"is_reserved":false,"is_disabled":false,"rental_uris":{"android":"levelo://app?vid=1f4af703-ccfd-48bd-b4f8-5dd214f910ce","ios":"levelo://app?vid=1f4af703-ccfd-48bd-b4f8-5dd214f910ce"},"vehicle_type_id":"4","last_reported":1733300011,"current_range_meters":38800,"station_id":"ce4bhmp2rcd13ifvqgog","pricing_plan_id":"cebpf4jnsgd1na2vs0mg"},{"bike_id":"1a1835e4-d5d5-488d-8b05-634caea58fd1","system_id":"levelo_inurba_marseille","lat":43.26678,"lon":5.38269,"is_reserved":false,"is_disabled":true,"rental_uris":{"android":"levelo://app?vid=1a1835e4-d5d5-488d-8b05-634caea58fd1","ios":"levelo://app?vid=1a1835e4-d5d5-488d-8b05-634caea58fd1"},"vehicle_type_id":"4","last_reported":1733300011,"current_range_meters":34000,"station_id":"ce4bhg92rcd13ifvqf90","pricing_plan_id":"cebpf4jnsgd1na2vs0mg"},{"bike_id":"d2c28698-e177-4ec3-804c-ede2349774ad","system_id":"levelo_inurba_marseille","lat":43.26045,"lon":5.37543,"is_reserved":false,"is_disabled":false,"rental_uris":{"android":"levelo://app?vid=d2c28698-e177-4ec3-804c-ede2349774ad","ios":"levelo://app?vid=d2c28698-e177-4ec3-804c-ede2349774ad"},"vehicle_type_id":"4","last_reported":1733300011,"current_range_meters":9600,"station_id":"ce4bhgh2rcd13ifvqfa0","pricing_plan_id":"cebpf4jnsgd1na2vs0mg"},{"bike_id":"5c6e9ba5-5f48-4700-90e5-8f3e9be51e92","system_id":"levelo_inurba_marseille","lat":43.31066,"lon":5.38351,"is_reserved":false,"is_disabled":false,"rental_uris":{"android":"levelo://app?vid=5c6e9ba5-5f48-4700-90e5-8f3e9be51e92","ios":"levelo://app?vid=5c6e9ba5-5f48-4700-90e5-8f3e9be51e92"},"vehicle_type_id":"4","last_reported":1733300011,"current_range_meters":22000,"station_id":"ce4bgv92rcd13ifvqcr0","pricing_plan_id":"cebpf4jnsgd1na2vs0mg"},{"bike_id":"f6b74fd4-e209-48f4-be28-d9333ff4d677","system_id":"levelo_inurba_marseille","lat":43.27489,"lon":5.42458,"is_reserved":false,"is_disabled":false,"rental_uris":{"android":"levelo://app?vid=f6b74fd4-e209-48f4-be28-d9333ff4d677","ios":"levelo://app?vid=f6b74fd4-e209-48f4-be28-d9333ff4d677"},"vehicle_type_id":"4","last_reported":1733300011,"current_range_meters":8400,"station_id":"ce4bhn92rcd13ifvqgrg","pricing_plan_id":"cebpf4jnsgd1na2vs0mg"},{"bike_id":"05ae18b1-eea3-4c26-a4a5-ec6d77acded9","system_id":"levelo_inurba_marseille","lat":43.25579,"lon":5.38224,"is_reserved":false,"is_disabled":false,"rental_uris":{"android":"levelo://app?vid=05ae18b1-eea3-4c26-a4a5-ec6d77acded9","ios":"levelo://app?vid=05ae18b1-eea3-4c26-a4a5-ec6d77acded9"},"vehicle_type_id":"4","last_reported":1733300011,"current_range_meters":38800,"station_id":"ce4bhih2rcd13ifvqfs0","pricing_plan_id":"cebpf4jnsgd1na2vs0mg"},{"bike_id":"9c77a68d-2e99-44e9-b903-950fb6644d35","system_id":"levelo_inurba_marseille","lat":43.25265,"lon":5.39465,"is_reserved":false,"is_disabled":true,"rental_uris":{"android":"levelo://app?vid=9c77a68d-2e99-44e9-b903-950fb6644d35","ios":"levelo://app?vid=9c77a68d-2e99-44e9-b903-950fb6644d35"},"vehicle_type_id":"4","last_reported":1733300011,"current_range_meters":0,"station_id":"","pricing_plan_id":"cebpf4jnsgd1na2vs0mg"},{"bike_id":"03410b9c-d4b5-4207-acb2-ab837ef705c0","system_id":"levelo_inurba_marseille","lat":43.30433,"lon":5.38891,"is_reserved":false,"is_disabled":false,"rental_uris":{"android":"levelo://app?vid=03410b9c-d4b5-4207-acb2-ab837ef705c0","ios":"levelo://app?vid=03410b9c-d4b5-4207-acb2-ab837ef705c0"},"vehicle_type_id":"4","last_reported":1733300011,"current_range_meters":26800,"station_id":"ce4bgk12rcd13ifvqbi0","pricing_plan_id":"cebpf4jnsgd1na2vs0mg"},{"bike_id":"39f027e2-3cdf-4194-8c4b-08ad1373b3b8","system_id":"levelo_inurba_marseille","lat":43.29553,"lon":5.4229,"is_reserved":false,"is_disabled":false,"rental_uris":{"android":"levelo://app?vid=39f027e2-3cdf-4194-8c4b-08ad1373b3b8","ios":"levelo://app?vid=39f027e2-3cdf-4194-8c4b-08ad1373b3b8"},"vehicle_type_id":"4","last_reported":1733300011,"current_range_meters":14800,"station_id":"ce4bhph2rcd13ifvqhdg","pricing_plan_id":"cebpf4jnsgd1na2vs0mg"},{"bike_id":"2c968a74-c62d-4787-a380-887aee01e71f","system_id":"levelo_inurba_marseille","lat":43.31884,"lon":5.40731,"is_reserved":false,"is_disabled":false,"rental_uris":{"android":"levelo://app?vid=2c968a74-c62d-4787-a380-887aee01e71f","ios":"levelo://app?vid=2c968a74-c62d-4787-a380-887aee01e71f"},"vehicle_type_id":"4","last_reported":1733300011,"current_range_meters":24800,"station_id":"ce4bhq12rcd13ifvqhig","pricing_plan_id":"cebpf4jnsgd1na2vs0mg"},{"bike_id":"f102254e-384e-4b45-8de6-f306202e4f84","system_id":"levelo_inurba_marseille","lat":43.25727,"lon":5.41108,"is_reserved":false,"is_disabled":false,"rental_uris":{"android":"levelo://app?vid=f102254e-384e-4b45-8de6-f306202e4f84","ios":"levelo://app?vid=f102254e-384e-4b45-8de6-f306202e4f84"},"vehicle_type_id":"4","last_reported":1733300011,"current_range_meters":12800,"station_id":"ce4bhkp2rcd13ifvqgd0","pricing_plan_id":"cebpf4jnsgd1na2vs0mg"},{"bike_id":"83985555-c848-4b28-808f-8a7e7cf8519e","system_id":"levelo_inurba_marseille","lat":43.28114,"lon":5.44002,"is_reserved":false,"is_disabled":true,"rental_uris":{"android":"levelo://app?vid=83985555-c848-4b28-808f-8a7e7cf8519e","ios":"levelo://app?vid=83985555-c848-4b28-808f-8a7e7cf8519e"},"vehicle_type_id":"4","last_reported":1733300011,"current_range_meters":0,"station_id":"","pricing_plan_id":"cebpf4jnsgd1na2vs0mg"},{"bike_id":"84e2a0c7-5d51-40d4-ab15-f6c9eabb75e9","system_id":"levelo_inurba_marseille","lat":43.27496,"lon":5.42451,"is_reserved":false,"is_disabled":false,"rental_uris":{"android":"levelo://app?vid=84e2a0c7-5d51-40d4-ab15-f6c9eabb75e9","ios":"levelo://app?vid=84e2a0c7-5d51-40d4-ab15-f6c9eabb75e9"},"vehicle_type_id":"4","last_reported":1733300011,"current_range_meters":36400,"station_id":"ce4bhn92rcd13ifvqgrg","pricing_plan_id":"cebpf4jnsgd1na2vs0mg"},{"bike_id":"1be62913-8a8f-472b-bf7b-3981eb37562d","system_id":"levelo_inurba_marseille","lat":43.31487,"lon":5.37297,"is_reserved":false,"is_disabled":false,"rental_uris":{"android":"levelo://app?vid=1be62913-8a8f-472b-bf7b-3981eb37562d","ios":"levelo://app?vid=1be62913-8a8f-472b-bf7b-3981eb37562d"},"vehicle_type_id":"4","last_reported":1733300011,"current_range_meters":28800,"station_id":"ce4bgt12rcd13ifvqcd0","pricing_plan_id":"cebpf4jnsgd1na2vs0mg"},{"bike_id":"903ec8f1-f4c3-441f-a117-ff7454fcb959","system_id":"levelo_inurba_marseille","lat":43.29465,"lon":5.39404,"is_reserved":false,"is_disabled":true,"rental_uris":{"android":"levelo://app?vid=903ec8f1-f4c3-441f-a117-ff7454fcb959","ios":"levelo://app?vid=903ec8f1-f4c3-441f-a117-ff7454fcb959"},"vehicle_type_id":"4","last_reported":1733300011,"current_range_meters":0,"station_id":"","pricing_plan_id":"cebpf4jnsgd1na2vs0mg"},{"bike_id":"07a60b7f-80b7-470a-9515-22fa33d21dee","system_id":"levelo_inurba_marseille","lat":43.30268,"lon":5.39643,"is_reserved":false,"is_disabled":true,"rental_uris":{"android":"levelo://app?vid=07a60b7f-80b7-470a-9515-22fa33d21dee","ios":"levelo://app?vid=07a60b7f-80b7-470a-9515-22fa33d21dee"},"vehicle_type_id":"4","last_reported":1733300011,"current_range_meters":0,"station_id":"","pricing_plan_id":"cebpf4jnsgd1na2vs0mg"},{"bike_id":"5c2cdfd1-36f1-4001-b89f-b15c57c2cce9","system_id":"levelo_inurba_marseille","lat":43.29294,"lon":5.37468,"is_reserved":false,"is_disabled":false,"rental_uris":{"android":"levelo://app?vid=5c2cdfd1-36f1-4001-b89f-b15c57c2cce9","ios":"levelo://app?vid=5c2cdfd1-36f1-4001-b89f-b15c57c2cce9"},"vehicle_type_id":"4","last_reported":1733300011,"current_range_meters":22400,"station_id":"ce4bgi12rcd13ifvqb70","pricing_plan_id":"cebpf4jnsgd1na2vs0mg"},{"bike_id":"941eeae1-8936-4a86-b31a-ea87d84b2048","system_id":"levelo_inurba_marseille","lat":43.2806,"lon":5.35641,"is_reserved":false,"is_disabled":true,"rental_uris":{"android":"levelo://app?vid=941eeae1-8936-4a86-b31a-ea87d84b2048","ios":"levelo://app?vid=941eeae1-8936-4a86-b31a-ea87d84b2048"},"vehicle_type_id":"4","last_reported":1733300011,"current_range_meters":1600,"station_id":"","pricing_plan_id":"cebpf4jnsgd1na2vs0mg"},{"bike_id":"cb405331-5424-4e39-a835-9a9e9242f34c","system_id":"levelo_inurba_marseille","lat":43.30533,"lon":5.3655,"is_reserved":false,"is_disabled":false,"rental_uris":{"android":"levelo://app?vid=cb405331-5424-4e39-a835-9a9e9242f34c","ios":"levelo://app?vid=cb405331-5424-4e39-a835-9a9e9242f34c"},"vehicle_type_id":"4","last_reported":1733300011,"current_range_meters":25600,"station_id":"ce4bgs12rcd13ifvqcag","pricing_plan_id":"cebpf4jnsgd1na2vs0mg"},{"bike_id":"736804a0-d604-4593-9605-60df46271ddd","system_id":"levelo_inurba_marseille","lat":43.3136,"lon":5.36717,"is_reserved":false,"is_disabled":false,"rental_uris":{"android":"levelo://app?vid=736804a0-d604-4593-9605-60df46271ddd","ios":"levelo://app?vid=736804a0-d604-4593-9605-60df46271ddd"},"vehicle_type_id":"4","last_reported":1733300011,"current_range_meters":17600,"station_id":"ce4bgr92rcd13ifvqc6g","pricing_plan_id":"cebpf4jnsgd1na2vs0mg"},{"bike_id":"80f714a3-6e56-4e44-8c52-9f7d39b77216","system_id":"levelo_inurba_marseille","lat":43.32284,"lon":5.38273,"is_reserved":false,"is_disabled":false,"rental_uris":{"android":"levelo://app?vid=80f714a3-6e56-4e44-8c52-9f7d39b77216","ios":"levelo://app?vid=80f714a3-6e56-4e44-8c52-9f7d39b77216"},"vehicle_type_id":"4","last_reported":1733300011,"current_range_meters":32000,"station_id":"ce4bhr12rcd13ifvqhqg","pricing_plan_id":"cebpf4jnsgd1na2vs0mg"},{"bike_id":"f9e732c2-dd63-456c-ba19-4b46d2f76009","system_id":"levelo_inurba_marseille","lat":43.30437,"lon":5.38897,"is_reserved":false,"is_disabled":true,"rental_uris":{"android":"levelo://app?vid=f9e732c2-dd63-456c-ba19-4b46d2f76009","ios":"levelo://app?vid=f9e732c2-dd63-456c-ba19-4b46d2f76009"},"vehicle_type_id":"4","last_reported":1733300011,"current_range_meters":36000,"station_id":"ce4bgk12rcd13ifvqbi0","pricing_plan_id":"cebpf4jnsgd1na2vs0mg"},{"bike_id":"1bd1c699-ba65-485a-b414-b399564feb34","system_id":"levelo_inurba_marseille","lat":43.2621,"lon":5.37438,"is_reserved":false,"is_disabled":false,"rental_uris":{"android":"levelo://app?vid=1bd1c699-ba65-485a-b414-b399564feb34","ios":"levelo://app?vid=1bd1c699-ba65-485a-b414-b399564feb34"},"vehicle_type_id":"4","last_reported":1733300011,"current_range_meters":33200,"station_id":"ce4bhgp2rcd13ifvqfc0","pricing_plan_id":"cebpf4jnsgd1na2vs0mg"},{"bike_id":"8259e04c-7a64-4d84-87e5-259e11768efc","system_id":"levelo_inurba_marseille","lat":43.32535,"lon":5.41447,"is_reserved":false,"is_disabled":false,"rental_uris":{"android":"levelo://app?vid=8259e04c-7a64-4d84-87e5-259e11768efc","ios":"levelo://app?vid=8259e04c-7a64-4d84-87e5-259e11768efc"},"vehicle_type_id":"4","last_reported":1733300011,"current_range_meters":38800,"station_id":"ce4bhq12rcd13ifvqhhg","pricing_plan_id":"cebpf4jnsgd1na2vs0mg"},{"bike_id":"d968385f-de2b-44eb-96a8-54efc707caa9","system_id":"levelo_inurba_marseille","lat":43.23195,"lon":5.35559,"is_reserved":false,"is_disabled":false,"rental_uris":{"android":"levelo://app?vid=d968385f-de2b-44eb-96a8-54efc707caa9","ios":"levelo://app?vid=d968385f-de2b-44eb-96a8-54efc707caa9"},"vehicle_type_id":"4","last_reported":1733300011,"current_range_meters":38800,"station_id":"ce4bhu92rcd13ifvqi70","pricing_plan_id":"cebpf4jnsgd1na2vs0mg"},{"bike_id":"081a8591-542e-49e8-9f34-aa4400ceacb3","system_id":"levelo_inurba_marseille","lat":43.2984,"lon":5.36269,"is_reserved":false,"is_disabled":false,"rental_uris":{"android":"levelo://app?vid=081a8591-542e-49e8-9f34-aa4400ceacb3","ios":"levelo://app?vid=081a8591-542e-49e8-9f34-aa4400ceacb3"},"vehicle_type_id":"4","last_reported":1733300011,"current_range_meters":38800,"station_id":"ce4bgpp2rcd13ifvqc3g","pricing_plan_id":"cebpf4jnsgd1na2vs0mg"},{"bike_id":"e218f52a-3c8a-490a-99d9-5af7196625b0","system_id":"levelo_inurba_marseille","lat":43.23195,"lon":5.35545,"is_reserved":false,"is_disabled":false,"rental_uris":{"android":"levelo://app?vid=e218f52a-3c8a-490a-99d9-5af7196625b0","ios":"levelo://app?vid=e218f52a-3c8a-490a-99d9-5af7196625b0"},"vehicle_type_id":"4","last_reported":1733300011,"current_range_meters":38800,"station_id":"ce4bhu92rcd13ifvqi70","pricing_plan_id":"cebpf4jnsgd1na2vs0mg"},{"bike_id":"506c09f4-6c9b-4fb3-996c-4c7f86dd75a8","system_id":"levelo_inurba_marseille","lat":43.24555,"lon":5.37351,"is_reserved":false,"is_disabled":true,"rental_uris":{"android":"levelo://app?vid=506c09f4-6c9b-4fb3-996c-4c7f86dd75a8","ios":"levelo://app?vid=506c09f4-6c9b-4fb3-996c-4c7f86dd75a8"},"vehicle_type_id":"4","last_reported":1733300011,"current_range_meters":0,"station_id":"","pricing_plan_id":"cebpf4jnsgd1na2vs0mg"},{"bike_id":"a722b8b3-0cc9-4a79-bb43-3d768bdc5b8a","system_id":"levelo_inurba_marseille","lat":43.30459,"lon":5.37906,"is_reserved":false,"is_disabled":false,"rental_uris":{"android":"levelo://app?vid=a722b8b3-0cc9-4a79-bb43-3d768bdc5b8a","ios":"levelo://app?vid=a722b8b3-0cc9-4a79-bb43-3d768bdc5b8a"},"vehicle_type_id":"4","last_reported":1733300011,"current_range_meters":38000,"station_id":"ce4bgup2rcd13ifvqcn0","pricing_plan_id":"cebpf4jnsgd1na2vs0mg"},{"bike_id":"fd0f5468-0b07-4fb4-a17c-422c3034ac71","system_id":"levelo_inurba_marseille","lat":43.32048,"lon":5.41536,"is_reserved":false,"is_disabled":false,"rental_uris":{"android":"levelo://app?vid=fd0f5468-0b07-4fb4-a17c-422c3034ac71","ios":"levelo://app?vid=fd0f5468-0b07-4fb4-a17c-422c3034ac71"},"vehicle_type_id":"4","last_reported":1733300011,"current_range_meters":38400,"station_id":"ce4bhq92rcd13ifvqhkg","pricing_plan_id":"cebpf4jnsgd1na2vs0mg"},{"bike_id":"9202c63e-372c-4469-a5c1-8e35757d1940","system_id":"levelo_inurba_marseille","lat":43.30053,"lon":5.38832,"is_reserved":false,"is_disabled":true,"rental_uris":{"android":"levelo://app?vid=9202c63e-372c-4469-a5c1-8e35757d1940","ios":"levelo://app?vid=9202c63e-372c-4469-a5c1-8e35757d1940"},"vehicle_type_id":"4","last_reported":1733300011,"current_range_meters":0,"station_id":"","pricing_plan_id":"cebpf4jnsgd1na2vs0mg"},{"bike_id":"238a9584-1ddb-4e83-99a1-2480e465351c","system_id":"levelo_inurba_marseille","lat":43.33601,"lon":5.4103,"is_reserved":false,"is_disabled":false,"rental_uris":{"android":"levelo://app?vid=238a9584-1ddb-4e83-99a1-2480e465351c","ios":"levelo://app?vid=238a9584-1ddb-4e83-99a1-2480e465351c"},"vehicle_type_id":"4","last_reported":1733300011,"current_range_meters":13600,"station_id":"ce4bhqh2rcd13ifvqhmg","pricing_plan_id":"cebpf4jnsgd1na2vs0mg"},{"bike_id":"6e35a628-141c-4055-81a3-e64bed2ed5b9","system_id":"levelo_inurba_marseille","lat":43.30524,"lon":5.36697,"is_reserved":false,"is_disabled":false,"rental_uris":{"android":"levelo://app?vid=6e35a628-141c-4055-81a3-e64bed2ed5b9","ios":"levelo://app?vid=6e35a628-141c-4055-81a3-e64bed2ed5b9"},"vehicle_type_id":"4","last_reported":1733300011,"current_range_meters":37600,"station_id":"ce4bgrp2rcd13ifvqc9g","pricing_plan_id":"cebpf4jnsgd1na2vs0mg"},{"bike_id":"59fe6ee5-2970-40fb-8f17-79075f699540","system_id":"levelo_inurba_marseille","lat":43.27051,"lon":5.40265,"is_reserved":false,"is_disabled":false,"rental_uris":{"android":"levelo://app?vid=59fe6ee5-2970-40fb-8f17-79075f699540","ios":"levelo://app?vid=59fe6ee5-2970-40fb-8f17-79075f699540"},"vehicle_type_id":"4","last_reported":1733300011,"current_range_meters":36400,"station_id":"ce4bhk92rcd13ifvqgc0","pricing_plan_id":"cebpf4jnsgd1na2vs0mg"},{"bike_id":"8afc3311-d021-421f-b8cd-4c80d3171be8","system_id":"levelo_inurba_marseille","lat":43.28363,"lon":5.38632,"is_reserved":false,"is_disabled":false,"rental_uris":{"android":"levelo://app?vid=8afc3311-d021-421f-b8cd-4c80d3171be8","ios":"levelo://app?vid=8afc3311-d021-421f-b8cd-4c80d3171be8"},"vehicle_type_id":"4","last_reported":1733300011,"current_range_meters":23200,"station_id":"ce4bh492rcd13ifvqdvg","pricing_plan_id":"cebpf4jnsgd1na2vs0mg"},{"bike_id":"0e5b580e-1f1d-41a4-b470-f28cdac793f5","system_id":"levelo_inurba_marseille","lat":43.29627,"lon":5.37721,"is_reserved":false,"is_disabled":false,"rental_uris":{"android":"levelo://app?vid=0e5b580e-1f1d-41a4-b470-f28cdac793f5","ios":"levelo://app?vid=0e5b580e-1f1d-41a4-b470-f28cdac793f5"},"vehicle_type_id":"4","last_reported":1733300011,"current_range_meters":29600,"station_id":"ce4bgi92rcd13ifvqb90","pricing_plan_id":"cebpf4jnsgd1na2vs0mg"},{"bike_id":"cf3e6ea0-09ff-406c-b357-28a6a6117f94","system_id":"levelo_inurba_marseille","lat":43.22932,"lon":5.35376,"is_reserved":false,"is_disabled":false,"rental_uris":{"android":"levelo://app?vid=cf3e6ea0-09ff-406c-b357-28a6a6117f94","ios":"levelo://app?vid=cf3e6ea0-09ff-406c-b357-28a6a6117f94"},"vehicle_type_id":"4","last_reported":1733300011,"current_range_meters":38000,"station_id":"cpo3532slgdg3j2ikp40","pricing_plan_id":"cebpf4jnsgd1na2vs0mg"},{"bike_id":"c2a8faff-bb33-449e-ba22-c78399448fc1","system_id":"levelo_inurba_marseille","lat":43.28151,"lon":5.42632,"is_reserved":false,"is_disabled":false,"rental_uris":{"android":"levelo://app?vid=c2a8faff-bb33-449e-ba22-c78399448fc1","ios":"levelo://app?vid=c2a8faff-bb33-449e-ba22-c78399448fc1"},"vehicle_type_id":"4","last_reported":1733300011,"current_range_meters":37600,"station_id":"ce4bhnh2rcd13ifvqgug","pricing_plan_id":"cebpf4jnsgd1na2vs0mg"},{"bike_id":"33b6defc-0259-40c1-8c7c-b5f4200fa144","system_id":"levelo_inurba_marseille","lat":43.23972,"lon":5.36625,"is_reserved":false,"is_disabled":false,"rental_uris":{"android":"levelo://app?vid=33b6defc-0259-40c1-8c7c-b5f4200fa144","ios":"levelo://app?vid=33b6defc-0259-40c1-8c7c-b5f4200fa144"},"vehicle_type_id":"4","last_reported":1733300011,"current_range_meters":14800,"station_id":"ce4bhi12rcd13ifvqfp0","pricing_plan_id":"cebpf4jnsgd1na2vs0mg"},{"bike_id":"66ac9341-b94a-4082-a9d6-1bfcd193bc67","system_id":"levelo_inurba_marseille","lat":43.30537,"lon":5.36558,"is_reserved":false,"is_disabled":false,"rental_uris":{"android":"levelo://app?vid=66ac9341-b94a-4082-a9d6-1bfcd193bc67","ios":"levelo://app?vid=66ac9341-b94a-4082-a9d6-1bfcd193bc67"},"vehicle_type_id":"4","last_reported":1733300011,"current_range_meters":29600,"station_id":"ce4bgs12rcd13ifvqcag","pricing_plan_id":"cebpf4jnsgd1na2vs0mg"},{"bike_id":"719e509a-25e4-4b1b-9830-f708d85d7593","system_id":"levelo_inurba_marseille","lat":43.29283,"lon":5.37397,"is_reserved":false,"is_disabled":true,"rental_uris":{"android":"levelo://app?vid=719e509a-25e4-4b1b-9830-f708d85d7593","ios":"levelo://app?vid=719e509a-25e4-4b1b-9830-f708d85d7593"},"vehicle_type_id":"4","last_reported":1733300011,"current_range_meters":0,"station_id":"","pricing_plan_id":"cebpf4jnsgd1na2vs0mg"},{"bike_id":"34990873-3196-4058-b006-4ffbc0216fdf","system_id":"levelo_inurba_marseille","lat":43.23193,"lon":5.35539,"is_reserved":false,"is_disabled":false,"rental_uris":{"android":"levelo://app?vid=34990873-3196-4058-b006-4ffbc0216fdf","ios":"levelo://app?vid=34990873-3196-4058-b006-4ffbc0216fdf"},"vehicle_type_id":"4","last_reported":1733300011,"current_range_meters":38800,"station_id":"ce4bhu92rcd13ifvqi70","pricing_plan_id":"cebpf4jnsgd1na2vs0mg"},{"bike_id":"235e4433-937e-41f8-a4d6-6889c27bd8c1","system_id":"levelo_inurba_marseille","lat":43.31069,"lon":5.38338,"is_reserved":false,"is_disabled":false,"rental_uris":{"android":"levelo://app?vid=235e4433-937e-41f8-a4d6-6889c27bd8c1","ios":"levelo://app?vid=235e4433-937e-41f8-a4d6-6889c27bd8c1"},"vehicle_type_id":"4","last_reported":1733300011,"current_range_meters":20400,"station_id":"ce4bgv92rcd13ifvqcr0","pricing_plan_id":"cebpf4jnsgd1na2vs0mg"},{"bike_id":"572c5508-49e2-4b8f-90bd-27742294f249","system_id":"levelo_inurba_marseille","lat":43.28341,"lon":5.381,"is_reserved":false,"is_disabled":true,"rental_uris":{"android":"levelo://app?vid=572c5508-49e2-4b8f-90bd-27742294f249","ios":"levelo://app?vid=572c5508-49e2-4b8f-90bd-27742294f249"},"vehicle_type_id":"4","last_reported":1733300011,"current_range_meters":1200,"station_id":"ce4bh412rcd13ifvqdr0","pricing_plan_id":"cebpf4jnsgd1na2vs0mg"},{"bike_id":"c0b0668b-9f20-44f3-b7e1-3963df177deb","system_id":"levelo_inurba_marseille","lat":43.26027,"lon":5.3755,"is_reserved":false,"is_disabled":false,"rental_uris":{"android":"levelo://app?vid=c0b0668b-9f20-44f3-b7e1-3963df177deb","ios":"levelo://app?vid=c0b0668b-9f20-44f3-b7e1-3963df177deb"},"vehicle_type_id":"4","last_reported":1733300011,"current_range_meters":38800,"station_id":"ce4bhgh2rcd13ifvqfa0","pricing_plan_id":"cebpf4jnsgd1na2vs0mg"},{"bike_id":"7eeb5ac6-a3ab-4724-a0d1-17bed7e385e6","system_id":"levelo_inurba_marseille","lat":43.28002,"lon":5.41655,"is_reserved":false,"is_disabled":true,"rental_uris":{"android":"levelo://app?vid=7eeb5ac6-a3ab-4724-a0d1-17bed7e385e6","ios":"levelo://app?vid=7eeb5ac6-a3ab-4724-a0d1-17bed7e385e6"},"vehicle_type_id":"4","last_reported":1733300011,"current_range_meters":24000,"station_id":"ce4bho12rcd13ifvqh1g","pricing_plan_id":"cebpf4jnsgd1na2vs0mg"},{"bike_id":"48f7fad5-9736-4854-ad66-3ac0235f4d2f","system_id":"levelo_inurba_marseille","lat":43.27058,"lon":5.40262,"is_reserved":false,"is_disabled":false,"rental_uris":{"android":"levelo://app?vid=48f7fad5-9736-4854-ad66-3ac0235f4d2f","ios":"levelo://app?vid=48f7fad5-9736-4854-ad66-3ac0235f4d2f"},"vehicle_type_id":"4","last_reported":1733300011,"current_range_meters":19600,"station_id":"ce4bhk92rcd13ifvqgc0","pricing_plan_id":"cebpf4jnsgd1na2vs0mg"},{"bike_id":"57681fe6-a85e-4520-b2d5-443892bff85b","system_id":"levelo_inurba_marseille","lat":43.30459,"lon":5.379,"is_reserved":false,"is_disabled":false,"rental_uris":{"android":"levelo://app?vid=57681fe6-a85e-4520-b2d5-443892bff85b","ios":"levelo://app?vid=57681fe6-a85e-4520-b2d5-443892bff85b"},"vehicle_type_id":"4","last_reported":1733300011,"current_range_meters":31200,"station_id":"ce4bgup2rcd13ifvqcn0","pricing_plan_id":"cebpf4jnsgd1na2vs0mg"},{"bike_id":"1765576d-ad21-4bb0-85a8-4c7cde4f5294","system_id":"levelo_inurba_marseille","lat":43.29619,"lon":5.37151,"is_reserved":false,"is_disabled":true,"rental_uris":{"android":"levelo://app?vid=1765576d-ad21-4bb0-85a8-4c7cde4f5294","ios":"levelo://app?vid=1765576d-ad21-4bb0-85a8-4c7cde4f5294"},"vehicle_type_id":"4","last_reported":1733300011,"current_range_meters":1200,"station_id":"ce4bgnh2rcd13ifvqc0g","pricing_plan_id":"cebpf4jnsgd1na2vs0mg"},{"bike_id":"814933d9-932f-45d3-812e-11edfcc3f9c1","system_id":"levelo_inurba_marseille","lat":43.2962,"lon":5.37728,"is_reserved":false,"is_disabled":false,"rental_uris":{"android":"levelo://app?vid=814933d9-932f-45d3-812e-11edfcc3f9c1","ios":"levelo://app?vid=814933d9-932f-45d3-812e-11edfcc3f9c1"},"vehicle_type_id":"4","last_reported":1733300011,"current_range_meters":35600,"station_id":"ce4bgi92rcd13ifvqb90","pricing_plan_id":"cebpf4jnsgd1na2vs0mg"},{"bike_id":"968baaf9-070b-44ea-a9ae-5bc7ffde82cb","system_id":"levelo_inurba_marseille","lat":43.30461,"lon":5.37909,"is_reserved":false,"is_disabled":false,"rental_uris":{"android":"levelo://app?vid=968baaf9-070b-44ea-a9ae-5bc7ffde82cb","ios":"levelo://app?vid=968baaf9-070b-44ea-a9ae-5bc7ffde82cb"},"vehicle_type_id":"4","last_reported":1733300011,"current_range_meters":36800,"station_id":"ce4bgup2rcd13ifvqcn0","pricing_plan_id":"cebpf4jnsgd1na2vs0mg"},{"bike_id":"38c9802a-44d4-43b4-a98f-381ac535f302","system_id":"levelo_inurba_marseille","lat":43.32476,"lon":5.36571,"is_reserved":false,"is_disabled":false,"rental_uris":{"android":"levelo://app?vid=38c9802a-44d4-43b4-a98f-381ac535f302","ios":"levelo://app?vid=38c9802a-44d4-43b4-a98f-381ac535f302"},"vehicle_type_id":"4","last_reported":1733300011,"current_range_meters":36000,"station_id":"ce4bhs12rcd13ifvqhvg","pricing_plan_id":"cebpf4jnsgd1na2vs0mg"},{"bike_id":"439677e2-3c0a-4746-b692-ebf0e0240441","system_id":"levelo_inurba_marseille","lat":43.29531,"lon":5.38545,"is_reserved":false,"is_disabled":false,"rental_uris":{"android":"levelo://app?vid=439677e2-3c0a-4746-b692-ebf0e0240441","ios":"levelo://app?vid=439677e2-3c0a-4746-b692-ebf0e0240441"},"vehicle_type_id":"4","last_reported":1733300011,"current_range_meters":38800,"station_id":"ce4bgih2rcd13ifvqba0","pricing_plan_id":"cebpf4jnsgd1na2vs0mg"},{"bike_id":"306ac285-bc0c-4835-93e0-a6039d545963","system_id":"levelo_inurba_marseille","lat":43.30084,"lon":5.39085,"is_reserved":false,"is_disabled":true,"rental_uris":{"android":"levelo://app?vid=306ac285-bc0c-4835-93e0-a6039d545963","ios":"levelo://app?vid=306ac285-bc0c-4835-93e0-a6039d545963"},"vehicle_type_id":"4","last_reported":1733300011,"current_range_meters":36800,"station_id":"ce4bh192rcd13ifvqdb0","pricing_plan_id":"cebpf4jnsgd1na2vs0mg"},{"bike_id":"0b0ff45f-b0f5-43d3-944d-7ce6714713b4","system_id":"levelo_inurba_marseille","lat":43.33726,"lon":5.374,"is_reserved":false,"is_disabled":false,"rental_uris":{"android":"levelo://app?vid=0b0ff45f-b0f5-43d3-944d-7ce6714713b4","ios":"levelo://app?vid=0b0ff45f-b0f5-43d3-944d-7ce6714713b4"},"vehicle_type_id":"4","last_reported":1733300011,"current_range_meters":38800,"station_id":"","pricing_plan_id":"cebpf4jnsgd1na2vs0mg"},{"bike_id":"04acd6cf-39e7-4978-a379-93c734ba69f3","system_id":"levelo_inurba_marseille","lat":43.31631,"lon":5.38214,"is_reserved":false,"is_disabled":false,"rental_uris":{"android":"levelo://app?vid=04acd6cf-39e7-4978-a379-93c734ba69f3","ios":"levelo://app?vid=04acd6cf-39e7-4978-a379-93c734ba69f3"},"vehicle_type_id":"4","last_reported":1733300011,"current_range_meters":38800,"station_id":"","pricing_plan_id":"cebpf4jnsgd1na2vs0mg"},{"bike_id":"a68a3ce4-7e26-45e1-8b9e-4fedcba9d405","system_id":"levelo_inurba_marseille","lat":43.27209,"lon":5.39178,"is_reserved":false,"is_disabled":false,"rental_uris":{"android":"levelo://app?vid=a68a3ce4-7e26-45e1-8b9e-4fedcba9d405","ios":"levelo://app?vid=a68a3ce4-7e26-45e1-8b9e-4fedcba9d405"},"vehicle_type_id":"4","last_reported":1733300011,"current_range_meters":28400,"station_id":"ce4bhhp2rcd13ifvqfm0","pricing_plan_id":"cebpf4jnsgd1na2vs0mg"},{"bike_id":"1dc70cdf-4f74-41af-9e95-77502d50e11a","system_id":"levelo_inurba_marseille","lat":43.30418,"lon":5.41285,"is_reserved":false,"is_disabled":true,"rental_uris":{"android":"levelo://app?vid=1dc70cdf-4f74-41af-9e95-77502d50e11a","ios":"levelo://app?vid=1dc70cdf-4f74-41af-9e95-77502d50e11a"},"vehicle_type_id":"4","last_reported":1733300011,"current_range_meters":12000,"station_id":"ce4bhop2rcd13ifvqh8g","pricing_plan_id":"cebpf4jnsgd1na2vs0mg"},{"bike_id":"695f4e15-8bd4-4b44-b887-a89a5ce808bd","system_id":"levelo_inurba_marseille","lat":43.24072,"lon":5.37761,"is_reserved":false,"is_disabled":false,"rental_uris":{"android":"levelo://app?vid=695f4e15-8bd4-4b44-b887-a89a5ce808bd","ios":"levelo://app?vid=695f4e15-8bd4-4b44-b887-a89a5ce808bd"},"vehicle_type_id":"4","last_reported":1733300011,"current_range_meters":28800,"station_id":"ce4bhnp2rcd13ifvqgvg","pricing_plan_id":"cebpf4jnsgd1na2vs0mg"},{"bike_id":"b783909c-27b8-4431-a756-117c46c390fd","system_id":"levelo_inurba_marseille","lat":43.30187,"lon":5.36631,"is_reserved":false,"is_disabled":false,"rental_uris":{"android":"levelo://app?vid=b783909c-27b8-4431-a756-117c46c390fd","ios":"levelo://app?vid=b783909c-27b8-4431-a756-117c46c390fd"},"vehicle_type_id":"4","last_reported":1733300011,"current_range_meters":26000,"station_id":"ce4bgrh2rcd13ifvqc8g","pricing_plan_id":"cebpf4jnsgd1na2vs0mg"},{"bike_id":"7435ce5a-a241-4322-a04c-a9e79ec958c6","system_id":"levelo_inurba_marseille","lat":43.28617,"lon":5.351,"is_reserved":false,"is_disabled":false,"rental_uris":{"android":"levelo://app?vid=7435ce5a-a241-4322-a04c-a9e79ec958c6","ios":"levelo://app?vid=7435ce5a-a241-4322-a04c-a9e79ec958c6"},"vehicle_type_id":"4","last_reported":1733300011,"current_range_meters":32800,"station_id":"ce4bhch2rcd13ifvqeug","pricing_plan_id":"cebpf4jnsgd1na2vs0mg"},{"bike_id":"b078d37a-b8c3-4201-8982-d99c0d3fe438","system_id":"levelo_inurba_marseille","lat":43.29703,"lon":5.37702,"is_reserved":false,"is_disabled":false,"rental_uris":{"android":"levelo://app?vid=b078d37a-b8c3-4201-8982-d99c0d3fe438","ios":"levelo://app?vid=b078d37a-b8c3-4201-8982-d99c0d3fe438"},"vehicle_type_id":"4","last_reported":1733300011,"current_range_meters":22400,"station_id":"ce4bgkh2rcd13ifvqbl0","pricing_plan_id":"cebpf4jnsgd1na2vs0mg"},{"bike_id":"332b12a8-bded-4468-adc3-b7e4c8d6e6cc","system_id":"levelo_inurba_marseille","lat":43.30914,"lon":5.36848,"is_reserved":false,"is_disabled":false,"rental_uris":{"android":"levelo://app?vid=332b12a8-bded-4468-adc3-b7e4c8d6e6cc","ios":"levelo://app?vid=332b12a8-bded-4468-adc3-b7e4c8d6e6cc"},"vehicle_type_id":"4","last_reported":1733300011,"current_range_meters":31200,"station_id":"ce4bgn92rcd13ifvqbvg","pricing_plan_id":"cebpf4jnsgd1na2vs0mg"},{"bike_id":"79c8ea6d-5102-4a1e-b941-afdabc095945","system_id":"levelo_inurba_marseille","lat":43.29072,"lon":5.38341,"is_reserved":false,"is_disabled":true,"rental_uris":{"android":"levelo://app?vid=79c8ea6d-5102-4a1e-b941-afdabc095945","ios":"levelo://app?vid=79c8ea6d-5102-4a1e-b941-afdabc095945"},"vehicle_type_id":"4","last_reported":1733300011,"current_range_meters":21600,"station_id":"","pricing_plan_id":"cebpf4jnsgd1na2vs0mg"},{"bike_id":"525e5409-64e3-4dae-8690-73d8d2cfe958","system_id":"levelo_inurba_marseille","lat":43.29552,"lon":5.42292,"is_reserved":false,"is_disabled":false,"rental_uris":{"android":"levelo://app?vid=525e5409-64e3-4dae-8690-73d8d2cfe958","ios":"levelo://app?vid=525e5409-64e3-4dae-8690-73d8d2cfe958"},"vehicle_type_id":"4","last_reported":1733300011,"current_range_meters":11200,"station_id":"ce4bhph2rcd13ifvqhdg","pricing_plan_id":"cebpf4jnsgd1na2vs0mg"},{"bike_id":"617629dc-94d5-488c-bdb3-2641b11a2136","system_id":"levelo_inurba_marseille","lat":43.31713,"lon":5.43694,"is_reserved":false,"is_disabled":true,"rental_uris":{"android":"levelo://app?vid=617629dc-94d5-488c-bdb3-2641b11a2136","ios":"levelo://app?vid=617629dc-94d5-488c-bdb3-2641b11a2136"},"vehicle_type_id":"4","last_reported":1733300011,"current_range_meters":28000,"station_id":"ce4bhp92rcd13ifvqhcg","pricing_plan_id":"cebpf4jnsgd1na2vs0mg"},{"bike_id":"5f960a57-d58f-4b3c-9c7b-2ebfcda9e563","system_id":"levelo_inurba_marseille","lat":43.30159,"lon":5.38083,"is_reserved":false,"is_disabled":false,"rental_uris":{"android":"levelo://app?vid=5f960a57-d58f-4b3c-9c7b-2ebfcda9e563","ios":"levelo://app?vid=5f960a57-d58f-4b3c-9c7b-2ebfcda9e563"},"vehicle_type_id":"4","last_reported":1733300011,"current_range_meters":35600,"station_id":"ce4bgjp2rcd13ifvqbh0","pricing_plan_id":"cebpf4jnsgd1na2vs0mg"},{"bike_id":"1f3491f0-7911-4ef6-949b-178332ea511b","system_id":"levelo_inurba_marseille","lat":43.2795,"lon":5.38777,"is_reserved":false,"is_disabled":false,"rental_uris":{"android":"levelo://app?vid=1f3491f0-7911-4ef6-949b-178332ea511b","ios":"levelo://app?vid=1f3491f0-7911-4ef6-949b-178332ea511b"},"vehicle_type_id":"4","last_reported":1733300011,"current_range_meters":20000,"station_id":"ce4bhg12rcd13ifvqf80","pricing_plan_id":"cebpf4jnsgd1na2vs0mg"},{"bike_id":"0fd0e8f9-82ea-47b8-b57a-d805377f6c74","system_id":"levelo_inurba_marseille","lat":43.3254,"lon":5.41423,"is_reserved":false,"is_disabled":false,"rental_uris":{"android":"levelo://app?vid=0fd0e8f9-82ea-47b8-b57a-d805377f6c74","ios":"levelo://app?vid=0fd0e8f9-82ea-47b8-b57a-d805377f6c74"},"vehicle_type_id":"4","last_reported":1733300011,"current_range_meters":27200,"station_id":"ce4bhq12rcd13ifvqhhg","pricing_plan_id":"cebpf4jnsgd1na2vs0mg"},{"bike_id":"c0bef3dd-541f-458c-a107-6bf1b30ff616","system_id":"levelo_inurba_marseille","lat":43.30278,"lon":5.37723,"is_reserved":false,"is_disabled":false,"rental_uris":{"android":"levelo://app?vid=c0bef3dd-541f-458c-a107-6bf1b30ff616","ios":"levelo://app?vid=c0bef3dd-541f-458c-a107-6bf1b30ff616"},"vehicle_type_id":"4","last_reported":1733300011,"current_range_meters":33200,"station_id":"ce4bguh2rcd13ifvqcj0","pricing_plan_id":"cebpf4jnsgd1na2vs0mg"},{"bike_id":"427d7497-fe79-4531-b7d6-69d2614ceec1","system_id":"levelo_inurba_marseille","lat":43.29179,"lon":5.38496,"is_reserved":false,"is_disabled":true,"rental_uris":{"android":"levelo://app?vid=427d7497-fe79-4531-b7d6-69d2614ceec1","ios":"levelo://app?vid=427d7497-fe79-4531-b7d6-69d2614ceec1"},"vehicle_type_id":"4","last_reported":1733300011,"current_range_meters":6400,"station_id":"","pricing_plan_id":"cebpf4jnsgd1na2vs0mg"},{"bike_id":"e342b4a9-5e11-4318-9383-03656d3bbd00","system_id":"levelo_inurba_marseille","lat":43.31342,"lon":5.36717,"is_reserved":false,"is_disabled":false,"rental_uris":{"android":"levelo://app?vid=e342b4a9-5e11-4318-9383-03656d3bbd00","ios":"levelo://app?vid=e342b4a9-5e11-4318-9383-03656d3bbd00"},"vehicle_type_id":"4","last_reported":1733300011,"current_range_meters":21600,"station_id":"ce4bgr92rcd13ifvqc6g","pricing_plan_id":"cebpf4jnsgd1na2vs0mg"},{"bike_id":"5ecf7364-2bad-450c-8536-214f937acc52","system_id":"levelo_inurba_marseille","lat":43.32054,"lon":5.41575,"is_reserved":false,"is_disabled":false,"rental_uris":{"android":"levelo://app?vid=5ecf7364-2bad-450c-8536-214f937acc52","ios":"levelo://app?vid=5ecf7364-2bad-450c-8536-214f937acc52"},"vehicle_type_id":"4","last_reported":1733300011,"current_range_meters":27600,"station_id":"ce4bhq92rcd13ifvqhkg","pricing_plan_id":"cebpf4jnsgd1na2vs0mg"},{"bike_id":"d08cbdef-fa5f-4eaa-9a1b-d4e2d436791f","system_id":"levelo_inurba_marseille","lat":43.3248,"lon":5.36556,"is_reserved":false,"is_disabled":false,"rental_uris":{"android":"levelo://app?vid=d08cbdef-fa5f-4eaa-9a1b-d4e2d436791f","ios":"levelo://app?vid=d08cbdef-fa5f-4eaa-9a1b-d4e2d436791f"},"vehicle_type_id":"4","last_reported":1733300011,"current_range_meters":39200,"station_id":"ce4bhs12rcd13ifvqhvg","pricing_plan_id":"cebpf4jnsgd1na2vs0mg"},{"bike_id":"a4b9e425-64b8-4ce2-a5ab-5fcc5d1230a4","system_id":"levelo_inurba_marseille","lat":43.32108,"lon":5.36773,"is_reserved":false,"is_disabled":false,"rental_uris":{"android":"levelo://app?vid=a4b9e425-64b8-4ce2-a5ab-5fcc5d1230a4","ios":"levelo://app?vid=a4b9e425-64b8-4ce2-a5ab-5fcc5d1230a4"},"vehicle_type_id":"4","last_reported":1733300011,"current_range_meters":7200,"station_id":"ce4bhrh2rcd13ifvqhug","pricing_plan_id":"cebpf4jnsgd1na2vs0mg"},{"bike_id":"e4904d11-3b0d-44e0-9284-790461f43b78","system_id":"levelo_inurba_marseille","lat":43.30461,"lon":5.37899,"is_reserved":false,"is_disabled":false,"rental_uris":{"android":"levelo://app?vid=e4904d11-3b0d-44e0-9284-790461f43b78","ios":"levelo://app?vid=e4904d11-3b0d-44e0-9284-790461f43b78"},"vehicle_type_id":"4","last_reported":1733300011,"current_range_meters":34800,"station_id":"ce4bgup2rcd13ifvqcn0","pricing_plan_id":"cebpf4jnsgd1na2vs0mg"},{"bike_id":"3abebed7-0396-4197-8537-118f812c5e7e","system_id":"levelo_inurba_marseille","lat":43.28423,"lon":5.37514,"is_reserved":false,"is_disabled":true,"rental_uris":{"android":"levelo://app?vid=3abebed7-0396-4197-8537-118f812c5e7e","ios":"levelo://app?vid=3abebed7-0396-4197-8537-118f812c5e7e"},"vehicle_type_id":"4","last_reported":1733300011,"current_range_meters":1200,"station_id":"ce4bh412rcd13ifvqds0","pricing_plan_id":"cebpf4jnsgd1na2vs0mg"},{"bike_id":"943aab40-751a-499b-93a5-9e42c71722d8","system_id":"levelo_inurba_marseille","lat":43.24071,"lon":5.37764,"is_reserved":false,"is_disabled":false,"rental_uris":{"android":"levelo://app?vid=943aab40-751a-499b-93a5-9e42c71722d8","ios":"levelo://app?vid=943aab40-751a-499b-93a5-9e42c71722d8"},"vehicle_type_id":"4","last_reported":1733300011,"current_range_meters":39200,"station_id":"ce4bhnp2rcd13ifvqgvg","pricing_plan_id":"cebpf4jnsgd1na2vs0mg"},{"bike_id":"f07fbb4f-bbd6-444d-8944-ef9871c2a76b","system_id":"levelo_inurba_marseille","lat":43.28363,"lon":5.38621,"is_reserved":false,"is_disabled":false,"rental_uris":{"android":"levelo://app?vid=f07fbb4f-bbd6-444d-8944-ef9871c2a76b","ios":"levelo://app?vid=f07fbb4f-bbd6-444d-8944-ef9871c2a76b"},"vehicle_type_id":"4","last_reported":1733300011,"current_range_meters":18000,"station_id":"ce4bh492rcd13ifvqdvg","pricing_plan_id":"cebpf4jnsgd1na2vs0mg"},{"bike_id":"124e256b-6755-4adb-956b-3d5fbbcf671d","system_id":"levelo_inurba_marseille","lat":43.29794,"lon":5.39328,"is_reserved":false,"is_disabled":true,"rental_uris":{"android":"levelo://app?vid=124e256b-6755-4adb-956b-3d5fbbcf671d","ios":"levelo://app?vid=124e256b-6755-4adb-956b-3d5fbbcf671d"},"vehicle_type_id":"4","last_reported":1733300011,"current_range_meters":0,"station_id":"chh1huq6cuj3fo74tm60","pricing_plan_id":"cebpf4jnsgd1na2vs0mg"},{"bike_id":"0fb51153-e333-4cf0-9413-a3ae27df6b16","system_id":"levelo_inurba_marseille","lat":43.27992,"lon":5.40027,"is_reserved":false,"is_disabled":false,"rental_uris":{"android":"levelo://app?vid=0fb51153-e333-4cf0-9413-a3ae27df6b16","ios":"levelo://app?vid=0fb51153-e333-4cf0-9413-a3ae27df6b16"},"vehicle_type_id":"4","last_reported":1733300011,"current_range_meters":20800,"station_id":"ce4bho92rcd13ifvqh4g","pricing_plan_id":"cebpf4jnsgd1na2vs0mg"},{"bike_id":"15c4ee65-0b5c-4626-a30e-5587b934f85d","system_id":"levelo_inurba_marseille","lat":43.32548,"lon":5.41448,"is_reserved":false,"is_disabled":false,"rental_uris":{"android":"levelo://app?vid=15c4ee65-0b5c-4626-a30e-5587b934f85d","ios":"levelo://app?vid=15c4ee65-0b5c-4626-a30e-5587b934f85d"},"vehicle_type_id":"4","last_reported":1733300011,"current_range_meters":11600,"station_id":"ce4bhq12rcd13ifvqhhg","pricing_plan_id":"cebpf4jnsgd1na2vs0mg"},{"bike_id":"c2d8a1c2-d166-4a36-b32f-beec95c93bd5","system_id":"levelo_inurba_marseille","lat":43.33761,"lon":5.37433,"is_reserved":false,"is_disabled":false,"rental_uris":{"android":"levelo://app?vid=c2d8a1c2-d166-4a36-b32f-beec95c93bd5","ios":"levelo://app?vid=c2d8a1c2-d166-4a36-b32f-beec95c93bd5"},"vehicle_type_id":"4","last_reported":1733300011,"current_range_meters":14400,"station_id":"","pricing_plan_id":"cebpf4jnsgd1na2vs0mg"},{"bike_id":"329484e6-f355-44fa-bb5e-e513e0219fc4","system_id":"levelo_inurba_marseille","lat":43.29365,"lon":5.37859,"is_reserved":false,"is_disabled":false,"rental_uris":{"android":"levelo://app?vid=329484e6-f355-44fa-bb5e-e513e0219fc4","ios":"levelo://app?vid=329484e6-f355-44fa-bb5e-e513e0219fc4"},"vehicle_type_id":"4","last_reported":1733300011,"current_range_meters":38800,"station_id":"ce4bgjh2rcd13ifvqbf0","pricing_plan_id":"cebpf4jnsgd1na2vs0mg"},{"bike_id":"f60cd7eb-4c08-47cb-b7a6-71cc99eeeda7","system_id":"levelo_inurba_marseille","lat":43.25009,"lon":5.38901,"is_reserved":false,"is_disabled":true,"rental_uris":{"android":"levelo://app?vid=f60cd7eb-4c08-47cb-b7a6-71cc99eeeda7","ios":"levelo://app?vid=f60cd7eb-4c08-47cb-b7a6-71cc99eeeda7"},"vehicle_type_id":"4","last_reported":1733300011,"current_range_meters":0,"station_id":"ce4bhgp2rcd13ifvqfd0","pricing_plan_id":"cebpf4jnsgd1na2vs0mg"},{"bike_id":"8830c08f-c268-499b-b7a5-e0504b24aab5","system_id":"levelo_inurba_marseille","lat":43.3247,"lon":5.36577,"is_reserved":false,"is_disabled":false,"rental_uris":{"android":"levelo://app?vid=8830c08f-c268-499b-b7a5-e0504b24aab5","ios":"levelo://app?vid=8830c08f-c268-499b-b7a5-e0504b24aab5"},"vehicle_type_id":"4","last_reported":1733300011,"current_range_meters":25600,"station_id":"ce4bhs12rcd13ifvqhvg","pricing_plan_id":"cebpf4jnsgd1na2vs0mg"},{"bike_id":"4d423fd5-9ac6-4dc1-a151-fec8cb0ea8c7","system_id":"levelo_inurba_marseille","lat":43.27496,"lon":5.42451,"is_reserved":false,"is_disabled":false,"rental_uris":{"android":"levelo://app?vid=4d423fd5-9ac6-4dc1-a151-fec8cb0ea8c7","ios":"levelo://app?vid=4d423fd5-9ac6-4dc1-a151-fec8cb0ea8c7"},"vehicle_type_id":"4","last_reported":1733300011,"current_range_meters":32000,"station_id":"ce4bhn92rcd13ifvqgrg","pricing_plan_id":"cebpf4jnsgd1na2vs0mg"},{"bike_id":"24600995-f56a-4983-b79c-f1ce0133ba43","system_id":"levelo_inurba_marseille","lat":43.30911,"lon":5.36848,"is_reserved":false,"is_disabled":false,"rental_uris":{"android":"levelo://app?vid=24600995-f56a-4983-b79c-f1ce0133ba43","ios":"levelo://app?vid=24600995-f56a-4983-b79c-f1ce0133ba43"},"vehicle_type_id":"4","last_reported":1733300011,"current_range_meters":38800,"station_id":"ce4bgn92rcd13ifvqbvg","pricing_plan_id":"cebpf4jnsgd1na2vs0mg"},{"bike_id":"b567921b-0157-4ff8-94b9-e4342091c416","system_id":"levelo_inurba_marseille","lat":43.31489,"lon":5.37301,"is_reserved":false,"is_disabled":false,"rental_uris":{"android":"levelo://app?vid=b567921b-0157-4ff8-94b9-e4342091c416","ios":"levelo://app?vid=b567921b-0157-4ff8-94b9-e4342091c416"},"vehicle_type_id":"4","last_reported":1733300011,"current_range_meters":38800,"station_id":"ce4bgt12rcd13ifvqcd0","pricing_plan_id":"cebpf4jnsgd1na2vs0mg"},{"bike_id":"3fb27205-ffae-4703-a4d9-10faf598676b","system_id":"levelo_inurba_marseille","lat":43.33778,"lon":5.37423,"is_reserved":false,"is_disabled":false,"rental_uris":{"android":"levelo://app?vid=3fb27205-ffae-4703-a4d9-10faf598676b","ios":"levelo://app?vid=3fb27205-ffae-4703-a4d9-10faf598676b"},"vehicle_type_id":"4","last_reported":1733300011,"current_range_meters":27600,"station_id":"","pricing_plan_id":"cebpf4jnsgd1na2vs0mg"},{"bike_id":"36daa4a8-f8f6-4ca2-9292-42cf2cc257a6","system_id":"levelo_inurba_marseille","lat":43.29793,"lon":5.38108,"is_reserved":false,"is_disabled":false,"rental_uris":{"android":"levelo://app?vid=36daa4a8-f8f6-4ca2-9292-42cf2cc257a6","ios":"levelo://app?vid=36daa4a8-f8f6-4ca2-9292-42cf2cc257a6"},"vehicle_type_id":"4","last_reported":1733300011,"current_range_meters":16800,"station_id":"ce4bgip2rcd13ifvqbb0","pricing_plan_id":"cebpf4jnsgd1na2vs0mg"},{"bike_id":"1937522b-5995-45fa-a92c-7577f9fd37f8","system_id":"levelo_inurba_marseille","lat":43.3083,"lon":5.39671,"is_reserved":false,"is_disabled":false,"rental_uris":{"android":"levelo://app?vid=1937522b-5995-45fa-a92c-7577f9fd37f8","ios":"levelo://app?vid=1937522b-5995-45fa-a92c-7577f9fd37f8"},"vehicle_type_id":"4","last_reported":1733300011,"current_range_meters":37600,"station_id":"ce4bgvp2rcd13ifvqcu0","pricing_plan_id":"cebpf4jnsgd1na2vs0mg"},{"bike_id":"8a321f84-b872-4aeb-a9d6-291629ad5638","system_id":"levelo_inurba_marseille","lat":43.30417,"lon":5.41279,"is_reserved":false,"is_disabled":false,"rental_uris":{"android":"levelo://app?vid=8a321f84-b872-4aeb-a9d6-291629ad5638","ios":"levelo://app?vid=8a321f84-b872-4aeb-a9d6-291629ad5638"},"vehicle_type_id":"4","last_reported":1733300011,"current_range_meters":14000,"station_id":"ce4bhop2rcd13ifvqh8g","pricing_plan_id":"cebpf4jnsgd1na2vs0mg"},{"bike_id":"57e0f190-7f16-4931-934d-384b1700b76f","system_id":"levelo_inurba_marseille","lat":43.33099,"lon":5.36231,"is_reserved":false,"is_disabled":true,"rental_uris":{"android":"levelo://app?vid=57e0f190-7f16-4931-934d-384b1700b76f","ios":"levelo://app?vid=57e0f190-7f16-4931-934d-384b1700b76f"},"vehicle_type_id":"4","last_reported":1733300011,"current_range_meters":0,"station_id":"","pricing_plan_id":"cebpf4jnsgd1na2vs0mg"},{"bike_id":"5e160b8e-5c83-4423-b051-bd2cf577003d","system_id":"levelo_inurba_marseille","lat":43.231933,"lon":5.355408,"is_reserved":false,"is_disabled":false,"rental_uris":{"android":"levelo://app?vid=5e160b8e-5c83-4423-b051-bd2cf577003d","ios":"levelo://app?vid=5e160b8e-5c83-4423-b051-bd2cf577003d"},"vehicle_type_id":"4","last_reported":1733300011,"current_range_meters":38800,"station_id":"ce4bhu92rcd13ifvqi70","pricing_plan_id":"cebpf4jnsgd1na2vs0mg"},{"bike_id":"fe22b0f1-4409-493b-92e7-efe79b2e56cf","system_id":"levelo_inurba_marseille","lat":43.27071,"lon":5.42279,"is_reserved":false,"is_disabled":false,"rental_uris":{"android":"levelo://app?vid=fe22b0f1-4409-493b-92e7-efe79b2e56cf","ios":"levelo://app?vid=fe22b0f1-4409-493b-92e7-efe79b2e56cf"},"vehicle_type_id":"4","last_reported":1733300011,"current_range_meters":38800,"station_id":"ce4bhk92rcd13ifvqgb0","pricing_plan_id":"cebpf4jnsgd1na2vs0mg"},{"bike_id":"613b4eff-bf6a-4086-ab2a-a6b2afca3a13","system_id":"levelo_inurba_marseille","lat":43.33024,"lon":5.39041,"is_reserved":false,"is_disabled":false,"rental_uris":{"android":"levelo://app?vid=613b4eff-bf6a-4086-ab2a-a6b2afca3a13","ios":"levelo://app?vid=613b4eff-bf6a-4086-ab2a-a6b2afca3a13"},"vehicle_type_id":"4","last_reported":1733300011,"current_range_meters":27600,"station_id":"ce4bhr92rcd13ifvqhrg","pricing_plan_id":"cebpf4jnsgd1na2vs0mg"},{"bike_id":"048859ad-73bc-4543-85c7-770c3e901a86","system_id":"levelo_inurba_marseille","lat":43.2695,"lon":5.38629,"is_reserved":false,"is_disabled":false,"rental_uris":{"android":"levelo://app?vid=048859ad-73bc-4543-85c7-770c3e901a86","ios":"levelo://app?vid=048859ad-73bc-4543-85c7-770c3e901a86"},"vehicle_type_id":"4","last_reported":1733300011,"current_range_meters":26800,"station_id":"ce4bhh92rcd13ifvqfh0","pricing_plan_id":"cebpf4jnsgd1na2vs0mg"},{"bike_id":"468da660-5299-4b84-99f7-2c673dbc8804","system_id":"levelo_inurba_marseille","lat":43.30159,"lon":5.38086,"is_reserved":false,"is_disabled":false,"rental_uris":{"android":"levelo://app?vid=468da660-5299-4b84-99f7-2c673dbc8804","ios":"levelo://app?vid=468da660-5299-4b84-99f7-2c673dbc8804"},"vehicle_type_id":"4","last_reported":1733300011,"current_range_meters":16400,"station_id":"ce4bgjp2rcd13ifvqbh0","pricing_plan_id":"cebpf4jnsgd1na2vs0mg"},{"bike_id":"6adf327d-9f32-4f7b-82b4-34627f90c9f4","system_id":"levelo_inurba_marseille","lat":43.25851,"lon":5.39901,"is_reserved":false,"is_disabled":false,"rental_uris":{"android":"levelo://app?vid=6adf327d-9f32-4f7b-82b4-34627f90c9f4","ios":"levelo://app?vid=6adf327d-9f32-4f7b-82b4-34627f90c9f4"},"vehicle_type_id":"4","last_reported":1733300011,"current_range_meters":16400,"station_id":"ce4bhl92rcd13ifvqghg","pricing_plan_id":"cebpf4jnsgd1na2vs0mg"},{"bike_id":"cdd378bc-ee3b-4503-a2af-847c76f0a215","system_id":"levelo_inurba_marseille","lat":43.29267,"lon":5.36841,"is_reserved":false,"is_disabled":false,"rental_uris":{"android":"levelo://app?vid=cdd378bc-ee3b-4503-a2af-847c76f0a215","ios":"levelo://app?vid=cdd378bc-ee3b-4503-a2af-847c76f0a215"},"vehicle_type_id":"4","last_reported":1733300011,"current_range_meters":19200,"station_id":"ce4bhbp2rcd13ifvqesg","pricing_plan_id":"cebpf4jnsgd1na2vs0mg"},{"bike_id":"04368930-3465-4096-bf22-9f6af234f55c","system_id":"levelo_inurba_marseille","lat":43.29026,"lon":5.39981,"is_reserved":false,"is_disabled":false,"rental_uris":{"android":"levelo://app?vid=04368930-3465-4096-bf22-9f6af234f55c","ios":"levelo://app?vid=04368930-3465-4096-bf22-9f6af234f55c"},"vehicle_type_id":"4","last_reported":1733300011,"current_range_meters":16400,"station_id":"ce4bh392rcd13ifvqdm0","pricing_plan_id":"cebpf4jnsgd1na2vs0mg"},{"bike_id":"ce6a429f-4825-4c63-b948-e0dfdaaab389","system_id":"levelo_inurba_marseille","lat":43.29211,"lon":5.36061,"is_reserved":false,"is_disabled":true,"rental_uris":{"android":"levelo://app?vid=ce6a429f-4825-4c63-b948-e0dfdaaab389","ios":"levelo://app?vid=ce6a429f-4825-4c63-b948-e0dfdaaab389"},"vehicle_type_id":"4","last_reported":1733300011,"current_range_meters":36800,"station_id":"ce4bhbh2rcd13ifvqeqg","pricing_plan_id":"cebpf4jnsgd1na2vs0mg"},{"bike_id":"a13e45b5-3d49-49bc-af49-fbd12d53a877","system_id":"levelo_inurba_marseille","lat":43.30542,"lon":5.36545,"is_reserved":false,"is_disabled":false,"rental_uris":{"android":"levelo://app?vid=a13e45b5-3d49-49bc-af49-fbd12d53a877","ios":"levelo://app?vid=a13e45b5-3d49-49bc-af49-fbd12d53a877"},"vehicle_type_id":"4","last_reported":1733300011,"current_range_meters":19200,"station_id":"ce4bgs12rcd13ifvqcag","pricing_plan_id":"cebpf4jnsgd1na2vs0mg"},{"bike_id":"f8bcc820-9a1c-492a-9f26-6a6b26934b17","system_id":"levelo_inurba_marseille","lat":43.28614,"lon":5.37062,"is_reserved":false,"is_disabled":true,"rental_uris":{"android":"levelo://app?vid=f8bcc820-9a1c-492a-9f26-6a6b26934b17","ios":"levelo://app?vid=f8bcc820-9a1c-492a-9f26-6a6b26934b17"},"vehicle_type_id":"4","last_reported":1733300011,"current_range_meters":38800,"station_id":"ce4bht12rcd13ifvqi60","pricing_plan_id":"cebpf4jnsgd1na2vs0mg"},{"bike_id":"ea92252a-106c-4b55-8e82-4ea2b15763da","system_id":"levelo_inurba_marseille","lat":43.24995,"lon":5.38931,"is_reserved":false,"is_disabled":false,"rental_uris":{"android":"levelo://app?vid=ea92252a-106c-4b55-8e82-4ea2b15763da","ios":"levelo://app?vid=ea92252a-106c-4b55-8e82-4ea2b15763da"},"vehicle_type_id":"4","last_reported":1733300011,"current_range_meters":37600,"station_id":"ce4bhgp2rcd13ifvqfd0","pricing_plan_id":"cebpf4jnsgd1na2vs0mg"},{"bike_id":"c766ed0b-c6fe-43c0-9d75-b319f10058e2","system_id":"levelo_inurba_marseille","lat":43.30426,"lon":5.38883,"is_reserved":false,"is_disabled":false,"rental_uris":{"android":"levelo://app?vid=c766ed0b-c6fe-43c0-9d75-b319f10058e2","ios":"levelo://app?vid=c766ed0b-c6fe-43c0-9d75-b319f10058e2"},"vehicle_type_id":"4","last_reported":1733300011,"current_range_meters":24800,"station_id":"ce4bgk12rcd13ifvqbi0","pricing_plan_id":"cebpf4jnsgd1na2vs0mg"},{"bike_id":"f13ccf34-34de-4eba-9c2e-108df28d336e","system_id":"levelo_inurba_marseille","lat":43.30884,"lon":5.37195,"is_reserved":false,"is_disabled":false,"rental_uris":{"android":"levelo://app?vid=f13ccf34-34de-4eba-9c2e-108df28d336e","ios":"levelo://app?vid=f13ccf34-34de-4eba-9c2e-108df28d336e"},"vehicle_type_id":"4","last_reported":1733300011,"current_range_meters":27600,"station_id":"ce4bguh2rcd13ifvqckg","pricing_plan_id":"cebpf4jnsgd1na2vs0mg"},{"bike_id":"3a9149f3-357c-4d0a-859b-18382ef024a5","system_id":"levelo_inurba_marseille","lat":43.32112,"lon":5.36768,"is_reserved":false,"is_disabled":false,"rental_uris":{"android":"levelo://app?vid=3a9149f3-357c-4d0a-859b-18382ef024a5","ios":"levelo://app?vid=3a9149f3-357c-4d0a-859b-18382ef024a5"},"vehicle_type_id":"4","last_reported":1733300011,"current_range_meters":28400,"station_id":"ce4bhrh2rcd13ifvqhug","pricing_plan_id":"cebpf4jnsgd1na2vs0mg"},{"bike_id":"cba4e405-5f98-4b9e-871f-cc4713f22644","system_id":"levelo_inurba_marseille","lat":43.27498,"lon":5.424693,"is_reserved":false,"is_disabled":false,"rental_uris":{"android":"levelo://app?vid=cba4e405-5f98-4b9e-871f-cc4713f22644","ios":"levelo://app?vid=cba4e405-5f98-4b9e-871f-cc4713f22644"},"vehicle_type_id":"4","last_reported":1733300011,"current_range_meters":24000,"station_id":"ce4bhn92rcd13ifvqgrg","pricing_plan_id":"cebpf4jnsgd1na2vs0mg"},{"bike_id":"a0bf9c3c-c2fb-4686-a84f-97e8d1a81faf","system_id":"levelo_inurba_marseille","lat":43.2707,"lon":5.40779,"is_reserved":false,"is_disabled":false,"rental_uris":{"android":"levelo://app?vid=a0bf9c3c-c2fb-4686-a84f-97e8d1a81faf","ios":"levelo://app?vid=a0bf9c3c-c2fb-4686-a84f-97e8d1a81faf"},"vehicle_type_id":"4","last_reported":1733300011,"current_range_meters":35200,"station_id":"","pricing_plan_id":"cebpf4jnsgd1na2vs0mg"},{"bike_id":"325e222a-420f-430a-a4bf-9365f0b714ab","system_id":"levelo_inurba_marseille","lat":43.27938,"lon":5.4104,"is_reserved":false,"is_disabled":true,"rental_uris":{"android":"levelo://app?vid=325e222a-420f-430a-a4bf-9365f0b714ab","ios":"levelo://app?vid=325e222a-420f-430a-a4bf-9365f0b714ab"},"vehicle_type_id":"4","last_reported":1733300011,"current_range_meters":36800,"station_id":"ce4bhnp2rcd13ifvqh0g","pricing_plan_id":"cebpf4jnsgd1na2vs0mg"},{"bike_id":"4b1425b3-d14e-4b37-978d-05ce07410545","system_id":"levelo_inurba_marseille","lat":43.3377,"lon":5.3744,"is_reserved":false,"is_disabled":false,"rental_uris":{"android":"levelo://app?vid=4b1425b3-d14e-4b37-978d-05ce07410545","ios":"levelo://app?vid=4b1425b3-d14e-4b37-978d-05ce07410545"},"vehicle_type_id":"4","last_reported":1733300011,"current_range_meters":28400,"station_id":"","pricing_plan_id":"cebpf4jnsgd1na2vs0mg"},{"bike_id":"8ed65e6c-4bd7-425c-b3b6-6b20614b3f1a","system_id":"levelo_inurba_marseille","lat":43.32477,"lon":5.36561,"is_reserved":false,"is_disabled":false,"rental_uris":{"android":"levelo://app?vid=8ed65e6c-4bd7-425c-b3b6-6b20614b3f1a","ios":"levelo://app?vid=8ed65e6c-4bd7-425c-b3b6-6b20614b3f1a"},"vehicle_type_id":"4","last_reported":1733300011,"current_range_meters":38000,"station_id":"ce4bhs12rcd13ifvqhvg","pricing_plan_id":"cebpf4jnsgd1na2vs0mg"},{"bike_id":"ff0047d5-e6f5-48ed-904c-186c27777200","system_id":"levelo_inurba_marseille","lat":43.3205,"lon":5.4155,"is_reserved":false,"is_disabled":false,"rental_uris":{"android":"levelo://app?vid=ff0047d5-e6f5-48ed-904c-186c27777200","ios":"levelo://app?vid=ff0047d5-e6f5-48ed-904c-186c27777200"},"vehicle_type_id":"4","last_reported":1733300011,"current_range_meters":30800,"station_id":"ce4bhq92rcd13ifvqhkg","pricing_plan_id":"cebpf4jnsgd1na2vs0mg"},{"bike_id":"da6a7a1d-e653-4950-af8c-8137b06f7d40","system_id":"levelo_inurba_marseille","lat":43.3004,"lon":5.37551,"is_reserved":false,"is_disabled":true,"rental_uris":{"android":"levelo://app?vid=da6a7a1d-e653-4950-af8c-8137b06f7d40","ios":"levelo://app?vid=da6a7a1d-e653-4950-af8c-8137b06f7d40"},"vehicle_type_id":"4","last_reported":1733300011,"current_range_meters":0,"station_id":"","pricing_plan_id":"cebpf4jnsgd1na2vs0mg"},{"bike_id":"fd105c82-4171-4291-9f54-b4a492c8122c","system_id":"levelo_inurba_marseille","lat":43.25937,"lon":5.409,"is_reserved":false,"is_disabled":false,"rental_uris":{"android":"levelo://app?vid=fd105c82-4171-4291-9f54-b4a492c8122c","ios":"levelo://app?vid=fd105c82-4171-4291-9f54-b4a492c8122c"},"vehicle_type_id":"4","last_reported":1733300011,"current_range_meters":23200,"station_id":"ce4bhm92rcd13ifvqglg","pricing_plan_id":"cebpf4jnsgd1na2vs0mg"},{"bike_id":"7ab26df3-581f-4927-b8df-f74f48acb7cd","system_id":"levelo_inurba_marseille","lat":43.2845,"lon":5.39195,"is_reserved":false,"is_disabled":true,"rental_uris":{"android":"levelo://app?vid=7ab26df3-581f-4927-b8df-f74f48acb7cd","ios":"levelo://app?vid=7ab26df3-581f-4927-b8df-f74f48acb7cd"},