{"last_updated":1744428234,"ttl":60,"version":"2.2","data":{"bikes":[{"bike_id":"404728d8-eb66-4899-bcf6-9ae57764add1","system_id":"levelo_inurba_marseille","lat":43.29931,"lon":5.36536,"is_reserved":false,"is_disabled":false,"rental_uris":{"android":"levelo://app?vid=404728d8-eb66-4899-bcf6-9ae57764add1","ios":"levelo://app?vid=404728d8-eb66-4899-bcf6-9ae57764add1"},"vehicle_type_id":"4","last_reported":1744428234,"current_range_meters":2800,"station_id":"ce4bgm92rcd13ifvqbr0","pricing_plan_id":"cebpf4jnsgd1na2vs0mg"},{"bike_id":"3125eb05-cd4c-49a6-8fd5-04f9c651db02","system_id":"levelo_inurba_marseille","lat":43.294308,"lon":5.441933,"is_reserved":false,"is_disabled":false,"rental_uris":{"android":"levelo://app?vid=3125eb05-cd4c-49a6-8fd5-04f9c651db02","ios":"levelo://app?vid=3125eb05-cd4c-49a6-8fd5-04f9c651db02"},"vehicle_type_id":"4","last_reported":1744428234,"current_range_meters":2800,"station_id":"","pricing_plan_id":"cebpf4jnsgd1na2vs0mg"},{"bike_id":"764a1b5b-f98f-4963-9dbb-7ff0f3e1ef9d","system_id":"levelo_inurba_marseille","lat":43.2827,"lon":5.35064,"is_reserved":false,"is_disabled":false,"rental_uris":{"android":"levelo://app?vid=764a1b5b-f98f-4963-9dbb-7ff0f3e1ef9d","ios":"levelo://app?vid=764a1b5b-f98f-4963-9dbb-7ff0f3e1ef9d"},"vehicle_type_id":"4","last_reported":1744428234,"current_range_meters":2800,"station_id":"ce4bhbp2rcd13ifvqerg","pricing_plan_id":"cebpf4jnsgd1na2vs0mg"},{"bike_id":"f9f2708a-aea0-4b14-b139-517d73d7bcaa","system_id":"levelo_inurba_marseille","lat":43.29267,"lon":5.36844,"is_reserved":false,"is_disabled":false,"rental_uris":{"android":"levelo://app?vid=f9f2708a-aea0-4b14-b139-517d73d7bcaa","ios":"levelo://app?vid=f9f2708a-aea0-4b14-b139-517d73d7bcaa"},"vehicle_type_id":"4","last_reported":1744428234,"current_range_meters":3200,"station_id":"ce4bhbp2rcd13ifvqesg","pricing_plan_id":"cebpf4jnsgd1na2vs0mg"},{"bike_id":"d9f03e2f-e300-4ff1-8edd-a1d25e99979a","system_id":"levelo_inurba_marseille","lat":43.313572,"lon":5.38496,"is_reserved":false,"is_disabled":true,"rental_uris":{"android":"levelo://app?vid=d9f03e2f-e300-4ff1-8edd-a1d25e99979a","ios":"levelo://app?vid=d9f03e2f-e300-4ff1-8edd-a1d25e99979a"},"vehicle_type_id":"4","last_reported":1744428234,"current_range_meters":3200,"station_id":"ce4bgt92rcd13ifvqcf0","pricing_plan_id":"cebpf4jnsgd1na2vs0mg"},{"bike_id":"e20f9bd5-021a-4225-b718-18a927346821","system_id":"levelo_inurba_marseille","lat":43.3256,"lon":5.36164,"is_reserved":false,"is_disabled":false,"rental_uris":{"android":"levelo://app?vid=e20f9bd5-021a-4225-b718-18a927346821","ios":"levelo://app?vid=e20f9bd5-021a-4225-b718-18a927346821"},"vehicle_type_id":"4","last_reported":1744428234,"current_range_meters":3600,"station_id":"","pricing_plan_id":"cebpf4jnsgd1na2vs0mg"},{"bike_id":"56646f68-a96a-448a-a880-c914b4c75030","system_id":"levelo_inurba_marseille","lat":43.31272,"lon":5.37519,"is_reserved":false,"is_disabled":false,"rental_uris":{"android":"levelo://app?vid=56646f68-a96a-448a-a880-c914b4c75030","ios":"levelo://app?vid=56646f68-a96a-448a-a880-c914b4c75030"},"vehicle_type_id":"4","last_reported":1744428234,"current_range_meters":3600,"station_id":"","pricing_plan_id":"cebpf4jnsgd1na2vs0mg"},{"bike_id":"1f1931dc-ca45-43df-bb99-8ca2d278bd56","system_id":"levelo_inurba_marseille","lat":43.24192,"lon":5.36382,"is_reserved":false,"is_disabled":false,"rental_uris":{"android":"levelo://app?vid=1f1931dc-ca45-43df-bb99-8ca2d278bd56","ios":"levelo://app?vid=1f1931dc-ca45-43df-bb99-8ca2d278bd56"},"vehicle_type_id":"4","last_reported":1744428234,"current_range_meters":4000,"station_id":"cpo36qri1sfpv3e86is0","pricing_plan_id":"cebpf4jnsgd1na2vs0mg"},{"bike_id":"aaf0bea2-a073-4f6c-a7b6-3956f84fd9d6","system_id":"levelo_inurba_marseille","lat":43.30164,"lon":5.36763,"is_reserved":false,"is_disabled":false,"rental_uris":{"android":"levelo://app?vid=aaf0bea2-a073-4f6c-a7b6-3956f84fd9d6","ios":"levelo://app?vid=aaf0bea2-a073-4f6c-a7b6-3956f84fd9d6"},"vehicle_type_id":"4","last_reported":1744428234,"current_range_meters":4000,"station_id":"","pricing_plan_id":"cebpf4jnsgd1na2vs0mg"},{"bike_id":"81eede7f-1481-4c08-a548-29f2e38fcd7f","system_id":"levelo_inurba_marseille","lat":43.29273,"lon":5.40122,"is_reserved":false,"is_disabled":false,"rental_uris":{"android":"levelo://app?vid=81eede7f-1481-4c08-a548-29f2e38fcd7f","ios":"levelo://app?vid=81eede7f-1481-4c08-a548-29f2e38fcd7f"},"vehicle_type_id":"4","last_reported":1744428234,"current_range_meters":4000,"station_id":"ce4bh312rcd13ifvqdk0","pricing_plan_id":"cebpf4jnsgd1na2vs0mg"},{"bike_id":"f1d79617-14c3-478a-85a7-a7ce3e31c092","system_id":"levelo_inurba_marseille","lat":43.31672,"lon":5.40473,"is_reserved":false,"is_disabled":false,"rental_uris":{"android":"levelo://app?vid=f1d79617-14c3-478a-85a7-a7ce3e31c092","ios":"levelo://app?vid=f1d79617-14c3-478a-85a7-a7ce3e31c092"},"vehicle_type_id":"4","last_reported":1744428234,"current_range_meters":4000,"station_id":"ce4bh012rcd13ifvqd00","pricing_plan_id":"cebpf4jnsgd1na2vs0mg"},{"bike_id":"ee730426-99d0-4463-9e31-13ee571eb3b3","system_id":"levelo_inurba_marseille","lat":43.29187,"lon":5.39331,"is_reserved":false,"is_disabled":false,"rental_uris":{"android":"levelo://app?vid=ee730426-99d0-4463-9e31-13ee571eb3b3","ios":"levelo://app?vid=ee730426-99d0-4463-9e31-13ee571eb3b3"},"vehicle_type_id":"4","last_reported":1744428234,"current_range_meters":4400,"station_id":"ce4bh192rcd13ifvqdd0","pricing_plan_id":"cebpf4jnsgd1na2vs0mg"},{"bike_id":"4ff1679e-bc8e-4761-91df-0343ca65d83d","system_id":"levelo_inurba_marseille","lat":43.24815,"lon":5.37476,"is_reserved":false,"is_disabled":false,"rental_uris":{"android":"levelo://app?vid=4ff1679e-bc8e-4761-91df-0343ca65d83d","ios":"levelo://app?vid=4ff1679e-bc8e-4761-91df-0343ca65d83d"},"vehicle_type_id":"4","last_reported":1744428234,"current_range_meters":4400,"station_id":"ce4bhgh2rcd13ifvqfb0","pricing_plan_id":"cebpf4jnsgd1na2vs0mg"},{"bike_id":"31d3bc17-4514-4141-83aa-99dc3d8ed99b","system_id":"levelo_inurba_marseille","lat":43.30769,"lon":5.37651,"is_reserved":false,"is_disabled":false,"rental_uris":{"android":"levelo://app?vid=31d3bc17-4514-4141-83aa-99dc3d8ed99b","ios":"levelo://app?vid=31d3bc17-4514-4141-83aa-99dc3d8ed99b"},"vehicle_type_id":"4","last_reported":1744428234,"current_range_meters":4000,"station_id":"ce4bgv92rcd13ifvqcq0","pricing_plan_id":"cebpf4jnsgd1na2vs0mg"},{"bike_id":"460b2ebc-000e-4ea6-86da-9cfcf42a52fd","system_id":"levelo_inurba_marseille","lat":43.2465,"lon":5.38147,"is_reserved":false,"is_disabled":false,"rental_uris":{"android":"levelo://app?vid=460b2ebc-000e-4ea6-86da-9cfcf42a52fd","ios":"levelo://app?vid=460b2ebc-000e-4ea6-86da-9cfcf42a52fd"},"vehicle_type_id":"4","last_reported":1744428234,"current_range_meters":4400,"station_id":"ce4bhih2rcd13ifvqfr0","pricing_plan_id":"cebpf4jnsgd1na2vs0mg"},{"bike_id":"746882f3-3ca4-4d59-b993-6b1f5c3920bf","system_id":"levelo_inurba_marseille","lat":43.292565,"lon":5.409066,"is_reserved":false,"is_disabled":true,"rental_uris":{"android":"levelo://app?vid=746882f3-3ca4-4d59-b993-6b1f5c3920bf","ios":"levelo://app?vid=746882f3-3ca4-4d59-b993-6b1f5c3920bf"},"vehicle_type_id":"4","last_reported":1744428234,"current_range_meters":4400,"station_id":"ce4bh192rcd13ifvqdc0","pricing_plan_id":"cebpf4jnsgd1na2vs0mg"},{"bike_id":"568c7a29-b45c-4df1-949d-3c375a5b300e","system_id":"levelo_inurba_marseille","lat":43.309152,"lon":5.401535,"is_reserved":false,"is_disabled":false,"rental_uris":{"android":"levelo://app?vid=568c7a29-b45c-4df1-949d-3c375a5b300e","ios":"levelo://app?vid=568c7a29-b45c-4df1-949d-3c375a5b300e"},"vehicle_type_id":"4","last_reported":1744428234,"current_range_meters":4800,"station_id":"ce4bgvp2rcd13ifvqct0","pricing_plan_id":"cebpf4jnsgd1na2vs0mg"},{"bike_id":"9b124832-5aac-48fc-ab26-489a32057271","system_id":"levelo_inurba_marseille","lat":43.2547,"lon":5.37651,"is_reserved":false,"is_disabled":true,"rental_uris":{"android":"levelo://app?vid=9b124832-5aac-48fc-ab26-489a32057271","ios":"levelo://app?vid=9b124832-5aac-48fc-ab26-489a32057271"},"vehicle_type_id":"4","last_reported":1744428234,"current_range_meters":4800,"station_id":"ce4bhh12rcd13ifvqff0","pricing_plan_id":"cebpf4jnsgd1na2vs0mg"},{"bike_id":"e99f5290-1466-47b7-987b-c1ba64057cd2","system_id":"levelo_inurba_marseille","lat":43.24679,"lon":5.41205,"is_reserved":false,"is_disabled":false,"rental_uris":{"android":"levelo://app?vid=e99f5290-1466-47b7-987b-c1ba64057cd2","ios":"levelo://app?vid=e99f5290-1466-47b7-987b-c1ba64057cd2"},"vehicle_type_id":"4","last_reported":1744428234,"current_range_meters":4800,"station_id":"","pricing_plan_id":"cebpf4jnsgd1na2vs0mg"},{"bike_id":"0bf2e17b-de76-43af-a911-86674f1ad492","system_id":"levelo_inurba_marseille","lat":43.29785,"lon":5.39347,"is_reserved":false,"is_disabled":false,"rental_uris":{"android":"levelo://app?vid=0bf2e17b-de76-43af-a911-86674f1ad492","ios":"levelo://app?vid=0bf2e17b-de76-43af-a911-86674f1ad492"},"vehicle_type_id":"4","last_reported":1744428234,"current_range_meters":5600,"station_id":"chh1huq6cuj3fo74tm60","pricing_plan_id":"cebpf4jnsgd1na2vs0mg"},{"bike_id":"98c1cc8d-7484-4d27-b4cd-5dce5dd5d9db","system_id":"levelo_inurba_marseille","lat":43.288354,"lon":5.393258,"is_reserved":false,"is_disabled":false,"rental_uris":{"android":"levelo://app?vid=98c1cc8d-7484-4d27-b4cd-5dce5dd5d9db","ios":"levelo://app?vid=98c1cc8d-7484-4d27-b4cd-5dce5dd5d9db"},"vehicle_type_id":"4","last_reported":1744428234,"current_range_meters":5600,"station_id":"ce4bh2p2rcd13ifvqdi0","pricing_plan_id":"cebpf4jnsgd1na2vs0mg"},{"bike_id":"a7b22e2e-0c80-4693-ad23-d6caf4917341","system_id":"levelo_inurba_marseille","lat":43.308628,"lon":5.373113,"is_reserved":false,"is_disabled":false,"rental_uris":{"android":"levelo://app?vid=a7b22e2e-0c80-4693-ad23-d6caf4917341","ios":"levelo://app?vid=a7b22e2e-0c80-4693-ad23-d6caf4917341"},"vehicle_type_id":"4","last_reported":1744428234,"current_range_meters":5600,"station_id":"","pricing_plan_id":"cebpf4jnsgd1na2vs0mg"},{"bike_id":"b04f1536-b3a6-4ea1-8de9-10a4a27b0d36","system_id":"levelo_inurba_marseille","lat":43.30651,"lon":5.4007,"is_reserved":false,"is_disabled":false,"rental_uris":{"android":"levelo://app?vid=b04f1536-b3a6-4ea1-8de9-10a4a27b0d36","ios":"levelo://app?vid=b04f1536-b3a6-4ea1-8de9-10a4a27b0d36"},"vehicle_type_id":"4","last_reported":1744428234,"current_range_meters":5600,"station_id":"ce4bh112rcd13ifvqda0","pricing_plan_id":"cebpf4jnsgd1na2vs0mg"},{"bike_id":"7aa1b942-3547-43f1-a940-74aeddf8dbc6","system_id":"levelo_inurba_marseille","lat":43.29917,"lon":5.37474,"is_reserved":false,"is_disabled":false,"rental_uris":{"android":"levelo://app?vid=7aa1b942-3547-43f1-a940-74aeddf8dbc6","ios":"levelo://app?vid=7aa1b942-3547-43f1-a940-74aeddf8dbc6"},"vehicle_type_id":"4","last_reported":1744428234,"current_range_meters":5600,"station_id":"ce4bgjh2rcd13ifvqbg0","pricing_plan_id":"cebpf4jnsgd1na2vs0mg"},{"bike_id":"32726013-757e-4d24-9225-04536f20d299","system_id":"levelo_inurba_marseille","lat":43.261909,"lon":5.374549,"is_reserved":false,"is_disabled":true,"rental_uris":{"android":"levelo://app?vid=32726013-757e-4d24-9225-04536f20d299","ios":"levelo://app?vid=32726013-757e-4d24-9225-04536f20d299"},"vehicle_type_id":"4","last_reported":1744428234,"current_range_meters":6000,"station_id":"ce4bhgp2rcd13ifvqfc0","pricing_plan_id":"cebpf4jnsgd1na2vs0mg"},{"bike_id":"fec4ce55-a98a-408d-955a-7216ba9e0363","system_id":"levelo_inurba_marseille","lat":43.24667,"lon":5.38182,"is_reserved":false,"is_disabled":false,"rental_uris":{"android":"levelo://app?vid=fec4ce55-a98a-408d-955a-7216ba9e0363","ios":"levelo://app?vid=fec4ce55-a98a-408d-955a-7216ba9e0363"},"vehicle_type_id":"4","last_reported":1744428234,"current_range_meters":6000,"station_id":"ce4bhih2rcd13ifvqfr0","pricing_plan_id":"cebpf4jnsgd1na2vs0mg"},{"bike_id":"62c1f836-7b45-44f7-9721-a260943a8081","system_id":"levelo_inurba_marseille","lat":43.27495,"lon":5.42443,"is_reserved":false,"is_disabled":false,"rental_uris":{"android":"levelo://app?vid=62c1f836-7b45-44f7-9721-a260943a8081","ios":"levelo://app?vid=62c1f836-7b45-44f7-9721-a260943a8081"},"vehicle_type_id":"4","last_reported":1744428234,"current_range_meters":6000,"station_id":"ce4bhn92rcd13ifvqgrg","pricing_plan_id":"cebpf4jnsgd1na2vs0mg"},{"bike_id":"1cb22f0f-15b3-4c3d-ad85-eb2946bd7b12","system_id":"levelo_inurba_marseille","lat":43.31763,"lon":5.435522,"is_reserved":false,"is_disabled":false,"rental_uris":{"android":"levelo://app?vid=1cb22f0f-15b3-4c3d-ad85-eb2946bd7b12","ios":"levelo://app?vid=1cb22f0f-15b3-4c3d-ad85-eb2946bd7b12"},"vehicle_type_id":"4","last_reported":1744428234,"current_range_meters":6000,"station_id":"","pricing_plan_id":"cebpf4jnsgd1na2vs0mg"},{"bike_id":"a8827283-5cb2-4c69-8f92-cabeabffb47c","system_id":"levelo_inurba_marseille","lat":43.241593,"lon":5.36377,"is_reserved":false,"is_disabled":false,"rental_uris":{"android":"levelo://app?vid=a8827283-5cb2-4c69-8f92-cabeabffb47c","ios":"levelo://app?vid=a8827283-5cb2-4c69-8f92-cabeabffb47c"},"vehicle_type_id":"4","last_reported":1744428234,"current_range_meters":6000,"station_id":"cpo36qri1sfpv3e86is0","pricing_plan_id":"cebpf4jnsgd1na2vs0mg"},{"bike_id":"32ddafef-fcc6-4154-8111-dedb47965f4c","system_id":"levelo_inurba_marseille","lat":43.305378,"lon":5.384252,"is_reserved":false,"is_disabled":false,"rental_uris":{"android":"levelo://app?vid=32ddafef-fcc6-4154-8111-dedb47965f4c","ios":"levelo://app?vid=32ddafef-fcc6-4154-8111-dedb47965f4c"},"vehicle_type_id":"4","last_reported":1744428234,"current_range_meters":6000,"station_id":"ce4bhi12rcd13ifvqfo0","pricing_plan_id":"cebpf4jnsgd1na2vs0mg"},{"bike_id":"e34764a5-a7b4-4fab-b315-bb98cdfe6e30","system_id":"levelo_inurba_marseille","lat":43.2815,"lon":5.42662,"is_reserved":false,"is_disabled":false,"rental_uris":{"android":"levelo://app?vid=e34764a5-a7b4-4fab-b315-bb98cdfe6e30","ios":"levelo://app?vid=e34764a5-a7b4-4fab-b315-bb98cdfe6e30"},"vehicle_type_id":"4","last_reported":1744428234,"current_range_meters":6000,"station_id":"ce4bhnh2rcd13ifvqgug","pricing_plan_id":"cebpf4jnsgd1na2vs0mg"},{"bike_id":"36098a99-8123-4237-a988-267cc90ee95f","system_id":"levelo_inurba_marseille","lat":43.2978,"lon":5.37104,"is_reserved":false,"is_disabled":false,"rental_uris":{"android":"levelo://app?vid=36098a99-8123-4237-a988-267cc90ee95f","ios":"levelo://app?vid=36098a99-8123-4237-a988-267cc90ee95f"},"vehicle_type_id":"4","last_reported":1744428234,"current_range_meters":6000,"station_id":"ce4bgop2rcd13ifvqc1g","pricing_plan_id":"cebpf4jnsgd1na2vs0mg"},{"bike_id":"849d42d0-881e-4533-b0af-849b3f4abce7","system_id":"levelo_inurba_marseille","lat":43.28936,"lon":5.36641,"is_reserved":false,"is_disabled":false,"rental_uris":{"android":"levelo://app?vid=849d42d0-881e-4533-b0af-849b3f4abce7","ios":"levelo://app?vid=849d42d0-881e-4533-b0af-849b3f4abce7"},"vehicle_type_id":"4","last_reported":1744428234,"current_range_meters":6400,"station_id":"ce4bhap2rcd13ifvqek0","pricing_plan_id":"cebpf4jnsgd1na2vs0mg"},{"bike_id":"38682804-f3e9-4669-b2ec-4efeb899e65b","system_id":"levelo_inurba_marseille","lat":43.273744,"lon":5.36251,"is_reserved":false,"is_disabled":false,"rental_uris":{"android":"levelo://app?vid=38682804-f3e9-4669-b2ec-4efeb899e65b","ios":"levelo://app?vid=38682804-f3e9-4669-b2ec-4efeb899e65b"},"vehicle_type_id":"4","last_reported":1744428234,"current_range_meters":6400,"station_id":"ce4bhbh2rcd13ifvqeo0","pricing_plan_id":"cebpf4jnsgd1na2vs0mg"},{"bike_id":"02b7d167-579c-49ee-b5ab-7afb9bc2f0ef","system_id":"levelo_inurba_marseille","lat":43.28451,"lon":5.3589,"is_reserved":false,"is_disabled":false,"rental_uris":{"android":"levelo://app?vid=02b7d167-579c-49ee-b5ab-7afb9bc2f0ef","ios":"levelo://app?vid=02b7d167-579c-49ee-b5ab-7afb9bc2f0ef"},"vehicle_type_id":"4","last_reported":1744428234,"current_range_meters":6400,"station_id":"ce4bhah2rcd13ifvqei0","pricing_plan_id":"cebpf4jnsgd1na2vs0mg"},{"bike_id":"984bb2aa-d82a-4281-90f1-1529bbc61000","system_id":"levelo_inurba_marseille","lat":43.2989,"lon":5.39239,"is_reserved":false,"is_disabled":false,"rental_uris":{"android":"levelo://app?vid=984bb2aa-d82a-4281-90f1-1529bbc61000","ios":"levelo://app?vid=984bb2aa-d82a-4281-90f1-1529bbc61000"},"vehicle_type_id":"4","last_reported":1744428234,"current_range_meters":6400,"station_id":"","pricing_plan_id":"cebpf4jnsgd1na2vs0mg"},{"bike_id":"26623fb2-7216-4b3a-8662-22d09d94084a","system_id":"levelo_inurba_marseille","lat":43.24679,"lon":5.38179,"is_reserved":false,"is_disabled":false,"rental_uris":{"android":"levelo://app?vid=26623fb2-7216-4b3a-8662-22d09d94084a","ios":"levelo://app?vid=26623fb2-7216-4b3a-8662-22d09d94084a"},"vehicle_type_id":"4","last_reported":1744428234,"current_range_meters":6400,"station_id":"ce4bhih2rcd13ifvqfr0","pricing_plan_id":"cebpf4jnsgd1na2vs0mg"},{"bike_id":"980c52ac-350a-4202-99c9-d7eb1d2d05c4","system_id":"levelo_inurba_marseille","lat":43.29574,"lon":5.39974,"is_reserved":false,"is_disabled":false,"rental_uris":{"android":"levelo://app?vid=980c52ac-350a-4202-99c9-d7eb1d2d05c4","ios":"levelo://app?vid=980c52ac-350a-4202-99c9-d7eb1d2d05c4"},"vehicle_type_id":"4","last_reported":1744428234,"current_range_meters":6400,"station_id":"ce4bh312rcd13ifvqdj0","pricing_plan_id":"cebpf4jnsgd1na2vs0mg"},{"bike_id":"33b43785-b996-47e6-baf1-4278a7674185","system_id":"levelo_inurba_marseille","lat":43.30542,"lon":5.38433,"is_reserved":false,"is_disabled":false,"rental_uris":{"android":"levelo://app?vid=33b43785-b996-47e6-baf1-4278a7674185","ios":"levelo://app?vid=33b43785-b996-47e6-baf1-4278a7674185"},"vehicle_type_id":"4","last_reported":1744428234,"current_range_meters":6400,"station_id":"ce4bgg92rcd13ifvqb30","pricing_plan_id":"cebpf4jnsgd1na2vs0mg"},{"bike_id":"457be3cf-e1e1-4d11-8d7c-377dc0cb03e9","system_id":"levelo_inurba_marseille","lat":43.30933,"lon":5.36756,"is_reserved":false,"is_disabled":false,"rental_uris":{"android":"levelo://app?vid=457be3cf-e1e1-4d11-8d7c-377dc0cb03e9","ios":"levelo://app?vid=457be3cf-e1e1-4d11-8d7c-377dc0cb03e9"},"vehicle_type_id":"4","last_reported":1744428234,"current_range_meters":6400,"station_id":"","pricing_plan_id":"cebpf4jnsgd1na2vs0mg"},{"bike_id":"a9f344a9-b5c4-4c6f-adc4-6177f6c8159a","system_id":"levelo_inurba_marseille","lat":43.328152,"lon":5.397536,"is_reserved":false,"is_disabled":false,"rental_uris":{"android":"levelo://app?vid=a9f344a9-b5c4-4c6f-adc4-6177f6c8159a","ios":"levelo://app?vid=a9f344a9-b5c4-4c6f-adc4-6177f6c8159a"},"vehicle_type_id":"4","last_reported":1744428234,"current_range_meters":6400,"station_id":"","pricing_plan_id":"cebpf4jnsgd1na2vs0mg"},{"bike_id":"5fdd3298-d376-47aa-b5b3-d838ecbf8db4","system_id":"levelo_inurba_marseille","lat":43.279924,"lon":5.400202,"is_reserved":false,"is_disabled":false,"rental_uris":{"android":"levelo://app?vid=5fdd3298-d376-47aa-b5b3-d838ecbf8db4","ios":"levelo://app?vid=5fdd3298-d376-47aa-b5b3-d838ecbf8db4"},"vehicle_type_id":"4","last_reported":1744428234,"current_range_meters":6800,"station_id":"ce4bho92rcd13ifvqh4g","pricing_plan_id":"cebpf4jnsgd1na2vs0mg"},{"bike_id":"aea18a4a-5e0e-4ff3-bcbc-cbea88284f19","system_id":"levelo_inurba_marseille","lat":43.30443,"lon":5.38897,"is_reserved":false,"is_disabled":false,"rental_uris":{"android":"levelo://app?vid=aea18a4a-5e0e-4ff3-bcbc-cbea88284f19","ios":"levelo://app?vid=aea18a4a-5e0e-4ff3-bcbc-cbea88284f19"},"vehicle_type_id":"4","last_reported":1744428234,"current_range_meters":6800,"station_id":"ce4bgk12rcd13ifvqbi0","pricing_plan_id":"cebpf4jnsgd1na2vs0mg"},{"bike_id":"91c92475-0e2f-4f42-a504-803b7c9b81f9","system_id":"levelo_inurba_marseille","lat":43.30929,"lon":5.40152,"is_reserved":false,"is_disabled":false,"rental_uris":{"android":"levelo://app?vid=91c92475-0e2f-4f42-a504-803b7c9b81f9","ios":"levelo://app?vid=91c92475-0e2f-4f42-a504-803b7c9b81f9"},"vehicle_type_id":"4","last_reported":1744428234,"current_range_meters":6800,"station_id":"ce4bgvp2rcd13ifvqct0","pricing_plan_id":"cebpf4jnsgd1na2vs0mg"},{"bike_id":"2a7a7f79-beef-4115-bb1c-3454a3bc9321","system_id":"levelo_inurba_marseille","lat":43.24641,"lon":5.3892,"is_reserved":false,"is_disabled":false,"rental_uris":{"android":"levelo://app?vid=2a7a7f79-beef-4115-bb1c-3454a3bc9321","ios":"levelo://app?vid=2a7a7f79-beef-4115-bb1c-3454a3bc9321"},"vehicle_type_id":"4","last_reported":1744428234,"current_range_meters":6800,"station_id":"ce4bhg12rcd13ifvqf60","pricing_plan_id":"cebpf4jnsgd1na2vs0mg"},{"bike_id":"eab73918-3f7e-45cc-8c4f-4f1d5d485704","system_id":"levelo_inurba_marseille","lat":43.30472,"lon":5.37906,"is_reserved":false,"is_disabled":false,"rental_uris":{"android":"levelo://app?vid=eab73918-3f7e-45cc-8c4f-4f1d5d485704","ios":"levelo://app?vid=eab73918-3f7e-45cc-8c4f-4f1d5d485704"},"vehicle_type_id":"4","last_reported":1744428234,"current_range_meters":6800,"station_id":"ce4bgup2rcd13ifvqcn0","pricing_plan_id":"cebpf4jnsgd1na2vs0mg"},{"bike_id":"5e75cc24-2e47-4ffb-99fe-b5444ae6f840","system_id":"levelo_inurba_marseille","lat":43.29719,"lon":5.36592,"is_reserved":false,"is_disabled":false,"rental_uris":{"android":"levelo://app?vid=5e75cc24-2e47-4ffb-99fe-b5444ae6f840","ios":"levelo://app?vid=5e75cc24-2e47-4ffb-99fe-b5444ae6f840"},"vehicle_type_id":"4","last_reported":1744428234,"current_range_meters":6800,"station_id":"ce4bgn12rcd13ifvqbt0","pricing_plan_id":"cebpf4jnsgd1na2vs0mg"},{"bike_id":"bc076f99-16a6-4a07-9243-affbec6b121f","system_id":"levelo_inurba_marseille","lat":43.29913,"lon":5.38138,"is_reserved":false,"is_disabled":false,"rental_uris":{"android":"levelo://app?vid=bc076f99-16a6-4a07-9243-affbec6b121f","ios":"levelo://app?vid=bc076f99-16a6-4a07-9243-affbec6b121f"},"vehicle_type_id":"4","last_reported":1744428234,"current_range_meters":6800,"station_id":"ce4bgj12rcd13ifvqbc0","pricing_plan_id":"cebpf4jnsgd1na2vs0mg"},{"bike_id":"926fb0a7-820c-4f62-bd23-584e294815aa","system_id":"levelo_inurba_marseille","lat":43.24183,"lon":5.39728,"is_reserved":false,"is_disabled":false,"rental_uris":{"android":"levelo://app?vid=926fb0a7-820c-4f62-bd23-584e294815aa","ios":"levelo://app?vid=926fb0a7-820c-4f62-bd23-584e294815aa"},"vehicle_type_id":"4","last_reported":1744428234,"current_range_meters":6800,"station_id":"ce4bhn12rcd13ifvqgpg","pricing_plan_id":"cebpf4jnsgd1na2vs0mg"},{"bike_id":"93d12481-0a9d-4d08-84db-d36785c8d5bf","system_id":"levelo_inurba_marseille","lat":43.2902,"lon":5.38645,"is_reserved":false,"is_disabled":false,"rental_uris":{"android":"levelo://app?vid=93d12481-0a9d-4d08-84db-d36785c8d5bf","ios":"levelo://app?vid=93d12481-0a9d-4d08-84db-d36785c8d5bf"},"vehicle_type_id":"4","last_reported":1744428234,"current_range_meters":7200,"station_id":"ce4bh4p2rcd13ifvqe0g","pricing_plan_id":"cebpf4jnsgd1na2vs0mg"},{"bike_id":"48ce90a6-ad06-48b8-8a50-53394a4d9dc1","system_id":"levelo_inurba_marseille","lat":43.31488,"lon":5.37317,"is_reserved":false,"is_disabled":false,"rental_uris":{"android":"levelo://app?vid=48ce90a6-ad06-48b8-8a50-53394a4d9dc1","ios":"levelo://app?vid=48ce90a6-ad06-48b8-8a50-53394a4d9dc1"},"vehicle_type_id":"4","last_reported":1744428234,"current_range_meters":7200,"station_id":"ce4bgt12rcd13ifvqcd0","pricing_plan_id":"cebpf4jnsgd1na2vs0mg"},{"bike_id":"f973a48a-93d7-4351-ac20-4f62d6298af7","system_id":"levelo_inurba_marseille","lat":43.257244,"lon":5.411111,"is_reserved":false,"is_disabled":false,"rental_uris":{"android":"levelo://app?vid=f973a48a-93d7-4351-ac20-4f62d6298af7","ios":"levelo://app?vid=f973a48a-93d7-4351-ac20-4f62d6298af7"},"vehicle_type_id":"4","last_reported":1744428234,"current_range_meters":7200,"station_id":"ce4bhkp2rcd13ifvqgd0","pricing_plan_id":"cebpf4jnsgd1na2vs0mg"},{"bike_id":"a6dcfa75-306a-4b90-a8ff-900c590ff9ac","system_id":"levelo_inurba_marseille","lat":43.29556,"lon":5.39963,"is_reserved":false,"is_disabled":false,"rental_uris":{"android":"levelo://app?vid=a6dcfa75-306a-4b90-a8ff-900c590ff9ac","ios":"levelo://app?vid=a6dcfa75-306a-4b90-a8ff-900c590ff9ac"},"vehicle_type_id":"4","last_reported":1744428234,"current_range_meters":7200,"station_id":"ce4bh312rcd13ifvqdj0","pricing_plan_id":"cebpf4jnsgd1na2vs0mg"},{"bike_id":"ce1b1142-9327-4d65-9036-d543a43b1fdc","system_id":"levelo_inurba_marseille","lat":43.298007,"lon":5.403975,"is_reserved":false,"is_disabled":false,"rental_uris":{"android":"levelo://app?vid=ce1b1142-9327-4d65-9036-d543a43b1fdc","ios":"levelo://app?vid=ce1b1142-9327-4d65-9036-d543a43b1fdc"},"vehicle_type_id":"4","last_reported":1744428234,"current_range_meters":7200,"station_id":"ce4bh112rcd13ifvqd90","pricing_plan_id":"cebpf4jnsgd1na2vs0mg"},{"bike_id":"eab6cbfa-cb8e-47d7-b0d6-226ab7facec7","system_id":"levelo_inurba_marseille","lat":43.31718,"lon":5.42406,"is_reserved":false,"is_disabled":true,"rental_uris":{"android":"levelo://app?vid=eab6cbfa-cb8e-47d7-b0d6-226ab7facec7","ios":"levelo://app?vid=eab6cbfa-cb8e-47d7-b0d6-226ab7facec7"},"vehicle_type_id":"4","last_reported":1744428234,"current_range_meters":7200,"station_id":"ce4bhp92rcd13ifvqhbg","pricing_plan_id":"cebpf4jnsgd1na2vs0mg"},{"bike_id":"820eae00-4001-4b93-98cd-bfbd5fc6ebfe","system_id":"levelo_inurba_marseille","lat":43.26811,"lon":5.40255,"is_reserved":false,"is_disabled":false,"rental_uris":{"android":"levelo://app?vid=820eae00-4001-4b93-98cd-bfbd5fc6ebfe","ios":"levelo://app?vid=820eae00-4001-4b93-98cd-bfbd5fc6ebfe"},"vehicle_type_id":"4","last_reported":1744428234,"current_range_meters":7200,"station_id":"ce501612rcd8frsf0b60","pricing_plan_id":"cebpf4jnsgd1na2vs0mg"},{"bike_id":"3c79d7e0-9630-42ba-86c1-c8b7b373d6de","system_id":"levelo_inurba_marseille","lat":43.304202,"lon":5.412768,"is_reserved":false,"is_disabled":false,"rental_uris":{"android":"levelo://app?vid=3c79d7e0-9630-42ba-86c1-c8b7b373d6de","ios":"levelo://app?vid=3c79d7e0-9630-42ba-86c1-c8b7b373d6de"},"vehicle_type_id":"4","last_reported":1744428234,"current_range_meters":7200,"station_id":"ce4bhop2rcd13ifvqh8g","pricing_plan_id":"cebpf4jnsgd1na2vs0mg"},{"bike_id":"dee958f8-d40c-446d-a76e-03c7e8652123","system_id":"levelo_inurba_marseille","lat":43.253349,"lon":5.380594,"is_reserved":false,"is_disabled":false,"rental_uris":{"android":"levelo://app?vid=dee958f8-d40c-446d-a76e-03c7e8652123","ios":"levelo://app?vid=dee958f8-d40c-446d-a76e-03c7e8652123"},"vehicle_type_id":"4","last_reported":1744428234,"current_range_meters":8000,"station_id":"ce4bhbp2rcd13ifvqerg","pricing_plan_id":"cebpf4jnsgd1na2vs0mg"},{"bike_id":"d5ab3315-1714-49d5-bb99-db59dd3ff154","system_id":"levelo_inurba_marseille","lat":43.29702,"lon":5.377,"is_reserved":false,"is_disabled":false,"rental_uris":{"android":"levelo://app?vid=d5ab3315-1714-49d5-bb99-db59dd3ff154","ios":"levelo://app?vid=d5ab3315-1714-49d5-bb99-db59dd3ff154"},"vehicle_type_id":"4","last_reported":1744428234,"current_range_meters":7200,"station_id":"ce4bgkh2rcd13ifvqbl0","pricing_plan_id":"cebpf4jnsgd1na2vs0mg"},{"bike_id":"d334824f-7d21-463a-98af-4ab8281df10e","system_id":"levelo_inurba_marseille","lat":43.241639,"lon":5.363866,"is_reserved":false,"is_disabled":false,"rental_uris":{"android":"levelo://app?vid=d334824f-7d21-463a-98af-4ab8281df10e","ios":"levelo://app?vid=d334824f-7d21-463a-98af-4ab8281df10e"},"vehicle_type_id":"4","last_reported":1744428234,"current_range_meters":8000,"station_id":"cpo36qri1sfpv3e86is0","pricing_plan_id":"cebpf4jnsgd1na2vs0mg"},{"bike_id":"f76d12dc-ebdf-46e3-89d0-897a377cfadf","system_id":"levelo_inurba_marseille","lat":43.29257,"lon":5.38434,"is_reserved":false,"is_disabled":true,"rental_uris":{"android":"levelo://app?vid=f76d12dc-ebdf-46e3-89d0-897a377cfadf","ios":"levelo://app?vid=f76d12dc-ebdf-46e3-89d0-897a377cfadf"},"vehicle_type_id":"4","last_reported":1744428234,"current_range_meters":8000,"station_id":"ce4bh692rcd13ifvqea0","pricing_plan_id":"cebpf4jnsgd1na2vs0mg"},{"bike_id":"2ceea313-94a6-4e29-8788-9736addbb856","system_id":"levelo_inurba_marseille","lat":43.28102,"lon":5.37846,"is_reserved":false,"is_disabled":false,"rental_uris":{"android":"levelo://app?vid=2ceea313-94a6-4e29-8788-9736addbb856","ios":"levelo://app?vid=2ceea313-94a6-4e29-8788-9736addbb856"},"vehicle_type_id":"4","last_reported":1744428234,"current_range_meters":8000,"station_id":"ce4bha12rcd13ifvqee0","pricing_plan_id":"cebpf4jnsgd1na2vs0mg"},{"bike_id":"91d776a8-7b89-43f2-a2fa-d15df04d9747","system_id":"levelo_inurba_marseille","lat":43.276349,"lon":5.426418,"is_reserved":false,"is_disabled":false,"rental_uris":{"android":"levelo://app?vid=91d776a8-7b89-43f2-a2fa-d15df04d9747","ios":"levelo://app?vid=91d776a8-7b89-43f2-a2fa-d15df04d9747"},"vehicle_type_id":"4","last_reported":1744428234,"current_range_meters":8000,"station_id":"","pricing_plan_id":"cebpf4jnsgd1na2vs0mg"},{"bike_id":"c7f38cf2-0908-4342-bf61-e0e4243de5cd","system_id":"levelo_inurba_marseille","lat":43.29524,"lon":5.38544,"is_reserved":false,"is_disabled":false,"rental_uris":{"android":"levelo://app?vid=c7f38cf2-0908-4342-bf61-e0e4243de5cd","ios":"levelo://app?vid=c7f38cf2-0908-4342-bf61-e0e4243de5cd"},"vehicle_type_id":"4","last_reported":1744428234,"current_range_meters":7200,"station_id":"ce4bgih2rcd13ifvqba0","pricing_plan_id":"cebpf4jnsgd1na2vs0mg"},{"bike_id":"36594bef-239d-45f7-b198-61f29a4770f7","system_id":"levelo_inurba_marseille","lat":43.28102,"lon":5.37858,"is_reserved":false,"is_disabled":false,"rental_uris":{"android":"levelo://app?vid=36594bef-239d-45f7-b198-61f29a4770f7","ios":"levelo://app?vid=36594bef-239d-45f7-b198-61f29a4770f7"},"vehicle_type_id":"4","last_reported":1744428234,"current_range_meters":8000,"station_id":"ce4bha12rcd13ifvqee0","pricing_plan_id":"cebpf4jnsgd1na2vs0mg"},{"bike_id":"eedc529e-73f3-4296-93e1-e8c324ec4e29","system_id":"levelo_inurba_marseille","lat":43.28435,"lon":5.39194,"is_reserved":false,"is_disabled":false,"rental_uris":{"android":"levelo://app?vid=eedc529e-73f3-4296-93e1-e8c324ec4e29","ios":"levelo://app?vid=eedc529e-73f3-4296-93e1-e8c324ec4e29"},"vehicle_type_id":"4","last_reported":1744428234,"current_range_meters":8000,"station_id":"ce4bhoh2rcd13ifvqh5g","pricing_plan_id":"cebpf4jnsgd1na2vs0mg"},{"bike_id":"59500660-8529-4266-bbfa-d5f7a7a7a6b0","system_id":"levelo_inurba_marseille","lat":43.2919,"lon":5.39331,"is_reserved":false,"is_disabled":false,"rental_uris":{"android":"levelo://app?vid=59500660-8529-4266-bbfa-d5f7a7a7a6b0","ios":"levelo://app?vid=59500660-8529-4266-bbfa-d5f7a7a7a6b0"},"vehicle_type_id":"4","last_reported":1744428234,"current_range_meters":8000,"station_id":"ce4bh192rcd13ifvqdd0","pricing_plan_id":"cebpf4jnsgd1na2vs0mg"},{"bike_id":"5edf9e28-c9aa-4bfb-9c44-95e81e9ff251","system_id":"levelo_inurba_marseille","lat":43.30785,"lon":5.37654,"is_reserved":false,"is_disabled":false,"rental_uris":{"android":"levelo://app?vid=5edf9e28-c9aa-4bfb-9c44-95e81e9ff251","ios":"levelo://app?vid=5edf9e28-c9aa-4bfb-9c44-95e81e9ff251"},"vehicle_type_id":"4","last_reported":1744428234,"current_range_meters":8000,"station_id":"ce4bgv92rcd13ifvqcq0","pricing_plan_id":"cebpf4jnsgd1na2vs0mg"},{"bike_id":"5a745208-2db7-4b93-b18e-ee599d2192b6","system_id":"levelo_inurba_marseille","lat":43.25706,"lon":5.41128,"is_reserved":false,"is_disabled":false,"rental_uris":{"android":"levelo://app?vid=5a745208-2db7-4b93-b18e-ee599d2192b6","ios":"levelo://app?vid=5a745208-2db7-4b93-b18e-ee599d2192b6"},"vehicle_type_id":"4","last_reported":1744428234,"current_range_meters":8000,"station_id":"ce4bhkp2rcd13ifvqgd0","pricing_plan_id":"cebpf4jnsgd1na2vs0mg"},{"bike_id":"1ea57ed5-c453-4030-800f-f7ccf97d8658","system_id":"levelo_inurba_marseille","lat":43.25665,"lon":5.41097,"is_reserved":false,"is_disabled":false,"rental_uris":{"android":"levelo://app?vid=1ea57ed5-c453-4030-800f-f7ccf97d8658","ios":"levelo://app?vid=1ea57ed5-c453-4030-800f-f7ccf97d8658"},"vehicle_type_id":"4","last_reported":1744428234,"current_range_meters":8400,"station_id":"ce4bhkp2rcd13ifvqgd0","pricing_plan_id":"cebpf4jnsgd1na2vs0mg"},{"bike_id":"3bbb74ad-d656-406a-b153-f2f275de884d","system_id":"levelo_inurba_marseille","lat":43.27561,"lon":5.38426,"is_reserved":false,"is_disabled":false,"rental_uris":{"android":"levelo://app?vid=3bbb74ad-d656-406a-b153-f2f275de884d","ios":"levelo://app?vid=3bbb74ad-d656-406a-b153-f2f275de884d"},"vehicle_type_id":"4","last_reported":1744428234,"current_range_meters":8400,"station_id":"ce4bhh92rcd13ifvqfi0","pricing_plan_id":"cebpf4jnsgd1na2vs0mg"},{"bike_id":"10d7317a-220c-4500-9539-bba6e5c8946b","system_id":"levelo_inurba_marseille","lat":43.304688,"lon":5.379075,"is_reserved":false,"is_disabled":false,"rental_uris":{"android":"levelo://app?vid=10d7317a-220c-4500-9539-bba6e5c8946b","ios":"levelo://app?vid=10d7317a-220c-4500-9539-bba6e5c8946b"},"vehicle_type_id":"4","last_reported":1744428234,"current_range_meters":8400,"station_id":"ce4bgup2rcd13ifvqcn0","pricing_plan_id":"cebpf4jnsgd1na2vs0mg"},{"bike_id":"7a6ccf65-2a8c-44ea-9b00-69370d6c9c96","system_id":"levelo_inurba_marseille","lat":43.31482,"lon":5.37302,"is_reserved":false,"is_disabled":false,"rental_uris":{"android":"levelo://app?vid=7a6ccf65-2a8c-44ea-9b00-69370d6c9c96","ios":"levelo://app?vid=7a6ccf65-2a8c-44ea-9b00-69370d6c9c96"},"vehicle_type_id":"4","last_reported":1744428234,"current_range_meters":8400,"station_id":"ce4bgt12rcd13ifvqcd0","pricing_plan_id":"cebpf4jnsgd1na2vs0mg"},{"bike_id":"eb113507-1b5d-4d7a-b91c-d596662895e6","system_id":"levelo_inurba_marseille","lat":43.2954,"lon":5.39397,"is_reserved":false,"is_disabled":false,"rental_uris":{"android":"levelo://app?vid=eb113507-1b5d-4d7a-b91c-d596662895e6","ios":"levelo://app?vid=eb113507-1b5d-4d7a-b91c-d596662895e6"},"vehicle_type_id":"4","last_reported":1744428234,"current_range_meters":8400,"station_id":"ce4bh292rcd13ifvqdf0","pricing_plan_id":"cebpf4jnsgd1na2vs0mg"},{"bike_id":"8b4c8d12-5212-410c-bdd4-63122234f668","system_id":"levelo_inurba_marseille","lat":43.22916,"lon":5.35404,"is_reserved":false,"is_disabled":false,"rental_uris":{"android":"levelo://app?vid=8b4c8d12-5212-410c-bdd4-63122234f668","ios":"levelo://app?vid=8b4c8d12-5212-410c-bdd4-63122234f668"},"vehicle_type_id":"4","last_reported":1744428234,"current_range_meters":8400,"station_id":"cpo3532slgdg3j2ikp40","pricing_plan_id":"cebpf4jnsgd1na2vs0mg"},{"bike_id":"a35ab97b-12d6-4b16-ba20-df34d85afcba","system_id":"levelo_inurba_marseille","lat":43.30882,"lon":5.37184,"is_reserved":false,"is_disabled":false,"rental_uris":{"android":"levelo://app?vid=a35ab97b-12d6-4b16-ba20-df34d85afcba","ios":"levelo://app?vid=a35ab97b-12d6-4b16-ba20-df34d85afcba"},"vehicle_type_id":"4","last_reported":1744428234,"current_range_meters":8400,"station_id":"ce4bguh2rcd13ifvqckg","pricing_plan_id":"cebpf4jnsgd1na2vs0mg"},{"bike_id":"7e287c76-4f19-4b6c-bb36-ea54c2b11237","system_id":"levelo_inurba_marseille","lat":43.32335,"lon":5.40624,"is_reserved":false,"is_disabled":false,"rental_uris":{"android":"levelo://app?vid=7e287c76-4f19-4b6c-bb36-ea54c2b11237","ios":"levelo://app?vid=7e287c76-4f19-4b6c-bb36-ea54c2b11237"},"vehicle_type_id":"4","last_reported":1744428234,"current_range_meters":8800,"station_id":"ce4bhq92rcd13ifvqhjg","pricing_plan_id":"cebpf4jnsgd1na2vs0mg"},{"bike_id":"6d239a60-5c37-4036-b60e-d60628d139cf","system_id":"levelo_inurba_marseille","lat":43.287065,"lon":5.373909,"is_reserved":false,"is_disabled":false,"rental_uris":{"android":"levelo://app?vid=6d239a60-5c37-4036-b60e-d60628d139cf","ios":"levelo://app?vid=6d239a60-5c37-4036-b60e-d60628d139cf"},"vehicle_type_id":"4","last_reported":1744428234,"current_range_meters":8800,"station_id":"ce4bh3p2rcd13ifvqdq0","pricing_plan_id":"cebpf4jnsgd1na2vs0mg"},{"bike_id":"6e3d2cdd-c4dc-4459-9d80-f6dbebcf2620","system_id":"levelo_inurba_marseille","lat":43.30888,"lon":5.37196,"is_reserved":false,"is_disabled":false,"rental_uris":{"android":"levelo://app?vid=6e3d2cdd-c4dc-4459-9d80-f6dbebcf2620","ios":"levelo://app?vid=6e3d2cdd-c4dc-4459-9d80-f6dbebcf2620"},"vehicle_type_id":"4","last_reported":1744428234,"current_range_meters":8800,"station_id":"ce4bguh2rcd13ifvqckg","pricing_plan_id":"cebpf4jnsgd1na2vs0mg"},{"bike_id":"25a2b2fe-9a8e-40f1-a384-cefdb66419ae","system_id":"levelo_inurba_marseille","lat":43.2776,"lon":5.40748,"is_reserved":false,"is_disabled":false,"rental_uris":{"android":"levelo://app?vid=25a2b2fe-9a8e-40f1-a384-cefdb66419ae","ios":"levelo://app?vid=25a2b2fe-9a8e-40f1-a384-cefdb66419ae"},"vehicle_type_id":"4","last_reported":1744428234,"current_range_meters":8800,"station_id":"","pricing_plan_id":"cebpf4jnsgd1na2vs0mg"},{"bike_id":"df89e186-9c4e-4e2d-a9e4-9cc15818550a","system_id":"levelo_inurba_marseille","lat":43.29253,"lon":5.37618,"is_reserved":false,"is_disabled":false,"rental_uris":{"android":"levelo://app?vid=df89e186-9c4e-4e2d-a9e4-9cc15818550a","ios":"levelo://app?vid=df89e186-9c4e-4e2d-a9e4-9cc15818550a"},"vehicle_type_id":"4","last_reported":1744428234,"current_range_meters":8800,"station_id":"ce4bgi12rcd13ifvqb80","pricing_plan_id":"cebpf4jnsgd1na2vs0mg"},{"bike_id":"20eb53d5-dc7b-4fbe-a6da-7e0a348438c0","system_id":"levelo_inurba_marseille","lat":43.27909,"lon":5.39587,"is_reserved":false,"is_disabled":true,"rental_uris":{"android":"levelo://app?vid=20eb53d5-dc7b-4fbe-a6da-7e0a348438c0","ios":"levelo://app?vid=20eb53d5-dc7b-4fbe-a6da-7e0a348438c0"},"vehicle_type_id":"4","last_reported":1744428234,"current_range_meters":8800,"station_id":"ce4bhf92rcd13ifvqf40","pricing_plan_id":"cebpf4jnsgd1na2vs0mg"},{"bike_id":"94455896-0f19-4fae-bd72-9879f01fcd6e","system_id":"levelo_inurba_marseille","lat":43.29559,"lon":5.42273,"is_reserved":false,"is_disabled":true,"rental_uris":{"android":"levelo://app?vid=94455896-0f19-4fae-bd72-9879f01fcd6e","ios":"levelo://app?vid=94455896-0f19-4fae-bd72-9879f01fcd6e"},"vehicle_type_id":"4","last_reported":1744428234,"current_range_meters":8800,"station_id":"ce4bhph2rcd13ifvqhdg","pricing_plan_id":"cebpf4jnsgd1na2vs0mg"},{"bike_id":"d163dd79-23a0-4b90-aa1d-74471b5669df","system_id":"levelo_inurba_marseille","lat":43.24682,"lon":5.38176,"is_reserved":false,"is_disabled":false,"rental_uris":{"android":"levelo://app?vid=d163dd79-23a0-4b90-aa1d-74471b5669df","ios":"levelo://app?vid=d163dd79-23a0-4b90-aa1d-74471b5669df"},"vehicle_type_id":"4","last_reported":1744428234,"current_range_meters":8800,"station_id":"ce4bhih2rcd13ifvqfr0","pricing_plan_id":"cebpf4jnsgd1na2vs0mg"},{"bike_id":"e0487cbb-6aa7-4fe8-9aa7-7b771d7aec2a","system_id":"levelo_inurba_marseille","lat":43.262316,"lon":5.404459,"is_reserved":false,"is_disabled":false,"rental_uris":{"android":"levelo://app?vid=e0487cbb-6aa7-4fe8-9aa7-7b771d7aec2a","ios":"levelo://app?vid=e0487cbb-6aa7-4fe8-9aa7-7b771d7aec2a"},"vehicle_type_id":"4","last_reported":1744428234,"current_range_meters":8800,"station_id":"ce4bhmh2rcd13ifvqgmg","pricing_plan_id":"cebpf4jnsgd1na2vs0mg"},{"bike_id":"1ac19b6a-4c6f-4d4d-901c-dd1716ba1b48","system_id":"levelo_inurba_marseille","lat":43.30949,"lon":5.40496,"is_reserved":false,"is_disabled":false,"rental_uris":{"android":"levelo://app?vid=1ac19b6a-4c6f-4d4d-901c-dd1716ba1b48","ios":"levelo://app?vid=1ac19b6a-4c6f-4d4d-901c-dd1716ba1b48"},"vehicle_type_id":"4","last_reported":1744428234,"current_range_meters":9200,"station_id":"","pricing_plan_id":"cebpf4jnsgd1na2vs0mg"},{"bike_id":"a6775854-2500-4866-9783-2dd909612ac1","system_id":"levelo_inurba_marseille","lat":43.29984,"lon":5.38481,"is_reserved":false,"is_disabled":false,"rental_uris":{"android":"levelo://app?vid=a6775854-2500-4866-9783-2dd909612ac1","ios":"levelo://app?vid=a6775854-2500-4866-9783-2dd909612ac1"},"vehicle_type_id":"4","last_reported":1744428234,"current_range_meters":9200,"station_id":"ce4bgj92rcd13ifvqbd0","pricing_plan_id":"cebpf4jnsgd1na2vs0mg"},{"bike_id":"cc83a7aa-57a1-4769-9137-8531613b4691","system_id":"levelo_inurba_marseille","lat":43.31247,"lon":5.37311,"is_reserved":false,"is_disabled":false,"rental_uris":{"android":"levelo://app?vid=cc83a7aa-57a1-4769-9137-8531613b4691","ios":"levelo://app?vid=cc83a7aa-57a1-4769-9137-8531613b4691"},"vehicle_type_id":"4","last_reported":1744428234,"current_range_meters":9200,"station_id":"","pricing_plan_id":"cebpf4jnsgd1na2vs0mg"},{"bike_id":"bc8a2674-0dc9-4a59-be8f-3a4c384ec638","system_id":"levelo_inurba_marseille","lat":43.28617,"lon":5.35106,"is_reserved":false,"is_disabled":false,"rental_uris":{"android":"levelo://app?vid=bc8a2674-0dc9-4a59-be8f-3a4c384ec638","ios":"levelo://app?vid=bc8a2674-0dc9-4a59-be8f-3a4c384ec638"},"vehicle_type_id":"4","last_reported":1744428234,"current_range_meters":9200,"station_id":"ce4bhch2rcd13ifvqeug","pricing_plan_id":"cebpf4jnsgd1na2vs0mg"},{"bike_id":"67b6e210-fc1d-4f60-bfed-dd88e8dba9f1","system_id":"levelo_inurba_marseille","lat":43.25797,"lon":5.39466,"is_reserved":false,"is_disabled":false,"rental_uris":{"android":"levelo://app?vid=67b6e210-fc1d-4f60-bfed-dd88e8dba9f1","ios":"levelo://app?vid=67b6e210-fc1d-4f60-bfed-dd88e8dba9f1"},"vehicle_type_id":"4","last_reported":1744428234,"current_range_meters":9200,"station_id":"ce4bhip2rcd13ifvqft0","pricing_plan_id":"cebpf4jnsgd1na2vs0mg"},{"bike_id":"c0478c87-f1e0-4868-83cb-84ec281be2b8","system_id":"levelo_inurba_marseille","lat":43.336033,"lon":5.410328,"is_reserved":false,"is_disabled":false,"rental_uris":{"android":"levelo://app?vid=c0478c87-f1e0-4868-83cb-84ec281be2b8","ios":"levelo://app?vid=c0478c87-f1e0-4868-83cb-84ec281be2b8"},"vehicle_type_id":"4","last_reported":1744428234,"current_range_meters":9200,"station_id":"ce4bhqh2rcd13ifvqhmg","pricing_plan_id":"cebpf4jnsgd1na2vs0mg"},{"bike_id":"9221d150-2b7c-49b1-921d-0cd476018673","system_id":"levelo_inurba_marseille","lat":43.30071,"lon":5.3714,"is_reserved":false,"is_disabled":false,"rental_uris":{"android":"levelo://app?vid=9221d150-2b7c-49b1-921d-0cd476018673","ios":"levelo://app?vid=9221d150-2b7c-49b1-921d-0cd476018673"},"vehicle_type_id":"4","last_reported":1744428234,"current_range_meters":9200,"station_id":"","pricing_plan_id":"cebpf4jnsgd1na2vs0mg"},{"bike_id":"4614ddd5-5aac-42b1-b3d4-905343369df1","system_id":"levelo_inurba_marseille","lat":43.27976,"lon":5.40979,"is_reserved":false,"is_disabled":false,"rental_uris":{"android":"levelo://app?vid=4614ddd5-5aac-42b1-b3d4-905343369df1","ios":"levelo://app?vid=4614ddd5-5aac-42b1-b3d4-905343369df1"},"vehicle_type_id":"4","last_reported":1744428234,"current_range_meters":9200,"station_id":"","pricing_plan_id":"cebpf4jnsgd1na2vs0mg"},{"bike_id":"a91984a3-a6ce-4421-8b70-93389255e88f","system_id":"levelo_inurba_marseille","lat":43.329974,"lon":5.438559,"is_reserved":false,"is_disabled":false,"rental_uris":{"android":"levelo://app?vid=a91984a3-a6ce-4421-8b70-93389255e88f","ios":"levelo://app?vid=a91984a3-a6ce-4421-8b70-93389255e88f"},"vehicle_type_id":"4","last_reported":1744428234,"current_range_meters":9600,"station_id":"","pricing_plan_id":"cebpf4jnsgd1na2vs0mg"},{"bike_id":"d6c423ad-693a-42e8-bcad-89087df9e68f","system_id":"levelo_inurba_marseille","lat":43.24154,"lon":5.39739,"is_reserved":false,"is_disabled":false,"rental_uris":{"android":"levelo://app?vid=d6c423ad-693a-42e8-bcad-89087df9e68f","ios":"levelo://app?vid=d6c423ad-693a-42e8-bcad-89087df9e68f"},"vehicle_type_id":"4","last_reported":1744428234,"current_range_meters":9600,"station_id":"ce4bhn12rcd13ifvqgpg","pricing_plan_id":"cebpf4jnsgd1na2vs0mg"},{"bike_id":"463b41fd-37bb-48c0-a6e4-12f737a3d7cf","system_id":"levelo_inurba_marseille","lat":43.26968,"lon":5.40249,"is_reserved":false,"is_disabled":true,"rental_uris":{"android":"levelo://app?vid=463b41fd-37bb-48c0-a6e4-12f737a3d7cf","ios":"levelo://app?vid=463b41fd-37bb-48c0-a6e4-12f737a3d7cf"},"vehicle_type_id":"4","last_reported":1744428234,"current_range_meters":9600,"station_id":"cjm6bp8fraef2m0cb0m0","pricing_plan_id":"cebpf4jnsgd1na2vs0mg"},{"bike_id":"9e128e8c-c526-4301-bc99-6fdaa04a15c9","system_id":"levelo_inurba_marseille","lat":43.275668,"lon":5.384117,"is_reserved":false,"is_disabled":false,"rental_uris":{"android":"levelo://app?vid=9e128e8c-c526-4301-bc99-6fdaa04a15c9","ios":"levelo://app?vid=9e128e8c-c526-4301-bc99-6fdaa04a15c9"},"vehicle_type_id":"4","last_reported":1744428234,"current_range_meters":9600,"station_id":"ce4bhh92rcd13ifvqfi0","pricing_plan_id":"cebpf4jnsgd1na2vs0mg"},{"bike_id":"173bc9a4-de98-43a8-b692-4fbb90439da0","system_id":"levelo_inurba_marseille","lat":43.31993,"lon":5.381565,"is_reserved":false,"is_disabled":false,"rental_uris":{"android":"levelo://app?vid=173bc9a4-de98-43a8-b692-4fbb90439da0","ios":"levelo://app?vid=173bc9a4-de98-43a8-b692-4fbb90439da0"},"vehicle_type_id":"4","last_reported":1744428234,"current_range_meters":9600,"station_id":"ce4bhr12rcd13ifvqhpg","pricing_plan_id":"cebpf4jnsgd1na2vs0mg"},{"bike_id":"37c212b5-8651-4817-8039-620283f6688e","system_id":"levelo_inurba_marseille","lat":43.29557,"lon":5.38565,"is_reserved":false,"is_disabled":false,"rental_uris":{"android":"levelo://app?vid=37c212b5-8651-4817-8039-620283f6688e","ios":"levelo://app?vid=37c212b5-8651-4817-8039-620283f6688e"},"vehicle_type_id":"4","last_reported":1744428234,"current_range_meters":9600,"station_id":"ce4bgih2rcd13ifvqba0","pricing_plan_id":"cebpf4jnsgd1na2vs0mg"},{"bike_id":"b105010c-b749-48b7-8743-e65c5024e2fe","system_id":"levelo_inurba_marseille","lat":43.251207,"lon":5.403157,"is_reserved":false,"is_disabled":false,"rental_uris":{"android":"levelo://app?vid=b105010c-b749-48b7-8743-e65c5024e2fe","ios":"levelo://app?vid=b105010c-b749-48b7-8743-e65c5024e2fe"},"vehicle_type_id":"4","last_reported":1744428234,"current_range_meters":9600,"station_id":"ce4bhlh2rcd13ifvqgig","pricing_plan_id":"cebpf4jnsgd1na2vs0mg"},{"bike_id":"89b8a470-4f24-4334-8ed0-df6eb4272b3d","system_id":"levelo_inurba_marseille","lat":43.3044,"lon":5.39746,"is_reserved":false,"is_disabled":false,"rental_uris":{"android":"levelo://app?vid=89b8a470-4f24-4334-8ed0-df6eb4272b3d","ios":"levelo://app?vid=89b8a470-4f24-4334-8ed0-df6eb4272b3d"},"vehicle_type_id":"4","last_reported":1744428234,"current_range_meters":9600,"station_id":"ce4bh092rcd13ifvqd20","pricing_plan_id":"cebpf4jnsgd1na2vs0mg"},{"bike_id":"72adaa87-94dc-4774-aca0-5147bc57bd16","system_id":"levelo_inurba_marseille","lat":43.260229,"lon":5.417399,"is_reserved":false,"is_disabled":false,"rental_uris":{"android":"levelo://app?vid=72adaa87-94dc-4774-aca0-5147bc57bd16","ios":"levelo://app?vid=72adaa87-94dc-4774-aca0-5147bc57bd16"},"vehicle_type_id":"4","last_reported":1744428234,"current_range_meters":9600,"station_id":"","pricing_plan_id":"cebpf4jnsgd1na2vs0mg"},{"bike_id":"3f08cc69-711e-4264-b923-68891203ffa4","system_id":"levelo_inurba_marseille","lat":43.32285,"lon":5.38243,"is_reserved":false,"is_disabled":false,"rental_uris":{"android":"levelo://app?vid=3f08cc69-711e-4264-b923-68891203ffa4","ios":"levelo://app?vid=3f08cc69-711e-4264-b923-68891203ffa4"},"vehicle_type_id":"4","last_reported":1744428234,"current_range_meters":9600,"station_id":"ce4bhr12rcd13ifvqhqg","pricing_plan_id":"cebpf4jnsgd1na2vs0mg"},{"bike_id":"8bff17ac-6ed2-4b3f-bce9-cd10da6ff7b7","system_id":"levelo_inurba_marseille","lat":43.24802,"lon":5.37457,"is_reserved":false,"is_disabled":false,"rental_uris":{"android":"levelo://app?vid=8bff17ac-6ed2-4b3f-bce9-cd10da6ff7b7","ios":"levelo://app?vid=8bff17ac-6ed2-4b3f-bce9-cd10da6ff7b7"},"vehicle_type_id":"4","last_reported":1744428234,"current_range_meters":9600,"station_id":"ce4bhgh2rcd13ifvqfb0","pricing_plan_id":"cebpf4jnsgd1na2vs0mg"},{"bike_id":"9b0093a9-79e0-4880-82c2-96b353b4de72","system_id":"levelo_inurba_marseille","lat":43.303192,"lon":5.404431,"is_reserved":false,"is_disabled":true,"rental_uris":{"android":"levelo://app?vid=9b0093a9-79e0-4880-82c2-96b353b4de72","ios":"levelo://app?vid=9b0093a9-79e0-4880-82c2-96b353b4de72"},"vehicle_type_id":"4","last_reported":1744428234,"current_range_meters":9600,"station_id":"ce4bh012rcd13ifvqd10","pricing_plan_id":"cebpf4jnsgd1na2vs0mg"},{"bike_id":"c659e7c3-9ff1-45a2-a39e-9154274620b0","system_id":"levelo_inurba_marseille","lat":43.30934,"lon":5.40158,"is_reserved":false,"is_disabled":false,"rental_uris":{"android":"levelo://app?vid=c659e7c3-9ff1-45a2-a39e-9154274620b0","ios":"levelo://app?vid=c659e7c3-9ff1-45a2-a39e-9154274620b0"},"vehicle_type_id":"4","last_reported":1744428234,"current_range_meters":10000,"station_id":"ce4bgvp2rcd13ifvqct0","pricing_plan_id":"cebpf4jnsgd1na2vs0mg"},{"bike_id":"80f5992c-b183-460d-8d1b-4c42a2b4d72f","system_id":"levelo_inurba_marseille","lat":43.24172,"lon":5.39741,"is_reserved":false,"is_disabled":false,"rental_uris":{"android":"levelo://app?vid=80f5992c-b183-460d-8d1b-4c42a2b4d72f","ios":"levelo://app?vid=80f5992c-b183-460d-8d1b-4c42a2b4d72f"},"vehicle_type_id":"4","last_reported":1744428234,"current_range_meters":10000,"station_id":"ce4bhn12rcd13ifvqgpg","pricing_plan_id":"cebpf4jnsgd1na2vs0mg"},{"bike_id":"3ac73e63-1619-4c1b-a7d0-7311424e94ef","system_id":"levelo_inurba_marseille","lat":43.290013,"lon":5.376307,"is_reserved":false,"is_disabled":false,"rental_uris":{"android":"levelo://app?vid=3ac73e63-1619-4c1b-a7d0-7311424e94ef","ios":"levelo://app?vid=3ac73e63-1619-4c1b-a7d0-7311424e94ef"},"vehicle_type_id":"4","last_reported":1744428234,"current_range_meters":10000,"station_id":"","pricing_plan_id":"cebpf4jnsgd1na2vs0mg"},{"bike_id":"3b991e41-1da7-4423-a369-dae028e8b01b","system_id":"levelo_inurba_marseille","lat":43.248104,"lon":5.374509,"is_reserved":false,"is_disabled":false,"rental_uris":{"android":"levelo://app?vid=3b991e41-1da7-4423-a369-dae028e8b01b","ios":"levelo://app?vid=3b991e41-1da7-4423-a369-dae028e8b01b"},"vehicle_type_id":"4","last_reported":1744428234,"current_range_meters":10000,"station_id":"ce4bhgh2rcd13ifvqfb0","pricing_plan_id":"cebpf4jnsgd1na2vs0mg"},{"bike_id":"8965cc5c-09be-4a7b-834a-2d1e366d2c15","system_id":"levelo_inurba_marseille","lat":43.30424,"lon":5.39749,"is_reserved":false,"is_disabled":false,"rental_uris":{"android":"levelo://app?vid=8965cc5c-09be-4a7b-834a-2d1e366d2c15","ios":"levelo://app?vid=8965cc5c-09be-4a7b-834a-2d1e366d2c15"},"vehicle_type_id":"4","last_reported":1744428234,"current_range_meters":10000,"station_id":"ce4bh092rcd13ifvqd20","pricing_plan_id":"cebpf4jnsgd1na2vs0mg"},{"bike_id":"2eaef294-b983-42a2-866a-25a148776b83","system_id":"levelo_inurba_marseille","lat":43.30927,"lon":5.40144,"is_reserved":false,"is_disabled":false,"rental_uris":{"android":"levelo://app?vid=2eaef294-b983-42a2-866a-25a148776b83","ios":"levelo://app?vid=2eaef294-b983-42a2-866a-25a148776b83"},"vehicle_type_id":"4","last_reported":1744428234,"current_range_meters":10000,"station_id":"ce4bgvp2rcd13ifvqct0","pricing_plan_id":"cebpf4jnsgd1na2vs0mg"},{"bike_id":"f8998113-3b34-437f-95cc-99ab3250e933","system_id":"levelo_inurba_marseille","lat":43.28439,"lon":5.39183,"is_reserved":false,"is_disabled":false,"rental_uris":{"android":"levelo://app?vid=f8998113-3b34-437f-95cc-99ab3250e933","ios":"levelo://app?vid=f8998113-3b34-437f-95cc-99ab3250e933"},"vehicle_type_id":"4","last_reported":1744428234,"current_range_meters":10800,"station_id":"ce4bhoh2rcd13ifvqh5g","pricing_plan_id":"cebpf4jnsgd1na2vs0mg"},{"bike_id":"9a048efe-3f5b-45ef-bee6-80524b1147f3","system_id":"levelo_inurba_marseille","lat":43.33085,"lon":5.4085,"is_reserved":false,"is_disabled":false,"rental_uris":{"android":"levelo://app?vid=9a048efe-3f5b-45ef-bee6-80524b1147f3","ios":"levelo://app?vid=9a048efe-3f5b-45ef-bee6-80524b1147f3"},"vehicle_type_id":"4","last_reported":1744428234,"current_range_meters":10800,"station_id":"","pricing_plan_id":"cebpf4jnsgd1na2vs0mg"},{"bike_id":"f21cce43-7e86-42c4-8a4d-3c922080ab5c","system_id":"levelo_inurba_marseille","lat":43.28919,"lon":5.3664,"is_reserved":false,"is_disabled":true,"rental_uris":{"android":"levelo://app?vid=f21cce43-7e86-42c4-8a4d-3c922080ab5c","ios":"levelo://app?vid=f21cce43-7e86-42c4-8a4d-3c922080ab5c"},"vehicle_type_id":"4","last_reported":1744428234,"current_range_meters":10800,"station_id":"ce4bhap2rcd13ifvqek0","pricing_plan_id":"cebpf4jnsgd1na2vs0mg"},{"bike_id":"6dc2c6d1-9c29-46f1-831f-679aa012aec9","system_id":"levelo_inurba_marseille","lat":43.30876,"lon":5.37202,"is_reserved":false,"is_disabled":false,"rental_uris":{"android":"levelo://app?vid=6dc2c6d1-9c29-46f1-831f-679aa012aec9","ios":"levelo://app?vid=6dc2c6d1-9c29-46f1-831f-679aa012aec9"},"vehicle_type_id":"4","last_reported":1744428234,"current_range_meters":10800,"station_id":"ce4bguh2rcd13ifvqckg","pricing_plan_id":"cebpf4jnsgd1na2vs0mg"},{"bike_id":"4bcdcc82-d58d-4172-b626-a8c82408681c","system_id":"levelo_inurba_marseille","lat":43.31217,"lon":5.36852,"is_reserved":false,"is_disabled":true,"rental_uris":{"android":"levelo://app?vid=4bcdcc82-d58d-4172-b626-a8c82408681c","ios":"levelo://app?vid=4bcdcc82-d58d-4172-b626-a8c82408681c"},"vehicle_type_id":"4","last_reported":1744428234,"current_range_meters":10800,"station_id":"ce4bgl92rcd13ifvqbq0","pricing_plan_id":"cebpf4jnsgd1na2vs0mg"},{"bike_id":"411f282c-b696-41a4-888f-752e1134c529","system_id":"levelo_inurba_marseille","lat":43.261943,"lon":5.374489,"is_reserved":false,"is_disabled":true,"rental_uris":{"android":"levelo://app?vid=411f282c-b696-41a4-888f-752e1134c529","ios":"levelo://app?vid=411f282c-b696-41a4-888f-752e1134c529"},"vehicle_type_id":"4","last_reported":1744428234,"current_range_meters":10800,"station_id":"ce4bhgp2rcd13ifvqfc0","pricing_plan_id":"cebpf4jnsgd1na2vs0mg"},{"bike_id":"0c00ca95-3429-45f6-a550-7818d229058c","system_id":"levelo_inurba_marseille","lat":43.246688,"lon":5.381615,"is_reserved":false,"is_disabled":false,"rental_uris":{"android":"levelo://app?vid=0c00ca95-3429-45f6-a550-7818d229058c","ios":"levelo://app?vid=0c00ca95-3429-45f6-a550-7818d229058c"},"vehicle_type_id":"4","last_reported":1744428234,"current_range_meters":10800,"station_id":"ce4bhih2rcd13ifvqfr0","pricing_plan_id":"cebpf4jnsgd1na2vs0mg"},{"bike_id":"8c58f2fa-99e1-41f8-bf90-9c1648b679b1","system_id":"levelo_inurba_marseille","lat":43.27308,"lon":5.41411,"is_reserved":false,"is_disabled":false,"rental_uris":{"android":"levelo://app?vid=8c58f2fa-99e1-41f8-bf90-9c1648b679b1","ios":"levelo://app?vid=8c58f2fa-99e1-41f8-bf90-9c1648b679b1"},"vehicle_type_id":"4","last_reported":1744428234,"current_range_meters":10800,"station_id":"","pricing_plan_id":"cebpf4jnsgd1na2vs0mg"},{"bike_id":"f62927b9-828c-48f9-836d-b409de2ecc34","system_id":"levelo_inurba_marseille","lat":43.28441,"lon":5.39187,"is_reserved":false,"is_disabled":true,"rental_uris":{"android":"levelo://app?vid=f62927b9-828c-48f9-836d-b409de2ecc34","ios":"levelo://app?vid=f62927b9-828c-48f9-836d-b409de2ecc34"},"vehicle_type_id":"4","last_reported":1744428234,"current_range_meters":10800,"station_id":"ce4bhoh2rcd13ifvqh5g","pricing_plan_id":"cebpf4jnsgd1na2vs0mg"},{"bike_id":"37864421-51e4-4d5e-801c-7ac32e01e722","system_id":"levelo_inurba_marseille","lat":43.31282,"lon":5.37759,"is_reserved":false,"is_disabled":false,"rental_uris":{"android":"levelo://app?vid=37864421-51e4-4d5e-801c-7ac32e01e722","ios":"levelo://app?vid=37864421-51e4-4d5e-801c-7ac32e01e722"},"vehicle_type_id":"4","last_reported":1744428234,"current_range_meters":10800,"station_id":"","pricing_plan_id":"cebpf4jnsgd1na2vs0mg"},{"bike_id":"23259ef2-badd-48f2-a7c8-5bd7ac1c2fc8","system_id":"levelo_inurba_marseille","lat":43.30263,"lon":5.40065,"is_reserved":false,"is_disabled":false,"rental_uris":{"android":"levelo://app?vid=23259ef2-badd-48f2-a7c8-5bd7ac1c2fc8","ios":"levelo://app?vid=23259ef2-badd-48f2-a7c8-5bd7ac1c2fc8"},"vehicle_type_id":"4","last_reported":1744428234,"current_range_meters":11200,"station_id":"ce4bgvh2rcd13ifvqcs0","pricing_plan_id":"cebpf4jnsgd1na2vs0mg"},{"bike_id":"c98d8b38-ccb8-4e2a-893f-a8daa657e381","system_id":"levelo_inurba_marseille","lat":43.313271,"lon":5.396924,"is_reserved":false,"is_disabled":false,"rental_uris":{"android":"levelo://app?vid=c98d8b38-ccb8-4e2a-893f-a8daa657e381","ios":"levelo://app?vid=c98d8b38-ccb8-4e2a-893f-a8daa657e381"},"vehicle_type_id":"4","last_reported":1744428234,"current_range_meters":11200,"station_id":"ce4bgvp2rcd13ifvqcu0","pricing_plan_id":"cebpf4jnsgd1na2vs0mg"},{"bike_id":"410850f2-1428-4146-a9ea-774d4a6e4e85","system_id":"levelo_inurba_marseille","lat":43.32367,"lon":5.38881,"is_reserved":false,"is_disabled":false,"rental_uris":{"android":"levelo://app?vid=410850f2-1428-4146-a9ea-774d4a6e4e85","ios":"levelo://app?vid=410850f2-1428-4146-a9ea-774d4a6e4e85"},"vehicle_type_id":"4","last_reported":1744428234,"current_range_meters":11200,"station_id":"ce4bhqp2rcd13ifvqhog","pricing_plan_id":"cebpf4jnsgd1na2vs0mg"},{"bike_id":"4c893399-b4ed-40ed-a49f-713da320f269","system_id":"levelo_inurba_marseille","lat":43.29861,"lon":5.37841,"is_reserved":false,"is_disabled":false,"rental_uris":{"android":"levelo://app?vid=4c893399-b4ed-40ed-a49f-713da320f269","ios":"levelo://app?vid=4c893399-b4ed-40ed-a49f-713da320f269"},"vehicle_type_id":"4","last_reported":1744428234,"current_range_meters":11200,"station_id":"","pricing_plan_id":"cebpf4jnsgd1na2vs0mg"},{"bike_id":"1c1ee69d-9d8f-49cd-9eab-2bf05ef7973b","system_id":"levelo_inurba_marseille","lat":43.30518,"lon":5.36699,"is_reserved":false,"is_disabled":false,"rental_uris":{"android":"levelo://app?vid=1c1ee69d-9d8f-49cd-9eab-2bf05ef7973b","ios":"levelo://app?vid=1c1ee69d-9d8f-49cd-9eab-2bf05ef7973b"},"vehicle_type_id":"4","last_reported":1744428234,"current_range_meters":11200,"station_id":"ce4bgrp2rcd13ifvqc9g","pricing_plan_id":"cebpf4jnsgd1na2vs0mg"},{"bike_id":"94a0e977-36e6-43ff-a357-cac93a3657d0","system_id":"levelo_inurba_marseille","lat":43.30922,"lon":5.40156,"is_reserved":false,"is_disabled":false,"rental_uris":{"android":"levelo://app?vid=94a0e977-36e6-43ff-a357-cac93a3657d0","ios":"levelo://app?vid=94a0e977-36e6-43ff-a357-cac93a3657d0"},"vehicle_type_id":"4","last_reported":1744428234,"current_range_meters":11200,"station_id":"ce4bgvp2rcd13ifvqct0","pricing_plan_id":"cebpf4jnsgd1na2vs0mg"},{"bike_id":"d43cc6ce-9d1e-46da-9271-b64798081594","system_id":"levelo_inurba_marseille","lat":43.29571,"lon":5.39989,"is_reserved":false,"is_disabled":false,"rental_uris":{"android":"levelo://app?vid=d43cc6ce-9d1e-46da-9271-b64798081594","ios":"levelo://app?vid=d43cc6ce-9d1e-46da-9271-b64798081594"},"vehicle_type_id":"4","last_reported":1744428234,"current_range_meters":11200,"station_id":"ce4bh312rcd13ifvqdj0","pricing_plan_id":"cebpf4jnsgd1na2vs0mg"},{"bike_id":"904bc4ac-008c-4e23-acb9-3ec41a43a83d","system_id":"levelo_inurba_marseille","lat":43.29265,"lon":5.38451,"is_reserved":false,"is_disabled":false,"rental_uris":{"android":"levelo://app?vid=904bc4ac-008c-4e23-acb9-3ec41a43a83d","ios":"levelo://app?vid=904bc4ac-008c-4e23-acb9-3ec41a43a83d"},"vehicle_type_id":"4","last_reported":1744428234,"current_range_meters":11600,"station_id":"ce4bh692rcd13ifvqea0","pricing_plan_id":"cebpf4jnsgd1na2vs0mg"},{"bike_id":"4a0973b0-92a0-41e8-9b0d-a99e944bafe0","system_id":"levelo_inurba_marseille","lat":43.34465,"lon":5.41305,"is_reserved":false,"is_disabled":false,"rental_uris":{"android":"levelo://app?vid=4a0973b0-92a0-41e8-9b0d-a99e944bafe0","ios":"levelo://app?vid=4a0973b0-92a0-41e8-9b0d-a99e944bafe0"},"vehicle_type_id":"4","last_reported":1744428234,"current_range_meters":11600,"station_id":"","pricing_plan_id":"cebpf4jnsgd1na2vs0mg"},{"bike_id":"4651fc10-fe57-460e-89c6-9ba891098581","system_id":"levelo_inurba_marseille","lat":43.241656,"lon":5.363886,"is_reserved":false,"is_disabled":false,"rental_uris":{"android":"levelo://app?vid=4651fc10-fe57-460e-89c6-9ba891098581","ios":"levelo://app?vid=4651fc10-fe57-460e-89c6-9ba891098581"},"vehicle_type_id":"4","last_reported":1744428234,"current_range_meters":11600,"station_id":"cpo36qri1sfpv3e86is0","pricing_plan_id":"cebpf4jnsgd1na2vs0mg"},{"bike_id":"1ee9c7c1-7d20-4c8d-a0cd-102b4e7b59aa","system_id":"levelo_inurba_marseille","lat":43.313178,"lon":5.397025,"is_reserved":false,"is_disabled":false,"rental_uris":{"android":"levelo://app?vid=1ee9c7c1-7d20-4c8d-a0cd-102b4e7b59aa","ios":"levelo://app?vid=1ee9c7c1-7d20-4c8d-a0cd-102b4e7b59aa"},"vehicle_type_id":"4","last_reported":1744428234,"current_range_meters":11600,"station_id":"ce4bgvp2rcd13ifvqcu0","pricing_plan_id":"cebpf4jnsgd1na2vs0mg"},{"bike_id":"18606129-1f46-4387-94fd-b9b77f87f6a9","system_id":"levelo_inurba_marseille","lat":43.231928,"lon":5.399758,"is_reserved":false,"is_disabled":false,"rental_uris":{"android":"levelo://app?vid=18606129-1f46-4387-94fd-b9b77f87f6a9","ios":"levelo://app?vid=18606129-1f46-4387-94fd-b9b77f87f6a9"},"vehicle_type_id":"4","last_reported":1744428234,"current_range_meters":11600,"station_id":"ce4bhn12rcd13ifvqgqg","pricing_plan_id":"cebpf4jnsgd1na2vs0mg"},{"bike_id":"c90a2010-f5fb-47d3-a1bd-ce2f60fa33c3","system_id":"levelo_inurba_marseille","lat":43.288435,"lon":5.358569,"is_reserved":false,"is_disabled":false,"rental_uris":{"android":"levelo://app?vid=c90a2010-f5fb-47d3-a1bd-ce2f60fa33c3","ios":"levelo://app?vid=c90a2010-f5fb-47d3-a1bd-ce2f60fa33c3"},"vehicle_type_id":"4","last_reported":1744428234,"current_range_meters":11600,"station_id":"ce4bhb12rcd13ifvqem0","pricing_plan_id":"cebpf4jnsgd1na2vs0mg"},{"bike_id":"16fd30b1-cad6-4fc5-9de5-c7170be035f0","system_id":"levelo_inurba_marseille","lat":43.257198,"lon":5.411144,"is_reserved":false,"is_disabled":false,"rental_uris":{"android":"levelo://app?vid=16fd30b1-cad6-4fc5-9de5-c7170be035f0","ios":"levelo://app?vid=16fd30b1-cad6-4fc5-9de5-c7170be035f0"},"vehicle_type_id":"4","last_reported":1744428234,"current_range_meters":11600,"station_id":"ce4bhkp2rcd13ifvqgd0","pricing_plan_id":"cebpf4jnsgd1na2vs0mg"},{"bike_id":"43b63c9f-fb1f-4606-8585-f3fcef52c739","system_id":"levelo_inurba_marseille","lat":43.25716,"lon":5.41106,"is_reserved":false,"is_disabled":false,"rental_uris":{"android":"levelo://app?vid=43b63c9f-fb1f-4606-8585-f3fcef52c739","ios":"levelo://app?vid=43b63c9f-fb1f-4606-8585-f3fcef52c739"},"vehicle_type_id":"4","last_reported":1744428234,"current_range_meters":12000,"station_id":"ce4bhkp2rcd13ifvqgd0","pricing_plan_id":"cebpf4jnsgd1na2vs0mg"},{"bike_id":"cec65770-a28a-483a-9f89-0b34654f8037","system_id":"levelo_inurba_marseille","lat":43.2571,"lon":5.41147,"is_reserved":false,"is_disabled":false,"rental_uris":{"android":"levelo://app?vid=cec65770-a28a-483a-9f89-0b34654f8037","ios":"levelo://app?vid=cec65770-a28a-483a-9f89-0b34654f8037"},"vehicle_type_id":"4","last_reported":1744428234,"current_range_meters":12000,"station_id":"ce4bhkp2rcd13ifvqgd0","pricing_plan_id":"cebpf4jnsgd1na2vs0mg"},{"bike_id":"cb52b286-e40f-4bd2-8fda-bd3410a45f8d","system_id":"levelo_inurba_marseille","lat":43.30212,"lon":5.39475,"is_reserved":false,"is_disabled":false,"rental_uris":{"android":"levelo://app?vid=cb52b286-e40f-4bd2-8fda-bd3410a45f8d","ios":"levelo://app?vid=cb52b286-e40f-4bd2-8fda-bd3410a45f8d"},"vehicle_type_id":"4","last_reported":1744428234,"current_range_meters":12000,"station_id":"ce4bh0p2rcd13ifvqd70","pricing_plan_id":"cebpf4jnsgd1na2vs0mg"},{"bike_id":"1cb849f5-4018-4c76-a075-268f516482d1","system_id":"levelo_inurba_marseille","lat":43.29259,"lon":5.40136,"is_reserved":false,"is_disabled":false,"rental_uris":{"android":"levelo://app?vid=1cb849f5-4018-4c76-a075-268f516482d1","ios":"levelo://app?vid=1cb849f5-4018-4c76-a075-268f516482d1"},"vehicle_type_id":"4","last_reported":1744428234,"current_range_meters":12000,"station_id":"ce4bh312rcd13ifvqdk0","pricing_plan_id":"cebpf4jnsgd1na2vs0mg"},{"bike_id":"e91ebdae-a6fc-4100-9a9d-1e8263645ef3","system_id":"levelo_inurba_marseille","lat":43.32658,"lon":5.40999,"is_reserved":false,"is_disabled":false,"rental_uris":{"android":"levelo://app?vid=e91ebdae-a6fc-4100-9a9d-1e8263645ef3","ios":"levelo://app?vid=e91ebdae-a6fc-4100-9a9d-1e8263645ef3"},"vehicle_type_id":"4","last_reported":1744428234,"current_range_meters":12000,"station_id":"ce4bhpp2rcd13ifvqhgg","pricing_plan_id":"cebpf4jnsgd1na2vs0mg"},{"bike_id":"e854defc-8e33-40ed-a4f3-45bab2707a87","system_id":"levelo_inurba_marseille","lat":43.309338,"lon":5.40144,"is_reserved":false,"is_disabled":false,"rental_uris":{"android":"levelo://app?vid=e854defc-8e33-40ed-a4f3-45bab2707a87","ios":"levelo://app?vid=e854defc-8e33-40ed-a4f3-45bab2707a87"},"vehicle_type_id":"4","last_reported":1744428234,"current_range_meters":12000,"station_id":"ce4bgvp2rcd13ifvqct0","pricing_plan_id":"cebpf4jnsgd1na2vs0mg"},{"bike_id":"1d756239-d4a3-4049-bdd2-ce061b4abe48","system_id":"levelo_inurba_marseille","lat":43.24178,"lon":5.39731,"is_reserved":false,"is_disabled":false,"rental_uris":{"android":"levelo://app?vid=1d756239-d4a3-4049-bdd2-ce061b4abe48","ios":"levelo://app?vid=1d756239-d4a3-4049-bdd2-ce061b4abe48"},"vehicle_type_id":"4","last_reported":1744428234,"current_range_meters":12400,"station_id":"ce4bhn12rcd13ifvqgpg","pricing_plan_id":"cebpf4jnsgd1na2vs0mg"},{"bike_id":"f5978509-db06-47ea-8b21-850d320f3654","system_id":"levelo_inurba_marseille","lat":43.3042,"lon":5.41285,"is_reserved":false,"is_disabled":false,"rental_uris":{"android":"levelo://app?vid=f5978509-db06-47ea-8b21-850d320f3654","ios":"levelo://app?vid=f5978509-db06-47ea-8b21-850d320f3654"},"vehicle_type_id":"4","last_reported":1744428234,"current_range_meters":12400,"station_id":"ce4bhop2rcd13ifvqh8g","pricing_plan_id":"cebpf4jnsgd1na2vs0mg"},{"bike_id":"c013d600-5e08-48f0-830e-8c965978436b","system_id":"levelo_inurba_marseille","lat":43.30437,"lon":5.38896,"is_reserved":false,"is_disabled":false,"rental_uris":{"android":"levelo://app?vid=c013d600-5e08-48f0-830e-8c965978436b","ios":"levelo://app?vid=c013d600-5e08-48f0-830e-8c965978436b"},"vehicle_type_id":"4","last_reported":1744428234,"current_range_meters":12400,"station_id":"ce4bgk12rcd13ifvqbi0","pricing_plan_id":"cebpf4jnsgd1na2vs0mg"},{"bike_id":"29fd9406-b872-4408-b90c-f1d9e5190468","system_id":"levelo_inurba_marseille","lat":43.23148,"lon":5.43724,"is_reserved":false,"is_disabled":false,"rental_uris":{"android":"levelo://app?vid=29fd9406-b872-4408-b90c-f1d9e5190468","ios":"levelo://app?vid=29fd9406-b872-4408-b90c-f1d9e5190468"},"vehicle_type_id":"4","last_reported":1744428234,"current_range_meters":12400,"station_id":"ce4bhmp2rcd13ifvqgog","pricing_plan_id":"cebpf4jnsgd1na2vs0mg"},{"bike_id":"2e845506-0ec9-43b5-9c91-deaab92936dd","system_id":"levelo_inurba_marseille","lat":43.257127,"lon":5.411126,"is_reserved":false,"is_disabled":false,"rental_uris":{"android":"levelo://app?vid=2e845506-0ec9-43b5-9c91-deaab92936dd","ios":"levelo://app?vid=2e845506-0ec9-43b5-9c91-deaab92936dd"},"vehicle_type_id":"4","last_reported":1744428234,"current_range_meters":12400,"station_id":"ce4bhkp2rcd13ifvqgd0","pricing_plan_id":"cebpf4jnsgd1na2vs0mg"},{"bike_id":"d9e18e0a-6933-4be3-bf81-cc0dce9dee80","system_id":"levelo_inurba_marseille","lat":43.28151,"lon":5.42648,"is_reserved":false,"is_disabled":false,"rental_uris":{"android":"levelo://app?vid=d9e18e0a-6933-4be3-bf81-cc0dce9dee80","ios":"levelo://app?vid=d9e18e0a-6933-4be3-bf81-cc0dce9dee80"},"vehicle_type_id":"4","last_reported":1744428234,"current_range_meters":12800,"station_id":"ce4bhnh2rcd13ifvqgug","pricing_plan_id":"cebpf4jnsgd1na2vs0mg"},{"bike_id":"ef291804-1477-432e-b153-82ea15725418","system_id":"levelo_inurba_marseille","lat":43.33742,"lon":5.37454,"is_reserved":false,"is_disabled":false,"rental_uris":{"android":"levelo://app?vid=ef291804-1477-432e-b153-82ea15725418","ios":"levelo://app?vid=ef291804-1477-432e-b153-82ea15725418"},"vehicle_type_id":"4","last_reported":1744428234,"current_range_meters":12800,"station_id":"","pricing_plan_id":"cebpf4jnsgd1na2vs0mg"},{"bike_id":"43c8bc8e-178f-4215-aeb0-8665bcef7021","system_id":"levelo_inurba_marseille","lat":43.29885,"lon":5.39751,"is_reserved":false,"is_disabled":false,"rental_uris":{"android":"levelo://app?vid=43c8bc8e-178f-4215-aeb0-8665bcef7021","ios":"levelo://app?vid=43c8bc8e-178f-4215-aeb0-8665bcef7021"},"vehicle_type_id":"4","last_reported":1744428234,"current_range_meters":12800,"station_id":"ce4bh0h2rcd13ifvqd50","pricing_plan_id":"cebpf4jnsgd1na2vs0mg"},{"bike_id":"2b02df73-fc0b-4244-8ce5-cd6ae7ba5c74","system_id":"levelo_inurba_marseille","lat":43.29905,"lon":5.37497,"is_reserved":false,"is_disabled":false,"rental_uris":{"android":"levelo://app?vid=2b02df73-fc0b-4244-8ce5-cd6ae7ba5c74","ios":"levelo://app?vid=2b02df73-fc0b-4244-8ce5-cd6ae7ba5c74"},"vehicle_type_id":"4","last_reported":1744428234,"current_range_meters":12800,"station_id":"ce4bgjh2rcd13ifvqbg0","pricing_plan_id":"cebpf4jnsgd1na2vs0mg"},{"bike_id":"cfa05593-02c0-4361-b7cb-d147d92b27a4","system_id":"levelo_inurba_marseille","lat":43.24149,"lon":5.36403,"is_reserved":false,"is_disabled":false,"rental_uris":{"android":"levelo://app?vid=cfa05593-02c0-4361-b7cb-d147d92b27a4","ios":"levelo://app?vid=cfa05593-02c0-4361-b7cb-d147d92b27a4"},"vehicle_type_id":"4","last_reported":1744428234,"current_range_meters":13600,"station_id":"cpo36qri1sfpv3e86is0","pricing_plan_id":"cebpf4jnsgd1na2vs0mg"},{"bike_id":"d38e0e5e-1441-423a-9774-3196b1a1cb17","system_id":"levelo_inurba_marseille","lat":43.30026,"lon":5.39992,"is_reserved":false,"is_disabled":false,"rental_uris":{"android":"levelo://app?vid=d38e0e5e-1441-423a-9774-3196b1a1cb17","ios":"levelo://app?vid=d38e0e5e-1441-423a-9774-3196b1a1cb17"},"vehicle_type_id":"4","last_reported":1744428234,"current_range_meters":13600,"station_id":"","pricing_plan_id":"cebpf4jnsgd1na2vs0mg"},{"bike_id":"a8d99482-a057-469f-bd2e-b289d8ded2a5","system_id":"levelo_inurba_marseille","lat":43.29797,"lon":5.40407,"is_reserved":false,"is_disabled":false,"rental_uris":{"android":"levelo://app?vid=a8d99482-a057-469f-bd2e-b289d8ded2a5","ios":"levelo://app?vid=a8d99482-a057-469f-bd2e-b289d8ded2a5"},"vehicle_type_id":"4","last_reported":1744428234,"current_range_meters":13600,"station_id":"ce4bh112rcd13ifvqd90","pricing_plan_id":"cebpf4jnsgd1na2vs0mg"},{"bike_id":"c9aa49b6-dfff-45a5-aada-a9b66a79c5ac","system_id":"levelo_inurba_marseille","lat":43.24657,"lon":5.38158,"is_reserved":false,"is_disabled":false,"rental_uris":{"android":"levelo://app?vid=c9aa49b6-dfff-45a5-aada-a9b66a79c5ac","ios":"levelo://app?vid=c9aa49b6-dfff-45a5-aada-a9b66a79c5ac"},"vehicle_type_id":"4","last_reported":1744428234,"current_range_meters":14000,"station_id":"ce4bhih2rcd13ifvqfr0","pricing_plan_id":"cebpf4jnsgd1na2vs0mg"},{"bike_id":"8b170cdc-9fa2-4b41-89b9-10e3da719be8","system_id":"levelo_inurba_marseille","lat":43.29618,"lon":5.37172,"is_reserved":false,"is_disabled":false,"rental_uris":{"android":"levelo://app?vid=8b170cdc-9fa2-4b41-89b9-10e3da719be8","ios":"levelo://app?vid=8b170cdc-9fa2-4b41-89b9-10e3da719be8"},"vehicle_type_id":"4","last_reported":1744428234,"current_range_meters":13600,"station_id":"ce4bgnh2rcd13ifvqc0g","pricing_plan_id":"cebpf4jnsgd1na2vs0mg"},{"bike_id":"f7d1eee0-1715-419d-beac-1b98ec9e62ed","system_id":"levelo_inurba_marseille","lat":43.30943,"lon":5.39015,"is_reserved":false,"is_disabled":true,"rental_uris":{"android":"levelo://app?vid=f7d1eee0-1715-419d-beac-1b98ec9e62ed","ios":"levelo://app?vid=f7d1eee0-1715-419d-beac-1b98ec9e62ed"},"vehicle_type_id":"4","last_reported":1744428234,"current_range_meters":14000,"station_id":"ce4bgup2rcd13ifvqco0","pricing_plan_id":"cebpf4jnsgd1na2vs0mg"},{"bike_id":"844c6942-35f0-45eb-967c-88cc8ed35da1","system_id":"levelo_inurba_marseille","lat":43.28812,"lon":5.39357,"is_reserved":false,"is_disabled":false,"rental_uris":{"android":"levelo://app?vid=844c6942-35f0-45eb-967c-88cc8ed35da1","ios":"levelo://app?vid=844c6942-35f0-45eb-967c-88cc8ed35da1"},"vehicle_type_id":"4","last_reported":1744428234,"current_range_meters":14000,"station_id":"","pricing_plan_id":"cebpf4jnsgd1na2vs0mg"},{"bike_id":"777b227c-7abb-4d62-9994-ac7b6072751a","system_id":"levelo_inurba_marseille","lat":43.311158,"lon":5.377719,"is_reserved":false,"is_disabled":false,"rental_uris":{"android":"levelo://app?vid=777b227c-7abb-4d62-9994-ac7b6072751a","ios":"levelo://app?vid=777b227c-7abb-4d62-9994-ac7b6072751a"},"vehicle_type_id":"4","last_reported":1744428234,"current_range_meters":14000,"station_id":"ce4bgt92rcd13ifvqcg0","pricing_plan_id":"cebpf4jnsgd1na2vs0mg"},{"bike_id":"5b77a833-8185-45c2-9fe3-07eb40df54ca","system_id":"levelo_inurba_marseille","lat":43.33995,"lon":5.38057,"is_reserved":false,"is_disabled":false,"rental_uris":{"android":"levelo://app?vid=5b77a833-8185-45c2-9fe3-07eb40df54ca","ios":"levelo://app?vid=5b77a833-8185-45c2-9fe3-07eb40df54ca"},"vehicle_type_id":"4","last_reported":1744428234,"current_range_meters":14000,"station_id":"","pricing_plan_id":"cebpf4jnsgd1na2vs0mg"},{"bike_id":"9145946e-59e1-420d-9f32-4fce0d813211","system_id":"levelo_inurba_marseille","lat":43.25725,"lon":5.41075,"is_reserved":false,"is_disabled":false,"rental_uris":{"android":"levelo://app?vid=9145946e-59e1-420d-9f32-4fce0d813211","ios":"levelo://app?vid=9145946e-59e1-420d-9f32-4fce0d813211"},"vehicle_type_id":"4","last_reported":1744428234,"current_range_meters":14400,"station_id":"ce4bhkp2rcd13ifvqgd0","pricing_plan_id":"cebpf4jnsgd1na2vs0mg"},{"bike_id":"047e2d26-c924-4ec8-ab9b-033cb13956a5","system_id":"levelo_inurba_marseille","lat":43.306011,"lon":5.372207,"is_reserved":false,"is_disabled":false,"rental_uris":{"android":"levelo://app?vid=047e2d26-c924-4ec8-ab9b-033cb13956a5","ios":"levelo://app?vid=047e2d26-c924-4ec8-ab9b-033cb13956a5"},"vehicle_type_id":"4","last_reported":1744428234,"current_range_meters":14400,"station_id":"ce4bgqh2rcd13ifvqc4g","pricing_plan_id":"cebpf4jnsgd1na2vs0mg"},{"bike_id":"0e7bf4ae-5aed-4055-a1f8-96debbb9847e","system_id":"levelo_inurba_marseille","lat":43.24145,"lon":5.36405,"is_reserved":false,"is_disabled":false,"rental_uris":{"android":"levelo://app?vid=0e7bf4ae-5aed-4055-a1f8-96debbb9847e","ios":"levelo://app?vid=0e7bf4ae-5aed-4055-a1f8-96debbb9847e"},"vehicle_type_id":"4","last_reported":1744428234,"current_range_meters":14400,"station_id":"cpo36qri1sfpv3e86is0","pricing_plan_id":"cebpf4jnsgd1na2vs0mg"},{"bike_id":"d8f603cd-3b83-4148-bab8-3a185ad2a59f","system_id":"levelo_inurba_marseille","lat":43.3236,"lon":5.38895,"is_reserved":false,"is_disabled":false,"rental_uris":{"android":"levelo://app?vid=d8f603cd-3b83-4148-bab8-3a185ad2a59f","ios":"levelo://app?vid=d8f603cd-3b83-4148-bab8-3a185ad2a59f"},"vehicle_type_id":"4","last_reported":1744428234,"current_range_meters":14800,"station_id":"ce4bhqp2rcd13ifvqhog","pricing_plan_id":"cebpf4jnsgd1na2vs0mg"},{"bike_id":"ec60b769-c06b-4e12-b095-823ea8034735","system_id":"levelo_inurba_marseille","lat":43.30328,"lon":5.40444,"is_reserved":false,"is_disabled":false,"rental_uris":{"android":"levelo://app?vid=ec60b769-c06b-4e12-b095-823ea8034735","ios":"levelo://app?vid=ec60b769-c06b-4e12-b095-823ea8034735"},"vehicle_type_id":"4","last_reported":1744428234,"current_range_meters":15200,"station_id":"ce4bh012rcd13ifvqd10","pricing_plan_id":"cebpf4jnsgd1na2vs0mg"},{"bike_id":"3383469d-bf04-4b83-befe-8d91b97ef6f7","system_id":"levelo_inurba_marseille","lat":43.3214,"lon":5.37954,"is_reserved":false,"is_disabled":false,"rental_uris":{"android":"levelo://app?vid=3383469d-bf04-4b83-befe-8d91b97ef6f7","ios":"levelo://app?vid=3383469d-bf04-4b83-befe-8d91b97ef6f7"},"vehicle_type_id":"4","last_reported":1744428234,"current_range_meters":15200,"station_id":"","pricing_plan_id":"cebpf4jnsgd1na2vs0mg"},{"bike_id":"61bc6256-8380-4638-bd27-1e2c56ecc87d","system_id":"levelo_inurba_marseille","lat":43.297026,"lon":5.37686,"is_reserved":false,"is_disabled":false,"rental_uris":{"android":"levelo://app?vid=61bc6256-8380-4638-bd27-1e2c56ecc87d","ios":"levelo://app?vid=61bc6256-8380-4638-bd27-1e2c56ecc87d"},"vehicle_type_id":"4","last_reported":1744428234,"current_range_meters":15200,"station_id":"ce4bgkh2rcd13ifvqbl0","pricing_plan_id":"cebpf4jnsgd1na2vs0mg"},{"bike_id":"62702c25-9790-4114-b81c-1a4afc708ad3","system_id":"levelo_inurba_marseille","lat":43.28342,"lon":5.38102,"is_reserved":false,"is_disabled":false,"rental_uris":{"android":"levelo://app?vid=62702c25-9790-4114-b81c-1a4afc708ad3","ios":"levelo://app?vid=62702c25-9790-4114-b81c-1a4afc708ad3"},"vehicle_type_id":"4","last_reported":1744428234,"current_range_meters":16000,"station_id":"ce4bh412rcd13ifvqdr0","pricing_plan_id":"cebpf4jnsgd1na2vs0mg"},{"bike_id":"2f5bc015-0a98-4a0d-a50f-f7181e1d6abe","system_id":"levelo_inurba_marseille","lat":43.233925,"lon":5.412384,"is_reserved":false,"is_disabled":false,"rental_uris":{"android":"levelo://app?vid=2f5bc015-0a98-4a0d-a50f-f7181e1d6abe","ios":"levelo://app?vid=2f5bc015-0a98-4a0d-a50f-f7181e1d6abe"},"vehicle_type_id":"4","last_reported":1744428234,"current_range_meters":16000,"station_id":"","pricing_plan_id":"cebpf4jnsgd1na2vs0mg"},{"bike_id":"4307149e-cc6a-499a-ba47-d788a25de34e","system_id":"levelo_inurba_marseille","lat":43.287045,"lon":5.399849,"is_reserved":false,"is_disabled":false,"rental_uris":{"android":"levelo://app?vid=4307149e-cc6a-499a-ba47-d788a25de34e","ios":"levelo://app?vid=4307149e-cc6a-499a-ba47-d788a25de34e"},"vehicle_type_id":"4","last_reported":1744428234,"current_range_meters":16000,"station_id":"ce4bho92rcd13ifvqh3g","pricing_plan_id":"cebpf4jnsgd1na2vs0mg"},{"bike_id":"a73c59b7-9d02-4f9c-b5fd-aa57f442c553","system_id":"levelo_inurba_marseille","lat":43.28442,"lon":5.39194,"is_reserved":false,"is_disabled":false,"rental_uris":{"android":"levelo://app?vid=a73c59b7-9d02-4f9c-b5fd-aa57f442c553","ios":"levelo://app?vid=a73c59b7-9d02-4f9c-b5fd-aa57f442c553"},"vehicle_type_id":"4","last_reported":1744428234,"current_range_meters":16000,"station_id":"ce4bhoh2rcd13ifvqh5g","pricing_plan_id":"cebpf4jnsgd1na2vs0mg"},{"bike_id":"493cde9e-7859-4c26-a2e6-f744ee5d8553","system_id":"levelo_inurba_marseille","lat":43.31786,"lon":5.36838,"is_reserved":false,"is_disabled":false,"rental_uris":{"android":"levelo://app?vid=493cde9e-7859-4c26-a2e6-f744ee5d8553","ios":"levelo://app?vid=493cde9e-7859-4c26-a2e6-f744ee5d8553"},"vehicle_type_id":"4","last_reported":1744428234,"current_range_meters":16000,"station_id":"","pricing_plan_id":"cebpf4jnsgd1na2vs0mg"},{"bike_id":"ef9bb6af-9bb3-4888-be76-604647627aba","system_id":"levelo_inurba_marseille","lat":43.29868,"lon":5.39747,"is_reserved":false,"is_disabled":false,"rental_uris":{"android":"levelo://app?vid=ef9bb6af-9bb3-4888-be76-604647627aba","ios":"levelo://app?vid=ef9bb6af-9bb3-4888-be76-604647627aba"},"vehicle_type_id":"4","last_reported":1744428234,"current_range_meters":16000,"station_id":"ce4bh0h2rcd13ifvqd50","pricing_plan_id":"cebpf4jnsgd1na2vs0mg"},{"bike_id":"90cddebc-2506-42ee-9df1-36a6154dff75","system_id":"levelo_inurba_marseille","lat":43.24177,"lon":5.36376,"is_reserved":false,"is_disabled":false,"rental_uris":{"android":"levelo://app?vid=90cddebc-2506-42ee-9df1-36a6154dff75","ios":"levelo://app?vid=90cddebc-2506-42ee-9df1-36a6154dff75"},"vehicle_type_id":"4","last_reported":1744428234,"current_range_meters":16000,"station_id":"cpo36qri1sfpv3e86is0","pricing_plan_id":"cebpf4jnsgd1na2vs0mg"},{"bike_id":"f7843f46-58aa-4cf6-a1d0-1b94b16f71c2","system_id":"levelo_inurba_marseille","lat":43.2984,"lon":5.396587,"is_reserved":false,"is_disabled":false,"rental_uris":{"android":"levelo://app?vid=f7843f46-58aa-4cf6-a1d0-1b94b16f71c2","ios":"levelo://app?vid=f7843f46-58aa-4cf6-a1d0-1b94b16f71c2"},"vehicle_type_id":"4","last_reported":1744428234,"current_range_meters":16400,"station_id":"","pricing_plan_id":"cebpf4jnsgd1na2vs0mg"},{"bike_id":"a5ef902d-c8ee-418f-976b-ad30eed26e1c","system_id":"levelo_inurba_marseille","lat":43.28093,"lon":5.37842,"is_reserved":false,"is_disabled":false,"rental_uris":{"android":"levelo://app?vid=a5ef902d-c8ee-418f-976b-ad30eed26e1c","ios":"levelo://app?vid=a5ef902d-c8ee-418f-976b-ad30eed26e1c"},"vehicle_type_id":"4","last_reported":1744428234,"current_range_meters":16400,"station_id":"ce4bha12rcd13ifvqee0","pricing_plan_id":"cebpf4jnsgd1na2vs0mg"},{"bike_id":"2bcceb94-5f08-489f-95b9-b2d9247e0087","system_id":"levelo_inurba_marseille","lat":43.29969,"lon":5.38492,"is_reserved":false,"is_disabled":false,"rental_uris":{"android":"levelo://app?vid=2bcceb94-5f08-489f-95b9-b2d9247e0087","ios":"levelo://app?vid=2bcceb94-5f08-489f-95b9-b2d9247e0087"},"vehicle_type_id":"4","last_reported":1744428234,"current_range_meters":16400,"station_id":"ce4bgj92rcd13ifvqbd0","pricing_plan_id":"cebpf4jnsgd1na2vs0mg"},{"bike_id":"3e7e9d34-d749-4fbc-882e-51be4516ee3a","system_id":"levelo_inurba_marseille","lat":43.29876,"lon":5.39719,"is_reserved":false,"is_disabled":false,"rental_uris":{"android":"levelo://app?vid=3e7e9d34-d749-4fbc-882e-51be4516ee3a","ios":"levelo://app?vid=3e7e9d34-d749-4fbc-882e-51be4516ee3a"},"vehicle_type_id":"4","last_reported":1744428234,"current_range_meters":16400,"station_id":"ce4bh0h2rcd13ifvqd50","pricing_plan_id":"cebpf4jnsgd1na2vs0mg"},{"bike_id":"04697f1c-f402-4cec-ad92-d8e40094fc77","system_id":"levelo_inurba_marseille","lat":43.312758,"lon":5.401663,"is_reserved":false,"is_disabled":false,"rental_uris":{"android":"levelo://app?vid=04697f1c-f402-4cec-ad92-d8e40094fc77","ios":"levelo://app?vid=04697f1c-f402-4cec-ad92-d8e40094fc77"},"vehicle_type_id":"4","last_reported":1744428234,"current_range_meters":16400,"station_id":"ce4bh092rcd13ifvqd30","pricing_plan_id":"cebpf4jnsgd1na2vs0mg"},{"bike_id":"faa47fa3-4737-426d-a021-4b787008aea9","system_id":"levelo_inurba_marseille","lat":43.31268,"lon":5.40189,"is_reserved":false,"is_disabled":false,"rental_uris":{"android":"levelo://app?vid=faa47fa3-4737-426d-a021-4b787008aea9","ios":"levelo://app?vid=faa47fa3-4737-426d-a021-4b787008aea9"},"vehicle_type_id":"4","last_reported":1744428234,"current_range_meters":16400,"station_id":"ce4bh092rcd13ifvqd30","pricing_plan_id":"cebpf4jnsgd1na2vs0mg"},{"bike_id":"3e64ba0d-bb65-4d6e-9f9c-8236f65520bd","system_id":"levelo_inurba_marseille","lat":43.3035,"lon":5.38587,"is_reserved":false,"is_disabled":false,"rental_uris":{"android":"levelo://app?vid=3e64ba0d-bb65-4d6e-9f9c-8236f65520bd","ios":"levelo://app?vid=3e64ba0d-bb65-4d6e-9f9c-8236f65520bd"},"vehicle_type_id":"4","last_reported":1744428234,"current_range_meters":16400,"station_id":"","pricing_plan_id":"cebpf4jnsgd1na2vs0mg"},{"bike_id":"2a768501-9320-4bc9-a417-15b58706b922","system_id":"levelo_inurba_marseille","lat":43.27563,"lon":5.38419,"is_reserved":false,"is_disabled":false,"rental_uris":{"android":"levelo://app?vid=2a768501-9320-4bc9-a417-15b58706b922","ios":"levelo://app?vid=2a768501-9320-4bc9-a417-15b58706b922"},"vehicle_type_id":"4","last_reported":1744428234,"current_range_meters":16400,"station_id":"ce4bhh92rcd13ifvqfi0","pricing_plan_id":"cebpf4jnsgd1na2vs0mg"},{"bike_id":"a5d137fa-283d-4f94-822e-c26529ef4836","system_id":"levelo_inurba_marseille","lat":43.28838,"lon":5.35857,"is_reserved":false,"is_disabled":false,"rental_uris":{"android":"levelo://app?vid=a5d137fa-283d-4f94-822e-c26529ef4836","ios":"levelo://app?vid=a5d137fa-283d-4f94-822e-c26529ef4836"},"vehicle_type_id":"4","last_reported":1744428234,"current_range_meters":16800,"station_id":"ce4bhb12rcd13ifvqem0","pricing_plan_id":"cebpf4jnsgd1na2vs0mg"},{"bike_id":"9c2e56bd-2b20-4e10-bdad-a43b3a4c4d78","system_id":"levelo_inurba_marseille","lat":43.27948,"lon":5.41038,"is_reserved":false,"is_disabled":false,"rental_uris":{"android":"levelo://app?vid=9c2e56bd-2b20-4e10-bdad-a43b3a4c4d78","ios":"levelo://app?vid=9c2e56bd-2b20-4e10-bdad-a43b3a4c4d78"},"vehicle_type_id":"4","last_reported":1744428234,"current_range_meters":16800,"station_id":"ce4bhnp2rcd13ifvqh0g","pricing_plan_id":"cebpf4jnsgd1na2vs0mg"},{"bike_id":"f1a81939-e24e-4b4d-bb9f-d960ee871735","system_id":"levelo_inurba_marseille","lat":43.241826,"lon":5.397209,"is_reserved":false,"is_disabled":true,"rental_uris":{"android":"levelo://app?vid=f1a81939-e24e-4b4d-bb9f-d960ee871735","ios":"levelo://app?vid=f1a81939-e24e-4b4d-bb9f-d960ee871735"},"vehicle_type_id":"4","last_reported":1744428234,"current_range_meters":16800,"station_id":"ce4bhn12rcd13ifvqgpg","pricing_plan_id":"cebpf4jnsgd1na2vs0mg"},{"bike_id":"3b4d64cf-3196-4abe-baf1-2561b8d89251","system_id":"levelo_inurba_marseille","lat":43.24652,"lon":5.38895,"is_reserved":false,"is_disabled":false,"rental_uris":{"android":"levelo://app?vid=3b4d64cf-3196-4abe-baf1-2561b8d89251","ios":"levelo://app?vid=3b4d64cf-3196-4abe-baf1-2561b8d89251"},"vehicle_type_id":"4","last_reported":1744428234,"current_range_meters":16800,"station_id":"ce4bhg12rcd13ifvqf60","pricing_plan_id":"cebpf4jnsgd1na2vs0mg"},{"bike_id":"a43a47e0-ea2e-45d3-909a-7843b1a7d26c","system_id":"levelo_inurba_marseille","lat":43.31232,"lon":5.36905,"is_reserved":false,"is_disabled":false,"rental_uris":{"android":"levelo://app?vid=a43a47e0-ea2e-45d3-909a-7843b1a7d26c","ios":"levelo://app?vid=a43a47e0-ea2e-45d3-909a-7843b1a7d26c"},"vehicle_type_id":"4","last_reported":1744428234,"current_range_meters":16800,"station_id":"ce4bgl92rcd13ifvqbq0","pricing_plan_id":"cebpf4jnsgd1na2vs0mg"},{"bike_id":"7a158ba0-3247-4869-8550-eefb990c046b","system_id":"levelo_inurba_marseille","lat":43.27952,"lon":5.41043,"is_reserved":false,"is_disabled":false,"rental_uris":{"android":"levelo://app?vid=7a158ba0-3247-4869-8550-eefb990c046b","ios":"levelo://app?vid=7a158ba0-3247-4869-8550-eefb990c046b"},"vehicle_type_id":"4","last_reported":1744428234,"current_range_meters":16800,"station_id":"ce4bhnp2rcd13ifvqh0g","pricing_plan_id":"cebpf4jnsgd1na2vs0mg"},{"bike_id":"3abbe1ad-345e-4f7b-b552-576868d01194","system_id":"levelo_inurba_marseille","lat":43.26222,"lon":5.40454,"is_reserved":false,"is_disabled":false,"rental_uris":{"android":"levelo://app?vid=3abbe1ad-345e-4f7b-b552-576868d01194","ios":"levelo://app?vid=3abbe1ad-345e-4f7b-b552-576868d01194"},"vehicle_type_id":"4","last_reported":1744428234,"current_range_meters":17200,"station_id":"ce4bhmh2rcd13ifvqgmg","pricing_plan_id":"cebpf4jnsgd1na2vs0mg"},{"bike_id":"e88a1fc3-a242-4ef5-90d9-2e9abc8d2acd","system_id":"levelo_inurba_marseille","lat":43.309326,"lon":5.401431,"is_reserved":false,"is_disabled":false,"rental_uris":{"android":"levelo://app?vid=e88a1fc3-a242-4ef5-90d9-2e9abc8d2acd","ios":"levelo://app?vid=e88a1fc3-a242-4ef5-90d9-2e9abc8d2acd"},"vehicle_type_id":"4","last_reported":1744428234,"current_range_meters":17200,"station_id":"ce4bgvp2rcd13ifvqct0","pricing_plan_id":"cebpf4jnsgd1na2vs0mg"},{"bike_id":"a2fe3a54-a850-4fb4-9a35-4b503608d3b0","system_id":"levelo_inurba_marseille","lat":43.292726,"lon":5.384365,"is_reserved":false,"is_disabled":false,"rental_uris":{"android":"levelo://app?vid=a2fe3a54-a850-4fb4-9a35-4b503608d3b0","ios":"levelo://app?vid=a2fe3a54-a850-4fb4-9a35-4b503608d3b0"},"vehicle_type_id":"4","last_reported":1744428234,"current_range_meters":17200,"station_id":"ce4bh692rcd13ifvqea0","pricing_plan_id":"cebpf4jnsgd1na2vs0mg"},{"bike_id":"2124d2eb-d705-4e73-9fa7-48065810242a","system_id":"levelo_inurba_marseille","lat":43.29197,"lon":5.39318,"is_reserved":false,"is_disabled":false,"rental_uris":{"android":"levelo://app?vid=2124d2eb-d705-4e73-9fa7-48065810242a","ios":"levelo://app?vid=2124d2eb-d705-4e73-9fa7-48065810242a"},"vehicle_type_id":"4","last_reported":1744428234,"current_range_meters":17200,"station_id":"ce4bh192rcd13ifvqdd0","pricing_plan_id":"cebpf4jnsgd1na2vs0mg"},{"bike_id":"9525c3ab-968c-4727-84cd-7360011d8609","system_id":"levelo_inurba_marseille","lat":43.31175,"lon":5.38703,"is_reserved":false,"is_disabled":false,"rental_uris":{"android":"levelo://app?vid=9525c3ab-968c-4727-84cd-7360011d8609","ios":"levelo://app?vid=9525c3ab-968c-4727-84cd-7360011d8609"},"vehicle_type_id":"4","last_reported":1744428234,"current_range_meters":17200,"station_id":"ce4bgv12rcd13ifvqcp0","pricing_plan_id":"cebpf4jnsgd1na2vs0mg"},{"bike_id":"a945cbf3-38e6-4aa3-9aa1-d414d6c834b5","system_id":"levelo_inurba_marseille","lat":43.318959,"lon":5.407326,"is_reserved":false,"is_disabled":true,"rental_uris":{"android":"levelo://app?vid=a945cbf3-38e6-4aa3-9aa1-d414d6c834b5","ios":"levelo://app?vid=a945cbf3-38e6-4aa3-9aa1-d414d6c834b5"},"vehicle_type_id":"4","last_reported":1744428234,"current_range_meters":17200,"station_id":"ce4bhq12rcd13ifvqhig","pricing_plan_id":"cebpf4jnsgd1na2vs0mg"},{"bike_id":"314429f1-c809-42c0-9c65-97f12ea53ea4","system_id":"levelo_inurba_marseille","lat":43.30877,"lon":5.37343,"is_reserved":false,"is_disabled":false,"rental_uris":{"android":"levelo://app?vid=314429f1-c809-42c0-9c65-97f12ea53ea4","ios":"levelo://app?vid=314429f1-c809-42c0-9c65-97f12ea53ea4"},"vehicle_type_id":"4","last_reported":1744428234,"current_range_meters":17200,"station_id":"","pricing_plan_id":"cebpf4jnsgd1na2vs0mg"},{"bike_id":"b3dda8bf-2899-4bd5-8d7e-b862b5348b72","system_id":"levelo_inurba_marseille","lat":43.31886,"lon":5.40735,"is_reserved":false,"is_disabled":false,"rental_uris":{"android":"levelo://app?vid=b3dda8bf-2899-4bd5-8d7e-b862b5348b72","ios":"levelo://app?vid=b3dda8bf-2899-4bd5-8d7e-b862b5348b72"},"vehicle_type_id":"4","last_reported":1744428234,"current_range_meters":17200,"station_id":"ce4bhq12rcd13ifvqhig","pricing_plan_id":"cebpf4jnsgd1na2vs0mg"},{"bike_id":"61a3d5d1-9d16-4507-a934-21de523ba06e","system_id":"levelo_inurba_marseille","lat":43.29684,"lon":5.36747,"is_reserved":false,"is_disabled":false,"rental_uris":{"android":"levelo://app?vid=61a3d5d1-9d16-4507-a934-21de523ba06e","ios":"levelo://app?vid=61a3d5d1-9d16-4507-a934-21de523ba06e"},"vehicle_type_id":"4","last_reported":1744428234,"current_range_meters":17600,"station_id":"","pricing_plan_id":"cebpf4jnsgd1na2vs0mg"},{"bike_id":"2f08f388-8bf5-4764-ac6b-af318ddbcd1a","system_id":"levelo_inurba_marseille","lat":43.257197,"lon":5.410969,"is_reserved":false,"is_disabled":false,"rental_uris":{"android":"levelo://app?vid=2f08f388-8bf5-4764-ac6b-af318ddbcd1a","ios":"levelo://app?vid=2f08f388-8bf5-4764-ac6b-af318ddbcd1a"},"vehicle_type_id":"4","last_reported":1744428234,"current_range_meters":17600,"station_id":"ce4bhkp2rcd13ifvqgd0","pricing_plan_id":"cebpf4jnsgd1na2vs0mg"},{"bike_id":"4012a78d-eb1b-44d8-8c36-17909b4ca04e","system_id":"levelo_inurba_marseille","lat":43.31271,"lon":5.40182,"is_reserved":false,"is_disabled":false,"rental_uris":{"android":"levelo://app?vid=4012a78d-eb1b-44d8-8c36-17909b4ca04e","ios":"levelo://app?vid=4012a78d-eb1b-44d8-8c36-17909b4ca04e"},"vehicle_type_id":"4","last_reported":1744428234,"current_range_meters":17600,"station_id":"ce4bh092rcd13ifvqd30","pricing_plan_id":"cebpf4jnsgd1na2vs0mg"},{"bike_id":"7a1c7718-3d67-400c-a37f-8fe8284d6a44","system_id":"levelo_inurba_marseille","lat":43.303748,"lon":5.424836,"is_reserved":false,"is_disabled":false,"rental_uris":{"android":"levelo://app?vid=7a1c7718-3d67-400c-a37f-8fe8284d6a44","ios":"levelo://app?vid=7a1c7718-3d67-400c-a37f-8fe8284d6a44"},"vehicle_type_id":"4","last_reported":1744428234,"current_range_meters":17600,"station_id":"ce4bhoh2rcd13ifvqh6g","pricing_plan_id":"cebpf4jnsgd1na2vs0mg"},{"bike_id":"048de837-7464-4706-a095-e4bff09b9116","system_id":"levelo_inurba_marseille","lat":43.32334,"lon":5.40632,"is_reserved":false,"is_disabled":false,"rental_uris":{"android":"levelo://app?vid=048de837-7464-4706-a095-e4bff09b9116","ios":"levelo://app?vid=048de837-7464-4706-a095-e4bff09b9116"},"vehicle_type_id":"4","last_reported":1744428234,"current_range_meters":17600,"station_id":"ce4bhq92rcd13ifvqhjg","pricing_plan_id":"cebpf4jnsgd1na2vs0mg"},{"bike_id":"9ec83034-1f6f-44b9-9fc5-c54efb6768a8","system_id":"levelo_inurba_marseille","lat":43.262477,"lon":5.375828,"is_reserved":false,"is_disabled":true,"rental_uris":{"android":"levelo://app?vid=9ec83034-1f6f-44b9-9fc5-c54efb6768a8","ios":"levelo://app?vid=9ec83034-1f6f-44b9-9fc5-c54efb6768a8"},"vehicle_type_id":"4","last_reported":1744428234,"current_range_meters":17600,"station_id":"","pricing_plan_id":"cebpf4jnsgd1na2vs0mg"},{"bike_id":"d1862b2c-e49a-4253-8cb5-d4ccdbce3581","system_id":"levelo_inurba_marseille","lat":43.305999,"lon":5.393452,"is_reserved":false,"is_disabled":true,"rental_uris":{"android":"levelo://app?vid=d1862b2c-e49a-4253-8cb5-d4ccdbce3581","ios":"levelo://app?vid=d1862b2c-e49a-4253-8cb5-d4ccdbce3581"},"vehicle_type_id":"4","last_reported":1744428234,"current_range_meters":18000,"station_id":"ce4bh0p2rcd13ifvqd80","pricing_plan_id":"cebpf4jnsgd1na2vs0mg"},{"bike_id":"534b5b81-01fb-48e1-8332-0d13dec35f23","system_id":"levelo_inurba_marseille","lat":43.32338,"lon":5.40633,"is_reserved":false,"is_disabled":false,"rental_uris":{"android":"levelo://app?vid=534b5b81-01fb-48e1-8332-0d13dec35f23","ios":"levelo://app?vid=534b5b81-01fb-48e1-8332-0d13dec35f23"},"vehicle_type_id":"4","last_reported":1744428234,"current_range_meters":18000,"station_id":"ce4bhq92rcd13ifvqhjg","pricing_plan_id":"cebpf4jnsgd1na2vs0mg"},{"bike_id":"dc0fc37b-245c-4040-8686-f32b8a543409","system_id":"levelo_inurba_marseille","lat":43.24387,"lon":5.37043,"is_reserved":false,"is_disabled":false,"rental_uris":{"android":"levelo://app?vid=dc0fc37b-245c-4040-8686-f32b8a543409","ios":"levelo://app?vid=dc0fc37b-245c-4040-8686-f32b8a543409"},"vehicle_type_id":"4","last_reported":1744428234,"current_range_meters":18000,"station_id":"ce4bhhh2rcd13ifvqfk0","pricing_plan_id":"cebpf4jnsgd1na2vs0mg"},{"bike_id":"756f935e-2d26-4f8e-b1ec-0842359f0edd","system_id":"levelo_inurba_marseille","lat":43.27959,"lon":5.41065,"is_reserved":false,"is_disabled":false,"rental_uris":{"android":"levelo://app?vid=756f935e-2d26-4f8e-b1ec-0842359f0edd","ios":"levelo://app?vid=756f935e-2d26-4f8e-b1ec-0842359f0edd"},"vehicle_type_id":"4","last_reported":1744428234,"current_range_meters":18000,"station_id":"ce4bhnp2rcd13ifvqh0g","pricing_plan_id":"cebpf4jnsgd1na2vs0mg"},{"bike_id":"ce3e9bf4-fbb2-4004-835b-6d0ee5b7cbc8","system_id":"levelo_inurba_marseille","lat":43.275672,"lon":5.384209,"is_reserved":false,"is_disabled":false,"rental_uris":{"android":"levelo://app?vid=ce3e9bf4-fbb2-4004-835b-6d0ee5b7cbc8","ios":"levelo://app?vid=ce3e9bf4-fbb2-4004-835b-6d0ee5b7cbc8"},"vehicle_type_id":"4","last_reported":1744428234,"current_range_meters":18000,"station_id":"ce4bhh92rcd13ifvqfi0","pricing_plan_id":"cebpf4jnsgd1na2vs0mg"},{"bike_id":"0663e361-5ecb-4ca0-bfaa-c01a2f66fe21","system_id":"levelo_inurba_marseille","lat":43.31986,"lon":5.38149,"is_reserved":false,"is_disabled":false,"rental_uris":{"android":"levelo://app?vid=0663e361-5ecb-4ca0-bfaa-c01a2f66fe21","ios":"levelo://app?vid=0663e361-5ecb-4ca0-bfaa-c01a2f66fe21"},"vehicle_type_id":"4","last_reported":1744428234,"current_range_meters":18000,"station_id":"ce4bhr12rcd13ifvqhpg","pricing_plan_id":"cebpf4jnsgd1na2vs0mg"},{"bike_id":"ec13aa36-feb8-4fc6-a26e-70419bb84a9c","system_id":"levelo_inurba_marseille","lat":43.29284,"lon":5.40123,"is_reserved":false,"is_disabled":false,"rental_uris":{"android":"levelo://app?vid=ec13aa36-feb8-4fc6-a26e-70419bb84a9c","ios":"levelo://app?vid=ec13aa36-feb8-4fc6-a26e-70419bb84a9c"},"vehicle_type_id":"4","last_reported":1744428234,"current_range_meters":18000,"station_id":"ce4bh312rcd13ifvqdk0","pricing_plan_id":"cebpf4jnsgd1na2vs0mg"},{"bike_id":"020e9999-d552-48d0-ae5f-b725af0dbea2","system_id":"levelo_inurba_marseille","lat":43.299127,"lon":5.437649,"is_reserved":false,"is_disabled":false,"rental_uris":{"android":"levelo://app?vid=020e9999-d552-48d0-ae5f-b725af0dbea2","ios":"levelo://app?vid=020e9999-d552-48d0-ae5f-b725af0dbea2"},"vehicle_type_id":"4","last_reported":1744428234,"current_range_meters":18000,"station_id":"","pricing_plan_id":"cebpf4jnsgd1na2vs0mg"},{"bike_id":"9a259559-2d3a-4465-82d4-3e775e5d7792","system_id":"levelo_inurba_marseille","lat":43.2807,"lon":5.39636,"is_reserved":false,"is_disabled":false,"rental_uris":{"android":"levelo://app?vid=9a259559-2d3a-4465-82d4-3e775e5d7792","ios":"levelo://app?vid=9a259559-2d3a-4465-82d4-3e775e5d7792"},"vehicle_type_id":"4","last_reported":1744428234,"current_range_meters":18000,"station_id":"ce4bho12rcd13ifvqh2g","pricing_plan_id":"cebpf4jnsgd1na2vs0mg"},{"bike_id":"00e1b0bc-93df-4cb5-ad36-12fbcd55b784","system_id":"levelo_inurba_marseille","lat":43.28436,"lon":5.39179,"is_reserved":false,"is_disabled":false,"rental_uris":{"android":"levelo://app?vid=00e1b0bc-93df-4cb5-ad36-12fbcd55b784","ios":"levelo://app?vid=00e1b0bc-93df-4cb5-ad36-12fbcd55b784"},"vehicle_type_id":"4","last_reported":1744428234,"current_range_meters":18000,"station_id":"ce4bhoh2rcd13ifvqh5g","pricing_plan_id":"cebpf4jnsgd1na2vs0mg"},{"bike_id":"ada96123-4a85-4da3-b9bb-24c10c03dc16","system_id":"levelo_inurba_marseille","lat":43.29863,"lon":5.39735,"is_reserved":false,"is_disabled":false,"rental_uris":{"android":"levelo://app?vid=ada96123-4a85-4da3-b9bb-24c10c03dc16","ios":"levelo://app?vid=ada96123-4a85-4da3-b9bb-24c10c03dc16"},"vehicle_type_id":"4","last_reported":1744428234,"current_range_meters":18000,"station_id":"ce4bh0h2rcd13ifvqd50","pricing_plan_id":"cebpf4jnsgd1na2vs0mg"},{"bike_id":"c74b704f-bfb6-4424-b53d-f020e432e8a0","system_id":"levelo_inurba_marseille","lat":43.30936,"lon":5.40135,"is_reserved":false,"is_disabled":false,"rental_uris":{"android":"levelo://app?vid=c74b704f-bfb6-4424-b53d-f020e432e8a0","ios":"levelo://app?vid=c74b704f-bfb6-4424-b53d-f020e432e8a0"},"vehicle_type_id":"4","last_reported":1744428234,"current_range_meters":18000,"station_id":"ce4bgvp2rcd13ifvqct0","pricing_plan_id":"cebpf4jnsgd1na2vs0mg"},{"bike_id":"b5325a51-599c-4538-ad32-d93429c0575c","system_id":"levelo_inurba_marseille","lat":43.30615,"lon":5.37231,"is_reserved":false,"is_disabled":false,"rental_uris":{"android":"levelo://app?vid=b5325a51-599c-4538-ad32-d93429c0575c","ios":"levelo://app?vid=b5325a51-599c-4538-ad32-d93429c0575c"},"vehicle_type_id":"4","last_reported":1744428234,"current_range_meters":18000,"station_id":"ce4bgqh2rcd13ifvqc4g","pricing_plan_id":"cebpf4jnsgd1na2vs0mg"},{"bike_id":"74f20b53-2cb7-4b91-98f1-de444f9394fb","system_id":"levelo_inurba_marseille","lat":43.287173,"lon":5.39993,"is_reserved":false,"is_disabled":true,"rental_uris":{"android":"levelo://app?vid=74f20b53-2cb7-4b91-98f1-de444f9394fb","ios":"levelo://app?vid=74f20b53-2cb7-4b91-98f1-de444f9394fb"},"vehicle_type_id":"4","last_reported":1744428234,"current_range_meters":18000,"station_id":"ce4bho92rcd13ifvqh3g","pricing_plan_id":"cebpf4jnsgd1na2vs0mg"},{"bike_id":"ce0301ff-1f57-492e-b81f-cd8584c5196e","system_id":"levelo_inurba_marseille","lat":43.30212,"lon":5.39474,"is_reserved":false,"is_disabled":false,"rental_uris":{"android":"levelo://app?vid=ce0301ff-1f57-492e-b81f-cd8584c5196e","ios":"levelo://app?vid=ce0301ff-1f57-492e-b81f-cd8584c5196e"},"vehicle_type_id":"4","last_reported":1744428234,"current_range_meters":18800,"station_id":"ce4bh0p2rcd13ifvqd70","pricing_plan_id":"cebpf4jnsgd1na2vs0mg"},{"bike_id":"22533d8d-d762-4c31-8858-09371f99b421","system_id":"levelo_inurba_marseille","lat":43.29033,"lon":5.3758,"is_reserved":false,"is_disabled":false,"rental_uris":{"android":"levelo://app?vid=22533d8d-d762-4c31-8858-09371f99b421","ios":"levelo://app?vid=22533d8d-d762-4c31-8858-09371f99b421"},"vehicle_type_id":"4","last_reported":1744428234,"current_range_meters":18800,"station_id":"ce4bh692rcd13ifvqe90","pricing_plan_id":"cebpf4jnsgd1na2vs0mg"},{"bike_id":"b55dd5e7-54b2-4035-b945-7b626dd7afc7","system_id":"levelo_inurba_marseille","lat":43.27541,"lon":5.409354,"is_reserved":false,"is_disabled":false,"rental_uris":{"android":"levelo://app?vid=b55dd5e7-54b2-4035-b945-7b626dd7afc7","ios":"levelo://app?vid=b55dd5e7-54b2-4035-b945-7b626dd7afc7"},"vehicle_type_id":"4","last_reported":1744428234,"current_range_meters":18800,"station_id":"","pricing_plan_id":"cebpf4jnsgd1na2vs0mg"},{"bike_id":"1b4d684a-8525-4dcc-8d4b-0d7f1d3ab0a3","system_id":"levelo_inurba_marseille","lat":43.278503,"lon":5.384928,"is_reserved":false,"is_disabled":false,"rental_uris":{"android":"levelo://app?vid=1b4d684a-8525-4dcc-8d4b-0d7f1d3ab0a3","ios":"levelo://app?vid=1b4d684a-8525-4dcc-8d4b-0d7f1d3ab0a3"},"vehicle_type_id":"4","last_reported":1744428234,"current_range_meters":18800,"station_id":"","pricing_plan_id":"cebpf4jnsgd1na2vs0mg"},{"bike_id":"64f758b0-7bd0-4c35-9ffe-97bfb03c0db2","system_id":"levelo_inurba_marseille","lat":43.2884,"lon":5.39298,"is_reserved":false,"is_disabled":false,"rental_uris":{"android":"levelo://app?vid=64f758b0-7bd0-4c35-9ffe-97bfb03c0db2","ios":"levelo://app?vid=64f758b0-7bd0-4c35-9ffe-97bfb03c0db2"},"vehicle_type_id":"4","last_reported":1744428234,"current_range_meters":18000,"station_id":"ce4bh2p2rcd13ifvqdi0","pricing_plan_id":"cebpf4jnsgd1na2vs0mg"},