{"last_updated":1701407244,"ttl":30,"version":"2.2","data":{"bikes":[{"bike_id":"f7c86f2e-3d0c-4539-be9d-3162ed85a55c","system_id":"levelo_inurba_marseille","lat":43.313391,"lon":5.36706,"is_reserved":false,"is_disabled":false,"rental_uris":{"android":"levelo://app?vid=f7c86f2e-3d0c-4539-be9d-3162ed85a55c","ios":"levelo://app?vid=f7c86f2e-3d0c-4539-be9d-3162ed85a55c"},"vehicle_type_id":"4","last_reported":1701407244,"current_range_meters":31200,"station_id":"ce4bgr92rcd13ifvqc6g","pricing_plan_id":"free"},{"bike_id":"eda7fa08-1ad6-43de-985e-81a85214be05","system_id":"levelo_inurba_marseille","lat":43.313391,"lon":5.36706,"is_reserved":false,"is_disabled":false,"rental_uris":{"android":"levelo://app?vid=eda7fa08-1ad6-43de-985e-81a85214be05","ios":"levelo://app?vid=eda7fa08-1ad6-43de-985e-81a85214be05"},"vehicle_type_id":"4","last_reported":1701407244,"current_range_meters":28000,"station_id":"ce4bgr92rcd13ifvqc6g","pricing_plan_id":"free"},{"bike_id":"85ebfaaa-3017-45f3-906e-a6c2319c069c","system_id":"levelo_inurba_marseille","lat":43.308691,"lon":5.368525,"is_reserved":false,"is_disabled":false,"rental_uris":{"android":"levelo://app?vid=85ebfaaa-3017-45f3-906e-a6c2319c069c","ios":"levelo://app?vid=85ebfaaa-3017-45f3-906e-a6c2319c069c"},"vehicle_type_id":"4","last_reported":1701407244,"current_range_meters":12000,"station_id":"ce4bgn92rcd13ifvqbvg","pricing_plan_id":"free"},{"bike_id":"6f8eb1d5-a0bd-4851-b2b9-7bbde748ff94","system_id":"levelo_inurba_marseille","lat":43.314811,"lon":5.373103,"is_reserved":false,"is_disabled":false,"rental_uris":{"android":"levelo://app?vid=6f8eb1d5-a0bd-4851-b2b9-7bbde748ff94","ios":"levelo://app?vid=6f8eb1d5-a0bd-4851-b2b9-7bbde748ff94"},"vehicle_type_id":"4","last_reported":1701407244,"current_range_meters":22000,"station_id":"ce4bgt12rcd13ifvqcd0","pricing_plan_id":"free"},{"bike_id":"fcb7b767-15fd-4a5d-827a-4bb97f1898fc","system_id":"levelo_inurba_marseille","lat":43.314811,"lon":5.373103,"is_reserved":false,"is_disabled":false,"rental_uris":{"android":"levelo://app?vid=fcb7b767-15fd-4a5d-827a-4bb97f1898fc","ios":"levelo://app?vid=fcb7b767-15fd-4a5d-827a-4bb97f1898fc"},"vehicle_type_id":"4","last_reported":1701407244,"current_range_meters":20000,"station_id":"ce4bgt12rcd13ifvqcd0","pricing_plan_id":"free"},{"bike_id":"38ac72cf-81da-4b9d-8ab8-ea080484fa2f","system_id":"levelo_inurba_marseille","lat":43.30542,"lon":5.36728,"is_reserved":false,"is_disabled":false,"rental_uris":{"android":"levelo://app?vid=38ac72cf-81da-4b9d-8ab8-ea080484fa2f","ios":"levelo://app?vid=38ac72cf-81da-4b9d-8ab8-ea080484fa2f"},"vehicle_type_id":"4","last_reported":1701407244,"current_range_meters":26000,"station_id":"ce4bgrp2rcd13ifvqc9g","pricing_plan_id":"free"},{"bike_id":"3fc54c7f-1d40-42b0-b8c6-dba7b49e3345","system_id":"levelo_inurba_marseille","lat":43.305989,"lon":5.37225,"is_reserved":false,"is_disabled":false,"rental_uris":{"android":"levelo://app?vid=3fc54c7f-1d40-42b0-b8c6-dba7b49e3345","ios":"levelo://app?vid=3fc54c7f-1d40-42b0-b8c6-dba7b49e3345"},"vehicle_type_id":"4","last_reported":1701407244,"current_range_meters":30000,"station_id":"ce4bgqh2rcd13ifvqc4g","pricing_plan_id":"free"},{"bike_id":"2cdffb4e-d036-41ea-89a7-b2fff192ec8a","system_id":"levelo_inurba_marseille","lat":43.311125,"lon":5.377624,"is_reserved":false,"is_disabled":false,"rental_uris":{"android":"levelo://app?vid=2cdffb4e-d036-41ea-89a7-b2fff192ec8a","ios":"levelo://app?vid=2cdffb4e-d036-41ea-89a7-b2fff192ec8a"},"vehicle_type_id":"4","last_reported":1701407244,"current_range_meters":12000,"station_id":"ce4bgt92rcd13ifvqcg0","pricing_plan_id":"free"},{"bike_id":"1fa5b1d9-3d1d-45af-b062-e03bfddf52f4","system_id":"levelo_inurba_marseille","lat":43.311125,"lon":5.377624,"is_reserved":false,"is_disabled":false,"rental_uris":{"android":"levelo://app?vid=1fa5b1d9-3d1d-45af-b062-e03bfddf52f4","ios":"levelo://app?vid=1fa5b1d9-3d1d-45af-b062-e03bfddf52f4"},"vehicle_type_id":"4","last_reported":1701407244,"current_range_meters":30400,"station_id":"ce4bgt92rcd13ifvqcg0","pricing_plan_id":"free"},{"bike_id":"727d231a-d425-4d8f-ad3f-99b5a47572e8","system_id":"levelo_inurba_marseille","lat":43.30439,"lon":5.36753,"is_reserved":false,"is_disabled":false,"rental_uris":{"android":"levelo://app?vid=727d231a-d425-4d8f-ad3f-99b5a47572e8","ios":"levelo://app?vid=727d231a-d425-4d8f-ad3f-99b5a47572e8"},"vehicle_type_id":"4","last_reported":1701407244,"current_range_meters":29600,"station_id":"","pricing_plan_id":"free"},{"bike_id":"28b67163-d496-4d2f-a83c-ef6bda2c636e","system_id":"levelo_inurba_marseille","lat":43.308146,"lon":5.376581,"is_reserved":false,"is_disabled":false,"rental_uris":{"android":"levelo://app?vid=28b67163-d496-4d2f-a83c-ef6bda2c636e","ios":"levelo://app?vid=28b67163-d496-4d2f-a83c-ef6bda2c636e"},"vehicle_type_id":"4","last_reported":1701407244,"current_range_meters":2800,"station_id":"ce4bgv92rcd13ifvqcq0","pricing_plan_id":"free"},{"bike_id":"f427a2c3-6e4a-446b-ae2f-9be8aa7f4122","system_id":"levelo_inurba_marseille","lat":43.31719,"lon":5.376813,"is_reserved":false,"is_disabled":false,"rental_uris":{"android":"levelo://app?vid=f427a2c3-6e4a-446b-ae2f-9be8aa7f4122","ios":"levelo://app?vid=f427a2c3-6e4a-446b-ae2f-9be8aa7f4122"},"vehicle_type_id":"4","last_reported":1701407244,"current_range_meters":3200,"station_id":"ce4bgth2rcd13ifvqch0","pricing_plan_id":"free"},{"bike_id":"e913f328-1e31-4c22-bd87-f809ea246de4","system_id":"levelo_inurba_marseille","lat":43.317168,"lon":5.376883,"is_reserved":false,"is_disabled":false,"rental_uris":{"android":"levelo://app?vid=e913f328-1e31-4c22-bd87-f809ea246de4","ios":"levelo://app?vid=e913f328-1e31-4c22-bd87-f809ea246de4"},"vehicle_type_id":"4","last_reported":1701407244,"current_range_meters":5600,"station_id":"ce4bgth2rcd13ifvqch0","pricing_plan_id":"free"},{"bike_id":"1472dd3c-318e-4705-9847-d319e44e24ac","system_id":"levelo_inurba_marseille","lat":43.307945,"lon":5.376487,"is_reserved":false,"is_disabled":false,"rental_uris":{"android":"levelo://app?vid=1472dd3c-318e-4705-9847-d319e44e24ac","ios":"levelo://app?vid=1472dd3c-318e-4705-9847-d319e44e24ac"},"vehicle_type_id":"4","last_reported":1701407244,"current_range_meters":31200,"station_id":"ce4bgv92rcd13ifvqcq0","pricing_plan_id":"free"},{"bike_id":"b8e8a619-6d45-492f-944a-c0ccf1e63775","system_id":"levelo_inurba_marseille","lat":43.307945,"lon":5.376487,"is_reserved":false,"is_disabled":false,"rental_uris":{"android":"levelo://app?vid=b8e8a619-6d45-492f-944a-c0ccf1e63775","ios":"levelo://app?vid=b8e8a619-6d45-492f-944a-c0ccf1e63775"},"vehicle_type_id":"4","last_reported":1701407244,"current_range_meters":31200,"station_id":"ce4bgv92rcd13ifvqcq0","pricing_plan_id":"free"},{"bike_id":"9e5cd5bb-9665-43e5-a324-ea1a7ec8b6f8","system_id":"levelo_inurba_marseille","lat":43.307945,"lon":5.376487,"is_reserved":false,"is_disabled":false,"rental_uris":{"android":"levelo://app?vid=9e5cd5bb-9665-43e5-a324-ea1a7ec8b6f8","ios":"levelo://app?vid=9e5cd5bb-9665-43e5-a324-ea1a7ec8b6f8"},"vehicle_type_id":"4","last_reported":1701407244,"current_range_meters":31200,"station_id":"ce4bgv92rcd13ifvqcq0","pricing_plan_id":"free"},{"bike_id":"10fef5e5-3b10-49d6-abda-7e0064656bbb","system_id":"levelo_inurba_marseille","lat":43.317075,"lon":5.377367,"is_reserved":false,"is_disabled":false,"rental_uris":{"android":"levelo://app?vid=10fef5e5-3b10-49d6-abda-7e0064656bbb","ios":"levelo://app?vid=10fef5e5-3b10-49d6-abda-7e0064656bbb"},"vehicle_type_id":"4","last_reported":1701407244,"current_range_meters":27200,"station_id":"ce4bgth2rcd13ifvqch0","pricing_plan_id":"free"},{"bike_id":"914d24a3-f3d8-4a31-be66-aa0f8f7dfec9","system_id":"levelo_inurba_marseille","lat":43.303046,"lon":5.368981,"is_reserved":false,"is_disabled":false,"rental_uris":{"android":"levelo://app?vid=914d24a3-f3d8-4a31-be66-aa0f8f7dfec9","ios":"levelo://app?vid=914d24a3-f3d8-4a31-be66-aa0f8f7dfec9"},"vehicle_type_id":"4","last_reported":1701407244,"current_range_meters":25600,"station_id":"ce4bgqh2rcd13ifvqc5g","pricing_plan_id":"free"},{"bike_id":"b7356d4c-0db6-4e13-af7b-3a96604588b7","system_id":"levelo_inurba_marseille","lat":43.315309,"lon":5.380259,"is_reserved":false,"is_disabled":false,"rental_uris":{"android":"levelo://app?vid=b7356d4c-0db6-4e13-af7b-3a96604588b7","ios":"levelo://app?vid=b7356d4c-0db6-4e13-af7b-3a96604588b7"},"vehicle_type_id":"4","last_reported":1701407244,"current_range_meters":2800,"station_id":"ce4bhsp2rcd13ifvqi50","pricing_plan_id":"free"},{"bike_id":"a353da53-2844-47b1-b7b8-563a86bb4f14","system_id":"levelo_inurba_marseille","lat":43.315293,"lon":5.380349,"is_reserved":false,"is_disabled":false,"rental_uris":{"android":"levelo://app?vid=a353da53-2844-47b1-b7b8-563a86bb4f14","ios":"levelo://app?vid=a353da53-2844-47b1-b7b8-563a86bb4f14"},"vehicle_type_id":"4","last_reported":1701407244,"current_range_meters":22000,"station_id":"ce4bhsp2rcd13ifvqi50","pricing_plan_id":"free"},{"bike_id":"25786a37-cf25-44ce-a7d1-1424905994ad","system_id":"levelo_inurba_marseille","lat":43.308051,"lon":5.381513,"is_reserved":false,"is_disabled":false,"rental_uris":{"android":"levelo://app?vid=25786a37-cf25-44ce-a7d1-1424905994ad","ios":"levelo://app?vid=25786a37-cf25-44ce-a7d1-1424905994ad"},"vehicle_type_id":"4","last_reported":1701407244,"current_range_meters":6000,"station_id":"ce4bgt12rcd13ifvqce0","pricing_plan_id":"free"},{"bike_id":"4b22f555-5749-4ff1-ac1e-de51e8e9924f","system_id":"levelo_inurba_marseille","lat":43.30798,"lon":5.38152,"is_reserved":false,"is_disabled":false,"rental_uris":{"android":"levelo://app?vid=4b22f555-5749-4ff1-ac1e-de51e8e9924f","ios":"levelo://app?vid=4b22f555-5749-4ff1-ac1e-de51e8e9924f"},"vehicle_type_id":"4","last_reported":1701407244,"current_range_meters":800,"station_id":"ce4bgt12rcd13ifvqce0","pricing_plan_id":"free"},{"bike_id":"4ff7e3bd-24b6-41b0-8c5a-3e31a2e92f90","system_id":"levelo_inurba_marseille","lat":43.304606,"lon":5.379026,"is_reserved":false,"is_disabled":false,"rental_uris":{"android":"levelo://app?vid=4ff7e3bd-24b6-41b0-8c5a-3e31a2e92f90","ios":"levelo://app?vid=4ff7e3bd-24b6-41b0-8c5a-3e31a2e92f90"},"vehicle_type_id":"4","last_reported":1701407244,"current_range_meters":31200,"station_id":"ce4bgup2rcd13ifvqcn0","pricing_plan_id":"free"},{"bike_id":"126f41ec-e91f-45bb-a3d6-771304ba64a8","system_id":"levelo_inurba_marseille","lat":43.304606,"lon":5.379026,"is_reserved":false,"is_disabled":false,"rental_uris":{"android":"levelo://app?vid=126f41ec-e91f-45bb-a3d6-771304ba64a8","ios":"levelo://app?vid=126f41ec-e91f-45bb-a3d6-771304ba64a8"},"vehicle_type_id":"4","last_reported":1701407244,"current_range_meters":4400,"station_id":"ce4bgup2rcd13ifvqcn0","pricing_plan_id":"free"},{"bike_id":"7d29b552-0814-46c5-ab50-ed9c785b7d82","system_id":"levelo_inurba_marseille","lat":43.304606,"lon":5.379026,"is_reserved":false,"is_disabled":false,"rental_uris":{"android":"levelo://app?vid=7d29b552-0814-46c5-ab50-ed9c785b7d82","ios":"levelo://app?vid=7d29b552-0814-46c5-ab50-ed9c785b7d82"},"vehicle_type_id":"4","last_reported":1701407244,"current_range_meters":25200,"station_id":"ce4bgup2rcd13ifvqcn0","pricing_plan_id":"free"},{"bike_id":"6bff53ad-6daa-481c-a036-63fbfa5d5eac","system_id":"levelo_inurba_marseille","lat":43.304606,"lon":5.379026,"is_reserved":false,"is_disabled":false,"rental_uris":{"android":"levelo://app?vid=6bff53ad-6daa-481c-a036-63fbfa5d5eac","ios":"levelo://app?vid=6bff53ad-6daa-481c-a036-63fbfa5d5eac"},"vehicle_type_id":"4","last_reported":1701407244,"current_range_meters":18400,"station_id":"ce4bgup2rcd13ifvqcn0","pricing_plan_id":"free"},{"bike_id":"54102709-d40a-4a07-be13-4e690f637306","system_id":"levelo_inurba_marseille","lat":43.304606,"lon":5.379026,"is_reserved":false,"is_disabled":false,"rental_uris":{"android":"levelo://app?vid=54102709-d40a-4a07-be13-4e690f637306","ios":"levelo://app?vid=54102709-d40a-4a07-be13-4e690f637306"},"vehicle_type_id":"4","last_reported":1701407244,"current_range_meters":22400,"station_id":"ce4bgup2rcd13ifvqcn0","pricing_plan_id":"free"},{"bike_id":"94363c90-84bc-4415-a00d-9dc71a46942f","system_id":"levelo_inurba_marseille","lat":43.304606,"lon":5.379026,"is_reserved":false,"is_disabled":false,"rental_uris":{"android":"levelo://app?vid=94363c90-84bc-4415-a00d-9dc71a46942f","ios":"levelo://app?vid=94363c90-84bc-4415-a00d-9dc71a46942f"},"vehicle_type_id":"4","last_reported":1701407244,"current_range_meters":12000,"station_id":"ce4bgup2rcd13ifvqcn0","pricing_plan_id":"free"},{"bike_id":"46e16261-ae34-4ef3-bf0e-485782405f26","system_id":"levelo_inurba_marseille","lat":43.304606,"lon":5.379026,"is_reserved":false,"is_disabled":false,"rental_uris":{"android":"levelo://app?vid=46e16261-ae34-4ef3-bf0e-485782405f26","ios":"levelo://app?vid=46e16261-ae34-4ef3-bf0e-485782405f26"},"vehicle_type_id":"4","last_reported":1701407244,"current_range_meters":25200,"station_id":"ce4bgup2rcd13ifvqcn0","pricing_plan_id":"free"},{"bike_id":"16cac239-6a7f-469e-b61c-42639e74a247","system_id":"levelo_inurba_marseille","lat":43.302784,"lon":5.377158,"is_reserved":false,"is_disabled":false,"rental_uris":{"android":"levelo://app?vid=16cac239-6a7f-469e-b61c-42639e74a247","ios":"levelo://app?vid=16cac239-6a7f-469e-b61c-42639e74a247"},"vehicle_type_id":"4","last_reported":1701407244,"current_range_meters":26800,"station_id":"ce4bguh2rcd13ifvqcj0","pricing_plan_id":"free"},{"bike_id":"617624f7-67fb-443e-a8b0-9b9817b017d4","system_id":"levelo_inurba_marseille","lat":43.302784,"lon":5.377158,"is_reserved":false,"is_disabled":false,"rental_uris":{"android":"levelo://app?vid=617624f7-67fb-443e-a8b0-9b9817b017d4","ios":"levelo://app?vid=617624f7-67fb-443e-a8b0-9b9817b017d4"},"vehicle_type_id":"4","last_reported":1701407244,"current_range_meters":30800,"station_id":"ce4bguh2rcd13ifvqcj0","pricing_plan_id":"free"},{"bike_id":"68bd1b8e-0810-439e-bf52-cbf75242ae67","system_id":"levelo_inurba_marseille","lat":43.304606,"lon":5.379026,"is_reserved":false,"is_disabled":false,"rental_uris":{"android":"levelo://app?vid=68bd1b8e-0810-439e-bf52-cbf75242ae67","ios":"levelo://app?vid=68bd1b8e-0810-439e-bf52-cbf75242ae67"},"vehicle_type_id":"4","last_reported":1701407244,"current_range_meters":25200,"station_id":"ce4bgup2rcd13ifvqcn0","pricing_plan_id":"free"},{"bike_id":"a7ca3d4c-28e3-48b3-bafa-5cc2ba79900d","system_id":"levelo_inurba_marseille","lat":43.319935,"lon":5.381478,"is_reserved":false,"is_disabled":false,"rental_uris":{"android":"levelo://app?vid=a7ca3d4c-28e3-48b3-bafa-5cc2ba79900d","ios":"levelo://app?vid=a7ca3d4c-28e3-48b3-bafa-5cc2ba79900d"},"vehicle_type_id":"4","last_reported":1701407244,"current_range_meters":15200,"station_id":"ce4bhr12rcd13ifvqhpg","pricing_plan_id":"free"},{"bike_id":"3c307197-3ac8-4287-b052-043de935fdd4","system_id":"levelo_inurba_marseille","lat":43.319935,"lon":5.381699,"is_reserved":false,"is_disabled":false,"rental_uris":{"android":"levelo://app?vid=3c307197-3ac8-4287-b052-043de935fdd4","ios":"levelo://app?vid=3c307197-3ac8-4287-b052-043de935fdd4"},"vehicle_type_id":"4","last_reported":1701407244,"current_range_meters":6000,"station_id":"ce4bhr12rcd13ifvqhpg","pricing_plan_id":"free"},{"bike_id":"9a8c326a-2956-42d0-9bce-9c1da7b272ea","system_id":"levelo_inurba_marseille","lat":43.319935,"lon":5.381699,"is_reserved":false,"is_disabled":false,"rental_uris":{"android":"levelo://app?vid=9a8c326a-2956-42d0-9bce-9c1da7b272ea","ios":"levelo://app?vid=9a8c326a-2956-42d0-9bce-9c1da7b272ea"},"vehicle_type_id":"4","last_reported":1701407244,"current_range_meters":20000,"station_id":"ce4bhr12rcd13ifvqhpg","pricing_plan_id":"free"},{"bike_id":"2275aca5-3158-4c2c-8022-ca5d2714bc86","system_id":"levelo_inurba_marseille","lat":43.319997,"lon":5.381594,"is_reserved":false,"is_disabled":false,"rental_uris":{"android":"levelo://app?vid=2275aca5-3158-4c2c-8022-ca5d2714bc86","ios":"levelo://app?vid=2275aca5-3158-4c2c-8022-ca5d2714bc86"},"vehicle_type_id":"4","last_reported":1701407244,"current_range_meters":20400,"station_id":"ce4bhr12rcd13ifvqhpg","pricing_plan_id":"free"},{"bike_id":"72dcacfb-91e1-4c51-81ed-e191326091e3","system_id":"levelo_inurba_marseille","lat":43.313571,"lon":5.384829,"is_reserved":false,"is_disabled":false,"rental_uris":{"android":"levelo://app?vid=72dcacfb-91e1-4c51-81ed-e191326091e3","ios":"levelo://app?vid=72dcacfb-91e1-4c51-81ed-e191326091e3"},"vehicle_type_id":"4","last_reported":1701407244,"current_range_meters":28800,"station_id":"ce4bgt92rcd13ifvqcf0","pricing_plan_id":"free"},{"bike_id":"f9685f73-dc9d-4367-8765-ae9818630f3d","system_id":"levelo_inurba_marseille","lat":43.313571,"lon":5.384829,"is_reserved":false,"is_disabled":false,"rental_uris":{"android":"levelo://app?vid=f9685f73-dc9d-4367-8765-ae9818630f3d","ios":"levelo://app?vid=f9685f73-dc9d-4367-8765-ae9818630f3d"},"vehicle_type_id":"4","last_reported":1701407244,"current_range_meters":10000,"station_id":"ce4bgt92rcd13ifvqcf0","pricing_plan_id":"free"},{"bike_id":"d544024a-046c-483b-80a6-992b57c51146","system_id":"levelo_inurba_marseille","lat":43.313571,"lon":5.384829,"is_reserved":false,"is_disabled":false,"rental_uris":{"android":"levelo://app?vid=d544024a-046c-483b-80a6-992b57c51146","ios":"levelo://app?vid=d544024a-046c-483b-80a6-992b57c51146"},"vehicle_type_id":"4","last_reported":1701407244,"current_range_meters":22400,"station_id":"ce4bgt92rcd13ifvqcf0","pricing_plan_id":"free"},{"bike_id":"0ba77c30-9291-49bb-b311-6f1dc330eac3","system_id":"levelo_inurba_marseille","lat":43.313571,"lon":5.384829,"is_reserved":false,"is_disabled":false,"rental_uris":{"android":"levelo://app?vid=0ba77c30-9291-49bb-b311-6f1dc330eac3","ios":"levelo://app?vid=0ba77c30-9291-49bb-b311-6f1dc330eac3"},"vehicle_type_id":"4","last_reported":1701407244,"current_range_meters":26800,"station_id":"ce4bgt92rcd13ifvqcf0","pricing_plan_id":"free"},{"bike_id":"3a2c736c-458f-4b4d-94c9-c48303fb0b63","system_id":"levelo_inurba_marseille","lat":43.299724,"lon":5.371829,"is_reserved":false,"is_disabled":false,"rental_uris":{"android":"levelo://app?vid=3a2c736c-458f-4b4d-94c9-c48303fb0b63","ios":"levelo://app?vid=3a2c736c-458f-4b4d-94c9-c48303fb0b63"},"vehicle_type_id":"4","last_reported":1701407244,"current_range_meters":30400,"station_id":"ce4bgr92rcd13ifvqc7g","pricing_plan_id":"free"},{"bike_id":"4bd6cc8d-20de-467d-8fc8-9189bd9013ca","system_id":"levelo_inurba_marseille","lat":43.300653,"lon":5.375456,"is_reserved":false,"is_disabled":false,"rental_uris":{"android":"levelo://app?vid=4bd6cc8d-20de-467d-8fc8-9189bd9013ca","ios":"levelo://app?vid=4bd6cc8d-20de-467d-8fc8-9189bd9013ca"},"vehicle_type_id":"4","last_reported":1701407244,"current_range_meters":28000,"station_id":"","pricing_plan_id":"free"},{"bike_id":"46c23bf6-6122-44be-90b7-34eb6a1f5362","system_id":"levelo_inurba_marseille","lat":43.305364,"lon":5.384119,"is_reserved":false,"is_disabled":false,"rental_uris":{"android":"levelo://app?vid=46c23bf6-6122-44be-90b7-34eb6a1f5362","ios":"levelo://app?vid=46c23bf6-6122-44be-90b7-34eb6a1f5362"},"vehicle_type_id":"4","last_reported":1701407244,"current_range_meters":26400,"station_id":"ce4bgg92rcd13ifvqb30","pricing_plan_id":"free"},{"bike_id":"d887cc04-b56b-4c57-8fb3-156a6fc33f1a","system_id":"levelo_inurba_marseille","lat":43.311722,"lon":5.387247,"is_reserved":false,"is_disabled":false,"rental_uris":{"android":"levelo://app?vid=d887cc04-b56b-4c57-8fb3-156a6fc33f1a","ios":"levelo://app?vid=d887cc04-b56b-4c57-8fb3-156a6fc33f1a"},"vehicle_type_id":"4","last_reported":1701407244,"current_range_meters":32000,"station_id":"ce4bgv12rcd13ifvqcp0","pricing_plan_id":"free"},{"bike_id":"16999fd4-5626-449b-9ef8-9c72b1db697f","system_id":"levelo_inurba_marseille","lat":43.311722,"lon":5.387247,"is_reserved":false,"is_disabled":false,"rental_uris":{"android":"levelo://app?vid=16999fd4-5626-449b-9ef8-9c72b1db697f","ios":"levelo://app?vid=16999fd4-5626-449b-9ef8-9c72b1db697f"},"vehicle_type_id":"4","last_reported":1701407244,"current_range_meters":29200,"station_id":"ce4bgv12rcd13ifvqcp0","pricing_plan_id":"free"},{"bike_id":"3e486f75-13eb-4bff-96f3-fa29e51ddb26","system_id":"levelo_inurba_marseille","lat":43.311722,"lon":5.387247,"is_reserved":false,"is_disabled":false,"rental_uris":{"android":"levelo://app?vid=3e486f75-13eb-4bff-96f3-fa29e51ddb26","ios":"levelo://app?vid=3e486f75-13eb-4bff-96f3-fa29e51ddb26"},"vehicle_type_id":"4","last_reported":1701407244,"current_range_meters":31200,"station_id":"ce4bgv12rcd13ifvqcp0","pricing_plan_id":"free"},{"bike_id":"2a5124c6-6d8c-456e-9a72-4daa95a20d78","system_id":"levelo_inurba_marseille","lat":43.311722,"lon":5.387247,"is_reserved":false,"is_disabled":false,"rental_uris":{"android":"levelo://app?vid=2a5124c6-6d8c-456e-9a72-4daa95a20d78","ios":"levelo://app?vid=2a5124c6-6d8c-456e-9a72-4daa95a20d78"},"vehicle_type_id":"4","last_reported":1701407244,"current_range_meters":31600,"station_id":"ce4bgv12rcd13ifvqcp0","pricing_plan_id":"free"},{"bike_id":"689a6bd0-4836-483a-a333-92ee9c972efa","system_id":"levelo_inurba_marseille","lat":43.311722,"lon":5.387247,"is_reserved":false,"is_disabled":false,"rental_uris":{"android":"levelo://app?vid=689a6bd0-4836-483a-a333-92ee9c972efa","ios":"levelo://app?vid=689a6bd0-4836-483a-a333-92ee9c972efa"},"vehicle_type_id":"4","last_reported":1701407244,"current_range_meters":19600,"station_id":"ce4bgv12rcd13ifvqcp0","pricing_plan_id":"free"},{"bike_id":"aebb5f1f-3a1e-4323-a4f0-ae83e0b78d14","system_id":"levelo_inurba_marseille","lat":43.327603,"lon":5.36705,"is_reserved":false,"is_disabled":false,"rental_uris":{"android":"levelo://app?vid=aebb5f1f-3a1e-4323-a4f0-ae83e0b78d14","ios":"levelo://app?vid=aebb5f1f-3a1e-4323-a4f0-ae83e0b78d14"},"vehicle_type_id":"4","last_reported":1701407244,"current_range_meters":22000,"station_id":"","pricing_plan_id":"free"},{"bike_id":"c4c8a7d7-9fce-427e-ae2b-3824a057f460","system_id":"levelo_inurba_marseille","lat":43.297774,"lon":5.370875,"is_reserved":false,"is_disabled":false,"rental_uris":{"android":"levelo://app?vid=c4c8a7d7-9fce-427e-ae2b-3824a057f460","ios":"levelo://app?vid=c4c8a7d7-9fce-427e-ae2b-3824a057f460"},"vehicle_type_id":"4","last_reported":1701407244,"current_range_meters":27600,"station_id":"ce4bgop2rcd13ifvqc1g","pricing_plan_id":"free"},{"bike_id":"2484d89c-f06b-463b-bfb4-4415361ed078","system_id":"levelo_inurba_marseille","lat":43.328371,"lon":5.366909,"is_reserved":false,"is_disabled":false,"rental_uris":{"android":"levelo://app?vid=2484d89c-f06b-463b-bfb4-4415361ed078","ios":"levelo://app?vid=2484d89c-f06b-463b-bfb4-4415361ed078"},"vehicle_type_id":"4","last_reported":1701407244,"current_range_meters":21200,"station_id":"ce4bhs92rcd13ifvqi0g","pricing_plan_id":"free"},{"bike_id":"dd0ce71a-7b5a-4ce1-951e-9194a025d6c5","system_id":"levelo_inurba_marseille","lat":43.297163,"lon":5.365866,"is_reserved":false,"is_disabled":false,"rental_uris":{"android":"levelo://app?vid=dd0ce71a-7b5a-4ce1-951e-9194a025d6c5","ios":"levelo://app?vid=dd0ce71a-7b5a-4ce1-951e-9194a025d6c5"},"vehicle_type_id":"4","last_reported":1701407244,"current_range_meters":25600,"station_id":"ce4bgn12rcd13ifvqbt0","pricing_plan_id":"free"},{"bike_id":"5983625d-69f5-485f-a399-daec2999c965","system_id":"levelo_inurba_marseille","lat":43.321548,"lon":5.385701,"is_reserved":false,"is_disabled":false,"rental_uris":{"android":"levelo://app?vid=5983625d-69f5-485f-a399-daec2999c965","ios":"levelo://app?vid=5983625d-69f5-485f-a399-daec2999c965"},"vehicle_type_id":"4","last_reported":1701407244,"current_range_meters":7600,"station_id":"","pricing_plan_id":"free"},{"bike_id":"d068864e-3768-4cb7-8f2c-e01febcf4d60","system_id":"levelo_inurba_marseille","lat":43.296197,"lon":5.365081,"is_reserved":false,"is_disabled":false,"rental_uris":{"android":"levelo://app?vid=d068864e-3768-4cb7-8f2c-e01febcf4d60","ios":"levelo://app?vid=d068864e-3768-4cb7-8f2c-e01febcf4d60"},"vehicle_type_id":"4","last_reported":1701407244,"current_range_meters":9600,"station_id":"","pricing_plan_id":"free"},{"bike_id":"5d0951e6-1219-48d8-a0eb-8be9281f7239","system_id":"levelo_inurba_marseille","lat":43.29573,"lon":5.367355,"is_reserved":false,"is_disabled":false,"rental_uris":{"android":"levelo://app?vid=5d0951e6-1219-48d8-a0eb-8be9281f7239","ios":"levelo://app?vid=5d0951e6-1219-48d8-a0eb-8be9281f7239"},"vehicle_type_id":"4","last_reported":1701407244,"current_range_meters":30000,"station_id":"ce4bgph2rcd13ifvqc2g","pricing_plan_id":"free"},{"bike_id":"6c2371a4-4eef-4760-ba91-f8cdf7af9193","system_id":"levelo_inurba_marseille","lat":43.296921,"lon":5.376579,"is_reserved":false,"is_disabled":false,"rental_uris":{"android":"levelo://app?vid=6c2371a4-4eef-4760-ba91-f8cdf7af9193","ios":"levelo://app?vid=6c2371a4-4eef-4760-ba91-f8cdf7af9193"},"vehicle_type_id":"4","last_reported":1701407244,"current_range_meters":29600,"station_id":"ce4bgkh2rcd13ifvqbl0","pricing_plan_id":"free"},{"bike_id":"0f4ecab1-108d-42d2-9f33-62211b2cefe3","system_id":"levelo_inurba_marseille","lat":43.309589,"lon":5.390258,"is_reserved":false,"is_disabled":false,"rental_uris":{"android":"levelo://app?vid=0f4ecab1-108d-42d2-9f33-62211b2cefe3","ios":"levelo://app?vid=0f4ecab1-108d-42d2-9f33-62211b2cefe3"},"vehicle_type_id":"4","last_reported":1701407244,"current_range_meters":29600,"station_id":"ce4bgup2rcd13ifvqco0","pricing_plan_id":"free"},{"bike_id":"bedfbe8a-1e34-4bf9-a52b-5cee3895e249","system_id":"levelo_inurba_marseille","lat":43.317557,"lon":5.390173,"is_reserved":false,"is_disabled":false,"rental_uris":{"android":"levelo://app?vid=bedfbe8a-1e34-4bf9-a52b-5cee3895e249","ios":"levelo://app?vid=bedfbe8a-1e34-4bf9-a52b-5cee3895e249"},"vehicle_type_id":"4","last_reported":1701407244,"current_range_meters":31200,"station_id":"ce4bhqp2rcd13ifvqhng","pricing_plan_id":"free"},{"bike_id":"01f1a018-bd0c-4d0e-a63d-89b6ee548088","system_id":"levelo_inurba_marseille","lat":43.317557,"lon":5.390173,"is_reserved":false,"is_disabled":false,"rental_uris":{"android":"levelo://app?vid=01f1a018-bd0c-4d0e-a63d-89b6ee548088","ios":"levelo://app?vid=01f1a018-bd0c-4d0e-a63d-89b6ee548088"},"vehicle_type_id":"4","last_reported":1701407244,"current_range_meters":28000,"station_id":"ce4bhqp2rcd13ifvqhng","pricing_plan_id":"free"},{"bike_id":"72121378-a5a7-41f3-928f-9e15c2350373","system_id":"levelo_inurba_marseille","lat":43.317557,"lon":5.390173,"is_reserved":false,"is_disabled":false,"rental_uris":{"android":"levelo://app?vid=72121378-a5a7-41f3-928f-9e15c2350373","ios":"levelo://app?vid=72121378-a5a7-41f3-928f-9e15c2350373"},"vehicle_type_id":"4","last_reported":1701407244,"current_range_meters":26000,"station_id":"ce4bhqp2rcd13ifvqhng","pricing_plan_id":"free"},{"bike_id":"2a120c67-1661-4b61-adbc-19c4e5ad2994","system_id":"levelo_inurba_marseille","lat":43.299707,"lon":5.384859,"is_reserved":false,"is_disabled":false,"rental_uris":{"android":"levelo://app?vid=2a120c67-1661-4b61-adbc-19c4e5ad2994","ios":"levelo://app?vid=2a120c67-1661-4b61-adbc-19c4e5ad2994"},"vehicle_type_id":"4","last_reported":1701407244,"current_range_meters":27200,"station_id":"ce4bgj92rcd13ifvqbd0","pricing_plan_id":"free"},{"bike_id":"eaa0e7e7-2390-47fa-909b-7b240952cbef","system_id":"levelo_inurba_marseille","lat":43.319421,"lon":5.392098,"is_reserved":false,"is_disabled":false,"rental_uris":{"android":"levelo://app?vid=eaa0e7e7-2390-47fa-909b-7b240952cbef","ios":"levelo://app?vid=eaa0e7e7-2390-47fa-909b-7b240952cbef"},"vehicle_type_id":"4","last_reported":1701407244,"current_range_meters":19600,"station_id":"","pricing_plan_id":"free"},{"bike_id":"daad5bf0-c5e1-4719-87de-e9289709854c","system_id":"levelo_inurba_marseille","lat":43.308791,"lon":5.396196,"is_reserved":false,"is_disabled":false,"rental_uris":{"android":"levelo://app?vid=daad5bf0-c5e1-4719-87de-e9289709854c","ios":"levelo://app?vid=daad5bf0-c5e1-4719-87de-e9289709854c"},"vehicle_type_id":"4","last_reported":1701407244,"current_range_meters":25200,"station_id":"ce4bh012rcd13ifvqcv0","pricing_plan_id":"free"},{"bike_id":"39c172a7-89a2-4eed-a555-62b5bb19a35c","system_id":"levelo_inurba_marseille","lat":43.309038,"lon":5.396546,"is_reserved":false,"is_disabled":false,"rental_uris":{"android":"levelo://app?vid=39c172a7-89a2-4eed-a555-62b5bb19a35c","ios":"levelo://app?vid=39c172a7-89a2-4eed-a555-62b5bb19a35c"},"vehicle_type_id":"4","last_reported":1701407244,"current_range_meters":20800,"station_id":"ce4bh012rcd13ifvqcv0","pricing_plan_id":"free"},{"bike_id":"21d8b618-ada3-4754-92f8-c91f26f200bb","system_id":"levelo_inurba_marseille","lat":43.309047,"lon":5.396551,"is_reserved":false,"is_disabled":false,"rental_uris":{"android":"levelo://app?vid=21d8b618-ada3-4754-92f8-c91f26f200bb","ios":"levelo://app?vid=21d8b618-ada3-4754-92f8-c91f26f200bb"},"vehicle_type_id":"4","last_reported":1701407244,"current_range_meters":31600,"station_id":"ce4bh012rcd13ifvqcv0","pricing_plan_id":"free"},{"bike_id":"b0e4a12f-5454-4763-8901-0f49046fd84b","system_id":"levelo_inurba_marseille","lat":43.309038,"lon":5.396546,"is_reserved":false,"is_disabled":false,"rental_uris":{"android":"levelo://app?vid=b0e4a12f-5454-4763-8901-0f49046fd84b","ios":"levelo://app?vid=b0e4a12f-5454-4763-8901-0f49046fd84b"},"vehicle_type_id":"4","last_reported":1701407244,"current_range_meters":31200,"station_id":"ce4bh012rcd13ifvqcv0","pricing_plan_id":"free"},{"bike_id":"9e4817d7-4aaa-4b3a-8029-46f78cc83660","system_id":"levelo_inurba_marseille","lat":43.313267,"lon":5.396888,"is_reserved":false,"is_disabled":false,"rental_uris":{"android":"levelo://app?vid=9e4817d7-4aaa-4b3a-8029-46f78cc83660","ios":"levelo://app?vid=9e4817d7-4aaa-4b3a-8029-46f78cc83660"},"vehicle_type_id":"4","last_reported":1701407244,"current_range_meters":4400,"station_id":"ce4bgvp2rcd13ifvqcu0","pricing_plan_id":"free"},{"bike_id":"0116258c-2efa-449c-ac91-639c596b2bdb","system_id":"levelo_inurba_marseille","lat":43.309047,"lon":5.396551,"is_reserved":false,"is_disabled":false,"rental_uris":{"android":"levelo://app?vid=0116258c-2efa-449c-ac91-639c596b2bdb","ios":"levelo://app?vid=0116258c-2efa-449c-ac91-639c596b2bdb"},"vehicle_type_id":"4","last_reported":1701407244,"current_range_meters":2000,"station_id":"ce4bh012rcd13ifvqcv0","pricing_plan_id":"free"},{"bike_id":"6ce841e3-18c9-4cb5-8aa0-416805308a49","system_id":"levelo_inurba_marseille","lat":43.313298,"lon":5.3969,"is_reserved":false,"is_disabled":false,"rental_uris":{"android":"levelo://app?vid=6ce841e3-18c9-4cb5-8aa0-416805308a49","ios":"levelo://app?vid=6ce841e3-18c9-4cb5-8aa0-416805308a49"},"vehicle_type_id":"4","last_reported":1701407244,"current_range_meters":0,"station_id":"ce4bgvp2rcd13ifvqcu0","pricing_plan_id":"free"},{"bike_id":"577ec1e7-9d75-4115-a4d6-e081f5f9e880","system_id":"levelo_inurba_marseille","lat":43.309047,"lon":5.396551,"is_reserved":false,"is_disabled":false,"rental_uris":{"android":"levelo://app?vid=577ec1e7-9d75-4115-a4d6-e081f5f9e880","ios":"levelo://app?vid=577ec1e7-9d75-4115-a4d6-e081f5f9e880"},"vehicle_type_id":"4","last_reported":1701407244,"current_range_meters":17600,"station_id":"ce4bh012rcd13ifvqcv0","pricing_plan_id":"free"},{"bike_id":"003e3848-9a2d-4a03-b685-53c7efbce624","system_id":"levelo_inurba_marseille","lat":43.313291,"lon":5.396838,"is_reserved":false,"is_disabled":false,"rental_uris":{"android":"levelo://app?vid=003e3848-9a2d-4a03-b685-53c7efbce624","ios":"levelo://app?vid=003e3848-9a2d-4a03-b685-53c7efbce624"},"vehicle_type_id":"4","last_reported":1701407244,"current_range_meters":28400,"station_id":"ce4bgvp2rcd13ifvqcu0","pricing_plan_id":"free"},{"bike_id":"849bd07f-b33f-4961-ac84-d84ea6c847e7","system_id":"levelo_inurba_marseille","lat":43.313281,"lon":5.39693,"is_reserved":false,"is_disabled":false,"rental_uris":{"android":"levelo://app?vid=849bd07f-b33f-4961-ac84-d84ea6c847e7","ios":"levelo://app?vid=849bd07f-b33f-4961-ac84-d84ea6c847e7"},"vehicle_type_id":"4","last_reported":1701407244,"current_range_meters":22400,"station_id":"ce4bgvp2rcd13ifvqcu0","pricing_plan_id":"free"},{"bike_id":"eda3730c-aa8d-4b2a-9043-6f9cb2628f30","system_id":"levelo_inurba_marseille","lat":43.3133,"lon":5.39695,"is_reserved":false,"is_disabled":false,"rental_uris":{"android":"levelo://app?vid=eda3730c-aa8d-4b2a-9043-6f9cb2628f30","ios":"levelo://app?vid=eda3730c-aa8d-4b2a-9043-6f9cb2628f30"},"vehicle_type_id":"4","last_reported":1701407244,"current_range_meters":15600,"station_id":"ce4bgvp2rcd13ifvqcu0","pricing_plan_id":"free"},{"bike_id":"b66f6ce2-5f1b-4e8d-a0e3-a0271983c888","system_id":"levelo_inurba_marseille","lat":43.309047,"lon":5.396551,"is_reserved":false,"is_disabled":false,"rental_uris":{"android":"levelo://app?vid=b66f6ce2-5f1b-4e8d-a0e3-a0271983c888","ios":"levelo://app?vid=b66f6ce2-5f1b-4e8d-a0e3-a0271983c888"},"vehicle_type_id":"4","last_reported":1701407244,"current_range_meters":1200,"station_id":"ce4bh012rcd13ifvqcv0","pricing_plan_id":"free"},{"bike_id":"f0dd45b3-f13c-4a3b-bdd5-be0672e5a3b8","system_id":"levelo_inurba_marseille","lat":43.30885,"lon":5.39648,"is_reserved":false,"is_disabled":false,"rental_uris":{"android":"levelo://app?vid=f0dd45b3-f13c-4a3b-bdd5-be0672e5a3b8","ios":"levelo://app?vid=f0dd45b3-f13c-4a3b-bdd5-be0672e5a3b8"},"vehicle_type_id":"4","last_reported":1701407244,"current_range_meters":2800,"station_id":"ce4bh012rcd13ifvqcv0","pricing_plan_id":"free"},{"bike_id":"e4640747-17b8-4b10-9bf0-8dbc490e496f","system_id":"levelo_inurba_marseille","lat":43.313291,"lon":5.396838,"is_reserved":false,"is_disabled":false,"rental_uris":{"android":"levelo://app?vid=e4640747-17b8-4b10-9bf0-8dbc490e496f","ios":"levelo://app?vid=e4640747-17b8-4b10-9bf0-8dbc490e496f"},"vehicle_type_id":"4","last_reported":1701407244,"current_range_meters":7200,"station_id":"ce4bgvp2rcd13ifvqcu0","pricing_plan_id":"free"},{"bike_id":"729d4a1f-ed1c-4f43-813c-0f6371989f34","system_id":"levelo_inurba_marseille","lat":43.309047,"lon":5.396551,"is_reserved":false,"is_disabled":false,"rental_uris":{"android":"levelo://app?vid=729d4a1f-ed1c-4f43-813c-0f6371989f34","ios":"levelo://app?vid=729d4a1f-ed1c-4f43-813c-0f6371989f34"},"vehicle_type_id":"4","last_reported":1701407244,"current_range_meters":4400,"station_id":"ce4bh012rcd13ifvqcv0","pricing_plan_id":"free"},{"bike_id":"1030dc2d-bfd2-4312-ac99-d674ae5b505a","system_id":"levelo_inurba_marseille","lat":43.31327,"lon":5.397,"is_reserved":false,"is_disabled":false,"rental_uris":{"android":"levelo://app?vid=1030dc2d-bfd2-4312-ac99-d674ae5b505a","ios":"levelo://app?vid=1030dc2d-bfd2-4312-ac99-d674ae5b505a"},"vehicle_type_id":"4","last_reported":1701407244,"current_range_meters":10400,"station_id":"ce4bgvp2rcd13ifvqcu0","pricing_plan_id":"free"},{"bike_id":"18fb7537-fba2-4f74-88c9-f4b7e3a8d477","system_id":"levelo_inurba_marseille","lat":43.313291,"lon":5.396838,"is_reserved":false,"is_disabled":false,"rental_uris":{"android":"levelo://app?vid=18fb7537-fba2-4f74-88c9-f4b7e3a8d477","ios":"levelo://app?vid=18fb7537-fba2-4f74-88c9-f4b7e3a8d477"},"vehicle_type_id":"4","last_reported":1701407244,"current_range_meters":0,"station_id":"ce4bgvp2rcd13ifvqcu0","pricing_plan_id":"free"},{"bike_id":"2d332350-c46e-4f65-a65b-7ad42fc0c0f1","system_id":"levelo_inurba_marseille","lat":43.309038,"lon":5.396546,"is_reserved":false,"is_disabled":false,"rental_uris":{"android":"levelo://app?vid=2d332350-c46e-4f65-a65b-7ad42fc0c0f1","ios":"levelo://app?vid=2d332350-c46e-4f65-a65b-7ad42fc0c0f1"},"vehicle_type_id":"4","last_reported":1701407244,"current_range_meters":26000,"station_id":"ce4bh012rcd13ifvqcv0","pricing_plan_id":"free"},{"bike_id":"1b94a06a-7c8e-4b28-892c-93c895209b4e","system_id":"levelo_inurba_marseille","lat":43.29046,"lon":5.359134,"is_reserved":false,"is_disabled":false,"rental_uris":{"android":"levelo://app?vid=1b94a06a-7c8e-4b28-892c-93c895209b4e","ios":"levelo://app?vid=1b94a06a-7c8e-4b28-892c-93c895209b4e"},"vehicle_type_id":"4","last_reported":1701407244,"current_range_meters":26000,"station_id":"ce4bha92rcd13ifvqeg0","pricing_plan_id":"free"},{"bike_id":"f8671599-e8d9-47cb-b370-d5af96f541af","system_id":"levelo_inurba_marseille","lat":43.29043,"lon":5.359075,"is_reserved":false,"is_disabled":false,"rental_uris":{"android":"levelo://app?vid=f8671599-e8d9-47cb-b370-d5af96f541af","ios":"levelo://app?vid=f8671599-e8d9-47cb-b370-d5af96f541af"},"vehicle_type_id":"4","last_reported":1701407244,"current_range_meters":28400,"station_id":"ce4bha92rcd13ifvqeg0","pricing_plan_id":"free"},{"bike_id":"dc49844e-a1fc-49cd-9b36-2581cda011a9","system_id":"levelo_inurba_marseille","lat":43.289468,"lon":5.363719,"is_reserved":false,"is_disabled":false,"rental_uris":{"android":"levelo://app?vid=dc49844e-a1fc-49cd-9b36-2581cda011a9","ios":"levelo://app?vid=dc49844e-a1fc-49cd-9b36-2581cda011a9"},"vehicle_type_id":"4","last_reported":1701407244,"current_range_meters":28000,"station_id":"ce4bhc92rcd13ifvqetg","pricing_plan_id":"free"},{"bike_id":"50b936ad-569e-43ac-87c0-e8a3a79ea710","system_id":"levelo_inurba_marseille","lat":43.304274,"lon":5.397513,"is_reserved":false,"is_disabled":false,"rental_uris":{"android":"levelo://app?vid=50b936ad-569e-43ac-87c0-e8a3a79ea710","ios":"levelo://app?vid=50b936ad-569e-43ac-87c0-e8a3a79ea710"},"vehicle_type_id":"4","last_reported":1701407244,"current_range_meters":29600,"station_id":"ce4bh092rcd13ifvqd20","pricing_plan_id":"free"},{"bike_id":"7033b348-e656-4361-bd29-a88e2ca6b4d6","system_id":"levelo_inurba_marseille","lat":43.290104,"lon":5.356111,"is_reserved":false,"is_disabled":false,"rental_uris":{"android":"levelo://app?vid=7033b348-e656-4361-bd29-a88e2ca6b4d6","ios":"levelo://app?vid=7033b348-e656-4361-bd29-a88e2ca6b4d6"},"vehicle_type_id":"4","last_reported":1701407244,"current_range_meters":25200,"station_id":"ce4bhb92rcd13ifvqen0","pricing_plan_id":"free"},{"bike_id":"433c11ae-8306-4bbf-850d-086e9b9b8b2e","system_id":"levelo_inurba_marseille","lat":43.2909,"lon":5.381212,"is_reserved":false,"is_disabled":false,"rental_uris":{"android":"levelo://app?vid=433c11ae-8306-4bbf-850d-086e9b9b8b2e","ios":"levelo://app?vid=433c11ae-8306-4bbf-850d-086e9b9b8b2e"},"vehicle_type_id":"4","last_reported":1701407244,"current_range_meters":16400,"station_id":"ce4bh512rcd13ifvqe2g","pricing_plan_id":"free"},{"bike_id":"c5afdc7f-d1cb-4a5f-a90a-bc17324228fc","system_id":"levelo_inurba_marseille","lat":43.297815,"lon":5.393548,"is_reserved":false,"is_disabled":false,"rental_uris":{"android":"levelo://app?vid=c5afdc7f-d1cb-4a5f-a90a-bc17324228fc","ios":"levelo://app?vid=c5afdc7f-d1cb-4a5f-a90a-bc17324228fc"},"vehicle_type_id":"4","last_reported":1701407244,"current_range_meters":28400,"station_id":"chh1huq6cuj3fo74tm60","pricing_plan_id":"free"},{"bike_id":"8f39f328-8673-411a-a45b-daae3b0a7648","system_id":"levelo_inurba_marseille","lat":43.295371,"lon":5.390792,"is_reserved":false,"is_disabled":false,"rental_uris":{"android":"levelo://app?vid=8f39f328-8673-411a-a45b-daae3b0a7648","ios":"levelo://app?vid=8f39f328-8673-411a-a45b-daae3b0a7648"},"vehicle_type_id":"4","last_reported":1701407244,"current_range_meters":2400,"station_id":"ce4bh3p2rcd13ifvqdp0","pricing_plan_id":"free"},{"bike_id":"7535eaed-f428-4465-83a1-90fbb47ae0ae","system_id":"levelo_inurba_marseille","lat":43.309344,"lon":5.401353,"is_reserved":false,"is_disabled":false,"rental_uris":{"android":"levelo://app?vid=7535eaed-f428-4465-83a1-90fbb47ae0ae","ios":"levelo://app?vid=7535eaed-f428-4465-83a1-90fbb47ae0ae"},"vehicle_type_id":"4","last_reported":1701407244,"current_range_meters":10400,"station_id":"ce4bgvp2rcd13ifvqct0","pricing_plan_id":"free"},{"bike_id":"08c92996-1334-49ff-a9bf-b4a10f64fd17","system_id":"levelo_inurba_marseille","lat":43.31281,"lon":5.40168,"is_reserved":false,"is_disabled":false,"rental_uris":{"android":"levelo://app?vid=08c92996-1334-49ff-a9bf-b4a10f64fd17","ios":"levelo://app?vid=08c92996-1334-49ff-a9bf-b4a10f64fd17"},"vehicle_type_id":"4","last_reported":1701407244,"current_range_meters":17200,"station_id":"ce4bh092rcd13ifvqd30","pricing_plan_id":"free"},{"bike_id":"a2c112a6-58e1-4e8b-8be8-80d2c9d8d3d7","system_id":"levelo_inurba_marseille","lat":43.31265,"lon":5.401699,"is_reserved":false,"is_disabled":false,"rental_uris":{"android":"levelo://app?vid=a2c112a6-58e1-4e8b-8be8-80d2c9d8d3d7","ios":"levelo://app?vid=a2c112a6-58e1-4e8b-8be8-80d2c9d8d3d7"},"vehicle_type_id":"4","last_reported":1701407244,"current_range_meters":15600,"station_id":"","pricing_plan_id":"free"},{"bike_id":"de117050-8bd5-4e62-8beb-ea605b189848","system_id":"levelo_inurba_marseille","lat":43.30642,"lon":5.401031,"is_reserved":false,"is_disabled":false,"rental_uris":{"android":"levelo://app?vid=de117050-8bd5-4e62-8beb-ea605b189848","ios":"levelo://app?vid=de117050-8bd5-4e62-8beb-ea605b189848"},"vehicle_type_id":"4","last_reported":1701407244,"current_range_meters":29600,"station_id":"ce4bh112rcd13ifvqda0","pricing_plan_id":"free"},{"bike_id":"fd3d1981-b606-41f6-8603-56a8571b0bd5","system_id":"levelo_inurba_marseille","lat":43.30642,"lon":5.401031,"is_reserved":false,"is_disabled":false,"rental_uris":{"android":"levelo://app?vid=fd3d1981-b606-41f6-8603-56a8571b0bd5","ios":"levelo://app?vid=fd3d1981-b606-41f6-8603-56a8571b0bd5"},"vehicle_type_id":"4","last_reported":1701407244,"current_range_meters":28000,"station_id":"ce4bh112rcd13ifvqda0","pricing_plan_id":"free"},{"bike_id":"75b8326e-c5b2-4adb-bbf9-7f730664ad36","system_id":"levelo_inurba_marseille","lat":43.3093,"lon":5.40152,"is_reserved":false,"is_disabled":false,"rental_uris":{"android":"levelo://app?vid=75b8326e-c5b2-4adb-bbf9-7f730664ad36","ios":"levelo://app?vid=75b8326e-c5b2-4adb-bbf9-7f730664ad36"},"vehicle_type_id":"4","last_reported":1701407244,"current_range_meters":22400,"station_id":"ce4bgvp2rcd13ifvqct0","pricing_plan_id":"free"},{"bike_id":"401debdc-028b-49f0-96ac-7f14f29d7ae3","system_id":"levelo_inurba_marseille","lat":43.306412,"lon":5.401035,"is_reserved":false,"is_disabled":false,"rental_uris":{"android":"levelo://app?vid=401debdc-028b-49f0-96ac-7f14f29d7ae3","ios":"levelo://app?vid=401debdc-028b-49f0-96ac-7f14f29d7ae3"},"vehicle_type_id":"4","last_reported":1701407244,"current_range_meters":31600,"station_id":"ce4bh112rcd13ifvqda0","pricing_plan_id":"free"},{"bike_id":"637ab514-70ce-4fe6-8c27-a80254d9c341","system_id":"levelo_inurba_marseille","lat":43.306412,"lon":5.401035,"is_reserved":false,"is_disabled":false,"rental_uris":{"android":"levelo://app?vid=637ab514-70ce-4fe6-8c27-a80254d9c341","ios":"levelo://app?vid=637ab514-70ce-4fe6-8c27-a80254d9c341"},"vehicle_type_id":"4","last_reported":1701407244,"current_range_meters":24000,"station_id":"ce4bh112rcd13ifvqda0","pricing_plan_id":"free"},{"bike_id":"e1b8c351-445d-4946-96c0-2bc97d55d935","system_id":"levelo_inurba_marseille","lat":43.301117,"lon":5.398795,"is_reserved":false,"is_disabled":false,"rental_uris":{"android":"levelo://app?vid=e1b8c351-445d-4946-96c0-2bc97d55d935","ios":"levelo://app?vid=e1b8c351-445d-4946-96c0-2bc97d55d935"},"vehicle_type_id":"4","last_reported":1701407244,"current_range_meters":29600,"station_id":"ce4bh0h2rcd13ifvqd40","pricing_plan_id":"free"},{"bike_id":"f0b62317-80a8-4e72-a32b-c493ad8bd6c3","system_id":"levelo_inurba_marseille","lat":43.28727,"lon":5.36078,"is_reserved":false,"is_disabled":false,"rental_uris":{"android":"levelo://app?vid=f0b62317-80a8-4e72-a32b-c493ad8bd6c3","ios":"levelo://app?vid=f0b62317-80a8-4e72-a32b-c493ad8bd6c3"},"vehicle_type_id":"4","last_reported":1701407244,"current_range_meters":28800,"station_id":"cki0cbj6b192h4jlfktg","pricing_plan_id":"free"},{"bike_id":"893909e0-073b-4941-8588-c74be12a8858","system_id":"levelo_inurba_marseille","lat":43.287278,"lon":5.360825,"is_reserved":false,"is_disabled":false,"rental_uris":{"android":"levelo://app?vid=893909e0-073b-4941-8588-c74be12a8858","ios":"levelo://app?vid=893909e0-073b-4941-8588-c74be12a8858"},"vehicle_type_id":"4","last_reported":1701407244,"current_range_meters":12000,"station_id":"cki0cbj6b192h4jlfktg","pricing_plan_id":"free"},{"bike_id":"2210b1ba-7d52-4736-986b-ce4e0f32607c","system_id":"levelo_inurba_marseille","lat":43.28728,"lon":5.360801,"is_reserved":false,"is_disabled":false,"rental_uris":{"android":"levelo://app?vid=2210b1ba-7d52-4736-986b-ce4e0f32607c","ios":"levelo://app?vid=2210b1ba-7d52-4736-986b-ce4e0f32607c"},"vehicle_type_id":"4","last_reported":1701407244,"current_range_meters":18000,"station_id":"cki0cbj6b192h4jlfktg","pricing_plan_id":"free"},{"bike_id":"7cec73a3-273f-4b34-a160-9f7190a42704","system_id":"levelo_inurba_marseille","lat":43.28727,"lon":5.36078,"is_reserved":false,"is_disabled":false,"rental_uris":{"android":"levelo://app?vid=7cec73a3-273f-4b34-a160-9f7190a42704","ios":"levelo://app?vid=7cec73a3-273f-4b34-a160-9f7190a42704"},"vehicle_type_id":"4","last_reported":1701407244,"current_range_meters":28400,"station_id":"cki0cbj6b192h4jlfktg","pricing_plan_id":"free"},{"bike_id":"f950ad11-18dd-44f1-b288-cb9023e1b65f","system_id":"levelo_inurba_marseille","lat":43.287227,"lon":5.360814,"is_reserved":false,"is_disabled":false,"rental_uris":{"android":"levelo://app?vid=f950ad11-18dd-44f1-b288-cb9023e1b65f","ios":"levelo://app?vid=f950ad11-18dd-44f1-b288-cb9023e1b65f"},"vehicle_type_id":"4","last_reported":1701407244,"current_range_meters":24400,"station_id":"cki0cbj6b192h4jlfktg","pricing_plan_id":"free"},{"bike_id":"246292a8-49c4-4e1d-913d-f78fdc8f52ea","system_id":"levelo_inurba_marseille","lat":43.28722,"lon":5.360815,"is_reserved":false,"is_disabled":false,"rental_uris":{"android":"levelo://app?vid=246292a8-49c4-4e1d-913d-f78fdc8f52ea","ios":"levelo://app?vid=246292a8-49c4-4e1d-913d-f78fdc8f52ea"},"vehicle_type_id":"4","last_reported":1701407244,"current_range_meters":25200,"station_id":"cki0cbj6b192h4jlfktg","pricing_plan_id":"free"},{"bike_id":"d7b73794-d79c-4c78-ab5c-8024c29078ea","system_id":"levelo_inurba_marseille","lat":43.28718,"lon":5.36093,"is_reserved":false,"is_disabled":false,"rental_uris":{"android":"levelo://app?vid=d7b73794-d79c-4c78-ab5c-8024c29078ea","ios":"levelo://app?vid=d7b73794-d79c-4c78-ab5c-8024c29078ea"},"vehicle_type_id":"4","last_reported":1701407244,"current_range_meters":26000,"station_id":"cki0cbj6b192h4jlfktg","pricing_plan_id":"free"},{"bike_id":"bdb81330-23ad-4b52-864a-6a12c4a5a52b","system_id":"levelo_inurba_marseille","lat":43.286593,"lon":5.363346,"is_reserved":false,"is_disabled":false,"rental_uris":{"android":"levelo://app?vid=bdb81330-23ad-4b52-864a-6a12c4a5a52b","ios":"levelo://app?vid=bdb81330-23ad-4b52-864a-6a12c4a5a52b"},"vehicle_type_id":"4","last_reported":1701407244,"current_range_meters":31200,"station_id":"ce4bhah2rcd13ifvqej0","pricing_plan_id":"free"},{"bike_id":"2ab88e44-eb99-4e65-b98d-270d0f59333f","system_id":"levelo_inurba_marseille","lat":43.286591,"lon":5.363346,"is_reserved":false,"is_disabled":false,"rental_uris":{"android":"levelo://app?vid=2ab88e44-eb99-4e65-b98d-270d0f59333f","ios":"levelo://app?vid=2ab88e44-eb99-4e65-b98d-270d0f59333f"},"vehicle_type_id":"4","last_reported":1701407244,"current_range_meters":31200,"station_id":"ce4bhah2rcd13ifvqej0","pricing_plan_id":"free"},{"bike_id":"c065e889-39ea-4222-a682-89ea3d5cc014","system_id":"levelo_inurba_marseille","lat":43.286593,"lon":5.363346,"is_reserved":false,"is_disabled":false,"rental_uris":{"android":"levelo://app?vid=c065e889-39ea-4222-a682-89ea3d5cc014","ios":"levelo://app?vid=c065e889-39ea-4222-a682-89ea3d5cc014"},"vehicle_type_id":"4","last_reported":1701407244,"current_range_meters":20800,"station_id":"ce4bhah2rcd13ifvqej0","pricing_plan_id":"free"},{"bike_id":"d6810763-5071-4f23-8495-866a604692b6","system_id":"levelo_inurba_marseille","lat":43.286961,"lon":5.373785,"is_reserved":false,"is_disabled":false,"rental_uris":{"android":"levelo://app?vid=d6810763-5071-4f23-8495-866a604692b6","ios":"levelo://app?vid=d6810763-5071-4f23-8495-866a604692b6"},"vehicle_type_id":"4","last_reported":1701407244,"current_range_meters":24800,"station_id":"ce4bh3p2rcd13ifvqdq0","pricing_plan_id":"free"},{"bike_id":"59478bbb-454c-47ef-b624-0be37854a9e4","system_id":"levelo_inurba_marseille","lat":43.307623,"lon":5.402774,"is_reserved":false,"is_disabled":false,"rental_uris":{"android":"levelo://app?vid=59478bbb-454c-47ef-b624-0be37854a9e4","ios":"levelo://app?vid=59478bbb-454c-47ef-b624-0be37854a9e4"},"vehicle_type_id":"4","last_reported":1701407244,"current_range_meters":18800,"station_id":"ce4bgvp2rcd13ifvqct0","pricing_plan_id":"free"},{"bike_id":"3d617be0-c846-4f2b-969d-c62cc20f103d","system_id":"levelo_inurba_marseille","lat":43.302759,"lon":5.400793,"is_reserved":false,"is_disabled":false,"rental_uris":{"android":"levelo://app?vid=3d617be0-c846-4f2b-969d-c62cc20f103d","ios":"levelo://app?vid=3d617be0-c846-4f2b-969d-c62cc20f103d"},"vehicle_type_id":"4","last_reported":1701407244,"current_range_meters":3200,"station_id":"ce4bgvh2rcd13ifvqcs0","pricing_plan_id":"free"},{"bike_id":"e8ed007f-61c7-4549-9252-c0f627c6eed5","system_id":"levelo_inurba_marseille","lat":43.302759,"lon":5.400793,"is_reserved":false,"is_disabled":false,"rental_uris":{"android":"levelo://app?vid=e8ed007f-61c7-4549-9252-c0f627c6eed5","ios":"levelo://app?vid=e8ed007f-61c7-4549-9252-c0f627c6eed5"},"vehicle_type_id":"4","last_reported":1701407244,"current_range_meters":31600,"station_id":"ce4bgvh2rcd13ifvqcs0","pricing_plan_id":"free"},{"bike_id":"73e3bb1b-932d-4672-a139-185caab6c0d7","system_id":"levelo_inurba_marseille","lat":43.302759,"lon":5.400793,"is_reserved":false,"is_disabled":false,"rental_uris":{"android":"levelo://app?vid=73e3bb1b-932d-4672-a139-185caab6c0d7","ios":"levelo://app?vid=73e3bb1b-932d-4672-a139-185caab6c0d7"},"vehicle_type_id":"4","last_reported":1701407244,"current_range_meters":12400,"station_id":"ce4bgvh2rcd13ifvqcs0","pricing_plan_id":"free"},{"bike_id":"aed7ae51-760d-4570-a3ce-5a07c8f6297b","system_id":"levelo_inurba_marseille","lat":43.302759,"lon":5.400793,"is_reserved":false,"is_disabled":false,"rental_uris":{"android":"levelo://app?vid=aed7ae51-760d-4570-a3ce-5a07c8f6297b","ios":"levelo://app?vid=aed7ae51-760d-4570-a3ce-5a07c8f6297b"},"vehicle_type_id":"4","last_reported":1701407244,"current_range_meters":30000,"station_id":"ce4bgvh2rcd13ifvqcs0","pricing_plan_id":"free"},{"bike_id":"51e80092-f709-463a-96a2-8b25587b914d","system_id":"levelo_inurba_marseille","lat":43.286039,"lon":5.370681,"is_reserved":false,"is_disabled":false,"rental_uris":{"android":"levelo://app?vid=51e80092-f709-463a-96a2-8b25587b914d","ios":"levelo://app?vid=51e80092-f709-463a-96a2-8b25587b914d"},"vehicle_type_id":"4","last_reported":1701407244,"current_range_meters":3200,"station_id":"ce4bht12rcd13ifvqi60","pricing_plan_id":"free"},{"bike_id":"fc4e565b-2ea5-4295-b7e3-c3d170f3b704","system_id":"levelo_inurba_marseille","lat":43.286039,"lon":5.370681,"is_reserved":false,"is_disabled":false,"rental_uris":{"android":"levelo://app?vid=fc4e565b-2ea5-4295-b7e3-c3d170f3b704","ios":"levelo://app?vid=fc4e565b-2ea5-4295-b7e3-c3d170f3b704"},"vehicle_type_id":"4","last_reported":1701407244,"current_range_meters":29200,"station_id":"ce4bht12rcd13ifvqi60","pricing_plan_id":"free"},{"bike_id":"748a4b12-b668-4fae-bf1a-b7df0017758a","system_id":"levelo_inurba_marseille","lat":43.286039,"lon":5.370681,"is_reserved":false,"is_disabled":false,"rental_uris":{"android":"levelo://app?vid=748a4b12-b668-4fae-bf1a-b7df0017758a","ios":"levelo://app?vid=748a4b12-b668-4fae-bf1a-b7df0017758a"},"vehicle_type_id":"4","last_reported":1701407244,"current_range_meters":31200,"station_id":"ce4bht12rcd13ifvqi60","pricing_plan_id":"free"},{"bike_id":"7c586522-cbd0-4b30-87c4-d1b00e2d5421","system_id":"levelo_inurba_marseille","lat":43.31642,"lon":5.40432,"is_reserved":false,"is_disabled":false,"rental_uris":{"android":"levelo://app?vid=7c586522-cbd0-4b30-87c4-d1b00e2d5421","ios":"levelo://app?vid=7c586522-cbd0-4b30-87c4-d1b00e2d5421"},"vehicle_type_id":"4","last_reported":1701407244,"current_range_meters":10800,"station_id":"ce4bh012rcd13ifvqd00","pricing_plan_id":"free"},{"bike_id":"22d6b5b1-c3e8-45da-a1aa-df10181c2b41","system_id":"levelo_inurba_marseille","lat":43.291994,"lon":5.392907,"is_reserved":false,"is_disabled":false,"rental_uris":{"android":"levelo://app?vid=22d6b5b1-c3e8-45da-a1aa-df10181c2b41","ios":"levelo://app?vid=22d6b5b1-c3e8-45da-a1aa-df10181c2b41"},"vehicle_type_id":"4","last_reported":1701407244,"current_range_meters":22800,"station_id":"ce4bh192rcd13ifvqdd0","pricing_plan_id":"free"},{"bike_id":"21169003-7cd8-4dcc-90d2-c0b535fa7f98","system_id":"levelo_inurba_marseille","lat":43.284538,"lon":5.358657,"is_reserved":false,"is_disabled":false,"rental_uris":{"android":"levelo://app?vid=21169003-7cd8-4dcc-90d2-c0b535fa7f98","ios":"levelo://app?vid=21169003-7cd8-4dcc-90d2-c0b535fa7f98"},"vehicle_type_id":"4","last_reported":1701407244,"current_range_meters":18800,"station_id":"ce4bhah2rcd13ifvqei0","pricing_plan_id":"free"},{"bike_id":"ebf17176-9fba-4e7e-90b9-791b0da4501a","system_id":"levelo_inurba_marseille","lat":43.284534,"lon":5.358662,"is_reserved":false,"is_disabled":false,"rental_uris":{"android":"levelo://app?vid=ebf17176-9fba-4e7e-90b9-791b0da4501a","ios":"levelo://app?vid=ebf17176-9fba-4e7e-90b9-791b0da4501a"},"vehicle_type_id":"4","last_reported":1701407244,"current_range_meters":31200,"station_id":"ce4bhah2rcd13ifvqei0","pricing_plan_id":"free"},{"bike_id":"7e86716c-7d1c-41fc-b4d1-bedcc84d4e3f","system_id":"levelo_inurba_marseille","lat":43.284538,"lon":5.358657,"is_reserved":false,"is_disabled":false,"rental_uris":{"android":"levelo://app?vid=7e86716c-7d1c-41fc-b4d1-bedcc84d4e3f","ios":"levelo://app?vid=7e86716c-7d1c-41fc-b4d1-bedcc84d4e3f"},"vehicle_type_id":"4","last_reported":1701407244,"current_range_meters":23600,"station_id":"ce4bhah2rcd13ifvqei0","pricing_plan_id":"free"},{"bike_id":"d27c3822-c0f8-4b95-a49f-2375387b9290","system_id":"levelo_inurba_marseille","lat":43.284534,"lon":5.358662,"is_reserved":false,"is_disabled":false,"rental_uris":{"android":"levelo://app?vid=d27c3822-c0f8-4b95-a49f-2375387b9290","ios":"levelo://app?vid=d27c3822-c0f8-4b95-a49f-2375387b9290"},"vehicle_type_id":"4","last_reported":1701407244,"current_range_meters":16400,"station_id":"ce4bhah2rcd13ifvqei0","pricing_plan_id":"free"},{"bike_id":"b7bfcd62-d06d-495c-a8ea-3ac584fcd939","system_id":"levelo_inurba_marseille","lat":43.28462,"lon":5.358873,"is_reserved":false,"is_disabled":false,"rental_uris":{"android":"levelo://app?vid=b7bfcd62-d06d-495c-a8ea-3ac584fcd939","ios":"levelo://app?vid=b7bfcd62-d06d-495c-a8ea-3ac584fcd939"},"vehicle_type_id":"4","last_reported":1701407244,"current_range_meters":26800,"station_id":"ce4bhah2rcd13ifvqei0","pricing_plan_id":"free"},{"bike_id":"22511f74-5698-411c-a650-27843927ea3e","system_id":"levelo_inurba_marseille","lat":43.284534,"lon":5.358662,"is_reserved":false,"is_disabled":false,"rental_uris":{"android":"levelo://app?vid=22511f74-5698-411c-a650-27843927ea3e","ios":"levelo://app?vid=22511f74-5698-411c-a650-27843927ea3e"},"vehicle_type_id":"4","last_reported":1701407244,"current_range_meters":28000,"station_id":"ce4bhah2rcd13ifvqei0","pricing_plan_id":"free"},{"bike_id":"17f9a08f-f653-4795-ab7f-1ff49e1b30ff","system_id":"levelo_inurba_marseille","lat":43.284538,"lon":5.358657,"is_reserved":false,"is_disabled":false,"rental_uris":{"android":"levelo://app?vid=17f9a08f-f653-4795-ab7f-1ff49e1b30ff","ios":"levelo://app?vid=17f9a08f-f653-4795-ab7f-1ff49e1b30ff"},"vehicle_type_id":"4","last_reported":1701407244,"current_range_meters":8800,"station_id":"ce4bhah2rcd13ifvqei0","pricing_plan_id":"free"},{"bike_id":"31f12269-79e5-4833-aed7-f7b53d63e4d0","system_id":"levelo_inurba_marseille","lat":43.284534,"lon":5.358662,"is_reserved":false,"is_disabled":false,"rental_uris":{"android":"levelo://app?vid=31f12269-79e5-4833-aed7-f7b53d63e4d0","ios":"levelo://app?vid=31f12269-79e5-4833-aed7-f7b53d63e4d0"},"vehicle_type_id":"4","last_reported":1701407244,"current_range_meters":28800,"station_id":"ce4bhah2rcd13ifvqei0","pricing_plan_id":"free"},{"bike_id":"10c4309b-79be-4a05-a311-531558abe298","system_id":"levelo_inurba_marseille","lat":43.284534,"lon":5.358662,"is_reserved":false,"is_disabled":false,"rental_uris":{"android":"levelo://app?vid=10c4309b-79be-4a05-a311-531558abe298","ios":"levelo://app?vid=10c4309b-79be-4a05-a311-531558abe298"},"vehicle_type_id":"4","last_reported":1701407244,"current_range_meters":31200,"station_id":"ce4bhah2rcd13ifvqei0","pricing_plan_id":"free"},{"bike_id":"d8afdaf7-a980-4e89-9d7e-e47dccdeb5f1","system_id":"levelo_inurba_marseille","lat":43.284538,"lon":5.358657,"is_reserved":false,"is_disabled":false,"rental_uris":{"android":"levelo://app?vid=d8afdaf7-a980-4e89-9d7e-e47dccdeb5f1","ios":"levelo://app?vid=d8afdaf7-a980-4e89-9d7e-e47dccdeb5f1"},"vehicle_type_id":"4","last_reported":1701407244,"current_range_meters":31200,"station_id":"ce4bhah2rcd13ifvqei0","pricing_plan_id":"free"},{"bike_id":"d2793e46-d8de-4714-aae7-4386fc0c8a4f","system_id":"levelo_inurba_marseille","lat":43.284538,"lon":5.358657,"is_reserved":false,"is_disabled":false,"rental_uris":{"android":"levelo://app?vid=d2793e46-d8de-4714-aae7-4386fc0c8a4f","ios":"levelo://app?vid=d2793e46-d8de-4714-aae7-4386fc0c8a4f"},"vehicle_type_id":"4","last_reported":1701407244,"current_range_meters":10000,"station_id":"ce4bhah2rcd13ifvqei0","pricing_plan_id":"free"},{"bike_id":"f0af66be-b54e-441d-bca6-9912ae6f8e4c","system_id":"levelo_inurba_marseille","lat":43.284538,"lon":5.358657,"is_reserved":false,"is_disabled":false,"rental_uris":{"android":"levelo://app?vid=f0af66be-b54e-441d-bca6-9912ae6f8e4c","ios":"levelo://app?vid=f0af66be-b54e-441d-bca6-9912ae6f8e4c"},"vehicle_type_id":"4","last_reported":1701407244,"current_range_meters":28400,"station_id":"ce4bhah2rcd13ifvqei0","pricing_plan_id":"free"},{"bike_id":"1e40973e-7b62-4dfc-a381-abfdb2060879","system_id":"levelo_inurba_marseille","lat":43.284538,"lon":5.358657,"is_reserved":false,"is_disabled":false,"rental_uris":{"android":"levelo://app?vid=1e40973e-7b62-4dfc-a381-abfdb2060879","ios":"levelo://app?vid=1e40973e-7b62-4dfc-a381-abfdb2060879"},"vehicle_type_id":"4","last_reported":1701407244,"current_range_meters":23200,"station_id":"ce4bhah2rcd13ifvqei0","pricing_plan_id":"free"},{"bike_id":"ccd68f04-c551-416a-8054-36c21720a053","system_id":"levelo_inurba_marseille","lat":43.284538,"lon":5.358657,"is_reserved":false,"is_disabled":false,"rental_uris":{"android":"levelo://app?vid=ccd68f04-c551-416a-8054-36c21720a053","ios":"levelo://app?vid=ccd68f04-c551-416a-8054-36c21720a053"},"vehicle_type_id":"4","last_reported":1701407244,"current_range_meters":9200,"station_id":"ce4bhah2rcd13ifvqei0","pricing_plan_id":"free"},{"bike_id":"b6a0a756-c772-43a0-a874-c8a9bb6af229","system_id":"levelo_inurba_marseille","lat":43.284534,"lon":5.358662,"is_reserved":false,"is_disabled":false,"rental_uris":{"android":"levelo://app?vid=b6a0a756-c772-43a0-a874-c8a9bb6af229","ios":"levelo://app?vid=b6a0a756-c772-43a0-a874-c8a9bb6af229"},"vehicle_type_id":"4","last_reported":1701407244,"current_range_meters":27200,"station_id":"ce4bhah2rcd13ifvqei0","pricing_plan_id":"free"},{"bike_id":"fb9a3ba1-bd19-4ec5-9708-e57a8fcabc47","system_id":"levelo_inurba_marseille","lat":43.284538,"lon":5.358657,"is_reserved":false,"is_disabled":false,"rental_uris":{"android":"levelo://app?vid=fb9a3ba1-bd19-4ec5-9708-e57a8fcabc47","ios":"levelo://app?vid=fb9a3ba1-bd19-4ec5-9708-e57a8fcabc47"},"vehicle_type_id":"4","last_reported":1701407244,"current_range_meters":30000,"station_id":"ce4bhah2rcd13ifvqei0","pricing_plan_id":"free"},{"bike_id":"3ed4ebb1-2e97-449b-8da9-9f0785af9529","system_id":"levelo_inurba_marseille","lat":43.285856,"lon":5.350771,"is_reserved":false,"is_disabled":false,"rental_uris":{"android":"levelo://app?vid=3ed4ebb1-2e97-449b-8da9-9f0785af9529","ios":"levelo://app?vid=3ed4ebb1-2e97-449b-8da9-9f0785af9529"},"vehicle_type_id":"4","last_reported":1701407244,"current_range_meters":31200,"station_id":"ce4bhch2rcd13ifvqeug","pricing_plan_id":"free"},{"bike_id":"bc327c8c-e79f-4e9a-953c-47258ac86bb9","system_id":"levelo_inurba_marseille","lat":43.319179,"lon":5.407725,"is_reserved":false,"is_disabled":false,"rental_uris":{"android":"levelo://app?vid=bc327c8c-e79f-4e9a-953c-47258ac86bb9","ios":"levelo://app?vid=bc327c8c-e79f-4e9a-953c-47258ac86bb9"},"vehicle_type_id":"4","last_reported":1701407244,"current_range_meters":10400,"station_id":"ce4bhq12rcd13ifvqhig","pricing_plan_id":"free"},{"bike_id":"d147e0d7-0e39-41c3-9168-806b6269bef3","system_id":"levelo_inurba_marseille","lat":43.319179,"lon":5.407725,"is_reserved":false,"is_disabled":false,"rental_uris":{"android":"levelo://app?vid=d147e0d7-0e39-41c3-9168-806b6269bef3","ios":"levelo://app?vid=d147e0d7-0e39-41c3-9168-806b6269bef3"},"vehicle_type_id":"4","last_reported":1701407244,"current_range_meters":31600,"station_id":"ce4bhq12rcd13ifvqhig","pricing_plan_id":"free"},{"bike_id":"3cbe5523-c0af-4c78-806d-878dad7cb03c","system_id":"levelo_inurba_marseille","lat":43.323464,"lon":5.406297,"is_reserved":false,"is_disabled":false,"rental_uris":{"android":"levelo://app?vid=3cbe5523-c0af-4c78-806d-878dad7cb03c","ios":"levelo://app?vid=3cbe5523-c0af-4c78-806d-878dad7cb03c"},"vehicle_type_id":"4","last_reported":1701407244,"current_range_meters":24400,"station_id":"ce4bhq92rcd13ifvqhjg","pricing_plan_id":"free"},{"bike_id":"430fab3b-85ff-459e-b705-171d153ad923","system_id":"levelo_inurba_marseille","lat":43.323464,"lon":5.406297,"is_reserved":false,"is_disabled":false,"rental_uris":{"android":"levelo://app?vid=430fab3b-85ff-459e-b705-171d153ad923","ios":"levelo://app?vid=430fab3b-85ff-459e-b705-171d153ad923"},"vehicle_type_id":"4","last_reported":1701407244,"current_range_meters":31600,"station_id":"ce4bhq92rcd13ifvqhjg","pricing_plan_id":"free"},{"bike_id":"1933af5d-0268-487e-a8d4-ed432e3f7528","system_id":"levelo_inurba_marseille","lat":43.297946,"lon":5.404063,"is_reserved":false,"is_disabled":false,"rental_uris":{"android":"levelo://app?vid=1933af5d-0268-487e-a8d4-ed432e3f7528","ios":"levelo://app?vid=1933af5d-0268-487e-a8d4-ed432e3f7528"},"vehicle_type_id":"4","last_reported":1701407244,"current_range_meters":29200,"station_id":"ce4bh112rcd13ifvqd90","pricing_plan_id":"free"},{"bike_id":"4ab81a9a-8ac3-408d-a7ce-5aff7369e0db","system_id":"levelo_inurba_marseille","lat":43.288501,"lon":5.393087,"is_reserved":false,"is_disabled":false,"rental_uris":{"android":"levelo://app?vid=4ab81a9a-8ac3-408d-a7ce-5aff7369e0db","ios":"levelo://app?vid=4ab81a9a-8ac3-408d-a7ce-5aff7369e0db"},"vehicle_type_id":"4","last_reported":1701407244,"current_range_meters":27200,"station_id":"ce4bh2p2rcd13ifvqdi0","pricing_plan_id":"free"},{"bike_id":"f82f6bc5-47f1-49eb-bed3-1499985499c2","system_id":"levelo_inurba_marseille","lat":43.28937,"lon":5.396259,"is_reserved":false,"is_disabled":false,"rental_uris":{"android":"levelo://app?vid=f82f6bc5-47f1-49eb-bed3-1499985499c2","ios":"levelo://app?vid=f82f6bc5-47f1-49eb-bed3-1499985499c2"},"vehicle_type_id":"4","last_reported":1701407244,"current_range_meters":3200,"station_id":"ce4bh3h2rcd13ifvqdn0","pricing_plan_id":"free"},{"bike_id":"24a7ca68-ed11-4ed0-ab8f-25472db76aa7","system_id":"levelo_inurba_marseille","lat":43.292724,"lon":5.401131,"is_reserved":false,"is_disabled":false,"rental_uris":{"android":"levelo://app?vid=24a7ca68-ed11-4ed0-ab8f-25472db76aa7","ios":"levelo://app?vid=24a7ca68-ed11-4ed0-ab8f-25472db76aa7"},"vehicle_type_id":"4","last_reported":1701407244,"current_range_meters":29600,"station_id":"ce4bh312rcd13ifvqdk0","pricing_plan_id":"free"},{"bike_id":"bbe84c55-0e89-4efd-83dc-34e685d51b06","system_id":"levelo_inurba_marseille","lat":43.282754,"lon":5.350519,"is_reserved":false,"is_disabled":false,"rental_uris":{"android":"levelo://app?vid=bbe84c55-0e89-4efd-83dc-34e685d51b06","ios":"levelo://app?vid=bbe84c55-0e89-4efd-83dc-34e685d51b06"},"vehicle_type_id":"4","last_reported":1701407244,"current_range_meters":27200,"station_id":"ce4bhbp2rcd13ifvqerg","pricing_plan_id":"free"},{"bike_id":"df152c93-5940-459d-9902-024d04aef451","system_id":"levelo_inurba_marseille","lat":43.28039,"lon":5.369297,"is_reserved":false,"is_disabled":false,"rental_uris":{"android":"levelo://app?vid=df152c93-5940-459d-9902-024d04aef451","ios":"levelo://app?vid=df152c93-5940-459d-9902-024d04aef451"},"vehicle_type_id":"4","last_reported":1701407244,"current_range_meters":28400,"station_id":"ce4bha12rcd13ifvqef0","pricing_plan_id":"free"},{"bike_id":"3b960be2-facb-4f22-8118-bac9311e8bb3","system_id":"levelo_inurba_marseille","lat":43.29049,"lon":5.39959,"is_reserved":false,"is_disabled":false,"rental_uris":{"android":"levelo://app?vid=3b960be2-facb-4f22-8118-bac9311e8bb3","ios":"levelo://app?vid=3b960be2-facb-4f22-8118-bac9311e8bb3"},"vehicle_type_id":"4","last_reported":1701407244,"current_range_meters":18800,"station_id":"ce4bh392rcd13ifvqdm0","pricing_plan_id":"free"},{"bike_id":"49e83942-7f8a-41f2-934a-a8566b12962c","system_id":"levelo_inurba_marseille","lat":43.290403,"lon":5.399523,"is_reserved":false,"is_disabled":false,"rental_uris":{"android":"levelo://app?vid=49e83942-7f8a-41f2-934a-a8566b12962c","ios":"levelo://app?vid=49e83942-7f8a-41f2-934a-a8566b12962c"},"vehicle_type_id":"4","last_reported":1701407244,"current_range_meters":23200,"station_id":"ce4bh392rcd13ifvqdm0","pricing_plan_id":"free"},{"bike_id":"bfe099d9-8d9d-40a4-97ad-d2b4f7ee6950","system_id":"levelo_inurba_marseille","lat":43.290393,"lon":5.399605,"is_reserved":false,"is_disabled":false,"rental_uris":{"android":"levelo://app?vid=bfe099d9-8d9d-40a4-97ad-d2b4f7ee6950","ios":"levelo://app?vid=bfe099d9-8d9d-40a4-97ad-d2b4f7ee6950"},"vehicle_type_id":"4","last_reported":1701407244,"current_range_meters":25200,"station_id":"ce4bh392rcd13ifvqdm0","pricing_plan_id":"free"},{"bike_id":"6dfad21b-c5b4-4378-9b09-a0ed383eccb0","system_id":"levelo_inurba_marseille","lat":43.29037,"lon":5.39963,"is_reserved":false,"is_disabled":false,"rental_uris":{"android":"levelo://app?vid=6dfad21b-c5b4-4378-9b09-a0ed383eccb0","ios":"levelo://app?vid=6dfad21b-c5b4-4378-9b09-a0ed383eccb0"},"vehicle_type_id":"4","last_reported":1701407244,"current_range_meters":24000,"station_id":"ce4bh392rcd13ifvqdm0","pricing_plan_id":"free"},{"bike_id":"58905537-dff7-45d6-87d7-9b08bfc65ab7","system_id":"levelo_inurba_marseille","lat":43.290345,"lon":5.399651,"is_reserved":false,"is_disabled":false,"rental_uris":{"android":"levelo://app?vid=58905537-dff7-45d6-87d7-9b08bfc65ab7","ios":"levelo://app?vid=58905537-dff7-45d6-87d7-9b08bfc65ab7"},"vehicle_type_id":"4","last_reported":1701407244,"current_range_meters":16400,"station_id":"ce4bh392rcd13ifvqdm0","pricing_plan_id":"free"},{"bike_id":"c1c2a268-3dc7-4c9a-904a-9e17122585b3","system_id":"levelo_inurba_marseille","lat":43.29032,"lon":5.39962,"is_reserved":false,"is_disabled":false,"rental_uris":{"android":"levelo://app?vid=c1c2a268-3dc7-4c9a-904a-9e17122585b3","ios":"levelo://app?vid=c1c2a268-3dc7-4c9a-904a-9e17122585b3"},"vehicle_type_id":"4","last_reported":1701407244,"current_range_meters":28000,"station_id":"ce4bh392rcd13ifvqdm0","pricing_plan_id":"free"},{"bike_id":"2d65c65c-b8cd-4d4e-ab60-01b6506e4a74","system_id":"levelo_inurba_marseille","lat":43.290335,"lon":5.399654,"is_reserved":false,"is_disabled":false,"rental_uris":{"android":"levelo://app?vid=2d65c65c-b8cd-4d4e-ab60-01b6506e4a74","ios":"levelo://app?vid=2d65c65c-b8cd-4d4e-ab60-01b6506e4a74"},"vehicle_type_id":"4","last_reported":1701407244,"current_range_meters":20400,"station_id":"ce4bh392rcd13ifvqdm0","pricing_plan_id":"free"},{"bike_id":"effd1b29-6f7b-4043-9590-b2759724da0c","system_id":"levelo_inurba_marseille","lat":43.296271,"lon":5.405964,"is_reserved":false,"is_disabled":false,"rental_uris":{"android":"levelo://app?vid=effd1b29-6f7b-4043-9590-b2759724da0c","ios":"levelo://app?vid=effd1b29-6f7b-4043-9590-b2759724da0c"},"vehicle_type_id":"4","last_reported":1701407244,"current_range_meters":16000,"station_id":"ce4bh0h2rcd13ifvqd60","pricing_plan_id":"free"},{"bike_id":"fdf76a37-9f90-4a96-ae15-fc6d4cbdb42b","system_id":"levelo_inurba_marseille","lat":43.296263,"lon":5.40601,"is_reserved":false,"is_disabled":false,"rental_uris":{"android":"levelo://app?vid=fdf76a37-9f90-4a96-ae15-fc6d4cbdb42b","ios":"levelo://app?vid=fdf76a37-9f90-4a96-ae15-fc6d4cbdb42b"},"vehicle_type_id":"4","last_reported":1701407244,"current_range_meters":28400,"station_id":"ce4bh0h2rcd13ifvqd60","pricing_plan_id":"free"},{"bike_id":"e13b2f17-2aae-4600-bb4a-a075dc4b78dd","system_id":"levelo_inurba_marseille","lat":43.284462,"lon":5.392121,"is_reserved":false,"is_disabled":false,"rental_uris":{"android":"levelo://app?vid=e13b2f17-2aae-4600-bb4a-a075dc4b78dd","ios":"levelo://app?vid=e13b2f17-2aae-4600-bb4a-a075dc4b78dd"},"vehicle_type_id":"4","last_reported":1701407244,"current_range_meters":31600,"station_id":"ce4bhoh2rcd13ifvqh5g","pricing_plan_id":"free"},{"bike_id":"4420da17-ee97-45e8-8533-5435c8528520","system_id":"levelo_inurba_marseille","lat":43.304278,"lon":5.388868,"is_reserved":false,"is_disabled":false,"rental_uris":{"android":"levelo://app?vid=4420da17-ee97-45e8-8533-5435c8528520","ios":"levelo://app?vid=4420da17-ee97-45e8-8533-5435c8528520"},"vehicle_type_id":"4","last_reported":1701407244,"current_range_meters":23600,"station_id":"ce4bgk12rcd13ifvqbi0","pricing_plan_id":"free"},{"bike_id":"edccd163-f6e1-4e7d-bc68-768d7ebe881c","system_id":"levelo_inurba_marseille","lat":43.326605,"lon":5.409903,"is_reserved":false,"is_disabled":false,"rental_uris":{"android":"levelo://app?vid=edccd163-f6e1-4e7d-bc68-768d7ebe881c","ios":"levelo://app?vid=edccd163-f6e1-4e7d-bc68-768d7ebe881c"},"vehicle_type_id":"4","last_reported":1701407244,"current_range_meters":27200,"station_id":"ce4bhpp2rcd13ifvqhgg","pricing_plan_id":"free"},{"bike_id":"5037ecd6-6342-4ecc-a263-012bbff32aee","system_id":"levelo_inurba_marseille","lat":43.326605,"lon":5.409903,"is_reserved":false,"is_disabled":false,"rental_uris":{"android":"levelo://app?vid=5037ecd6-6342-4ecc-a263-012bbff32aee","ios":"levelo://app?vid=5037ecd6-6342-4ecc-a263-012bbff32aee"},"vehicle_type_id":"4","last_reported":1701407244,"current_range_meters":8000,"station_id":"ce4bhpp2rcd13ifvqhgg","pricing_plan_id":"free"},{"bike_id":"6b7ef417-6657-4c19-98d8-e150659d83c2","system_id":"levelo_inurba_marseille","lat":43.304188,"lon":5.412904,"is_reserved":false,"is_disabled":false,"rental_uris":{"android":"levelo://app?vid=6b7ef417-6657-4c19-98d8-e150659d83c2","ios":"levelo://app?vid=6b7ef417-6657-4c19-98d8-e150659d83c2"},"vehicle_type_id":"4","last_reported":1701407244,"current_range_meters":28400,"station_id":"ce4bhop2rcd13ifvqh8g","pricing_plan_id":"free"},{"bike_id":"0933293b-7d31-4268-8ec7-1f2188b3567c","system_id":"levelo_inurba_marseille","lat":43.320045,"lon":5.415046,"is_reserved":false,"is_disabled":false,"rental_uris":{"android":"levelo://app?vid=0933293b-7d31-4268-8ec7-1f2188b3567c","ios":"levelo://app?vid=0933293b-7d31-4268-8ec7-1f2188b3567c"},"vehicle_type_id":"4","last_reported":1701407244,"current_range_meters":22000,"station_id":"ce4bhq92rcd13ifvqhkg","pricing_plan_id":"free"},{"bike_id":"c4da5249-08e6-4018-a9a4-8bb9dc595e34","system_id":"levelo_inurba_marseille","lat":43.292512,"lon":5.409035,"is_reserved":false,"is_disabled":false,"rental_uris":{"android":"levelo://app?vid=c4da5249-08e6-4018-a9a4-8bb9dc595e34","ios":"levelo://app?vid=c4da5249-08e6-4018-a9a4-8bb9dc595e34"},"vehicle_type_id":"4","last_reported":1701407244,"current_range_meters":19200,"station_id":"ce4bh192rcd13ifvqdc0","pricing_plan_id":"free"},{"bike_id":"190cbe63-abb2-4d80-b7c2-1ea1d0700488","system_id":"levelo_inurba_marseille","lat":43.27618,"lon":5.361009,"is_reserved":false,"is_disabled":false,"rental_uris":{"android":"levelo://app?vid=190cbe63-abb2-4d80-b7c2-1ea1d0700488","ios":"levelo://app?vid=190cbe63-abb2-4d80-b7c2-1ea1d0700488"},"vehicle_type_id":"4","last_reported":1701407244,"current_range_meters":30400,"station_id":"ce4bgj92rcd13ifvqbe0","pricing_plan_id":"free"},{"bike_id":"76290dae-f1e9-4270-b5e3-e1e5d6e9bf29","system_id":"levelo_inurba_marseille","lat":43.27618,"lon":5.361009,"is_reserved":false,"is_disabled":false,"rental_uris":{"android":"levelo://app?vid=76290dae-f1e9-4270-b5e3-e1e5d6e9bf29","ios":"levelo://app?vid=76290dae-f1e9-4270-b5e3-e1e5d6e9bf29"},"vehicle_type_id":"4","last_reported":1701407244,"current_range_meters":25600,"station_id":"ce4bgj92rcd13ifvqbe0","pricing_plan_id":"free"},{"bike_id":"b050e2f3-2aca-4526-84ea-678c925a6114","system_id":"levelo_inurba_marseille","lat":43.27618,"lon":5.361009,"is_reserved":false,"is_disabled":false,"rental_uris":{"android":"levelo://app?vid=b050e2f3-2aca-4526-84ea-678c925a6114","ios":"levelo://app?vid=b050e2f3-2aca-4526-84ea-678c925a6114"},"vehicle_type_id":"4","last_reported":1701407244,"current_range_meters":27600,"station_id":"ce4bgj92rcd13ifvqbe0","pricing_plan_id":"free"},{"bike_id":"378c3e67-0c7b-45f5-b855-8e0b1409d9e2","system_id":"levelo_inurba_marseille","lat":43.303837,"lon":5.418724,"is_reserved":false,"is_disabled":false,"rental_uris":{"android":"levelo://app?vid=378c3e67-0c7b-45f5-b855-8e0b1409d9e2","ios":"levelo://app?vid=378c3e67-0c7b-45f5-b855-8e0b1409d9e2"},"vehicle_type_id":"4","last_reported":1701407244,"current_range_meters":25600,"station_id":"ce4bhop2rcd13ifvqh7g","pricing_plan_id":"free"},{"bike_id":"1775d204-0b18-4b2d-944b-2626ade3e634","system_id":"levelo_inurba_marseille","lat":43.303837,"lon":5.418724,"is_reserved":false,"is_disabled":false,"rental_uris":{"android":"levelo://app?vid=1775d204-0b18-4b2d-944b-2626ade3e634","ios":"levelo://app?vid=1775d204-0b18-4b2d-944b-2626ade3e634"},"vehicle_type_id":"4","last_reported":1701407244,"current_range_meters":32000,"station_id":"ce4bhop2rcd13ifvqh7g","pricing_plan_id":"free"},{"bike_id":"9057f908-2dd8-453f-8b7d-5e9dc0f31144","system_id":"levelo_inurba_marseille","lat":43.303837,"lon":5.418724,"is_reserved":false,"is_disabled":false,"rental_uris":{"android":"levelo://app?vid=9057f908-2dd8-453f-8b7d-5e9dc0f31144","ios":"levelo://app?vid=9057f908-2dd8-453f-8b7d-5e9dc0f31144"},"vehicle_type_id":"4","last_reported":1701407244,"current_range_meters":1200,"station_id":"ce4bhop2rcd13ifvqh7g","pricing_plan_id":"free"},{"bike_id":"7b26d28a-a47b-441f-9842-2f1c513858ea","system_id":"levelo_inurba_marseille","lat":43.278399,"lon":5.392139,"is_reserved":false,"is_disabled":false,"rental_uris":{"android":"levelo://app?vid=7b26d28a-a47b-441f-9842-2f1c513858ea","ios":"levelo://app?vid=7b26d28a-a47b-441f-9842-2f1c513858ea"},"vehicle_type_id":"4","last_reported":1701407244,"current_range_meters":26400,"station_id":"ce4bhjp2rcd13ifvqga0","pricing_plan_id":"free"},{"bike_id":"a0ba15a3-d12e-4ea4-b1d7-15f758773042","system_id":"levelo_inurba_marseille","lat":43.27386,"lon":5.36259,"is_reserved":false,"is_disabled":false,"rental_uris":{"android":"levelo://app?vid=a0ba15a3-d12e-4ea4-b1d7-15f758773042","ios":"levelo://app?vid=a0ba15a3-d12e-4ea4-b1d7-15f758773042"},"vehicle_type_id":"4","last_reported":1701407244,"current_range_meters":20800,"station_id":"ce4bhbh2rcd13ifvqeo0","pricing_plan_id":"free"},{"bike_id":"1ee4bdeb-097c-4560-bb8b-f7eaaa87d4ba","system_id":"levelo_inurba_marseille","lat":43.275625,"lon":5.384392,"is_reserved":false,"is_disabled":false,"rental_uris":{"android":"levelo://app?vid=1ee4bdeb-097c-4560-bb8b-f7eaaa87d4ba","ios":"levelo://app?vid=1ee4bdeb-097c-4560-bb8b-f7eaaa87d4ba"},"vehicle_type_id":"4","last_reported":1701407244,"current_range_meters":29600,"station_id":"ce4bhh92rcd13ifvqfi0","pricing_plan_id":"free"},{"bike_id":"b80e3d5e-a914-444c-ac0a-14ac4bf2f294","system_id":"levelo_inurba_marseille","lat":43.33612,"lon":5.410321,"is_reserved":false,"is_disabled":false,"rental_uris":{"android":"levelo://app?vid=b80e3d5e-a914-444c-ac0a-14ac4bf2f294","ios":"levelo://app?vid=b80e3d5e-a914-444c-ac0a-14ac4bf2f294"},"vehicle_type_id":"4","last_reported":1701407244,"current_range_meters":27600,"station_id":"ce4bhqh2rcd13ifvqhmg","pricing_plan_id":"free"},{"bike_id":"4105c0c2-28ef-4989-8112-480de19fb62f","system_id":"levelo_inurba_marseille","lat":43.336142,"lon":5.410176,"is_reserved":false,"is_disabled":false,"rental_uris":{"android":"levelo://app?vid=4105c0c2-28ef-4989-8112-480de19fb62f","ios":"levelo://app?vid=4105c0c2-28ef-4989-8112-480de19fb62f"},"vehicle_type_id":"4","last_reported":1701407244,"current_range_meters":800,"station_id":"ce4bhqh2rcd13ifvqhmg","pricing_plan_id":"free"},{"bike_id":"9be4d6d8-8ac2-423a-a8c4-fe0f5230e53f","system_id":"levelo_inurba_marseille","lat":43.336134,"lon":5.410341,"is_reserved":false,"is_disabled":false,"rental_uris":{"android":"levelo://app?vid=9be4d6d8-8ac2-423a-a8c4-fe0f5230e53f","ios":"levelo://app?vid=9be4d6d8-8ac2-423a-a8c4-fe0f5230e53f"},"vehicle_type_id":"4","last_reported":1701407244,"current_range_meters":28800,"station_id":"ce4bhqh2rcd13ifvqhmg","pricing_plan_id":"free"},{"bike_id":"d6cd08ef-c934-44a0-a330-510b886d15f8","system_id":"levelo_inurba_marseille","lat":43.310785,"lon":5.424305,"is_reserved":false,"is_disabled":false,"rental_uris":{"android":"levelo://app?vid=d6cd08ef-c934-44a0-a330-510b886d15f8","ios":"levelo://app?vid=d6cd08ef-c934-44a0-a330-510b886d15f8"},"vehicle_type_id":"4","last_reported":1701407244,"current_range_meters":30800,"station_id":"ce4bhp92rcd13ifvqhag","pricing_plan_id":"free"},{"bike_id":"2f711f01-b9ab-4fa4-b7ee-42fd5a353234","system_id":"levelo_inurba_marseille","lat":43.310785,"lon":5.424305,"is_reserved":false,"is_disabled":false,"rental_uris":{"android":"levelo://app?vid=2f711f01-b9ab-4fa4-b7ee-42fd5a353234","ios":"levelo://app?vid=2f711f01-b9ab-4fa4-b7ee-42fd5a353234"},"vehicle_type_id":"4","last_reported":1701407244,"current_range_meters":30000,"station_id":"ce4bhp92rcd13ifvqhag","pricing_plan_id":"free"},{"bike_id":"d4026725-dd25-4c54-b587-ef51a846128e","system_id":"levelo_inurba_marseille","lat":43.340804,"lon":5.410219,"is_reserved":false,"is_disabled":false,"rental_uris":{"android":"levelo://app?vid=d4026725-dd25-4c54-b587-ef51a846128e","ios":"levelo://app?vid=d4026725-dd25-4c54-b587-ef51a846128e"},"vehicle_type_id":"4","last_reported":1701407244,"current_range_meters":29600,"station_id":"ce4bhqh2rcd13ifvqhlg","pricing_plan_id":"free"},{"bike_id":"1ef094fa-24c6-4235-9373-709b578b0279","system_id":"levelo_inurba_marseille","lat":43.274103,"lon":5.394016,"is_reserved":false,"is_disabled":false,"rental_uris":{"android":"levelo://app?vid=1ef094fa-24c6-4235-9373-709b578b0279","ios":"levelo://app?vid=1ef094fa-24c6-4235-9373-709b578b0279"},"vehicle_type_id":"4","last_reported":1701407244,"current_range_meters":28400,"station_id":"ce4bhdp2rcd13ifvqf20","pricing_plan_id":"free"},{"bike_id":"f6d38aff-a5fe-4ea8-b323-a05c3a6bb4a7","system_id":"levelo_inurba_marseille","lat":43.295511,"lon":5.422926,"is_reserved":false,"is_disabled":false,"rental_uris":{"android":"levelo://app?vid=f6d38aff-a5fe-4ea8-b323-a05c3a6bb4a7","ios":"levelo://app?vid=f6d38aff-a5fe-4ea8-b323-a05c3a6bb4a7"},"vehicle_type_id":"4","last_reported":1701407244,"current_range_meters":30800,"station_id":"ce4bhph2rcd13ifvqhdg","pricing_plan_id":"free"},{"bike_id":"98f2d782-a53e-4e6f-a16c-f4d060256811","system_id":"levelo_inurba_marseille","lat":43.272118,"lon":5.391758,"is_reserved":false,"is_disabled":false,"rental_uris":{"android":"levelo://app?vid=98f2d782-a53e-4e6f-a16c-f4d060256811","ios":"levelo://app?vid=98f2d782-a53e-4e6f-a16c-f4d060256811"},"vehicle_type_id":"4","last_reported":1701407244,"current_range_meters":22000,"station_id":"ce4bhhp2rcd13ifvqfm0","pricing_plan_id":"free"},{"bike_id":"e93e10c2-0439-4572-86c1-7b8b1441a79a","system_id":"levelo_inurba_marseille","lat":43.27947,"lon":5.410427,"is_reserved":false,"is_disabled":false,"rental_uris":{"android":"levelo://app?vid=e93e10c2-0439-4572-86c1-7b8b1441a79a","ios":"levelo://app?vid=e93e10c2-0439-4572-86c1-7b8b1441a79a"},"vehicle_type_id":"4","last_reported":1701407244,"current_range_meters":18800,"station_id":"ce4bhnp2rcd13ifvqh0g","pricing_plan_id":"free"},{"bike_id":"c504edef-e763-4f59-aae9-9fce19d0367f","system_id":"levelo_inurba_marseille","lat":43.269319,"lon":5.389397,"is_reserved":false,"is_disabled":false,"rental_uris":{"android":"levelo://app?vid=c504edef-e763-4f59-aae9-9fce19d0367f","ios":"levelo://app?vid=c504edef-e763-4f59-aae9-9fce19d0367f"},"vehicle_type_id":"4","last_reported":1701407244,"current_range_meters":28400,"station_id":"ce4bhhh2rcd13ifvqfl0","pricing_plan_id":"free"},{"bike_id":"22ee340c-bd9a-40e4-b269-c11f5d5d2216","system_id":"levelo_inurba_marseille","lat":43.27996,"lon":5.416624,"is_reserved":false,"is_disabled":false,"rental_uris":{"android":"levelo://app?vid=22ee340c-bd9a-40e4-b269-c11f5d5d2216","ios":"levelo://app?vid=22ee340c-bd9a-40e4-b269-c11f5d5d2216"},"vehicle_type_id":"4","last_reported":1701407244,"current_range_meters":31600,"station_id":"ce4bho12rcd13ifvqh1g","pricing_plan_id":"free"},{"bike_id":"3a9e3de9-989d-49ef-baaf-f60698970372","system_id":"levelo_inurba_marseille","lat":43.27992,"lon":5.41657,"is_reserved":false,"is_disabled":false,"rental_uris":{"android":"levelo://app?vid=3a9e3de9-989d-49ef-baaf-f60698970372","ios":"levelo://app?vid=3a9e3de9-989d-49ef-baaf-f60698970372"},"vehicle_type_id":"4","last_reported":1701407244,"current_range_meters":16800,"station_id":"ce4bho12rcd13ifvqh1g","pricing_plan_id":"free"},{"bike_id":"c7f81e7f-054f-4e2f-82ee-e605f4015608","system_id":"levelo_inurba_marseille","lat":43.279945,"lon":5.416605,"is_reserved":false,"is_disabled":false,"rental_uris":{"android":"levelo://app?vid=c7f81e7f-054f-4e2f-82ee-e605f4015608","ios":"levelo://app?vid=c7f81e7f-054f-4e2f-82ee-e605f4015608"},"vehicle_type_id":"4","last_reported":1701407244,"current_range_meters":15600,"station_id":"ce4bho12rcd13ifvqh1g","pricing_plan_id":"free"},{"bike_id":"14f8f730-2410-4ff3-b8e9-463bf298232a","system_id":"levelo_inurba_marseille","lat":43.27996,"lon":5.416624,"is_reserved":false,"is_disabled":false,"rental_uris":{"android":"levelo://app?vid=14f8f730-2410-4ff3-b8e9-463bf298232a","ios":"levelo://app?vid=14f8f730-2410-4ff3-b8e9-463bf298232a"},"vehicle_type_id":"4","last_reported":1701407244,"current_range_meters":7600,"station_id":"ce4bho12rcd13ifvqh1g","pricing_plan_id":"free"},{"bike_id":"11d579cd-d95c-4f27-b1d9-b6ec1b617449","system_id":"levelo_inurba_marseille","lat":43.27989,"lon":5.416563,"is_reserved":false,"is_disabled":false,"rental_uris":{"android":"levelo://app?vid=11d579cd-d95c-4f27-b1d9-b6ec1b617449","ios":"levelo://app?vid=11d579cd-d95c-4f27-b1d9-b6ec1b617449"},"vehicle_type_id":"4","last_reported":1701407244,"current_range_meters":20000,"station_id":"ce4bho12rcd13ifvqh1g","pricing_plan_id":"free"},{"bike_id":"577a75b4-3dc3-4fd2-8d74-fdb209bce3cf","system_id":"levelo_inurba_marseille","lat":43.279888,"lon":5.41656,"is_reserved":false,"is_disabled":false,"rental_uris":{"android":"levelo://app?vid=577a75b4-3dc3-4fd2-8d74-fdb209bce3cf","ios":"levelo://app?vid=577a75b4-3dc3-4fd2-8d74-fdb209bce3cf"},"vehicle_type_id":"4","last_reported":1701407244,"current_range_meters":17600,"station_id":"ce4bho12rcd13ifvqh1g","pricing_plan_id":"free"},{"bike_id":"9aa6a01b-7a87-4263-87de-1b8d44f3a155","system_id":"levelo_inurba_marseille","lat":43.279891,"lon":5.416588,"is_reserved":false,"is_disabled":false,"rental_uris":{"android":"levelo://app?vid=9aa6a01b-7a87-4263-87de-1b8d44f3a155","ios":"levelo://app?vid=9aa6a01b-7a87-4263-87de-1b8d44f3a155"},"vehicle_type_id":"4","last_reported":1701407244,"current_range_meters":22000,"station_id":"ce4bho12rcd13ifvqh1g","pricing_plan_id":"free"},{"bike_id":"15f9d067-797e-4c09-86bb-e3859d8b3fd3","system_id":"levelo_inurba_marseille","lat":43.27996,"lon":5.416624,"is_reserved":false,"is_disabled":false,"rental_uris":{"android":"levelo://app?vid=15f9d067-797e-4c09-86bb-e3859d8b3fd3","ios":"levelo://app?vid=15f9d067-797e-4c09-86bb-e3859d8b3fd3"},"vehicle_type_id":"4","last_reported":1701407244,"current_range_meters":24400,"station_id":"ce4bho12rcd13ifvqh1g","pricing_plan_id":"free"},{"bike_id":"2a595ed3-532e-459c-93d4-255be74e8c44","system_id":"levelo_inurba_marseille","lat":43.27996,"lon":5.416624,"is_reserved":false,"is_disabled":false,"rental_uris":{"android":"levelo://app?vid=2a595ed3-532e-459c-93d4-255be74e8c44","ios":"levelo://app?vid=2a595ed3-532e-459c-93d4-255be74e8c44"},"vehicle_type_id":"4","last_reported":1701407244,"current_range_meters":12800,"station_id":"ce4bho12rcd13ifvqh1g","pricing_plan_id":"free"},{"bike_id":"cf0c3df9-4e41-4907-b5be-38fa5b6d9c92","system_id":"levelo_inurba_marseille","lat":43.27996,"lon":5.416624,"is_reserved":false,"is_disabled":false,"rental_uris":{"android":"levelo://app?vid=cf0c3df9-4e41-4907-b5be-38fa5b6d9c92","ios":"levelo://app?vid=cf0c3df9-4e41-4907-b5be-38fa5b6d9c92"},"vehicle_type_id":"4","last_reported":1701407244,"current_range_meters":20000,"station_id":"ce4bho12rcd13ifvqh1g","pricing_plan_id":"free"},{"bike_id":"3c770fa2-dc81-484c-8beb-4b28c5042bdb","system_id":"levelo_inurba_marseille","lat":43.26783,"lon":5.39419,"is_reserved":false,"is_disabled":false,"rental_uris":{"android":"levelo://app?vid=3c770fa2-dc81-484c-8beb-4b28c5042bdb","ios":"levelo://app?vid=3c770fa2-dc81-484c-8beb-4b28c5042bdb"},"vehicle_type_id":"4","last_reported":1701407244,"current_range_meters":11600,"station_id":"ce4bhh12rcd13ifvqfg0","pricing_plan_id":"free"},{"bike_id":"56b78eb6-6a29-47d1-b0c1-064dfab655c8","system_id":"levelo_inurba_marseille","lat":43.267966,"lon":5.393976,"is_reserved":false,"is_disabled":false,"rental_uris":{"android":"levelo://app?vid=56b78eb6-6a29-47d1-b0c1-064dfab655c8","ios":"levelo://app?vid=56b78eb6-6a29-47d1-b0c1-064dfab655c8"},"vehicle_type_id":"4","last_reported":1701407244,"current_range_meters":30000,"station_id":"ce4bhh12rcd13ifvqfg0","pricing_plan_id":"free"},{"bike_id":"96fcd7f8-d2af-41c8-9db3-f400526a3fb4","system_id":"levelo_inurba_marseille","lat":43.265706,"lon":5.390117,"is_reserved":false,"is_disabled":false,"rental_uris":{"android":"levelo://app?vid=96fcd7f8-d2af-41c8-9db3-f400526a3fb4","ios":"levelo://app?vid=96fcd7f8-d2af-41c8-9db3-f400526a3fb4"},"vehicle_type_id":"4","last_reported":1701407244,"current_range_meters":30800,"station_id":"ce4bhe12rcd13ifvqf30","pricing_plan_id":"free"},{"bike_id":"a575b55e-cddf-457d-aa98-d31f78af4746","system_id":"levelo_inurba_marseille","lat":43.26569,"lon":5.39006,"is_reserved":false,"is_disabled":false,"rental_uris":{"android":"levelo://app?vid=a575b55e-cddf-457d-aa98-d31f78af4746","ios":"levelo://app?vid=a575b55e-cddf-457d-aa98-d31f78af4746"},"vehicle_type_id":"4","last_reported":1701407244,"current_range_meters":31200,"station_id":"ce4bhe12rcd13ifvqf30","pricing_plan_id":"free"},{"bike_id":"8e8d349d-09ef-483a-8322-0fd5fbd7b38e","system_id":"levelo_inurba_marseille","lat":43.308051,"lon":5.43527,"is_reserved":false,"is_disabled":false,"rental_uris":{"android":"levelo://app?vid=8e8d349d-09ef-483a-8322-0fd5fbd7b38e","ios":"levelo://app?vid=8e8d349d-09ef-483a-8322-0fd5fbd7b38e"},"vehicle_type_id":"4","last_reported":1701407244,"current_range_meters":28800,"station_id":"ce4bhph2rcd13ifvqheg","pricing_plan_id":"free"},{"bike_id":"f674a954-23af-4a3b-925c-73dd6de8b90d","system_id":"levelo_inurba_marseille","lat":43.265571,"lon":5.390032,"is_reserved":false,"is_disabled":false,"rental_uris":{"android":"levelo://app?vid=f674a954-23af-4a3b-925c-73dd6de8b90d","ios":"levelo://app?vid=f674a954-23af-4a3b-925c-73dd6de8b90d"},"vehicle_type_id":"4","last_reported":1701407244,"current_range_meters":18400,"station_id":"ce4bhe12rcd13ifvqf30","pricing_plan_id":"free"},{"bike_id":"97651392-0be8-4e9f-90c2-919808dab849","system_id":"levelo_inurba_marseille","lat":43.265588,"lon":5.39004,"is_reserved":false,"is_disabled":false,"rental_uris":{"android":"levelo://app?vid=97651392-0be8-4e9f-90c2-919808dab849","ios":"levelo://app?vid=97651392-0be8-4e9f-90c2-919808dab849"},"vehicle_type_id":"4","last_reported":1701407244,"current_range_meters":30400,"station_id":"ce4bhe12rcd13ifvqf30","pricing_plan_id":"free"},{"bike_id":"5f39605a-cec7-4981-b3c6-283808937125","system_id":"levelo_inurba_marseille","lat":43.26947,"lon":5.4025,"is_reserved":false,"is_disabled":false,"rental_uris":{"android":"levelo://app?vid=5f39605a-cec7-4981-b3c6-283808937125","ios":"levelo://app?vid=5f39605a-cec7-4981-b3c6-283808937125"},"vehicle_type_id":"4","last_reported":1701407244,"current_range_meters":29200,"station_id":"cjm6bp8fraef2m0cb0m0","pricing_plan_id":"free"},{"bike_id":"fbb57d66-d685-433d-a7b8-cd38a94cc5df","system_id":"levelo_inurba_marseille","lat":43.26945,"lon":5.40248,"is_reserved":false,"is_disabled":false,"rental_uris":{"android":"levelo://app?vid=fbb57d66-d685-433d-a7b8-cd38a94cc5df","ios":"levelo://app?vid=fbb57d66-d685-433d-a7b8-cd38a94cc5df"},"vehicle_type_id":"4","last_reported":1701407244,"current_range_meters":31200,"station_id":"cjm6bp8fraef2m0cb0m0","pricing_plan_id":"free"},{"bike_id":"41ba5062-c21c-4427-88da-4e4857cd5b09","system_id":"levelo_inurba_marseille","lat":43.269451,"lon":5.402587,"is_reserved":false,"is_disabled":false,"rental_uris":{"android":"levelo://app?vid=41ba5062-c21c-4427-88da-4e4857cd5b09","ios":"levelo://app?vid=41ba5062-c21c-4427-88da-4e4857cd5b09"},"vehicle_type_id":"4","last_reported":1701407244,"current_range_meters":23200,"station_id":"cjm6bp8fraef2m0cb0m0","pricing_plan_id":"free"},{"bike_id":"44d51874-045e-4906-a2f9-909193d67e63","system_id":"levelo_inurba_marseille","lat":43.317104,"lon":5.436818,"is_reserved":false,"is_disabled":false,"rental_uris":{"android":"levelo://app?vid=44d51874-045e-4906-a2f9-909193d67e63","ios":"levelo://app?vid=44d51874-045e-4906-a2f9-909193d67e63"},"vehicle_type_id":"4","last_reported":1701407244,"current_range_meters":27600,"station_id":"ce4bhp92rcd13ifvqhcg","pricing_plan_id":"free"},{"bike_id":"6d50931a-5553-495d-be31-bbcf7bdad9de","system_id":"levelo_inurba_marseille","lat":43.317104,"lon":5.436818,"is_reserved":false,"is_disabled":false,"rental_uris":{"android":"levelo://app?vid=6d50931a-5553-495d-be31-bbcf7bdad9de","ios":"levelo://app?vid=6d50931a-5553-495d-be31-bbcf7bdad9de"},"vehicle_type_id":"4","last_reported":1701407244,"current_range_meters":31200,"station_id":"ce4bhp92rcd13ifvqhcg","pricing_plan_id":"free"},{"bike_id":"7fe6820a-06e6-42d8-9e38-8e0428267591","system_id":"levelo_inurba_marseille","lat":43.317104,"lon":5.436818,"is_reserved":false,"is_disabled":false,"rental_uris":{"android":"levelo://app?vid=7fe6820a-06e6-42d8-9e38-8e0428267591","ios":"levelo://app?vid=7fe6820a-06e6-42d8-9e38-8e0428267591"},"vehicle_type_id":"4","last_reported":1701407244,"current_range_meters":28400,"station_id":"ce4bhp92rcd13ifvqhcg","pricing_plan_id":"free"},{"bike_id":"6bf337bd-9c84-4e3a-bc27-176fdeb3212f","system_id":"levelo_inurba_marseille","lat":43.271388,"lon":5.409269,"is_reserved":false,"is_disabled":false,"rental_uris":{"android":"levelo://app?vid=6bf337bd-9c84-4e3a-bc27-176fdeb3212f","ios":"levelo://app?vid=6bf337bd-9c84-4e3a-bc27-176fdeb3212f"},"vehicle_type_id":"4","last_reported":1701407244,"current_range_meters":30400,"station_id":"ce4bhl12rcd13ifvqgf0","pricing_plan_id":"free"},{"bike_id":"e537fa83-9b67-4cbf-9eeb-5080f4aab4e6","system_id":"levelo_inurba_marseille","lat":43.271368,"lon":5.40928,"is_reserved":false,"is_disabled":false,"rental_uris":{"android":"levelo://app?vid=e537fa83-9b67-4cbf-9eeb-5080f4aab4e6","ios":"levelo://app?vid=e537fa83-9b67-4cbf-9eeb-5080f4aab4e6"},"vehicle_type_id":"4","last_reported":1701407244,"current_range_meters":13600,"station_id":"ce4bhl12rcd13ifvqgf0","pricing_plan_id":"free"},{"bike_id":"47bea9d8-b138-432f-9ef0-65c63add9fea","system_id":"levelo_inurba_marseille","lat":43.298947,"lon":5.43661,"is_reserved":false,"is_disabled":false,"rental_uris":{"android":"levelo://app?vid=47bea9d8-b138-432f-9ef0-65c63add9fea","ios":"levelo://app?vid=47bea9d8-b138-432f-9ef0-65c63add9fea"},"vehicle_type_id":"4","last_reported":1701407244,"current_range_meters":24000,"station_id":"ce4bhpp2rcd13ifvqhfg","pricing_plan_id":"free"},{"bike_id":"3e4fb47e-33e8-4ee2-bfc1-1bd948cfa529","system_id":"levelo_inurba_marseille","lat":43.281548,"lon":5.42643,"is_reserved":false,"is_disabled":false,"rental_uris":{"android":"levelo://app?vid=3e4fb47e-33e8-4ee2-bfc1-1bd948cfa529","ios":"levelo://app?vid=3e4fb47e-33e8-4ee2-bfc1-1bd948cfa529"},"vehicle_type_id":"4","last_reported":1701407244,"current_range_meters":31200,"station_id":"ce4bhnh2rcd13ifvqgug","pricing_plan_id":"free"},{"bike_id":"3f2b1989-5b73-4cd5-aa40-2053eed33222","system_id":"levelo_inurba_marseille","lat":43.2815,"lon":5.42642,"is_reserved":false,"is_disabled":false,"rental_uris":{"android":"levelo://app?vid=3f2b1989-5b73-4cd5-aa40-2053eed33222","ios":"levelo://app?vid=3f2b1989-5b73-4cd5-aa40-2053eed33222"},"vehicle_type_id":"4","last_reported":1701407244,"current_range_meters":7600,"station_id":"ce4bhnh2rcd13ifvqgug","pricing_plan_id":"free"},{"bike_id":"08ee9831-e27a-4de6-b434-68bc147048ef","system_id":"levelo_inurba_marseille","lat":43.281548,"lon":5.42643,"is_reserved":false,"is_disabled":false,"rental_uris":{"android":"levelo://app?vid=08ee9831-e27a-4de6-b434-68bc147048ef","ios":"levelo://app?vid=08ee9831-e27a-4de6-b434-68bc147048ef"},"vehicle_type_id":"4","last_reported":1701407244,"current_range_meters":31200,"station_id":"ce4bhnh2rcd13ifvqgug","pricing_plan_id":"free"},{"bike_id":"cb609a7b-f9ee-4981-a18f-2f84ebe6425d","system_id":"levelo_inurba_marseille","lat":43.281548,"lon":5.42643,"is_reserved":false,"is_disabled":false,"rental_uris":{"android":"levelo://app?vid=cb609a7b-f9ee-4981-a18f-2f84ebe6425d","ios":"levelo://app?vid=cb609a7b-f9ee-4981-a18f-2f84ebe6425d"},"vehicle_type_id":"4","last_reported":1701407244,"current_range_meters":30000,"station_id":"ce4bhnh2rcd13ifvqgug","pricing_plan_id":"free"},{"bike_id":"3532a786-7312-4db1-88be-2e5e8a274941","system_id":"levelo_inurba_marseille","lat":43.281548,"lon":5.42643,"is_reserved":false,"is_disabled":false,"rental_uris":{"android":"levelo://app?vid=3532a786-7312-4db1-88be-2e5e8a274941","ios":"levelo://app?vid=3532a786-7312-4db1-88be-2e5e8a274941"},"vehicle_type_id":"4","last_reported":1701407244,"current_range_meters":26800,"station_id":"ce4bhnh2rcd13ifvqgug","pricing_plan_id":"free"},{"bike_id":"cc814f0d-7353-4dc1-89a7-72e6d0004443","system_id":"levelo_inurba_marseille","lat":43.281548,"lon":5.42643,"is_reserved":false,"is_disabled":false,"rental_uris":{"android":"levelo://app?vid=cc814f0d-7353-4dc1-89a7-72e6d0004443","ios":"levelo://app?vid=cc814f0d-7353-4dc1-89a7-72e6d0004443"},"vehicle_type_id":"4","last_reported":1701407244,"current_range_meters":28000,"station_id":"ce4bhnh2rcd13ifvqgug","pricing_plan_id":"free"},{"bike_id":"9884da46-dbee-4694-8eae-d8c675238555","system_id":"levelo_inurba_marseille","lat":43.2607,"lon":5.393983,"is_reserved":false,"is_disabled":false,"rental_uris":{"android":"levelo://app?vid=9884da46-dbee-4694-8eae-d8c675238555","ios":"levelo://app?vid=9884da46-dbee-4694-8eae-d8c675238555"},"vehicle_type_id":"4","last_reported":1701407244,"current_range_meters":26800,"station_id":"ce4bhh92rcd13ifvqfj0","pricing_plan_id":"free"},{"bike_id":"b94ce14f-537b-434a-ab37-f9e59c617f40","system_id":"levelo_inurba_marseille","lat":43.2607,"lon":5.393983,"is_reserved":false,"is_disabled":false,"rental_uris":{"android":"levelo://app?vid=b94ce14f-537b-434a-ab37-f9e59c617f40","ios":"levelo://app?vid=b94ce14f-537b-434a-ab37-f9e59c617f40"},"vehicle_type_id":"4","last_reported":1701407244,"current_range_meters":26400,"station_id":"ce4bhh92rcd13ifvqfj0","pricing_plan_id":"free"},{"bike_id":"6802cc87-2400-474e-af55-196975da3aba","system_id":"levelo_inurba_marseille","lat":43.2607,"lon":5.393983,"is_reserved":false,"is_disabled":false,"rental_uris":{"android":"levelo://app?vid=6802cc87-2400-474e-af55-196975da3aba","ios":"levelo://app?vid=6802cc87-2400-474e-af55-196975da3aba"},"vehicle_type_id":"4","last_reported":1701407244,"current_range_meters":30800,"station_id":"ce4bhh92rcd13ifvqfj0","pricing_plan_id":"free"},{"bike_id":"c3be5e57-b7df-4b6f-84f6-e0b7439e5774","system_id":"levelo_inurba_marseille","lat":43.274971,"lon":5.424384,"is_reserved":false,"is_disabled":false,"rental_uris":{"android":"levelo://app?vid=c3be5e57-b7df-4b6f-84f6-e0b7439e5774","ios":"levelo://app?vid=c3be5e57-b7df-4b6f-84f6-e0b7439e5774"},"vehicle_type_id":"4","last_reported":1701407244,"current_range_meters":28800,"station_id":"ce4bhn92rcd13ifvqgrg","pricing_plan_id":"free"},{"bike_id":"2439b834-5f68-4270-bc56-f53ff23adca1","system_id":"levelo_inurba_marseille","lat":43.274961,"lon":5.424495,"is_reserved":false,"is_disabled":false,"rental_uris":{"android":"levelo://app?vid=2439b834-5f68-4270-bc56-f53ff23adca1","ios":"levelo://app?vid=2439b834-5f68-4270-bc56-f53ff23adca1"},"vehicle_type_id":"4","last_reported":1701407244,"current_range_meters":18400,"station_id":"ce4bhn92rcd13ifvqgrg","pricing_plan_id":"free"},{"bike_id":"c040221f-815d-42e3-a1af-5b82d48cfeb0","system_id":"levelo_inurba_marseille","lat":43.260859,"lon":5.397561,"is_reserved":false,"is_disabled":false,"rental_uris":{"android":"levelo://app?vid=c040221f-815d-42e3-a1af-5b82d48cfeb0","ios":"levelo://app?vid=c040221f-815d-42e3-a1af-5b82d48cfeb0"},"vehicle_type_id":"4","last_reported":1701407244,"current_range_meters":23200,"station_id":"ce4bhi12rcd13ifvqfq0","pricing_plan_id":"free"},{"bike_id":"90be79e1-0376-4ea4-8316-7305724a7fab","system_id":"levelo_inurba_marseille","lat":43.26086,"lon":5.39761,"is_reserved":false,"is_disabled":false,"rental_uris":{"android":"levelo://app?vid=90be79e1-0376-4ea4-8316-7305724a7fab","ios":"levelo://app?vid=90be79e1-0376-4ea4-8316-7305724a7fab"},"vehicle_type_id":"4","last_reported":1701407244,"current_range_meters":31200,"station_id":"ce4bhi12rcd13ifvqfq0","pricing_plan_id":"free"},{"bike_id":"f8dc2911-8d05-4d2e-a014-1e8cbe0ea255","system_id":"levelo_inurba_marseille","lat":43.254947,"lon":5.376454,"is_reserved":false,"is_disabled":false,"rental_uris":{"android":"levelo://app?vid=f8dc2911-8d05-4d2e-a014-1e8cbe0ea255","ios":"levelo://app?vid=f8dc2911-8d05-4d2e-a014-1e8cbe0ea255"},"vehicle_type_id":"4","last_reported":1701407244,"current_range_meters":25200,"station_id":"ce4bhh12rcd13ifvqff0","pricing_plan_id":"free"},{"bike_id":"fac0e422-c37f-421d-8e1b-a25ffb37ce17","system_id":"levelo_inurba_marseille","lat":43.270721,"lon":5.422764,"is_reserved":false,"is_disabled":false,"rental_uris":{"android":"levelo://app?vid=fac0e422-c37f-421d-8e1b-a25ffb37ce17","ios":"levelo://app?vid=fac0e422-c37f-421d-8e1b-a25ffb37ce17"},"vehicle_type_id":"4","last_reported":1701407244,"current_range_meters":29600,"station_id":"ce4bhk92rcd13ifvqgb0","pricing_plan_id":"free"},{"bike_id":"2c794cda-e1ba-4030-acff-649085b058d6","system_id":"levelo_inurba_marseille","lat":43.270721,"lon":5.422764,"is_reserved":false,"is_disabled":false,"rental_uris":{"android":"levelo://app?vid=2c794cda-e1ba-4030-acff-649085b058d6","ios":"levelo://app?vid=2c794cda-e1ba-4030-acff-649085b058d6"},"vehicle_type_id":"4","last_reported":1701407244,"current_range_meters":21600,"station_id":"ce4bhk92rcd13ifvqgb0","pricing_plan_id":"free"},{"bike_id":"8cd40457-df3c-442c-9c12-906e3c8faafc","system_id":"levelo_inurba_marseille","lat":43.270721,"lon":5.422764,"is_reserved":false,"is_disabled":false,"rental_uris":{"android":"levelo://app?vid=8cd40457-df3c-442c-9c12-906e3c8faafc","ios":"levelo://app?vid=8cd40457-df3c-442c-9c12-906e3c8faafc"},"vehicle_type_id":"4","last_reported":1701407244,"current_range_meters":16000,"station_id":"ce4bhk92rcd13ifvqgb0","pricing_plan_id":"free"},{"bike_id":"c31d6f97-d623-4262-9b94-0580c155f5d1","system_id":"levelo_inurba_marseille","lat":43.270691,"lon":5.422754,"is_reserved":false,"is_disabled":false,"rental_uris":{"android":"levelo://app?vid=c31d6f97-d623-4262-9b94-0580c155f5d1","ios":"levelo://app?vid=c31d6f97-d623-4262-9b94-0580c155f5d1"},"vehicle_type_id":"4","last_reported":1701407244,"current_range_meters":9200,"station_id":"ce4bhk92rcd13ifvqgb0","pricing_plan_id":"free"},{"bike_id":"778d91d1-a56b-4d1c-9e21-0c246272ecde","system_id":"levelo_inurba_marseille","lat":43.270721,"lon":5.422764,"is_reserved":false,"is_disabled":false,"rental_uris":{"android":"levelo://app?vid=778d91d1-a56b-4d1c-9e21-0c246272ecde","ios":"levelo://app?vid=778d91d1-a56b-4d1c-9e21-0c246272ecde"},"vehicle_type_id":"4","last_reported":1701407244,"current_range_meters":18400,"station_id":"ce4bhk92rcd13ifvqgb0","pricing_plan_id":"free"},