{"last_updated":1685419667,"ttl":30,"version":"2.2","data":{"bikes":[{"bike_id":"bec845d2-2d87-4937-aacc-788b846ce2cd","system_id":"levelo_inurba_marseille","lat":43.31341,"lon":5.367098,"is_reserved":false,"is_disabled":false,"rental_uris":{"android":"levelo://app?vid=bec845d2-2d87-4937-aacc-788b846ce2cd","ios":"levelo://app?vid=bec845d2-2d87-4937-aacc-788b846ce2cd"},"vehicle_type_id":"4","last_reported":1685419667,"current_range_meters":31200,"station_id":"ce4bgr92rcd13ifvqc6g","pricing_plan_id":"free"},{"bike_id":"e08eda01-b452-4e01-9b74-f7bdbd308eb5","system_id":"levelo_inurba_marseille","lat":43.31341,"lon":5.367098,"is_reserved":false,"is_disabled":false,"rental_uris":{"android":"levelo://app?vid=e08eda01-b452-4e01-9b74-f7bdbd308eb5","ios":"levelo://app?vid=e08eda01-b452-4e01-9b74-f7bdbd308eb5"},"vehicle_type_id":"4","last_reported":1685419667,"current_range_meters":31200,"station_id":"ce4bgr92rcd13ifvqc6g","pricing_plan_id":"free"},{"bike_id":"8def1d03-e0f0-4546-a13d-0d93ecc5df11","system_id":"levelo_inurba_marseille","lat":43.313391,"lon":5.36706,"is_reserved":false,"is_disabled":false,"rental_uris":{"android":"levelo://app?vid=8def1d03-e0f0-4546-a13d-0d93ecc5df11","ios":"levelo://app?vid=8def1d03-e0f0-4546-a13d-0d93ecc5df11"},"vehicle_type_id":"4","last_reported":1685419667,"current_range_meters":30800,"station_id":"ce4bgr92rcd13ifvqc6g","pricing_plan_id":"free"},{"bike_id":"9b7f4c69-5eb0-4e03-983c-3058e9389662","system_id":"levelo_inurba_marseille","lat":43.313391,"lon":5.36706,"is_reserved":false,"is_disabled":false,"rental_uris":{"android":"levelo://app?vid=9b7f4c69-5eb0-4e03-983c-3058e9389662","ios":"levelo://app?vid=9b7f4c69-5eb0-4e03-983c-3058e9389662"},"vehicle_type_id":"4","last_reported":1685419667,"current_range_meters":28400,"station_id":"ce4bgr92rcd13ifvqc6g","pricing_plan_id":"free"},{"bike_id":"6a1b2239-b3ba-4402-9bf6-1b600d0c9e36","system_id":"levelo_inurba_marseille","lat":43.312239,"lon":5.368562,"is_reserved":false,"is_disabled":false,"rental_uris":{"android":"levelo://app?vid=6a1b2239-b3ba-4402-9bf6-1b600d0c9e36","ios":"levelo://app?vid=6a1b2239-b3ba-4402-9bf6-1b600d0c9e36"},"vehicle_type_id":"4","last_reported":1685419667,"current_range_meters":26800,"station_id":"ce4bgl92rcd13ifvqbq0","pricing_plan_id":"free"},{"bike_id":"cb92cb49-893c-4409-836f-df07497b5e60","system_id":"levelo_inurba_marseille","lat":43.312239,"lon":5.368562,"is_reserved":false,"is_disabled":false,"rental_uris":{"android":"levelo://app?vid=cb92cb49-893c-4409-836f-df07497b5e60","ios":"levelo://app?vid=cb92cb49-893c-4409-836f-df07497b5e60"},"vehicle_type_id":"4","last_reported":1685419667,"current_range_meters":29200,"station_id":"ce4bgl92rcd13ifvqbq0","pricing_plan_id":"free"},{"bike_id":"d43184f2-2bb9-4ae3-8dd1-fc2b681f5bcd","system_id":"levelo_inurba_marseille","lat":43.309076,"lon":5.368465,"is_reserved":false,"is_disabled":false,"rental_uris":{"android":"levelo://app?vid=d43184f2-2bb9-4ae3-8dd1-fc2b681f5bcd","ios":"levelo://app?vid=d43184f2-2bb9-4ae3-8dd1-fc2b681f5bcd"},"vehicle_type_id":"4","last_reported":1685419667,"current_range_meters":28800,"station_id":"ce4bgn92rcd13ifvqbvg","pricing_plan_id":"free"},{"bike_id":"c1137dfe-a0e4-461f-b3c1-133df0a81558","system_id":"levelo_inurba_marseille","lat":43.309076,"lon":5.368465,"is_reserved":false,"is_disabled":false,"rental_uris":{"android":"levelo://app?vid=c1137dfe-a0e4-461f-b3c1-133df0a81558","ios":"levelo://app?vid=c1137dfe-a0e4-461f-b3c1-133df0a81558"},"vehicle_type_id":"4","last_reported":1685419667,"current_range_meters":28400,"station_id":"ce4bgn92rcd13ifvqbvg","pricing_plan_id":"free"},{"bike_id":"d226e977-3f0b-4b0c-a0e0-157c44aec210","system_id":"levelo_inurba_marseille","lat":43.314811,"lon":5.373104,"is_reserved":false,"is_disabled":false,"rental_uris":{"android":"levelo://app?vid=d226e977-3f0b-4b0c-a0e0-157c44aec210","ios":"levelo://app?vid=d226e977-3f0b-4b0c-a0e0-157c44aec210"},"vehicle_type_id":"4","last_reported":1685419667,"current_range_meters":28400,"station_id":"ce4bgt12rcd13ifvqcd0","pricing_plan_id":"free"},{"bike_id":"780aa4bd-4a66-4168-b5ea-8a27ce684ee0","system_id":"levelo_inurba_marseille","lat":43.314811,"lon":5.373103,"is_reserved":false,"is_disabled":false,"rental_uris":{"android":"levelo://app?vid=780aa4bd-4a66-4168-b5ea-8a27ce684ee0","ios":"levelo://app?vid=780aa4bd-4a66-4168-b5ea-8a27ce684ee0"},"vehicle_type_id":"4","last_reported":1685419667,"current_range_meters":28000,"station_id":"ce4bgt12rcd13ifvqcd0","pricing_plan_id":"free"},{"bike_id":"5c121b33-ec28-4f78-a2fd-ad9028e51911","system_id":"levelo_inurba_marseille","lat":43.314811,"lon":5.373103,"is_reserved":false,"is_disabled":false,"rental_uris":{"android":"levelo://app?vid=5c121b33-ec28-4f78-a2fd-ad9028e51911","ios":"levelo://app?vid=5c121b33-ec28-4f78-a2fd-ad9028e51911"},"vehicle_type_id":"4","last_reported":1685419667,"current_range_meters":28000,"station_id":"ce4bgt12rcd13ifvqcd0","pricing_plan_id":"free"},{"bike_id":"c8e7caf2-3af1-4219-bf65-e7ce42a09e88","system_id":"levelo_inurba_marseille","lat":43.314811,"lon":5.373103,"is_reserved":false,"is_disabled":false,"rental_uris":{"android":"levelo://app?vid=c8e7caf2-3af1-4219-bf65-e7ce42a09e88","ios":"levelo://app?vid=c8e7caf2-3af1-4219-bf65-e7ce42a09e88"},"vehicle_type_id":"4","last_reported":1685419667,"current_range_meters":31200,"station_id":"ce4bgt12rcd13ifvqcd0","pricing_plan_id":"free"},{"bike_id":"181f9dd6-f330-4308-85f7-b6a64ef702cc","system_id":"levelo_inurba_marseille","lat":43.314811,"lon":5.373103,"is_reserved":false,"is_disabled":false,"rental_uris":{"android":"levelo://app?vid=181f9dd6-f330-4308-85f7-b6a64ef702cc","ios":"levelo://app?vid=181f9dd6-f330-4308-85f7-b6a64ef702cc"},"vehicle_type_id":"4","last_reported":1685419667,"current_range_meters":30400,"station_id":"ce4bgt12rcd13ifvqcd0","pricing_plan_id":"free"},{"bike_id":"1b000bd2-4a72-44c5-a438-9d6ecfb521e0","system_id":"levelo_inurba_marseille","lat":43.308614,"lon":5.372098,"is_reserved":false,"is_disabled":false,"rental_uris":{"android":"levelo://app?vid=1b000bd2-4a72-44c5-a438-9d6ecfb521e0","ios":"levelo://app?vid=1b000bd2-4a72-44c5-a438-9d6ecfb521e0"},"vehicle_type_id":"4","last_reported":1685419667,"current_range_meters":20800,"station_id":"ce4bguh2rcd13ifvqckg","pricing_plan_id":"free"},{"bike_id":"1deeeaee-bb6e-48ba-8245-0132ced8db15","system_id":"levelo_inurba_marseille","lat":43.30527,"lon":5.36726,"is_reserved":false,"is_disabled":false,"rental_uris":{"android":"levelo://app?vid=1deeeaee-bb6e-48ba-8245-0132ced8db15","ios":"levelo://app?vid=1deeeaee-bb6e-48ba-8245-0132ced8db15"},"vehicle_type_id":"4","last_reported":1685419667,"current_range_meters":10800,"station_id":"ce4bgrp2rcd13ifvqc9g","pricing_plan_id":"free"},{"bike_id":"ac751029-a36a-4c20-84c0-fbf41f302d46","system_id":"levelo_inurba_marseille","lat":43.311125,"lon":5.377624,"is_reserved":false,"is_disabled":false,"rental_uris":{"android":"levelo://app?vid=ac751029-a36a-4c20-84c0-fbf41f302d46","ios":"levelo://app?vid=ac751029-a36a-4c20-84c0-fbf41f302d46"},"vehicle_type_id":"4","last_reported":1685419667,"current_range_meters":31200,"station_id":"ce4bgt92rcd13ifvqcg0","pricing_plan_id":"free"},{"bike_id":"63d2131f-8a77-4ba6-a3ba-21102844d528","system_id":"levelo_inurba_marseille","lat":43.317075,"lon":5.377367,"is_reserved":false,"is_disabled":false,"rental_uris":{"android":"levelo://app?vid=63d2131f-8a77-4ba6-a3ba-21102844d528","ios":"levelo://app?vid=63d2131f-8a77-4ba6-a3ba-21102844d528"},"vehicle_type_id":"4","last_reported":1685419667,"current_range_meters":11200,"station_id":"ce4bgth2rcd13ifvqch0","pricing_plan_id":"free"},{"bike_id":"82c640b9-6106-4a65-8e2c-30cf6d7471a6","system_id":"levelo_inurba_marseille","lat":43.31288,"lon":5.37958,"is_reserved":false,"is_disabled":false,"rental_uris":{"android":"levelo://app?vid=82c640b9-6106-4a65-8e2c-30cf6d7471a6","ios":"levelo://app?vid=82c640b9-6106-4a65-8e2c-30cf6d7471a6"},"vehicle_type_id":"4","last_reported":1685419667,"current_range_meters":1600,"station_id":"","pricing_plan_id":"free"},{"bike_id":"d65d5a3e-ef58-42bd-9112-715d3d5f378a","system_id":"levelo_inurba_marseille","lat":43.303046,"lon":5.368981,"is_reserved":false,"is_disabled":false,"rental_uris":{"android":"levelo://app?vid=d65d5a3e-ef58-42bd-9112-715d3d5f378a","ios":"levelo://app?vid=d65d5a3e-ef58-42bd-9112-715d3d5f378a"},"vehicle_type_id":"4","last_reported":1685419667,"current_range_meters":0,"station_id":"ce4bgqh2rcd13ifvqc5g","pricing_plan_id":"free"},{"bike_id":"9b2f3088-ae68-4117-801f-b18495918fce","system_id":"levelo_inurba_marseille","lat":43.303046,"lon":5.368981,"is_reserved":false,"is_disabled":false,"rental_uris":{"android":"levelo://app?vid=9b2f3088-ae68-4117-801f-b18495918fce","ios":"levelo://app?vid=9b2f3088-ae68-4117-801f-b18495918fce"},"vehicle_type_id":"4","last_reported":1685419667,"current_range_meters":7200,"station_id":"ce4bgqh2rcd13ifvqc5g","pricing_plan_id":"free"},{"bike_id":"37a85ad5-7654-4f7c-91cb-95c4eda6da41","system_id":"levelo_inurba_marseille","lat":43.32265,"lon":5.36764,"is_reserved":false,"is_disabled":false,"rental_uris":{"android":"levelo://app?vid=37a85ad5-7654-4f7c-91cb-95c4eda6da41","ios":"levelo://app?vid=37a85ad5-7654-4f7c-91cb-95c4eda6da41"},"vehicle_type_id":"4","last_reported":1685419667,"current_range_meters":0,"station_id":"","pricing_plan_id":"free"},{"bike_id":"f69a3f8a-adab-435a-ad98-4302ca7a3c35","system_id":"levelo_inurba_marseille","lat":43.32273,"lon":5.36784,"is_reserved":false,"is_disabled":false,"rental_uris":{"android":"levelo://app?vid=f69a3f8a-adab-435a-ad98-4302ca7a3c35","ios":"levelo://app?vid=f69a3f8a-adab-435a-ad98-4302ca7a3c35"},"vehicle_type_id":"4","last_reported":1685419667,"current_range_meters":24000,"station_id":"","pricing_plan_id":"free"},{"bike_id":"c30f66ea-6e26-472f-9cbe-35fed83adc6f","system_id":"levelo_inurba_marseille","lat":43.315293,"lon":5.380349,"is_reserved":false,"is_disabled":false,"rental_uris":{"android":"levelo://app?vid=c30f66ea-6e26-472f-9cbe-35fed83adc6f","ios":"levelo://app?vid=c30f66ea-6e26-472f-9cbe-35fed83adc6f"},"vehicle_type_id":"4","last_reported":1685419667,"current_range_meters":0,"station_id":"ce4bhsp2rcd13ifvqi50","pricing_plan_id":"free"},{"bike_id":"818de21c-4d6b-47ca-8c3a-cfc1f7a89b0d","system_id":"levelo_inurba_marseille","lat":43.315293,"lon":5.380349,"is_reserved":false,"is_disabled":false,"rental_uris":{"android":"levelo://app?vid=818de21c-4d6b-47ca-8c3a-cfc1f7a89b0d","ios":"levelo://app?vid=818de21c-4d6b-47ca-8c3a-cfc1f7a89b0d"},"vehicle_type_id":"4","last_reported":1685419667,"current_range_meters":14000,"station_id":"ce4bhsp2rcd13ifvqi50","pricing_plan_id":"free"},{"bike_id":"0df700ef-95e9-4009-86fb-9e0105df5dea","system_id":"levelo_inurba_marseille","lat":43.31561,"lon":5.3806,"is_reserved":false,"is_disabled":false,"rental_uris":{"android":"levelo://app?vid=0df700ef-95e9-4009-86fb-9e0105df5dea","ios":"levelo://app?vid=0df700ef-95e9-4009-86fb-9e0105df5dea"},"vehicle_type_id":"4","last_reported":1685419667,"current_range_meters":14800,"station_id":"","pricing_plan_id":"free"},{"bike_id":"1111b733-5927-4e74-bb36-f239bf67bc8f","system_id":"levelo_inurba_marseille","lat":43.30187,"lon":5.36622,"is_reserved":false,"is_disabled":false,"rental_uris":{"android":"levelo://app?vid=1111b733-5927-4e74-bb36-f239bf67bc8f","ios":"levelo://app?vid=1111b733-5927-4e74-bb36-f239bf67bc8f"},"vehicle_type_id":"4","last_reported":1685419667,"current_range_meters":30800,"station_id":"ce4bgrh2rcd13ifvqc8g","pricing_plan_id":"free"},{"bike_id":"644a6d2f-c03c-4f6f-94d8-56f39feff25e","system_id":"levelo_inurba_marseille","lat":43.30182,"lon":5.36613,"is_reserved":false,"is_disabled":false,"rental_uris":{"android":"levelo://app?vid=644a6d2f-c03c-4f6f-94d8-56f39feff25e","ios":"levelo://app?vid=644a6d2f-c03c-4f6f-94d8-56f39feff25e"},"vehicle_type_id":"4","last_reported":1685419667,"current_range_meters":20800,"station_id":"ce4bgrh2rcd13ifvqc8g","pricing_plan_id":"free"},{"bike_id":"b00380b5-bef1-4c53-ab07-e0bd57a26a0b","system_id":"levelo_inurba_marseille","lat":43.301939,"lon":5.366286,"is_reserved":false,"is_disabled":false,"rental_uris":{"android":"levelo://app?vid=b00380b5-bef1-4c53-ab07-e0bd57a26a0b","ios":"levelo://app?vid=b00380b5-bef1-4c53-ab07-e0bd57a26a0b"},"vehicle_type_id":"4","last_reported":1685419667,"current_range_meters":28400,"station_id":"ce4bgrh2rcd13ifvqc8g","pricing_plan_id":"free"},{"bike_id":"edda1cc0-378a-4e10-bdad-abee79f7145f","system_id":"levelo_inurba_marseille","lat":43.308012,"lon":5.381511,"is_reserved":false,"is_disabled":false,"rental_uris":{"android":"levelo://app?vid=edda1cc0-378a-4e10-bdad-abee79f7145f","ios":"levelo://app?vid=edda1cc0-378a-4e10-bdad-abee79f7145f"},"vehicle_type_id":"4","last_reported":1685419667,"current_range_meters":22800,"station_id":"ce4bgt12rcd13ifvqce0","pricing_plan_id":"free"},{"bike_id":"ea3c0c4d-f025-4a1e-9022-c5534cbce1b2","system_id":"levelo_inurba_marseille","lat":43.304606,"lon":5.379026,"is_reserved":false,"is_disabled":false,"rental_uris":{"android":"levelo://app?vid=ea3c0c4d-f025-4a1e-9022-c5534cbce1b2","ios":"levelo://app?vid=ea3c0c4d-f025-4a1e-9022-c5534cbce1b2"},"vehicle_type_id":"4","last_reported":1685419667,"current_range_meters":30800,"station_id":"ce4bgup2rcd13ifvqcn0","pricing_plan_id":"free"},{"bike_id":"c5882b07-3dde-48da-ab71-f19a3994c455","system_id":"levelo_inurba_marseille","lat":43.304606,"lon":5.379026,"is_reserved":false,"is_disabled":false,"rental_uris":{"android":"levelo://app?vid=c5882b07-3dde-48da-ab71-f19a3994c455","ios":"levelo://app?vid=c5882b07-3dde-48da-ab71-f19a3994c455"},"vehicle_type_id":"4","last_reported":1685419667,"current_range_meters":31200,"station_id":"ce4bgup2rcd13ifvqcn0","pricing_plan_id":"free"},{"bike_id":"d84c3dbf-b9ed-42f2-a678-ec2a10713f3e","system_id":"levelo_inurba_marseille","lat":43.304606,"lon":5.379026,"is_reserved":false,"is_disabled":false,"rental_uris":{"android":"levelo://app?vid=d84c3dbf-b9ed-42f2-a678-ec2a10713f3e","ios":"levelo://app?vid=d84c3dbf-b9ed-42f2-a678-ec2a10713f3e"},"vehicle_type_id":"4","last_reported":1685419667,"current_range_meters":31200,"station_id":"ce4bgup2rcd13ifvqcn0","pricing_plan_id":"free"},{"bike_id":"865a3afd-f32b-4c0a-be46-fccdc2cb108a","system_id":"levelo_inurba_marseille","lat":43.304606,"lon":5.379026,"is_reserved":false,"is_disabled":false,"rental_uris":{"android":"levelo://app?vid=865a3afd-f32b-4c0a-be46-fccdc2cb108a","ios":"levelo://app?vid=865a3afd-f32b-4c0a-be46-fccdc2cb108a"},"vehicle_type_id":"4","last_reported":1685419667,"current_range_meters":13600,"station_id":"ce4bgup2rcd13ifvqcn0","pricing_plan_id":"free"},{"bike_id":"160feec9-be8f-4a58-808f-bf784521ac24","system_id":"levelo_inurba_marseille","lat":43.304606,"lon":5.379026,"is_reserved":false,"is_disabled":false,"rental_uris":{"android":"levelo://app?vid=160feec9-be8f-4a58-808f-bf784521ac24","ios":"levelo://app?vid=160feec9-be8f-4a58-808f-bf784521ac24"},"vehicle_type_id":"4","last_reported":1685419667,"current_range_meters":17200,"station_id":"ce4bgup2rcd13ifvqcn0","pricing_plan_id":"free"},{"bike_id":"3df5316f-d4fd-4aba-aeca-cf3b936d2794","system_id":"levelo_inurba_marseille","lat":43.304606,"lon":5.379026,"is_reserved":false,"is_disabled":false,"rental_uris":{"android":"levelo://app?vid=3df5316f-d4fd-4aba-aeca-cf3b936d2794","ios":"levelo://app?vid=3df5316f-d4fd-4aba-aeca-cf3b936d2794"},"vehicle_type_id":"4","last_reported":1685419667,"current_range_meters":8000,"station_id":"ce4bgup2rcd13ifvqcn0","pricing_plan_id":"free"},{"bike_id":"f51d97b2-21c7-43c2-ac5e-0076cd60722b","system_id":"levelo_inurba_marseille","lat":43.30456,"lon":5.37899,"is_reserved":false,"is_disabled":false,"rental_uris":{"android":"levelo://app?vid=f51d97b2-21c7-43c2-ac5e-0076cd60722b","ios":"levelo://app?vid=f51d97b2-21c7-43c2-ac5e-0076cd60722b"},"vehicle_type_id":"4","last_reported":1685419667,"current_range_meters":24000,"station_id":"ce4bgup2rcd13ifvqcn0","pricing_plan_id":"free"},{"bike_id":"0f2e5769-95d8-4536-9da7-b87a6ec16c77","system_id":"levelo_inurba_marseille","lat":43.304606,"lon":5.379026,"is_reserved":false,"is_disabled":false,"rental_uris":{"android":"levelo://app?vid=0f2e5769-95d8-4536-9da7-b87a6ec16c77","ios":"levelo://app?vid=0f2e5769-95d8-4536-9da7-b87a6ec16c77"},"vehicle_type_id":"4","last_reported":1685419667,"current_range_meters":22400,"station_id":"ce4bgup2rcd13ifvqcn0","pricing_plan_id":"free"},{"bike_id":"966e5f5f-5752-43aa-b3d2-9ff467692143","system_id":"levelo_inurba_marseille","lat":43.304606,"lon":5.379026,"is_reserved":false,"is_disabled":false,"rental_uris":{"android":"levelo://app?vid=966e5f5f-5752-43aa-b3d2-9ff467692143","ios":"levelo://app?vid=966e5f5f-5752-43aa-b3d2-9ff467692143"},"vehicle_type_id":"4","last_reported":1685419667,"current_range_meters":29200,"station_id":"ce4bgup2rcd13ifvqcn0","pricing_plan_id":"free"},{"bike_id":"eedc3d90-00d2-46fd-b68c-9e274d95fd8e","system_id":"levelo_inurba_marseille","lat":43.304606,"lon":5.379026,"is_reserved":false,"is_disabled":false,"rental_uris":{"android":"levelo://app?vid=eedc3d90-00d2-46fd-b68c-9e274d95fd8e","ios":"levelo://app?vid=eedc3d90-00d2-46fd-b68c-9e274d95fd8e"},"vehicle_type_id":"4","last_reported":1685419667,"current_range_meters":24400,"station_id":"ce4bgup2rcd13ifvqcn0","pricing_plan_id":"free"},{"bike_id":"c400e462-a4de-4542-ac86-b99081db2f1e","system_id":"levelo_inurba_marseille","lat":43.31635,"lon":5.38355,"is_reserved":false,"is_disabled":false,"rental_uris":{"android":"levelo://app?vid=c400e462-a4de-4542-ac86-b99081db2f1e","ios":"levelo://app?vid=c400e462-a4de-4542-ac86-b99081db2f1e"},"vehicle_type_id":"4","last_reported":1685419667,"current_range_meters":7200,"station_id":"","pricing_plan_id":"free"},{"bike_id":"d11da2d4-50ab-475d-a497-999f76f85bd5","system_id":"levelo_inurba_marseille","lat":43.31643,"lon":5.38352,"is_reserved":false,"is_disabled":false,"rental_uris":{"android":"levelo://app?vid=d11da2d4-50ab-475d-a497-999f76f85bd5","ios":"levelo://app?vid=d11da2d4-50ab-475d-a497-999f76f85bd5"},"vehicle_type_id":"4","last_reported":1685419667,"current_range_meters":19600,"station_id":"","pricing_plan_id":"free"},{"bike_id":"ac29a3e2-3de3-4ef9-a505-87d7fa405400","system_id":"levelo_inurba_marseille","lat":43.319935,"lon":5.381699,"is_reserved":false,"is_disabled":false,"rental_uris":{"android":"levelo://app?vid=ac29a3e2-3de3-4ef9-a505-87d7fa405400","ios":"levelo://app?vid=ac29a3e2-3de3-4ef9-a505-87d7fa405400"},"vehicle_type_id":"4","last_reported":1685419667,"current_range_meters":5200,"station_id":"ce4bhr12rcd13ifvqhpg","pricing_plan_id":"free"},{"bike_id":"c41492b7-eec8-43e4-b836-cee2e133a0fd","system_id":"levelo_inurba_marseille","lat":43.319935,"lon":5.381699,"is_reserved":false,"is_disabled":false,"rental_uris":{"android":"levelo://app?vid=c41492b7-eec8-43e4-b836-cee2e133a0fd","ios":"levelo://app?vid=c41492b7-eec8-43e4-b836-cee2e133a0fd"},"vehicle_type_id":"4","last_reported":1685419667,"current_range_meters":23200,"station_id":"ce4bhr12rcd13ifvqhpg","pricing_plan_id":"free"},{"bike_id":"2b79add7-fc91-4aff-9cc8-04f933dd2ada","system_id":"levelo_inurba_marseille","lat":43.313571,"lon":5.384829,"is_reserved":false,"is_disabled":false,"rental_uris":{"android":"levelo://app?vid=2b79add7-fc91-4aff-9cc8-04f933dd2ada","ios":"levelo://app?vid=2b79add7-fc91-4aff-9cc8-04f933dd2ada"},"vehicle_type_id":"4","last_reported":1685419667,"current_range_meters":29600,"station_id":"ce4bgt92rcd13ifvqcf0","pricing_plan_id":"free"},{"bike_id":"7c74ac4a-0a31-4a69-9cbf-1c1ee3eacc98","system_id":"levelo_inurba_marseille","lat":43.29933,"lon":5.3655,"is_reserved":false,"is_disabled":false,"rental_uris":{"android":"levelo://app?vid=7c74ac4a-0a31-4a69-9cbf-1c1ee3eacc98","ios":"levelo://app?vid=7c74ac4a-0a31-4a69-9cbf-1c1ee3eacc98"},"vehicle_type_id":"4","last_reported":1685419667,"current_range_meters":19200,"station_id":"ce4bgm92rcd13ifvqbr0","pricing_plan_id":"free"},{"bike_id":"100e372d-c41d-418d-8125-d395f50ee487","system_id":"levelo_inurba_marseille","lat":43.298433,"lon":5.362774,"is_reserved":false,"is_disabled":false,"rental_uris":{"android":"levelo://app?vid=100e372d-c41d-418d-8125-d395f50ee487","ios":"levelo://app?vid=100e372d-c41d-418d-8125-d395f50ee487"},"vehicle_type_id":"4","last_reported":1685419667,"current_range_meters":29600,"station_id":"ce4bgpp2rcd13ifvqc3g","pricing_plan_id":"free"},{"bike_id":"61784409-cab7-4b54-907f-173ab44f1b5c","system_id":"levelo_inurba_marseille","lat":43.305364,"lon":5.384119,"is_reserved":false,"is_disabled":false,"rental_uris":{"android":"levelo://app?vid=61784409-cab7-4b54-907f-173ab44f1b5c","ios":"levelo://app?vid=61784409-cab7-4b54-907f-173ab44f1b5c"},"vehicle_type_id":"4","last_reported":1685419667,"current_range_meters":31200,"station_id":"ce4bgg92rcd13ifvqb30","pricing_plan_id":"free"},{"bike_id":"1676f26c-60e2-4890-8fde-f7c2f2a29c3a","system_id":"levelo_inurba_marseille","lat":43.305364,"lon":5.384119,"is_reserved":false,"is_disabled":false,"rental_uris":{"android":"levelo://app?vid=1676f26c-60e2-4890-8fde-f7c2f2a29c3a","ios":"levelo://app?vid=1676f26c-60e2-4890-8fde-f7c2f2a29c3a"},"vehicle_type_id":"4","last_reported":1685419667,"current_range_meters":31200,"station_id":"ce4bgg92rcd13ifvqb30","pricing_plan_id":"free"},{"bike_id":"187412fd-0bfa-48cc-b45f-f560494d68dc","system_id":"levelo_inurba_marseille","lat":43.305364,"lon":5.384119,"is_reserved":false,"is_disabled":false,"rental_uris":{"android":"levelo://app?vid=187412fd-0bfa-48cc-b45f-f560494d68dc","ios":"levelo://app?vid=187412fd-0bfa-48cc-b45f-f560494d68dc"},"vehicle_type_id":"4","last_reported":1685419667,"current_range_meters":22400,"station_id":"ce4bgg92rcd13ifvqb30","pricing_plan_id":"free"},{"bike_id":"1c8b00ef-c5ee-47f0-8102-cef72177a6c4","system_id":"levelo_inurba_marseille","lat":43.3054,"lon":5.38434,"is_reserved":false,"is_disabled":false,"rental_uris":{"android":"levelo://app?vid=1c8b00ef-c5ee-47f0-8102-cef72177a6c4","ios":"levelo://app?vid=1c8b00ef-c5ee-47f0-8102-cef72177a6c4"},"vehicle_type_id":"4","last_reported":1685419667,"current_range_meters":31200,"station_id":"ce4bgg92rcd13ifvqb30","pricing_plan_id":"free"},{"bike_id":"0b5c8faa-ad42-48c7-a8b4-f63882c57f4b","system_id":"levelo_inurba_marseille","lat":43.305364,"lon":5.384119,"is_reserved":false,"is_disabled":false,"rental_uris":{"android":"levelo://app?vid=0b5c8faa-ad42-48c7-a8b4-f63882c57f4b","ios":"levelo://app?vid=0b5c8faa-ad42-48c7-a8b4-f63882c57f4b"},"vehicle_type_id":"4","last_reported":1685419667,"current_range_meters":19600,"station_id":"ce4bgg92rcd13ifvqb30","pricing_plan_id":"free"},{"bike_id":"a9065ac6-2a4c-4f0f-a1dc-8c7ed901fb9b","system_id":"levelo_inurba_marseille","lat":43.3117,"lon":5.38716,"is_reserved":false,"is_disabled":false,"rental_uris":{"android":"levelo://app?vid=a9065ac6-2a4c-4f0f-a1dc-8c7ed901fb9b","ios":"levelo://app?vid=a9065ac6-2a4c-4f0f-a1dc-8c7ed901fb9b"},"vehicle_type_id":"4","last_reported":1685419667,"current_range_meters":19600,"station_id":"ce4bgv12rcd13ifvqcp0","pricing_plan_id":"free"},{"bike_id":"df3d6a81-7580-4937-8c41-ddda94ee5a95","system_id":"levelo_inurba_marseille","lat":43.311722,"lon":5.387247,"is_reserved":false,"is_disabled":false,"rental_uris":{"android":"levelo://app?vid=df3d6a81-7580-4937-8c41-ddda94ee5a95","ios":"levelo://app?vid=df3d6a81-7580-4937-8c41-ddda94ee5a95"},"vehicle_type_id":"4","last_reported":1685419667,"current_range_meters":27200,"station_id":"ce4bgv12rcd13ifvqcp0","pricing_plan_id":"free"},{"bike_id":"3c2b22b1-05cc-4d62-aa6b-3c3dd6da8baa","system_id":"levelo_inurba_marseille","lat":43.311722,"lon":5.387247,"is_reserved":false,"is_disabled":false,"rental_uris":{"android":"levelo://app?vid=3c2b22b1-05cc-4d62-aa6b-3c3dd6da8baa","ios":"levelo://app?vid=3c2b22b1-05cc-4d62-aa6b-3c3dd6da8baa"},"vehicle_type_id":"4","last_reported":1685419667,"current_range_meters":30000,"station_id":"ce4bgv12rcd13ifvqcp0","pricing_plan_id":"free"},{"bike_id":"3a9014fb-8a03-4d3e-8308-64f10b523f35","system_id":"levelo_inurba_marseille","lat":43.311722,"lon":5.387247,"is_reserved":false,"is_disabled":false,"rental_uris":{"android":"levelo://app?vid=3a9014fb-8a03-4d3e-8308-64f10b523f35","ios":"levelo://app?vid=3a9014fb-8a03-4d3e-8308-64f10b523f35"},"vehicle_type_id":"4","last_reported":1685419667,"current_range_meters":22800,"station_id":"ce4bgv12rcd13ifvqcp0","pricing_plan_id":"free"},{"bike_id":"7d3d8d2f-6434-40c1-815d-0fec42b0846f","system_id":"levelo_inurba_marseille","lat":43.311722,"lon":5.387247,"is_reserved":false,"is_disabled":false,"rental_uris":{"android":"levelo://app?vid=7d3d8d2f-6434-40c1-815d-0fec42b0846f","ios":"levelo://app?vid=7d3d8d2f-6434-40c1-815d-0fec42b0846f"},"vehicle_type_id":"4","last_reported":1685419667,"current_range_meters":6000,"station_id":"ce4bgv12rcd13ifvqcp0","pricing_plan_id":"free"},{"bike_id":"a2a8cab4-0307-45b1-8fc4-2f928c3bce48","system_id":"levelo_inurba_marseille","lat":43.311722,"lon":5.387247,"is_reserved":false,"is_disabled":false,"rental_uris":{"android":"levelo://app?vid=a2a8cab4-0307-45b1-8fc4-2f928c3bce48","ios":"levelo://app?vid=a2a8cab4-0307-45b1-8fc4-2f928c3bce48"},"vehicle_type_id":"4","last_reported":1685419667,"current_range_meters":14000,"station_id":"ce4bgv12rcd13ifvqcp0","pricing_plan_id":"free"},{"bike_id":"71e26e62-c2e5-4454-9009-db6608593b41","system_id":"levelo_inurba_marseille","lat":43.297794,"lon":5.370888,"is_reserved":false,"is_disabled":false,"rental_uris":{"android":"levelo://app?vid=71e26e62-c2e5-4454-9009-db6608593b41","ios":"levelo://app?vid=71e26e62-c2e5-4454-9009-db6608593b41"},"vehicle_type_id":"4","last_reported":1685419667,"current_range_meters":30800,"station_id":"ce4bgop2rcd13ifvqc1g","pricing_plan_id":"free"},{"bike_id":"936f493c-af89-4fd4-ae09-87610ca96257","system_id":"levelo_inurba_marseille","lat":43.297794,"lon":5.370888,"is_reserved":false,"is_disabled":false,"rental_uris":{"android":"levelo://app?vid=936f493c-af89-4fd4-ae09-87610ca96257","ios":"levelo://app?vid=936f493c-af89-4fd4-ae09-87610ca96257"},"vehicle_type_id":"4","last_reported":1685419667,"current_range_meters":27200,"station_id":"ce4bgop2rcd13ifvqc1g","pricing_plan_id":"free"},{"bike_id":"1ec1dde0-b812-4c1e-9e22-a25041461290","system_id":"levelo_inurba_marseille","lat":43.297774,"lon":5.370875,"is_reserved":false,"is_disabled":false,"rental_uris":{"android":"levelo://app?vid=1ec1dde0-b812-4c1e-9e22-a25041461290","ios":"levelo://app?vid=1ec1dde0-b812-4c1e-9e22-a25041461290"},"vehicle_type_id":"4","last_reported":1685419667,"current_range_meters":25200,"station_id":"ce4bgop2rcd13ifvqc1g","pricing_plan_id":"free"},{"bike_id":"327db4ca-0e48-41fa-a231-ded969cf6b8b","system_id":"levelo_inurba_marseille","lat":43.328371,"lon":5.366909,"is_reserved":false,"is_disabled":false,"rental_uris":{"android":"levelo://app?vid=327db4ca-0e48-41fa-a231-ded969cf6b8b","ios":"levelo://app?vid=327db4ca-0e48-41fa-a231-ded969cf6b8b"},"vehicle_type_id":"4","last_reported":1685419667,"current_range_meters":26000,"station_id":"ce4bhs92rcd13ifvqi0g","pricing_plan_id":"free"},{"bike_id":"b4a10882-5bd8-431d-9407-df26a94d9353","system_id":"levelo_inurba_marseille","lat":43.29713,"lon":5.36609,"is_reserved":false,"is_disabled":false,"rental_uris":{"android":"levelo://app?vid=b4a10882-5bd8-431d-9407-df26a94d9353","ios":"levelo://app?vid=b4a10882-5bd8-431d-9407-df26a94d9353"},"vehicle_type_id":"4","last_reported":1685419667,"current_range_meters":6000,"station_id":"","pricing_plan_id":"free"},{"bike_id":"bfcee4c7-8dc0-4f3e-a9f5-26101145ee75","system_id":"levelo_inurba_marseille","lat":43.29713,"lon":5.36606,"is_reserved":false,"is_disabled":false,"rental_uris":{"android":"levelo://app?vid=bfcee4c7-8dc0-4f3e-a9f5-26101145ee75","ios":"levelo://app?vid=bfcee4c7-8dc0-4f3e-a9f5-26101145ee75"},"vehicle_type_id":"4","last_reported":1685419667,"current_range_meters":3600,"station_id":"","pricing_plan_id":"free"},{"bike_id":"5fda6268-042e-46ec-ba1f-4f167e8e944a","system_id":"levelo_inurba_marseille","lat":43.29713,"lon":5.36602,"is_reserved":false,"is_disabled":false,"rental_uris":{"android":"levelo://app?vid=5fda6268-042e-46ec-ba1f-4f167e8e944a","ios":"levelo://app?vid=5fda6268-042e-46ec-ba1f-4f167e8e944a"},"vehicle_type_id":"4","last_reported":1685419667,"current_range_meters":13600,"station_id":"","pricing_plan_id":"free"},{"bike_id":"fe12bdb2-68cc-4400-a34a-8480e116a235","system_id":"levelo_inurba_marseille","lat":43.29784,"lon":5.37695,"is_reserved":false,"is_disabled":false,"rental_uris":{"android":"levelo://app?vid=fe12bdb2-68cc-4400-a34a-8480e116a235","ios":"levelo://app?vid=fe12bdb2-68cc-4400-a34a-8480e116a235"},"vehicle_type_id":"4","last_reported":1685419667,"current_range_meters":0,"station_id":"","pricing_plan_id":"free"},{"bike_id":"574190e5-850d-4dd1-8eea-8ea5be63aef3","system_id":"levelo_inurba_marseille","lat":43.309589,"lon":5.390258,"is_reserved":false,"is_disabled":false,"rental_uris":{"android":"levelo://app?vid=574190e5-850d-4dd1-8eea-8ea5be63aef3","ios":"levelo://app?vid=574190e5-850d-4dd1-8eea-8ea5be63aef3"},"vehicle_type_id":"4","last_reported":1685419667,"current_range_meters":28800,"station_id":"ce4bgup2rcd13ifvqco0","pricing_plan_id":"free"},{"bike_id":"315920c6-7971-40ad-b598-9396589b9153","system_id":"levelo_inurba_marseille","lat":43.309589,"lon":5.390258,"is_reserved":false,"is_disabled":false,"rental_uris":{"android":"levelo://app?vid=315920c6-7971-40ad-b598-9396589b9153","ios":"levelo://app?vid=315920c6-7971-40ad-b598-9396589b9153"},"vehicle_type_id":"4","last_reported":1685419667,"current_range_meters":12400,"station_id":"ce4bgup2rcd13ifvqco0","pricing_plan_id":"free"},{"bike_id":"db9d0b8c-a66e-4144-a40d-f2a5f8a93f17","system_id":"levelo_inurba_marseille","lat":43.30004,"lon":5.3836,"is_reserved":false,"is_disabled":false,"rental_uris":{"android":"levelo://app?vid=db9d0b8c-a66e-4144-a40d-f2a5f8a93f17","ios":"levelo://app?vid=db9d0b8c-a66e-4144-a40d-f2a5f8a93f17"},"vehicle_type_id":"4","last_reported":1685419667,"current_range_meters":3600,"station_id":"","pricing_plan_id":"free"},{"bike_id":"c9da9458-b3b8-43a0-8d8c-f1e2b7ff518d","system_id":"levelo_inurba_marseille","lat":43.304274,"lon":5.388873,"is_reserved":false,"is_disabled":false,"rental_uris":{"android":"levelo://app?vid=c9da9458-b3b8-43a0-8d8c-f1e2b7ff518d","ios":"levelo://app?vid=c9da9458-b3b8-43a0-8d8c-f1e2b7ff518d"},"vehicle_type_id":"4","last_reported":1685419667,"current_range_meters":27600,"station_id":"ce4bgk12rcd13ifvqbi0","pricing_plan_id":"free"},{"bike_id":"02bd7342-afef-4d34-a458-7437c9dee87c","system_id":"levelo_inurba_marseille","lat":43.304274,"lon":5.388873,"is_reserved":false,"is_disabled":false,"rental_uris":{"android":"levelo://app?vid=02bd7342-afef-4d34-a458-7437c9dee87c","ios":"levelo://app?vid=02bd7342-afef-4d34-a458-7437c9dee87c"},"vehicle_type_id":"4","last_reported":1685419667,"current_range_meters":31200,"station_id":"ce4bgk12rcd13ifvqbi0","pricing_plan_id":"free"},{"bike_id":"d2391f06-f852-42be-bb46-545381e77c15","system_id":"levelo_inurba_marseille","lat":43.304278,"lon":5.388868,"is_reserved":false,"is_disabled":false,"rental_uris":{"android":"levelo://app?vid=d2391f06-f852-42be-bb46-545381e77c15","ios":"levelo://app?vid=d2391f06-f852-42be-bb46-545381e77c15"},"vehicle_type_id":"4","last_reported":1685419667,"current_range_meters":10800,"station_id":"ce4bgk12rcd13ifvqbi0","pricing_plan_id":"free"},{"bike_id":"1855c099-2322-4761-b455-09ab2041749b","system_id":"levelo_inurba_marseille","lat":43.298037,"lon":5.381066,"is_reserved":false,"is_disabled":false,"rental_uris":{"android":"levelo://app?vid=1855c099-2322-4761-b455-09ab2041749b","ios":"levelo://app?vid=1855c099-2322-4761-b455-09ab2041749b"},"vehicle_type_id":"4","last_reported":1685419667,"current_range_meters":22000,"station_id":"ce4bgip2rcd13ifvqbb0","pricing_plan_id":"free"},{"bike_id":"cc52b973-92c4-4ec5-ac31-d0e5c6c37dfa","system_id":"levelo_inurba_marseille","lat":43.298037,"lon":5.381066,"is_reserved":false,"is_disabled":false,"rental_uris":{"android":"levelo://app?vid=cc52b973-92c4-4ec5-ac31-d0e5c6c37dfa","ios":"levelo://app?vid=cc52b973-92c4-4ec5-ac31-d0e5c6c37dfa"},"vehicle_type_id":"4","last_reported":1685419667,"current_range_meters":0,"station_id":"ce4bgip2rcd13ifvqbb0","pricing_plan_id":"free"},{"bike_id":"9af2dd6a-b02e-4e53-89ab-a81472c23850","system_id":"levelo_inurba_marseille","lat":43.295748,"lon":5.37522,"is_reserved":false,"is_disabled":false,"rental_uris":{"android":"levelo://app?vid=9af2dd6a-b02e-4e53-89ab-a81472c23850","ios":"levelo://app?vid=9af2dd6a-b02e-4e53-89ab-a81472c23850"},"vehicle_type_id":"4","last_reported":1685419667,"current_range_meters":26800,"station_id":"ce4bgh92rcd13ifvqb50","pricing_plan_id":"free"},{"bike_id":"6345f779-7590-4ebf-81b7-14a3c3a95e37","system_id":"levelo_inurba_marseille","lat":43.32367,"lon":5.388836,"is_reserved":false,"is_disabled":false,"rental_uris":{"android":"levelo://app?vid=6345f779-7590-4ebf-81b7-14a3c3a95e37","ios":"levelo://app?vid=6345f779-7590-4ebf-81b7-14a3c3a95e37"},"vehicle_type_id":"4","last_reported":1685419667,"current_range_meters":2800,"station_id":"ce4bhqp2rcd13ifvqhog","pricing_plan_id":"free"},{"bike_id":"37477c75-57e7-4584-9359-11578fa535e4","system_id":"levelo_inurba_marseille","lat":43.32367,"lon":5.388836,"is_reserved":false,"is_disabled":false,"rental_uris":{"android":"levelo://app?vid=37477c75-57e7-4584-9359-11578fa535e4","ios":"levelo://app?vid=37477c75-57e7-4584-9359-11578fa535e4"},"vehicle_type_id":"4","last_reported":1685419667,"current_range_meters":25600,"station_id":"ce4bhqp2rcd13ifvqhog","pricing_plan_id":"free"},{"bike_id":"00c9b202-b5b6-4f69-8084-db1f9466ee79","system_id":"levelo_inurba_marseille","lat":43.32367,"lon":5.388836,"is_reserved":false,"is_disabled":false,"rental_uris":{"android":"levelo://app?vid=00c9b202-b5b6-4f69-8084-db1f9466ee79","ios":"levelo://app?vid=00c9b202-b5b6-4f69-8084-db1f9466ee79"},"vehicle_type_id":"4","last_reported":1685419667,"current_range_meters":23200,"station_id":"ce4bhqp2rcd13ifvqhog","pricing_plan_id":"free"},{"bike_id":"3361876b-5ac1-40cb-960f-347ce30a1e80","system_id":"levelo_inurba_marseille","lat":43.3236,"lon":5.38884,"is_reserved":false,"is_disabled":false,"rental_uris":{"android":"levelo://app?vid=3361876b-5ac1-40cb-960f-347ce30a1e80","ios":"levelo://app?vid=3361876b-5ac1-40cb-960f-347ce30a1e80"},"vehicle_type_id":"4","last_reported":1685419667,"current_range_meters":18800,"station_id":"ce4bhqp2rcd13ifvqhog","pricing_plan_id":"free"},{"bike_id":"1c37c083-39b8-4242-99c8-3430fc05b14b","system_id":"levelo_inurba_marseille","lat":43.32367,"lon":5.388836,"is_reserved":false,"is_disabled":false,"rental_uris":{"android":"levelo://app?vid=1c37c083-39b8-4242-99c8-3430fc05b14b","ios":"levelo://app?vid=1c37c083-39b8-4242-99c8-3430fc05b14b"},"vehicle_type_id":"4","last_reported":1685419667,"current_range_meters":19200,"station_id":"ce4bhqp2rcd13ifvqhog","pricing_plan_id":"free"},{"bike_id":"950f3a0b-8466-40bf-8f81-5f5cf1a96632","system_id":"levelo_inurba_marseille","lat":43.32367,"lon":5.388836,"is_reserved":false,"is_disabled":false,"rental_uris":{"android":"levelo://app?vid=950f3a0b-8466-40bf-8f81-5f5cf1a96632","ios":"levelo://app?vid=950f3a0b-8466-40bf-8f81-5f5cf1a96632"},"vehicle_type_id":"4","last_reported":1685419667,"current_range_meters":6400,"station_id":"ce4bhqp2rcd13ifvqhog","pricing_plan_id":"free"},{"bike_id":"d1ab7cdd-c6a3-4e43-a50c-3d50e564a673","system_id":"levelo_inurba_marseille","lat":43.32367,"lon":5.388836,"is_reserved":false,"is_disabled":false,"rental_uris":{"android":"levelo://app?vid=d1ab7cdd-c6a3-4e43-a50c-3d50e564a673","ios":"levelo://app?vid=d1ab7cdd-c6a3-4e43-a50c-3d50e564a673"},"vehicle_type_id":"4","last_reported":1685419667,"current_range_meters":12800,"station_id":"ce4bhqp2rcd13ifvqhog","pricing_plan_id":"free"},{"bike_id":"424bde45-b39b-4e4d-9d03-74e00f218813","system_id":"levelo_inurba_marseille","lat":43.29598,"lon":5.38096,"is_reserved":false,"is_disabled":false,"rental_uris":{"android":"levelo://app?vid=424bde45-b39b-4e4d-9d03-74e00f218813","ios":"levelo://app?vid=424bde45-b39b-4e4d-9d03-74e00f218813"},"vehicle_type_id":"4","last_reported":1685419667,"current_range_meters":29200,"station_id":"ce4bgl12rcd13ifvqbo0","pricing_plan_id":"free"},{"bike_id":"489d5aae-e056-4ed8-9fdf-fafd552f0c27","system_id":"levelo_inurba_marseille","lat":43.2936,"lon":5.37433,"is_reserved":false,"is_disabled":false,"rental_uris":{"android":"levelo://app?vid=489d5aae-e056-4ed8-9fdf-fafd552f0c27","ios":"levelo://app?vid=489d5aae-e056-4ed8-9fdf-fafd552f0c27"},"vehicle_type_id":"4","last_reported":1685419667,"current_range_meters":16800,"station_id":"","pricing_plan_id":"free"},{"bike_id":"1ea846c3-7559-49a6-920d-a675342a6fce","system_id":"levelo_inurba_marseille","lat":43.293249,"lon":5.371578,"is_reserved":false,"is_disabled":false,"rental_uris":{"android":"levelo://app?vid=1ea846c3-7559-49a6-920d-a675342a6fce","ios":"levelo://app?vid=1ea846c3-7559-49a6-920d-a675342a6fce"},"vehicle_type_id":"4","last_reported":1685419667,"current_range_meters":2800,"station_id":"ce4bgh92rcd13ifvqb40","pricing_plan_id":"free"},{"bike_id":"71cef9a6-6d2d-4bda-904a-ff1b6153559a","system_id":"levelo_inurba_marseille","lat":43.293042,"lon":5.371518,"is_reserved":false,"is_disabled":false,"rental_uris":{"android":"levelo://app?vid=71cef9a6-6d2d-4bda-904a-ff1b6153559a","ios":"levelo://app?vid=71cef9a6-6d2d-4bda-904a-ff1b6153559a"},"vehicle_type_id":"4","last_reported":1685419667,"current_range_meters":25200,"station_id":"","pricing_plan_id":"free"},{"bike_id":"8d9380e2-251a-4be8-81d4-0367566e34d4","system_id":"levelo_inurba_marseille","lat":43.293249,"lon":5.371578,"is_reserved":false,"is_disabled":false,"rental_uris":{"android":"levelo://app?vid=8d9380e2-251a-4be8-81d4-0367566e34d4","ios":"levelo://app?vid=8d9380e2-251a-4be8-81d4-0367566e34d4"},"vehicle_type_id":"4","last_reported":1685419667,"current_range_meters":32000,"station_id":"ce4bgh92rcd13ifvqb40","pricing_plan_id":"free"},{"bike_id":"41ae1aef-d77e-4ee6-a123-95cbe9b6cf65","system_id":"levelo_inurba_marseille","lat":43.29305,"lon":5.3718,"is_reserved":false,"is_disabled":false,"rental_uris":{"android":"levelo://app?vid=41ae1aef-d77e-4ee6-a123-95cbe9b6cf65","ios":"levelo://app?vid=41ae1aef-d77e-4ee6-a123-95cbe9b6cf65"},"vehicle_type_id":"4","last_reported":1685419667,"current_range_meters":28800,"station_id":"","pricing_plan_id":"free"},{"bike_id":"0bfcad9d-7568-43c1-879c-c92e58cfe969","system_id":"levelo_inurba_marseille","lat":43.29305,"lon":5.37186,"is_reserved":false,"is_disabled":false,"rental_uris":{"android":"levelo://app?vid=0bfcad9d-7568-43c1-879c-c92e58cfe969","ios":"levelo://app?vid=0bfcad9d-7568-43c1-879c-c92e58cfe969"},"vehicle_type_id":"4","last_reported":1685419667,"current_range_meters":31200,"station_id":"","pricing_plan_id":"free"},{"bike_id":"796120b0-12c9-4ca8-b6d9-b2ee14610eec","system_id":"levelo_inurba_marseille","lat":43.29304,"lon":5.37184,"is_reserved":false,"is_disabled":false,"rental_uris":{"android":"levelo://app?vid=796120b0-12c9-4ca8-b6d9-b2ee14610eec","ios":"levelo://app?vid=796120b0-12c9-4ca8-b6d9-b2ee14610eec"},"vehicle_type_id":"4","last_reported":1685419667,"current_range_meters":26400,"station_id":"","pricing_plan_id":"free"},{"bike_id":"df8af905-86c1-4587-913f-e0b9b9321406","system_id":"levelo_inurba_marseille","lat":43.29301,"lon":5.37165,"is_reserved":false,"is_disabled":false,"rental_uris":{"android":"levelo://app?vid=df8af905-86c1-4587-913f-e0b9b9321406","ios":"levelo://app?vid=df8af905-86c1-4587-913f-e0b9b9321406"},"vehicle_type_id":"4","last_reported":1685419667,"current_range_meters":31200,"station_id":"","pricing_plan_id":"free"},{"bike_id":"8c5d21df-f9e9-42fb-9fb5-9331fc93f125","system_id":"levelo_inurba_marseille","lat":43.29301,"lon":5.37172,"is_reserved":false,"is_disabled":false,"rental_uris":{"android":"levelo://app?vid=8c5d21df-f9e9-42fb-9fb5-9331fc93f125","ios":"levelo://app?vid=8c5d21df-f9e9-42fb-9fb5-9331fc93f125"},"vehicle_type_id":"4","last_reported":1685419667,"current_range_meters":30000,"station_id":"","pricing_plan_id":"free"},{"bike_id":"489081b3-0ef0-4348-8997-2455b6090433","system_id":"levelo_inurba_marseille","lat":43.29303,"lon":5.37188,"is_reserved":false,"is_disabled":false,"rental_uris":{"android":"levelo://app?vid=489081b3-0ef0-4348-8997-2455b6090433","ios":"levelo://app?vid=489081b3-0ef0-4348-8997-2455b6090433"},"vehicle_type_id":"4","last_reported":1685419667,"current_range_meters":31200,"station_id":"","pricing_plan_id":"free"},{"bike_id":"8280d275-eb44-4a48-8a9f-b91811305d7b","system_id":"levelo_inurba_marseille","lat":43.29395,"lon":5.3771,"is_reserved":false,"is_disabled":false,"rental_uris":{"android":"levelo://app?vid=8280d275-eb44-4a48-8a9f-b91811305d7b","ios":"levelo://app?vid=8280d275-eb44-4a48-8a9f-b91811305d7b"},"vehicle_type_id":"4","last_reported":1685419667,"current_range_meters":0,"station_id":"","pricing_plan_id":"free"},{"bike_id":"45ee4cd9-0b28-4061-8e21-f3f9bcacc643","system_id":"levelo_inurba_marseille","lat":43.293009,"lon":5.374584,"is_reserved":false,"is_disabled":false,"rental_uris":{"android":"levelo://app?vid=45ee4cd9-0b28-4061-8e21-f3f9bcacc643","ios":"levelo://app?vid=45ee4cd9-0b28-4061-8e21-f3f9bcacc643"},"vehicle_type_id":"4","last_reported":1685419667,"current_range_meters":30000,"station_id":"ce4bgi12rcd13ifvqb70","pricing_plan_id":"free"},{"bike_id":"6a118da3-6b85-46c3-bfbf-512f9227d9e7","system_id":"levelo_inurba_marseille","lat":43.293009,"lon":5.374584,"is_reserved":false,"is_disabled":false,"rental_uris":{"android":"levelo://app?vid=6a118da3-6b85-46c3-bfbf-512f9227d9e7","ios":"levelo://app?vid=6a118da3-6b85-46c3-bfbf-512f9227d9e7"},"vehicle_type_id":"4","last_reported":1685419667,"current_range_meters":31200,"station_id":"ce4bgi12rcd13ifvqb70","pricing_plan_id":"free"},{"bike_id":"54d764ef-057c-40e6-ae69-f7680e8f282b","system_id":"levelo_inurba_marseille","lat":43.30598,"lon":5.3937,"is_reserved":false,"is_disabled":false,"rental_uris":{"android":"levelo://app?vid=54d764ef-057c-40e6-ae69-f7680e8f282b","ios":"levelo://app?vid=54d764ef-057c-40e6-ae69-f7680e8f282b"},"vehicle_type_id":"4","last_reported":1685419667,"current_range_meters":29600,"station_id":"ce4bh0p2rcd13ifvqd80","pricing_plan_id":"free"},{"bike_id":"bb7e8844-740f-4e89-8740-099e4eba1d1a","system_id":"levelo_inurba_marseille","lat":43.293009,"lon":5.374584,"is_reserved":false,"is_disabled":false,"rental_uris":{"android":"levelo://app?vid=bb7e8844-740f-4e89-8740-099e4eba1d1a","ios":"levelo://app?vid=bb7e8844-740f-4e89-8740-099e4eba1d1a"},"vehicle_type_id":"4","last_reported":1685419667,"current_range_meters":31200,"station_id":"ce4bgi12rcd13ifvqb70","pricing_plan_id":"free"},{"bike_id":"c836496f-ff3a-4e8f-b6ed-fb62f5d33ac2","system_id":"levelo_inurba_marseille","lat":43.292311,"lon":5.360731,"is_reserved":false,"is_disabled":false,"rental_uris":{"android":"levelo://app?vid=c836496f-ff3a-4e8f-b6ed-fb62f5d33ac2","ios":"levelo://app?vid=c836496f-ff3a-4e8f-b6ed-fb62f5d33ac2"},"vehicle_type_id":"4","last_reported":1685419667,"current_range_meters":28400,"station_id":"ce4bhbh2rcd13ifvqeqg","pricing_plan_id":"free"},{"bike_id":"adc601d9-aeb4-46cc-8289-5049bdb9a73b","system_id":"levelo_inurba_marseille","lat":43.292311,"lon":5.360731,"is_reserved":false,"is_disabled":false,"rental_uris":{"android":"levelo://app?vid=adc601d9-aeb4-46cc-8289-5049bdb9a73b","ios":"levelo://app?vid=adc601d9-aeb4-46cc-8289-5049bdb9a73b"},"vehicle_type_id":"4","last_reported":1685419667,"current_range_meters":31200,"station_id":"ce4bhbh2rcd13ifvqeqg","pricing_plan_id":"free"},{"bike_id":"cab9e445-fc41-4fb9-bd88-1e0ce8644ad4","system_id":"levelo_inurba_marseille","lat":43.292311,"lon":5.360731,"is_reserved":false,"is_disabled":false,"rental_uris":{"android":"levelo://app?vid=cab9e445-fc41-4fb9-bd88-1e0ce8644ad4","ios":"levelo://app?vid=cab9e445-fc41-4fb9-bd88-1e0ce8644ad4"},"vehicle_type_id":"4","last_reported":1685419667,"current_range_meters":29200,"station_id":"ce4bhbh2rcd13ifvqeqg","pricing_plan_id":"free"},{"bike_id":"54d587e4-3188-4b0e-bda1-e7e34715e17f","system_id":"levelo_inurba_marseille","lat":43.292311,"lon":5.360731,"is_reserved":false,"is_disabled":false,"rental_uris":{"android":"levelo://app?vid=54d587e4-3188-4b0e-bda1-e7e34715e17f","ios":"levelo://app?vid=54d587e4-3188-4b0e-bda1-e7e34715e17f"},"vehicle_type_id":"4","last_reported":1685419667,"current_range_meters":31200,"station_id":"ce4bhbh2rcd13ifvqeqg","pricing_plan_id":"free"},{"bike_id":"ccd0c0fe-2d02-4771-9661-26d8d18e6aa4","system_id":"levelo_inurba_marseille","lat":43.30887,"lon":5.39633,"is_reserved":false,"is_disabled":false,"rental_uris":{"android":"levelo://app?vid=ccd0c0fe-2d02-4771-9661-26d8d18e6aa4","ios":"levelo://app?vid=ccd0c0fe-2d02-4771-9661-26d8d18e6aa4"},"vehicle_type_id":"4","last_reported":1685419667,"current_range_meters":31200,"station_id":"ce4bh012rcd13ifvqcv0","pricing_plan_id":"free"},{"bike_id":"1ccf3a3c-f7b8-49b2-881a-426c6317875b","system_id":"levelo_inurba_marseille","lat":43.309038,"lon":5.396546,"is_reserved":false,"is_disabled":false,"rental_uris":{"android":"levelo://app?vid=1ccf3a3c-f7b8-49b2-881a-426c6317875b","ios":"levelo://app?vid=1ccf3a3c-f7b8-49b2-881a-426c6317875b"},"vehicle_type_id":"4","last_reported":1685419667,"current_range_meters":26400,"station_id":"ce4bh012rcd13ifvqcv0","pricing_plan_id":"free"},{"bike_id":"87313bea-0c5e-47f5-a3c9-98a2270389a7","system_id":"levelo_inurba_marseille","lat":43.309038,"lon":5.396546,"is_reserved":false,"is_disabled":false,"rental_uris":{"android":"levelo://app?vid=87313bea-0c5e-47f5-a3c9-98a2270389a7","ios":"levelo://app?vid=87313bea-0c5e-47f5-a3c9-98a2270389a7"},"vehicle_type_id":"4","last_reported":1685419667,"current_range_meters":28800,"station_id":"ce4bh012rcd13ifvqcv0","pricing_plan_id":"free"},{"bike_id":"fa9e0433-dcf4-413e-903d-3a22394dc660","system_id":"levelo_inurba_marseille","lat":43.309038,"lon":5.396546,"is_reserved":false,"is_disabled":false,"rental_uris":{"android":"levelo://app?vid=fa9e0433-dcf4-413e-903d-3a22394dc660","ios":"levelo://app?vid=fa9e0433-dcf4-413e-903d-3a22394dc660"},"vehicle_type_id":"4","last_reported":1685419667,"current_range_meters":24800,"station_id":"ce4bh012rcd13ifvqcv0","pricing_plan_id":"free"},{"bike_id":"83b297ac-0a4f-4d68-83ab-27f4c9276387","system_id":"levelo_inurba_marseille","lat":43.309038,"lon":5.396546,"is_reserved":false,"is_disabled":false,"rental_uris":{"android":"levelo://app?vid=83b297ac-0a4f-4d68-83ab-27f4c9276387","ios":"levelo://app?vid=83b297ac-0a4f-4d68-83ab-27f4c9276387"},"vehicle_type_id":"4","last_reported":1685419667,"current_range_meters":30800,"station_id":"ce4bh012rcd13ifvqcv0","pricing_plan_id":"free"},{"bike_id":"111b5415-95a9-4206-a13d-effaf8788d28","system_id":"levelo_inurba_marseille","lat":43.309038,"lon":5.396546,"is_reserved":false,"is_disabled":false,"rental_uris":{"android":"levelo://app?vid=111b5415-95a9-4206-a13d-effaf8788d28","ios":"levelo://app?vid=111b5415-95a9-4206-a13d-effaf8788d28"},"vehicle_type_id":"4","last_reported":1685419667,"current_range_meters":16000,"station_id":"ce4bh012rcd13ifvqcv0","pricing_plan_id":"free"},{"bike_id":"150af1ec-306f-4ac6-a398-b989a01e9d6c","system_id":"levelo_inurba_marseille","lat":43.309038,"lon":5.396546,"is_reserved":false,"is_disabled":false,"rental_uris":{"android":"levelo://app?vid=150af1ec-306f-4ac6-a398-b989a01e9d6c","ios":"levelo://app?vid=150af1ec-306f-4ac6-a398-b989a01e9d6c"},"vehicle_type_id":"4","last_reported":1685419667,"current_range_meters":30800,"station_id":"ce4bh012rcd13ifvqcv0","pricing_plan_id":"free"},{"bike_id":"d0b6e14f-45a2-42a4-9a9f-9f37c19a68c8","system_id":"levelo_inurba_marseille","lat":43.309038,"lon":5.396546,"is_reserved":false,"is_disabled":false,"rental_uris":{"android":"levelo://app?vid=d0b6e14f-45a2-42a4-9a9f-9f37c19a68c8","ios":"levelo://app?vid=d0b6e14f-45a2-42a4-9a9f-9f37c19a68c8"},"vehicle_type_id":"4","last_reported":1685419667,"current_range_meters":30400,"station_id":"ce4bh012rcd13ifvqcv0","pricing_plan_id":"free"},{"bike_id":"8649da42-9253-42c3-adef-ebe24c61f84f","system_id":"levelo_inurba_marseille","lat":43.309038,"lon":5.396546,"is_reserved":false,"is_disabled":false,"rental_uris":{"android":"levelo://app?vid=8649da42-9253-42c3-adef-ebe24c61f84f","ios":"levelo://app?vid=8649da42-9253-42c3-adef-ebe24c61f84f"},"vehicle_type_id":"4","last_reported":1685419667,"current_range_meters":31200,"station_id":"ce4bh012rcd13ifvqcv0","pricing_plan_id":"free"},{"bike_id":"e039994a-6162-4aa7-824e-36afa056beb7","system_id":"levelo_inurba_marseille","lat":43.309038,"lon":5.396546,"is_reserved":false,"is_disabled":false,"rental_uris":{"android":"levelo://app?vid=e039994a-6162-4aa7-824e-36afa056beb7","ios":"levelo://app?vid=e039994a-6162-4aa7-824e-36afa056beb7"},"vehicle_type_id":"4","last_reported":1685419667,"current_range_meters":23600,"station_id":"ce4bh012rcd13ifvqcv0","pricing_plan_id":"free"},{"bike_id":"fb02c64a-0342-49a0-8869-f96219ce4c51","system_id":"levelo_inurba_marseille","lat":43.309038,"lon":5.396546,"is_reserved":false,"is_disabled":false,"rental_uris":{"android":"levelo://app?vid=fb02c64a-0342-49a0-8869-f96219ce4c51","ios":"levelo://app?vid=fb02c64a-0342-49a0-8869-f96219ce4c51"},"vehicle_type_id":"4","last_reported":1685419667,"current_range_meters":15600,"station_id":"ce4bh012rcd13ifvqcv0","pricing_plan_id":"free"},{"bike_id":"5ab9a285-504e-4383-a97c-558b9431d0d9","system_id":"levelo_inurba_marseille","lat":43.2919,"lon":5.35801,"is_reserved":false,"is_disabled":false,"rental_uris":{"android":"levelo://app?vid=5ab9a285-504e-4383-a97c-558b9431d0d9","ios":"levelo://app?vid=5ab9a285-504e-4383-a97c-558b9431d0d9"},"vehicle_type_id":"4","last_reported":1685419667,"current_range_meters":20800,"station_id":"ce4bhb12rcd13ifvqel0","pricing_plan_id":"free"},{"bike_id":"2a4760d2-1a38-4cf5-b1ba-1635729dc47a","system_id":"levelo_inurba_marseille","lat":43.309038,"lon":5.396546,"is_reserved":false,"is_disabled":false,"rental_uris":{"android":"levelo://app?vid=2a4760d2-1a38-4cf5-b1ba-1635729dc47a","ios":"levelo://app?vid=2a4760d2-1a38-4cf5-b1ba-1635729dc47a"},"vehicle_type_id":"4","last_reported":1685419667,"current_range_meters":28000,"station_id":"ce4bh012rcd13ifvqcv0","pricing_plan_id":"free"},{"bike_id":"24754385-e9b7-479f-b518-a66242e88e87","system_id":"levelo_inurba_marseille","lat":43.313291,"lon":5.396838,"is_reserved":false,"is_disabled":false,"rental_uris":{"android":"levelo://app?vid=24754385-e9b7-479f-b518-a66242e88e87","ios":"levelo://app?vid=24754385-e9b7-479f-b518-a66242e88e87"},"vehicle_type_id":"4","last_reported":1685419667,"current_range_meters":16400,"station_id":"ce4bgvp2rcd13ifvqcu0","pricing_plan_id":"free"},{"bike_id":"1e5faa9c-5c13-41fa-b267-62294dde1cbd","system_id":"levelo_inurba_marseille","lat":43.29188,"lon":5.35804,"is_reserved":false,"is_disabled":false,"rental_uris":{"android":"levelo://app?vid=1e5faa9c-5c13-41fa-b267-62294dde1cbd","ios":"levelo://app?vid=1e5faa9c-5c13-41fa-b267-62294dde1cbd"},"vehicle_type_id":"4","last_reported":1685419667,"current_range_meters":29600,"station_id":"ce4bhb12rcd13ifvqel0","pricing_plan_id":"free"},{"bike_id":"4bbe656b-8bb4-41c4-be6c-7ac76bb744a2","system_id":"levelo_inurba_marseille","lat":43.29187,"lon":5.35803,"is_reserved":false,"is_disabled":false,"rental_uris":{"android":"levelo://app?vid=4bbe656b-8bb4-41c4-be6c-7ac76bb744a2","ios":"levelo://app?vid=4bbe656b-8bb4-41c4-be6c-7ac76bb744a2"},"vehicle_type_id":"4","last_reported":1685419667,"current_range_meters":29200,"station_id":"ce4bhb12rcd13ifvqel0","pricing_plan_id":"free"},{"bike_id":"6b392ac7-d4c2-47d5-ba55-47e212790911","system_id":"levelo_inurba_marseille","lat":43.309038,"lon":5.396546,"is_reserved":false,"is_disabled":false,"rental_uris":{"android":"levelo://app?vid=6b392ac7-d4c2-47d5-ba55-47e212790911","ios":"levelo://app?vid=6b392ac7-d4c2-47d5-ba55-47e212790911"},"vehicle_type_id":"4","last_reported":1685419667,"current_range_meters":31200,"station_id":"ce4bh012rcd13ifvqcv0","pricing_plan_id":"free"},{"bike_id":"1a6ccf3f-757f-4bf6-a55e-3ab3d615d803","system_id":"levelo_inurba_marseille","lat":43.291994,"lon":5.357886,"is_reserved":false,"is_disabled":false,"rental_uris":{"android":"levelo://app?vid=1a6ccf3f-757f-4bf6-a55e-3ab3d615d803","ios":"levelo://app?vid=1a6ccf3f-757f-4bf6-a55e-3ab3d615d803"},"vehicle_type_id":"4","last_reported":1685419667,"current_range_meters":20000,"station_id":"ce4bhb12rcd13ifvqel0","pricing_plan_id":"free"},{"bike_id":"165f433e-acc7-439e-82cb-42f8d50f38b5","system_id":"levelo_inurba_marseille","lat":43.29187,"lon":5.35796,"is_reserved":false,"is_disabled":false,"rental_uris":{"android":"levelo://app?vid=165f433e-acc7-439e-82cb-42f8d50f38b5","ios":"levelo://app?vid=165f433e-acc7-439e-82cb-42f8d50f38b5"},"vehicle_type_id":"4","last_reported":1685419667,"current_range_meters":27600,"station_id":"ce4bhb12rcd13ifvqel0","pricing_plan_id":"free"},{"bike_id":"d84748ca-56de-4c39-8d97-8763d6af5c17","system_id":"levelo_inurba_marseille","lat":43.313291,"lon":5.396838,"is_reserved":false,"is_disabled":false,"rental_uris":{"android":"levelo://app?vid=d84748ca-56de-4c39-8d97-8763d6af5c17","ios":"levelo://app?vid=d84748ca-56de-4c39-8d97-8763d6af5c17"},"vehicle_type_id":"4","last_reported":1685419667,"current_range_meters":17200,"station_id":"ce4bgvp2rcd13ifvqcu0","pricing_plan_id":"free"},{"bike_id":"1fa557e0-191e-407c-b22c-e24481acb7f6","system_id":"levelo_inurba_marseille","lat":43.29186,"lon":5.358,"is_reserved":false,"is_disabled":false,"rental_uris":{"android":"levelo://app?vid=1fa557e0-191e-407c-b22c-e24481acb7f6","ios":"levelo://app?vid=1fa557e0-191e-407c-b22c-e24481acb7f6"},"vehicle_type_id":"4","last_reported":1685419667,"current_range_meters":28400,"station_id":"ce4bhb12rcd13ifvqel0","pricing_plan_id":"free"},{"bike_id":"0b2f4edf-9793-4530-9bf0-596f7c58205b","system_id":"levelo_inurba_marseille","lat":43.29186,"lon":5.35798,"is_reserved":false,"is_disabled":false,"rental_uris":{"android":"levelo://app?vid=0b2f4edf-9793-4530-9bf0-596f7c58205b","ios":"levelo://app?vid=0b2f4edf-9793-4530-9bf0-596f7c58205b"},"vehicle_type_id":"4","last_reported":1685419667,"current_range_meters":31200,"station_id":"ce4bhb12rcd13ifvqel0","pricing_plan_id":"free"},{"bike_id":"994e599a-c589-4a35-916b-0b8b5018ff1b","system_id":"levelo_inurba_marseille","lat":43.29186,"lon":5.35792,"is_reserved":false,"is_disabled":false,"rental_uris":{"android":"levelo://app?vid=994e599a-c589-4a35-916b-0b8b5018ff1b","ios":"levelo://app?vid=994e599a-c589-4a35-916b-0b8b5018ff1b"},"vehicle_type_id":"4","last_reported":1685419667,"current_range_meters":30000,"station_id":"ce4bhb12rcd13ifvqel0","pricing_plan_id":"free"},{"bike_id":"a87c48a7-d30a-44d5-b234-05d295ec1ac9","system_id":"levelo_inurba_marseille","lat":43.29189,"lon":5.35736,"is_reserved":false,"is_disabled":false,"rental_uris":{"android":"levelo://app?vid=a87c48a7-d30a-44d5-b234-05d295ec1ac9","ios":"levelo://app?vid=a87c48a7-d30a-44d5-b234-05d295ec1ac9"},"vehicle_type_id":"4","last_reported":1685419667,"current_range_meters":0,"station_id":"","pricing_plan_id":"free"},{"bike_id":"3b15fea5-6c6b-40e0-be0b-7a4d42eccb2d","system_id":"levelo_inurba_marseille","lat":43.290779,"lon":5.371482,"is_reserved":false,"is_disabled":false,"rental_uris":{"android":"levelo://app?vid=3b15fea5-6c6b-40e0-be0b-7a4d42eccb2d","ios":"levelo://app?vid=3b15fea5-6c6b-40e0-be0b-7a4d42eccb2d"},"vehicle_type_id":"4","last_reported":1685419667,"current_range_meters":0,"station_id":"ce4bh5p2rcd13ifvqe4g","pricing_plan_id":"free"},{"bike_id":"6735f361-a4bd-4b38-8f3a-03c1195b3ca7","system_id":"levelo_inurba_marseille","lat":43.30216,"lon":5.39473,"is_reserved":false,"is_disabled":false,"rental_uris":{"android":"levelo://app?vid=6735f361-a4bd-4b38-8f3a-03c1195b3ca7","ios":"levelo://app?vid=6735f361-a4bd-4b38-8f3a-03c1195b3ca7"},"vehicle_type_id":"4","last_reported":1685419667,"current_range_meters":20400,"station_id":"ce4bh0p2rcd13ifvqd70","pricing_plan_id":"free"},{"bike_id":"89b8685c-a8d5-47be-b45f-139d3672a3b4","system_id":"levelo_inurba_marseille","lat":43.290631,"lon":5.359244,"is_reserved":false,"is_disabled":false,"rental_uris":{"android":"levelo://app?vid=89b8685c-a8d5-47be-b45f-139d3672a3b4","ios":"levelo://app?vid=89b8685c-a8d5-47be-b45f-139d3672a3b4"},"vehicle_type_id":"4","last_reported":1685419667,"current_range_meters":28400,"station_id":"ce4bha92rcd13ifvqeg0","pricing_plan_id":"free"},{"bike_id":"955595fd-d766-42b2-80e8-c02fecaa9a72","system_id":"levelo_inurba_marseille","lat":43.294153,"lon":5.386305,"is_reserved":false,"is_disabled":false,"rental_uris":{"android":"levelo://app?vid=955595fd-d766-42b2-80e8-c02fecaa9a72","ios":"levelo://app?vid=955595fd-d766-42b2-80e8-c02fecaa9a72"},"vehicle_type_id":"4","last_reported":1685419667,"current_range_meters":27600,"station_id":"ce4bh2h2rcd13ifvqdh0","pricing_plan_id":"free"},{"bike_id":"0c575fd2-9acd-4218-9aae-584ea34810ec","system_id":"levelo_inurba_marseille","lat":43.289184,"lon":5.366408,"is_reserved":false,"is_disabled":false,"rental_uris":{"android":"levelo://app?vid=0c575fd2-9acd-4218-9aae-584ea34810ec","ios":"levelo://app?vid=0c575fd2-9acd-4218-9aae-584ea34810ec"},"vehicle_type_id":"4","last_reported":1685419667,"current_range_meters":20000,"station_id":"ce4bhap2rcd13ifvqek0","pricing_plan_id":"free"},{"bike_id":"2a3ade7b-adfd-462c-80cb-ed18330e255e","system_id":"levelo_inurba_marseille","lat":43.28936,"lon":5.36636,"is_reserved":false,"is_disabled":false,"rental_uris":{"android":"levelo://app?vid=2a3ade7b-adfd-462c-80cb-ed18330e255e","ios":"levelo://app?vid=2a3ade7b-adfd-462c-80cb-ed18330e255e"},"vehicle_type_id":"4","last_reported":1685419667,"current_range_meters":18400,"station_id":"ce4bhap2rcd13ifvqek0","pricing_plan_id":"free"},{"bike_id":"ea1501fb-a1d8-4129-8ed4-284f553c0b26","system_id":"levelo_inurba_marseille","lat":43.28936,"lon":5.36633,"is_reserved":false,"is_disabled":false,"rental_uris":{"android":"levelo://app?vid=ea1501fb-a1d8-4129-8ed4-284f553c0b26","ios":"levelo://app?vid=ea1501fb-a1d8-4129-8ed4-284f553c0b26"},"vehicle_type_id":"4","last_reported":1685419667,"current_range_meters":29600,"station_id":"ce4bhap2rcd13ifvqek0","pricing_plan_id":"free"},{"bike_id":"9e766668-2ddf-4ba8-b9c8-516dd148841c","system_id":"levelo_inurba_marseille","lat":43.289184,"lon":5.366408,"is_reserved":false,"is_disabled":false,"rental_uris":{"android":"levelo://app?vid=9e766668-2ddf-4ba8-b9c8-516dd148841c","ios":"levelo://app?vid=9e766668-2ddf-4ba8-b9c8-516dd148841c"},"vehicle_type_id":"4","last_reported":1685419667,"current_range_meters":31200,"station_id":"ce4bhap2rcd13ifvqek0","pricing_plan_id":"free"},{"bike_id":"203a6040-f064-4a6a-a64f-c7c9d08e9dc2","system_id":"levelo_inurba_marseille","lat":43.29408,"lon":5.38637,"is_reserved":false,"is_disabled":false,"rental_uris":{"android":"levelo://app?vid=203a6040-f064-4a6a-a64f-c7c9d08e9dc2","ios":"levelo://app?vid=203a6040-f064-4a6a-a64f-c7c9d08e9dc2"},"vehicle_type_id":"4","last_reported":1685419667,"current_range_meters":0,"station_id":"ce4bh2h2rcd13ifvqdh0","pricing_plan_id":"free"},{"bike_id":"73f9abd4-dfa3-45b3-8f2b-00065b6a6a1e","system_id":"levelo_inurba_marseille","lat":43.289184,"lon":5.366408,"is_reserved":false,"is_disabled":false,"rental_uris":{"android":"levelo://app?vid=73f9abd4-dfa3-45b3-8f2b-00065b6a6a1e","ios":"levelo://app?vid=73f9abd4-dfa3-45b3-8f2b-00065b6a6a1e"},"vehicle_type_id":"4","last_reported":1685419667,"current_range_meters":18800,"station_id":"ce4bhap2rcd13ifvqek0","pricing_plan_id":"free"},{"bike_id":"4065111e-1274-453f-932f-f63cdac7407f","system_id":"levelo_inurba_marseille","lat":43.289184,"lon":5.366408,"is_reserved":false,"is_disabled":false,"rental_uris":{"android":"levelo://app?vid=4065111e-1274-453f-932f-f63cdac7407f","ios":"levelo://app?vid=4065111e-1274-453f-932f-f63cdac7407f"},"vehicle_type_id":"4","last_reported":1685419667,"current_range_meters":14800,"station_id":"ce4bhap2rcd13ifvqek0","pricing_plan_id":"free"},{"bike_id":"898326af-abe5-414b-ac3b-0da439037674","system_id":"levelo_inurba_marseille","lat":43.289184,"lon":5.366408,"is_reserved":false,"is_disabled":false,"rental_uris":{"android":"levelo://app?vid=898326af-abe5-414b-ac3b-0da439037674","ios":"levelo://app?vid=898326af-abe5-414b-ac3b-0da439037674"},"vehicle_type_id":"4","last_reported":1685419667,"current_range_meters":9600,"station_id":"ce4bhap2rcd13ifvqek0","pricing_plan_id":"free"},{"bike_id":"02f60197-c8fa-4df0-bfa5-d3465de7901d","system_id":"levelo_inurba_marseille","lat":43.289184,"lon":5.366408,"is_reserved":false,"is_disabled":false,"rental_uris":{"android":"levelo://app?vid=02f60197-c8fa-4df0-bfa5-d3465de7901d","ios":"levelo://app?vid=02f60197-c8fa-4df0-bfa5-d3465de7901d"},"vehicle_type_id":"4","last_reported":1685419667,"current_range_meters":27200,"station_id":"ce4bhap2rcd13ifvqek0","pricing_plan_id":"free"},{"bike_id":"808310db-dd4c-41e3-9225-e07e2944801b","system_id":"levelo_inurba_marseille","lat":43.289184,"lon":5.366408,"is_reserved":false,"is_disabled":false,"rental_uris":{"android":"levelo://app?vid=808310db-dd4c-41e3-9225-e07e2944801b","ios":"levelo://app?vid=808310db-dd4c-41e3-9225-e07e2944801b"},"vehicle_type_id":"4","last_reported":1685419667,"current_range_meters":28800,"station_id":"ce4bhap2rcd13ifvqek0","pricing_plan_id":"free"},{"bike_id":"7602c8d3-1488-4d9b-8d10-e6a0bfb64a28","system_id":"levelo_inurba_marseille","lat":43.289184,"lon":5.366408,"is_reserved":false,"is_disabled":false,"rental_uris":{"android":"levelo://app?vid=7602c8d3-1488-4d9b-8d10-e6a0bfb64a28","ios":"levelo://app?vid=7602c8d3-1488-4d9b-8d10-e6a0bfb64a28"},"vehicle_type_id":"4","last_reported":1685419667,"current_range_meters":31200,"station_id":"ce4bhap2rcd13ifvqek0","pricing_plan_id":"free"},{"bike_id":"84d6c3a1-d04f-4508-91b8-b41c9f60e2b4","system_id":"levelo_inurba_marseille","lat":43.304274,"lon":5.397513,"is_reserved":false,"is_disabled":false,"rental_uris":{"android":"levelo://app?vid=84d6c3a1-d04f-4508-91b8-b41c9f60e2b4","ios":"levelo://app?vid=84d6c3a1-d04f-4508-91b8-b41c9f60e2b4"},"vehicle_type_id":"4","last_reported":1685419667,"current_range_meters":30000,"station_id":"ce4bh092rcd13ifvqd20","pricing_plan_id":"free"},{"bike_id":"eb2ddfe4-4895-492a-9ef3-9d8d5fc8230b","system_id":"levelo_inurba_marseille","lat":43.330435,"lon":5.389162,"is_reserved":false,"is_disabled":false,"rental_uris":{"android":"levelo://app?vid=eb2ddfe4-4895-492a-9ef3-9d8d5fc8230b","ios":"levelo://app?vid=eb2ddfe4-4895-492a-9ef3-9d8d5fc8230b"},"vehicle_type_id":"4","last_reported":1685419667,"current_range_meters":31200,"station_id":"ce4bhr92rcd13ifvqhrg","pricing_plan_id":"free"},{"bike_id":"b842072e-dec3-4abb-892b-63a0c64f8bd9","system_id":"levelo_inurba_marseille","lat":43.33045,"lon":5.38915,"is_reserved":false,"is_disabled":false,"rental_uris":{"android":"levelo://app?vid=b842072e-dec3-4abb-892b-63a0c64f8bd9","ios":"levelo://app?vid=b842072e-dec3-4abb-892b-63a0c64f8bd9"},"vehicle_type_id":"4","last_reported":1685419667,"current_range_meters":31200,"station_id":"ce4bhr92rcd13ifvqhrg","pricing_plan_id":"free"},{"bike_id":"a4a578cb-b70c-4b5b-9cc9-c1971e44dee2","system_id":"levelo_inurba_marseille","lat":43.290104,"lon":5.356111,"is_reserved":false,"is_disabled":false,"rental_uris":{"android":"levelo://app?vid=a4a578cb-b70c-4b5b-9cc9-c1971e44dee2","ios":"levelo://app?vid=a4a578cb-b70c-4b5b-9cc9-c1971e44dee2"},"vehicle_type_id":"4","last_reported":1685419667,"current_range_meters":28000,"station_id":"ce4bhb92rcd13ifvqen0","pricing_plan_id":"free"},{"bike_id":"6b832711-7041-46ec-8697-0ef0bb075b34","system_id":"levelo_inurba_marseille","lat":43.33043,"lon":5.3892,"is_reserved":false,"is_disabled":false,"rental_uris":{"android":"levelo://app?vid=6b832711-7041-46ec-8697-0ef0bb075b34","ios":"levelo://app?vid=6b832711-7041-46ec-8697-0ef0bb075b34"},"vehicle_type_id":"4","last_reported":1685419667,"current_range_meters":31200,"station_id":"ce4bhr92rcd13ifvqhrg","pricing_plan_id":"free"},{"bike_id":"a8a0a2ce-882c-480d-9c8d-104ff0262970","system_id":"levelo_inurba_marseille","lat":43.33045,"lon":5.38918,"is_reserved":false,"is_disabled":false,"rental_uris":{"android":"levelo://app?vid=a8a0a2ce-882c-480d-9c8d-104ff0262970","ios":"levelo://app?vid=a8a0a2ce-882c-480d-9c8d-104ff0262970"},"vehicle_type_id":"4","last_reported":1685419667,"current_range_meters":10400,"station_id":"ce4bhr92rcd13ifvqhrg","pricing_plan_id":"free"},{"bike_id":"e5bac7c5-803b-4f05-a5bc-f51900b65e5c","system_id":"levelo_inurba_marseille","lat":43.33042,"lon":5.38929,"is_reserved":false,"is_disabled":false,"rental_uris":{"android":"levelo://app?vid=e5bac7c5-803b-4f05-a5bc-f51900b65e5c","ios":"levelo://app?vid=e5bac7c5-803b-4f05-a5bc-f51900b65e5c"},"vehicle_type_id":"4","last_reported":1685419667,"current_range_meters":30800,"station_id":"ce4bhr92rcd13ifvqhrg","pricing_plan_id":"free"},{"bike_id":"783ba967-0968-41d4-bd8e-786035a1397a","system_id":"levelo_inurba_marseille","lat":43.29002,"lon":5.35613,"is_reserved":false,"is_disabled":false,"rental_uris":{"android":"levelo://app?vid=783ba967-0968-41d4-bd8e-786035a1397a","ios":"levelo://app?vid=783ba967-0968-41d4-bd8e-786035a1397a"},"vehicle_type_id":"4","last_reported":1685419667,"current_range_meters":28000,"station_id":"ce4bhb92rcd13ifvqen0","pricing_plan_id":"free"},{"bike_id":"417acde7-9d93-481f-bd48-043beca54a09","system_id":"levelo_inurba_marseille","lat":43.295169,"lon":5.390426,"is_reserved":false,"is_disabled":false,"rental_uris":{"android":"levelo://app?vid=417acde7-9d93-481f-bd48-043beca54a09","ios":"levelo://app?vid=417acde7-9d93-481f-bd48-043beca54a09"},"vehicle_type_id":"4","last_reported":1685419667,"current_range_meters":31200,"station_id":"ce4bh3p2rcd13ifvqdp0","pricing_plan_id":"free"},{"bike_id":"255a1ebd-d4ec-4f43-9c79-dbf7f2d0c9c8","system_id":"levelo_inurba_marseille","lat":43.290094,"lon":5.381264,"is_reserved":false,"is_disabled":false,"rental_uris":{"android":"levelo://app?vid=255a1ebd-d4ec-4f43-9c79-dbf7f2d0c9c8","ios":"levelo://app?vid=255a1ebd-d4ec-4f43-9c79-dbf7f2d0c9c8"},"vehicle_type_id":"4","last_reported":1685419667,"current_range_meters":28000,"station_id":"ce4bh4p2rcd13ifvqe1g","pricing_plan_id":"free"},{"bike_id":"0303cbd0-e0ee-4bd8-9d47-fa061807e2f9","system_id":"levelo_inurba_marseille","lat":43.28856,"lon":5.358371,"is_reserved":false,"is_disabled":false,"rental_uris":{"android":"levelo://app?vid=0303cbd0-e0ee-4bd8-9d47-fa061807e2f9","ios":"levelo://app?vid=0303cbd0-e0ee-4bd8-9d47-fa061807e2f9"},"vehicle_type_id":"4","last_reported":1685419667,"current_range_meters":28800,"station_id":"ce4bhb12rcd13ifvqem0","pricing_plan_id":"free"},{"bike_id":"42e6983f-c75a-4eda-b190-c6ed2031b930","system_id":"levelo_inurba_marseille","lat":43.28856,"lon":5.358371,"is_reserved":false,"is_disabled":false,"rental_uris":{"android":"levelo://app?vid=42e6983f-c75a-4eda-b190-c6ed2031b930","ios":"levelo://app?vid=42e6983f-c75a-4eda-b190-c6ed2031b930"},"vehicle_type_id":"4","last_reported":1685419667,"current_range_meters":30800,"station_id":"ce4bhb12rcd13ifvqem0","pricing_plan_id":"free"},{"bike_id":"c489c315-9814-406d-b013-9d24d8f0f8be","system_id":"levelo_inurba_marseille","lat":43.28848,"lon":5.35853,"is_reserved":false,"is_disabled":false,"rental_uris":{"android":"levelo://app?vid=c489c315-9814-406d-b013-9d24d8f0f8be","ios":"levelo://app?vid=c489c315-9814-406d-b013-9d24d8f0f8be"},"vehicle_type_id":"4","last_reported":1685419667,"current_range_meters":30800,"station_id":"","pricing_plan_id":"free"},{"bike_id":"f4d17fcd-8946-477a-8649-71912602af4d","system_id":"levelo_inurba_marseille","lat":43.28856,"lon":5.358371,"is_reserved":false,"is_disabled":false,"rental_uris":{"android":"levelo://app?vid=f4d17fcd-8946-477a-8649-71912602af4d","ios":"levelo://app?vid=f4d17fcd-8946-477a-8649-71912602af4d"},"vehicle_type_id":"4","last_reported":1685419667,"current_range_meters":29600,"station_id":"ce4bhb12rcd13ifvqem0","pricing_plan_id":"free"},{"bike_id":"141c14ea-594b-43ee-894e-8c44af1dcd73","system_id":"levelo_inurba_marseille","lat":43.33741,"lon":5.37457,"is_reserved":false,"is_disabled":false,"rental_uris":{"android":"levelo://app?vid=141c14ea-594b-43ee-894e-8c44af1dcd73","ios":"levelo://app?vid=141c14ea-594b-43ee-894e-8c44af1dcd73"},"vehicle_type_id":"4","last_reported":1685419667,"current_range_meters":30800,"station_id":"","pricing_plan_id":"free"},{"bike_id":"493860ce-e063-4684-ab33-c360eaf64153","system_id":"levelo_inurba_marseille","lat":43.33744,"lon":5.37451,"is_reserved":false,"is_disabled":false,"rental_uris":{"android":"levelo://app?vid=493860ce-e063-4684-ab33-c360eaf64153","ios":"levelo://app?vid=493860ce-e063-4684-ab33-c360eaf64153"},"vehicle_type_id":"4","last_reported":1685419667,"current_range_meters":12000,"station_id":"","pricing_plan_id":"free"},{"bike_id":"c67b547c-3fcb-4384-8614-e15f558fec55","system_id":"levelo_inurba_marseille","lat":43.33744,"lon":5.37451,"is_reserved":false,"is_disabled":false,"rental_uris":{"android":"levelo://app?vid=c67b547c-3fcb-4384-8614-e15f558fec55","ios":"levelo://app?vid=c67b547c-3fcb-4384-8614-e15f558fec55"},"vehicle_type_id":"4","last_reported":1685419667,"current_range_meters":21200,"station_id":"","pricing_plan_id":"free"},{"bike_id":"556c6db1-2600-4c2b-9521-aae8453517c1","system_id":"levelo_inurba_marseille","lat":43.33755,"lon":5.37448,"is_reserved":false,"is_disabled":false,"rental_uris":{"android":"levelo://app?vid=556c6db1-2600-4c2b-9521-aae8453517c1","ios":"levelo://app?vid=556c6db1-2600-4c2b-9521-aae8453517c1"},"vehicle_type_id":"4","last_reported":1685419667,"current_range_meters":7200,"station_id":"","pricing_plan_id":"free"},{"bike_id":"9f5934bd-90f4-4a7e-8f1d-13cd883e0ec6","system_id":"levelo_inurba_marseille","lat":43.30642,"lon":5.401031,"is_reserved":false,"is_disabled":false,"rental_uris":{"android":"levelo://app?vid=9f5934bd-90f4-4a7e-8f1d-13cd883e0ec6","ios":"levelo://app?vid=9f5934bd-90f4-4a7e-8f1d-13cd883e0ec6"},"vehicle_type_id":"4","last_reported":1685419667,"current_range_meters":20000,"station_id":"ce4bh112rcd13ifvqda0","pricing_plan_id":"free"},{"bike_id":"29587ac5-5a5d-4b19-85d3-29ebc9ed137d","system_id":"levelo_inurba_marseille","lat":43.30642,"lon":5.401031,"is_reserved":false,"is_disabled":false,"rental_uris":{"android":"levelo://app?vid=29587ac5-5a5d-4b19-85d3-29ebc9ed137d","ios":"levelo://app?vid=29587ac5-5a5d-4b19-85d3-29ebc9ed137d"},"vehicle_type_id":"4","last_reported":1685419667,"current_range_meters":30400,"station_id":"ce4bh112rcd13ifvqda0","pricing_plan_id":"free"},{"bike_id":"5b9adb25-5416-43b4-b68b-894fc7969186","system_id":"levelo_inurba_marseille","lat":43.30642,"lon":5.401031,"is_reserved":false,"is_disabled":false,"rental_uris":{"android":"levelo://app?vid=5b9adb25-5416-43b4-b68b-894fc7969186","ios":"levelo://app?vid=5b9adb25-5416-43b4-b68b-894fc7969186"},"vehicle_type_id":"4","last_reported":1685419667,"current_range_meters":31200,"station_id":"ce4bh112rcd13ifvqda0","pricing_plan_id":"free"},{"bike_id":"5a3b6123-63b5-4f5e-851e-d3819bc51380","system_id":"levelo_inurba_marseille","lat":43.30642,"lon":5.401031,"is_reserved":false,"is_disabled":false,"rental_uris":{"android":"levelo://app?vid=5a3b6123-63b5-4f5e-851e-d3819bc51380","ios":"levelo://app?vid=5a3b6123-63b5-4f5e-851e-d3819bc51380"},"vehicle_type_id":"4","last_reported":1685419667,"current_range_meters":31200,"station_id":"ce4bh112rcd13ifvqda0","pricing_plan_id":"free"},{"bike_id":"c147154c-6e2a-483d-b1c9-4a7668c7b73b","system_id":"levelo_inurba_marseille","lat":43.30642,"lon":5.401031,"is_reserved":false,"is_disabled":false,"rental_uris":{"android":"levelo://app?vid=c147154c-6e2a-483d-b1c9-4a7668c7b73b","ios":"levelo://app?vid=c147154c-6e2a-483d-b1c9-4a7668c7b73b"},"vehicle_type_id":"4","last_reported":1685419667,"current_range_meters":31200,"station_id":"ce4bh112rcd13ifvqda0","pricing_plan_id":"free"},{"bike_id":"21fc766d-c21a-4b5f-ab55-266de1de1997","system_id":"levelo_inurba_marseille","lat":43.30642,"lon":5.401031,"is_reserved":false,"is_disabled":false,"rental_uris":{"android":"levelo://app?vid=21fc766d-c21a-4b5f-ab55-266de1de1997","ios":"levelo://app?vid=21fc766d-c21a-4b5f-ab55-266de1de1997"},"vehicle_type_id":"4","last_reported":1685419667,"current_range_meters":31200,"station_id":"ce4bh112rcd13ifvqda0","pricing_plan_id":"free"},{"bike_id":"88eff76d-2f4f-4598-b8bf-a1e1ee974d5e","system_id":"levelo_inurba_marseille","lat":43.30642,"lon":5.401031,"is_reserved":false,"is_disabled":false,"rental_uris":{"android":"levelo://app?vid=88eff76d-2f4f-4598-b8bf-a1e1ee974d5e","ios":"levelo://app?vid=88eff76d-2f4f-4598-b8bf-a1e1ee974d5e"},"vehicle_type_id":"4","last_reported":1685419667,"current_range_meters":24400,"station_id":"ce4bh112rcd13ifvqda0","pricing_plan_id":"free"},{"bike_id":"bef5636e-69c5-45c3-a1c1-15c6ae91439a","system_id":"levelo_inurba_marseille","lat":43.30642,"lon":5.401031,"is_reserved":false,"is_disabled":false,"rental_uris":{"android":"levelo://app?vid=bef5636e-69c5-45c3-a1c1-15c6ae91439a","ios":"levelo://app?vid=bef5636e-69c5-45c3-a1c1-15c6ae91439a"},"vehicle_type_id":"4","last_reported":1685419667,"current_range_meters":21200,"station_id":"ce4bh112rcd13ifvqda0","pricing_plan_id":"free"},{"bike_id":"63a9223a-b042-46b7-8247-e66689d83fc0","system_id":"levelo_inurba_marseille","lat":43.301117,"lon":5.398795,"is_reserved":false,"is_disabled":false,"rental_uris":{"android":"levelo://app?vid=63a9223a-b042-46b7-8247-e66689d83fc0","ios":"levelo://app?vid=63a9223a-b042-46b7-8247-e66689d83fc0"},"vehicle_type_id":"4","last_reported":1685419667,"current_range_meters":31200,"station_id":"ce4bh0h2rcd13ifvqd40","pricing_plan_id":"free"},{"bike_id":"b0b4f489-2855-415c-af10-f94745f59102","system_id":"levelo_inurba_marseille","lat":43.298681,"lon":5.397225,"is_reserved":false,"is_disabled":false,"rental_uris":{"android":"levelo://app?vid=b0b4f489-2855-415c-af10-f94745f59102","ios":"levelo://app?vid=b0b4f489-2855-415c-af10-f94745f59102"},"vehicle_type_id":"4","last_reported":1685419667,"current_range_meters":31200,"station_id":"ce4bh0h2rcd13ifvqd50","pricing_plan_id":"free"},{"bike_id":"f2f4f834-0c25-4caf-99a4-fbf1b987b888","system_id":"levelo_inurba_marseille","lat":43.286591,"lon":5.363346,"is_reserved":false,"is_disabled":false,"rental_uris":{"android":"levelo://app?vid=f2f4f834-0c25-4caf-99a4-fbf1b987b888","ios":"levelo://app?vid=f2f4f834-0c25-4caf-99a4-fbf1b987b888"},"vehicle_type_id":"4","last_reported":1685419667,"current_range_meters":30800,"station_id":"ce4bhah2rcd13ifvqej0","pricing_plan_id":"free"},{"bike_id":"b54ddb2c-a35d-4aed-8f7d-0ef06a3c3408","system_id":"levelo_inurba_marseille","lat":43.286593,"lon":5.363346,"is_reserved":false,"is_disabled":false,"rental_uris":{"android":"levelo://app?vid=b54ddb2c-a35d-4aed-8f7d-0ef06a3c3408","ios":"levelo://app?vid=b54ddb2c-a35d-4aed-8f7d-0ef06a3c3408"},"vehicle_type_id":"4","last_reported":1685419667,"current_range_meters":25200,"station_id":"ce4bhah2rcd13ifvqej0","pricing_plan_id":"free"},{"bike_id":"3dbe59ad-05f8-42e5-84c3-c5f04a32b6a2","system_id":"levelo_inurba_marseille","lat":43.298681,"lon":5.397225,"is_reserved":false,"is_disabled":false,"rental_uris":{"android":"levelo://app?vid=3dbe59ad-05f8-42e5-84c3-c5f04a32b6a2","ios":"levelo://app?vid=3dbe59ad-05f8-42e5-84c3-c5f04a32b6a2"},"vehicle_type_id":"4","last_reported":1685419667,"current_range_meters":28400,"station_id":"ce4bh0h2rcd13ifvqd50","pricing_plan_id":"free"},{"bike_id":"e2e15a3d-96f2-4aa1-b243-1c64aff9baf2","system_id":"levelo_inurba_marseille","lat":43.3094,"lon":5.40282,"is_reserved":false,"is_disabled":false,"rental_uris":{"android":"levelo://app?vid=e2e15a3d-96f2-4aa1-b243-1c64aff9baf2","ios":"levelo://app?vid=e2e15a3d-96f2-4aa1-b243-1c64aff9baf2"},"vehicle_type_id":"4","last_reported":1685419667,"current_range_meters":800,"station_id":"","pricing_plan_id":"free"},{"bike_id":"2f866c9d-bc73-4fe6-a20c-a7f13a1f9fad","system_id":"levelo_inurba_marseille","lat":43.30255,"lon":5.40064,"is_reserved":false,"is_disabled":false,"rental_uris":{"android":"levelo://app?vid=2f866c9d-bc73-4fe6-a20c-a7f13a1f9fad","ios":"levelo://app?vid=2f866c9d-bc73-4fe6-a20c-a7f13a1f9fad"},"vehicle_type_id":"4","last_reported":1685419667,"current_range_meters":24400,"station_id":"","pricing_plan_id":"free"},{"bike_id":"6ba4cd76-914e-407a-ac32-5b0536449eb2","system_id":"levelo_inurba_marseille","lat":43.302759,"lon":5.400793,"is_reserved":false,"is_disabled":false,"rental_uris":{"android":"levelo://app?vid=6ba4cd76-914e-407a-ac32-5b0536449eb2","ios":"levelo://app?vid=6ba4cd76-914e-407a-ac32-5b0536449eb2"},"vehicle_type_id":"4","last_reported":1685419667,"current_range_meters":28400,"station_id":"ce4bgvh2rcd13ifvqcs0","pricing_plan_id":"free"},{"bike_id":"fe18f45d-21cc-4e5b-9578-16c34da7769c","system_id":"levelo_inurba_marseille","lat":43.290336,"lon":5.386425,"is_reserved":false,"is_disabled":false,"rental_uris":{"android":"levelo://app?vid=fe18f45d-21cc-4e5b-9578-16c34da7769c","ios":"levelo://app?vid=fe18f45d-21cc-4e5b-9578-16c34da7769c"},"vehicle_type_id":"4","last_reported":1685419667,"current_range_meters":28800,"station_id":"ce4bh4p2rcd13ifvqe0g","pricing_plan_id":"free"},{"bike_id":"acd6876f-52fc-47a5-a5f4-208c0aeaf6d4","system_id":"levelo_inurba_marseille","lat":43.30258,"lon":5.40069,"is_reserved":false,"is_disabled":false,"rental_uris":{"android":"levelo://app?vid=acd6876f-52fc-47a5-a5f4-208c0aeaf6d4","ios":"levelo://app?vid=acd6876f-52fc-47a5-a5f4-208c0aeaf6d4"},"vehicle_type_id":"4","last_reported":1685419667,"current_range_meters":28800,"station_id":"ce4bgvh2rcd13ifvqcs0","pricing_plan_id":"free"},{"bike_id":"09fbd0f4-e756-4e2a-a357-15964cbb6e2e","system_id":"levelo_inurba_marseille","lat":43.290336,"lon":5.386425,"is_reserved":false,"is_disabled":false,"rental_uris":{"android":"levelo://app?vid=09fbd0f4-e756-4e2a-a357-15964cbb6e2e","ios":"levelo://app?vid=09fbd0f4-e756-4e2a-a357-15964cbb6e2e"},"vehicle_type_id":"4","last_reported":1685419667,"current_range_meters":29600,"station_id":"ce4bh4p2rcd13ifvqe0g","pricing_plan_id":"free"},{"bike_id":"0f4f9c03-73db-4143-9774-9958db660fac","system_id":"levelo_inurba_marseille","lat":43.3025,"lon":5.40069,"is_reserved":false,"is_disabled":false,"rental_uris":{"android":"levelo://app?vid=0f4f9c03-73db-4143-9774-9958db660fac","ios":"levelo://app?vid=0f4f9c03-73db-4143-9774-9958db660fac"},"vehicle_type_id":"4","last_reported":1685419667,"current_range_meters":31200,"station_id":"","pricing_plan_id":"free"},{"bike_id":"0aabc8ae-63f0-4954-b2df-0a34d6ee7bad","system_id":"levelo_inurba_marseille","lat":43.3025,"lon":5.40071,"is_reserved":false,"is_disabled":false,"rental_uris":{"android":"levelo://app?vid=0aabc8ae-63f0-4954-b2df-0a34d6ee7bad","ios":"levelo://app?vid=0aabc8ae-63f0-4954-b2df-0a34d6ee7bad"},"vehicle_type_id":"4","last_reported":1685419667,"current_range_meters":27600,"station_id":"","pricing_plan_id":"free"},{"bike_id":"813fed8e-f89b-4149-9adc-03b8d12662fb","system_id":"levelo_inurba_marseille","lat":43.30257,"lon":5.40078,"is_reserved":false,"is_disabled":false,"rental_uris":{"android":"levelo://app?vid=813fed8e-f89b-4149-9adc-03b8d12662fb","ios":"levelo://app?vid=813fed8e-f89b-4149-9adc-03b8d12662fb"},"vehicle_type_id":"4","last_reported":1685419667,"current_range_meters":30000,"station_id":"ce4bgvh2rcd13ifvqcs0","pricing_plan_id":"free"},{"bike_id":"58cc29a9-9942-410a-94b6-a7fcb0039763","system_id":"levelo_inurba_marseille","lat":43.30242,"lon":5.40075,"is_reserved":false,"is_disabled":false,"rental_uris":{"android":"levelo://app?vid=58cc29a9-9942-410a-94b6-a7fcb0039763","ios":"levelo://app?vid=58cc29a9-9942-410a-94b6-a7fcb0039763"},"vehicle_type_id":"4","last_reported":1685419667,"current_range_meters":29200,"station_id":"","pricing_plan_id":"free"},{"bike_id":"5392febc-043f-4790-9ffe-a8c373b73257","system_id":"levelo_inurba_marseille","lat":43.302759,"lon":5.400793,"is_reserved":false,"is_disabled":false,"rental_uris":{"android":"levelo://app?vid=5392febc-043f-4790-9ffe-a8c373b73257","ios":"levelo://app?vid=5392febc-043f-4790-9ffe-a8c373b73257"},"vehicle_type_id":"4","last_reported":1685419667,"current_range_meters":31200,"station_id":"ce4bgvh2rcd13ifvqcs0","pricing_plan_id":"free"},{"bike_id":"1acb7963-5f01-48e3-91a0-8e53c93b5c6d","system_id":"levelo_inurba_marseille","lat":43.286039,"lon":5.370681,"is_reserved":false,"is_disabled":false,"rental_uris":{"android":"levelo://app?vid=1acb7963-5f01-48e3-91a0-8e53c93b5c6d","ios":"levelo://app?vid=1acb7963-5f01-48e3-91a0-8e53c93b5c6d"},"vehicle_type_id":"4","last_reported":1685419667,"current_range_meters":31200,"station_id":"ce4bht12rcd13ifvqi60","pricing_plan_id":"free"},{"bike_id":"a02fa674-c9de-44ac-b54d-488d259d2088","system_id":"levelo_inurba_marseille","lat":43.286039,"lon":5.370679,"is_reserved":false,"is_disabled":false,"rental_uris":{"android":"levelo://app?vid=a02fa674-c9de-44ac-b54d-488d259d2088","ios":"levelo://app?vid=a02fa674-c9de-44ac-b54d-488d259d2088"},"vehicle_type_id":"4","last_reported":1685419667,"current_range_meters":30000,"station_id":"ce4bht12rcd13ifvqi60","pricing_plan_id":"free"},{"bike_id":"6e8b8ccd-118b-408c-8360-e1a05edc0c7f","system_id":"levelo_inurba_marseille","lat":43.28602,"lon":5.3707,"is_reserved":false,"is_disabled":false,"rental_uris":{"android":"levelo://app?vid=6e8b8ccd-118b-408c-8360-e1a05edc0c7f","ios":"levelo://app?vid=6e8b8ccd-118b-408c-8360-e1a05edc0c7f"},"vehicle_type_id":"4","last_reported":1685419667,"current_range_meters":31200,"station_id":"ce4bht12rcd13ifvqi60","pricing_plan_id":"free"},{"bike_id":"623adf98-fec5-4711-8ef4-28f22ca4494d","system_id":"levelo_inurba_marseille","lat":43.31641,"lon":5.40437,"is_reserved":false,"is_disabled":false,"rental_uris":{"android":"levelo://app?vid=623adf98-fec5-4711-8ef4-28f22ca4494d","ios":"levelo://app?vid=623adf98-fec5-4711-8ef4-28f22ca4494d"},"vehicle_type_id":"4","last_reported":1685419667,"current_range_meters":12400,"station_id":"ce4bh012rcd13ifvqd00","pricing_plan_id":"free"},{"bike_id":"911523ab-6644-409c-81a0-c5885a4c1d83","system_id":"levelo_inurba_marseille","lat":43.31642,"lon":5.40438,"is_reserved":false,"is_disabled":false,"rental_uris":{"android":"levelo://app?vid=911523ab-6644-409c-81a0-c5885a4c1d83","ios":"levelo://app?vid=911523ab-6644-409c-81a0-c5885a4c1d83"},"vehicle_type_id":"4","last_reported":1685419667,"current_range_meters":26000,"station_id":"ce4bh012rcd13ifvqd00","pricing_plan_id":"free"},{"bike_id":"4254c66c-5909-4d21-bb42-4a6b3ae89a26","system_id":"levelo_inurba_marseille","lat":43.31642,"lon":5.40438,"is_reserved":false,"is_disabled":false,"rental_uris":{"android":"levelo://app?vid=4254c66c-5909-4d21-bb42-4a6b3ae89a26","ios":"levelo://app?vid=4254c66c-5909-4d21-bb42-4a6b3ae89a26"},"vehicle_type_id":"4","last_reported":1685419667,"current_range_meters":31200,"station_id":"ce4bh012rcd13ifvqd00","pricing_plan_id":"free"},{"bike_id":"6f622105-b3dd-4ba0-8440-511dc0ffa464","system_id":"levelo_inurba_marseille","lat":43.316517,"lon":5.404375,"is_reserved":false,"is_disabled":false,"rental_uris":{"android":"levelo://app?vid=6f622105-b3dd-4ba0-8440-511dc0ffa464","ios":"levelo://app?vid=6f622105-b3dd-4ba0-8440-511dc0ffa464"},"vehicle_type_id":"4","last_reported":1685419667,"current_range_meters":31200,"station_id":"ce4bh012rcd13ifvqd00","pricing_plan_id":"free"},{"bike_id":"5a86566e-ea2d-4d34-b28a-bd6d67f2f854","system_id":"levelo_inurba_marseille","lat":43.316517,"lon":5.404375,"is_reserved":false,"is_disabled":false,"rental_uris":{"android":"levelo://app?vid=5a86566e-ea2d-4d34-b28a-bd6d67f2f854","ios":"levelo://app?vid=5a86566e-ea2d-4d34-b28a-bd6d67f2f854"},"vehicle_type_id":"4","last_reported":1685419667,"current_range_meters":20800,"station_id":"ce4bh012rcd13ifvqd00","pricing_plan_id":"free"},{"bike_id":"356a0ed3-f419-4208-abb4-25a6818607c4","system_id":"levelo_inurba_marseille","lat":43.316517,"lon":5.404375,"is_reserved":false,"is_disabled":false,"rental_uris":{"android":"levelo://app?vid=356a0ed3-f419-4208-abb4-25a6818607c4","ios":"levelo://app?vid=356a0ed3-f419-4208-abb4-25a6818607c4"},"vehicle_type_id":"4","last_reported":1685419667,"current_range_meters":13600,"station_id":"ce4bh012rcd13ifvqd00","pricing_plan_id":"free"},{"bike_id":"c5021a32-e1c0-4ed6-803c-4998512206c4","system_id":"levelo_inurba_marseille","lat":43.316517,"lon":5.404375,"is_reserved":false,"is_disabled":false,"rental_uris":{"android":"levelo://app?vid=c5021a32-e1c0-4ed6-803c-4998512206c4","ios":"levelo://app?vid=c5021a32-e1c0-4ed6-803c-4998512206c4"},"vehicle_type_id":"4","last_reported":1685419667,"current_range_meters":31200,"station_id":"ce4bh012rcd13ifvqd00","pricing_plan_id":"free"},{"bike_id":"dfd2ce25-f346-48bd-a2fc-a825c13d1498","system_id":"levelo_inurba_marseille","lat":43.316517,"lon":5.404375,"is_reserved":false,"is_disabled":false,"rental_uris":{"android":"levelo://app?vid=dfd2ce25-f346-48bd-a2fc-a825c13d1498","ios":"levelo://app?vid=dfd2ce25-f346-48bd-a2fc-a825c13d1498"},"vehicle_type_id":"4","last_reported":1685419667,"current_range_meters":30000,"station_id":"ce4bh012rcd13ifvqd00","pricing_plan_id":"free"},{"bike_id":"9d615592-15a8-42e8-9a50-efc5499bbe80","system_id":"levelo_inurba_marseille","lat":43.316517,"lon":5.404375,"is_reserved":false,"is_disabled":false,"rental_uris":{"android":"levelo://app?vid=9d615592-15a8-42e8-9a50-efc5499bbe80","ios":"levelo://app?vid=9d615592-15a8-42e8-9a50-efc5499bbe80"},"vehicle_type_id":"4","last_reported":1685419667,"current_range_meters":28400,"station_id":"ce4bh012rcd13ifvqd00","pricing_plan_id":"free"},{"bike_id":"fef51c66-b470-4296-b155-c37441680216","system_id":"levelo_inurba_marseille","lat":43.291994,"lon":5.392907,"is_reserved":false,"is_disabled":false,"rental_uris":{"android":"levelo://app?vid=fef51c66-b470-4296-b155-c37441680216","ios":"levelo://app?vid=fef51c66-b470-4296-b155-c37441680216"},"vehicle_type_id":"4","last_reported":1685419667,"current_range_meters":25200,"station_id":"ce4bh192rcd13ifvqdd0","pricing_plan_id":"free"},{"bike_id":"ca0438c9-5ff8-4092-af8d-4978a18aa988","system_id":"levelo_inurba_marseille","lat":43.28464,"lon":5.35893,"is_reserved":false,"is_disabled":false,"rental_uris":{"android":"levelo://app?vid=ca0438c9-5ff8-4092-af8d-4978a18aa988","ios":"levelo://app?vid=ca0438c9-5ff8-4092-af8d-4978a18aa988"},"vehicle_type_id":"4","last_reported":1685419667,"current_range_meters":23200,"station_id":"ce4bhah2rcd13ifvqei0","pricing_plan_id":"free"},{"bike_id":"6d5333f4-e6af-4086-9947-0d87e5878dd7","system_id":"levelo_inurba_marseille","lat":43.28459,"lon":5.35891,"is_reserved":false,"is_disabled":false,"rental_uris":{"android":"levelo://app?vid=6d5333f4-e6af-4086-9947-0d87e5878dd7","ios":"levelo://app?vid=6d5333f4-e6af-4086-9947-0d87e5878dd7"},"vehicle_type_id":"4","last_reported":1685419667,"current_range_meters":31200,"station_id":"ce4bhah2rcd13ifvqei0","pricing_plan_id":"free"},{"bike_id":"8d34a19f-90a9-45d2-8d9a-773597eb7cf0","system_id":"levelo_inurba_marseille","lat":43.28458,"lon":5.35897,"is_reserved":false,"is_disabled":false,"rental_uris":{"android":"levelo://app?vid=8d34a19f-90a9-45d2-8d9a-773597eb7cf0","ios":"levelo://app?vid=8d34a19f-90a9-45d2-8d9a-773597eb7cf0"},"vehicle_type_id":"4","last_reported":1685419667,"current_range_meters":12800,"station_id":"ce4bhah2rcd13ifvqei0","pricing_plan_id":"free"},{"bike_id":"8decf36e-a88a-4616-9949-a6296ebe70d3","system_id":"levelo_inurba_marseille","lat":43.28458,"lon":5.35893,"is_reserved":false,"is_disabled":false,"rental_uris":{"android":"levelo://app?vid=8decf36e-a88a-4616-9949-a6296ebe70d3","ios":"levelo://app?vid=8decf36e-a88a-4616-9949-a6296ebe70d3"},"vehicle_type_id":"4","last_reported":1685419667,"current_range_meters":12400,"station_id":"ce4bhah2rcd13ifvqei0","pricing_plan_id":"free"},{"bike_id":"6743f7cf-1f5a-4f61-abd7-cc5bbe0223c9","system_id":"levelo_inurba_marseille","lat":43.28458,"lon":5.35888,"is_reserved":false,"is_disabled":false,"rental_uris":{"android":"levelo://app?vid=6743f7cf-1f5a-4f61-abd7-cc5bbe0223c9","ios":"levelo://app?vid=6743f7cf-1f5a-4f61-abd7-cc5bbe0223c9"},"vehicle_type_id":"4","last_reported":1685419667,"current_range_meters":21600,"station_id":"ce4bhah2rcd13ifvqei0","pricing_plan_id":"free"},{"bike_id":"3c83aa28-a5f3-4e32-8842-87922f0cf9ac","system_id":"levelo_inurba_marseille","lat":43.28457,"lon":5.35892,"is_reserved":false,"is_disabled":false,"rental_uris":{"android":"levelo://app?vid=3c83aa28-a5f3-4e32-8842-87922f0cf9ac","ios":"levelo://app?vid=3c83aa28-a5f3-4e32-8842-87922f0cf9ac"},"vehicle_type_id":"4","last_reported":1685419667,"current_range_meters":31200,"station_id":"ce4bhah2rcd13ifvqei0","pricing_plan_id":"free"},{"bike_id":"fa6dccac-e3ae-4778-a53d-69df45939d54","system_id":"levelo_inurba_marseille","lat":43.284534,"lon":5.358662,"is_reserved":false,"is_disabled":false,"rental_uris":{"android":"levelo://app?vid=fa6dccac-e3ae-4778-a53d-69df45939d54","ios":"levelo://app?vid=fa6dccac-e3ae-4778-a53d-69df45939d54"},"vehicle_type_id":"4","last_reported":1685419667,"current_range_meters":31200,"station_id":"ce4bhah2rcd13ifvqei0","pricing_plan_id":"free"},{"bike_id":"f8ed514f-b73e-439c-8783-0306ab4c690f","system_id":"levelo_inurba_marseille","lat":43.3175,"lon":5.40597,"is_reserved":false,"is_disabled":false,"rental_uris":{"android":"levelo://app?vid=f8ed514f-b73e-439c-8783-0306ab4c690f","ios":"levelo://app?vid=f8ed514f-b73e-439c-8783-0306ab4c690f"},"vehicle_type_id":"4","last_reported":1685419667,"current_range_meters":17200,"station_id":"","pricing_plan_id":"free"},{"bike_id":"0c47c7f2-e186-46d7-9f92-94ef19a30fde","system_id":"levelo_inurba_marseille","lat":43.28623,"lon":5.35103,"is_reserved":false,"is_disabled":false,"rental_uris":{"android":"levelo://app?vid=0c47c7f2-e186-46d7-9f92-94ef19a30fde","ios":"levelo://app?vid=0c47c7f2-e186-46d7-9f92-94ef19a30fde"},"vehicle_type_id":"4","last_reported":1685419667,"current_range_meters":17600,"station_id":"","pricing_plan_id":"free"},{"bike_id":"65f563cd-f264-4de3-9f3f-8398efb615e5","system_id":"levelo_inurba_marseille","lat":43.285856,"lon":5.350771,"is_reserved":false,"is_disabled":false,"rental_uris":{"android":"levelo://app?vid=65f563cd-f264-4de3-9f3f-8398efb615e5","ios":"levelo://app?vid=65f563cd-f264-4de3-9f3f-8398efb615e5"},"vehicle_type_id":"4","last_reported":1685419667,"current_range_meters":31200,"station_id":"ce4bhch2rcd13ifvqeug","pricing_plan_id":"free"},{"bike_id":"81e46ed9-482f-4818-98c1-0bf8446cef3a","system_id":"levelo_inurba_marseille","lat":43.28617,"lon":5.35106,"is_reserved":false,"is_disabled":false,"rental_uris":{"android":"levelo://app?vid=81e46ed9-482f-4818-98c1-0bf8446cef3a","ios":"levelo://app?vid=81e46ed9-482f-4818-98c1-0bf8446cef3a"},"vehicle_type_id":"4","last_reported":1685419667,"current_range_meters":31200,"station_id":"","pricing_plan_id":"free"},{"bike_id":"6d77d8e4-f939-4eac-a0ba-12042563cfdb","system_id":"levelo_inurba_marseille","lat":43.28615,"lon":5.35104,"is_reserved":false,"is_disabled":false,"rental_uris":{"android":"levelo://app?vid=6d77d8e4-f939-4eac-a0ba-12042563cfdb","ios":"levelo://app?vid=6d77d8e4-f939-4eac-a0ba-12042563cfdb"},"vehicle_type_id":"4","last_reported":1685419667,"current_range_meters":30000,"station_id":"","pricing_plan_id":"free"},{"bike_id":"c1ed57af-de4a-48f4-87ca-e0e2df94f1aa","system_id":"levelo_inurba_marseille","lat":43.28616,"lon":5.351,"is_reserved":false,"is_disabled":false,"rental_uris":{"android":"levelo://app?vid=c1ed57af-de4a-48f4-87ca-e0e2df94f1aa","ios":"levelo://app?vid=c1ed57af-de4a-48f4-87ca-e0e2df94f1aa"},"vehicle_type_id":"4","last_reported":1685419667,"current_range_meters":19600,"station_id":"","pricing_plan_id":"free"},{"bike_id":"3063ba41-56e8-4023-ada8-50d6a8731fe6","system_id":"levelo_inurba_marseille","lat":43.28614,"lon":5.35103,"is_reserved":false,"is_disabled":false,"rental_uris":{"android":"levelo://app?vid=3063ba41-56e8-4023-ada8-50d6a8731fe6","ios":"levelo://app?vid=3063ba41-56e8-4023-ada8-50d6a8731fe6"},"vehicle_type_id":"4","last_reported":1685419667,"current_range_meters":25600,"station_id":"","pricing_plan_id":"free"},{"bike_id":"900387b5-a2d0-408b-bb23-889a9c2a4c88","system_id":"levelo_inurba_marseille","lat":43.28614,"lon":5.35101,"is_reserved":false,"is_disabled":false,"rental_uris":{"android":"levelo://app?vid=900387b5-a2d0-408b-bb23-889a9c2a4c88","ios":"levelo://app?vid=900387b5-a2d0-408b-bb23-889a9c2a4c88"},"vehicle_type_id":"4","last_reported":1685419667,"current_range_meters":25200,"station_id":"","pricing_plan_id":"free"},{"bike_id":"47894dad-fb7b-401d-998b-33ad081bd5ad","system_id":"levelo_inurba_marseille","lat":43.285856,"lon":5.350771,"is_reserved":false,"is_disabled":false,"rental_uris":{"android":"levelo://app?vid=47894dad-fb7b-401d-998b-33ad081bd5ad","ios":"levelo://app?vid=47894dad-fb7b-401d-998b-33ad081bd5ad"},"vehicle_type_id":"4","last_reported":1685419667,"current_range_meters":30800,"station_id":"ce4bhch2rcd13ifvqeug","pricing_plan_id":"free"},{"bike_id":"f32b00f0-10c7-401a-9495-5728aad19031","system_id":"levelo_inurba_marseille","lat":43.286595,"lon":5.386795,"is_reserved":false,"is_disabled":false,"rental_uris":{"android":"levelo://app?vid=f32b00f0-10c7-401a-9495-5728aad19031","ios":"levelo://app?vid=f32b00f0-10c7-401a-9495-5728aad19031"},"vehicle_type_id":"4","last_reported":1685419667,"current_range_meters":28400,"station_id":"ce4bh492rcd13ifvqdug","pricing_plan_id":"free"},{"bike_id":"7b92bfdc-db42-4e12-922e-af58f242317d","system_id":"levelo_inurba_marseille","lat":43.286595,"lon":5.386795,"is_reserved":false,"is_disabled":false,"rental_uris":{"android":"levelo://app?vid=7b92bfdc-db42-4e12-922e-af58f242317d","ios":"levelo://app?vid=7b92bfdc-db42-4e12-922e-af58f242317d"},"vehicle_type_id":"4","last_reported":1685419667,"current_range_meters":24400,"station_id":"ce4bh492rcd13ifvqdug","pricing_plan_id":"free"},{"bike_id":"636cf914-502d-4f0e-8b42-a6a2120abdaa","system_id":"levelo_inurba_marseille","lat":43.286595,"lon":5.386795,"is_reserved":false,"is_disabled":false,"rental_uris":{"android":"levelo://app?vid=636cf914-502d-4f0e-8b42-a6a2120abdaa","ios":"levelo://app?vid=636cf914-502d-4f0e-8b42-a6a2120abdaa"},"vehicle_type_id":"4","last_reported":1685419667,"current_range_meters":28400,"station_id":"ce4bh492rcd13ifvqdug","pricing_plan_id":"free"},{"bike_id":"89511975-7f82-4031-aabc-27f102d060d3","system_id":"levelo_inurba_marseille","lat":43.286595,"lon":5.386795,"is_reserved":false,"is_disabled":false,"rental_uris":{"android":"levelo://app?vid=89511975-7f82-4031-aabc-27f102d060d3","ios":"levelo://app?vid=89511975-7f82-4031-aabc-27f102d060d3"},"vehicle_type_id":"4","last_reported":1685419667,"current_range_meters":29600,"station_id":"ce4bh492rcd13ifvqdug","pricing_plan_id":"free"},{"bike_id":"f595c8e3-9127-4d90-8fe5-c29ef38a5749","system_id":"levelo_inurba_marseille","lat":43.32338,"lon":5.4062,"is_reserved":false,"is_disabled":false,"rental_uris":{"android":"levelo://app?vid=f595c8e3-9127-4d90-8fe5-c29ef38a5749","ios":"levelo://app?vid=f595c8e3-9127-4d90-8fe5-c29ef38a5749"},"vehicle_type_id":"4","last_reported":1685419667,"current_range_meters":12400,"station_id":"ce4bhq92rcd13ifvqhjg","pricing_plan_id":"free"},{"bike_id":"e2fc3e02-c01e-4cf9-b6e1-91c460e6e31b","system_id":"levelo_inurba_marseille","lat":43.323464,"lon":5.406297,"is_reserved":false,"is_disabled":false,"rental_uris":{"android":"levelo://app?vid=e2fc3e02-c01e-4cf9-b6e1-91c460e6e31b","ios":"levelo://app?vid=e2fc3e02-c01e-4cf9-b6e1-91c460e6e31b"},"vehicle_type_id":"4","last_reported":1685419667,"current_range_meters":31200,"station_id":"ce4bhq92rcd13ifvqhjg","pricing_plan_id":"free"},{"bike_id":"c66d9da6-e508-458d-b985-aea348e3b1c4","system_id":"levelo_inurba_marseille","lat":43.323464,"lon":5.406297,"is_reserved":false,"is_disabled":false,"rental_uris":{"android":"levelo://app?vid=c66d9da6-e508-458d-b985-aea348e3b1c4","ios":"levelo://app?vid=c66d9da6-e508-458d-b985-aea348e3b1c4"},"vehicle_type_id":"4","last_reported":1685419667,"current_range_meters":6800,"station_id":"ce4bhq92rcd13ifvqhjg","pricing_plan_id":"free"},{"bike_id":"8cb3ddd4-662d-4d41-ae23-12d673d4f7e2","system_id":"levelo_inurba_marseille","lat":43.28486,"lon":5.3843,"is_reserved":false,"is_disabled":false,"rental_uris":{"android":"levelo://app?vid=8cb3ddd4-662d-4d41-ae23-12d673d4f7e2","ios":"levelo://app?vid=8cb3ddd4-662d-4d41-ae23-12d673d4f7e2"},"vehicle_type_id":"4","last_reported":1685419667,"current_range_meters":30000,"station_id":"ce4bh512rcd13ifvqe3g","pricing_plan_id":"free"},{"bike_id":"76400c0d-b16b-4298-a745-e46df11bb832","system_id":"levelo_inurba_marseille","lat":43.28484,"lon":5.3843,"is_reserved":false,"is_disabled":false,"rental_uris":{"android":"levelo://app?vid=76400c0d-b16b-4298-a745-e46df11bb832","ios":"levelo://app?vid=76400c0d-b16b-4298-a745-e46df11bb832"},"vehicle_type_id":"4","last_reported":1685419667,"current_range_meters":31200,"station_id":"ce4bh512rcd13ifvqe3g","pricing_plan_id":"free"},{"bike_id":"a0a2aaf5-97cb-464e-9375-44a7712676d9","system_id":"levelo_inurba_marseille","lat":43.28482,"lon":5.38424,"is_reserved":false,"is_disabled":false,"rental_uris":{"android":"levelo://app?vid=a0a2aaf5-97cb-464e-9375-44a7712676d9","ios":"levelo://app?vid=a0a2aaf5-97cb-464e-9375-44a7712676d9"},"vehicle_type_id":"4","last_reported":1685419667,"current_range_meters":29200,"station_id":"ce4bh512rcd13ifvqe3g","pricing_plan_id":"free"},{"bike_id":"68c3d274-08b0-4376-86de-f35e05a442db","system_id":"levelo_inurba_marseille","lat":43.28482,"lon":5.38425,"is_reserved":false,"is_disabled":false,"rental_uris":{"android":"levelo://app?vid=68c3d274-08b0-4376-86de-f35e05a442db","ios":"levelo://app?vid=68c3d274-08b0-4376-86de-f35e05a442db"},"vehicle_type_id":"4","last_reported":1685419667,"current_range_meters":25600,"station_id":"ce4bh512rcd13ifvqe3g","pricing_plan_id":"free"},{"bike_id":"a0010139-0193-4892-93ca-cee6408b66cc","system_id":"levelo_inurba_marseille","lat":43.28483,"lon":5.38433,"is_reserved":false,"is_disabled":false,"rental_uris":{"android":"levelo://app?vid=a0010139-0193-4892-93ca-cee6408b66cc","ios":"levelo://app?vid=a0010139-0193-4892-93ca-cee6408b66cc"},"vehicle_type_id":"4","last_reported":1685419667,"current_range_meters":27200,"station_id":"ce4bh512rcd13ifvqe3g","pricing_plan_id":"free"},{"bike_id":"155543b3-aacb-4c9f-bedb-8c78a2400201","system_id":"levelo_inurba_marseille","lat":43.28481,"lon":5.3843,"is_reserved":false,"is_disabled":false,"rental_uris":{"android":"levelo://app?vid=155543b3-aacb-4c9f-bedb-8c78a2400201","ios":"levelo://app?vid=155543b3-aacb-4c9f-bedb-8c78a2400201"},"vehicle_type_id":"4","last_reported":1685419667,"current_range_meters":24000,"station_id":"ce4bh512rcd13ifvqe3g","pricing_plan_id":"free"},{"bike_id":"ce7d666f-7cca-43c7-809e-100405f44d60","system_id":"levelo_inurba_marseille","lat":43.2848,"lon":5.38428,"is_reserved":false,"is_disabled":false,"rental_uris":{"android":"levelo://app?vid=ce7d666f-7cca-43c7-809e-100405f44d60","ios":"levelo://app?vid=ce7d666f-7cca-43c7-809e-100405f44d60"},"vehicle_type_id":"4","last_reported":1685419667,"current_range_meters":30800,"station_id":"ce4bh512rcd13ifvqe3g","pricing_plan_id":"free"},{"bike_id":"3ec8ad1a-ec70-4027-837d-b2763327d44e","system_id":"levelo_inurba_marseille","lat":43.28481,"lon":5.38433,"is_reserved":false,"is_disabled":false,"rental_uris":{"android":"levelo://app?vid=3ec8ad1a-ec70-4027-837d-b2763327d44e","ios":"levelo://app?vid=3ec8ad1a-ec70-4027-837d-b2763327d44e"},"vehicle_type_id":"4","last_reported":1685419667,"current_range_meters":14800,"station_id":"ce4bh512rcd13ifvqe3g","pricing_plan_id":"free"},{"bike_id":"bcdf6495-d8cf-48dd-8a9c-9417e1f2d423","system_id":"levelo_inurba_marseille","lat":43.28479,"lon":5.38432,"is_reserved":false,"is_disabled":false,"rental_uris":{"android":"levelo://app?vid=bcdf6495-d8cf-48dd-8a9c-9417e1f2d423","ios":"levelo://app?vid=bcdf6495-d8cf-48dd-8a9c-9417e1f2d423"},"vehicle_type_id":"4","last_reported":1685419667,"current_range_meters":23200,"station_id":"ce4bh512rcd13ifvqe3g","pricing_plan_id":"free"},{"bike_id":"d536a97b-81b3-40a1-ba56-dc315fff72a3","system_id":"levelo_inurba_marseille","lat":43.288497,"lon":5.393089,"is_reserved":false,"is_disabled":false,"rental_uris":{"android":"levelo://app?vid=d536a97b-81b3-40a1-ba56-dc315fff72a3","ios":"levelo://app?vid=d536a97b-81b3-40a1-ba56-dc315fff72a3"},