{"last_updated":1719943845,"ttl":30,"version":"2.2","data":{"bikes":[{"bike_id":"cbd66daf-4113-4a91-84e6-26c8277bc093","system_id":"levelo_inurba_marseille","lat":43.312239,"lon":5.368562,"is_reserved":false,"is_disabled":false,"rental_uris":{"android":"levelo://app?vid=cbd66daf-4113-4a91-84e6-26c8277bc093","ios":"levelo://app?vid=cbd66daf-4113-4a91-84e6-26c8277bc093"},"vehicle_type_id":"4","last_reported":1719943845,"current_range_meters":4400,"station_id":"ce4bgl92rcd13ifvqbq0","pricing_plan_id":"cebpf4jnsgd1na2vs0mg"},{"bike_id":"94704558-96dd-44c4-bce8-81cd6b63f6cc","system_id":"levelo_inurba_marseille","lat":43.312239,"lon":5.368562,"is_reserved":false,"is_disabled":false,"rental_uris":{"android":"levelo://app?vid=94704558-96dd-44c4-bce8-81cd6b63f6cc","ios":"levelo://app?vid=94704558-96dd-44c4-bce8-81cd6b63f6cc"},"vehicle_type_id":"4","last_reported":1719943845,"current_range_meters":2400,"station_id":"ce4bgl92rcd13ifvqbq0","pricing_plan_id":"cebpf4jnsgd1na2vs0mg"},{"bike_id":"e937ea1a-9427-4041-96f3-487f3a3ab177","system_id":"levelo_inurba_marseille","lat":43.312239,"lon":5.368562,"is_reserved":false,"is_disabled":false,"rental_uris":{"android":"levelo://app?vid=e937ea1a-9427-4041-96f3-487f3a3ab177","ios":"levelo://app?vid=e937ea1a-9427-4041-96f3-487f3a3ab177"},"vehicle_type_id":"4","last_reported":1719943845,"current_range_meters":1600,"station_id":"ce4bgl92rcd13ifvqbq0","pricing_plan_id":"cebpf4jnsgd1na2vs0mg"},{"bike_id":"0b5b4759-9e74-47bc-a721-a55d6e27cad0","system_id":"levelo_inurba_marseille","lat":43.312239,"lon":5.368562,"is_reserved":false,"is_disabled":false,"rental_uris":{"android":"levelo://app?vid=0b5b4759-9e74-47bc-a721-a55d6e27cad0","ios":"levelo://app?vid=0b5b4759-9e74-47bc-a721-a55d6e27cad0"},"vehicle_type_id":"4","last_reported":1719943845,"current_range_meters":24400,"station_id":"ce4bgl92rcd13ifvqbq0","pricing_plan_id":"cebpf4jnsgd1na2vs0mg"},{"bike_id":"78bae6a3-c5b7-49c2-882a-e29e0df98c7a","system_id":"levelo_inurba_marseille","lat":43.312239,"lon":5.368562,"is_reserved":false,"is_disabled":false,"rental_uris":{"android":"levelo://app?vid=78bae6a3-c5b7-49c2-882a-e29e0df98c7a","ios":"levelo://app?vid=78bae6a3-c5b7-49c2-882a-e29e0df98c7a"},"vehicle_type_id":"4","last_reported":1719943845,"current_range_meters":0,"station_id":"ce4bgl92rcd13ifvqbq0","pricing_plan_id":"cebpf4jnsgd1na2vs0mg"},{"bike_id":"5c0a1fca-8f7e-469f-b6a9-9b68616cdbf5","system_id":"levelo_inurba_marseille","lat":43.312239,"lon":5.368562,"is_reserved":false,"is_disabled":false,"rental_uris":{"android":"levelo://app?vid=5c0a1fca-8f7e-469f-b6a9-9b68616cdbf5","ios":"levelo://app?vid=5c0a1fca-8f7e-469f-b6a9-9b68616cdbf5"},"vehicle_type_id":"4","last_reported":1719943845,"current_range_meters":0,"station_id":"ce4bgl92rcd13ifvqbq0","pricing_plan_id":"cebpf4jnsgd1na2vs0mg"},{"bike_id":"948e6086-1384-4f24-8434-cb2bc0fa4bdf","system_id":"levelo_inurba_marseille","lat":43.31105,"lon":5.370523,"is_reserved":false,"is_disabled":false,"rental_uris":{"android":"levelo://app?vid=948e6086-1384-4f24-8434-cb2bc0fa4bdf","ios":"levelo://app?vid=948e6086-1384-4f24-8434-cb2bc0fa4bdf"},"vehicle_type_id":"4","last_reported":1719943845,"current_range_meters":16400,"station_id":"","pricing_plan_id":"cebpf4jnsgd1na2vs0mg"},{"bike_id":"95e46579-421e-47a5-b671-383497197b72","system_id":"levelo_inurba_marseille","lat":43.314858,"lon":5.372952,"is_reserved":false,"is_disabled":false,"rental_uris":{"android":"levelo://app?vid=95e46579-421e-47a5-b671-383497197b72","ios":"levelo://app?vid=95e46579-421e-47a5-b671-383497197b72"},"vehicle_type_id":"4","last_reported":1719943845,"current_range_meters":6000,"station_id":"ce4bgt12rcd13ifvqcd0","pricing_plan_id":"cebpf4jnsgd1na2vs0mg"},{"bike_id":"c18da7f8-6284-4f2f-a5e9-5cbc4163988d","system_id":"levelo_inurba_marseille","lat":43.31484,"lon":5.37302,"is_reserved":false,"is_disabled":false,"rental_uris":{"android":"levelo://app?vid=c18da7f8-6284-4f2f-a5e9-5cbc4163988d","ios":"levelo://app?vid=c18da7f8-6284-4f2f-a5e9-5cbc4163988d"},"vehicle_type_id":"4","last_reported":1719943845,"current_range_meters":31200,"station_id":"ce4bgt12rcd13ifvqcd0","pricing_plan_id":"cebpf4jnsgd1na2vs0mg"},{"bike_id":"4084ced7-bdf6-4514-ab7d-099eb525ad6c","system_id":"levelo_inurba_marseille","lat":43.31494,"lon":5.373,"is_reserved":false,"is_disabled":false,"rental_uris":{"android":"levelo://app?vid=4084ced7-bdf6-4514-ab7d-099eb525ad6c","ios":"levelo://app?vid=4084ced7-bdf6-4514-ab7d-099eb525ad6c"},"vehicle_type_id":"4","last_reported":1719943845,"current_range_meters":25600,"station_id":"ce4bgt12rcd13ifvqcd0","pricing_plan_id":"cebpf4jnsgd1na2vs0mg"},{"bike_id":"54a4ef82-0ff8-4013-898b-28574919452d","system_id":"levelo_inurba_marseille","lat":43.31486,"lon":5.37307,"is_reserved":false,"is_disabled":false,"rental_uris":{"android":"levelo://app?vid=54a4ef82-0ff8-4013-898b-28574919452d","ios":"levelo://app?vid=54a4ef82-0ff8-4013-898b-28574919452d"},"vehicle_type_id":"4","last_reported":1719943845,"current_range_meters":6400,"station_id":"ce4bgt12rcd13ifvqcd0","pricing_plan_id":"cebpf4jnsgd1na2vs0mg"},{"bike_id":"77e2d4d1-9fa3-4109-b11d-a4cfe51968fe","system_id":"levelo_inurba_marseille","lat":43.314811,"lon":5.373103,"is_reserved":false,"is_disabled":false,"rental_uris":{"android":"levelo://app?vid=77e2d4d1-9fa3-4109-b11d-a4cfe51968fe","ios":"levelo://app?vid=77e2d4d1-9fa3-4109-b11d-a4cfe51968fe"},"vehicle_type_id":"4","last_reported":1719943845,"current_range_meters":23200,"station_id":"ce4bgt12rcd13ifvqcd0","pricing_plan_id":"cebpf4jnsgd1na2vs0mg"},{"bike_id":"f5dc274a-d450-435a-817f-e2a9c0e51959","system_id":"levelo_inurba_marseille","lat":43.314811,"lon":5.373103,"is_reserved":false,"is_disabled":false,"rental_uris":{"android":"levelo://app?vid=f5dc274a-d450-435a-817f-e2a9c0e51959","ios":"levelo://app?vid=f5dc274a-d450-435a-817f-e2a9c0e51959"},"vehicle_type_id":"4","last_reported":1719943845,"current_range_meters":30000,"station_id":"ce4bgt12rcd13ifvqcd0","pricing_plan_id":"cebpf4jnsgd1na2vs0mg"},{"bike_id":"c38cec32-2872-4642-b186-658b731df560","system_id":"levelo_inurba_marseille","lat":43.314811,"lon":5.373104,"is_reserved":false,"is_disabled":false,"rental_uris":{"android":"levelo://app?vid=c38cec32-2872-4642-b186-658b731df560","ios":"levelo://app?vid=c38cec32-2872-4642-b186-658b731df560"},"vehicle_type_id":"4","last_reported":1719943845,"current_range_meters":4800,"station_id":"ce4bgt12rcd13ifvqcd0","pricing_plan_id":"cebpf4jnsgd1na2vs0mg"},{"bike_id":"60c1bcd8-a444-445f-bd8c-a0f741ab2e53","system_id":"levelo_inurba_marseille","lat":43.314811,"lon":5.373104,"is_reserved":false,"is_disabled":false,"rental_uris":{"android":"levelo://app?vid=60c1bcd8-a444-445f-bd8c-a0f741ab2e53","ios":"levelo://app?vid=60c1bcd8-a444-445f-bd8c-a0f741ab2e53"},"vehicle_type_id":"4","last_reported":1719943845,"current_range_meters":9600,"station_id":"ce4bgt12rcd13ifvqcd0","pricing_plan_id":"cebpf4jnsgd1na2vs0mg"},{"bike_id":"bcc30604-ace6-4ae4-a011-b02b5c3b9777","system_id":"levelo_inurba_marseille","lat":43.30886,"lon":5.37196,"is_reserved":false,"is_disabled":false,"rental_uris":{"android":"levelo://app?vid=bcc30604-ace6-4ae4-a011-b02b5c3b9777","ios":"levelo://app?vid=bcc30604-ace6-4ae4-a011-b02b5c3b9777"},"vehicle_type_id":"4","last_reported":1719943845,"current_range_meters":0,"station_id":"ce4bguh2rcd13ifvqckg","pricing_plan_id":"cebpf4jnsgd1na2vs0mg"},{"bike_id":"680354a0-47dd-4515-9af6-2f5bab6d1594","system_id":"levelo_inurba_marseille","lat":43.30546,"lon":5.36656,"is_reserved":false,"is_disabled":false,"rental_uris":{"android":"levelo://app?vid=680354a0-47dd-4515-9af6-2f5bab6d1594","ios":"levelo://app?vid=680354a0-47dd-4515-9af6-2f5bab6d1594"},"vehicle_type_id":"4","last_reported":1719943845,"current_range_meters":9600,"station_id":"","pricing_plan_id":"cebpf4jnsgd1na2vs0mg"},{"bike_id":"cfb076ac-889c-4c41-898c-5b23effc85f8","system_id":"levelo_inurba_marseille","lat":43.305714,"lon":5.365633,"is_reserved":false,"is_disabled":false,"rental_uris":{"android":"levelo://app?vid=cfb076ac-889c-4c41-898c-5b23effc85f8","ios":"levelo://app?vid=cfb076ac-889c-4c41-898c-5b23effc85f8"},"vehicle_type_id":"4","last_reported":1719943845,"current_range_meters":2000,"station_id":"ce4bgs12rcd13ifvqcag","pricing_plan_id":"cebpf4jnsgd1na2vs0mg"},{"bike_id":"19722169-9453-48b3-b329-cdbf20b37eca","system_id":"levelo_inurba_marseille","lat":43.3112,"lon":5.3777,"is_reserved":false,"is_disabled":false,"rental_uris":{"android":"levelo://app?vid=19722169-9453-48b3-b329-cdbf20b37eca","ios":"levelo://app?vid=19722169-9453-48b3-b329-cdbf20b37eca"},"vehicle_type_id":"4","last_reported":1719943845,"current_range_meters":0,"station_id":"ce4bgt92rcd13ifvqcg0","pricing_plan_id":"cebpf4jnsgd1na2vs0mg"},{"bike_id":"adea7717-971e-4356-8de2-358dd135d76d","system_id":"levelo_inurba_marseille","lat":43.317075,"lon":5.377367,"is_reserved":false,"is_disabled":false,"rental_uris":{"android":"levelo://app?vid=adea7717-971e-4356-8de2-358dd135d76d","ios":"levelo://app?vid=adea7717-971e-4356-8de2-358dd135d76d"},"vehicle_type_id":"4","last_reported":1719943845,"current_range_meters":14000,"station_id":"ce4bgth2rcd13ifvqch0","pricing_plan_id":"cebpf4jnsgd1na2vs0mg"},{"bike_id":"d8ef14c1-f64b-4fe5-b255-b606daa37fb8","system_id":"levelo_inurba_marseille","lat":43.315289,"lon":5.380349,"is_reserved":false,"is_disabled":false,"rental_uris":{"android":"levelo://app?vid=d8ef14c1-f64b-4fe5-b255-b606daa37fb8","ios":"levelo://app?vid=d8ef14c1-f64b-4fe5-b255-b606daa37fb8"},"vehicle_type_id":"4","last_reported":1719943845,"current_range_meters":5600,"station_id":"ce4bhsp2rcd13ifvqi50","pricing_plan_id":"cebpf4jnsgd1na2vs0mg"},{"bike_id":"4737fb90-f60c-458a-ae7a-8752d0ce3d32","system_id":"levelo_inurba_marseille","lat":43.31529,"lon":5.3803,"is_reserved":false,"is_disabled":false,"rental_uris":{"android":"levelo://app?vid=4737fb90-f60c-458a-ae7a-8752d0ce3d32","ios":"levelo://app?vid=4737fb90-f60c-458a-ae7a-8752d0ce3d32"},"vehicle_type_id":"4","last_reported":1719943845,"current_range_meters":0,"station_id":"ce4bhsp2rcd13ifvqi50","pricing_plan_id":"cebpf4jnsgd1na2vs0mg"},{"bike_id":"2db5725b-c6c4-4214-a689-025414f94ebb","system_id":"levelo_inurba_marseille","lat":43.31524,"lon":5.38033,"is_reserved":false,"is_disabled":false,"rental_uris":{"android":"levelo://app?vid=2db5725b-c6c4-4214-a689-025414f94ebb","ios":"levelo://app?vid=2db5725b-c6c4-4214-a689-025414f94ebb"},"vehicle_type_id":"4","last_reported":1719943845,"current_range_meters":11200,"station_id":"ce4bhsp2rcd13ifvqi50","pricing_plan_id":"cebpf4jnsgd1na2vs0mg"},{"bike_id":"0957cbfa-9849-4ec2-a09d-20baa2993ddb","system_id":"levelo_inurba_marseille","lat":43.31535,"lon":5.38031,"is_reserved":false,"is_disabled":false,"rental_uris":{"android":"levelo://app?vid=0957cbfa-9849-4ec2-a09d-20baa2993ddb","ios":"levelo://app?vid=0957cbfa-9849-4ec2-a09d-20baa2993ddb"},"vehicle_type_id":"4","last_reported":1719943845,"current_range_meters":0,"station_id":"ce4bhsp2rcd13ifvqi50","pricing_plan_id":"cebpf4jnsgd1na2vs0mg"},{"bike_id":"c32c80f1-1e2e-429e-85c0-16759610d334","system_id":"levelo_inurba_marseille","lat":43.31531,"lon":5.38033,"is_reserved":false,"is_disabled":false,"rental_uris":{"android":"levelo://app?vid=c32c80f1-1e2e-429e-85c0-16759610d334","ios":"levelo://app?vid=c32c80f1-1e2e-429e-85c0-16759610d334"},"vehicle_type_id":"4","last_reported":1719943845,"current_range_meters":11200,"station_id":"ce4bhsp2rcd13ifvqi50","pricing_plan_id":"cebpf4jnsgd1na2vs0mg"},{"bike_id":"d2495ce3-fe8b-4705-a39a-5ffb41c5fb5e","system_id":"levelo_inurba_marseille","lat":43.315293,"lon":5.380349,"is_reserved":false,"is_disabled":false,"rental_uris":{"android":"levelo://app?vid=d2495ce3-fe8b-4705-a39a-5ffb41c5fb5e","ios":"levelo://app?vid=d2495ce3-fe8b-4705-a39a-5ffb41c5fb5e"},"vehicle_type_id":"4","last_reported":1719943845,"current_range_meters":0,"station_id":"ce4bhsp2rcd13ifvqi50","pricing_plan_id":"cebpf4jnsgd1na2vs0mg"},{"bike_id":"38a1de4f-8263-4b05-8de9-73ffb32d7e2b","system_id":"levelo_inurba_marseille","lat":43.308012,"lon":5.381511,"is_reserved":false,"is_disabled":false,"rental_uris":{"android":"levelo://app?vid=38a1de4f-8263-4b05-8de9-73ffb32d7e2b","ios":"levelo://app?vid=38a1de4f-8263-4b05-8de9-73ffb32d7e2b"},"vehicle_type_id":"4","last_reported":1719943845,"current_range_meters":0,"station_id":"ce4bgt12rcd13ifvqce0","pricing_plan_id":"cebpf4jnsgd1na2vs0mg"},{"bike_id":"6c8ba9ba-5397-46ce-a990-df1b54239090","system_id":"levelo_inurba_marseille","lat":43.308012,"lon":5.381511,"is_reserved":false,"is_disabled":false,"rental_uris":{"android":"levelo://app?vid=6c8ba9ba-5397-46ce-a990-df1b54239090","ios":"levelo://app?vid=6c8ba9ba-5397-46ce-a990-df1b54239090"},"vehicle_type_id":"4","last_reported":1719943845,"current_range_meters":20800,"station_id":"ce4bgt12rcd13ifvqce0","pricing_plan_id":"cebpf4jnsgd1na2vs0mg"},{"bike_id":"e168058f-abbc-4842-9b4b-8c986d573aa2","system_id":"levelo_inurba_marseille","lat":43.308012,"lon":5.381511,"is_reserved":false,"is_disabled":false,"rental_uris":{"android":"levelo://app?vid=e168058f-abbc-4842-9b4b-8c986d573aa2","ios":"levelo://app?vid=e168058f-abbc-4842-9b4b-8c986d573aa2"},"vehicle_type_id":"4","last_reported":1719943845,"current_range_meters":7600,"station_id":"ce4bgt12rcd13ifvqce0","pricing_plan_id":"cebpf4jnsgd1na2vs0mg"},{"bike_id":"d2465424-f89e-4f75-996d-fc46c246a828","system_id":"levelo_inurba_marseille","lat":43.308012,"lon":5.381511,"is_reserved":false,"is_disabled":false,"rental_uris":{"android":"levelo://app?vid=d2465424-f89e-4f75-996d-fc46c246a828","ios":"levelo://app?vid=d2465424-f89e-4f75-996d-fc46c246a828"},"vehicle_type_id":"4","last_reported":1719943845,"current_range_meters":3200,"station_id":"ce4bgt12rcd13ifvqce0","pricing_plan_id":"cebpf4jnsgd1na2vs0mg"},{"bike_id":"71fa1070-d808-47e4-b9cd-5ad33f495aa3","system_id":"levelo_inurba_marseille","lat":43.308012,"lon":5.381511,"is_reserved":false,"is_disabled":false,"rental_uris":{"android":"levelo://app?vid=71fa1070-d808-47e4-b9cd-5ad33f495aa3","ios":"levelo://app?vid=71fa1070-d808-47e4-b9cd-5ad33f495aa3"},"vehicle_type_id":"4","last_reported":1719943845,"current_range_meters":2800,"station_id":"ce4bgt12rcd13ifvqce0","pricing_plan_id":"cebpf4jnsgd1na2vs0mg"},{"bike_id":"eaaddfe1-483e-4e16-abe4-e6ee99353508","system_id":"levelo_inurba_marseille","lat":43.308012,"lon":5.381511,"is_reserved":false,"is_disabled":false,"rental_uris":{"android":"levelo://app?vid=eaaddfe1-483e-4e16-abe4-e6ee99353508","ios":"levelo://app?vid=eaaddfe1-483e-4e16-abe4-e6ee99353508"},"vehicle_type_id":"4","last_reported":1719943845,"current_range_meters":0,"station_id":"ce4bgt12rcd13ifvqce0","pricing_plan_id":"cebpf4jnsgd1na2vs0mg"},{"bike_id":"6e0fc16c-e5eb-4024-8a02-76ad6ea92f91","system_id":"levelo_inurba_marseille","lat":43.304606,"lon":5.379026,"is_reserved":false,"is_disabled":false,"rental_uris":{"android":"levelo://app?vid=6e0fc16c-e5eb-4024-8a02-76ad6ea92f91","ios":"levelo://app?vid=6e0fc16c-e5eb-4024-8a02-76ad6ea92f91"},"vehicle_type_id":"4","last_reported":1719943845,"current_range_meters":10000,"station_id":"ce4bgup2rcd13ifvqcn0","pricing_plan_id":"cebpf4jnsgd1na2vs0mg"},{"bike_id":"45d26659-c3a1-4325-af99-5f29b3b77b12","system_id":"levelo_inurba_marseille","lat":43.304606,"lon":5.379026,"is_reserved":false,"is_disabled":false,"rental_uris":{"android":"levelo://app?vid=45d26659-c3a1-4325-af99-5f29b3b77b12","ios":"levelo://app?vid=45d26659-c3a1-4325-af99-5f29b3b77b12"},"vehicle_type_id":"4","last_reported":1719943845,"current_range_meters":23600,"station_id":"ce4bgup2rcd13ifvqcn0","pricing_plan_id":"cebpf4jnsgd1na2vs0mg"},{"bike_id":"165b3d55-a98a-4394-98db-62c707f10dcc","system_id":"levelo_inurba_marseille","lat":43.324771,"lon":5.36557,"is_reserved":false,"is_disabled":false,"rental_uris":{"android":"levelo://app?vid=165b3d55-a98a-4394-98db-62c707f10dcc","ios":"levelo://app?vid=165b3d55-a98a-4394-98db-62c707f10dcc"},"vehicle_type_id":"4","last_reported":1719943845,"current_range_meters":3600,"station_id":"ce4bhs12rcd13ifvqhvg","pricing_plan_id":"cebpf4jnsgd1na2vs0mg"},{"bike_id":"28dae859-7940-410e-926e-93da0f96b36d","system_id":"levelo_inurba_marseille","lat":43.324771,"lon":5.36557,"is_reserved":false,"is_disabled":false,"rental_uris":{"android":"levelo://app?vid=28dae859-7940-410e-926e-93da0f96b36d","ios":"levelo://app?vid=28dae859-7940-410e-926e-93da0f96b36d"},"vehicle_type_id":"4","last_reported":1719943845,"current_range_meters":0,"station_id":"ce4bhs12rcd13ifvqhvg","pricing_plan_id":"cebpf4jnsgd1na2vs0mg"},{"bike_id":"26f91d66-a8f0-4d36-aba2-3845a651de0a","system_id":"levelo_inurba_marseille","lat":43.324771,"lon":5.36557,"is_reserved":false,"is_disabled":false,"rental_uris":{"android":"levelo://app?vid=26f91d66-a8f0-4d36-aba2-3845a651de0a","ios":"levelo://app?vid=26f91d66-a8f0-4d36-aba2-3845a651de0a"},"vehicle_type_id":"4","last_reported":1719943845,"current_range_meters":19200,"station_id":"ce4bhs12rcd13ifvqhvg","pricing_plan_id":"cebpf4jnsgd1na2vs0mg"},{"bike_id":"36d67741-2271-45a5-919b-c7558b1f24ab","system_id":"levelo_inurba_marseille","lat":43.310804,"lon":5.38359,"is_reserved":false,"is_disabled":false,"rental_uris":{"android":"levelo://app?vid=36d67741-2271-45a5-919b-c7558b1f24ab","ios":"levelo://app?vid=36d67741-2271-45a5-919b-c7558b1f24ab"},"vehicle_type_id":"4","last_reported":1719943845,"current_range_meters":0,"station_id":"ce4bgv92rcd13ifvqcr0","pricing_plan_id":"cebpf4jnsgd1na2vs0mg"},{"bike_id":"1d56206f-324f-4337-808a-4076d00de064","system_id":"levelo_inurba_marseille","lat":43.31993,"lon":5.38165,"is_reserved":false,"is_disabled":false,"rental_uris":{"android":"levelo://app?vid=1d56206f-324f-4337-808a-4076d00de064","ios":"levelo://app?vid=1d56206f-324f-4337-808a-4076d00de064"},"vehicle_type_id":"4","last_reported":1719943845,"current_range_meters":2800,"station_id":"ce4bhr12rcd13ifvqhpg","pricing_plan_id":"cebpf4jnsgd1na2vs0mg"},{"bike_id":"3bf6eb81-bbe0-405b-97dd-5f28e27eb755","system_id":"levelo_inurba_marseille","lat":43.313571,"lon":5.384829,"is_reserved":false,"is_disabled":false,"rental_uris":{"android":"levelo://app?vid=3bf6eb81-bbe0-405b-97dd-5f28e27eb755","ios":"levelo://app?vid=3bf6eb81-bbe0-405b-97dd-5f28e27eb755"},"vehicle_type_id":"4","last_reported":1719943845,"current_range_meters":26000,"station_id":"ce4bgt92rcd13ifvqcf0","pricing_plan_id":"cebpf4jnsgd1na2vs0mg"},{"bike_id":"fba02558-e4b5-43d7-957a-f7490f87ce1f","system_id":"levelo_inurba_marseille","lat":43.313571,"lon":5.384829,"is_reserved":false,"is_disabled":false,"rental_uris":{"android":"levelo://app?vid=fba02558-e4b5-43d7-957a-f7490f87ce1f","ios":"levelo://app?vid=fba02558-e4b5-43d7-957a-f7490f87ce1f"},"vehicle_type_id":"4","last_reported":1719943845,"current_range_meters":13200,"station_id":"ce4bgt92rcd13ifvqcf0","pricing_plan_id":"cebpf4jnsgd1na2vs0mg"},{"bike_id":"a004f797-07ec-4db8-8442-5b08a0ae2923","system_id":"levelo_inurba_marseille","lat":43.313571,"lon":5.384829,"is_reserved":false,"is_disabled":false,"rental_uris":{"android":"levelo://app?vid=a004f797-07ec-4db8-8442-5b08a0ae2923","ios":"levelo://app?vid=a004f797-07ec-4db8-8442-5b08a0ae2923"},"vehicle_type_id":"4","last_reported":1719943845,"current_range_meters":4000,"station_id":"ce4bgt92rcd13ifvqcf0","pricing_plan_id":"cebpf4jnsgd1na2vs0mg"},{"bike_id":"cbc7a94b-7319-496c-94bc-088aca391503","system_id":"levelo_inurba_marseille","lat":43.304606,"lon":5.379026,"is_reserved":false,"is_disabled":false,"rental_uris":{"android":"levelo://app?vid=cbc7a94b-7319-496c-94bc-088aca391503","ios":"levelo://app?vid=cbc7a94b-7319-496c-94bc-088aca391503"},"vehicle_type_id":"4","last_reported":1719943845,"current_range_meters":18000,"station_id":"ce4bgup2rcd13ifvqcn0","pricing_plan_id":"cebpf4jnsgd1na2vs0mg"},{"bike_id":"5e1bf21c-baea-465d-bb75-f298e38932b5","system_id":"levelo_inurba_marseille","lat":43.30101,"lon":5.37707,"is_reserved":false,"is_disabled":false,"rental_uris":{"android":"levelo://app?vid=5e1bf21c-baea-465d-bb75-f298e38932b5","ios":"levelo://app?vid=5e1bf21c-baea-465d-bb75-f298e38932b5"},"vehicle_type_id":"4","last_reported":1719943845,"current_range_meters":6800,"station_id":"","pricing_plan_id":"cebpf4jnsgd1na2vs0mg"},{"bike_id":"a6d77d97-7d4f-45e6-b49c-b6d1d71489d5","system_id":"levelo_inurba_marseille","lat":43.298433,"lon":5.362774,"is_reserved":false,"is_disabled":false,"rental_uris":{"android":"levelo://app?vid=a6d77d97-7d4f-45e6-b49c-b6d1d71489d5","ios":"levelo://app?vid=a6d77d97-7d4f-45e6-b49c-b6d1d71489d5"},"vehicle_type_id":"4","last_reported":1719943845,"current_range_meters":1200,"station_id":"ce4bgpp2rcd13ifvqc3g","pricing_plan_id":"cebpf4jnsgd1na2vs0mg"},{"bike_id":"fa189760-f578-41a5-bb51-aeb1f7eda8df","system_id":"levelo_inurba_marseille","lat":43.305364,"lon":5.384119,"is_reserved":false,"is_disabled":false,"rental_uris":{"android":"levelo://app?vid=fa189760-f578-41a5-bb51-aeb1f7eda8df","ios":"levelo://app?vid=fa189760-f578-41a5-bb51-aeb1f7eda8df"},"vehicle_type_id":"4","last_reported":1719943845,"current_range_meters":25200,"station_id":"ce4bgg92rcd13ifvqb30","pricing_plan_id":"cebpf4jnsgd1na2vs0mg"},{"bike_id":"a34d053a-53e7-41e7-88c0-de822c77220b","system_id":"levelo_inurba_marseille","lat":43.299212,"lon":5.374732,"is_reserved":false,"is_disabled":false,"rental_uris":{"android":"levelo://app?vid=a34d053a-53e7-41e7-88c0-de822c77220b","ios":"levelo://app?vid=a34d053a-53e7-41e7-88c0-de822c77220b"},"vehicle_type_id":"4","last_reported":1719943845,"current_range_meters":0,"station_id":"ce4bgjh2rcd13ifvqbg0","pricing_plan_id":"cebpf4jnsgd1na2vs0mg"},{"bike_id":"a13ccba4-d817-4eb5-9670-2b63a31e3e7d","system_id":"levelo_inurba_marseille","lat":43.31179,"lon":5.38711,"is_reserved":false,"is_disabled":false,"rental_uris":{"android":"levelo://app?vid=a13ccba4-d817-4eb5-9670-2b63a31e3e7d","ios":"levelo://app?vid=a13ccba4-d817-4eb5-9670-2b63a31e3e7d"},"vehicle_type_id":"4","last_reported":1719943845,"current_range_meters":0,"station_id":"ce4bgv12rcd13ifvqcp0","pricing_plan_id":"cebpf4jnsgd1na2vs0mg"},{"bike_id":"9ee77df8-602d-4cf6-9391-6b363539abc1","system_id":"levelo_inurba_marseille","lat":43.311722,"lon":5.387247,"is_reserved":false,"is_disabled":false,"rental_uris":{"android":"levelo://app?vid=9ee77df8-602d-4cf6-9391-6b363539abc1","ios":"levelo://app?vid=9ee77df8-602d-4cf6-9391-6b363539abc1"},"vehicle_type_id":"4","last_reported":1719943845,"current_range_meters":8800,"station_id":"ce4bgv12rcd13ifvqcp0","pricing_plan_id":"cebpf4jnsgd1na2vs0mg"},{"bike_id":"db47d6fe-cfd8-43b8-9ec9-597936b4e79a","system_id":"levelo_inurba_marseille","lat":43.31174,"lon":5.38717,"is_reserved":false,"is_disabled":false,"rental_uris":{"android":"levelo://app?vid=db47d6fe-cfd8-43b8-9ec9-597936b4e79a","ios":"levelo://app?vid=db47d6fe-cfd8-43b8-9ec9-597936b4e79a"},"vehicle_type_id":"4","last_reported":1719943845,"current_range_meters":800,"station_id":"ce4bgv12rcd13ifvqcp0","pricing_plan_id":"cebpf4jnsgd1na2vs0mg"},{"bike_id":"2800c36d-ca39-4e7c-923d-849bd3088982","system_id":"levelo_inurba_marseille","lat":43.311673,"lon":5.38717,"is_reserved":false,"is_disabled":false,"rental_uris":{"android":"levelo://app?vid=2800c36d-ca39-4e7c-923d-849bd3088982","ios":"levelo://app?vid=2800c36d-ca39-4e7c-923d-849bd3088982"},"vehicle_type_id":"4","last_reported":1719943845,"current_range_meters":17200,"station_id":"ce4bgv12rcd13ifvqcp0","pricing_plan_id":"cebpf4jnsgd1na2vs0mg"},{"bike_id":"28e56f73-74c7-4e28-a353-972e12ed40a6","system_id":"levelo_inurba_marseille","lat":43.31167,"lon":5.38724,"is_reserved":false,"is_disabled":false,"rental_uris":{"android":"levelo://app?vid=28e56f73-74c7-4e28-a353-972e12ed40a6","ios":"levelo://app?vid=28e56f73-74c7-4e28-a353-972e12ed40a6"},"vehicle_type_id":"4","last_reported":1719943845,"current_range_meters":4800,"station_id":"ce4bgv12rcd13ifvqcp0","pricing_plan_id":"cebpf4jnsgd1na2vs0mg"},{"bike_id":"f71fb2a5-b5ff-4214-9155-233aed2e07f4","system_id":"levelo_inurba_marseille","lat":43.297794,"lon":5.370888,"is_reserved":false,"is_disabled":false,"rental_uris":{"android":"levelo://app?vid=f71fb2a5-b5ff-4214-9155-233aed2e07f4","ios":"levelo://app?vid=f71fb2a5-b5ff-4214-9155-233aed2e07f4"},"vehicle_type_id":"4","last_reported":1719943845,"current_range_meters":2800,"station_id":"ce4bgop2rcd13ifvqc1g","pricing_plan_id":"cebpf4jnsgd1na2vs0mg"},{"bike_id":"cd923de3-eb9d-4350-9613-a7771ddd91eb","system_id":"levelo_inurba_marseille","lat":43.32291,"lon":5.38253,"is_reserved":false,"is_disabled":false,"rental_uris":{"android":"levelo://app?vid=cd923de3-eb9d-4350-9613-a7771ddd91eb","ios":"levelo://app?vid=cd923de3-eb9d-4350-9613-a7771ddd91eb"},"vehicle_type_id":"4","last_reported":1719943845,"current_range_meters":24400,"station_id":"ce4bhr12rcd13ifvqhqg","pricing_plan_id":"cebpf4jnsgd1na2vs0mg"},{"bike_id":"22b1ae34-f613-4a2d-bbce-23c9c8be1d8f","system_id":"levelo_inurba_marseille","lat":43.322872,"lon":5.382756,"is_reserved":false,"is_disabled":false,"rental_uris":{"android":"levelo://app?vid=22b1ae34-f613-4a2d-bbce-23c9c8be1d8f","ios":"levelo://app?vid=22b1ae34-f613-4a2d-bbce-23c9c8be1d8f"},"vehicle_type_id":"4","last_reported":1719943845,"current_range_meters":31600,"station_id":"ce4bhr12rcd13ifvqhqg","pricing_plan_id":"cebpf4jnsgd1na2vs0mg"},{"bike_id":"708ec8f6-5933-4656-8642-2955eb070790","system_id":"levelo_inurba_marseille","lat":43.322872,"lon":5.382756,"is_reserved":false,"is_disabled":false,"rental_uris":{"android":"levelo://app?vid=708ec8f6-5933-4656-8642-2955eb070790","ios":"levelo://app?vid=708ec8f6-5933-4656-8642-2955eb070790"},"vehicle_type_id":"4","last_reported":1719943845,"current_range_meters":24000,"station_id":"ce4bhr12rcd13ifvqhqg","pricing_plan_id":"cebpf4jnsgd1na2vs0mg"},{"bike_id":"acbacc07-3406-42b6-a4b4-6ba8eee52b33","system_id":"levelo_inurba_marseille","lat":43.322872,"lon":5.382756,"is_reserved":false,"is_disabled":false,"rental_uris":{"android":"levelo://app?vid=acbacc07-3406-42b6-a4b4-6ba8eee52b33","ios":"levelo://app?vid=acbacc07-3406-42b6-a4b4-6ba8eee52b33"},"vehicle_type_id":"4","last_reported":1719943845,"current_range_meters":32000,"station_id":"ce4bhr12rcd13ifvqhqg","pricing_plan_id":"cebpf4jnsgd1na2vs0mg"},{"bike_id":"ea731f8a-f311-41ff-add8-bfb6a4ee4b2d","system_id":"levelo_inurba_marseille","lat":43.322872,"lon":5.382756,"is_reserved":false,"is_disabled":false,"rental_uris":{"android":"levelo://app?vid=ea731f8a-f311-41ff-add8-bfb6a4ee4b2d","ios":"levelo://app?vid=ea731f8a-f311-41ff-add8-bfb6a4ee4b2d"},"vehicle_type_id":"4","last_reported":1719943845,"current_range_meters":32000,"station_id":"ce4bhr12rcd13ifvqhqg","pricing_plan_id":"cebpf4jnsgd1na2vs0mg"},{"bike_id":"b2e010a7-d455-4d81-8e2a-45f1afb99cfe","system_id":"levelo_inurba_marseille","lat":43.322872,"lon":5.382756,"is_reserved":false,"is_disabled":false,"rental_uris":{"android":"levelo://app?vid=b2e010a7-d455-4d81-8e2a-45f1afb99cfe","ios":"levelo://app?vid=b2e010a7-d455-4d81-8e2a-45f1afb99cfe"},"vehicle_type_id":"4","last_reported":1719943845,"current_range_meters":18000,"station_id":"ce4bhr12rcd13ifvqhqg","pricing_plan_id":"cebpf4jnsgd1na2vs0mg"},{"bike_id":"9b8adec2-2d8d-474c-bbc5-03ad96be0b08","system_id":"levelo_inurba_marseille","lat":43.32291,"lon":5.38282,"is_reserved":false,"is_disabled":false,"rental_uris":{"android":"levelo://app?vid=9b8adec2-2d8d-474c-bbc5-03ad96be0b08","ios":"levelo://app?vid=9b8adec2-2d8d-474c-bbc5-03ad96be0b08"},"vehicle_type_id":"4","last_reported":1719943845,"current_range_meters":0,"station_id":"ce4bhr12rcd13ifvqhqg","pricing_plan_id":"cebpf4jnsgd1na2vs0mg"},{"bike_id":"80a78888-9870-4b5a-92d4-45b8792108ae","system_id":"levelo_inurba_marseille","lat":43.29763,"lon":5.36257,"is_reserved":false,"is_disabled":false,"rental_uris":{"android":"levelo://app?vid=80a78888-9870-4b5a-92d4-45b8792108ae","ios":"levelo://app?vid=80a78888-9870-4b5a-92d4-45b8792108ae"},"vehicle_type_id":"4","last_reported":1719943845,"current_range_meters":8400,"station_id":"","pricing_plan_id":"cebpf4jnsgd1na2vs0mg"},{"bike_id":"3137bce2-7a0b-4f18-9853-3631cc1b95f0","system_id":"levelo_inurba_marseille","lat":43.297163,"lon":5.365866,"is_reserved":false,"is_disabled":false,"rental_uris":{"android":"levelo://app?vid=3137bce2-7a0b-4f18-9853-3631cc1b95f0","ios":"levelo://app?vid=3137bce2-7a0b-4f18-9853-3631cc1b95f0"},"vehicle_type_id":"4","last_reported":1719943845,"current_range_meters":20400,"station_id":"ce4bgn12rcd13ifvqbt0","pricing_plan_id":"cebpf4jnsgd1na2vs0mg"},{"bike_id":"4d050184-5075-47ac-8542-fe12901b320c","system_id":"levelo_inurba_marseille","lat":43.297163,"lon":5.365866,"is_reserved":false,"is_disabled":false,"rental_uris":{"android":"levelo://app?vid=4d050184-5075-47ac-8542-fe12901b320c","ios":"levelo://app?vid=4d050184-5075-47ac-8542-fe12901b320c"},"vehicle_type_id":"4","last_reported":1719943845,"current_range_meters":31200,"station_id":"ce4bgn12rcd13ifvqbt0","pricing_plan_id":"cebpf4jnsgd1na2vs0mg"},{"bike_id":"8ce4ba17-057a-4a66-9a7b-9f7d82e74ca5","system_id":"levelo_inurba_marseille","lat":43.297163,"lon":5.365866,"is_reserved":false,"is_disabled":false,"rental_uris":{"android":"levelo://app?vid=8ce4ba17-057a-4a66-9a7b-9f7d82e74ca5","ios":"levelo://app?vid=8ce4ba17-057a-4a66-9a7b-9f7d82e74ca5"},"vehicle_type_id":"4","last_reported":1719943845,"current_range_meters":17200,"station_id":"ce4bgn12rcd13ifvqbt0","pricing_plan_id":"cebpf4jnsgd1na2vs0mg"},{"bike_id":"e894189f-fd6d-4321-9c7b-e705efbb2047","system_id":"levelo_inurba_marseille","lat":43.297163,"lon":5.365866,"is_reserved":false,"is_disabled":false,"rental_uris":{"android":"levelo://app?vid=e894189f-fd6d-4321-9c7b-e705efbb2047","ios":"levelo://app?vid=e894189f-fd6d-4321-9c7b-e705efbb2047"},"vehicle_type_id":"4","last_reported":1719943845,"current_range_meters":13600,"station_id":"ce4bgn12rcd13ifvqbt0","pricing_plan_id":"cebpf4jnsgd1na2vs0mg"},{"bike_id":"73d88b56-4471-41c7-ac85-93fd712318bd","system_id":"levelo_inurba_marseille","lat":43.297163,"lon":5.365866,"is_reserved":false,"is_disabled":false,"rental_uris":{"android":"levelo://app?vid=73d88b56-4471-41c7-ac85-93fd712318bd","ios":"levelo://app?vid=73d88b56-4471-41c7-ac85-93fd712318bd"},"vehicle_type_id":"4","last_reported":1719943845,"current_range_meters":24400,"station_id":"ce4bgn12rcd13ifvqbt0","pricing_plan_id":"cebpf4jnsgd1na2vs0mg"},{"bike_id":"38160a90-fdca-4773-bc29-d7b123ca0095","system_id":"levelo_inurba_marseille","lat":43.297002,"lon":5.371048,"is_reserved":false,"is_disabled":false,"rental_uris":{"android":"levelo://app?vid=38160a90-fdca-4773-bc29-d7b123ca0095","ios":"levelo://app?vid=38160a90-fdca-4773-bc29-d7b123ca0095"},"vehicle_type_id":"4","last_reported":1719943845,"current_range_meters":12400,"station_id":"","pricing_plan_id":"cebpf4jnsgd1na2vs0mg"},{"bike_id":"2bcbcaef-f340-4754-ba1c-455c101207d6","system_id":"levelo_inurba_marseille","lat":43.29684,"lon":5.37284,"is_reserved":false,"is_disabled":false,"rental_uris":{"android":"levelo://app?vid=2bcbcaef-f340-4754-ba1c-455c101207d6","ios":"levelo://app?vid=2bcbcaef-f340-4754-ba1c-455c101207d6"},"vehicle_type_id":"4","last_reported":1719943845,"current_range_meters":31200,"station_id":"ce4bgk12rcd13ifvqbj0","pricing_plan_id":"cebpf4jnsgd1na2vs0mg"},{"bike_id":"a1a3f908-0293-4ffe-88df-d648d27ac344","system_id":"levelo_inurba_marseille","lat":43.29659,"lon":5.36238,"is_reserved":false,"is_disabled":false,"rental_uris":{"android":"levelo://app?vid=a1a3f908-0293-4ffe-88df-d648d27ac344","ios":"levelo://app?vid=a1a3f908-0293-4ffe-88df-d648d27ac344"},"vehicle_type_id":"4","last_reported":1719943845,"current_range_meters":1200,"station_id":"","pricing_plan_id":"cebpf4jnsgd1na2vs0mg"},{"bike_id":"ff758a06-2594-43c8-87a1-51718cab4853","system_id":"levelo_inurba_marseille","lat":43.2965,"lon":5.36247,"is_reserved":false,"is_disabled":false,"rental_uris":{"android":"levelo://app?vid=ff758a06-2594-43c8-87a1-51718cab4853","ios":"levelo://app?vid=ff758a06-2594-43c8-87a1-51718cab4853"},"vehicle_type_id":"4","last_reported":1719943845,"current_range_meters":0,"station_id":"","pricing_plan_id":"cebpf4jnsgd1na2vs0mg"},{"bike_id":"0c845e77-91f9-4f53-b4c0-9cd585c05b3e","system_id":"levelo_inurba_marseille","lat":43.29663,"lon":5.36162,"is_reserved":false,"is_disabled":false,"rental_uris":{"android":"levelo://app?vid=0c845e77-91f9-4f53-b4c0-9cd585c05b3e","ios":"levelo://app?vid=0c845e77-91f9-4f53-b4c0-9cd585c05b3e"},"vehicle_type_id":"4","last_reported":1719943845,"current_range_meters":6800,"station_id":"","pricing_plan_id":"cebpf4jnsgd1na2vs0mg"},{"bike_id":"40ce0b0c-a07d-43e7-8a5d-25223e8c4fb8","system_id":"levelo_inurba_marseille","lat":43.309589,"lon":5.390258,"is_reserved":false,"is_disabled":false,"rental_uris":{"android":"levelo://app?vid=40ce0b0c-a07d-43e7-8a5d-25223e8c4fb8","ios":"levelo://app?vid=40ce0b0c-a07d-43e7-8a5d-25223e8c4fb8"},"vehicle_type_id":"4","last_reported":1719943845,"current_range_meters":26400,"station_id":"ce4bgup2rcd13ifvqco0","pricing_plan_id":"cebpf4jnsgd1na2vs0mg"},{"bike_id":"52f93188-3898-4d59-9207-39edd4599677","system_id":"levelo_inurba_marseille","lat":43.296131,"lon":5.370773,"is_reserved":false,"is_disabled":false,"rental_uris":{"android":"levelo://app?vid=52f93188-3898-4d59-9207-39edd4599677","ios":"levelo://app?vid=52f93188-3898-4d59-9207-39edd4599677"},"vehicle_type_id":"4","last_reported":1719943845,"current_range_meters":28000,"station_id":"ce4bgnh2rcd13ifvqc0g","pricing_plan_id":"cebpf4jnsgd1na2vs0mg"},{"bike_id":"e6a11973-2bb4-40cf-8958-9e5a33c39153","system_id":"levelo_inurba_marseille","lat":43.296131,"lon":5.370791,"is_reserved":false,"is_disabled":false,"rental_uris":{"android":"levelo://app?vid=e6a11973-2bb4-40cf-8958-9e5a33c39153","ios":"levelo://app?vid=e6a11973-2bb4-40cf-8958-9e5a33c39153"},"vehicle_type_id":"4","last_reported":1719943845,"current_range_meters":12400,"station_id":"ce4bgnh2rcd13ifvqc0g","pricing_plan_id":"cebpf4jnsgd1na2vs0mg"},{"bike_id":"5ec70aad-a49e-4323-bc49-ba8f9bde0aff","system_id":"levelo_inurba_marseille","lat":43.2962,"lon":5.37143,"is_reserved":false,"is_disabled":false,"rental_uris":{"android":"levelo://app?vid=5ec70aad-a49e-4323-bc49-ba8f9bde0aff","ios":"levelo://app?vid=5ec70aad-a49e-4323-bc49-ba8f9bde0aff"},"vehicle_type_id":"4","last_reported":1719943845,"current_range_meters":15600,"station_id":"ce4bgnh2rcd13ifvqc0g","pricing_plan_id":"cebpf4jnsgd1na2vs0mg"},{"bike_id":"23d98f1a-c22b-447d-be49-986414414afb","system_id":"levelo_inurba_marseille","lat":43.29621,"lon":5.37165,"is_reserved":false,"is_disabled":false,"rental_uris":{"android":"levelo://app?vid=23d98f1a-c22b-447d-be49-986414414afb","ios":"levelo://app?vid=23d98f1a-c22b-447d-be49-986414414afb"},"vehicle_type_id":"4","last_reported":1719943845,"current_range_meters":31600,"station_id":"ce4bgnh2rcd13ifvqc0g","pricing_plan_id":"cebpf4jnsgd1na2vs0mg"},{"bike_id":"ca3c2251-d2d8-4772-999a-c4ee8644d5e7","system_id":"levelo_inurba_marseille","lat":43.29573,"lon":5.367355,"is_reserved":false,"is_disabled":false,"rental_uris":{"android":"levelo://app?vid=ca3c2251-d2d8-4772-999a-c4ee8644d5e7","ios":"levelo://app?vid=ca3c2251-d2d8-4772-999a-c4ee8644d5e7"},"vehicle_type_id":"4","last_reported":1719943845,"current_range_meters":12000,"station_id":"ce4bgph2rcd13ifvqc2g","pricing_plan_id":"cebpf4jnsgd1na2vs0mg"},{"bike_id":"bfa9c63d-93f4-4f01-826c-0cafa01bc686","system_id":"levelo_inurba_marseille","lat":43.296935,"lon":5.376544,"is_reserved":false,"is_disabled":false,"rental_uris":{"android":"levelo://app?vid=bfa9c63d-93f4-4f01-826c-0cafa01bc686","ios":"levelo://app?vid=bfa9c63d-93f4-4f01-826c-0cafa01bc686"},"vehicle_type_id":"4","last_reported":1719943845,"current_range_meters":26400,"station_id":"ce4bgkh2rcd13ifvqbl0","pricing_plan_id":"cebpf4jnsgd1na2vs0mg"},{"bike_id":"a36deebb-8fc0-43a0-8b23-959a54f915d3","system_id":"levelo_inurba_marseille","lat":43.29731,"lon":5.37693,"is_reserved":false,"is_disabled":false,"rental_uris":{"android":"levelo://app?vid=a36deebb-8fc0-43a0-8b23-959a54f915d3","ios":"levelo://app?vid=a36deebb-8fc0-43a0-8b23-959a54f915d3"},"vehicle_type_id":"4","last_reported":1719943845,"current_range_meters":16400,"station_id":"","pricing_plan_id":"cebpf4jnsgd1na2vs0mg"},{"bike_id":"01cd7b7f-25e9-4a96-9155-ceb54a503d84","system_id":"levelo_inurba_marseille","lat":43.299028,"lon":5.381509,"is_reserved":false,"is_disabled":false,"rental_uris":{"android":"levelo://app?vid=01cd7b7f-25e9-4a96-9155-ceb54a503d84","ios":"levelo://app?vid=01cd7b7f-25e9-4a96-9155-ceb54a503d84"},"vehicle_type_id":"4","last_reported":1719943845,"current_range_meters":6800,"station_id":"ce4bgj12rcd13ifvqbc0","pricing_plan_id":"cebpf4jnsgd1na2vs0mg"},{"bike_id":"25d4b6f0-f2ae-462e-b98b-53d1356bcbb5","system_id":"levelo_inurba_marseille","lat":43.29908,"lon":5.38131,"is_reserved":false,"is_disabled":false,"rental_uris":{"android":"levelo://app?vid=25d4b6f0-f2ae-462e-b98b-53d1356bcbb5","ios":"levelo://app?vid=25d4b6f0-f2ae-462e-b98b-53d1356bcbb5"},"vehicle_type_id":"4","last_reported":1719943845,"current_range_meters":28800,"station_id":"ce4bgj12rcd13ifvqbc0","pricing_plan_id":"cebpf4jnsgd1na2vs0mg"},{"bike_id":"6301534a-f6e6-4876-8bbc-836b89aad058","system_id":"levelo_inurba_marseille","lat":43.309589,"lon":5.390258,"is_reserved":false,"is_disabled":false,"rental_uris":{"android":"levelo://app?vid=6301534a-f6e6-4876-8bbc-836b89aad058","ios":"levelo://app?vid=6301534a-f6e6-4876-8bbc-836b89aad058"},"vehicle_type_id":"4","last_reported":1719943845,"current_range_meters":29600,"station_id":"ce4bgup2rcd13ifvqco0","pricing_plan_id":"cebpf4jnsgd1na2vs0mg"},{"bike_id":"a8048f68-82d0-47e6-b9e0-025c00bd82ad","system_id":"levelo_inurba_marseille","lat":43.299028,"lon":5.381509,"is_reserved":false,"is_disabled":false,"rental_uris":{"android":"levelo://app?vid=a8048f68-82d0-47e6-b9e0-025c00bd82ad","ios":"levelo://app?vid=a8048f68-82d0-47e6-b9e0-025c00bd82ad"},"vehicle_type_id":"4","last_reported":1719943845,"current_range_meters":11200,"station_id":"ce4bgj12rcd13ifvqbc0","pricing_plan_id":"cebpf4jnsgd1na2vs0mg"},{"bike_id":"7f943909-561a-42a9-8149-898ccbce2741","system_id":"levelo_inurba_marseille","lat":43.309589,"lon":5.390258,"is_reserved":false,"is_disabled":false,"rental_uris":{"android":"levelo://app?vid=7f943909-561a-42a9-8149-898ccbce2741","ios":"levelo://app?vid=7f943909-561a-42a9-8149-898ccbce2741"},"vehicle_type_id":"4","last_reported":1719943845,"current_range_meters":23600,"station_id":"ce4bgup2rcd13ifvqco0","pricing_plan_id":"cebpf4jnsgd1na2vs0mg"},{"bike_id":"eb3066d3-1fa6-4e42-a0f5-c5d780d82f75","system_id":"levelo_inurba_marseille","lat":43.309589,"lon":5.390258,"is_reserved":false,"is_disabled":false,"rental_uris":{"android":"levelo://app?vid=eb3066d3-1fa6-4e42-a0f5-c5d780d82f75","ios":"levelo://app?vid=eb3066d3-1fa6-4e42-a0f5-c5d780d82f75"},"vehicle_type_id":"4","last_reported":1719943845,"current_range_meters":7200,"station_id":"ce4bgup2rcd13ifvqco0","pricing_plan_id":"cebpf4jnsgd1na2vs0mg"},{"bike_id":"e031b016-ce4b-4ec4-bda0-8ec62927e08c","system_id":"levelo_inurba_marseille","lat":43.309589,"lon":5.390258,"is_reserved":false,"is_disabled":false,"rental_uris":{"android":"levelo://app?vid=e031b016-ce4b-4ec4-bda0-8ec62927e08c","ios":"levelo://app?vid=e031b016-ce4b-4ec4-bda0-8ec62927e08c"},"vehicle_type_id":"4","last_reported":1719943845,"current_range_meters":1200,"station_id":"ce4bgup2rcd13ifvqco0","pricing_plan_id":"cebpf4jnsgd1na2vs0mg"},{"bike_id":"36ae3ea5-eb89-46b7-a018-5c182efb7950","system_id":"levelo_inurba_marseille","lat":43.309589,"lon":5.390258,"is_reserved":false,"is_disabled":false,"rental_uris":{"android":"levelo://app?vid=36ae3ea5-eb89-46b7-a018-5c182efb7950","ios":"levelo://app?vid=36ae3ea5-eb89-46b7-a018-5c182efb7950"},"vehicle_type_id":"4","last_reported":1719943845,"current_range_meters":2000,"station_id":"ce4bgup2rcd13ifvqco0","pricing_plan_id":"cebpf4jnsgd1na2vs0mg"},{"bike_id":"a5a0e9f1-89cc-4b6d-99ae-3cec1340ee61","system_id":"levelo_inurba_marseille","lat":43.30949,"lon":5.39031,"is_reserved":false,"is_disabled":false,"rental_uris":{"android":"levelo://app?vid=a5a0e9f1-89cc-4b6d-99ae-3cec1340ee61","ios":"levelo://app?vid=a5a0e9f1-89cc-4b6d-99ae-3cec1340ee61"},"vehicle_type_id":"4","last_reported":1719943845,"current_range_meters":17600,"station_id":"ce4bgup2rcd13ifvqco0","pricing_plan_id":"cebpf4jnsgd1na2vs0mg"},{"bike_id":"787fa088-9c97-497d-bb9f-5e66d88343c3","system_id":"levelo_inurba_marseille","lat":43.309589,"lon":5.390258,"is_reserved":false,"is_disabled":false,"rental_uris":{"android":"levelo://app?vid=787fa088-9c97-497d-bb9f-5e66d88343c3","ios":"levelo://app?vid=787fa088-9c97-497d-bb9f-5e66d88343c3"},"vehicle_type_id":"4","last_reported":1719943845,"current_range_meters":10800,"station_id":"ce4bgup2rcd13ifvqco0","pricing_plan_id":"cebpf4jnsgd1na2vs0mg"},{"bike_id":"d59ca86c-ca7a-4654-b103-8693324590f6","system_id":"levelo_inurba_marseille","lat":43.309589,"lon":5.390258,"is_reserved":false,"is_disabled":false,"rental_uris":{"android":"levelo://app?vid=d59ca86c-ca7a-4654-b103-8693324590f6","ios":"levelo://app?vid=d59ca86c-ca7a-4654-b103-8693324590f6"},"vehicle_type_id":"4","last_reported":1719943845,"current_range_meters":31200,"station_id":"ce4bgup2rcd13ifvqco0","pricing_plan_id":"cebpf4jnsgd1na2vs0mg"},{"bike_id":"87eb1970-4938-420a-b1db-b7018d5a13b0","system_id":"levelo_inurba_marseille","lat":43.309589,"lon":5.390258,"is_reserved":false,"is_disabled":false,"rental_uris":{"android":"levelo://app?vid=87eb1970-4938-420a-b1db-b7018d5a13b0","ios":"levelo://app?vid=87eb1970-4938-420a-b1db-b7018d5a13b0"},"vehicle_type_id":"4","last_reported":1719943845,"current_range_meters":0,"station_id":"ce4bgup2rcd13ifvqco0","pricing_plan_id":"cebpf4jnsgd1na2vs0mg"},{"bike_id":"8b3f18da-5de9-454e-aee1-152bc409b248","system_id":"levelo_inurba_marseille","lat":43.309589,"lon":5.390258,"is_reserved":false,"is_disabled":false,"rental_uris":{"android":"levelo://app?vid=8b3f18da-5de9-454e-aee1-152bc409b248","ios":"levelo://app?vid=8b3f18da-5de9-454e-aee1-152bc409b248"},"vehicle_type_id":"4","last_reported":1719943845,"current_range_meters":2800,"station_id":"ce4bgup2rcd13ifvqco0","pricing_plan_id":"cebpf4jnsgd1na2vs0mg"},{"bike_id":"080dea97-3233-4e1d-915d-71b59139de17","system_id":"levelo_inurba_marseille","lat":43.309589,"lon":5.390258,"is_reserved":false,"is_disabled":false,"rental_uris":{"android":"levelo://app?vid=080dea97-3233-4e1d-915d-71b59139de17","ios":"levelo://app?vid=080dea97-3233-4e1d-915d-71b59139de17"},"vehicle_type_id":"4","last_reported":1719943845,"current_range_meters":16800,"station_id":"ce4bgup2rcd13ifvqco0","pricing_plan_id":"cebpf4jnsgd1na2vs0mg"},{"bike_id":"8182552c-da24-4907-8872-52c5f3f6fe9d","system_id":"levelo_inurba_marseille","lat":43.309589,"lon":5.390258,"is_reserved":false,"is_disabled":false,"rental_uris":{"android":"levelo://app?vid=8182552c-da24-4907-8872-52c5f3f6fe9d","ios":"levelo://app?vid=8182552c-da24-4907-8872-52c5f3f6fe9d"},"vehicle_type_id":"4","last_reported":1719943845,"current_range_meters":25600,"station_id":"ce4bgup2rcd13ifvqco0","pricing_plan_id":"cebpf4jnsgd1na2vs0mg"},{"bike_id":"dd19d252-5019-4194-bc1e-c771b2445ccc","system_id":"levelo_inurba_marseille","lat":43.309589,"lon":5.390258,"is_reserved":false,"is_disabled":false,"rental_uris":{"android":"levelo://app?vid=dd19d252-5019-4194-bc1e-c771b2445ccc","ios":"levelo://app?vid=dd19d252-5019-4194-bc1e-c771b2445ccc"},"vehicle_type_id":"4","last_reported":1719943845,"current_range_meters":13600,"station_id":"ce4bgup2rcd13ifvqco0","pricing_plan_id":"cebpf4jnsgd1na2vs0mg"},{"bike_id":"1bda3f93-ff7a-43f9-91f0-546d1c9190bc","system_id":"levelo_inurba_marseille","lat":43.309589,"lon":5.390258,"is_reserved":false,"is_disabled":false,"rental_uris":{"android":"levelo://app?vid=1bda3f93-ff7a-43f9-91f0-546d1c9190bc","ios":"levelo://app?vid=1bda3f93-ff7a-43f9-91f0-546d1c9190bc"},"vehicle_type_id":"4","last_reported":1719943845,"current_range_meters":400,"station_id":"ce4bgup2rcd13ifvqco0","pricing_plan_id":"cebpf4jnsgd1na2vs0mg"},{"bike_id":"432606e7-6199-46d2-bc16-e1ead83dc734","system_id":"levelo_inurba_marseille","lat":43.309589,"lon":5.390258,"is_reserved":false,"is_disabled":false,"rental_uris":{"android":"levelo://app?vid=432606e7-6199-46d2-bc16-e1ead83dc734","ios":"levelo://app?vid=432606e7-6199-46d2-bc16-e1ead83dc734"},"vehicle_type_id":"4","last_reported":1719943845,"current_range_meters":30000,"station_id":"ce4bgup2rcd13ifvqco0","pricing_plan_id":"cebpf4jnsgd1na2vs0mg"},{"bike_id":"44432193-89ac-4d5d-8c8b-c2d2501b165b","system_id":"levelo_inurba_marseille","lat":43.309589,"lon":5.390258,"is_reserved":false,"is_disabled":false,"rental_uris":{"android":"levelo://app?vid=44432193-89ac-4d5d-8c8b-c2d2501b165b","ios":"levelo://app?vid=44432193-89ac-4d5d-8c8b-c2d2501b165b"},"vehicle_type_id":"4","last_reported":1719943845,"current_range_meters":400,"station_id":"ce4bgup2rcd13ifvqco0","pricing_plan_id":"cebpf4jnsgd1na2vs0mg"},{"bike_id":"9c47e545-ceed-4766-8a65-1368401b432c","system_id":"levelo_inurba_marseille","lat":43.309589,"lon":5.390258,"is_reserved":false,"is_disabled":false,"rental_uris":{"android":"levelo://app?vid=9c47e545-ceed-4766-8a65-1368401b432c","ios":"levelo://app?vid=9c47e545-ceed-4766-8a65-1368401b432c"},"vehicle_type_id":"4","last_reported":1719943845,"current_range_meters":800,"station_id":"ce4bgup2rcd13ifvqco0","pricing_plan_id":"cebpf4jnsgd1na2vs0mg"},{"bike_id":"d4e2e643-d390-474c-8722-62f9d1820cd9","system_id":"levelo_inurba_marseille","lat":43.309589,"lon":5.390258,"is_reserved":false,"is_disabled":false,"rental_uris":{"android":"levelo://app?vid=d4e2e643-d390-474c-8722-62f9d1820cd9","ios":"levelo://app?vid=d4e2e643-d390-474c-8722-62f9d1820cd9"},"vehicle_type_id":"4","last_reported":1719943845,"current_range_meters":0,"station_id":"ce4bgup2rcd13ifvqco0","pricing_plan_id":"cebpf4jnsgd1na2vs0mg"},{"bike_id":"b367d4c6-23e5-4af9-b5bd-bd2ae3139e82","system_id":"levelo_inurba_marseille","lat":43.309589,"lon":5.390258,"is_reserved":false,"is_disabled":false,"rental_uris":{"android":"levelo://app?vid=b367d4c6-23e5-4af9-b5bd-bd2ae3139e82","ios":"levelo://app?vid=b367d4c6-23e5-4af9-b5bd-bd2ae3139e82"},"vehicle_type_id":"4","last_reported":1719943845,"current_range_meters":4800,"station_id":"ce4bgup2rcd13ifvqco0","pricing_plan_id":"cebpf4jnsgd1na2vs0mg"},{"bike_id":"0b83db07-c3b0-43f5-8e64-65beae685c22","system_id":"levelo_inurba_marseille","lat":43.309589,"lon":5.390258,"is_reserved":false,"is_disabled":false,"rental_uris":{"android":"levelo://app?vid=0b83db07-c3b0-43f5-8e64-65beae685c22","ios":"levelo://app?vid=0b83db07-c3b0-43f5-8e64-65beae685c22"},"vehicle_type_id":"4","last_reported":1719943845,"current_range_meters":14800,"station_id":"ce4bgup2rcd13ifvqco0","pricing_plan_id":"cebpf4jnsgd1na2vs0mg"},{"bike_id":"03a35c8c-13f0-4d95-9eb3-1c3c8637ffb7","system_id":"levelo_inurba_marseille","lat":43.317571,"lon":5.390134,"is_reserved":false,"is_disabled":false,"rental_uris":{"android":"levelo://app?vid=03a35c8c-13f0-4d95-9eb3-1c3c8637ffb7","ios":"levelo://app?vid=03a35c8c-13f0-4d95-9eb3-1c3c8637ffb7"},"vehicle_type_id":"4","last_reported":1719943845,"current_range_meters":400,"station_id":"ce4bhqp2rcd13ifvqhng","pricing_plan_id":"cebpf4jnsgd1na2vs0mg"},{"bike_id":"adb8d0ac-e55c-4c0a-a6f4-78ecc85b84b1","system_id":"levelo_inurba_marseille","lat":43.31756,"lon":5.39014,"is_reserved":false,"is_disabled":false,"rental_uris":{"android":"levelo://app?vid=adb8d0ac-e55c-4c0a-a6f4-78ecc85b84b1","ios":"levelo://app?vid=adb8d0ac-e55c-4c0a-a6f4-78ecc85b84b1"},"vehicle_type_id":"4","last_reported":1719943845,"current_range_meters":15600,"station_id":"ce4bhqp2rcd13ifvqhng","pricing_plan_id":"cebpf4jnsgd1na2vs0mg"},{"bike_id":"362aeac4-2d59-4576-aa75-26b15bc2311b","system_id":"levelo_inurba_marseille","lat":43.295748,"lon":5.37522,"is_reserved":false,"is_disabled":false,"rental_uris":{"android":"levelo://app?vid=362aeac4-2d59-4576-aa75-26b15bc2311b","ios":"levelo://app?vid=362aeac4-2d59-4576-aa75-26b15bc2311b"},"vehicle_type_id":"4","last_reported":1719943845,"current_range_meters":10800,"station_id":"ce4bgh92rcd13ifvqb50","pricing_plan_id":"cebpf4jnsgd1na2vs0mg"},{"bike_id":"85aceffc-356b-4109-bcbe-ec4674d75b54","system_id":"levelo_inurba_marseille","lat":43.295748,"lon":5.37522,"is_reserved":false,"is_disabled":false,"rental_uris":{"android":"levelo://app?vid=85aceffc-356b-4109-bcbe-ec4674d75b54","ios":"levelo://app?vid=85aceffc-356b-4109-bcbe-ec4674d75b54"},"vehicle_type_id":"4","last_reported":1719943845,"current_range_meters":7600,"station_id":"ce4bgh92rcd13ifvqb50","pricing_plan_id":"cebpf4jnsgd1na2vs0mg"},{"bike_id":"9bd57fa6-8245-4c83-b978-d42607ae7d5c","system_id":"levelo_inurba_marseille","lat":43.295748,"lon":5.37522,"is_reserved":false,"is_disabled":false,"rental_uris":{"android":"levelo://app?vid=9bd57fa6-8245-4c83-b978-d42607ae7d5c","ios":"levelo://app?vid=9bd57fa6-8245-4c83-b978-d42607ae7d5c"},"vehicle_type_id":"4","last_reported":1719943845,"current_range_meters":10000,"station_id":"ce4bgh92rcd13ifvqb50","pricing_plan_id":"cebpf4jnsgd1na2vs0mg"},{"bike_id":"f8c9cdec-1be6-4b7b-b20d-260f17752afb","system_id":"levelo_inurba_marseille","lat":43.304274,"lon":5.388873,"is_reserved":false,"is_disabled":false,"rental_uris":{"android":"levelo://app?vid=f8c9cdec-1be6-4b7b-b20d-260f17752afb","ios":"levelo://app?vid=f8c9cdec-1be6-4b7b-b20d-260f17752afb"},"vehicle_type_id":"4","last_reported":1719943845,"current_range_meters":800,"station_id":"ce4bgk12rcd13ifvqbi0","pricing_plan_id":"cebpf4jnsgd1na2vs0mg"},{"bike_id":"e3a26389-439a-4806-9bbc-c8a4cd780051","system_id":"levelo_inurba_marseille","lat":43.295748,"lon":5.37522,"is_reserved":false,"is_disabled":false,"rental_uris":{"android":"levelo://app?vid=e3a26389-439a-4806-9bbc-c8a4cd780051","ios":"levelo://app?vid=e3a26389-439a-4806-9bbc-c8a4cd780051"},"vehicle_type_id":"4","last_reported":1719943845,"current_range_meters":19600,"station_id":"ce4bgh92rcd13ifvqb50","pricing_plan_id":"cebpf4jnsgd1na2vs0mg"},{"bike_id":"a6459b86-366d-48ba-bc8f-4468d8b4ffa5","system_id":"levelo_inurba_marseille","lat":43.304278,"lon":5.388868,"is_reserved":false,"is_disabled":false,"rental_uris":{"android":"levelo://app?vid=a6459b86-366d-48ba-bc8f-4468d8b4ffa5","ios":"levelo://app?vid=a6459b86-366d-48ba-bc8f-4468d8b4ffa5"},"vehicle_type_id":"4","last_reported":1719943845,"current_range_meters":800,"station_id":"ce4bgk12rcd13ifvqbi0","pricing_plan_id":"cebpf4jnsgd1na2vs0mg"},{"bike_id":"05f1293a-d70a-4c4f-bbf4-f4349c1613bb","system_id":"levelo_inurba_marseille","lat":43.298037,"lon":5.381066,"is_reserved":false,"is_disabled":false,"rental_uris":{"android":"levelo://app?vid=05f1293a-d70a-4c4f-bbf4-f4349c1613bb","ios":"levelo://app?vid=05f1293a-d70a-4c4f-bbf4-f4349c1613bb"},"vehicle_type_id":"4","last_reported":1719943845,"current_range_meters":0,"station_id":"ce4bgip2rcd13ifvqbb0","pricing_plan_id":"cebpf4jnsgd1na2vs0mg"},{"bike_id":"709acda0-5600-4be1-a015-4829f4c9023e","system_id":"levelo_inurba_marseille","lat":43.296277,"lon":5.377108,"is_reserved":false,"is_disabled":false,"rental_uris":{"android":"levelo://app?vid=709acda0-5600-4be1-a015-4829f4c9023e","ios":"levelo://app?vid=709acda0-5600-4be1-a015-4829f4c9023e"},"vehicle_type_id":"4","last_reported":1719943845,"current_range_meters":30000,"station_id":"ce4bgi92rcd13ifvqb90","pricing_plan_id":"cebpf4jnsgd1na2vs0mg"},{"bike_id":"4ae28fe6-a6a4-4b96-9e5b-7fe7df80d537","system_id":"levelo_inurba_marseille","lat":43.295279,"lon":5.375048,"is_reserved":false,"is_disabled":false,"rental_uris":{"android":"levelo://app?vid=4ae28fe6-a6a4-4b96-9e5b-7fe7df80d537","ios":"levelo://app?vid=4ae28fe6-a6a4-4b96-9e5b-7fe7df80d537"},"vehicle_type_id":"4","last_reported":1719943845,"current_range_meters":10800,"station_id":"ce4bgkp2rcd13ifvqbmg","pricing_plan_id":"cebpf4jnsgd1na2vs0mg"},{"bike_id":"135b7b6e-1e11-4d0b-9db0-112dd3ad4bf8","system_id":"levelo_inurba_marseille","lat":43.299707,"lon":5.384859,"is_reserved":false,"is_disabled":false,"rental_uris":{"android":"levelo://app?vid=135b7b6e-1e11-4d0b-9db0-112dd3ad4bf8","ios":"levelo://app?vid=135b7b6e-1e11-4d0b-9db0-112dd3ad4bf8"},"vehicle_type_id":"4","last_reported":1719943845,"current_range_meters":1600,"station_id":"ce4bgj92rcd13ifvqbd0","pricing_plan_id":"cebpf4jnsgd1na2vs0mg"},{"bike_id":"745dee65-1ae4-440c-9354-d03162e3a47d","system_id":"levelo_inurba_marseille","lat":43.29524,"lon":5.37503,"is_reserved":false,"is_disabled":false,"rental_uris":{"android":"levelo://app?vid=745dee65-1ae4-440c-9354-d03162e3a47d","ios":"levelo://app?vid=745dee65-1ae4-440c-9354-d03162e3a47d"},"vehicle_type_id":"4","last_reported":1719943845,"current_range_meters":31200,"station_id":"ce4bgkp2rcd13ifvqbmg","pricing_plan_id":"cebpf4jnsgd1na2vs0mg"},{"bike_id":"3a6a3ca1-72a2-41b6-903e-3e47d372d922","system_id":"levelo_inurba_marseille","lat":43.299707,"lon":5.384859,"is_reserved":false,"is_disabled":false,"rental_uris":{"android":"levelo://app?vid=3a6a3ca1-72a2-41b6-903e-3e47d372d922","ios":"levelo://app?vid=3a6a3ca1-72a2-41b6-903e-3e47d372d922"},"vehicle_type_id":"4","last_reported":1719943845,"current_range_meters":31200,"station_id":"ce4bgj92rcd13ifvqbd0","pricing_plan_id":"cebpf4jnsgd1na2vs0mg"},{"bike_id":"4e473330-e7da-4086-9a69-819841f1611d","system_id":"levelo_inurba_marseille","lat":43.295279,"lon":5.375048,"is_reserved":false,"is_disabled":false,"rental_uris":{"android":"levelo://app?vid=4e473330-e7da-4086-9a69-819841f1611d","ios":"levelo://app?vid=4e473330-e7da-4086-9a69-819841f1611d"},"vehicle_type_id":"4","last_reported":1719943845,"current_range_meters":30800,"station_id":"ce4bgkp2rcd13ifvqbmg","pricing_plan_id":"cebpf4jnsgd1na2vs0mg"},{"bike_id":"5ca900eb-c896-450c-ac1c-18d2e7ca394f","system_id":"levelo_inurba_marseille","lat":43.299717,"lon":5.384845,"is_reserved":false,"is_disabled":false,"rental_uris":{"android":"levelo://app?vid=5ca900eb-c896-450c-ac1c-18d2e7ca394f","ios":"levelo://app?vid=5ca900eb-c896-450c-ac1c-18d2e7ca394f"},"vehicle_type_id":"4","last_reported":1719943845,"current_range_meters":9200,"station_id":"ce4bgj92rcd13ifvqbd0","pricing_plan_id":"cebpf4jnsgd1na2vs0mg"},{"bike_id":"71d8d7b3-d7a1-4087-80be-3e2984cfc7a8","system_id":"levelo_inurba_marseille","lat":43.32367,"lon":5.388836,"is_reserved":false,"is_disabled":false,"rental_uris":{"android":"levelo://app?vid=71d8d7b3-d7a1-4087-80be-3e2984cfc7a8","ios":"levelo://app?vid=71d8d7b3-d7a1-4087-80be-3e2984cfc7a8"},"vehicle_type_id":"4","last_reported":1719943845,"current_range_meters":2000,"station_id":"ce4bhqp2rcd13ifvqhog","pricing_plan_id":"cebpf4jnsgd1na2vs0mg"},{"bike_id":"4d7d186a-0368-4efd-80ca-0fff544f8a85","system_id":"levelo_inurba_marseille","lat":43.32367,"lon":5.388836,"is_reserved":false,"is_disabled":false,"rental_uris":{"android":"levelo://app?vid=4d7d186a-0368-4efd-80ca-0fff544f8a85","ios":"levelo://app?vid=4d7d186a-0368-4efd-80ca-0fff544f8a85"},"vehicle_type_id":"4","last_reported":1719943845,"current_range_meters":10800,"station_id":"ce4bhqp2rcd13ifvqhog","pricing_plan_id":"cebpf4jnsgd1na2vs0mg"},{"bike_id":"a4764f2f-f16b-4105-b747-2fecb2953c78","system_id":"levelo_inurba_marseille","lat":43.32362,"lon":5.38889,"is_reserved":false,"is_disabled":false,"rental_uris":{"android":"levelo://app?vid=a4764f2f-f16b-4105-b747-2fecb2953c78","ios":"levelo://app?vid=a4764f2f-f16b-4105-b747-2fecb2953c78"},"vehicle_type_id":"4","last_reported":1719943845,"current_range_meters":3600,"station_id":"ce4bhqp2rcd13ifvqhog","pricing_plan_id":"cebpf4jnsgd1na2vs0mg"},{"bike_id":"5f4fef3e-355a-4f30-8998-f51fab722b87","system_id":"levelo_inurba_marseille","lat":43.32369,"lon":5.38883,"is_reserved":false,"is_disabled":false,"rental_uris":{"android":"levelo://app?vid=5f4fef3e-355a-4f30-8998-f51fab722b87","ios":"levelo://app?vid=5f4fef3e-355a-4f30-8998-f51fab722b87"},"vehicle_type_id":"4","last_reported":1719943845,"current_range_meters":0,"station_id":"ce4bhqp2rcd13ifvqhog","pricing_plan_id":"cebpf4jnsgd1na2vs0mg"},{"bike_id":"1bea4413-be07-43f4-a21e-1ff71cde5cac","system_id":"levelo_inurba_marseille","lat":43.29602,"lon":5.381084,"is_reserved":false,"is_disabled":false,"rental_uris":{"android":"levelo://app?vid=1bea4413-be07-43f4-a21e-1ff71cde5cac","ios":"levelo://app?vid=1bea4413-be07-43f4-a21e-1ff71cde5cac"},"vehicle_type_id":"4","last_reported":1719943845,"current_range_meters":4000,"station_id":"ce4bgl12rcd13ifvqbo0","pricing_plan_id":"cebpf4jnsgd1na2vs0mg"},{"bike_id":"b16d6032-eee3-4b44-a729-aee1387e9839","system_id":"levelo_inurba_marseille","lat":43.29602,"lon":5.381084,"is_reserved":false,"is_disabled":false,"rental_uris":{"android":"levelo://app?vid=b16d6032-eee3-4b44-a729-aee1387e9839","ios":"levelo://app?vid=b16d6032-eee3-4b44-a729-aee1387e9839"},"vehicle_type_id":"4","last_reported":1719943845,"current_range_meters":3600,"station_id":"ce4bgl12rcd13ifvqbo0","pricing_plan_id":"cebpf4jnsgd1na2vs0mg"},{"bike_id":"7d723c7f-ed09-4724-98f7-442a4f11393a","system_id":"levelo_inurba_marseille","lat":43.29313,"lon":5.37185,"is_reserved":false,"is_disabled":false,"rental_uris":{"android":"levelo://app?vid=7d723c7f-ed09-4724-98f7-442a4f11393a","ios":"levelo://app?vid=7d723c7f-ed09-4724-98f7-442a4f11393a"},"vehicle_type_id":"4","last_reported":1719943845,"current_range_meters":22400,"station_id":"ce4bgh92rcd13ifvqb40","pricing_plan_id":"cebpf4jnsgd1na2vs0mg"},{"bike_id":"94698489-f6d7-46e2-8890-ed91365df174","system_id":"levelo_inurba_marseille","lat":43.29308,"lon":5.37176,"is_reserved":false,"is_disabled":false,"rental_uris":{"android":"levelo://app?vid=94698489-f6d7-46e2-8890-ed91365df174","ios":"levelo://app?vid=94698489-f6d7-46e2-8890-ed91365df174"},"vehicle_type_id":"4","last_reported":1719943845,"current_range_meters":1200,"station_id":"ce4bgh92rcd13ifvqb40","pricing_plan_id":"cebpf4jnsgd1na2vs0mg"},{"bike_id":"ba8532d0-cd57-4d3d-b088-b119acdf9994","system_id":"levelo_inurba_marseille","lat":43.292749,"lon":5.368402,"is_reserved":false,"is_disabled":false,"rental_uris":{"android":"levelo://app?vid=ba8532d0-cd57-4d3d-b088-b119acdf9994","ios":"levelo://app?vid=ba8532d0-cd57-4d3d-b088-b119acdf9994"},"vehicle_type_id":"4","last_reported":1719943845,"current_range_meters":10800,"station_id":"ce4bhbp2rcd13ifvqesg","pricing_plan_id":"cebpf4jnsgd1na2vs0mg"},{"bike_id":"6bc990b2-f316-4cfd-b114-dc04a2bae14f","system_id":"levelo_inurba_marseille","lat":43.30601,"lon":5.39355,"is_reserved":false,"is_disabled":false,"rental_uris":{"android":"levelo://app?vid=6bc990b2-f316-4cfd-b114-dc04a2bae14f","ios":"levelo://app?vid=6bc990b2-f316-4cfd-b114-dc04a2bae14f"},"vehicle_type_id":"4","last_reported":1719943845,"current_range_meters":31200,"station_id":"ce4bh0p2rcd13ifvqd80","pricing_plan_id":"cebpf4jnsgd1na2vs0mg"},{"bike_id":"db086fe3-4e34-4741-908e-abb75f56c8c2","system_id":"levelo_inurba_marseille","lat":43.30595,"lon":5.3936,"is_reserved":false,"is_disabled":false,"rental_uris":{"android":"levelo://app?vid=db086fe3-4e34-4741-908e-abb75f56c8c2","ios":"levelo://app?vid=db086fe3-4e34-4741-908e-abb75f56c8c2"},"vehicle_type_id":"4","last_reported":1719943845,"current_range_meters":18400,"station_id":"ce4bh0p2rcd13ifvqd80","pricing_plan_id":"cebpf4jnsgd1na2vs0mg"},{"bike_id":"bb7b970a-254b-4a1a-b77f-a54f8b3db4c7","system_id":"levelo_inurba_marseille","lat":43.293009,"lon":5.374584,"is_reserved":false,"is_disabled":false,"rental_uris":{"android":"levelo://app?vid=bb7b970a-254b-4a1a-b77f-a54f8b3db4c7","ios":"levelo://app?vid=bb7b970a-254b-4a1a-b77f-a54f8b3db4c7"},"vehicle_type_id":"4","last_reported":1719943845,"current_range_meters":2000,"station_id":"ce4bgi12rcd13ifvqb70","pricing_plan_id":"cebpf4jnsgd1na2vs0mg"},{"bike_id":"f20b11d0-43be-4191-8405-69f1c9b8c6f4","system_id":"levelo_inurba_marseille","lat":43.30597,"lon":5.39362,"is_reserved":false,"is_disabled":false,"rental_uris":{"android":"levelo://app?vid=f20b11d0-43be-4191-8405-69f1c9b8c6f4","ios":"levelo://app?vid=f20b11d0-43be-4191-8405-69f1c9b8c6f4"},"vehicle_type_id":"4","last_reported":1719943845,"current_range_meters":27600,"station_id":"ce4bh0p2rcd13ifvqd80","pricing_plan_id":"cebpf4jnsgd1na2vs0mg"},{"bike_id":"198f59fc-a2f6-41e6-804a-0e318609d1df","system_id":"levelo_inurba_marseille","lat":43.293009,"lon":5.374584,"is_reserved":false,"is_disabled":false,"rental_uris":{"android":"levelo://app?vid=198f59fc-a2f6-41e6-804a-0e318609d1df","ios":"levelo://app?vid=198f59fc-a2f6-41e6-804a-0e318609d1df"},"vehicle_type_id":"4","last_reported":1719943845,"current_range_meters":13200,"station_id":"ce4bgi12rcd13ifvqb70","pricing_plan_id":"cebpf4jnsgd1na2vs0mg"},{"bike_id":"d6e2d737-7d81-4899-b823-0c92fd40bb6b","system_id":"levelo_inurba_marseille","lat":43.300852,"lon":5.390859,"is_reserved":false,"is_disabled":false,"rental_uris":{"android":"levelo://app?vid=d6e2d737-7d81-4899-b823-0c92fd40bb6b","ios":"levelo://app?vid=d6e2d737-7d81-4899-b823-0c92fd40bb6b"},"vehicle_type_id":"4","last_reported":1719943845,"current_range_meters":9600,"station_id":"ce4bh192rcd13ifvqdb0","pricing_plan_id":"cebpf4jnsgd1na2vs0mg"},{"bike_id":"de0b6d5e-e66a-4883-8ee0-f23d0eae0991","system_id":"levelo_inurba_marseille","lat":43.303002,"lon":5.392142,"is_reserved":false,"is_disabled":false,"rental_uris":{"android":"levelo://app?vid=de0b6d5e-e66a-4883-8ee0-f23d0eae0991","ios":"levelo://app?vid=de0b6d5e-e66a-4883-8ee0-f23d0eae0991"},"vehicle_type_id":"4","last_reported":1719943845,"current_range_meters":0,"station_id":"ce4bgkh2rcd13ifvqbk0","pricing_plan_id":"cebpf4jnsgd1na2vs0mg"},{"bike_id":"781a0802-cc04-4fad-9260-1c8ec085fc23","system_id":"levelo_inurba_marseille","lat":43.303002,"lon":5.392142,"is_reserved":false,"is_disabled":false,"rental_uris":{"android":"levelo://app?vid=781a0802-cc04-4fad-9260-1c8ec085fc23","ios":"levelo://app?vid=781a0802-cc04-4fad-9260-1c8ec085fc23"},"vehicle_type_id":"4","last_reported":1719943845,"current_range_meters":400,"station_id":"ce4bgkh2rcd13ifvqbk0","pricing_plan_id":"cebpf4jnsgd1na2vs0mg"},{"bike_id":"fc41454f-b075-444c-baf1-4283c117c6b8","system_id":"levelo_inurba_marseille","lat":43.302992,"lon":5.392136,"is_reserved":false,"is_disabled":false,"rental_uris":{"android":"levelo://app?vid=fc41454f-b075-444c-baf1-4283c117c6b8","ios":"levelo://app?vid=fc41454f-b075-444c-baf1-4283c117c6b8"},"vehicle_type_id":"4","last_reported":1719943845,"current_range_meters":0,"station_id":"ce4bgkh2rcd13ifvqbk0","pricing_plan_id":"cebpf4jnsgd1na2vs0mg"},{"bike_id":"a13367bc-e1f5-4d61-bf75-1dd82b56e45f","system_id":"levelo_inurba_marseille","lat":43.302992,"lon":5.392136,"is_reserved":false,"is_disabled":false,"rental_uris":{"android":"levelo://app?vid=a13367bc-e1f5-4d61-bf75-1dd82b56e45f","ios":"levelo://app?vid=a13367bc-e1f5-4d61-bf75-1dd82b56e45f"},"vehicle_type_id":"4","last_reported":1719943845,"current_range_meters":800,"station_id":"ce4bgkh2rcd13ifvqbk0","pricing_plan_id":"cebpf4jnsgd1na2vs0mg"},{"bike_id":"5af29bd4-aa07-42ff-8aca-82fe6cabc8d6","system_id":"levelo_inurba_marseille","lat":43.30085,"lon":5.390856,"is_reserved":false,"is_disabled":false,"rental_uris":{"android":"levelo://app?vid=5af29bd4-aa07-42ff-8aca-82fe6cabc8d6","ios":"levelo://app?vid=5af29bd4-aa07-42ff-8aca-82fe6cabc8d6"},"vehicle_type_id":"4","last_reported":1719943845,"current_range_meters":31200,"station_id":"ce4bh192rcd13ifvqdb0","pricing_plan_id":"cebpf4jnsgd1na2vs0mg"},{"bike_id":"943fbf87-4e2c-4b84-9526-f8d1a278c9d9","system_id":"levelo_inurba_marseille","lat":43.300852,"lon":5.390859,"is_reserved":false,"is_disabled":false,"rental_uris":{"android":"levelo://app?vid=943fbf87-4e2c-4b84-9526-f8d1a278c9d9","ios":"levelo://app?vid=943fbf87-4e2c-4b84-9526-f8d1a278c9d9"},"vehicle_type_id":"4","last_reported":1719943845,"current_range_meters":14400,"station_id":"ce4bh192rcd13ifvqdb0","pricing_plan_id":"cebpf4jnsgd1na2vs0mg"},{"bike_id":"4c40d2a8-8293-43ea-b9fa-4de4e2d3d57e","system_id":"levelo_inurba_marseille","lat":43.292311,"lon":5.360731,"is_reserved":false,"is_disabled":false,"rental_uris":{"android":"levelo://app?vid=4c40d2a8-8293-43ea-b9fa-4de4e2d3d57e","ios":"levelo://app?vid=4c40d2a8-8293-43ea-b9fa-4de4e2d3d57e"},"vehicle_type_id":"4","last_reported":1719943845,"current_range_meters":0,"station_id":"ce4bhbh2rcd13ifvqeqg","pricing_plan_id":"cebpf4jnsgd1na2vs0mg"},{"bike_id":"127fd988-b541-4610-8d66-cf242fada00a","system_id":"levelo_inurba_marseille","lat":43.30085,"lon":5.390856,"is_reserved":false,"is_disabled":false,"rental_uris":{"android":"levelo://app?vid=127fd988-b541-4610-8d66-cf242fada00a","ios":"levelo://app?vid=127fd988-b541-4610-8d66-cf242fada00a"},"vehicle_type_id":"4","last_reported":1719943845,"current_range_meters":28800,"station_id":"ce4bh192rcd13ifvqdb0","pricing_plan_id":"cebpf4jnsgd1na2vs0mg"},{"bike_id":"3f3ced20-29e7-40b2-9020-d1d81afb3dbd","system_id":"levelo_inurba_marseille","lat":43.300852,"lon":5.390859,"is_reserved":false,"is_disabled":false,"rental_uris":{"android":"levelo://app?vid=3f3ced20-29e7-40b2-9020-d1d81afb3dbd","ios":"levelo://app?vid=3f3ced20-29e7-40b2-9020-d1d81afb3dbd"},"vehicle_type_id":"4","last_reported":1719943845,"current_range_meters":400,"station_id":"ce4bh192rcd13ifvqdb0","pricing_plan_id":"cebpf4jnsgd1na2vs0mg"},{"bike_id":"144fba20-3aaa-4cf3-a209-9f78d78514c0","system_id":"levelo_inurba_marseille","lat":43.2926,"lon":5.37618,"is_reserved":false,"is_disabled":false,"rental_uris":{"android":"levelo://app?vid=144fba20-3aaa-4cf3-a209-9f78d78514c0","ios":"levelo://app?vid=144fba20-3aaa-4cf3-a209-9f78d78514c0"},"vehicle_type_id":"4","last_reported":1719943845,"current_range_meters":31200,"station_id":"","pricing_plan_id":"cebpf4jnsgd1na2vs0mg"},{"bike_id":"c972d420-bc3a-4ee0-8037-ca18f484efc9","system_id":"levelo_inurba_marseille","lat":43.298764,"lon":5.388973,"is_reserved":false,"is_disabled":false,"rental_uris":{"android":"levelo://app?vid=c972d420-bc3a-4ee0-8037-ca18f484efc9","ios":"levelo://app?vid=c972d420-bc3a-4ee0-8037-ca18f484efc9"},"vehicle_type_id":"4","last_reported":1719943845,"current_range_meters":12800,"station_id":"ce4bh392rcd13ifvqdl0","pricing_plan_id":"cebpf4jnsgd1na2vs0mg"},{"bike_id":"eaf46dbb-306c-44b5-ab16-9123ab3e7ed2","system_id":"levelo_inurba_marseille","lat":43.293009,"lon":5.374584,"is_reserved":false,"is_disabled":false,"rental_uris":{"android":"levelo://app?vid=eaf46dbb-306c-44b5-ab16-9123ab3e7ed2","ios":"levelo://app?vid=eaf46dbb-306c-44b5-ab16-9123ab3e7ed2"},"vehicle_type_id":"4","last_reported":1719943845,"current_range_meters":13200,"station_id":"ce4bgi12rcd13ifvqb70","pricing_plan_id":"cebpf4jnsgd1na2vs0mg"},{"bike_id":"fd9b6789-5ccf-46d4-abc6-bd7b0dca5852","system_id":"levelo_inurba_marseille","lat":43.291675,"lon":5.371583,"is_reserved":false,"is_disabled":false,"rental_uris":{"android":"levelo://app?vid=fd9b6789-5ccf-46d4-abc6-bd7b0dca5852","ios":"levelo://app?vid=fd9b6789-5ccf-46d4-abc6-bd7b0dca5852"},"vehicle_type_id":"4","last_reported":1719943845,"current_range_meters":25200,"station_id":"ce4bha92rcd13ifvqeh0","pricing_plan_id":"cebpf4jnsgd1na2vs0mg"},{"bike_id":"c045ba2a-4a15-48e1-8c91-6b869b760d1f","system_id":"levelo_inurba_marseille","lat":43.29872,"lon":5.38911,"is_reserved":false,"is_disabled":false,"rental_uris":{"android":"levelo://app?vid=c045ba2a-4a15-48e1-8c91-6b869b760d1f","ios":"levelo://app?vid=c045ba2a-4a15-48e1-8c91-6b869b760d1f"},"vehicle_type_id":"4","last_reported":1719943845,"current_range_meters":1200,"station_id":"ce4bh392rcd13ifvqdl0","pricing_plan_id":"cebpf4jnsgd1na2vs0mg"},{"bike_id":"7ec1c265-e628-4bb4-9521-916962f9cac9","system_id":"levelo_inurba_marseille","lat":43.294153,"lon":5.386305,"is_reserved":false,"is_disabled":false,"rental_uris":{"android":"levelo://app?vid=7ec1c265-e628-4bb4-9521-916962f9cac9","ios":"levelo://app?vid=7ec1c265-e628-4bb4-9521-916962f9cac9"},"vehicle_type_id":"4","last_reported":1719943845,"current_range_meters":0,"station_id":"ce4bh2h2rcd13ifvqdh0","pricing_plan_id":"cebpf4jnsgd1na2vs0mg"},{"bike_id":"f73c10cb-684e-4217-9fdb-a4a9441ebe7a","system_id":"levelo_inurba_marseille","lat":43.313291,"lon":5.396838,"is_reserved":false,"is_disabled":false,"rental_uris":{"android":"levelo://app?vid=f73c10cb-684e-4217-9fdb-a4a9441ebe7a","ios":"levelo://app?vid=f73c10cb-684e-4217-9fdb-a4a9441ebe7a"},"vehicle_type_id":"4","last_reported":1719943845,"current_range_meters":12400,"station_id":"ce4bgvp2rcd13ifvqcu0","pricing_plan_id":"cebpf4jnsgd1na2vs0mg"},{"bike_id":"b5d48501-a48b-4551-b2d2-e6aee93cc6fd","system_id":"levelo_inurba_marseille","lat":43.29198,"lon":5.35793,"is_reserved":false,"is_disabled":false,"rental_uris":{"android":"levelo://app?vid=b5d48501-a48b-4551-b2d2-e6aee93cc6fd","ios":"levelo://app?vid=b5d48501-a48b-4551-b2d2-e6aee93cc6fd"},"vehicle_type_id":"4","last_reported":1719943845,"current_range_meters":20000,"station_id":"ce4bhb12rcd13ifvqel0","pricing_plan_id":"cebpf4jnsgd1na2vs0mg"},{"bike_id":"deeeb4e9-078c-4370-90be-b8ba832712a3","system_id":"levelo_inurba_marseille","lat":43.309038,"lon":5.396546,"is_reserved":false,"is_disabled":false,"rental_uris":{"android":"levelo://app?vid=deeeb4e9-078c-4370-90be-b8ba832712a3","ios":"levelo://app?vid=deeeb4e9-078c-4370-90be-b8ba832712a3"},"vehicle_type_id":"4","last_reported":1719943845,"current_range_meters":8000,"station_id":"ce4bh012rcd13ifvqcv0","pricing_plan_id":"cebpf4jnsgd1na2vs0mg"},{"bike_id":"6e1dd681-2b4e-46e7-8983-61ffd739c36e","system_id":"levelo_inurba_marseille","lat":43.313291,"lon":5.396838,"is_reserved":false,"is_disabled":false,"rental_uris":{"android":"levelo://app?vid=6e1dd681-2b4e-46e7-8983-61ffd739c36e","ios":"levelo://app?vid=6e1dd681-2b4e-46e7-8983-61ffd739c36e"},"vehicle_type_id":"4","last_reported":1719943845,"current_range_meters":25200,"station_id":"ce4bgvp2rcd13ifvqcu0","pricing_plan_id":"cebpf4jnsgd1na2vs0mg"},{"bike_id":"76b6d914-498a-4efd-9071-1251c9af3697","system_id":"levelo_inurba_marseille","lat":43.313291,"lon":5.396838,"is_reserved":false,"is_disabled":false,"rental_uris":{"android":"levelo://app?vid=76b6d914-498a-4efd-9071-1251c9af3697","ios":"levelo://app?vid=76b6d914-498a-4efd-9071-1251c9af3697"},"vehicle_type_id":"4","last_reported":1719943845,"current_range_meters":0,"station_id":"ce4bgvp2rcd13ifvqcu0","pricing_plan_id":"cebpf4jnsgd1na2vs0mg"},{"bike_id":"521538d8-dfa1-45c3-af6b-37ed5819288a","system_id":"levelo_inurba_marseille","lat":43.30888,"lon":5.396476,"is_reserved":false,"is_disabled":false,"rental_uris":{"android":"levelo://app?vid=521538d8-dfa1-45c3-af6b-37ed5819288a","ios":"levelo://app?vid=521538d8-dfa1-45c3-af6b-37ed5819288a"},"vehicle_type_id":"4","last_reported":1719943845,"current_range_meters":0,"station_id":"ce4bh012rcd13ifvqcv0","pricing_plan_id":"cebpf4jnsgd1na2vs0mg"},{"bike_id":"18018df1-1f9e-465c-9b38-ebeade0c014f","system_id":"levelo_inurba_marseille","lat":43.309038,"lon":5.396546,"is_reserved":false,"is_disabled":false,"rental_uris":{"android":"levelo://app?vid=18018df1-1f9e-465c-9b38-ebeade0c014f","ios":"levelo://app?vid=18018df1-1f9e-465c-9b38-ebeade0c014f"},"vehicle_type_id":"4","last_reported":1719943845,"current_range_meters":0,"station_id":"ce4bh012rcd13ifvqcv0","pricing_plan_id":"cebpf4jnsgd1na2vs0mg"},{"bike_id":"1ee16d1a-4e73-455d-b61d-d300e50f4a98","system_id":"levelo_inurba_marseille","lat":43.29185,"lon":5.35798,"is_reserved":false,"is_disabled":false,"rental_uris":{"android":"levelo://app?vid=1ee16d1a-4e73-455d-b61d-d300e50f4a98","ios":"levelo://app?vid=1ee16d1a-4e73-455d-b61d-d300e50f4a98"},"vehicle_type_id":"4","last_reported":1719943845,"current_range_meters":21600,"station_id":"ce4bhb12rcd13ifvqel0","pricing_plan_id":"cebpf4jnsgd1na2vs0mg"},{"bike_id":"55e14920-8669-4b28-b364-13d3f3d9580f","system_id":"levelo_inurba_marseille","lat":43.309038,"lon":5.396546,"is_reserved":false,"is_disabled":false,"rental_uris":{"android":"levelo://app?vid=55e14920-8669-4b28-b364-13d3f3d9580f","ios":"levelo://app?vid=55e14920-8669-4b28-b364-13d3f3d9580f"},"vehicle_type_id":"4","last_reported":1719943845,"current_range_meters":8800,"station_id":"ce4bh012rcd13ifvqcv0","pricing_plan_id":"cebpf4jnsgd1na2vs0mg"},{"bike_id":"d31c3ed9-9abc-4944-a4eb-96f22a7dc93b","system_id":"levelo_inurba_marseille","lat":43.29529,"lon":5.385581,"is_reserved":false,"is_disabled":false,"rental_uris":{"android":"levelo://app?vid=d31c3ed9-9abc-4944-a4eb-96f22a7dc93b","ios":"levelo://app?vid=d31c3ed9-9abc-4944-a4eb-96f22a7dc93b"},"vehicle_type_id":"4","last_reported":1719943845,"current_range_meters":2800,"station_id":"ce4bgih2rcd13ifvqba0","pricing_plan_id":"cebpf4jnsgd1na2vs0mg"},{"bike_id":"ccb73764-5d02-4670-827e-e5b626533ce0","system_id":"levelo_inurba_marseille","lat":43.29529,"lon":5.385581,"is_reserved":false,"is_disabled":false,"rental_uris":{"android":"levelo://app?vid=ccb73764-5d02-4670-827e-e5b626533ce0","ios":"levelo://app?vid=ccb73764-5d02-4670-827e-e5b626533ce0"},"vehicle_type_id":"4","last_reported":1719943845,"current_range_meters":22400,"station_id":"ce4bgih2rcd13ifvqba0","pricing_plan_id":"cebpf4jnsgd1na2vs0mg"},{"bike_id":"db7db2bd-950b-4d7c-a972-a73cd26dba8c","system_id":"levelo_inurba_marseille","lat":43.29536,"lon":5.38546,"is_reserved":false,"is_disabled":false,"rental_uris":{"android":"levelo://app?vid=db7db2bd-950b-4d7c-a972-a73cd26dba8c","ios":"levelo://app?vid=db7db2bd-950b-4d7c-a972-a73cd26dba8c"},"vehicle_type_id":"4","last_reported":1719943845,"current_range_meters":0,"station_id":"ce4bgih2rcd13ifvqba0","pricing_plan_id":"cebpf4jnsgd1na2vs0mg"},{"bike_id":"eab06bba-affc-440f-8989-9bb7f53984aa","system_id":"levelo_inurba_marseille","lat":43.29529,"lon":5.385581,"is_reserved":false,"is_disabled":false,"rental_uris":{"android":"levelo://app?vid=eab06bba-affc-440f-8989-9bb7f53984aa","ios":"levelo://app?vid=eab06bba-affc-440f-8989-9bb7f53984aa"},"vehicle_type_id":"4","last_reported":1719943845,"current_range_meters":1600,"station_id":"ce4bgih2rcd13ifvqba0","pricing_plan_id":"cebpf4jnsgd1na2vs0mg"},{"bike_id":"241fc04b-7091-4c27-a742-e03f5864c041","system_id":"levelo_inurba_marseille","lat":43.29529,"lon":5.385581,"is_reserved":false,"is_disabled":false,"rental_uris":{"android":"levelo://app?vid=241fc04b-7091-4c27-a742-e03f5864c041","ios":"levelo://app?vid=241fc04b-7091-4c27-a742-e03f5864c041"},"vehicle_type_id":"4","last_reported":1719943845,"current_range_meters":2400,"station_id":"ce4bgih2rcd13ifvqba0","pricing_plan_id":"cebpf4jnsgd1na2vs0mg"},{"bike_id":"a4cb5e9e-1cf2-4212-926b-6b349a426adc","system_id":"levelo_inurba_marseille","lat":43.29528,"lon":5.38549,"is_reserved":false,"is_disabled":false,"rental_uris":{"android":"levelo://app?vid=a4cb5e9e-1cf2-4212-926b-6b349a426adc","ios":"levelo://app?vid=a4cb5e9e-1cf2-4212-926b-6b349a426adc"},"vehicle_type_id":"4","last_reported":1719943845,"current_range_meters":28800,"station_id":"ce4bgih2rcd13ifvqba0","pricing_plan_id":"cebpf4jnsgd1na2vs0mg"},{"bike_id":"77dc9a3c-84ab-4ad6-9f02-428c972a0331","system_id":"levelo_inurba_marseille","lat":43.29074,"lon":5.37153,"is_reserved":false,"is_disabled":false,"rental_uris":{"android":"levelo://app?vid=77dc9a3c-84ab-4ad6-9f02-428c972a0331","ios":"levelo://app?vid=77dc9a3c-84ab-4ad6-9f02-428c972a0331"},"vehicle_type_id":"4","last_reported":1719943845,"current_range_meters":0,"station_id":"ce4bh5p2rcd13ifvqe4g","pricing_plan_id":"cebpf4jnsgd1na2vs0mg"},{"bike_id":"91107282-2aa4-48b1-9ce9-0e26ed647995","system_id":"levelo_inurba_marseille","lat":43.290779,"lon":5.371482,"is_reserved":false,"is_disabled":false,"rental_uris":{"android":"levelo://app?vid=91107282-2aa4-48b1-9ce9-0e26ed647995","ios":"levelo://app?vid=91107282-2aa4-48b1-9ce9-0e26ed647995"},"vehicle_type_id":"4","last_reported":1719943845,"current_range_meters":1600,"station_id":"ce4bh5p2rcd13ifvqe4g","pricing_plan_id":"cebpf4jnsgd1na2vs0mg"},{"bike_id":"da598770-57c9-43d0-8423-83afc717341f","system_id":"levelo_inurba_marseille","lat":43.302008,"lon":5.394694,"is_reserved":false,"is_disabled":false,"rental_uris":{"android":"levelo://app?vid=da598770-57c9-43d0-8423-83afc717341f","ios":"levelo://app?vid=da598770-57c9-43d0-8423-83afc717341f"},"vehicle_type_id":"4","last_reported":1719943845,"current_range_meters":19600,"station_id":"ce4bh0p2rcd13ifvqd70","pricing_plan_id":"cebpf4jnsgd1na2vs0mg"},{"bike_id":"adc4024b-3f3e-4987-b679-29e6a909a809","system_id":"levelo_inurba_marseille","lat":43.29298,"lon":5.3826,"is_reserved":false,"is_disabled":false,"rental_uris":{"android":"levelo://app?vid=adc4024b-3f3e-4987-b679-29e6a909a809","ios":"levelo://app?vid=adc4024b-3f3e-4987-b679-29e6a909a809"},"vehicle_type_id":"4","last_reported":1719943845,"current_range_meters":9600,"station_id":"","pricing_plan_id":"cebpf4jnsgd1na2vs0mg"},{"bike_id":"ba8e96e2-28f4-45f4-8cb2-d3863e95100b","system_id":"levelo_inurba_marseille","lat":43.29034,"lon":5.35922,"is_reserved":false,"is_disabled":false,"rental_uris":{"android":"levelo://app?vid=ba8e96e2-28f4-45f4-8cb2-d3863e95100b","ios":"levelo://app?vid=ba8e96e2-28f4-45f4-8cb2-d3863e95100b"},"vehicle_type_id":"4","last_reported":1719943845,"current_range_meters":0,"station_id":"ce4bha92rcd13ifvqeg0","pricing_plan_id":"cebpf4jnsgd1na2vs0mg"},{"bike_id":"1335fd7c-f876-40da-af6b-bdbffbe32511","system_id":"levelo_inurba_marseille","lat":43.2942,"lon":5.3862,"is_reserved":false,"is_disabled":false,"rental_uris":{"android":"levelo://app?vid=1335fd7c-f876-40da-af6b-bdbffbe32511","ios":"levelo://app?vid=1335fd7c-f876-40da-af6b-bdbffbe32511"},"vehicle_type_id":"4","last_reported":1719943845,"current_range_meters":23600,"station_id":"ce4bh2h2rcd13ifvqdh0","pricing_plan_id":"cebpf4jnsgd1na2vs0mg"},{"bike_id":"2448817d-1033-4901-b33a-70f9fa7544e8","system_id":"levelo_inurba_marseille","lat":43.29417,"lon":5.38615,"is_reserved":false,"is_disabled":false,"rental_uris":{"android":"levelo://app?vid=2448817d-1033-4901-b33a-70f9fa7544e8","ios":"levelo://app?vid=2448817d-1033-4901-b33a-70f9fa7544e8"},"vehicle_type_id":"4","last_reported":1719943845,"current_range_meters":26800,"station_id":"ce4bh2h2rcd13ifvqdh0","pricing_plan_id":"cebpf4jnsgd1na2vs0mg"},{"bike_id":"1483856d-eb4b-47ef-bb3a-e725e91cdcd1","system_id":"levelo_inurba_marseille","lat":43.290327,"lon":5.375711,"is_reserved":false,"is_disabled":false,"rental_uris":{"android":"levelo://app?vid=1483856d-eb4b-47ef-bb3a-e725e91cdcd1","ios":"levelo://app?vid=1483856d-eb4b-47ef-bb3a-e725e91cdcd1"},"vehicle_type_id":"4","last_reported":1719943845,"current_range_meters":22400,"station_id":"ce4bh692rcd13ifvqe90","pricing_plan_id":"cebpf4jnsgd1na2vs0mg"},{"bike_id":"3bdb8c49-eb86-4941-85df-fb76ed42c744","system_id":"levelo_inurba_marseille","lat":43.29417,"lon":5.38619,"is_reserved":false,"is_disabled":false,"rental_uris":{"android":"levelo://app?vid=3bdb8c49-eb86-4941-85df-fb76ed42c744","ios":"levelo://app?vid=3bdb8c49-eb86-4941-85df-fb76ed42c744"},"vehicle_type_id":"4","last_reported":1719943845,"current_range_meters":13200,"station_id":"ce4bh2h2rcd13ifvqdh0","pricing_plan_id":"cebpf4jnsgd1na2vs0mg"},{"bike_id":"97ff3298-d9e7-4b47-9b5c-e57c0fd95572","system_id":"levelo_inurba_marseille","lat":43.294153,"lon":5.386305,"is_reserved":false,"is_disabled":false,"rental_uris":{"android":"levelo://app?vid=97ff3298-d9e7-4b47-9b5c-e57c0fd95572","ios":"levelo://app?vid=97ff3298-d9e7-4b47-9b5c-e57c0fd95572"},"vehicle_type_id":"4","last_reported":1719943845,"current_range_meters":23600,"station_id":"ce4bh2h2rcd13ifvqdh0","pricing_plan_id":"cebpf4jnsgd1na2vs0mg"},{"bike_id":"fbbfc03a-25cf-49c0-a0ea-94e73cca67c6","system_id":"levelo_inurba_marseille","lat":43.29415,"lon":5.38619,"is_reserved":false,"is_disabled":false,"rental_uris":{"android":"levelo://app?vid=fbbfc03a-25cf-49c0-a0ea-94e73cca67c6","ios":"levelo://app?vid=fbbfc03a-25cf-49c0-a0ea-94e73cca67c6"},"vehicle_type_id":"4","last_reported":1719943845,"current_range_meters":0,"station_id":"ce4bh2h2rcd13ifvqdh0","pricing_plan_id":"cebpf4jnsgd1na2vs0mg"},{"bike_id":"e5b53eaa-ae29-445f-a4a2-79711d0c3f47","system_id":"levelo_inurba_marseille","lat":43.294153,"lon":5.386305,"is_reserved":false,"is_disabled":false,"rental_uris":{"android":"levelo://app?vid=e5b53eaa-ae29-445f-a4a2-79711d0c3f47","ios":"levelo://app?vid=e5b53eaa-ae29-445f-a4a2-79711d0c3f47"},"vehicle_type_id":"4","last_reported":1719943845,"current_range_meters":13200,"station_id":"ce4bh2h2rcd13ifvqdh0","pricing_plan_id":"cebpf4jnsgd1na2vs0mg"},{"bike_id":"e97ee9b4-1452-4a6b-9cdf-4101862cb7c6","system_id":"levelo_inurba_marseille","lat":43.29417,"lon":5.38628,"is_reserved":false,"is_disabled":false,"rental_uris":{"android":"levelo://app?vid=e97ee9b4-1452-4a6b-9cdf-4101862cb7c6","ios":"levelo://app?vid=e97ee9b4-1452-4a6b-9cdf-4101862cb7c6"},"vehicle_type_id":"4","last_reported":1719943845,"current_range_meters":400,"station_id":"ce4bh2h2rcd13ifvqdh0","pricing_plan_id":"cebpf4jnsgd1na2vs0mg"},{"bike_id":"72c926ba-7a22-4a06-9cb9-21a4fb2d3c6d","system_id":"levelo_inurba_marseille","lat":43.290327,"lon":5.375711,"is_reserved":false,"is_disabled":false,"rental_uris":{"android":"levelo://app?vid=72c926ba-7a22-4a06-9cb9-21a4fb2d3c6d","ios":"levelo://app?vid=72c926ba-7a22-4a06-9cb9-21a4fb2d3c6d"},"vehicle_type_id":"4","last_reported":1719943845,"current_range_meters":24000,"station_id":"ce4bh692rcd13ifvqe90","pricing_plan_id":"cebpf4jnsgd1na2vs0mg"},{"bike_id":"ad53535a-7857-4dd5-86c7-5c8168346343","system_id":"levelo_inurba_marseille","lat":43.289184,"lon":5.366408,"is_reserved":false,"is_disabled":false,"rental_uris":{"android":"levelo://app?vid=ad53535a-7857-4dd5-86c7-5c8168346343","ios":"levelo://app?vid=ad53535a-7857-4dd5-86c7-5c8168346343"},"vehicle_type_id":"4","last_reported":1719943845,"current_range_meters":14000,"station_id":"ce4bhap2rcd13ifvqek0","pricing_plan_id":"cebpf4jnsgd1na2vs0mg"},{"bike_id":"99145218-b71f-4ccc-9a3d-0ecf3f5acda1","system_id":"levelo_inurba_marseille","lat":43.294153,"lon":5.386305,"is_reserved":false,"is_disabled":false,"rental_uris":{"android":"levelo://app?vid=99145218-b71f-4ccc-9a3d-0ecf3f5acda1","ios":"levelo://app?vid=99145218-b71f-4ccc-9a3d-0ecf3f5acda1"},"vehicle_type_id":"4","last_reported":1719943845,"current_range_meters":15200,"station_id":"ce4bh2h2rcd13ifvqdh0","pricing_plan_id":"cebpf4jnsgd1na2vs0mg"},{"bike_id":"6dee3e5d-0433-4f9e-b6d8-3821f0417f70","system_id":"levelo_inurba_marseille","lat":43.29415,"lon":5.38628,"is_reserved":false,"is_disabled":false,"rental_uris":{"android":"levelo://app?vid=6dee3e5d-0433-4f9e-b6d8-3821f0417f70","ios":"levelo://app?vid=6dee3e5d-0433-4f9e-b6d8-3821f0417f70"},"vehicle_type_id":"4","last_reported":1719943845,"current_range_meters":20400,"station_id":"ce4bh2h2rcd13ifvqdh0","pricing_plan_id":"cebpf4jnsgd1na2vs0mg"},{"bike_id":"ce191b99-5f4c-4564-9072-352ae7cf06bf","system_id":"levelo_inurba_marseille","lat":43.29416,"lon":5.38631,"is_reserved":false,"is_disabled":false,"rental_uris":{"android":"levelo://app?vid=ce191b99-5f4c-4564-9072-352ae7cf06bf","ios":"levelo://app?vid=ce191b99-5f4c-4564-9072-352ae7cf06bf"},"vehicle_type_id":"4","last_reported":1719943845,"current_range_meters":11200,"station_id":"ce4bh2h2rcd13ifvqdh0","pricing_plan_id":"cebpf4jnsgd1na2vs0mg"},{"bike_id":"8e4e7d05-cb12-408f-a9bf-2b209c24dfd3","system_id":"levelo_inurba_marseille","lat":43.29416,"lon":5.38632,"is_reserved":false,"is_disabled":false,"rental_uris":{"android":"levelo://app?vid=8e4e7d05-cb12-408f-a9bf-2b209c24dfd3","ios":"levelo://app?vid=8e4e7d05-cb12-408f-a9bf-2b209c24dfd3"},"vehicle_type_id":"4","last_reported":1719943845,"current_range_meters":31200,"station_id":"ce4bh2h2rcd13ifvqdh0","pricing_plan_id":"cebpf4jnsgd1na2vs0mg"},{"bike_id":"042c7227-7432-4063-8a01-8bd20ad08661","system_id":"levelo_inurba_marseille","lat":43.289184,"lon":5.366408,"is_reserved":false,"is_disabled":false,"rental_uris":{"android":"levelo://app?vid=042c7227-7432-4063-8a01-8bd20ad08661","ios":"levelo://app?vid=042c7227-7432-4063-8a01-8bd20ad08661"},"vehicle_type_id":"4","last_reported":1719943845,"current_range_meters":24400,"station_id":"ce4bhap2rcd13ifvqek0","pricing_plan_id":"cebpf4jnsgd1na2vs0mg"},{"bike_id":"8216c62e-1b92-4164-89cc-d36aa17bb97b","system_id":"levelo_inurba_marseille","lat":43.289184,"lon":5.366408,"is_reserved":false,"is_disabled":false,"rental_uris":{"android":"levelo://app?vid=8216c62e-1b92-4164-89cc-d36aa17bb97b","ios":"levelo://app?vid=8216c62e-1b92-4164-89cc-d36aa17bb97b"},"vehicle_type_id":"4","last_reported":1719943845,"current_range_meters":0,"station_id":"ce4bhap2rcd13ifvqek0","pricing_plan_id":"cebpf4jnsgd1na2vs0mg"},{"bike_id":"0315182e-c6a5-42b5-8f38-c52e9fdd8806","system_id":"levelo_inurba_marseille","lat":43.289184,"lon":5.366408,"is_reserved":false,"is_disabled":false,"rental_uris":{"android":"levelo://app?vid=0315182e-c6a5-42b5-8f38-c52e9fdd8806","ios":"levelo://app?vid=0315182e-c6a5-42b5-8f38-c52e9fdd8806"},"vehicle_type_id":"4","last_reported":1719943845,"current_range_meters":12400,"station_id":"ce4bhap2rcd13ifvqek0","pricing_plan_id":"cebpf4jnsgd1na2vs0mg"},{"bike_id":"f8b60216-4b92-41fc-8fa0-33ad3a852744","system_id":"levelo_inurba_marseille","lat":43.289468,"lon":5.363719,"is_reserved":false,"is_disabled":false,"rental_uris":{"android":"levelo://app?vid=f8b60216-4b92-41fc-8fa0-33ad3a852744","ios":"levelo://app?vid=f8b60216-4b92-41fc-8fa0-33ad3a852744"},"vehicle_type_id":"4","last_reported":1719943845,"current_range_meters":3200,"station_id":"ce4bhc92rcd13ifvqetg","pricing_plan_id":"cebpf4jnsgd1na2vs0mg"},{"bike_id":"d75fe258-a9ea-466a-8854-19aaafcb8a62","system_id":"levelo_inurba_marseille","lat":43.289468,"lon":5.363719,"is_reserved":false,"is_disabled":false,"rental_uris":{"android":"levelo://app?vid=d75fe258-a9ea-466a-8854-19aaafcb8a62","ios":"levelo://app?vid=d75fe258-a9ea-466a-8854-19aaafcb8a62"},"vehicle_type_id":"4","last_reported":1719943845,"current_range_meters":24400,"station_id":"ce4bhc92rcd13ifvqetg","pricing_plan_id":"cebpf4jnsgd1na2vs0mg"},{"bike_id":"c7b42fde-30dd-4a04-957e-716979309e58","system_id":"levelo_inurba_marseille","lat":43.289468,"lon":5.363719,"is_reserved":false,"is_disabled":false,"rental_uris":{"android":"levelo://app?vid=c7b42fde-30dd-4a04-957e-716979309e58","ios":"levelo://app?vid=c7b42fde-30dd-4a04-957e-716979309e58"},"vehicle_type_id":"4","last_reported":1719943845,"current_range_meters":12400,"station_id":"ce4bhc92rcd13ifvqetg","pricing_plan_id":"cebpf4jnsgd1na2vs0mg"},{"bike_id":"8f126e5e-ece2-4ce5-8e2b-431e4c13c8e9","system_id":"levelo_inurba_marseille","lat":43.289468,"lon":5.363719,"is_reserved":false,"is_disabled":false,"rental_uris":{"android":"levelo://app?vid=8f126e5e-ece2-4ce5-8e2b-431e4c13c8e9","ios":"levelo://app?vid=8f126e5e-ece2-4ce5-8e2b-431e4c13c8e9"},"vehicle_type_id":"4","last_reported":1719943845,"current_range_meters":31200,"station_id":"ce4bhc92rcd13ifvqetg","pricing_plan_id":"cebpf4jnsgd1na2vs0mg"},{"bike_id":"d2c4c9a0-b138-4aef-ba72-753602833912","system_id":"levelo_inurba_marseille","lat":43.292644,"lon":5.384257,"is_reserved":false,"is_disabled":false,"rental_uris":{"android":"levelo://app?vid=d2c4c9a0-b138-4aef-ba72-753602833912","ios":"levelo://app?vid=d2c4c9a0-b138-4aef-ba72-753602833912"},"vehicle_type_id":"4","last_reported":1719943845,"current_range_meters":4400,"station_id":"ce4bh692rcd13ifvqea0","pricing_plan_id":"cebpf4jnsgd1na2vs0mg"},{"bike_id":"ec0a39d1-8f2f-43e2-820c-20a06cdd9987","system_id":"levelo_inurba_marseille","lat":43.292644,"lon":5.384257,"is_reserved":false,"is_disabled":false,"rental_uris":{"android":"levelo://app?vid=ec0a39d1-8f2f-43e2-820c-20a06cdd9987","ios":"levelo://app?vid=ec0a39d1-8f2f-43e2-820c-20a06cdd9987"},"vehicle_type_id":"4","last_reported":1719943845,"current_range_meters":2400,"station_id":"ce4bh692rcd13ifvqea0","pricing_plan_id":"cebpf4jnsgd1na2vs0mg"},{"bike_id":"226193ab-6c08-4385-897d-6da4c6f3a177","system_id":"levelo_inurba_marseille","lat":43.292644,"lon":5.384257,"is_reserved":false,"is_disabled":false,"rental_uris":{"android":"levelo://app?vid=226193ab-6c08-4385-897d-6da4c6f3a177","ios":"levelo://app?vid=226193ab-6c08-4385-897d-6da4c6f3a177"},"vehicle_type_id":"4","last_reported":1719943845,"current_range_meters":0,"station_id":"ce4bh692rcd13ifvqea0","pricing_plan_id":"cebpf4jnsgd1na2vs0mg"},{"bike_id":"20d2752d-748e-45f0-9d51-bd4d0e398772","system_id":"levelo_inurba_marseille","lat":43.292644,"lon":5.384257,"is_reserved":false,"is_disabled":false,"rental_uris":{"android":"levelo://app?vid=20d2752d-748e-45f0-9d51-bd4d0e398772","ios":"levelo://app?vid=20d2752d-748e-45f0-9d51-bd4d0e398772"},"vehicle_type_id":"4","last_reported":1719943845,"current_range_meters":8800,"station_id":"ce4bh692rcd13ifvqea0","pricing_plan_id":"cebpf4jnsgd1na2vs0mg"},{"bike_id":"232cfbb4-9b67-4963-ae1b-5f8d802ec1ba","system_id":"levelo_inurba_marseille","lat":43.29267,"lon":5.38438,"is_reserved":false,"is_disabled":false,"rental_uris":{"android":"levelo://app?vid=232cfbb4-9b67-4963-ae1b-5f8d802ec1ba","ios":"levelo://app?vid=232cfbb4-9b67-4963-ae1b-5f8d802ec1ba"},"vehicle_type_id":"4","last_reported":1719943845,"current_range_meters":0,"station_id":"ce4bh692rcd13ifvqea0","pricing_plan_id":"cebpf4jnsgd1na2vs0mg"},{"bike_id":"af02b1c9-504f-4960-a1fb-fa96e5a7da39","system_id":"levelo_inurba_marseille","lat":43.292642,"lon":5.384254,"is_reserved":false,"is_disabled":false,"rental_uris":{"android":"levelo://app?vid=af02b1c9-504f-4960-a1fb-fa96e5a7da39","ios":"levelo://app?vid=af02b1c9-504f-4960-a1fb-fa96e5a7da39"},"vehicle_type_id":"4","last_reported":1719943845,"current_range_meters":19600,"station_id":"ce4bh692rcd13ifvqea0","pricing_plan_id":"cebpf4jnsgd1na2vs0mg"},{"bike_id":"e80394ae-07a3-435a-b441-7f80f78e7294","system_id":"levelo_inurba_marseille","lat":43.292642,"lon":5.384254,"is_reserved":false,"is_disabled":false,"rental_uris":{"android":"levelo://app?vid=e80394ae-07a3-435a-b441-7f80f78e7294","ios":"levelo://app?vid=e80394ae-07a3-435a-b441-7f80f78e7294"},"vehicle_type_id":"4","last_reported":1719943845,"current_range_meters":400,"station_id":"ce4bh692rcd13ifvqea0","pricing_plan_id":"cebpf4jnsgd1na2vs0mg"},{"bike_id":"71c06459-728c-4037-aa9e-830b719d645d","system_id":"levelo_inurba_marseille","lat":43.292642,"lon":5.384254,"is_reserved":false,"is_disabled":false,"rental_uris":{"android":"levelo://app?vid=71c06459-728c-4037-aa9e-830b719d645d","ios":"levelo://app?vid=71c06459-728c-4037-aa9e-830b719d645d"},"vehicle_type_id":"4","last_reported":1719943845,"current_range_meters":17200,"station_id":"ce4bh692rcd13ifvqea0","pricing_plan_id":"cebpf4jnsgd1na2vs0mg"},{"bike_id":"1c1010b0-2d93-4dc6-a07c-b6b7536093eb","system_id":"levelo_inurba_marseille","lat":43.292642,"lon":5.384254,"is_reserved":false,"is_disabled":false,"rental_uris":{"android":"levelo://app?vid=1c1010b0-2d93-4dc6-a07c-b6b7536093eb","ios":"levelo://app?vid=1c1010b0-2d93-4dc6-a07c-b6b7536093eb"},"vehicle_type_id":"4","last_reported":1719943845,"current_range_meters":5600,"station_id":"ce4bh692rcd13ifvqea0","pricing_plan_id":"cebpf4jnsgd1na2vs0mg"},{"bike_id":"3b013453-f58d-4b11-8193-20d1e3c31dc5","system_id":"levelo_inurba_marseille","lat":43.29264,"lon":5.38439,"is_reserved":false,"is_disabled":false,"rental_uris":{"android":"levelo://app?vid=3b013453-f58d-4b11-8193-20d1e3c31dc5","ios":"levelo://app?vid=3b013453-f58d-4b11-8193-20d1e3c31dc5"},"vehicle_type_id":"4","last_reported":1719943845,"current_range_meters":22400,"station_id":"ce4bh692rcd13ifvqea0","pricing_plan_id":"cebpf4jnsgd1na2vs0mg"},{"bike_id":"324e48f0-9534-4950-9bfc-6558810677c9","system_id":"levelo_inurba_marseille","lat":43.292644,"lon":5.384257,"is_reserved":false,"is_disabled":false,"rental_uris":{"android":"levelo://app?vid=324e48f0-9534-4950-9bfc-6558810677c9","ios":"levelo://app?vid=324e48f0-9534-4950-9bfc-6558810677c9"},"vehicle_type_id":"4","last_reported":1719943845,"current_range_meters":10000,"station_id":"ce4bh692rcd13ifvqea0","pricing_plan_id":"cebpf4jnsgd1na2vs0mg"},{"bike_id":"b75b8f9c-75b6-4c2c-9a13-8467e4876c72","system_id":"levelo_inurba_marseille","lat":43.292644,"lon":5.384257,"is_reserved":false,"is_disabled":false,"rental_uris":{"android":"levelo://app?vid=b75b8f9c-75b6-4c2c-9a13-8467e4876c72","ios":"levelo://app?vid=b75b8f9c-75b6-4c2c-9a13-8467e4876c72"},"vehicle_type_id":"4","last_reported":1719943845,"current_range_meters":23600,"station_id":"ce4bh692rcd13ifvqea0","pricing_plan_id":"cebpf4jnsgd1na2vs0mg"},{"bike_id":"e1fa8387-932a-4b4f-a1ed-417db9a828c7","system_id":"levelo_inurba_marseille","lat":43.292642,"lon":5.384254,"is_reserved":false,"is_disabled":false,"rental_uris":{"android":"levelo://app?vid=e1fa8387-932a-4b4f-a1ed-417db9a828c7","ios":"levelo://app?vid=e1fa8387-932a-4b4f-a1ed-417db9a828c7"},"vehicle_type_id":"4","last_reported":1719943845,"current_range_meters":8800,"station_id":"ce4bh692rcd13ifvqea0","pricing_plan_id":"cebpf4jnsgd1na2vs0mg"},{"bike_id":"7aab2060-1562-4602-a5d4-3ad3d832a098","system_id":"levelo_inurba_marseille","lat":43.292644,"lon":5.384257,"is_reserved":false,"is_disabled":false,"rental_uris":{"android":"levelo://app?vid=7aab2060-1562-4602-a5d4-3ad3d832a098","ios":"levelo://app?vid=7aab2060-1562-4602-a5d4-3ad3d832a098"},"vehicle_type_id":"4","last_reported":1719943845,"current_range_meters":29200,"station_id":"ce4bh692rcd13ifvqea0","pricing_plan_id":"cebpf4jnsgd1na2vs0mg"},{"bike_id":"6ac9c13a-d470-4545-b5f7-c663562f4632","system_id":"levelo_inurba_marseille","lat":43.292597,"lon":5.384373,"is_reserved":false,"is_disabled":false,"rental_uris":{"android":"levelo://app?vid=6ac9c13a-d470-4545-b5f7-c663562f4632","ios":"levelo://app?vid=6ac9c13a-d470-4545-b5f7-c663562f4632"},"vehicle_type_id":"4","last_reported":1719943845,"current_range_meters":31600,"station_id":"ce4bh692rcd13ifvqea0","pricing_plan_id":"cebpf4jnsgd1na2vs0mg"},{"bike_id":"ce555229-55e8-4284-8f76-96669abb21da","system_id":"levelo_inurba_marseille","lat":43.292642,"lon":5.384254,"is_reserved":false,"is_disabled":false,"rental_uris":{"android":"levelo://app?vid=ce555229-55e8-4284-8f76-96669abb21da","ios":"levelo://app?vid=ce555229-55e8-4284-8f76-96669abb21da"},"vehicle_type_id":"4","last_reported":1719943845,"current_range_meters":0,"station_id":"ce4bh692rcd13ifvqea0","pricing_plan_id":"cebpf4jnsgd1na2vs0mg"},{"bike_id":"914bec4f-0fce-4d28-827e-e9dcc4e438bf","system_id":"levelo_inurba_marseille","lat":43.292642,"lon":5.384254,"is_reserved":false,"is_disabled":false,"rental_uris":{"android":"levelo://app?vid=914bec4f-0fce-4d28-827e-e9dcc4e438bf","ios":"levelo://app?vid=914bec4f-0fce-4d28-827e-e9dcc4e438bf"},"vehicle_type_id":"4","last_reported":1719943845,"current_range_meters":0,"station_id":"ce4bh692rcd13ifvqea0","pricing_plan_id":"cebpf4jnsgd1na2vs0mg"},{"bike_id":"d6b4ad43-699d-4791-b27e-b8b1bbb05f92","system_id":"levelo_inurba_marseille","lat":43.292644,"lon":5.384257,"is_reserved":false,"is_disabled":false,"rental_uris":{"android":"levelo://app?vid=d6b4ad43-699d-4791-b27e-b8b1bbb05f92","ios":"levelo://app?vid=d6b4ad43-699d-4791-b27e-b8b1bbb05f92"},"vehicle_type_id":"4","last_reported":1719943845,"current_range_meters":29200,"station_id":"ce4bh692rcd13ifvqea0","pricing_plan_id":"cebpf4jnsgd1na2vs0mg"},{"bike_id":"b18a421b-5d70-4a26-9eaf-b7101478dcf9","system_id":"levelo_inurba_marseille","lat":43.292644,"lon":5.384257,"is_reserved":false,"is_disabled":false,"rental_uris":{"android":"levelo://app?vid=b18a421b-5d70-4a26-9eaf-b7101478dcf9","ios":"levelo://app?vid=b18a421b-5d70-4a26-9eaf-b7101478dcf9"},"vehicle_type_id":"4","last_reported":1719943845,"current_range_meters":0,"station_id":"ce4bh692rcd13ifvqea0","pricing_plan_id":"cebpf4jnsgd1na2vs0mg"},{"bike_id":"4646e80b-b9c7-428a-ad62-94f346ba28cb","system_id":"levelo_inurba_marseille","lat":43.292644,"lon":5.384257,"is_reserved":false,"is_disabled":false,"rental_uris":{"android":"levelo://app?vid=4646e80b-b9c7-428a-ad62-94f346ba28cb","ios":"levelo://app?vid=4646e80b-b9c7-428a-ad62-94f346ba28cb"},"vehicle_type_id":"4","last_reported":1719943845,"current_range_meters":11200,"station_id":"ce4bh692rcd13ifvqea0","pricing_plan_id":"cebpf4jnsgd1na2vs0mg"},{"bike_id":"d630641e-e231-4572-8eb5-4cbf12318de2","system_id":"levelo_inurba_marseille","lat":43.292644,"lon":5.384257,"is_reserved":false,"is_disabled":false,"rental_uris":{"android":"levelo://app?vid=d630641e-e231-4572-8eb5-4cbf12318de2","ios":"levelo://app?vid=d630641e-e231-4572-8eb5-4cbf12318de2"},"vehicle_type_id":"4","last_reported":1719943845,"current_range_meters":29600,"station_id":"ce4bh692rcd13ifvqea0","pricing_plan_id":"cebpf4jnsgd1na2vs0mg"},{"bike_id":"bf36b9eb-6957-4aeb-a76d-03e6df256a40","system_id":"levelo_inurba_marseille","lat":43.292644,"lon":5.384257,"is_reserved":false,"is_disabled":false,"rental_uris":{"android":"levelo://app?vid=bf36b9eb-6957-4aeb-a76d-03e6df256a40","ios":"levelo://app?vid=bf36b9eb-6957-4aeb-a76d-03e6df256a40"},"vehicle_type_id":"4","last_reported":1719943845,"current_range_meters":0,"station_id":"ce4bh692rcd13ifvqea0","pricing_plan_id":"cebpf4jnsgd1na2vs0mg"},{"bike_id":"d7d315a0-d9d4-4fc5-9151-4c477aabeb20","system_id":"levelo_inurba_marseille","lat":43.290104,"lon":5.356111,"is_reserved":false,"is_disabled":false,"rental_uris":{"android":"levelo://app?vid=d7d315a0-d9d4-4fc5-9151-4c477aabeb20","ios":"levelo://app?vid=d7d315a0-d9d4-4fc5-9151-4c477aabeb20"},"vehicle_type_id":"4","last_reported":1719943845,"current_range_meters":14400,"station_id":"ce4bhb92rcd13ifvqen0","pricing_plan_id":"cebpf4jnsgd1na2vs0mg"},{"bike_id":"d42a4040-8866-46e3-a7ec-7a4a3a6937db","system_id":"levelo_inurba_marseille","lat":43.290081,"lon":5.356156,"is_reserved":false,"is_disabled":false,"rental_uris":{"android":"levelo://app?vid=d42a4040-8866-46e3-a7ec-7a4a3a6937db","ios":"levelo://app?vid=d42a4040-8866-46e3-a7ec-7a4a3a6937db"},"vehicle_type_id":"4","last_reported":1719943845,"current_range_meters":13600,"station_id":"ce4bhb92rcd13ifvqen0","pricing_plan_id":"cebpf4jnsgd1na2vs0mg"},{"bike_id":"e4ffbba0-b2b6-4b8b-9cfb-de2a3eb531a8","system_id":"levelo_inurba_marseille","lat":43.290104,"lon":5.356111,"is_reserved":false,"is_disabled":false,"rental_uris":{"android":"levelo://app?vid=e4ffbba0-b2b6-4b8b-9cfb-de2a3eb531a8","ios":"levelo://app?vid=e4ffbba0-b2b6-4b8b-9cfb-de2a3eb531a8"},"vehicle_type_id":"4","last_reported":1719943845,"current_range_meters":21600,"station_id":"ce4bhb92rcd13ifvqen0","pricing_plan_id":"cebpf4jnsgd1na2vs0mg"},{"bike_id":"8a16723b-6c53-4aa4-a590-c9b6edfff59f","system_id":"levelo_inurba_marseille","lat":43.290103,"lon":5.356114,"is_reserved":false,"is_disabled":false,"rental_uris":{"android":"levelo://app?vid=8a16723b-6c53-4aa4-a590-c9b6edfff59f","ios":"levelo://app?vid=8a16723b-6c53-4aa4-a590-c9b6edfff59f"},"vehicle_type_id":"4","last_reported":1719943845,"current_range_meters":10400,"station_id":"ce4bhb92rcd13ifvqen0","pricing_plan_id":"cebpf4jnsgd1na2vs0mg"},{"bike_id":"c6f53073-5df3-4009-9ee4-a43a2ad86f09","system_id":"levelo_inurba_marseille","lat":43.290104,"lon":5.356111,"is_reserved":false,"is_disabled":false,"rental_uris":{"android":"levelo://app?vid=c6f53073-5df3-4009-9ee4-a43a2ad86f09","ios":"levelo://app?vid=c6f53073-5df3-4009-9ee4-a43a2ad86f09"},"vehicle_type_id":"4","last_reported":1719943845,"current_range_meters":21200,"station_id":"ce4bhb92rcd13ifvqen0","pricing_plan_id":"cebpf4jnsgd1na2vs0mg"},{"bike_id":"24710efc-89d5-418a-a668-f56a391ca65e","system_id":"levelo_inurba_marseille","lat":43.290104,"lon":5.356111,"is_reserved":false,"is_disabled":false,"rental_uris":{"android":"levelo://app?vid=24710efc-89d5-418a-a668-f56a391ca65e","ios":"levelo://app?vid=24710efc-89d5-418a-a668-f56a391ca65e"},"vehicle_type_id":"4","last_reported":1719943845,"current_range_meters":21600,"station_id":"ce4bhb92rcd13ifvqen0","pricing_plan_id":"cebpf4jnsgd1na2vs0mg"},{"bike_id":"d8f46774-c147-427a-8dfe-e4f0671aa3f8","system_id":"levelo_inurba_marseille","lat":43.290104,"lon":5.356111,"is_reserved":false,"is_disabled":false,"rental_uris":{"android":"levelo://app?vid=d8f46774-c147-427a-8dfe-e4f0671aa3f8","ios":"levelo://app?vid=d8f46774-c147-427a-8dfe-e4f0671aa3f8"},"vehicle_type_id":"4","last_reported":1719943845,"current_range_meters":18000,"station_id":"ce4bhb92rcd13ifvqen0","pricing_plan_id":"cebpf4jnsgd1na2vs0mg"},{"bike_id":"9e5c2a61-ca85-40cb-ac4b-fa6ab82e6174","system_id":"levelo_inurba_marseille","lat":43.290104,"lon":5.356111,"is_reserved":false,"is_disabled":false,"rental_uris":{"android":"levelo://app?vid=9e5c2a61-ca85-40cb-ac4b-fa6ab82e6174","ios":"levelo://app?vid=9e5c2a61-ca85-40cb-ac4b-fa6ab82e6174"},"vehicle_type_id":"4","last_reported":1719943845,"current_range_meters":31600,"station_id":"ce4bhb92rcd13ifvqen0","pricing_plan_id":"cebpf4jnsgd1na2vs0mg"},