{"last_updated":1733947866,"ttl":60,"version":"2.2","data":{"bikes":[{"bike_id":"fb25f55d-a8d3-45ac-bd6b-859bedbb41ea","system_id":"levelo_inurba_marseille","lat":43.28464,"lon":5.35892,"is_reserved":false,"is_disabled":false,"rental_uris":{"android":"levelo://app?vid=fb25f55d-a8d3-45ac-bd6b-859bedbb41ea","ios":"levelo://app?vid=fb25f55d-a8d3-45ac-bd6b-859bedbb41ea"},"vehicle_type_id":"4","last_reported":1733947866,"current_range_meters":26000,"station_id":"ce4bhah2rcd13ifvqei0","pricing_plan_id":"cebpf4jnsgd1na2vs0mg"},{"bike_id":"8953f52f-7365-465e-9097-1952d8fdf9bc","system_id":"levelo_inurba_marseille","lat":43.29825,"lon":5.36329,"is_reserved":false,"is_disabled":false,"rental_uris":{"android":"levelo://app?vid=8953f52f-7365-465e-9097-1952d8fdf9bc","ios":"levelo://app?vid=8953f52f-7365-465e-9097-1952d8fdf9bc"},"vehicle_type_id":"4","last_reported":1733947866,"current_range_meters":38000,"station_id":"ce4bgpp2rcd13ifvqc3g","pricing_plan_id":"cebpf4jnsgd1na2vs0mg"},{"bike_id":"5a1d5db3-014a-4e87-97d8-818e2656f060","system_id":"levelo_inurba_marseille","lat":43.25583,"lon":5.38237,"is_reserved":false,"is_disabled":false,"rental_uris":{"android":"levelo://app?vid=5a1d5db3-014a-4e87-97d8-818e2656f060","ios":"levelo://app?vid=5a1d5db3-014a-4e87-97d8-818e2656f060"},"vehicle_type_id":"4","last_reported":1733947866,"current_range_meters":38800,"station_id":"ce4bhih2rcd13ifvqfs0","pricing_plan_id":"cebpf4jnsgd1na2vs0mg"},{"bike_id":"60e9ed68-c2d5-4fcc-b1fe-df98992a2ea5","system_id":"levelo_inurba_marseille","lat":43.30759,"lon":5.36833,"is_reserved":false,"is_disabled":true,"rental_uris":{"android":"levelo://app?vid=60e9ed68-c2d5-4fcc-b1fe-df98992a2ea5","ios":"levelo://app?vid=60e9ed68-c2d5-4fcc-b1fe-df98992a2ea5"},"vehicle_type_id":"4","last_reported":1733947866,"current_range_meters":0,"station_id":"","pricing_plan_id":"cebpf4jnsgd1na2vs0mg"},{"bike_id":"b266efff-3a14-4d1a-a25a-c68ad062a1f4","system_id":"levelo_inurba_marseille","lat":43.24136,"lon":5.36421,"is_reserved":false,"is_disabled":false,"rental_uris":{"android":"levelo://app?vid=b266efff-3a14-4d1a-a25a-c68ad062a1f4","ios":"levelo://app?vid=b266efff-3a14-4d1a-a25a-c68ad062a1f4"},"vehicle_type_id":"4","last_reported":1733947866,"current_range_meters":8400,"station_id":"cpo36qri1sfpv3e86is0","pricing_plan_id":"cebpf4jnsgd1na2vs0mg"},{"bike_id":"5dcf314d-6a02-49ab-8501-95be4abf8be3","system_id":"levelo_inurba_marseille","lat":43.30441,"lon":5.3889,"is_reserved":false,"is_disabled":false,"rental_uris":{"android":"levelo://app?vid=5dcf314d-6a02-49ab-8501-95be4abf8be3","ios":"levelo://app?vid=5dcf314d-6a02-49ab-8501-95be4abf8be3"},"vehicle_type_id":"4","last_reported":1733947866,"current_range_meters":21600,"station_id":"ce4bgk12rcd13ifvqbi0","pricing_plan_id":"cebpf4jnsgd1na2vs0mg"},{"bike_id":"693d6243-0cd7-4a50-a67e-23e2a095b5a8","system_id":"levelo_inurba_marseille","lat":43.23152,"lon":5.43712,"is_reserved":false,"is_disabled":false,"rental_uris":{"android":"levelo://app?vid=693d6243-0cd7-4a50-a67e-23e2a095b5a8","ios":"levelo://app?vid=693d6243-0cd7-4a50-a67e-23e2a095b5a8"},"vehicle_type_id":"4","last_reported":1733947866,"current_range_meters":7200,"station_id":"ce4bhmp2rcd13ifvqgog","pricing_plan_id":"cebpf4jnsgd1na2vs0mg"},{"bike_id":"1578ac72-bc74-40af-9646-85c10b519367","system_id":"levelo_inurba_marseille","lat":43.28942,"lon":5.36642,"is_reserved":false,"is_disabled":false,"rental_uris":{"android":"levelo://app?vid=1578ac72-bc74-40af-9646-85c10b519367","ios":"levelo://app?vid=1578ac72-bc74-40af-9646-85c10b519367"},"vehicle_type_id":"4","last_reported":1733947866,"current_range_meters":38800,"station_id":"ce4bhap2rcd13ifvqek0","pricing_plan_id":"cebpf4jnsgd1na2vs0mg"},{"bike_id":"a516b183-f861-4e27-a56b-0cca9a8680d3","system_id":"levelo_inurba_marseille","lat":43.32294,"lon":5.38994,"is_reserved":false,"is_disabled":false,"rental_uris":{"android":"levelo://app?vid=a516b183-f861-4e27-a56b-0cca9a8680d3","ios":"levelo://app?vid=a516b183-f861-4e27-a56b-0cca9a8680d3"},"vehicle_type_id":"4","last_reported":1733947866,"current_range_meters":30400,"station_id":"","pricing_plan_id":"cebpf4jnsgd1na2vs0mg"},{"bike_id":"9a419345-c074-4bed-a055-62578d579e76","system_id":"levelo_inurba_marseille","lat":43.28867,"lon":5.35844,"is_reserved":false,"is_disabled":false,"rental_uris":{"android":"levelo://app?vid=9a419345-c074-4bed-a055-62578d579e76","ios":"levelo://app?vid=9a419345-c074-4bed-a055-62578d579e76"},"vehicle_type_id":"4","last_reported":1733947866,"current_range_meters":19200,"station_id":"ce4bhb12rcd13ifvqem0","pricing_plan_id":"cebpf4jnsgd1na2vs0mg"},{"bike_id":"3f5757ec-261c-4569-827f-4e10e7682bac","system_id":"levelo_inurba_marseille","lat":43.30326,"lon":5.40445,"is_reserved":false,"is_disabled":false,"rental_uris":{"android":"levelo://app?vid=3f5757ec-261c-4569-827f-4e10e7682bac","ios":"levelo://app?vid=3f5757ec-261c-4569-827f-4e10e7682bac"},"vehicle_type_id":"4","last_reported":1733947866,"current_range_meters":30800,"station_id":"ce4bh012rcd13ifvqd10","pricing_plan_id":"cebpf4jnsgd1na2vs0mg"},{"bike_id":"980f96eb-32c9-4906-98f6-c44dbf4c84a1","system_id":"levelo_inurba_marseille","lat":43.27455,"lon":5.40073,"is_reserved":false,"is_disabled":true,"rental_uris":{"android":"levelo://app?vid=980f96eb-32c9-4906-98f6-c44dbf4c84a1","ios":"levelo://app?vid=980f96eb-32c9-4906-98f6-c44dbf4c84a1"},"vehicle_type_id":"4","last_reported":1733947866,"current_range_meters":0,"station_id":"","pricing_plan_id":"cebpf4jnsgd1na2vs0mg"},{"bike_id":"25e832b3-718c-4f63-bf6b-446785271ff2","system_id":"levelo_inurba_marseille","lat":43.28076,"lon":5.39658,"is_reserved":false,"is_disabled":false,"rental_uris":{"android":"levelo://app?vid=25e832b3-718c-4f63-bf6b-446785271ff2","ios":"levelo://app?vid=25e832b3-718c-4f63-bf6b-446785271ff2"},"vehicle_type_id":"4","last_reported":1733947866,"current_range_meters":5600,"station_id":"ce4bho12rcd13ifvqh2g","pricing_plan_id":"cebpf4jnsgd1na2vs0mg"},{"bike_id":"17bfb5dd-4de5-45a6-ab1c-43a35c761111","system_id":"levelo_inurba_marseille","lat":43.28678,"lon":5.38675,"is_reserved":false,"is_disabled":false,"rental_uris":{"android":"levelo://app?vid=17bfb5dd-4de5-45a6-ab1c-43a35c761111","ios":"levelo://app?vid=17bfb5dd-4de5-45a6-ab1c-43a35c761111"},"vehicle_type_id":"4","last_reported":1733947866,"current_range_meters":8000,"station_id":"ce4bh492rcd13ifvqdug","pricing_plan_id":"cebpf4jnsgd1na2vs0mg"},{"bike_id":"e77c41ec-01fc-4fd5-a63a-7ada717e028a","system_id":"levelo_inurba_marseille","lat":43.26058,"lon":5.39397,"is_reserved":false,"is_disabled":false,"rental_uris":{"android":"levelo://app?vid=e77c41ec-01fc-4fd5-a63a-7ada717e028a","ios":"levelo://app?vid=e77c41ec-01fc-4fd5-a63a-7ada717e028a"},"vehicle_type_id":"4","last_reported":1733947866,"current_range_meters":38800,"station_id":"ce4bhh92rcd13ifvqfj0","pricing_plan_id":"cebpf4jnsgd1na2vs0mg"},{"bike_id":"0db5aa65-4491-4fa7-b3cd-837cf2eebdd8","system_id":"levelo_inurba_marseille","lat":43.24641,"lon":5.389,"is_reserved":false,"is_disabled":false,"rental_uris":{"android":"levelo://app?vid=0db5aa65-4491-4fa7-b3cd-837cf2eebdd8","ios":"levelo://app?vid=0db5aa65-4491-4fa7-b3cd-837cf2eebdd8"},"vehicle_type_id":"4","last_reported":1733947866,"current_range_meters":18800,"station_id":"ce4bhg12rcd13ifvqf60","pricing_plan_id":"cebpf4jnsgd1na2vs0mg"},{"bike_id":"e07a9d9b-b9bc-475a-ab32-b71a16c6f1be","system_id":"levelo_inurba_marseille","lat":43.27987,"lon":5.41652,"is_reserved":false,"is_disabled":false,"rental_uris":{"android":"levelo://app?vid=e07a9d9b-b9bc-475a-ab32-b71a16c6f1be","ios":"levelo://app?vid=e07a9d9b-b9bc-475a-ab32-b71a16c6f1be"},"vehicle_type_id":"4","last_reported":1733947866,"current_range_meters":24000,"station_id":"ce4bho12rcd13ifvqh1g","pricing_plan_id":"cebpf4jnsgd1na2vs0mg"},{"bike_id":"eb005499-3c0e-4f41-9831-c070b319130e","system_id":"levelo_inurba_marseille","lat":43.2861,"lon":5.3707,"is_reserved":false,"is_disabled":false,"rental_uris":{"android":"levelo://app?vid=eb005499-3c0e-4f41-9831-c070b319130e","ios":"levelo://app?vid=eb005499-3c0e-4f41-9831-c070b319130e"},"vehicle_type_id":"4","last_reported":1733947866,"current_range_meters":25600,"station_id":"ce4bht12rcd13ifvqi60","pricing_plan_id":"cebpf4jnsgd1na2vs0mg"},{"bike_id":"c30e2927-d1ce-4add-bd99-3834be65c25a","system_id":"levelo_inurba_marseille","lat":43.28875,"lon":5.3584,"is_reserved":false,"is_disabled":false,"rental_uris":{"android":"levelo://app?vid=c30e2927-d1ce-4add-bd99-3834be65c25a","ios":"levelo://app?vid=c30e2927-d1ce-4add-bd99-3834be65c25a"},"vehicle_type_id":"4","last_reported":1733947866,"current_range_meters":38000,"station_id":"ce4bhb12rcd13ifvqem0","pricing_plan_id":"cebpf4jnsgd1na2vs0mg"},{"bike_id":"1c8e784d-8487-413d-9c15-8604706269c0","system_id":"levelo_inurba_marseille","lat":43.28492,"lon":5.384,"is_reserved":false,"is_disabled":false,"rental_uris":{"android":"levelo://app?vid=1c8e784d-8487-413d-9c15-8604706269c0","ios":"levelo://app?vid=1c8e784d-8487-413d-9c15-8604706269c0"},"vehicle_type_id":"4","last_reported":1733947866,"current_range_meters":4800,"station_id":"ce4bh512rcd13ifvqe3g","pricing_plan_id":"cebpf4jnsgd1na2vs0mg"},{"bike_id":"f584efb7-cc05-455a-827b-318274525569","system_id":"levelo_inurba_marseille","lat":43.28841,"lon":5.39311,"is_reserved":false,"is_disabled":false,"rental_uris":{"android":"levelo://app?vid=f584efb7-cc05-455a-827b-318274525569","ios":"levelo://app?vid=f584efb7-cc05-455a-827b-318274525569"},"vehicle_type_id":"4","last_reported":1733947866,"current_range_meters":9600,"station_id":"ce4bh2p2rcd13ifvqdi0","pricing_plan_id":"cebpf4jnsgd1na2vs0mg"},{"bike_id":"60fadf67-4697-426c-bf73-d75c1af833da","system_id":"levelo_inurba_marseille","lat":43.28938,"lon":5.3663,"is_reserved":false,"is_disabled":false,"rental_uris":{"android":"levelo://app?vid=60fadf67-4697-426c-bf73-d75c1af833da","ios":"levelo://app?vid=60fadf67-4697-426c-bf73-d75c1af833da"},"vehicle_type_id":"4","last_reported":1733947866,"current_range_meters":38000,"station_id":"ce4bhap2rcd13ifvqek0","pricing_plan_id":"cebpf4jnsgd1na2vs0mg"},{"bike_id":"d3dd1993-0c0f-473b-a6a3-df644092d64e","system_id":"levelo_inurba_marseille","lat":43.28021,"lon":5.36944,"is_reserved":false,"is_disabled":false,"rental_uris":{"android":"levelo://app?vid=d3dd1993-0c0f-473b-a6a3-df644092d64e","ios":"levelo://app?vid=d3dd1993-0c0f-473b-a6a3-df644092d64e"},"vehicle_type_id":"4","last_reported":1733947866,"current_range_meters":24000,"station_id":"ce4bha12rcd13ifvqef0","pricing_plan_id":"cebpf4jnsgd1na2vs0mg"},{"bike_id":"8439618d-6cd2-4da8-97b3-c3a21cd39a6e","system_id":"levelo_inurba_marseille","lat":43.29035,"lon":5.39949,"is_reserved":false,"is_disabled":false,"rental_uris":{"android":"levelo://app?vid=8439618d-6cd2-4da8-97b3-c3a21cd39a6e","ios":"levelo://app?vid=8439618d-6cd2-4da8-97b3-c3a21cd39a6e"},"vehicle_type_id":"4","last_reported":1733947866,"current_range_meters":19200,"station_id":"ce4bh392rcd13ifvqdm0","pricing_plan_id":"cebpf4jnsgd1na2vs0mg"},{"bike_id":"95c915fb-ef8e-49eb-8873-2f04c1046c28","system_id":"levelo_inurba_marseille","lat":43.31369,"lon":5.38488,"is_reserved":false,"is_disabled":false,"rental_uris":{"android":"levelo://app?vid=95c915fb-ef8e-49eb-8873-2f04c1046c28","ios":"levelo://app?vid=95c915fb-ef8e-49eb-8873-2f04c1046c28"},"vehicle_type_id":"4","last_reported":1733947866,"current_range_meters":8400,"station_id":"ce4bgt92rcd13ifvqcf0","pricing_plan_id":"cebpf4jnsgd1na2vs0mg"},{"bike_id":"185a4849-41cb-470c-9b5b-97faf982d829","system_id":"levelo_inurba_marseille","lat":43.295704,"lon":5.399649,"is_reserved":false,"is_disabled":false,"rental_uris":{"android":"levelo://app?vid=185a4849-41cb-470c-9b5b-97faf982d829","ios":"levelo://app?vid=185a4849-41cb-470c-9b5b-97faf982d829"},"vehicle_type_id":"4","last_reported":1733947866,"current_range_meters":20400,"station_id":"ce4bh312rcd13ifvqdj0","pricing_plan_id":"cebpf4jnsgd1na2vs0mg"},{"bike_id":"3a862bec-6360-4b2f-8593-b3c4cf901f3e","system_id":"levelo_inurba_marseille","lat":43.30825,"lon":5.38164,"is_reserved":false,"is_disabled":true,"rental_uris":{"android":"levelo://app?vid=3a862bec-6360-4b2f-8593-b3c4cf901f3e","ios":"levelo://app?vid=3a862bec-6360-4b2f-8593-b3c4cf901f3e"},"vehicle_type_id":"4","last_reported":1733947866,"current_range_meters":1200,"station_id":"ce4bgt12rcd13ifvqce0","pricing_plan_id":"cebpf4jnsgd1na2vs0mg"},{"bike_id":"36272bbc-2413-4d65-9f8d-f8eaf63041c0","system_id":"levelo_inurba_marseille","lat":43.27056,"lon":5.40261,"is_reserved":false,"is_disabled":true,"rental_uris":{"android":"levelo://app?vid=36272bbc-2413-4d65-9f8d-f8eaf63041c0","ios":"levelo://app?vid=36272bbc-2413-4d65-9f8d-f8eaf63041c0"},"vehicle_type_id":"4","last_reported":1733947866,"current_range_meters":26800,"station_id":"ce4bhk92rcd13ifvqgc0","pricing_plan_id":"cebpf4jnsgd1na2vs0mg"},{"bike_id":"fe4cab58-ba30-4c78-b62f-d4434eea7628","system_id":"levelo_inurba_marseille","lat":43.29446,"lon":5.39755,"is_reserved":false,"is_disabled":true,"rental_uris":{"android":"levelo://app?vid=fe4cab58-ba30-4c78-b62f-d4434eea7628","ios":"levelo://app?vid=fe4cab58-ba30-4c78-b62f-d4434eea7628"},"vehicle_type_id":"4","last_reported":1733947866,"current_range_meters":34000,"station_id":"ce4bh3h2rcd13ifvqdo0","pricing_plan_id":"cebpf4jnsgd1na2vs0mg"},{"bike_id":"ecc110ce-c5e8-44d9-971f-5baa0bdacd3e","system_id":"levelo_inurba_marseille","lat":43.24804,"lon":5.37451,"is_reserved":false,"is_disabled":false,"rental_uris":{"android":"levelo://app?vid=ecc110ce-c5e8-44d9-971f-5baa0bdacd3e","ios":"levelo://app?vid=ecc110ce-c5e8-44d9-971f-5baa0bdacd3e"},"vehicle_type_id":"4","last_reported":1733947866,"current_range_meters":20400,"station_id":"ce4bhgh2rcd13ifvqfb0","pricing_plan_id":"cebpf4jnsgd1na2vs0mg"},{"bike_id":"267dcdf2-6b3d-4080-ae31-08583c8e5747","system_id":"levelo_inurba_marseille","lat":43.28486,"lon":5.38414,"is_reserved":false,"is_disabled":false,"rental_uris":{"android":"levelo://app?vid=267dcdf2-6b3d-4080-ae31-08583c8e5747","ios":"levelo://app?vid=267dcdf2-6b3d-4080-ae31-08583c8e5747"},"vehicle_type_id":"4","last_reported":1733947866,"current_range_meters":4400,"station_id":"ce4bh512rcd13ifvqe3g","pricing_plan_id":"cebpf4jnsgd1na2vs0mg"},{"bike_id":"b4779a26-61e3-4a41-b217-1108d59f7e49","system_id":"levelo_inurba_marseille","lat":43.29417,"lon":5.3864,"is_reserved":false,"is_disabled":true,"rental_uris":{"android":"levelo://app?vid=b4779a26-61e3-4a41-b217-1108d59f7e49","ios":"levelo://app?vid=b4779a26-61e3-4a41-b217-1108d59f7e49"},"vehicle_type_id":"4","last_reported":1733947866,"current_range_meters":0,"station_id":"ce4bh2h2rcd13ifvqdh0","pricing_plan_id":"cebpf4jnsgd1na2vs0mg"},{"bike_id":"abac76cb-f7f6-48eb-9725-c2660579ae44","system_id":"levelo_inurba_marseille","lat":43.32046,"lon":5.41549,"is_reserved":false,"is_disabled":false,"rental_uris":{"android":"levelo://app?vid=abac76cb-f7f6-48eb-9725-c2660579ae44","ios":"levelo://app?vid=abac76cb-f7f6-48eb-9725-c2660579ae44"},"vehicle_type_id":"4","last_reported":1733947866,"current_range_meters":12800,"station_id":"ce4bhq92rcd13ifvqhkg","pricing_plan_id":"cebpf4jnsgd1na2vs0mg"},{"bike_id":"8979b88b-e0c9-465c-b920-54c929607786","system_id":"levelo_inurba_marseille","lat":43.3041,"lon":5.36806,"is_reserved":false,"is_disabled":false,"rental_uris":{"android":"levelo://app?vid=8979b88b-e0c9-465c-b920-54c929607786","ios":"levelo://app?vid=8979b88b-e0c9-465c-b920-54c929607786"},"vehicle_type_id":"4","last_reported":1733947866,"current_range_meters":18000,"station_id":"","pricing_plan_id":"cebpf4jnsgd1na2vs0mg"},{"bike_id":"3a56946e-b571-4f0a-89c3-228266a44430","system_id":"levelo_inurba_marseille","lat":43.26597,"lon":5.38971,"is_reserved":false,"is_disabled":false,"rental_uris":{"android":"levelo://app?vid=3a56946e-b571-4f0a-89c3-228266a44430","ios":"levelo://app?vid=3a56946e-b571-4f0a-89c3-228266a44430"},"vehicle_type_id":"4","last_reported":1733947866,"current_range_meters":6400,"station_id":"","pricing_plan_id":"cebpf4jnsgd1na2vs0mg"},{"bike_id":"8026ea29-8ab7-49ee-a04b-1bbe578bd836","system_id":"levelo_inurba_marseille","lat":43.30096,"lon":5.39079,"is_reserved":false,"is_disabled":true,"rental_uris":{"android":"levelo://app?vid=8026ea29-8ab7-49ee-a04b-1bbe578bd836","ios":"levelo://app?vid=8026ea29-8ab7-49ee-a04b-1bbe578bd836"},"vehicle_type_id":"4","last_reported":1733947866,"current_range_meters":0,"station_id":"ce4bh192rcd13ifvqdb0","pricing_plan_id":"cebpf4jnsgd1na2vs0mg"},{"bike_id":"1a57a953-7738-448c-9bad-8fe31e4d9112","system_id":"levelo_inurba_marseille","lat":43.31281,"lon":5.40167,"is_reserved":false,"is_disabled":false,"rental_uris":{"android":"levelo://app?vid=1a57a953-7738-448c-9bad-8fe31e4d9112","ios":"levelo://app?vid=1a57a953-7738-448c-9bad-8fe31e4d9112"},"vehicle_type_id":"4","last_reported":1733947866,"current_range_meters":8800,"station_id":"ce4bh092rcd13ifvqd30","pricing_plan_id":"cebpf4jnsgd1na2vs0mg"},{"bike_id":"83d86471-0b95-4477-9349-a015d55c6b4b","system_id":"levelo_inurba_marseille","lat":43.32008,"lon":5.38134,"is_reserved":false,"is_disabled":true,"rental_uris":{"android":"levelo://app?vid=83d86471-0b95-4477-9349-a015d55c6b4b","ios":"levelo://app?vid=83d86471-0b95-4477-9349-a015d55c6b4b"},"vehicle_type_id":"4","last_reported":1733947866,"current_range_meters":800,"station_id":"ce4bhr12rcd13ifvqhpg","pricing_plan_id":"cebpf4jnsgd1na2vs0mg"},{"bike_id":"03cfc9ee-c162-4b7d-a466-8cfd1ea87ac9","system_id":"levelo_inurba_marseille","lat":43.26938,"lon":5.38918,"is_reserved":false,"is_disabled":false,"rental_uris":{"android":"levelo://app?vid=03cfc9ee-c162-4b7d-a466-8cfd1ea87ac9","ios":"levelo://app?vid=03cfc9ee-c162-4b7d-a466-8cfd1ea87ac9"},"vehicle_type_id":"4","last_reported":1733947866,"current_range_meters":37600,"station_id":"ce4bhhh2rcd13ifvqfl0","pricing_plan_id":"cebpf4jnsgd1na2vs0mg"},{"bike_id":"912b9652-d6db-47d7-b69a-ee743e156f59","system_id":"levelo_inurba_marseille","lat":43.28453,"lon":5.35873,"is_reserved":false,"is_disabled":false,"rental_uris":{"android":"levelo://app?vid=912b9652-d6db-47d7-b69a-ee743e156f59","ios":"levelo://app?vid=912b9652-d6db-47d7-b69a-ee743e156f59"},"vehicle_type_id":"4","last_reported":1733947866,"current_range_meters":38000,"station_id":"ce4bhah2rcd13ifvqei0","pricing_plan_id":"cebpf4jnsgd1na2vs0mg"},{"bike_id":"dc885c19-9b89-40ec-b58d-88b82ed91157","system_id":"levelo_inurba_marseille","lat":43.29011,"lon":5.35607,"is_reserved":false,"is_disabled":false,"rental_uris":{"android":"levelo://app?vid=dc885c19-9b89-40ec-b58d-88b82ed91157","ios":"levelo://app?vid=dc885c19-9b89-40ec-b58d-88b82ed91157"},"vehicle_type_id":"4","last_reported":1733947866,"current_range_meters":39200,"station_id":"ce4bhb92rcd13ifvqen0","pricing_plan_id":"cebpf4jnsgd1na2vs0mg"},{"bike_id":"4d48e539-b27f-4ac7-8fc6-6f433aa66ed9","system_id":"levelo_inurba_marseille","lat":43.27424,"lon":5.39418,"is_reserved":false,"is_disabled":false,"rental_uris":{"android":"levelo://app?vid=4d48e539-b27f-4ac7-8fc6-6f433aa66ed9","ios":"levelo://app?vid=4d48e539-b27f-4ac7-8fc6-6f433aa66ed9"},"vehicle_type_id":"4","last_reported":1733947866,"current_range_meters":3600,"station_id":"ce4bhdp2rcd13ifvqf20","pricing_plan_id":"cebpf4jnsgd1na2vs0mg"},{"bike_id":"cf504aa2-7a5b-44a8-9e13-efcb53c1bdd9","system_id":"levelo_inurba_marseille","lat":43.28716,"lon":5.37408,"is_reserved":false,"is_disabled":false,"rental_uris":{"android":"levelo://app?vid=cf504aa2-7a5b-44a8-9e13-efcb53c1bdd9","ios":"levelo://app?vid=cf504aa2-7a5b-44a8-9e13-efcb53c1bdd9"},"vehicle_type_id":"4","last_reported":1733947866,"current_range_meters":39200,"station_id":"ce4bh3p2rcd13ifvqdq0","pricing_plan_id":"cebpf4jnsgd1na2vs0mg"},{"bike_id":"90324b92-2d52-4f43-bd59-91b2038c3497","system_id":"levelo_inurba_marseille","lat":43.28943,"lon":5.3664,"is_reserved":false,"is_disabled":true,"rental_uris":{"android":"levelo://app?vid=90324b92-2d52-4f43-bd59-91b2038c3497","ios":"levelo://app?vid=90324b92-2d52-4f43-bd59-91b2038c3497"},"vehicle_type_id":"4","last_reported":1733947866,"current_range_meters":28800,"station_id":"ce4bhap2rcd13ifvqek0","pricing_plan_id":"cebpf4jnsgd1na2vs0mg"},{"bike_id":"e0791924-28f7-4c2d-84b5-4428cec1247e","system_id":"levelo_inurba_marseille","lat":43.29805,"lon":5.4041,"is_reserved":false,"is_disabled":false,"rental_uris":{"android":"levelo://app?vid=e0791924-28f7-4c2d-84b5-4428cec1247e","ios":"levelo://app?vid=e0791924-28f7-4c2d-84b5-4428cec1247e"},"vehicle_type_id":"4","last_reported":1733947866,"current_range_meters":8000,"station_id":"ce4bh112rcd13ifvqd90","pricing_plan_id":"cebpf4jnsgd1na2vs0mg"},{"bike_id":"1686641e-fa25-460d-b830-148d1253ba92","system_id":"levelo_inurba_marseille","lat":43.308812,"lon":5.39637,"is_reserved":false,"is_disabled":false,"rental_uris":{"android":"levelo://app?vid=1686641e-fa25-460d-b830-148d1253ba92","ios":"levelo://app?vid=1686641e-fa25-460d-b830-148d1253ba92"},"vehicle_type_id":"4","last_reported":1733947866,"current_range_meters":16000,"station_id":"ce4bh012rcd13ifvqcv0","pricing_plan_id":"cebpf4jnsgd1na2vs0mg"},{"bike_id":"383f4d16-4911-4d35-a7a5-72caa30c20b8","system_id":"levelo_inurba_marseille","lat":43.26024,"lon":5.37552,"is_reserved":false,"is_disabled":false,"rental_uris":{"android":"levelo://app?vid=383f4d16-4911-4d35-a7a5-72caa30c20b8","ios":"levelo://app?vid=383f4d16-4911-4d35-a7a5-72caa30c20b8"},"vehicle_type_id":"4","last_reported":1733947866,"current_range_meters":25200,"station_id":"ce4bhgh2rcd13ifvqfa0","pricing_plan_id":"cebpf4jnsgd1na2vs0mg"},{"bike_id":"c54c8965-7c23-4ef3-9e71-75e946489602","system_id":"levelo_inurba_marseille","lat":43.27816,"lon":5.40706,"is_reserved":false,"is_disabled":false,"rental_uris":{"android":"levelo://app?vid=c54c8965-7c23-4ef3-9e71-75e946489602","ios":"levelo://app?vid=c54c8965-7c23-4ef3-9e71-75e946489602"},"vehicle_type_id":"4","last_reported":1733947866,"current_range_meters":38800,"station_id":"ce4bhnh2rcd13ifvqgtg","pricing_plan_id":"cebpf4jnsgd1na2vs0mg"},{"bike_id":"6faa6ee7-a588-4286-8e0c-a7deeaae5bab","system_id":"levelo_inurba_marseille","lat":43.27368,"lon":5.36263,"is_reserved":false,"is_disabled":false,"rental_uris":{"android":"levelo://app?vid=6faa6ee7-a588-4286-8e0c-a7deeaae5bab","ios":"levelo://app?vid=6faa6ee7-a588-4286-8e0c-a7deeaae5bab"},"vehicle_type_id":"4","last_reported":1733947866,"current_range_meters":38800,"station_id":"ce4bhbh2rcd13ifvqeo0","pricing_plan_id":"cebpf4jnsgd1na2vs0mg"},{"bike_id":"e0e7ee68-c93a-46d4-a112-a38d643c1ed5","system_id":"levelo_inurba_marseille","lat":43.30436,"lon":5.4128,"is_reserved":false,"is_disabled":true,"rental_uris":{"android":"levelo://app?vid=e0e7ee68-c93a-46d4-a112-a38d643c1ed5","ios":"levelo://app?vid=e0e7ee68-c93a-46d4-a112-a38d643c1ed5"},"vehicle_type_id":"4","last_reported":1733947866,"current_range_meters":1200,"station_id":"ce4bhop2rcd13ifvqh8g","pricing_plan_id":"cebpf4jnsgd1na2vs0mg"},{"bike_id":"716e3651-726d-4797-92a9-2212a7dacea5","system_id":"levelo_inurba_marseille","lat":43.29896,"lon":5.43661,"is_reserved":false,"is_disabled":false,"rental_uris":{"android":"levelo://app?vid=716e3651-726d-4797-92a9-2212a7dacea5","ios":"levelo://app?vid=716e3651-726d-4797-92a9-2212a7dacea5"},"vehicle_type_id":"4","last_reported":1733947866,"current_range_meters":37600,"station_id":"ce4bhpp2rcd13ifvqhfg","pricing_plan_id":"cebpf4jnsgd1na2vs0mg"},{"bike_id":"30b7f7b0-cffb-44e8-9e23-86428fe1183d","system_id":"levelo_inurba_marseille","lat":43.23079,"lon":5.35489,"is_reserved":false,"is_disabled":false,"rental_uris":{"android":"levelo://app?vid=30b7f7b0-cffb-44e8-9e23-86428fe1183d","ios":"levelo://app?vid=30b7f7b0-cffb-44e8-9e23-86428fe1183d"},"vehicle_type_id":"4","last_reported":1733947866,"current_range_meters":12800,"station_id":"cpo3342slgdg3j2ifvpg","pricing_plan_id":"cebpf4jnsgd1na2vs0mg"},{"bike_id":"551f4ede-9e92-4f06-a5b3-6819bc555477","system_id":"levelo_inurba_marseille","lat":43.28452,"lon":5.35886,"is_reserved":false,"is_disabled":false,"rental_uris":{"android":"levelo://app?vid=551f4ede-9e92-4f06-a5b3-6819bc555477","ios":"levelo://app?vid=551f4ede-9e92-4f06-a5b3-6819bc555477"},"vehicle_type_id":"4","last_reported":1733947866,"current_range_meters":14400,"station_id":"ce4bhah2rcd13ifvqei0","pricing_plan_id":"cebpf4jnsgd1na2vs0mg"},{"bike_id":"33f06ed4-c8ad-43f5-b7ff-27c41657a24c","system_id":"levelo_inurba_marseille","lat":43.26207,"lon":5.37918,"is_reserved":false,"is_disabled":true,"rental_uris":{"android":"levelo://app?vid=33f06ed4-c8ad-43f5-b7ff-27c41657a24c","ios":"levelo://app?vid=33f06ed4-c8ad-43f5-b7ff-27c41657a24c"},"vehicle_type_id":"4","last_reported":1733947866,"current_range_meters":800,"station_id":"ce4bhjp2rcd13ifvqg90","pricing_plan_id":"cebpf4jnsgd1na2vs0mg"},{"bike_id":"2acee701-f2d8-4c07-8786-a12053357075","system_id":"levelo_inurba_marseille","lat":43.28044,"lon":5.36956,"is_reserved":false,"is_disabled":false,"rental_uris":{"android":"levelo://app?vid=2acee701-f2d8-4c07-8786-a12053357075","ios":"levelo://app?vid=2acee701-f2d8-4c07-8786-a12053357075"},"vehicle_type_id":"4","last_reported":1733947866,"current_range_meters":9600,"station_id":"ce4bha12rcd13ifvqef0","pricing_plan_id":"cebpf4jnsgd1na2vs0mg"},{"bike_id":"895a55aa-9568-4ecb-a74e-550fa21a2cb4","system_id":"levelo_inurba_marseille","lat":43.29952,"lon":5.38626,"is_reserved":false,"is_disabled":false,"rental_uris":{"android":"levelo://app?vid=895a55aa-9568-4ecb-a74e-550fa21a2cb4","ios":"levelo://app?vid=895a55aa-9568-4ecb-a74e-550fa21a2cb4"},"vehicle_type_id":"4","last_reported":1733947866,"current_range_meters":35600,"station_id":"","pricing_plan_id":"cebpf4jnsgd1na2vs0mg"},{"bike_id":"440a333b-e7f2-42de-9c19-a417b56de745","system_id":"levelo_inurba_marseille","lat":43.30914,"lon":5.36847,"is_reserved":false,"is_disabled":false,"rental_uris":{"android":"levelo://app?vid=440a333b-e7f2-42de-9c19-a417b56de745","ios":"levelo://app?vid=440a333b-e7f2-42de-9c19-a417b56de745"},"vehicle_type_id":"4","last_reported":1733947866,"current_range_meters":14400,"station_id":"ce4bgn92rcd13ifvqbvg","pricing_plan_id":"cebpf4jnsgd1na2vs0mg"},{"bike_id":"83eb39ba-a720-4d0c-ad7e-e1ede8853faa","system_id":"levelo_inurba_marseille","lat":43.30328,"lon":5.40432,"is_reserved":false,"is_disabled":false,"rental_uris":{"android":"levelo://app?vid=83eb39ba-a720-4d0c-ad7e-e1ede8853faa","ios":"levelo://app?vid=83eb39ba-a720-4d0c-ad7e-e1ede8853faa"},"vehicle_type_id":"4","last_reported":1733947866,"current_range_meters":16800,"station_id":"ce4bh012rcd13ifvqd10","pricing_plan_id":"cebpf4jnsgd1na2vs0mg"},{"bike_id":"d619b683-1a9a-4049-9696-4d1d6e0182e1","system_id":"levelo_inurba_marseille","lat":43.28656,"lon":5.36356,"is_reserved":false,"is_disabled":false,"rental_uris":{"android":"levelo://app?vid=d619b683-1a9a-4049-9696-4d1d6e0182e1","ios":"levelo://app?vid=d619b683-1a9a-4049-9696-4d1d6e0182e1"},"vehicle_type_id":"4","last_reported":1733947866,"current_range_meters":19600,"station_id":"ce4bhah2rcd13ifvqej0","pricing_plan_id":"cebpf4jnsgd1na2vs0mg"},{"bike_id":"e1bdce55-ccd2-417a-8f1d-8c8751ae4b56","system_id":"levelo_inurba_marseille","lat":43.28702,"lon":5.37417,"is_reserved":false,"is_disabled":false,"rental_uris":{"android":"levelo://app?vid=e1bdce55-ccd2-417a-8f1d-8c8751ae4b56","ios":"levelo://app?vid=e1bdce55-ccd2-417a-8f1d-8c8751ae4b56"},"vehicle_type_id":"4","last_reported":1733947866,"current_range_meters":15200,"station_id":"ce4bh3p2rcd13ifvqdq0","pricing_plan_id":"cebpf4jnsgd1na2vs0mg"},{"bike_id":"cbaea044-0bea-4366-86be-cdf71a1f8b7b","system_id":"levelo_inurba_marseille","lat":43.285624,"lon":5.350701,"is_reserved":false,"is_disabled":false,"rental_uris":{"android":"levelo://app?vid=cbaea044-0bea-4366-86be-cdf71a1f8b7b","ios":"levelo://app?vid=cbaea044-0bea-4366-86be-cdf71a1f8b7b"},"vehicle_type_id":"4","last_reported":1733947866,"current_range_meters":28000,"station_id":"","pricing_plan_id":"cebpf4jnsgd1na2vs0mg"},{"bike_id":"d49247b6-c56b-44a5-9620-31fb441d8a82","system_id":"levelo_inurba_marseille","lat":43.2781,"lon":5.40717,"is_reserved":false,"is_disabled":false,"rental_uris":{"android":"levelo://app?vid=d49247b6-c56b-44a5-9620-31fb441d8a82","ios":"levelo://app?vid=d49247b6-c56b-44a5-9620-31fb441d8a82"},"vehicle_type_id":"4","last_reported":1733947866,"current_range_meters":18800,"station_id":"ce4bhnh2rcd13ifvqgtg","pricing_plan_id":"cebpf4jnsgd1na2vs0mg"},{"bike_id":"0f17d2c4-bf96-42e6-978b-f52d4d5288cd","system_id":"levelo_inurba_marseille","lat":43.30323,"lon":5.40438,"is_reserved":false,"is_disabled":true,"rental_uris":{"android":"levelo://app?vid=0f17d2c4-bf96-42e6-978b-f52d4d5288cd","ios":"levelo://app?vid=0f17d2c4-bf96-42e6-978b-f52d4d5288cd"},"vehicle_type_id":"4","last_reported":1733947866,"current_range_meters":9200,"station_id":"ce4bh012rcd13ifvqd10","pricing_plan_id":"cebpf4jnsgd1na2vs0mg"},{"bike_id":"6b727eee-2263-4eaa-9a3a-c925e23e9f78","system_id":"levelo_inurba_marseille","lat":43.27983,"lon":5.41652,"is_reserved":false,"is_disabled":false,"rental_uris":{"android":"levelo://app?vid=6b727eee-2263-4eaa-9a3a-c925e23e9f78","ios":"levelo://app?vid=6b727eee-2263-4eaa-9a3a-c925e23e9f78"},"vehicle_type_id":"4","last_reported":1733947866,"current_range_meters":38800,"station_id":"ce4bho12rcd13ifvqh1g","pricing_plan_id":"cebpf4jnsgd1na2vs0mg"},{"bike_id":"79263867-ab0b-431e-89dc-246e72ff457f","system_id":"levelo_inurba_marseille","lat":43.28684,"lon":5.38651,"is_reserved":false,"is_disabled":true,"rental_uris":{"android":"levelo://app?vid=79263867-ab0b-431e-89dc-246e72ff457f","ios":"levelo://app?vid=79263867-ab0b-431e-89dc-246e72ff457f"},"vehicle_type_id":"4","last_reported":1733947866,"current_range_meters":38800,"station_id":"ce4bh492rcd13ifvqdug","pricing_plan_id":"cebpf4jnsgd1na2vs0mg"},{"bike_id":"4da8f61d-0f2a-4234-a08c-151dfadd6b43","system_id":"levelo_inurba_marseille","lat":43.300373,"lon":5.36408,"is_reserved":false,"is_disabled":true,"rental_uris":{"android":"levelo://app?vid=4da8f61d-0f2a-4234-a08c-151dfadd6b43","ios":"levelo://app?vid=4da8f61d-0f2a-4234-a08c-151dfadd6b43"},"vehicle_type_id":"4","last_reported":1733947866,"current_range_meters":0,"station_id":"","pricing_plan_id":"cebpf4jnsgd1na2vs0mg"},{"bike_id":"f9dd9792-bdcd-4faf-834e-1a4dccdf7802","system_id":"levelo_inurba_marseille","lat":43.30303,"lon":5.39218,"is_reserved":false,"is_disabled":false,"rental_uris":{"android":"levelo://app?vid=f9dd9792-bdcd-4faf-834e-1a4dccdf7802","ios":"levelo://app?vid=f9dd9792-bdcd-4faf-834e-1a4dccdf7802"},"vehicle_type_id":"4","last_reported":1733947866,"current_range_meters":18000,"station_id":"ce4bgkh2rcd13ifvqbk0","pricing_plan_id":"cebpf4jnsgd1na2vs0mg"},{"bike_id":"83a28157-9db7-4f2f-ae26-87c74d6d3731","system_id":"levelo_inurba_marseille","lat":43.29523,"lon":5.3941,"is_reserved":false,"is_disabled":false,"rental_uris":{"android":"levelo://app?vid=83a28157-9db7-4f2f-ae26-87c74d6d3731","ios":"levelo://app?vid=83a28157-9db7-4f2f-ae26-87c74d6d3731"},"vehicle_type_id":"4","last_reported":1733947866,"current_range_meters":33600,"station_id":"ce4bh292rcd13ifvqdf0","pricing_plan_id":"cebpf4jnsgd1na2vs0mg"},{"bike_id":"af67ac53-ba21-4ff0-8334-95679e9ff2cc","system_id":"levelo_inurba_marseille","lat":43.278805,"lon":5.388003,"is_reserved":false,"is_disabled":true,"rental_uris":{"android":"levelo://app?vid=af67ac53-ba21-4ff0-8334-95679e9ff2cc","ios":"levelo://app?vid=af67ac53-ba21-4ff0-8334-95679e9ff2cc"},"vehicle_type_id":"4","last_reported":1733947866,"current_range_meters":0,"station_id":"","pricing_plan_id":"cebpf4jnsgd1na2vs0mg"},{"bike_id":"ab6bb814-6be0-4a23-8be0-7c219c550454","system_id":"levelo_inurba_marseille","lat":43.29431,"lon":5.39754,"is_reserved":false,"is_disabled":true,"rental_uris":{"android":"levelo://app?vid=ab6bb814-6be0-4a23-8be0-7c219c550454","ios":"levelo://app?vid=ab6bb814-6be0-4a23-8be0-7c219c550454"},"vehicle_type_id":"4","last_reported":1733947866,"current_range_meters":0,"station_id":"ce4bh3h2rcd13ifvqdo0","pricing_plan_id":"cebpf4jnsgd1na2vs0mg"},{"bike_id":"4615db22-8e24-4c0e-bb14-71b2648a6ecf","system_id":"levelo_inurba_marseille","lat":43.24799,"lon":5.37448,"is_reserved":false,"is_disabled":false,"rental_uris":{"android":"levelo://app?vid=4615db22-8e24-4c0e-bb14-71b2648a6ecf","ios":"levelo://app?vid=4615db22-8e24-4c0e-bb14-71b2648a6ecf"},"vehicle_type_id":"4","last_reported":1733947866,"current_range_meters":39200,"station_id":"ce4bhgh2rcd13ifvqfb0","pricing_plan_id":"cebpf4jnsgd1na2vs0mg"},{"bike_id":"5537fc6e-ae79-410a-894a-119fa4b4bf87","system_id":"levelo_inurba_marseille","lat":43.291,"lon":5.3813,"is_reserved":false,"is_disabled":false,"rental_uris":{"android":"levelo://app?vid=5537fc6e-ae79-410a-894a-119fa4b4bf87","ios":"levelo://app?vid=5537fc6e-ae79-410a-894a-119fa4b4bf87"},"vehicle_type_id":"4","last_reported":1733947866,"current_range_meters":20800,"station_id":"ce4bh512rcd13ifvqe2g","pricing_plan_id":"cebpf4jnsgd1na2vs0mg"},{"bike_id":"82c9545d-9d79-429e-b2af-bff9e5a6d0d9","system_id":"levelo_inurba_marseille","lat":43.25863,"lon":5.39898,"is_reserved":false,"is_disabled":false,"rental_uris":{"android":"levelo://app?vid=82c9545d-9d79-429e-b2af-bff9e5a6d0d9","ios":"levelo://app?vid=82c9545d-9d79-429e-b2af-bff9e5a6d0d9"},"vehicle_type_id":"4","last_reported":1733947866,"current_range_meters":17200,"station_id":"ce4bhl92rcd13ifvqghg","pricing_plan_id":"cebpf4jnsgd1na2vs0mg"},{"bike_id":"c3f87c2d-f647-4d71-89d3-fc010d8ba668","system_id":"levelo_inurba_marseille","lat":43.28485,"lon":5.38423,"is_reserved":false,"is_disabled":true,"rental_uris":{"android":"levelo://app?vid=c3f87c2d-f647-4d71-89d3-fc010d8ba668","ios":"levelo://app?vid=c3f87c2d-f647-4d71-89d3-fc010d8ba668"},"vehicle_type_id":"4","last_reported":1733947866,"current_range_meters":0,"station_id":"ce4bh512rcd13ifvqe3g","pricing_plan_id":"cebpf4jnsgd1na2vs0mg"},{"bike_id":"ad53aee5-a729-48be-8206-ea00c2981c19","system_id":"levelo_inurba_marseille","lat":43.30529,"lon":5.36567,"is_reserved":false,"is_disabled":true,"rental_uris":{"android":"levelo://app?vid=ad53aee5-a729-48be-8206-ea00c2981c19","ios":"levelo://app?vid=ad53aee5-a729-48be-8206-ea00c2981c19"},"vehicle_type_id":"4","last_reported":1733947866,"current_range_meters":0,"station_id":"ce4bgs12rcd13ifvqcag","pricing_plan_id":"cebpf4jnsgd1na2vs0mg"},{"bike_id":"7d2bf50c-5f62-4bcb-93d6-9d9b8f36813d","system_id":"levelo_inurba_marseille","lat":43.3006,"lon":5.39981,"is_reserved":false,"is_disabled":false,"rental_uris":{"android":"levelo://app?vid=7d2bf50c-5f62-4bcb-93d6-9d9b8f36813d","ios":"levelo://app?vid=7d2bf50c-5f62-4bcb-93d6-9d9b8f36813d"},"vehicle_type_id":"4","last_reported":1733947866,"current_range_meters":18800,"station_id":"","pricing_plan_id":"cebpf4jnsgd1na2vs0mg"},{"bike_id":"600e9af3-4d2a-46e3-827c-61178cc2ac27","system_id":"levelo_inurba_marseille","lat":43.28344,"lon":5.38105,"is_reserved":false,"is_disabled":false,"rental_uris":{"android":"levelo://app?vid=600e9af3-4d2a-46e3-827c-61178cc2ac27","ios":"levelo://app?vid=600e9af3-4d2a-46e3-827c-61178cc2ac27"},"vehicle_type_id":"4","last_reported":1733947866,"current_range_meters":24400,"station_id":"ce4bh412rcd13ifvqdr0","pricing_plan_id":"cebpf4jnsgd1na2vs0mg"},{"bike_id":"d6c6c36b-0cad-45f6-b711-edb7c85a4435","system_id":"levelo_inurba_marseille","lat":43.28105,"lon":5.37839,"is_reserved":false,"is_disabled":false,"rental_uris":{"android":"levelo://app?vid=d6c6c36b-0cad-45f6-b711-edb7c85a4435","ios":"levelo://app?vid=d6c6c36b-0cad-45f6-b711-edb7c85a4435"},"vehicle_type_id":"4","last_reported":1733947866,"current_range_meters":24000,"station_id":"ce4bha12rcd13ifvqee0","pricing_plan_id":"cebpf4jnsgd1na2vs0mg"},{"bike_id":"be0b8c3f-0afb-42d7-82d2-88e533cc17ea","system_id":"levelo_inurba_marseille","lat":43.29104,"lon":5.37223,"is_reserved":false,"is_disabled":true,"rental_uris":{"android":"levelo://app?vid=be0b8c3f-0afb-42d7-82d2-88e533cc17ea","ios":"levelo://app?vid=be0b8c3f-0afb-42d7-82d2-88e533cc17ea"},"vehicle_type_id":"4","last_reported":1733947866,"current_range_meters":25600,"station_id":"","pricing_plan_id":"cebpf4jnsgd1na2vs0mg"},{"bike_id":"f6cd67c9-9d47-4a6f-a19a-661b419f05e0","system_id":"levelo_inurba_marseille","lat":43.31281,"lon":5.40183,"is_reserved":false,"is_disabled":false,"rental_uris":{"android":"levelo://app?vid=f6cd67c9-9d47-4a6f-a19a-661b419f05e0","ios":"levelo://app?vid=f6cd67c9-9d47-4a6f-a19a-661b419f05e0"},"vehicle_type_id":"4","last_reported":1733947866,"current_range_meters":39200,"station_id":"ce4bh092rcd13ifvqd30","pricing_plan_id":"cebpf4jnsgd1na2vs0mg"},{"bike_id":"b5fcaa86-c09e-4c69-8628-53e487fd6934","system_id":"levelo_inurba_marseille","lat":43.29385,"lon":5.37856,"is_reserved":false,"is_disabled":true,"rental_uris":{"android":"levelo://app?vid=b5fcaa86-c09e-4c69-8628-53e487fd6934","ios":"levelo://app?vid=b5fcaa86-c09e-4c69-8628-53e487fd6934"},"vehicle_type_id":"4","last_reported":1733947866,"current_range_meters":38400,"station_id":"ce4bgjh2rcd13ifvqbf0","pricing_plan_id":"cebpf4jnsgd1na2vs0mg"},{"bike_id":"3f642eac-b77b-4b02-a01f-71da9ca01046","system_id":"levelo_inurba_marseille","lat":43.29528,"lon":5.38543,"is_reserved":false,"is_disabled":false,"rental_uris":{"android":"levelo://app?vid=3f642eac-b77b-4b02-a01f-71da9ca01046","ios":"levelo://app?vid=3f642eac-b77b-4b02-a01f-71da9ca01046"},"vehicle_type_id":"4","last_reported":1733947866,"current_range_meters":8000,"station_id":"ce4bgih2rcd13ifvqba0","pricing_plan_id":"cebpf4jnsgd1na2vs0mg"},{"bike_id":"f69cc59c-abf2-4d5d-aaf1-b3f84277e26a","system_id":"levelo_inurba_marseille","lat":43.29599,"lon":5.40227,"is_reserved":false,"is_disabled":false,"rental_uris":{"android":"levelo://app?vid=f69cc59c-abf2-4d5d-aaf1-b3f84277e26a","ios":"levelo://app?vid=f69cc59c-abf2-4d5d-aaf1-b3f84277e26a"},"vehicle_type_id":"4","last_reported":1733947866,"current_range_meters":25200,"station_id":"","pricing_plan_id":"cebpf4jnsgd1na2vs0mg"},{"bike_id":"09c595cf-090d-4270-afd4-1a0ca20eed50","system_id":"levelo_inurba_marseille","lat":43.24546,"lon":5.3952,"is_reserved":false,"is_disabled":false,"rental_uris":{"android":"levelo://app?vid=09c595cf-090d-4270-afd4-1a0ca20eed50","ios":"levelo://app?vid=09c595cf-090d-4270-afd4-1a0ca20eed50"},"vehicle_type_id":"4","last_reported":1733947866,"current_range_meters":29600,"station_id":"ce4bhlp2rcd13ifvqgjg","pricing_plan_id":"cebpf4jnsgd1na2vs0mg"},{"bike_id":"0aaf9b22-f7e1-4e4f-a1a5-7a779d72a1d4","system_id":"levelo_inurba_marseille","lat":43.298289,"lon":5.377576,"is_reserved":false,"is_disabled":true,"rental_uris":{"android":"levelo://app?vid=0aaf9b22-f7e1-4e4f-a1a5-7a779d72a1d4","ios":"levelo://app?vid=0aaf9b22-f7e1-4e4f-a1a5-7a779d72a1d4"},"vehicle_type_id":"4","last_reported":1733947866,"current_range_meters":0,"station_id":"","pricing_plan_id":"cebpf4jnsgd1na2vs0mg"},{"bike_id":"cefa54cb-a0bd-4d51-b13e-03ea2047e36f","system_id":"levelo_inurba_marseille","lat":43.29611,"lon":5.37534,"is_reserved":false,"is_disabled":true,"rental_uris":{"android":"levelo://app?vid=cefa54cb-a0bd-4d51-b13e-03ea2047e36f","ios":"levelo://app?vid=cefa54cb-a0bd-4d51-b13e-03ea2047e36f"},"vehicle_type_id":"4","last_reported":1733947866,"current_range_meters":4800,"station_id":"ce4bgh92rcd13ifvqb50","pricing_plan_id":"cebpf4jnsgd1na2vs0mg"},{"bike_id":"0c077105-d637-4568-bc4c-f0339898e3bf","system_id":"levelo_inurba_marseille","lat":43.31767,"lon":5.39007,"is_reserved":false,"is_disabled":false,"rental_uris":{"android":"levelo://app?vid=0c077105-d637-4568-bc4c-f0339898e3bf","ios":"levelo://app?vid=0c077105-d637-4568-bc4c-f0339898e3bf"},"vehicle_type_id":"4","last_reported":1733947866,"current_range_meters":39200,"station_id":"ce4bhqp2rcd13ifvqhng","pricing_plan_id":"cebpf4jnsgd1na2vs0mg"},{"bike_id":"a85501a2-1a09-455f-954b-c790a9d4e292","system_id":"levelo_inurba_marseille","lat":43.31107,"lon":5.42406,"is_reserved":false,"is_disabled":false,"rental_uris":{"android":"levelo://app?vid=a85501a2-1a09-455f-954b-c790a9d4e292","ios":"levelo://app?vid=a85501a2-1a09-455f-954b-c790a9d4e292"},"vehicle_type_id":"4","last_reported":1733947866,"current_range_meters":20400,"station_id":"ce4bhp92rcd13ifvqhag","pricing_plan_id":"cebpf4jnsgd1na2vs0mg"},{"bike_id":"b8e3a311-f02b-4399-af7b-1bfb5506fa2a","system_id":"levelo_inurba_marseille","lat":43.2465,"lon":5.38889,"is_reserved":false,"is_disabled":false,"rental_uris":{"android":"levelo://app?vid=b8e3a311-f02b-4399-af7b-1bfb5506fa2a","ios":"levelo://app?vid=b8e3a311-f02b-4399-af7b-1bfb5506fa2a"},"vehicle_type_id":"4","last_reported":1733947866,"current_range_meters":27600,"station_id":"ce4bhg12rcd13ifvqf60","pricing_plan_id":"cebpf4jnsgd1na2vs0mg"},{"bike_id":"8a53663f-2f15-40a0-b3fa-4fb453622f17","system_id":"levelo_inurba_marseille","lat":43.30642,"lon":5.401,"is_reserved":false,"is_disabled":false,"rental_uris":{"android":"levelo://app?vid=8a53663f-2f15-40a0-b3fa-4fb453622f17","ios":"levelo://app?vid=8a53663f-2f15-40a0-b3fa-4fb453622f17"},"vehicle_type_id":"4","last_reported":1733947866,"current_range_meters":34800,"station_id":"ce4bh112rcd13ifvqda0","pricing_plan_id":"cebpf4jnsgd1na2vs0mg"},{"bike_id":"1fce8014-29d7-44e2-9d2c-8d29b03c9734","system_id":"levelo_inurba_marseille","lat":43.28713,"lon":5.39982,"is_reserved":false,"is_disabled":false,"rental_uris":{"android":"levelo://app?vid=1fce8014-29d7-44e2-9d2c-8d29b03c9734","ios":"levelo://app?vid=1fce8014-29d7-44e2-9d2c-8d29b03c9734"},"vehicle_type_id":"4","last_reported":1733947866,"current_range_meters":5600,"station_id":"ce4bho92rcd13ifvqh3g","pricing_plan_id":"cebpf4jnsgd1na2vs0mg"},{"bike_id":"5746a913-59cb-4881-b851-217de753d5a3","system_id":"levelo_inurba_marseille","lat":43.2509,"lon":5.39513,"is_reserved":false,"is_disabled":false,"rental_uris":{"android":"levelo://app?vid=5746a913-59cb-4881-b851-217de753d5a3","ios":"levelo://app?vid=5746a913-59cb-4881-b851-217de753d5a3"},"vehicle_type_id":"4","last_reported":1733947866,"current_range_meters":28000,"station_id":"ce4bhm12rcd13ifvqgkg","pricing_plan_id":"cebpf4jnsgd1na2vs0mg"},{"bike_id":"fc6bce5c-fc82-4c38-916f-35df49872efb","system_id":"levelo_inurba_marseille","lat":43.32004,"lon":5.381405,"is_reserved":false,"is_disabled":false,"rental_uris":{"android":"levelo://app?vid=fc6bce5c-fc82-4c38-916f-35df49872efb","ios":"levelo://app?vid=fc6bce5c-fc82-4c38-916f-35df49872efb"},"vehicle_type_id":"4","last_reported":1733947866,"current_range_meters":38800,"station_id":"ce4bhr12rcd13ifvqhpg","pricing_plan_id":"cebpf4jnsgd1na2vs0mg"},{"bike_id":"fa78bd84-cc9c-420b-aac1-bebf868e59df","system_id":"levelo_inurba_marseille","lat":43.31757,"lon":5.39013,"is_reserved":false,"is_disabled":false,"rental_uris":{"android":"levelo://app?vid=fa78bd84-cc9c-420b-aac1-bebf868e59df","ios":"levelo://app?vid=fa78bd84-cc9c-420b-aac1-bebf868e59df"},"vehicle_type_id":"4","last_reported":1733947866,"current_range_meters":39200,"station_id":"ce4bhqp2rcd13ifvqhng","pricing_plan_id":"cebpf4jnsgd1na2vs0mg"},{"bike_id":"6ff81125-71bf-40cc-a5d6-cc392c4e7a61","system_id":"levelo_inurba_marseille","lat":43.31755,"lon":5.39021,"is_reserved":false,"is_disabled":false,"rental_uris":{"android":"levelo://app?vid=6ff81125-71bf-40cc-a5d6-cc392c4e7a61","ios":"levelo://app?vid=6ff81125-71bf-40cc-a5d6-cc392c4e7a61"},"vehicle_type_id":"4","last_reported":1733947866,"current_range_meters":14800,"station_id":"ce4bhqp2rcd13ifvqhng","pricing_plan_id":"cebpf4jnsgd1na2vs0mg"},{"bike_id":"32081c96-f1c7-433b-932f-7b311ba352c3","system_id":"levelo_inurba_marseille","lat":43.23202,"lon":5.39986,"is_reserved":false,"is_disabled":false,"rental_uris":{"android":"levelo://app?vid=32081c96-f1c7-433b-932f-7b311ba352c3","ios":"levelo://app?vid=32081c96-f1c7-433b-932f-7b311ba352c3"},"vehicle_type_id":"4","last_reported":1733947866,"current_range_meters":39200,"station_id":"ce4bhn12rcd13ifvqgqg","pricing_plan_id":"cebpf4jnsgd1na2vs0mg"},{"bike_id":"a5fca068-4999-4c02-8ca7-03c2a14173d9","system_id":"levelo_inurba_marseille","lat":43.28568,"lon":5.3949,"is_reserved":false,"is_disabled":false,"rental_uris":{"android":"levelo://app?vid=a5fca068-4999-4c02-8ca7-03c2a14173d9","ios":"levelo://app?vid=a5fca068-4999-4c02-8ca7-03c2a14173d9"},"vehicle_type_id":"4","last_reported":1733947866,"current_range_meters":33200,"station_id":"ce4bh292rcd13ifvqdg0","pricing_plan_id":"cebpf4jnsgd1na2vs0mg"},{"bike_id":"76f3328f-e574-457e-a081-a550f776ec21","system_id":"levelo_inurba_marseille","lat":43.24067,"lon":5.37761,"is_reserved":false,"is_disabled":false,"rental_uris":{"android":"levelo://app?vid=76f3328f-e574-457e-a081-a550f776ec21","ios":"levelo://app?vid=76f3328f-e574-457e-a081-a550f776ec21"},"vehicle_type_id":"4","last_reported":1733947866,"current_range_meters":29600,"station_id":"ce4bhnp2rcd13ifvqgvg","pricing_plan_id":"cebpf4jnsgd1na2vs0mg"},{"bike_id":"fba7baca-ffb7-4032-8788-4d38f0a6babd","system_id":"levelo_inurba_marseille","lat":43.29679,"lon":5.37295,"is_reserved":false,"is_disabled":false,"rental_uris":{"android":"levelo://app?vid=fba7baca-ffb7-4032-8788-4d38f0a6babd","ios":"levelo://app?vid=fba7baca-ffb7-4032-8788-4d38f0a6babd"},"vehicle_type_id":"4","last_reported":1733947866,"current_range_meters":32000,"station_id":"ce4bgk12rcd13ifvqbj0","pricing_plan_id":"cebpf4jnsgd1na2vs0mg"},{"bike_id":"ef1675a4-1a15-40b4-af8d-26ca4e4efdd1","system_id":"levelo_inurba_marseille","lat":43.28705,"lon":5.37389,"is_reserved":false,"is_disabled":false,"rental_uris":{"android":"levelo://app?vid=ef1675a4-1a15-40b4-af8d-26ca4e4efdd1","ios":"levelo://app?vid=ef1675a4-1a15-40b4-af8d-26ca4e4efdd1"},"vehicle_type_id":"4","last_reported":1733947866,"current_range_meters":39200,"station_id":"ce4bh3p2rcd13ifvqdq0","pricing_plan_id":"cebpf4jnsgd1na2vs0mg"},{"bike_id":"96a9c080-407a-41cb-89da-2698f0095481","system_id":"levelo_inurba_marseille","lat":43.28419,"lon":5.34986,"is_reserved":false,"is_disabled":false,"rental_uris":{"android":"levelo://app?vid=96a9c080-407a-41cb-89da-2698f0095481","ios":"levelo://app?vid=96a9c080-407a-41cb-89da-2698f0095481"},"vehicle_type_id":"4","last_reported":1733947866,"current_range_meters":17200,"station_id":"ce4bhbh2rcd13ifvqepg","pricing_plan_id":"cebpf4jnsgd1na2vs0mg"},{"bike_id":"440c0882-719b-4b38-aba1-872c74c75218","system_id":"levelo_inurba_marseille","lat":43.32284,"lon":5.38278,"is_reserved":false,"is_disabled":false,"rental_uris":{"android":"levelo://app?vid=440c0882-719b-4b38-aba1-872c74c75218","ios":"levelo://app?vid=440c0882-719b-4b38-aba1-872c74c75218"},"vehicle_type_id":"4","last_reported":1733947866,"current_range_meters":38800,"station_id":"ce4bhr12rcd13ifvqhqg","pricing_plan_id":"cebpf4jnsgd1na2vs0mg"},{"bike_id":"9f4ff309-16c5-4f67-9aac-83afe40d118a","system_id":"levelo_inurba_marseille","lat":43.23964,"lon":5.36631,"is_reserved":false,"is_disabled":false,"rental_uris":{"android":"levelo://app?vid=9f4ff309-16c5-4f67-9aac-83afe40d118a","ios":"levelo://app?vid=9f4ff309-16c5-4f67-9aac-83afe40d118a"},"vehicle_type_id":"4","last_reported":1733947866,"current_range_meters":39200,"station_id":"ce4bhi12rcd13ifvqfp0","pricing_plan_id":"cebpf4jnsgd1na2vs0mg"},{"bike_id":"ac9259c7-5b76-4714-8295-8c5ed3303148","system_id":"levelo_inurba_marseille","lat":43.2655,"lon":5.37283,"is_reserved":false,"is_disabled":false,"rental_uris":{"android":"levelo://app?vid=ac9259c7-5b76-4714-8295-8c5ed3303148","ios":"levelo://app?vid=ac9259c7-5b76-4714-8295-8c5ed3303148"},"vehicle_type_id":"4","last_reported":1733947866,"current_range_meters":38000,"station_id":"ce4bhg12rcd13ifvqf70","pricing_plan_id":"cebpf4jnsgd1na2vs0mg"},{"bike_id":"accc15c2-75c8-4823-a61f-1d4d7e399167","system_id":"levelo_inurba_marseille","lat":43.29411,"lon":5.38615,"is_reserved":false,"is_disabled":true,"rental_uris":{"android":"levelo://app?vid=accc15c2-75c8-4823-a61f-1d4d7e399167","ios":"levelo://app?vid=accc15c2-75c8-4823-a61f-1d4d7e399167"},"vehicle_type_id":"4","last_reported":1733947866,"current_range_meters":9600,"station_id":"ce4bh2h2rcd13ifvqdh0","pricing_plan_id":"cebpf4jnsgd1na2vs0mg"},{"bike_id":"20dec2c9-ca70-4520-b174-a81f4e369962","system_id":"levelo_inurba_marseille","lat":43.29556,"lon":5.42293,"is_reserved":false,"is_disabled":false,"rental_uris":{"android":"levelo://app?vid=20dec2c9-ca70-4520-b174-a81f4e369962","ios":"levelo://app?vid=20dec2c9-ca70-4520-b174-a81f4e369962"},"vehicle_type_id":"4","last_reported":1733947866,"current_range_meters":36000,"station_id":"ce4bhph2rcd13ifvqhdg","pricing_plan_id":"cebpf4jnsgd1na2vs0mg"},{"bike_id":"46291bcc-705c-4063-ad33-c241773f8b73","system_id":"levelo_inurba_marseille","lat":43.30903,"lon":5.36852,"is_reserved":false,"is_disabled":false,"rental_uris":{"android":"levelo://app?vid=46291bcc-705c-4063-ad33-c241773f8b73","ios":"levelo://app?vid=46291bcc-705c-4063-ad33-c241773f8b73"},"vehicle_type_id":"4","last_reported":1733947866,"current_range_meters":38800,"station_id":"ce4bgn92rcd13ifvqbvg","pricing_plan_id":"cebpf4jnsgd1na2vs0mg"},{"bike_id":"2c014ae4-7d58-406f-a0f3-e7beffdd9a3b","system_id":"levelo_inurba_marseille","lat":43.30104,"lon":5.39066,"is_reserved":false,"is_disabled":true,"rental_uris":{"android":"levelo://app?vid=2c014ae4-7d58-406f-a0f3-e7beffdd9a3b","ios":"levelo://app?vid=2c014ae4-7d58-406f-a0f3-e7beffdd9a3b"},"vehicle_type_id":"4","last_reported":1733947866,"current_range_meters":30400,"station_id":"ce4bh192rcd13ifvqdb0","pricing_plan_id":"cebpf4jnsgd1na2vs0mg"},{"bike_id":"845a8a47-b6d6-45fa-a83d-183b1d1221e6","system_id":"levelo_inurba_marseille","lat":43.30908,"lon":5.36854,"is_reserved":false,"is_disabled":false,"rental_uris":{"android":"levelo://app?vid=845a8a47-b6d6-45fa-a83d-183b1d1221e6","ios":"levelo://app?vid=845a8a47-b6d6-45fa-a83d-183b1d1221e6"},"vehicle_type_id":"4","last_reported":1733947866,"current_range_meters":38400,"station_id":"ce4bgn92rcd13ifvqbvg","pricing_plan_id":"cebpf4jnsgd1na2vs0mg"},{"bike_id":"e966d2c7-c9e1-4cb1-9a39-6325607b0be4","system_id":"levelo_inurba_marseille","lat":43.337444,"lon":5.374475,"is_reserved":false,"is_disabled":true,"rental_uris":{"android":"levelo://app?vid=e966d2c7-c9e1-4cb1-9a39-6325607b0be4","ios":"levelo://app?vid=e966d2c7-c9e1-4cb1-9a39-6325607b0be4"},"vehicle_type_id":"4","last_reported":1733947866,"current_range_meters":0,"station_id":"","pricing_plan_id":"cebpf4jnsgd1na2vs0mg"},{"bike_id":"4734856e-e0c1-44cd-b5eb-8a0c11e686c7","system_id":"levelo_inurba_marseille","lat":43.31073,"lon":5.38358,"is_reserved":false,"is_disabled":false,"rental_uris":{"android":"levelo://app?vid=4734856e-e0c1-44cd-b5eb-8a0c11e686c7","ios":"levelo://app?vid=4734856e-e0c1-44cd-b5eb-8a0c11e686c7"},"vehicle_type_id":"4","last_reported":1733947866,"current_range_meters":34800,"station_id":"ce4bgv92rcd13ifvqcr0","pricing_plan_id":"cebpf4jnsgd1na2vs0mg"},{"bike_id":"312bb54d-7981-48b2-bad1-cc0be49295b2","system_id":"levelo_inurba_marseille","lat":43.28836,"lon":5.3586,"is_reserved":false,"is_disabled":false,"rental_uris":{"android":"levelo://app?vid=312bb54d-7981-48b2-bad1-cc0be49295b2","ios":"levelo://app?vid=312bb54d-7981-48b2-bad1-cc0be49295b2"},"vehicle_type_id":"4","last_reported":1733947866,"current_range_meters":35600,"station_id":"ce4bhb12rcd13ifvqem0","pricing_plan_id":"cebpf4jnsgd1na2vs0mg"},{"bike_id":"f0a4f587-2333-4a7a-8819-09121e495e1b","system_id":"levelo_inurba_marseille","lat":43.22926,"lon":5.35378,"is_reserved":false,"is_disabled":false,"rental_uris":{"android":"levelo://app?vid=f0a4f587-2333-4a7a-8819-09121e495e1b","ios":"levelo://app?vid=f0a4f587-2333-4a7a-8819-09121e495e1b"},"vehicle_type_id":"4","last_reported":1733947866,"current_range_meters":12000,"station_id":"cpo3532slgdg3j2ikp40","pricing_plan_id":"cebpf4jnsgd1na2vs0mg"},{"bike_id":"2dc9aa74-69ff-4394-843e-e42cabc0b059","system_id":"levelo_inurba_marseille","lat":43.2871,"lon":5.37395,"is_reserved":false,"is_disabled":false,"rental_uris":{"android":"levelo://app?vid=2dc9aa74-69ff-4394-843e-e42cabc0b059","ios":"levelo://app?vid=2dc9aa74-69ff-4394-843e-e42cabc0b059"},"vehicle_type_id":"4","last_reported":1733947866,"current_range_meters":38800,"station_id":"ce4bh3p2rcd13ifvqdq0","pricing_plan_id":"cebpf4jnsgd1na2vs0mg"},{"bike_id":"81480221-5bd6-4736-a9d5-695a06b94e56","system_id":"levelo_inurba_marseille","lat":43.25083,"lon":5.39524,"is_reserved":false,"is_disabled":true,"rental_uris":{"android":"levelo://app?vid=81480221-5bd6-4736-a9d5-695a06b94e56","ios":"levelo://app?vid=81480221-5bd6-4736-a9d5-695a06b94e56"},"vehicle_type_id":"4","last_reported":1733947866,"current_range_meters":0,"station_id":"ce4bhm12rcd13ifvqgkg","pricing_plan_id":"cebpf4jnsgd1na2vs0mg"},{"bike_id":"17f59de1-b3ce-4e3a-95ec-402199b35e46","system_id":"levelo_inurba_marseille","lat":43.24655,"lon":5.3888,"is_reserved":false,"is_disabled":false,"rental_uris":{"android":"levelo://app?vid=17f59de1-b3ce-4e3a-95ec-402199b35e46","ios":"levelo://app?vid=17f59de1-b3ce-4e3a-95ec-402199b35e46"},"vehicle_type_id":"4","last_reported":1733947866,"current_range_meters":30000,"station_id":"ce4bhg12rcd13ifvqf60","pricing_plan_id":"cebpf4jnsgd1na2vs0mg"},{"bike_id":"e2b090ff-7c7f-4d4a-8f5b-c317e750043e","system_id":"levelo_inurba_marseille","lat":43.27072,"lon":5.42278,"is_reserved":false,"is_disabled":true,"rental_uris":{"android":"levelo://app?vid=e2b090ff-7c7f-4d4a-8f5b-c317e750043e","ios":"levelo://app?vid=e2b090ff-7c7f-4d4a-8f5b-c317e750043e"},"vehicle_type_id":"4","last_reported":1733947866,"current_range_meters":0,"station_id":"ce4bhk92rcd13ifvqgb0","pricing_plan_id":"cebpf4jnsgd1na2vs0mg"},{"bike_id":"1802c294-deb8-4890-b7ca-3e995fd26543","system_id":"levelo_inurba_marseille","lat":43.27082,"lon":5.42246,"is_reserved":false,"is_disabled":false,"rental_uris":{"android":"levelo://app?vid=1802c294-deb8-4890-b7ca-3e995fd26543","ios":"levelo://app?vid=1802c294-deb8-4890-b7ca-3e995fd26543"},"vehicle_type_id":"4","last_reported":1733947866,"current_range_meters":36800,"station_id":"ce4bhk92rcd13ifvqgb0","pricing_plan_id":"cebpf4jnsgd1na2vs0mg"},{"bike_id":"7f4f3f87-fd20-4668-8392-f552d1cec0f4","system_id":"levelo_inurba_marseille","lat":43.33718,"lon":5.39191,"is_reserved":false,"is_disabled":false,"rental_uris":{"android":"levelo://app?vid=7f4f3f87-fd20-4668-8392-f552d1cec0f4","ios":"levelo://app?vid=7f4f3f87-fd20-4668-8392-f552d1cec0f4"},"vehicle_type_id":"4","last_reported":1733947866,"current_range_meters":37600,"station_id":"ce4bhr92rcd13ifvqhsg","pricing_plan_id":"cebpf4jnsgd1na2vs0mg"},{"bike_id":"58cf3891-dd94-4bdf-8a77-a287a3f2609a","system_id":"levelo_inurba_marseille","lat":43.24382,"lon":5.37054,"is_reserved":false,"is_disabled":false,"rental_uris":{"android":"levelo://app?vid=58cf3891-dd94-4bdf-8a77-a287a3f2609a","ios":"levelo://app?vid=58cf3891-dd94-4bdf-8a77-a287a3f2609a"},"vehicle_type_id":"4","last_reported":1733947866,"current_range_meters":39200,"station_id":"ce4bhhh2rcd13ifvqfk0","pricing_plan_id":"cebpf4jnsgd1na2vs0mg"},{"bike_id":"fe4d47c1-dfb5-4e68-bfe4-126efd20c0c3","system_id":"levelo_inurba_marseille","lat":43.30764,"lon":5.37351,"is_reserved":false,"is_disabled":false,"rental_uris":{"android":"levelo://app?vid=fe4d47c1-dfb5-4e68-bfe4-126efd20c0c3","ios":"levelo://app?vid=fe4d47c1-dfb5-4e68-bfe4-126efd20c0c3"},"vehicle_type_id":"4","last_reported":1733947866,"current_range_meters":24800,"station_id":"","pricing_plan_id":"cebpf4jnsgd1na2vs0mg"},{"bike_id":"47ca1389-a4a0-4b65-a481-87698db823a2","system_id":"levelo_inurba_marseille","lat":43.28075,"lon":5.39661,"is_reserved":false,"is_disabled":false,"rental_uris":{"android":"levelo://app?vid=47ca1389-a4a0-4b65-a481-87698db823a2","ios":"levelo://app?vid=47ca1389-a4a0-4b65-a481-87698db823a2"},"vehicle_type_id":"4","last_reported":1733947866,"current_range_meters":38800,"station_id":"ce4bho12rcd13ifvqh2g","pricing_plan_id":"cebpf4jnsgd1na2vs0mg"},{"bike_id":"0e82dade-8dc2-491d-9db4-3976e18d4a8b","system_id":"levelo_inurba_marseille","lat":43.31169,"lon":5.38724,"is_reserved":false,"is_disabled":false,"rental_uris":{"android":"levelo://app?vid=0e82dade-8dc2-491d-9db4-3976e18d4a8b","ios":"levelo://app?vid=0e82dade-8dc2-491d-9db4-3976e18d4a8b"},"vehicle_type_id":"4","last_reported":1733947866,"current_range_meters":16800,"station_id":"ce4bgv12rcd13ifvqcp0","pricing_plan_id":"cebpf4jnsgd1na2vs0mg"},{"bike_id":"c346be12-582d-42dc-8dce-5e128ded35bf","system_id":"levelo_inurba_marseille","lat":43.32002,"lon":5.38158,"is_reserved":false,"is_disabled":false,"rental_uris":{"android":"levelo://app?vid=c346be12-582d-42dc-8dce-5e128ded35bf","ios":"levelo://app?vid=c346be12-582d-42dc-8dce-5e128ded35bf"},"vehicle_type_id":"4","last_reported":1733947866,"current_range_meters":24800,"station_id":"ce4bhr12rcd13ifvqhpg","pricing_plan_id":"cebpf4jnsgd1na2vs0mg"},{"bike_id":"82f09025-3cfb-4790-b608-4b1833086855","system_id":"levelo_inurba_marseille","lat":43.24392,"lon":5.37056,"is_reserved":false,"is_disabled":false,"rental_uris":{"android":"levelo://app?vid=82f09025-3cfb-4790-b608-4b1833086855","ios":"levelo://app?vid=82f09025-3cfb-4790-b608-4b1833086855"},"vehicle_type_id":"4","last_reported":1733947866,"current_range_meters":9200,"station_id":"ce4bhhh2rcd13ifvqfk0","pricing_plan_id":"cebpf4jnsgd1na2vs0mg"},{"bike_id":"e7e602e9-acc2-4c4d-91ae-aa102ec6165d","system_id":"levelo_inurba_marseille","lat":43.29122,"lon":5.38093,"is_reserved":false,"is_disabled":false,"rental_uris":{"android":"levelo://app?vid=e7e602e9-acc2-4c4d-91ae-aa102ec6165d","ios":"levelo://app?vid=e7e602e9-acc2-4c4d-91ae-aa102ec6165d"},"vehicle_type_id":"4","last_reported":1733947866,"current_range_meters":39200,"station_id":"ce4bgkh2rcd13ifvqbk0","pricing_plan_id":"cebpf4jnsgd1na2vs0mg"},{"bike_id":"097a41bf-6635-41a6-b7a7-1173cae29ada","system_id":"levelo_inurba_marseille","lat":43.22949,"lon":5.35375,"is_reserved":false,"is_disabled":false,"rental_uris":{"android":"levelo://app?vid=097a41bf-6635-41a6-b7a7-1173cae29ada","ios":"levelo://app?vid=097a41bf-6635-41a6-b7a7-1173cae29ada"},"vehicle_type_id":"4","last_reported":1733947866,"current_range_meters":38800,"station_id":"cpo3532slgdg3j2ikp40","pricing_plan_id":"cebpf4jnsgd1na2vs0mg"},{"bike_id":"a90ab59e-9775-4bc6-a3e9-285e464122de","system_id":"levelo_inurba_marseille","lat":43.24645,"lon":5.38891,"is_reserved":false,"is_disabled":false,"rental_uris":{"android":"levelo://app?vid=a90ab59e-9775-4bc6-a3e9-285e464122de","ios":"levelo://app?vid=a90ab59e-9775-4bc6-a3e9-285e464122de"},"vehicle_type_id":"4","last_reported":1733947866,"current_range_meters":37600,"station_id":"ce4bhg12rcd13ifvqf60","pricing_plan_id":"cebpf4jnsgd1na2vs0mg"},{"bike_id":"e08a3c45-9a07-474f-9717-a27fa81c4ce9","system_id":"levelo_inurba_marseille","lat":43.30777,"lon":5.38762,"is_reserved":false,"is_disabled":true,"rental_uris":{"android":"levelo://app?vid=e08a3c45-9a07-474f-9717-a27fa81c4ce9","ios":"levelo://app?vid=e08a3c45-9a07-474f-9717-a27fa81c4ce9"},"vehicle_type_id":"4","last_reported":1733947866,"current_range_meters":400,"station_id":"","pricing_plan_id":"cebpf4jnsgd1na2vs0mg"},{"bike_id":"b053f009-8cb1-4a20-bc97-63a3523e2334","system_id":"levelo_inurba_marseille","lat":43.31175,"lon":5.38711,"is_reserved":false,"is_disabled":false,"rental_uris":{"android":"levelo://app?vid=b053f009-8cb1-4a20-bc97-63a3523e2334","ios":"levelo://app?vid=b053f009-8cb1-4a20-bc97-63a3523e2334"},"vehicle_type_id":"4","last_reported":1733947866,"current_range_meters":2000,"station_id":"ce4bgv12rcd13ifvqcp0","pricing_plan_id":"cebpf4jnsgd1na2vs0mg"},{"bike_id":"da28e2f0-7add-4e98-94c8-64ba50e22469","system_id":"levelo_inurba_marseille","lat":43.28108,"lon":5.37846,"is_reserved":false,"is_disabled":false,"rental_uris":{"android":"levelo://app?vid=da28e2f0-7add-4e98-94c8-64ba50e22469","ios":"levelo://app?vid=da28e2f0-7add-4e98-94c8-64ba50e22469"},"vehicle_type_id":"4","last_reported":1733947866,"current_range_meters":38400,"station_id":"ce4bha12rcd13ifvqee0","pricing_plan_id":"cebpf4jnsgd1na2vs0mg"},{"bike_id":"0d514f68-29b7-4049-844a-493370863f98","system_id":"levelo_inurba_marseille","lat":43.2833,"lon":5.38211,"is_reserved":false,"is_disabled":true,"rental_uris":{"android":"levelo://app?vid=0d514f68-29b7-4049-844a-493370863f98","ios":"levelo://app?vid=0d514f68-29b7-4049-844a-493370863f98"},"vehicle_type_id":"4","last_reported":1733947866,"current_range_meters":24400,"station_id":"ce4bh412rcd13ifvqdr0","pricing_plan_id":"cebpf4jnsgd1na2vs0mg"},{"bike_id":"96bf4cb0-2c8e-4663-a88b-30b55c3084dc","system_id":"levelo_inurba_marseille","lat":43.25586,"lon":5.38246,"is_reserved":false,"is_disabled":false,"rental_uris":{"android":"levelo://app?vid=96bf4cb0-2c8e-4663-a88b-30b55c3084dc","ios":"levelo://app?vid=96bf4cb0-2c8e-4663-a88b-30b55c3084dc"},"vehicle_type_id":"4","last_reported":1733947866,"current_range_meters":37600,"station_id":"ce4bhih2rcd13ifvqfs0","pricing_plan_id":"cebpf4jnsgd1na2vs0mg"},{"bike_id":"e3f5cbcc-c0d9-4ed4-96fa-131656aa7cf7","system_id":"levelo_inurba_marseille","lat":43.29614,"lon":5.37504,"is_reserved":false,"is_disabled":true,"rental_uris":{"android":"levelo://app?vid=e3f5cbcc-c0d9-4ed4-96fa-131656aa7cf7","ios":"levelo://app?vid=e3f5cbcc-c0d9-4ed4-96fa-131656aa7cf7"},"vehicle_type_id":"4","last_reported":1733947866,"current_range_meters":0,"station_id":"ce4bgh92rcd13ifvqb50","pricing_plan_id":"cebpf4jnsgd1na2vs0mg"},{"bike_id":"06647c8b-b781-48a3-8b13-d28005e2a80a","system_id":"levelo_inurba_marseille","lat":43.23758,"lon":5.38472,"is_reserved":false,"is_disabled":false,"rental_uris":{"android":"levelo://app?vid=06647c8b-b781-48a3-8b13-d28005e2a80a","ios":"levelo://app?vid=06647c8b-b781-48a3-8b13-d28005e2a80a"},"vehicle_type_id":"4","last_reported":1733947866,"current_range_meters":20400,"station_id":"","pricing_plan_id":"cebpf4jnsgd1na2vs0mg"},{"bike_id":"4b666a55-68b3-4eb3-b0ef-f6b1037bbd40","system_id":"levelo_inurba_marseille","lat":43.29266,"lon":5.38433,"is_reserved":false,"is_disabled":false,"rental_uris":{"android":"levelo://app?vid=4b666a55-68b3-4eb3-b0ef-f6b1037bbd40","ios":"levelo://app?vid=4b666a55-68b3-4eb3-b0ef-f6b1037bbd40"},"vehicle_type_id":"4","last_reported":1733947866,"current_range_meters":29600,"station_id":"ce4bh692rcd13ifvqea0","pricing_plan_id":"cebpf4jnsgd1na2vs0mg"},{"bike_id":"af77a2c4-4f01-4eac-8bd5-698508bacd7c","system_id":"levelo_inurba_marseille","lat":43.27184,"lon":5.40998,"is_reserved":false,"is_disabled":false,"rental_uris":{"android":"levelo://app?vid=af77a2c4-4f01-4eac-8bd5-698508bacd7c","ios":"levelo://app?vid=af77a2c4-4f01-4eac-8bd5-698508bacd7c"},"vehicle_type_id":"4","last_reported":1733947866,"current_range_meters":23200,"station_id":"ce4bhl12rcd13ifvqgf0","pricing_plan_id":"cebpf4jnsgd1na2vs0mg"},{"bike_id":"e2a77f5d-1d63-4243-bf72-8b9ec30686b1","system_id":"levelo_inurba_marseille","lat":43.28708,"lon":5.37951,"is_reserved":false,"is_disabled":true,"rental_uris":{"android":"levelo://app?vid=e2a77f5d-1d63-4243-bf72-8b9ec30686b1","ios":"levelo://app?vid=e2a77f5d-1d63-4243-bf72-8b9ec30686b1"},"vehicle_type_id":"4","last_reported":1733947866,"current_range_meters":33600,"station_id":"ce4bh9p2rcd13ifvqec0","pricing_plan_id":"cebpf4jnsgd1na2vs0mg"},{"bike_id":"5d7634cb-e61e-431a-81eb-f7c3f9055a9a","system_id":"levelo_inurba_marseille","lat":43.27499,"lon":5.42446,"is_reserved":false,"is_disabled":false,"rental_uris":{"android":"levelo://app?vid=5d7634cb-e61e-431a-81eb-f7c3f9055a9a","ios":"levelo://app?vid=5d7634cb-e61e-431a-81eb-f7c3f9055a9a"},"vehicle_type_id":"4","last_reported":1733947866,"current_range_meters":37600,"station_id":"ce4bhn92rcd13ifvqgrg","pricing_plan_id":"cebpf4jnsgd1na2vs0mg"},{"bike_id":"561ad0f6-83a0-427a-8131-29a233fbbf34","system_id":"levelo_inurba_marseille","lat":43.30544,"lon":5.38424,"is_reserved":false,"is_disabled":false,"rental_uris":{"android":"levelo://app?vid=561ad0f6-83a0-427a-8131-29a233fbbf34","ios":"levelo://app?vid=561ad0f6-83a0-427a-8131-29a233fbbf34"},"vehicle_type_id":"4","last_reported":1733947866,"current_range_meters":4800,"station_id":"ce4bgg92rcd13ifvqb30","pricing_plan_id":"cebpf4jnsgd1na2vs0mg"},{"bike_id":"531d8c27-155e-4a57-b7cd-c732f99b57ae","system_id":"levelo_inurba_marseille","lat":43.31481,"lon":5.37311,"is_reserved":false,"is_disabled":false,"rental_uris":{"android":"levelo://app?vid=531d8c27-155e-4a57-b7cd-c732f99b57ae","ios":"levelo://app?vid=531d8c27-155e-4a57-b7cd-c732f99b57ae"},"vehicle_type_id":"4","last_reported":1733947866,"current_range_meters":6800,"station_id":"ce4bgt12rcd13ifvqcd0","pricing_plan_id":"cebpf4jnsgd1na2vs0mg"},{"bike_id":"66bfd463-6345-4be1-b58b-58a74e66597b","system_id":"levelo_inurba_marseille","lat":43.26806,"lon":5.40259,"is_reserved":false,"is_disabled":false,"rental_uris":{"android":"levelo://app?vid=66bfd463-6345-4be1-b58b-58a74e66597b","ios":"levelo://app?vid=66bfd463-6345-4be1-b58b-58a74e66597b"},"vehicle_type_id":"4","last_reported":1733947866,"current_range_meters":38800,"station_id":"ce501612rcd8frsf0b60","pricing_plan_id":"cebpf4jnsgd1na2vs0mg"},{"bike_id":"719781ef-4cbd-4631-965b-6343c9720e99","system_id":"levelo_inurba_marseille","lat":43.32367,"lon":5.3889,"is_reserved":false,"is_disabled":true,"rental_uris":{"android":"levelo://app?vid=719781ef-4cbd-4631-965b-6343c9720e99","ios":"levelo://app?vid=719781ef-4cbd-4631-965b-6343c9720e99"},"vehicle_type_id":"4","last_reported":1733947866,"current_range_meters":0,"station_id":"ce4bhqp2rcd13ifvqhog","pricing_plan_id":"cebpf4jnsgd1na2vs0mg"},{"bike_id":"9ab2c2f8-f256-4cfa-a9fc-537597ebaff4","system_id":"levelo_inurba_marseille","lat":43.29891,"lon":5.39714,"is_reserved":false,"is_disabled":false,"rental_uris":{"android":"levelo://app?vid=9ab2c2f8-f256-4cfa-a9fc-537597ebaff4","ios":"levelo://app?vid=9ab2c2f8-f256-4cfa-a9fc-537597ebaff4"},"vehicle_type_id":"4","last_reported":1733947866,"current_range_meters":20800,"station_id":"ce4bh0h2rcd13ifvqd50","pricing_plan_id":"cebpf4jnsgd1na2vs0mg"},{"bike_id":"e51abff1-03e1-4dad-9828-e4dcb8bfd9ca","system_id":"levelo_inurba_marseille","lat":43.32364,"lon":5.36767,"is_reserved":false,"is_disabled":false,"rental_uris":{"android":"levelo://app?vid=e51abff1-03e1-4dad-9828-e4dcb8bfd9ca","ios":"levelo://app?vid=e51abff1-03e1-4dad-9828-e4dcb8bfd9ca"},"vehicle_type_id":"4","last_reported":1733947866,"current_range_meters":8400,"station_id":"ce4bhsh2rcd13ifvqi2g","pricing_plan_id":"cebpf4jnsgd1na2vs0mg"},{"bike_id":"67d8e0e5-c84d-4526-8b59-b0ab77024fed","system_id":"levelo_inurba_marseille","lat":43.29578,"lon":5.37521,"is_reserved":false,"is_disabled":true,"rental_uris":{"android":"levelo://app?vid=67d8e0e5-c84d-4526-8b59-b0ab77024fed","ios":"levelo://app?vid=67d8e0e5-c84d-4526-8b59-b0ab77024fed"},"vehicle_type_id":"4","last_reported":1733947866,"current_range_meters":1200,"station_id":"ce4bgh92rcd13ifvqb50","pricing_plan_id":"cebpf4jnsgd1na2vs0mg"},{"bike_id":"a66c4b95-337e-4b9a-950c-e8c8d8e7a3a1","system_id":"levelo_inurba_marseille","lat":43.324799,"lon":5.365716,"is_reserved":false,"is_disabled":true,"rental_uris":{"android":"levelo://app?vid=a66c4b95-337e-4b9a-950c-e8c8d8e7a3a1","ios":"levelo://app?vid=a66c4b95-337e-4b9a-950c-e8c8d8e7a3a1"},"vehicle_type_id":"4","last_reported":1733947866,"current_range_meters":0,"station_id":"","pricing_plan_id":"cebpf4jnsgd1na2vs0mg"},{"bike_id":"94f7aa8e-5c4b-4307-ad76-00e7b4178128","system_id":"levelo_inurba_marseille","lat":43.31714,"lon":5.37728,"is_reserved":false,"is_disabled":false,"rental_uris":{"android":"levelo://app?vid=94f7aa8e-5c4b-4307-ad76-00e7b4178128","ios":"levelo://app?vid=94f7aa8e-5c4b-4307-ad76-00e7b4178128"},"vehicle_type_id":"4","last_reported":1733947866,"current_range_meters":38800,"station_id":"ce4bgth2rcd13ifvqch0","pricing_plan_id":"cebpf4jnsgd1na2vs0mg"},{"bike_id":"fd68a44b-d7e7-4ac9-9f93-63b59e3318d2","system_id":"levelo_inurba_marseille","lat":43.33719,"lon":5.39174,"is_reserved":false,"is_disabled":false,"rental_uris":{"android":"levelo://app?vid=fd68a44b-d7e7-4ac9-9f93-63b59e3318d2","ios":"levelo://app?vid=fd68a44b-d7e7-4ac9-9f93-63b59e3318d2"},"vehicle_type_id":"4","last_reported":1733947866,"current_range_meters":37600,"station_id":"ce4bhr92rcd13ifvqhsg","pricing_plan_id":"cebpf4jnsgd1na2vs0mg"},{"bike_id":"4b6ab6f2-3731-4710-b5fa-3ba990bb9aca","system_id":"levelo_inurba_marseille","lat":43.29047,"lon":5.38123,"is_reserved":false,"is_disabled":true,"rental_uris":{"android":"levelo://app?vid=4b6ab6f2-3731-4710-b5fa-3ba990bb9aca","ios":"levelo://app?vid=4b6ab6f2-3731-4710-b5fa-3ba990bb9aca"},"vehicle_type_id":"4","last_reported":1733947866,"current_range_meters":37600,"station_id":"ce4bh4p2rcd13ifvqe1g","pricing_plan_id":"cebpf4jnsgd1na2vs0mg"},{"bike_id":"0ed2297d-e7c9-4ef0-bff0-6b4395812b57","system_id":"levelo_inurba_marseille","lat":43.2939,"lon":5.41245,"is_reserved":false,"is_disabled":false,"rental_uris":{"android":"levelo://app?vid=0ed2297d-e7c9-4ef0-bff0-6b4395812b57","ios":"levelo://app?vid=0ed2297d-e7c9-4ef0-bff0-6b4395812b57"},"vehicle_type_id":"4","last_reported":1733947866,"current_range_meters":30000,"station_id":"","pricing_plan_id":"cebpf4jnsgd1na2vs0mg"},{"bike_id":"36c22a16-66d2-4f78-a6c0-ae41b756b49e","system_id":"levelo_inurba_marseille","lat":43.30976,"lon":5.39035,"is_reserved":false,"is_disabled":true,"rental_uris":{"android":"levelo://app?vid=36c22a16-66d2-4f78-a6c0-ae41b756b49e","ios":"levelo://app?vid=36c22a16-66d2-4f78-a6c0-ae41b756b49e"},"vehicle_type_id":"4","last_reported":1733947866,"current_range_meters":38800,"station_id":"ce4bgup2rcd13ifvqco0","pricing_plan_id":"cebpf4jnsgd1na2vs0mg"},{"bike_id":"aefab678-0934-4948-b68a-e9ea9ee9c108","system_id":"levelo_inurba_marseille","lat":43.2896,"lon":5.36495,"is_reserved":false,"is_disabled":false,"rental_uris":{"android":"levelo://app?vid=aefab678-0934-4948-b68a-e9ea9ee9c108","ios":"levelo://app?vid=aefab678-0934-4948-b68a-e9ea9ee9c108"},"vehicle_type_id":"4","last_reported":1733947866,"current_range_meters":32400,"station_id":"ce4bhb92rcd13ifvqen0","pricing_plan_id":"cebpf4jnsgd1na2vs0mg"},{"bike_id":"2175ae3c-739a-49a6-8b88-c695a996a497","system_id":"levelo_inurba_marseille","lat":43.24082,"lon":5.37744,"is_reserved":false,"is_disabled":true,"rental_uris":{"android":"levelo://app?vid=2175ae3c-739a-49a6-8b88-c695a996a497","ios":"levelo://app?vid=2175ae3c-739a-49a6-8b88-c695a996a497"},"vehicle_type_id":"4","last_reported":1733947866,"current_range_meters":35600,"station_id":"ce4bhnp2rcd13ifvqgvg","pricing_plan_id":"cebpf4jnsgd1na2vs0mg"},{"bike_id":"b22583aa-f8ec-44ec-9fe6-7aa6d09b007f","system_id":"levelo_inurba_marseille","lat":43.30634,"lon":5.37188,"is_reserved":false,"is_disabled":false,"rental_uris":{"android":"levelo://app?vid=b22583aa-f8ec-44ec-9fe6-7aa6d09b007f","ios":"levelo://app?vid=b22583aa-f8ec-44ec-9fe6-7aa6d09b007f"},"vehicle_type_id":"4","last_reported":1733947866,"current_range_meters":32000,"station_id":"ce4bgqh2rcd13ifvqc4g","pricing_plan_id":"cebpf4jnsgd1na2vs0mg"},{"bike_id":"8934cfd7-7a30-4578-9b27-97502688e616","system_id":"levelo_inurba_marseille","lat":43.32659,"lon":5.40995,"is_reserved":false,"is_disabled":false,"rental_uris":{"android":"levelo://app?vid=8934cfd7-7a30-4578-9b27-97502688e616","ios":"levelo://app?vid=8934cfd7-7a30-4578-9b27-97502688e616"},"vehicle_type_id":"4","last_reported":1733947866,"current_range_meters":38000,"station_id":"ce4bhpp2rcd13ifvqhgg","pricing_plan_id":"cebpf4jnsgd1na2vs0mg"},{"bike_id":"bbcff5ca-4212-4f97-ad4e-cc9f02df715c","system_id":"levelo_inurba_marseille","lat":43.23185,"lon":5.39993,"is_reserved":false,"is_disabled":false,"rental_uris":{"android":"levelo://app?vid=bbcff5ca-4212-4f97-ad4e-cc9f02df715c","ios":"levelo://app?vid=bbcff5ca-4212-4f97-ad4e-cc9f02df715c"},"vehicle_type_id":"4","last_reported":1733947866,"current_range_meters":38800,"station_id":"ce4bhn12rcd13ifvqgqg","pricing_plan_id":"cebpf4jnsgd1na2vs0mg"},{"bike_id":"024cb6ed-8905-461f-90e9-7b3f966b01d2","system_id":"levelo_inurba_marseille","lat":43.31276,"lon":5.40178,"is_reserved":false,"is_disabled":false,"rental_uris":{"android":"levelo://app?vid=024cb6ed-8905-461f-90e9-7b3f966b01d2","ios":"levelo://app?vid=024cb6ed-8905-461f-90e9-7b3f966b01d2"},"vehicle_type_id":"4","last_reported":1733947866,"current_range_meters":19200,"station_id":"ce4bh092rcd13ifvqd30","pricing_plan_id":"cebpf4jnsgd1na2vs0mg"},{"bike_id":"94d24d12-981d-4c28-b9a7-c4bd686eb9f2","system_id":"levelo_inurba_marseille","lat":43.24893,"lon":5.396971,"is_reserved":false,"is_disabled":false,"rental_uris":{"android":"levelo://app?vid=94d24d12-981d-4c28-b9a7-c4bd686eb9f2","ios":"levelo://app?vid=94d24d12-981d-4c28-b9a7-c4bd686eb9f2"},"vehicle_type_id":"4","last_reported":1733947866,"current_range_meters":33200,"station_id":"ce4bhkp2rcd13ifvqgd0","pricing_plan_id":"cebpf4jnsgd1na2vs0mg"},{"bike_id":"d036b19e-8df6-4187-a6d9-9a0849ac833c","system_id":"levelo_inurba_marseille","lat":43.28,"lon":5.41671,"is_reserved":false,"is_disabled":false,"rental_uris":{"android":"levelo://app?vid=d036b19e-8df6-4187-a6d9-9a0849ac833c","ios":"levelo://app?vid=d036b19e-8df6-4187-a6d9-9a0849ac833c"},"vehicle_type_id":"4","last_reported":1733947866,"current_range_meters":28400,"station_id":"ce4bho12rcd13ifvqh1g","pricing_plan_id":"cebpf4jnsgd1na2vs0mg"},{"bike_id":"62dc3d6f-14e9-4572-8025-9eaf9b53e0fb","system_id":"levelo_inurba_marseille","lat":43.2861,"lon":5.37061,"is_reserved":false,"is_disabled":false,"rental_uris":{"android":"levelo://app?vid=62dc3d6f-14e9-4572-8025-9eaf9b53e0fb","ios":"levelo://app?vid=62dc3d6f-14e9-4572-8025-9eaf9b53e0fb"},"vehicle_type_id":"4","last_reported":1733947866,"current_range_meters":39200,"station_id":"ce4bht12rcd13ifvqi60","pricing_plan_id":"cebpf4jnsgd1na2vs0mg"},{"bike_id":"a7f53bbb-ccf6-4480-bdbd-62551e7753c7","system_id":"levelo_inurba_marseille","lat":43.30219,"lon":5.39043,"is_reserved":false,"is_disabled":false,"rental_uris":{"android":"levelo://app?vid=a7f53bbb-ccf6-4480-bdbd-62551e7753c7","ios":"levelo://app?vid=a7f53bbb-ccf6-4480-bdbd-62551e7753c7"},"vehicle_type_id":"4","last_reported":1733947866,"current_range_meters":29600,"station_id":"ce4bgk12rcd13ifvqbi0","pricing_plan_id":"cebpf4jnsgd1na2vs0mg"},{"bike_id":"6a525d44-9575-46d2-9ab4-e0df0d7218dd","system_id":"levelo_inurba_marseille","lat":43.29008,"lon":5.35618,"is_reserved":false,"is_disabled":false,"rental_uris":{"android":"levelo://app?vid=6a525d44-9575-46d2-9ab4-e0df0d7218dd","ios":"levelo://app?vid=6a525d44-9575-46d2-9ab4-e0df0d7218dd"},"vehicle_type_id":"4","last_reported":1733947866,"current_range_meters":38000,"station_id":"ce4bhb92rcd13ifvqen0","pricing_plan_id":"cebpf4jnsgd1na2vs0mg"},{"bike_id":"ab1c6a12-19ac-4afb-af5f-776c48efacd2","system_id":"levelo_inurba_marseille","lat":43.23205,"lon":5.35537,"is_reserved":false,"is_disabled":false,"rental_uris":{"android":"levelo://app?vid=ab1c6a12-19ac-4afb-af5f-776c48efacd2","ios":"levelo://app?vid=ab1c6a12-19ac-4afb-af5f-776c48efacd2"},"vehicle_type_id":"4","last_reported":1733947866,"current_range_meters":19200,"station_id":"ce4bhu92rcd13ifvqi70","pricing_plan_id":"cebpf4jnsgd1na2vs0mg"},{"bike_id":"6ad17f79-35a5-426a-a40c-9a0fe7420dde","system_id":"levelo_inurba_marseille","lat":43.32047,"lon":5.41533,"is_reserved":false,"is_disabled":true,"rental_uris":{"android":"levelo://app?vid=6ad17f79-35a5-426a-a40c-9a0fe7420dde","ios":"levelo://app?vid=6ad17f79-35a5-426a-a40c-9a0fe7420dde"},"vehicle_type_id":"4","last_reported":1733947866,"current_range_meters":0,"station_id":"ce4bhq92rcd13ifvqhkg","pricing_plan_id":"cebpf4jnsgd1na2vs0mg"},{"bike_id":"2913aebd-4813-451d-ac74-37d7196a9992","system_id":"levelo_inurba_marseille","lat":43.2903,"lon":5.38654,"is_reserved":false,"is_disabled":false,"rental_uris":{"android":"levelo://app?vid=2913aebd-4813-451d-ac74-37d7196a9992","ios":"levelo://app?vid=2913aebd-4813-451d-ac74-37d7196a9992"},"vehicle_type_id":"4","last_reported":1733947866,"current_range_meters":28800,"station_id":"ce4bh4p2rcd13ifvqe0g","pricing_plan_id":"cebpf4jnsgd1na2vs0mg"},{"bike_id":"034afd89-7884-46aa-947a-c5f301e52728","system_id":"levelo_inurba_marseille","lat":43.30885,"lon":5.39634,"is_reserved":false,"is_disabled":true,"rental_uris":{"android":"levelo://app?vid=034afd89-7884-46aa-947a-c5f301e52728","ios":"levelo://app?vid=034afd89-7884-46aa-947a-c5f301e52728"},"vehicle_type_id":"4","last_reported":1733947866,"current_range_meters":22400,"station_id":"ce4bh012rcd13ifvqcv0","pricing_plan_id":"cebpf4jnsgd1na2vs0mg"},{"bike_id":"77aa3771-e39f-4270-8eb7-dc0a17d3893e","system_id":"levelo_inurba_marseille","lat":43.2603,"lon":5.3754,"is_reserved":false,"is_disabled":false,"rental_uris":{"android":"levelo://app?vid=77aa3771-e39f-4270-8eb7-dc0a17d3893e","ios":"levelo://app?vid=77aa3771-e39f-4270-8eb7-dc0a17d3893e"},"vehicle_type_id":"4","last_reported":1733947866,"current_range_meters":38400,"station_id":"ce4bhgh2rcd13ifvqfa0","pricing_plan_id":"cebpf4jnsgd1na2vs0mg"},{"bike_id":"ac0f2109-c6ce-415b-a83c-261c42c13f7d","system_id":"levelo_inurba_marseille","lat":43.27907,"lon":5.3958,"is_reserved":false,"is_disabled":false,"rental_uris":{"android":"levelo://app?vid=ac0f2109-c6ce-415b-a83c-261c42c13f7d","ios":"levelo://app?vid=ac0f2109-c6ce-415b-a83c-261c42c13f7d"},"vehicle_type_id":"4","last_reported":1733947866,"current_range_meters":33600,"station_id":"ce4bhf92rcd13ifvqf40","pricing_plan_id":"cebpf4jnsgd1na2vs0mg"},{"bike_id":"4645a953-338c-484b-ab9d-d0fa6b08fa81","system_id":"levelo_inurba_marseille","lat":43.28694,"lon":5.37403,"is_reserved":false,"is_disabled":false,"rental_uris":{"android":"levelo://app?vid=4645a953-338c-484b-ab9d-d0fa6b08fa81","ios":"levelo://app?vid=4645a953-338c-484b-ab9d-d0fa6b08fa81"},"vehicle_type_id":"4","last_reported":1733947866,"current_range_meters":27200,"station_id":"ce4bh3p2rcd13ifvqdq0","pricing_plan_id":"cebpf4jnsgd1na2vs0mg"},{"bike_id":"ef9c5f0a-5bc9-4c23-bd0f-ba27102c93b5","system_id":"levelo_inurba_marseille","lat":43.30443,"lon":5.38878,"is_reserved":false,"is_disabled":false,"rental_uris":{"android":"levelo://app?vid=ef9c5f0a-5bc9-4c23-bd0f-ba27102c93b5","ios":"levelo://app?vid=ef9c5f0a-5bc9-4c23-bd0f-ba27102c93b5"},"vehicle_type_id":"4","last_reported":1733947866,"current_range_meters":29600,"station_id":"ce4bgk12rcd13ifvqbi0","pricing_plan_id":"cebpf4jnsgd1na2vs0mg"},{"bike_id":"3125d0ae-884f-4a3e-823a-ed0e3cad176b","system_id":"levelo_inurba_marseille","lat":43.24386,"lon":5.37067,"is_reserved":false,"is_disabled":false,"rental_uris":{"android":"levelo://app?vid=3125d0ae-884f-4a3e-823a-ed0e3cad176b","ios":"levelo://app?vid=3125d0ae-884f-4a3e-823a-ed0e3cad176b"},"vehicle_type_id":"4","last_reported":1733947866,"current_range_meters":38000,"station_id":"ce4bhhh2rcd13ifvqfk0","pricing_plan_id":"cebpf4jnsgd1na2vs0mg"},{"bike_id":"06bd7f7a-8306-4c22-820f-171f3fdd236d","system_id":"levelo_inurba_marseille","lat":43.28835,"lon":5.39311,"is_reserved":false,"is_disabled":false,"rental_uris":{"android":"levelo://app?vid=06bd7f7a-8306-4c22-820f-171f3fdd236d","ios":"levelo://app?vid=06bd7f7a-8306-4c22-820f-171f3fdd236d"},"vehicle_type_id":"4","last_reported":1733947866,"current_range_meters":37600,"station_id":"ce4bh2p2rcd13ifvqdi0","pricing_plan_id":"cebpf4jnsgd1na2vs0mg"},{"bike_id":"1b9459f5-dcc2-4e43-84c1-999b14f8e0bb","system_id":"levelo_inurba_marseille","lat":43.25591,"lon":5.38221,"is_reserved":false,"is_disabled":false,"rental_uris":{"android":"levelo://app?vid=1b9459f5-dcc2-4e43-84c1-999b14f8e0bb","ios":"levelo://app?vid=1b9459f5-dcc2-4e43-84c1-999b14f8e0bb"},"vehicle_type_id":"4","last_reported":1733947866,"current_range_meters":17600,"station_id":"ce4bhih2rcd13ifvqfs0","pricing_plan_id":"cebpf4jnsgd1na2vs0mg"},{"bike_id":"2a35746f-27f5-415f-b5f4-30bda626a415","system_id":"levelo_inurba_marseille","lat":43.26955,"lon":5.40241,"is_reserved":false,"is_disabled":false,"rental_uris":{"android":"levelo://app?vid=2a35746f-27f5-415f-b5f4-30bda626a415","ios":"levelo://app?vid=2a35746f-27f5-415f-b5f4-30bda626a415"},"vehicle_type_id":"4","last_reported":1733947866,"current_range_meters":30800,"station_id":"cjm6bp8fraef2m0cb0m0","pricing_plan_id":"cebpf4jnsgd1na2vs0mg"},{"bike_id":"06aea6f3-562f-4337-98eb-2f1af629b649","system_id":"levelo_inurba_marseille","lat":43.29352,"lon":5.37415,"is_reserved":false,"is_disabled":false,"rental_uris":{"android":"levelo://app?vid=06aea6f3-562f-4337-98eb-2f1af629b649","ios":"levelo://app?vid=06aea6f3-562f-4337-98eb-2f1af629b649"},"vehicle_type_id":"4","last_reported":1733947866,"current_range_meters":27200,"station_id":"","pricing_plan_id":"cebpf4jnsgd1na2vs0mg"},{"bike_id":"d99919b6-e630-4b49-8eb6-b51d35326fff","system_id":"levelo_inurba_marseille","lat":43.2952,"lon":5.39046,"is_reserved":false,"is_disabled":false,"rental_uris":{"android":"levelo://app?vid=d99919b6-e630-4b49-8eb6-b51d35326fff","ios":"levelo://app?vid=d99919b6-e630-4b49-8eb6-b51d35326fff"},"vehicle_type_id":"4","last_reported":1733947866,"current_range_meters":27600,"station_id":"ce4bh3p2rcd13ifvqdp0","pricing_plan_id":"cebpf4jnsgd1na2vs0mg"},{"bike_id":"ee0186ce-5ee6-443a-aa7c-853a1e294ff2","system_id":"levelo_inurba_marseille","lat":43.29605,"lon":5.37717,"is_reserved":false,"is_disabled":true,"rental_uris":{"android":"levelo://app?vid=ee0186ce-5ee6-443a-aa7c-853a1e294ff2","ios":"levelo://app?vid=ee0186ce-5ee6-443a-aa7c-853a1e294ff2"},"vehicle_type_id":"4","last_reported":1733947866,"current_range_meters":8800,"station_id":"ce4bgi92rcd13ifvqb90","pricing_plan_id":"cebpf4jnsgd1na2vs0mg"},{"bike_id":"3d3cc1fc-0629-437a-a117-76049fee6dbb","system_id":"levelo_inurba_marseille","lat":43.32341,"lon":5.40624,"is_reserved":false,"is_disabled":false,"rental_uris":{"android":"levelo://app?vid=3d3cc1fc-0629-437a-a117-76049fee6dbb","ios":"levelo://app?vid=3d3cc1fc-0629-437a-a117-76049fee6dbb"},"vehicle_type_id":"4","last_reported":1733947866,"current_range_meters":37600,"station_id":"ce4bhq92rcd13ifvqhjg","pricing_plan_id":"cebpf4jnsgd1na2vs0mg"},{"bike_id":"6bdee74d-e5c2-42e5-a6fd-8f401afd7419","system_id":"levelo_inurba_marseille","lat":43.24389,"lon":5.37047,"is_reserved":false,"is_disabled":false,"rental_uris":{"android":"levelo://app?vid=6bdee74d-e5c2-42e5-a6fd-8f401afd7419","ios":"levelo://app?vid=6bdee74d-e5c2-42e5-a6fd-8f401afd7419"},"vehicle_type_id":"4","last_reported":1733947866,"current_range_meters":12400,"station_id":"ce4bhhh2rcd13ifvqfk0","pricing_plan_id":"cebpf4jnsgd1na2vs0mg"},{"bike_id":"ca0d40de-b71f-4146-b2fa-859b113bf074","system_id":"levelo_inurba_marseille","lat":43.31986,"lon":5.38125,"is_reserved":false,"is_disabled":false,"rental_uris":{"android":"levelo://app?vid=ca0d40de-b71f-4146-b2fa-859b113bf074","ios":"levelo://app?vid=ca0d40de-b71f-4146-b2fa-859b113bf074"},"vehicle_type_id":"4","last_reported":1733947866,"current_range_meters":16800,"station_id":"ce4bhr12rcd13ifvqhpg","pricing_plan_id":"cebpf4jnsgd1na2vs0mg"},{"bike_id":"aeee7448-02e6-45b0-b0ac-d55c99806503","system_id":"levelo_inurba_marseille","lat":43.25582,"lon":5.3823,"is_reserved":false,"is_disabled":true,"rental_uris":{"android":"levelo://app?vid=aeee7448-02e6-45b0-b0ac-d55c99806503","ios":"levelo://app?vid=aeee7448-02e6-45b0-b0ac-d55c99806503"},"vehicle_type_id":"4","last_reported":1733947866,"current_range_meters":4800,"station_id":"ce4bhih2rcd13ifvqfs0","pricing_plan_id":"cebpf4jnsgd1na2vs0mg"},{"bike_id":"21338742-b694-4754-b28f-54713baa8797","system_id":"levelo_inurba_marseille","lat":43.29184,"lon":5.39323,"is_reserved":false,"is_disabled":false,"rental_uris":{"android":"levelo://app?vid=21338742-b694-4754-b28f-54713baa8797","ios":"levelo://app?vid=21338742-b694-4754-b28f-54713baa8797"},"vehicle_type_id":"4","last_reported":1733947866,"current_range_meters":32000,"station_id":"ce4bh192rcd13ifvqdd0","pricing_plan_id":"cebpf4jnsgd1na2vs0mg"},{"bike_id":"fc434179-c2b4-4ef3-8bd2-18bf25c73820","system_id":"levelo_inurba_marseille","lat":43.31082,"lon":5.383729,"is_reserved":false,"is_disabled":false,"rental_uris":{"android":"levelo://app?vid=fc434179-c2b4-4ef3-8bd2-18bf25c73820","ios":"levelo://app?vid=fc434179-c2b4-4ef3-8bd2-18bf25c73820"},"vehicle_type_id":"4","last_reported":1733947866,"current_range_meters":38000,"station_id":"ce4bgv12rcd13ifvqcp0","pricing_plan_id":"cebpf4jnsgd1na2vs0mg"},{"bike_id":"e038995b-6880-49ec-a5b6-6a5b3c935364","system_id":"levelo_inurba_marseille","lat":43.29795,"lon":5.39345,"is_reserved":false,"is_disabled":false,"rental_uris":{"android":"levelo://app?vid=e038995b-6880-49ec-a5b6-6a5b3c935364","ios":"levelo://app?vid=e038995b-6880-49ec-a5b6-6a5b3c935364"},"vehicle_type_id":"4","last_reported":1733947866,"current_range_meters":35200,"station_id":"chh1huq6cuj3fo74tm60","pricing_plan_id":"cebpf4jnsgd1na2vs0mg"},{"bike_id":"f44c5b27-4d08-4064-8e72-dc6d9fa9fa7e","system_id":"levelo_inurba_marseille","lat":43.285994,"lon":5.394914,"is_reserved":false,"is_disabled":false,"rental_uris":{"android":"levelo://app?vid=f44c5b27-4d08-4064-8e72-dc6d9fa9fa7e","ios":"levelo://app?vid=f44c5b27-4d08-4064-8e72-dc6d9fa9fa7e"},"vehicle_type_id":"4","last_reported":1733947866,"current_range_meters":5600,"station_id":"ce4bh292rcd13ifvqdg0","pricing_plan_id":"cebpf4jnsgd1na2vs0mg"},{"bike_id":"e67212d1-7ebb-428f-96ff-4a419c8d4f94","system_id":"levelo_inurba_marseille","lat":43.2816,"lon":5.42642,"is_reserved":false,"is_disabled":false,"rental_uris":{"android":"levelo://app?vid=e67212d1-7ebb-428f-96ff-4a419c8d4f94","ios":"levelo://app?vid=e67212d1-7ebb-428f-96ff-4a419c8d4f94"},"vehicle_type_id":"4","last_reported":1733947866,"current_range_meters":36000,"station_id":"ce4bhnh2rcd13ifvqgug","pricing_plan_id":"cebpf4jnsgd1na2vs0mg"},{"bike_id":"23c74843-ac34-4d55-ae3d-bd90fa93fff4","system_id":"levelo_inurba_marseille","lat":43.28265,"lon":5.3507,"is_reserved":false,"is_disabled":false,"rental_uris":{"android":"levelo://app?vid=23c74843-ac34-4d55-ae3d-bd90fa93fff4","ios":"levelo://app?vid=23c74843-ac34-4d55-ae3d-bd90fa93fff4"},"vehicle_type_id":"4","last_reported":1733947866,"current_range_meters":10800,"station_id":"ce4bhbp2rcd13ifvqerg","pricing_plan_id":"cebpf4jnsgd1na2vs0mg"},{"bike_id":"3b58220a-25f8-48eb-b647-f6f0ede5a9e3","system_id":"levelo_inurba_marseille","lat":43.27993,"lon":5.41659,"is_reserved":false,"is_disabled":false,"rental_uris":{"android":"levelo://app?vid=3b58220a-25f8-48eb-b647-f6f0ede5a9e3","ios":"levelo://app?vid=3b58220a-25f8-48eb-b647-f6f0ede5a9e3"},"vehicle_type_id":"4","last_reported":1733947866,"current_range_meters":24800,"station_id":"ce4bho12rcd13ifvqh1g","pricing_plan_id":"cebpf4jnsgd1na2vs0mg"},{"bike_id":"64a6efea-3d8d-4a39-8e3f-d4afdd90970d","system_id":"levelo_inurba_marseille","lat":43.24805,"lon":5.37454,"is_reserved":false,"is_disabled":true,"rental_uris":{"android":"levelo://app?vid=64a6efea-3d8d-4a39-8e3f-d4afdd90970d","ios":"levelo://app?vid=64a6efea-3d8d-4a39-8e3f-d4afdd90970d"},"vehicle_type_id":"4","last_reported":1733947866,"current_range_meters":0,"station_id":"ce4bhgh2rcd13ifvqfb0","pricing_plan_id":"cebpf4jnsgd1na2vs0mg"},{"bike_id":"467a8ed9-8f9d-4f9c-a7a2-b2a4bc21bd4a","system_id":"levelo_inurba_marseille","lat":43.24653,"lon":5.38891,"is_reserved":false,"is_disabled":false,"rental_uris":{"android":"levelo://app?vid=467a8ed9-8f9d-4f9c-a7a2-b2a4bc21bd4a","ios":"levelo://app?vid=467a8ed9-8f9d-4f9c-a7a2-b2a4bc21bd4a"},"vehicle_type_id":"4","last_reported":1733947866,"current_range_meters":38000,"station_id":"ce4bhg12rcd13ifvqf60","pricing_plan_id":"cebpf4jnsgd1na2vs0mg"},{"bike_id":"16492b5b-37d8-452f-8923-009b71c8397d","system_id":"levelo_inurba_marseille","lat":43.25582,"lon":5.38232,"is_reserved":false,"is_disabled":false,"rental_uris":{"android":"levelo://app?vid=16492b5b-37d8-452f-8923-009b71c8397d","ios":"levelo://app?vid=16492b5b-37d8-452f-8923-009b71c8397d"},"vehicle_type_id":"4","last_reported":1733947866,"current_range_meters":28800,"station_id":"ce4bhih2rcd13ifvqfs0","pricing_plan_id":"cebpf4jnsgd1na2vs0mg"},{"bike_id":"33099d93-ce10-45ff-bd7c-95104a3498a9","system_id":"levelo_inurba_marseille","lat":43.28009,"lon":5.41665,"is_reserved":false,"is_disabled":false,"rental_uris":{"android":"levelo://app?vid=33099d93-ce10-45ff-bd7c-95104a3498a9","ios":"levelo://app?vid=33099d93-ce10-45ff-bd7c-95104a3498a9"},"vehicle_type_id":"4","last_reported":1733947866,"current_range_meters":38400,"station_id":"ce4bho12rcd13ifvqh1g","pricing_plan_id":"cebpf4jnsgd1na2vs0mg"},{"bike_id":"4d9975b2-8caf-4dfe-9202-9f11fbd0b727","system_id":"levelo_inurba_marseille","lat":43.29522,"lon":5.37501,"is_reserved":false,"is_disabled":true,"rental_uris":{"android":"levelo://app?vid=4d9975b2-8caf-4dfe-9202-9f11fbd0b727","ios":"levelo://app?vid=4d9975b2-8caf-4dfe-9202-9f11fbd0b727"},"vehicle_type_id":"4","last_reported":1733947866,"current_range_meters":20000,"station_id":"ce4bgkp2rcd13ifvqbmg","pricing_plan_id":"cebpf4jnsgd1na2vs0mg"},{"bike_id":"a5589391-a7e4-412b-9a87-f917b2322580","system_id":"levelo_inurba_marseille","lat":43.23067,"lon":5.35504,"is_reserved":false,"is_disabled":false,"rental_uris":{"android":"levelo://app?vid=a5589391-a7e4-412b-9a87-f917b2322580","ios":"levelo://app?vid=a5589391-a7e4-412b-9a87-f917b2322580"},"vehicle_type_id":"4","last_reported":1733947866,"current_range_meters":20000,"station_id":"cpo3342slgdg3j2ifvpg","pricing_plan_id":"cebpf4jnsgd1na2vs0mg"},{"bike_id":"2a5d3102-2758-4f4f-b403-07af5c3d29cb","system_id":"levelo_inurba_marseille","lat":43.24386,"lon":5.3706,"is_reserved":false,"is_disabled":false,"rental_uris":{"android":"levelo://app?vid=2a5d3102-2758-4f4f-b403-07af5c3d29cb","ios":"levelo://app?vid=2a5d3102-2758-4f4f-b403-07af5c3d29cb"},"vehicle_type_id":"4","last_reported":1733947866,"current_range_meters":12400,"station_id":"ce4bhhh2rcd13ifvqfk0","pricing_plan_id":"cebpf4jnsgd1na2vs0mg"},{"bike_id":"9ec434bf-ed24-40e8-a1ba-464c29049ca6","system_id":"levelo_inurba_marseille","lat":43.3138,"lon":5.38521,"is_reserved":false,"is_disabled":false,"rental_uris":{"android":"levelo://app?vid=9ec434bf-ed24-40e8-a1ba-464c29049ca6","ios":"levelo://app?vid=9ec434bf-ed24-40e8-a1ba-464c29049ca6"},"vehicle_type_id":"4","last_reported":1733947866,"current_range_meters":32000,"station_id":"ce4bgt92rcd13ifvqcf0","pricing_plan_id":"cebpf4jnsgd1na2vs0mg"},{"bike_id":"5d45934d-d05c-4f24-8f37-3eea3f951ebe","system_id":"levelo_inurba_marseille","lat":43.30558,"lon":5.40472,"is_reserved":false,"is_disabled":false,"rental_uris":{"android":"levelo://app?vid=5d45934d-d05c-4f24-8f37-3eea3f951ebe","ios":"levelo://app?vid=5d45934d-d05c-4f24-8f37-3eea3f951ebe"},"vehicle_type_id":"4","last_reported":1733947866,"current_range_meters":28800,"station_id":"","pricing_plan_id":"cebpf4jnsgd1na2vs0mg"},{"bike_id":"4e3e52af-b951-4246-bf8f-50e53516b1e3","system_id":"levelo_inurba_marseille","lat":43.3122,"lon":5.36861,"is_reserved":false,"is_disabled":false,"rental_uris":{"android":"levelo://app?vid=4e3e52af-b951-4246-bf8f-50e53516b1e3","ios":"levelo://app?vid=4e3e52af-b951-4246-bf8f-50e53516b1e3"},"vehicle_type_id":"4","last_reported":1733947866,"current_range_meters":6800,"station_id":"ce4bgl92rcd13ifvqbq0","pricing_plan_id":"cebpf4jnsgd1na2vs0mg"},{"bike_id":"eb73ff74-a0a2-4501-b2f9-ea363ee16409","system_id":"levelo_inurba_marseille","lat":43.29196,"lon":5.35802,"is_reserved":false,"is_disabled":false,"rental_uris":{"android":"levelo://app?vid=eb73ff74-a0a2-4501-b2f9-ea363ee16409","ios":"levelo://app?vid=eb73ff74-a0a2-4501-b2f9-ea363ee16409"},"vehicle_type_id":"4","last_reported":1733947866,"current_range_meters":37600,"station_id":"ce4bhb12rcd13ifvqel0","pricing_plan_id":"cebpf4jnsgd1na2vs0mg"},{"bike_id":"837ea001-3dca-43b1-bf44-3c63cdc8ec4f","system_id":"levelo_inurba_marseille","lat":43.24075,"lon":5.37755,"is_reserved":false,"is_disabled":false,"rental_uris":{"android":"levelo://app?vid=837ea001-3dca-43b1-bf44-3c63cdc8ec4f","ios":"levelo://app?vid=837ea001-3dca-43b1-bf44-3c63cdc8ec4f"},"vehicle_type_id":"4","last_reported":1733947866,"current_range_meters":37600,"station_id":"ce4bhnp2rcd13ifvqgvg","pricing_plan_id":"cebpf4jnsgd1na2vs0mg"},{"bike_id":"666ffc11-09a1-4aa3-a091-0b6fa3af6380","system_id":"levelo_inurba_marseille","lat":43.27821,"lon":5.40689,"is_reserved":false,"is_disabled":false,"rental_uris":{"android":"levelo://app?vid=666ffc11-09a1-4aa3-a091-0b6fa3af6380","ios":"levelo://app?vid=666ffc11-09a1-4aa3-a091-0b6fa3af6380"},"vehicle_type_id":"4","last_reported":1733947866,"current_range_meters":20000,"station_id":"ce4bhnh2rcd13ifvqgtg","pricing_plan_id":"cebpf4jnsgd1na2vs0mg"},{"bike_id":"f30ab711-99b3-4850-ba66-09135abc2f8d","system_id":"levelo_inurba_marseille","lat":43.26681,"lon":5.38271,"is_reserved":false,"is_disabled":false,"rental_uris":{"android":"levelo://app?vid=f30ab711-99b3-4850-ba66-09135abc2f8d","ios":"levelo://app?vid=f30ab711-99b3-4850-ba66-09135abc2f8d"},"vehicle_type_id":"4","last_reported":1733947866,"current_range_meters":34800,"station_id":"ce4bhg92rcd13ifvqf90","pricing_plan_id":"cebpf4jnsgd1na2vs0mg"},{"bike_id":"5ac272c3-4ee8-49c9-8d91-b330be82bc5f","system_id":"levelo_inurba_marseille","lat":43.28693,"lon":5.374,"is_reserved":false,"is_disabled":false,"rental_uris":{"android":"levelo://app?vid=5ac272c3-4ee8-49c9-8d91-b330be82bc5f","ios":"levelo://app?vid=5ac272c3-4ee8-49c9-8d91-b330be82bc5f"},"vehicle_type_id":"4","last_reported":1733947866,"current_range_meters":30800,"station_id":"ce4bh3p2rcd13ifvqdq0","pricing_plan_id":"cebpf4jnsgd1na2vs0mg"},{"bike_id":"19c60c8b-c2ae-4e8e-bde8-11503928fd48","system_id":"levelo_inurba_marseille","lat":43.2438,"lon":5.37055,"is_reserved":false,"is_disabled":false,"rental_uris":{"android":"levelo://app?vid=19c60c8b-c2ae-4e8e-bde8-11503928fd48","ios":"levelo://app?vid=19c60c8b-c2ae-4e8e-bde8-11503928fd48"},"vehicle_type_id":"4","last_reported":1733947866,"current_range_meters":31200,"station_id":"ce4bhhh2rcd13ifvqfk0","pricing_plan_id":"cebpf4jnsgd1na2vs0mg"},{"bike_id":"61df4582-7c9f-489e-b7da-d6a0cfdcd7c7","system_id":"levelo_inurba_marseille","lat":43.28652,"lon":5.36382,"is_reserved":false,"is_disabled":true,"rental_uris":{"android":"levelo://app?vid=61df4582-7c9f-489e-b7da-d6a0cfdcd7c7","ios":"levelo://app?vid=61df4582-7c9f-489e-b7da-d6a0cfdcd7c7"},"vehicle_type_id":"4","last_reported":1733947866,"current_range_meters":0,"station_id":"ce4bhah2rcd13ifvqej0","pricing_plan_id":"cebpf4jnsgd1na2vs0mg"},{"bike_id":"c235fe65-5699-4b1b-ae79-8b6529e0e0c6","system_id":"levelo_inurba_marseille","lat":43.2572,"lon":5.41114,"is_reserved":false,"is_disabled":false,"rental_uris":{"android":"levelo://app?vid=c235fe65-5699-4b1b-ae79-8b6529e0e0c6","ios":"levelo://app?vid=c235fe65-5699-4b1b-ae79-8b6529e0e0c6"},"vehicle_type_id":"4","last_reported":1733947866,"current_range_meters":39200,"station_id":"ce4bhkp2rcd13ifvqgd0","pricing_plan_id":"cebpf4jnsgd1na2vs0mg"},{"bike_id":"9dca85ed-c3c9-408c-9994-271a5be2c2d5","system_id":"levelo_inurba_marseille","lat":43.29009,"lon":5.35617,"is_reserved":false,"is_disabled":false,"rental_uris":{"android":"levelo://app?vid=9dca85ed-c3c9-408c-9994-271a5be2c2d5","ios":"levelo://app?vid=9dca85ed-c3c9-408c-9994-271a5be2c2d5"},"vehicle_type_id":"4","last_reported":1733947866,"current_range_meters":9600,"station_id":"ce4bhb92rcd13ifvqen0","pricing_plan_id":"cebpf4jnsgd1na2vs0mg"},{"bike_id":"ca3bf6a0-806c-4046-b219-bbea4c2ba646","system_id":"levelo_inurba_marseille","lat":43.23194,"lon":5.35547,"is_reserved":false,"is_disabled":false,"rental_uris":{"android":"levelo://app?vid=ca3bf6a0-806c-4046-b219-bbea4c2ba646","ios":"levelo://app?vid=ca3bf6a0-806c-4046-b219-bbea4c2ba646"},"vehicle_type_id":"4","last_reported":1733947866,"current_range_meters":38800,"station_id":"ce4bhu92rcd13ifvqi70","pricing_plan_id":"cebpf4jnsgd1na2vs0mg"},{"bike_id":"46b2fdec-0870-4ae2-84dc-b1f57512351e","system_id":"levelo_inurba_marseille","lat":43.337444,"lon":5.374475,"is_reserved":false,"is_disabled":true,"rental_uris":{"android":"levelo://app?vid=46b2fdec-0870-4ae2-84dc-b1f57512351e","ios":"levelo://app?vid=46b2fdec-0870-4ae2-84dc-b1f57512351e"},"vehicle_type_id":"4","last_reported":1733947866,"current_range_meters":0,"station_id":"","pricing_plan_id":"cebpf4jnsgd1na2vs0mg"},{"bike_id":"779aff15-11ba-463d-8391-fb934e57cdae","system_id":"levelo_inurba_marseille","lat":43.31078,"lon":5.38374,"is_reserved":false,"is_disabled":false,"rental_uris":{"android":"levelo://app?vid=779aff15-11ba-463d-8391-fb934e57cdae","ios":"levelo://app?vid=779aff15-11ba-463d-8391-fb934e57cdae"},"vehicle_type_id":"4","last_reported":1733947866,"current_range_meters":18800,"station_id":"ce4bgv92rcd13ifvqcr0","pricing_plan_id":"cebpf4jnsgd1na2vs0mg"},{"bike_id":"6f63a811-15c3-4350-bb88-5bf5393f66e8","system_id":"levelo_inurba_marseille","lat":43.28485,"lon":5.38413,"is_reserved":false,"is_disabled":false,"rental_uris":{"android":"levelo://app?vid=6f63a811-15c3-4350-bb88-5bf5393f66e8","ios":"levelo://app?vid=6f63a811-15c3-4350-bb88-5bf5393f66e8"},"vehicle_type_id":"4","last_reported":1733947866,"current_range_meters":37600,"station_id":"ce4bh512rcd13ifvqe3g","pricing_plan_id":"cebpf4jnsgd1na2vs0mg"},{"bike_id":"7842c3a8-b040-413d-838c-93a301a5b9f2","system_id":"levelo_inurba_marseille","lat":43.30131,"lon":5.39882,"is_reserved":false,"is_disabled":true,"rental_uris":{"android":"levelo://app?vid=7842c3a8-b040-413d-838c-93a301a5b9f2","ios":"levelo://app?vid=7842c3a8-b040-413d-838c-93a301a5b9f2"},"vehicle_type_id":"4","last_reported":1733947866,"current_range_meters":0,"station_id":"ce4bh0h2rcd13ifvqd40","pricing_plan_id":"cebpf4jnsgd1na2vs0mg"},{"bike_id":"1719638d-2595-4a77-b7d7-15797a3487fc","system_id":"levelo_inurba_marseille","lat":43.278197,"lon":5.4073,"is_reserved":false,"is_disabled":false,"rental_uris":{"android":"levelo://app?vid=1719638d-2595-4a77-b7d7-15797a3487fc","ios":"levelo://app?vid=1719638d-2595-4a77-b7d7-15797a3487fc"},"vehicle_type_id":"4","last_reported":1733947866,"current_range_meters":4000,"station_id":"ce4bhnh2rcd13ifvqgtg","pricing_plan_id":"cebpf4jnsgd1na2vs0mg"},{"bike_id":"ba0ac5ec-2eb3-4fd9-8534-278c3612b8fc","system_id":"levelo_inurba_marseille","lat":43.24806,"lon":5.37455,"is_reserved":false,"is_disabled":false,"rental_uris":{"android":"levelo://app?vid=ba0ac5ec-2eb3-4fd9-8534-278c3612b8fc","ios":"levelo://app?vid=ba0ac5ec-2eb3-4fd9-8534-278c3612b8fc"},"vehicle_type_id":"4","last_reported":1733947866,"current_range_meters":18800,"station_id":"ce4bhgh2rcd13ifvqfb0","pricing_plan_id":"cebpf4jnsgd1na2vs0mg"},{"bike_id":"702a6eeb-3b47-4108-a1ee-e6bf6dded3bc","system_id":"levelo_inurba_marseille","lat":43.27183,"lon":5.4099,"is_reserved":false,"is_disabled":false,"rental_uris":{"android":"levelo://app?vid=702a6eeb-3b47-4108-a1ee-e6bf6dded3bc","ios":"levelo://app?vid=702a6eeb-3b47-4108-a1ee-e6bf6dded3bc"},"vehicle_type_id":"4","last_reported":1733947866,"current_range_meters":10800,"station_id":"ce4bhl12rcd13ifvqgf0","pricing_plan_id":"cebpf4jnsgd1na2vs0mg"},{"bike_id":"ba312e04-ae49-4fb5-a7cc-358642cea45a","system_id":"levelo_inurba_marseille","lat":43.24828,"lon":5.37466,"is_reserved":false,"is_disabled":false,"rental_uris":{"android":"levelo://app?vid=ba312e04-ae49-4fb5-a7cc-358642cea45a","ios":"levelo://app?vid=ba312e04-ae49-4fb5-a7cc-358642cea45a"},"vehicle_type_id":"4","last_reported":1733947866,"current_range_meters":36000,"station_id":"ce4bhgh2rcd13ifvqfb0","pricing_plan_id":"cebpf4jnsgd1na2vs0mg"},{"bike_id":"948d6f9d-2160-4565-8067-fdb4b7d6023b","system_id":"levelo_inurba_marseille","lat":43.25104,"lon":5.39503,"is_reserved":false,"is_disabled":false,"rental_uris":{"android":"levelo://app?vid=948d6f9d-2160-4565-8067-fdb4b7d6023b","ios":"levelo://app?vid=948d6f9d-2160-4565-8067-fdb4b7d6023b"},"vehicle_type_id":"4","last_reported":1733947866,"current_range_meters":36000,"station_id":"ce4bhm12rcd13ifvqgkg","pricing_plan_id":"cebpf4jnsgd1na2vs0mg"},{"bike_id":"2ebd2fc6-13ac-4b60-8a2e-07cab16d51cc","system_id":"levelo_inurba_marseille","lat":43.24647,"lon":5.38888,"is_reserved":false,"is_disabled":false,"rental_uris":{"android":"levelo://app?vid=2ebd2fc6-13ac-4b60-8a2e-07cab16d51cc","ios":"levelo://app?vid=2ebd2fc6-13ac-4b60-8a2e-07cab16d51cc"},"vehicle_type_id":"4","last_reported":1733947866,"current_range_meters":22000,"station_id":"ce4bhg12rcd13ifvqf60","pricing_plan_id":"cebpf4jnsgd1na2vs0mg"},{"bike_id":"5c3d8406-957f-42de-b213-c402a32956c1","system_id":"levelo_inurba_marseille","lat":43.2838,"lon":5.38632,"is_reserved":false,"is_disabled":false,"rental_uris":{"android":"levelo://app?vid=5c3d8406-957f-42de-b213-c402a32956c1","ios":"levelo://app?vid=5c3d8406-957f-42de-b213-c402a32956c1"},"vehicle_type_id":"4","last_reported":1733947866,"current_range_meters":11600,"station_id":"ce4bh492rcd13ifvqdvg","pricing_plan_id":"cebpf4jnsgd1na2vs0mg"},