{"last_updated":1708196738,"ttl":30,"version":"2.2","data":{"bikes":[{"bike_id":"82da3a10-90d6-4f03-80d3-b8a2c4c7662c","system_id":"levelo_inurba_marseille","lat":43.31341,"lon":5.367098,"is_reserved":false,"is_disabled":false,"rental_uris":{"android":"levelo://app?vid=82da3a10-90d6-4f03-80d3-b8a2c4c7662c","ios":"levelo://app?vid=82da3a10-90d6-4f03-80d3-b8a2c4c7662c"},"vehicle_type_id":"4","last_reported":1708196738,"current_range_meters":26000,"station_id":"ce4bgr92rcd13ifvqc6g","pricing_plan_id":"cebpf4jnsgd1na2vs0mg"},{"bike_id":"733c2819-e3dd-4905-9ce7-3056d47b1a25","system_id":"levelo_inurba_marseille","lat":43.313585,"lon":5.36711,"is_reserved":false,"is_disabled":false,"rental_uris":{"android":"levelo://app?vid=733c2819-e3dd-4905-9ce7-3056d47b1a25","ios":"levelo://app?vid=733c2819-e3dd-4905-9ce7-3056d47b1a25"},"vehicle_type_id":"4","last_reported":1708196738,"current_range_meters":0,"station_id":"ce4bgr92rcd13ifvqc6g","pricing_plan_id":"cebpf4jnsgd1na2vs0mg"},{"bike_id":"b7b4c4a1-028e-42ab-911a-7981d3f59209","system_id":"levelo_inurba_marseille","lat":43.312239,"lon":5.368562,"is_reserved":false,"is_disabled":false,"rental_uris":{"android":"levelo://app?vid=b7b4c4a1-028e-42ab-911a-7981d3f59209","ios":"levelo://app?vid=b7b4c4a1-028e-42ab-911a-7981d3f59209"},"vehicle_type_id":"4","last_reported":1708196738,"current_range_meters":31200,"station_id":"ce4bgl92rcd13ifvqbq0","pricing_plan_id":"cebpf4jnsgd1na2vs0mg"},{"bike_id":"499db1b8-1bb9-4429-96b0-6c20ed9b200e","system_id":"levelo_inurba_marseille","lat":43.312239,"lon":5.368562,"is_reserved":false,"is_disabled":false,"rental_uris":{"android":"levelo://app?vid=499db1b8-1bb9-4429-96b0-6c20ed9b200e","ios":"levelo://app?vid=499db1b8-1bb9-4429-96b0-6c20ed9b200e"},"vehicle_type_id":"4","last_reported":1708196738,"current_range_meters":18800,"station_id":"ce4bgl92rcd13ifvqbq0","pricing_plan_id":"cebpf4jnsgd1na2vs0mg"},{"bike_id":"c1487fa7-a8d5-45a2-8628-4bef6239d170","system_id":"levelo_inurba_marseille","lat":43.312239,"lon":5.368562,"is_reserved":false,"is_disabled":false,"rental_uris":{"android":"levelo://app?vid=c1487fa7-a8d5-45a2-8628-4bef6239d170","ios":"levelo://app?vid=c1487fa7-a8d5-45a2-8628-4bef6239d170"},"vehicle_type_id":"4","last_reported":1708196738,"current_range_meters":4000,"station_id":"ce4bgl92rcd13ifvqbq0","pricing_plan_id":"cebpf4jnsgd1na2vs0mg"},{"bike_id":"07d4415f-1a4a-407a-8012-8d939c250035","system_id":"levelo_inurba_marseille","lat":43.312239,"lon":5.368562,"is_reserved":false,"is_disabled":false,"rental_uris":{"android":"levelo://app?vid=07d4415f-1a4a-407a-8012-8d939c250035","ios":"levelo://app?vid=07d4415f-1a4a-407a-8012-8d939c250035"},"vehicle_type_id":"4","last_reported":1708196738,"current_range_meters":8400,"station_id":"ce4bgl92rcd13ifvqbq0","pricing_plan_id":"cebpf4jnsgd1na2vs0mg"},{"bike_id":"74ef5114-b736-4964-a226-1a898063f01f","system_id":"levelo_inurba_marseille","lat":43.309076,"lon":5.368465,"is_reserved":false,"is_disabled":false,"rental_uris":{"android":"levelo://app?vid=74ef5114-b736-4964-a226-1a898063f01f","ios":"levelo://app?vid=74ef5114-b736-4964-a226-1a898063f01f"},"vehicle_type_id":"4","last_reported":1708196738,"current_range_meters":19200,"station_id":"ce4bgn92rcd13ifvqbvg","pricing_plan_id":"cebpf4jnsgd1na2vs0mg"},{"bike_id":"bc607da6-b789-422f-8ee9-bb241b36b06d","system_id":"levelo_inurba_marseille","lat":43.309076,"lon":5.368465,"is_reserved":false,"is_disabled":false,"rental_uris":{"android":"levelo://app?vid=bc607da6-b789-422f-8ee9-bb241b36b06d","ios":"levelo://app?vid=bc607da6-b789-422f-8ee9-bb241b36b06d"},"vehicle_type_id":"4","last_reported":1708196738,"current_range_meters":14400,"station_id":"ce4bgn92rcd13ifvqbvg","pricing_plan_id":"cebpf4jnsgd1na2vs0mg"},{"bike_id":"bdcbf557-d3c8-40ac-94bf-79daa7410605","system_id":"levelo_inurba_marseille","lat":43.309076,"lon":5.368465,"is_reserved":false,"is_disabled":false,"rental_uris":{"android":"levelo://app?vid=bdcbf557-d3c8-40ac-94bf-79daa7410605","ios":"levelo://app?vid=bdcbf557-d3c8-40ac-94bf-79daa7410605"},"vehicle_type_id":"4","last_reported":1708196738,"current_range_meters":2000,"station_id":"ce4bgn92rcd13ifvqbvg","pricing_plan_id":"cebpf4jnsgd1na2vs0mg"},{"bike_id":"2c120642-a632-46c8-91df-9db39bd09600","system_id":"levelo_inurba_marseille","lat":43.309039,"lon":5.371797,"is_reserved":false,"is_disabled":false,"rental_uris":{"android":"levelo://app?vid=2c120642-a632-46c8-91df-9db39bd09600","ios":"levelo://app?vid=2c120642-a632-46c8-91df-9db39bd09600"},"vehicle_type_id":"4","last_reported":1708196738,"current_range_meters":22000,"station_id":"ce4bguh2rcd13ifvqckg","pricing_plan_id":"cebpf4jnsgd1na2vs0mg"},{"bike_id":"11afb1a2-ed29-4049-b396-cd1585f0bf55","system_id":"levelo_inurba_marseille","lat":43.309039,"lon":5.371797,"is_reserved":false,"is_disabled":false,"rental_uris":{"android":"levelo://app?vid=11afb1a2-ed29-4049-b396-cd1585f0bf55","ios":"levelo://app?vid=11afb1a2-ed29-4049-b396-cd1585f0bf55"},"vehicle_type_id":"4","last_reported":1708196738,"current_range_meters":11600,"station_id":"ce4bguh2rcd13ifvqckg","pricing_plan_id":"cebpf4jnsgd1na2vs0mg"},{"bike_id":"3486c5e9-a82a-459a-9d3d-1fbc5823dd99","system_id":"levelo_inurba_marseille","lat":43.29602,"lon":5.381084,"is_reserved":false,"is_disabled":false,"rental_uris":{"android":"levelo://app?vid=3486c5e9-a82a-459a-9d3d-1fbc5823dd99","ios":"levelo://app?vid=3486c5e9-a82a-459a-9d3d-1fbc5823dd99"},"vehicle_type_id":"4","last_reported":1708196738,"current_range_meters":3600,"station_id":"ce4bgl12rcd13ifvqbo0","pricing_plan_id":"cebpf4jnsgd1na2vs0mg"},{"bike_id":"e56953e0-a4b0-45ab-9049-accca79485e6","system_id":"levelo_inurba_marseille","lat":43.305368,"lon":5.367343,"is_reserved":false,"is_disabled":false,"rental_uris":{"android":"levelo://app?vid=e56953e0-a4b0-45ab-9049-accca79485e6","ios":"levelo://app?vid=e56953e0-a4b0-45ab-9049-accca79485e6"},"vehicle_type_id":"4","last_reported":1708196738,"current_range_meters":20800,"station_id":"ce4bgrp2rcd13ifvqc9g","pricing_plan_id":"cebpf4jnsgd1na2vs0mg"},{"bike_id":"a4672db1-8d96-4f68-95a6-a5cc2e030f57","system_id":"levelo_inurba_marseille","lat":43.305368,"lon":5.367343,"is_reserved":false,"is_disabled":false,"rental_uris":{"android":"levelo://app?vid=a4672db1-8d96-4f68-95a6-a5cc2e030f57","ios":"levelo://app?vid=a4672db1-8d96-4f68-95a6-a5cc2e030f57"},"vehicle_type_id":"4","last_reported":1708196738,"current_range_meters":0,"station_id":"ce4bgrp2rcd13ifvqc9g","pricing_plan_id":"cebpf4jnsgd1na2vs0mg"},{"bike_id":"7f9fe338-391e-4751-8d20-7c7226da91f4","system_id":"levelo_inurba_marseille","lat":43.305989,"lon":5.37225,"is_reserved":false,"is_disabled":false,"rental_uris":{"android":"levelo://app?vid=7f9fe338-391e-4751-8d20-7c7226da91f4","ios":"levelo://app?vid=7f9fe338-391e-4751-8d20-7c7226da91f4"},"vehicle_type_id":"4","last_reported":1708196738,"current_range_meters":18000,"station_id":"ce4bgqh2rcd13ifvqc4g","pricing_plan_id":"cebpf4jnsgd1na2vs0mg"},{"bike_id":"8d2d8548-6db5-4da7-a592-fdef3f6b6faf","system_id":"levelo_inurba_marseille","lat":43.305989,"lon":5.37225,"is_reserved":false,"is_disabled":false,"rental_uris":{"android":"levelo://app?vid=8d2d8548-6db5-4da7-a592-fdef3f6b6faf","ios":"levelo://app?vid=8d2d8548-6db5-4da7-a592-fdef3f6b6faf"},"vehicle_type_id":"4","last_reported":1708196738,"current_range_meters":17200,"station_id":"ce4bgqh2rcd13ifvqc4g","pricing_plan_id":"cebpf4jnsgd1na2vs0mg"},{"bike_id":"34b1a397-adcb-461c-ac7f-e3c5edfd9637","system_id":"levelo_inurba_marseille","lat":43.305989,"lon":5.37225,"is_reserved":false,"is_disabled":false,"rental_uris":{"android":"levelo://app?vid=34b1a397-adcb-461c-ac7f-e3c5edfd9637","ios":"levelo://app?vid=34b1a397-adcb-461c-ac7f-e3c5edfd9637"},"vehicle_type_id":"4","last_reported":1708196738,"current_range_meters":16000,"station_id":"ce4bgqh2rcd13ifvqc4g","pricing_plan_id":"cebpf4jnsgd1na2vs0mg"},{"bike_id":"432314f3-0481-429b-a924-9c76ecdbd465","system_id":"levelo_inurba_marseille","lat":43.311131,"lon":5.377651,"is_reserved":false,"is_disabled":false,"rental_uris":{"android":"levelo://app?vid=432314f3-0481-429b-a924-9c76ecdbd465","ios":"levelo://app?vid=432314f3-0481-429b-a924-9c76ecdbd465"},"vehicle_type_id":"4","last_reported":1708196738,"current_range_meters":14000,"station_id":"ce4bgt92rcd13ifvqcg0","pricing_plan_id":"cebpf4jnsgd1na2vs0mg"},{"bike_id":"400481a4-4d0f-499e-af9c-6e62ee30cbb4","system_id":"levelo_inurba_marseille","lat":43.305989,"lon":5.37225,"is_reserved":false,"is_disabled":false,"rental_uris":{"android":"levelo://app?vid=400481a4-4d0f-499e-af9c-6e62ee30cbb4","ios":"levelo://app?vid=400481a4-4d0f-499e-af9c-6e62ee30cbb4"},"vehicle_type_id":"4","last_reported":1708196738,"current_range_meters":24400,"station_id":"ce4bgqh2rcd13ifvqc4g","pricing_plan_id":"cebpf4jnsgd1na2vs0mg"},{"bike_id":"8a72b1e0-690d-4bf2-9c75-40846f0c04b0","system_id":"levelo_inurba_marseille","lat":43.305989,"lon":5.37225,"is_reserved":false,"is_disabled":false,"rental_uris":{"android":"levelo://app?vid=8a72b1e0-690d-4bf2-9c75-40846f0c04b0","ios":"levelo://app?vid=8a72b1e0-690d-4bf2-9c75-40846f0c04b0"},"vehicle_type_id":"4","last_reported":1708196738,"current_range_meters":21600,"station_id":"ce4bgqh2rcd13ifvqc4g","pricing_plan_id":"cebpf4jnsgd1na2vs0mg"},{"bike_id":"24bee3cb-e713-4877-af03-70503df5a324","system_id":"levelo_inurba_marseille","lat":43.305989,"lon":5.37225,"is_reserved":false,"is_disabled":false,"rental_uris":{"android":"levelo://app?vid=24bee3cb-e713-4877-af03-70503df5a324","ios":"levelo://app?vid=24bee3cb-e713-4877-af03-70503df5a324"},"vehicle_type_id":"4","last_reported":1708196738,"current_range_meters":24800,"station_id":"ce4bgqh2rcd13ifvqc4g","pricing_plan_id":"cebpf4jnsgd1na2vs0mg"},{"bike_id":"b7eab2d9-638f-4db4-98d7-0c33de4c9bc7","system_id":"levelo_inurba_marseille","lat":43.311125,"lon":5.377624,"is_reserved":false,"is_disabled":false,"rental_uris":{"android":"levelo://app?vid=b7eab2d9-638f-4db4-98d7-0c33de4c9bc7","ios":"levelo://app?vid=b7eab2d9-638f-4db4-98d7-0c33de4c9bc7"},"vehicle_type_id":"4","last_reported":1708196738,"current_range_meters":5200,"station_id":"ce4bgt92rcd13ifvqcg0","pricing_plan_id":"cebpf4jnsgd1na2vs0mg"},{"bike_id":"224655de-ccd5-4d34-a55e-a487e1e68703","system_id":"levelo_inurba_marseille","lat":43.311131,"lon":5.377651,"is_reserved":false,"is_disabled":false,"rental_uris":{"android":"levelo://app?vid=224655de-ccd5-4d34-a55e-a487e1e68703","ios":"levelo://app?vid=224655de-ccd5-4d34-a55e-a487e1e68703"},"vehicle_type_id":"4","last_reported":1708196738,"current_range_meters":18800,"station_id":"ce4bgt92rcd13ifvqcg0","pricing_plan_id":"cebpf4jnsgd1na2vs0mg"},{"bike_id":"cad8b10b-5f9b-4a74-a29c-f5ab30ba76a7","system_id":"levelo_inurba_marseille","lat":43.311125,"lon":5.377624,"is_reserved":false,"is_disabled":false,"rental_uris":{"android":"levelo://app?vid=cad8b10b-5f9b-4a74-a29c-f5ab30ba76a7","ios":"levelo://app?vid=cad8b10b-5f9b-4a74-a29c-f5ab30ba76a7"},"vehicle_type_id":"4","last_reported":1708196738,"current_range_meters":15200,"station_id":"ce4bgt92rcd13ifvqcg0","pricing_plan_id":"cebpf4jnsgd1na2vs0mg"},{"bike_id":"f2cfc9b7-235b-410c-9b82-45a49b6b46dd","system_id":"levelo_inurba_marseille","lat":43.305989,"lon":5.37225,"is_reserved":false,"is_disabled":false,"rental_uris":{"android":"levelo://app?vid=f2cfc9b7-235b-410c-9b82-45a49b6b46dd","ios":"levelo://app?vid=f2cfc9b7-235b-410c-9b82-45a49b6b46dd"},"vehicle_type_id":"4","last_reported":1708196738,"current_range_meters":24400,"station_id":"ce4bgqh2rcd13ifvqc4g","pricing_plan_id":"cebpf4jnsgd1na2vs0mg"},{"bike_id":"5fc6428b-36e0-4a4b-a0ee-ccaba919c180","system_id":"levelo_inurba_marseille","lat":43.317075,"lon":5.377367,"is_reserved":false,"is_disabled":false,"rental_uris":{"android":"levelo://app?vid=5fc6428b-36e0-4a4b-a0ee-ccaba919c180","ios":"levelo://app?vid=5fc6428b-36e0-4a4b-a0ee-ccaba919c180"},"vehicle_type_id":"4","last_reported":1708196738,"current_range_meters":30400,"station_id":"ce4bgth2rcd13ifvqch0","pricing_plan_id":"cebpf4jnsgd1na2vs0mg"},{"bike_id":"5d7196d7-a09a-47e5-9701-4fb8016f2bed","system_id":"levelo_inurba_marseille","lat":43.317075,"lon":5.377367,"is_reserved":false,"is_disabled":false,"rental_uris":{"android":"levelo://app?vid=5d7196d7-a09a-47e5-9701-4fb8016f2bed","ios":"levelo://app?vid=5d7196d7-a09a-47e5-9701-4fb8016f2bed"},"vehicle_type_id":"4","last_reported":1708196738,"current_range_meters":17200,"station_id":"ce4bgth2rcd13ifvqch0","pricing_plan_id":"cebpf4jnsgd1na2vs0mg"},{"bike_id":"f47def26-451a-41f5-8a5c-d74e0df02175","system_id":"levelo_inurba_marseille","lat":43.303046,"lon":5.368981,"is_reserved":false,"is_disabled":false,"rental_uris":{"android":"levelo://app?vid=f47def26-451a-41f5-8a5c-d74e0df02175","ios":"levelo://app?vid=f47def26-451a-41f5-8a5c-d74e0df02175"},"vehicle_type_id":"4","last_reported":1708196738,"current_range_meters":400,"station_id":"ce4bgqh2rcd13ifvqc5g","pricing_plan_id":"cebpf4jnsgd1na2vs0mg"},{"bike_id":"84ec658e-d752-4a29-85ad-917fd2a76c75","system_id":"levelo_inurba_marseille","lat":43.303046,"lon":5.368981,"is_reserved":false,"is_disabled":false,"rental_uris":{"android":"levelo://app?vid=84ec658e-d752-4a29-85ad-917fd2a76c75","ios":"levelo://app?vid=84ec658e-d752-4a29-85ad-917fd2a76c75"},"vehicle_type_id":"4","last_reported":1708196738,"current_range_meters":2000,"station_id":"ce4bgqh2rcd13ifvqc5g","pricing_plan_id":"cebpf4jnsgd1na2vs0mg"},{"bike_id":"3a97c8b0-1539-490f-91af-0278f9343be5","system_id":"levelo_inurba_marseille","lat":43.303046,"lon":5.368981,"is_reserved":false,"is_disabled":false,"rental_uris":{"android":"levelo://app?vid=3a97c8b0-1539-490f-91af-0278f9343be5","ios":"levelo://app?vid=3a97c8b0-1539-490f-91af-0278f9343be5"},"vehicle_type_id":"4","last_reported":1708196738,"current_range_meters":22400,"station_id":"ce4bgqh2rcd13ifvqc5g","pricing_plan_id":"cebpf4jnsgd1na2vs0mg"},{"bike_id":"cc011084-1c94-4953-a92a-42803ec91860","system_id":"levelo_inurba_marseille","lat":43.32177,"lon":5.37487,"is_reserved":false,"is_disabled":false,"rental_uris":{"android":"levelo://app?vid=cc011084-1c94-4953-a92a-42803ec91860","ios":"levelo://app?vid=cc011084-1c94-4953-a92a-42803ec91860"},"vehicle_type_id":"4","last_reported":1708196738,"current_range_meters":10000,"station_id":"","pricing_plan_id":"cebpf4jnsgd1na2vs0mg"},{"bike_id":"64a26710-d477-4849-a173-d4c3e0d9f429","system_id":"levelo_inurba_marseille","lat":43.308012,"lon":5.381511,"is_reserved":false,"is_disabled":false,"rental_uris":{"android":"levelo://app?vid=64a26710-d477-4849-a173-d4c3e0d9f429","ios":"levelo://app?vid=64a26710-d477-4849-a173-d4c3e0d9f429"},"vehicle_type_id":"4","last_reported":1708196738,"current_range_meters":24000,"station_id":"ce4bgt12rcd13ifvqce0","pricing_plan_id":"cebpf4jnsgd1na2vs0mg"},{"bike_id":"4b06259d-e1d8-4fd6-abf4-3a99eec7eeb9","system_id":"levelo_inurba_marseille","lat":43.30805,"lon":5.38156,"is_reserved":false,"is_disabled":false,"rental_uris":{"android":"levelo://app?vid=4b06259d-e1d8-4fd6-abf4-3a99eec7eeb9","ios":"levelo://app?vid=4b06259d-e1d8-4fd6-abf4-3a99eec7eeb9"},"vehicle_type_id":"4","last_reported":1708196738,"current_range_meters":0,"station_id":"ce4bgt12rcd13ifvqce0","pricing_plan_id":"cebpf4jnsgd1na2vs0mg"},{"bike_id":"81ec84f1-d819-4b43-9499-8b21292b4408","system_id":"levelo_inurba_marseille","lat":43.304606,"lon":5.379026,"is_reserved":false,"is_disabled":false,"rental_uris":{"android":"levelo://app?vid=81ec84f1-d819-4b43-9499-8b21292b4408","ios":"levelo://app?vid=81ec84f1-d819-4b43-9499-8b21292b4408"},"vehicle_type_id":"4","last_reported":1708196738,"current_range_meters":0,"station_id":"ce4bgup2rcd13ifvqcn0","pricing_plan_id":"cebpf4jnsgd1na2vs0mg"},{"bike_id":"ae6d477f-cfc3-48d6-a4b4-33959153e5fc","system_id":"levelo_inurba_marseille","lat":43.310804,"lon":5.38359,"is_reserved":false,"is_disabled":false,"rental_uris":{"android":"levelo://app?vid=ae6d477f-cfc3-48d6-a4b4-33959153e5fc","ios":"levelo://app?vid=ae6d477f-cfc3-48d6-a4b4-33959153e5fc"},"vehicle_type_id":"4","last_reported":1708196738,"current_range_meters":2400,"station_id":"ce4bgv92rcd13ifvqcr0","pricing_plan_id":"cebpf4jnsgd1na2vs0mg"},{"bike_id":"4d566e4c-125e-4e70-a07f-270b4c9cd38b","system_id":"levelo_inurba_marseille","lat":43.324771,"lon":5.36557,"is_reserved":false,"is_disabled":false,"rental_uris":{"android":"levelo://app?vid=4d566e4c-125e-4e70-a07f-270b4c9cd38b","ios":"levelo://app?vid=4d566e4c-125e-4e70-a07f-270b4c9cd38b"},"vehicle_type_id":"4","last_reported":1708196738,"current_range_meters":12400,"station_id":"ce4bhs12rcd13ifvqhvg","pricing_plan_id":"cebpf4jnsgd1na2vs0mg"},{"bike_id":"66c512bf-acab-4702-ba43-f4af8a53fc57","system_id":"levelo_inurba_marseille","lat":43.324771,"lon":5.36557,"is_reserved":false,"is_disabled":false,"rental_uris":{"android":"levelo://app?vid=66c512bf-acab-4702-ba43-f4af8a53fc57","ios":"levelo://app?vid=66c512bf-acab-4702-ba43-f4af8a53fc57"},"vehicle_type_id":"4","last_reported":1708196738,"current_range_meters":2400,"station_id":"ce4bhs12rcd13ifvqhvg","pricing_plan_id":"cebpf4jnsgd1na2vs0mg"},{"bike_id":"b58f9322-e72c-44cb-875a-8a661b34e40e","system_id":"levelo_inurba_marseille","lat":43.310804,"lon":5.38359,"is_reserved":false,"is_disabled":false,"rental_uris":{"android":"levelo://app?vid=b58f9322-e72c-44cb-875a-8a661b34e40e","ios":"levelo://app?vid=b58f9322-e72c-44cb-875a-8a661b34e40e"},"vehicle_type_id":"4","last_reported":1708196738,"current_range_meters":0,"station_id":"ce4bgv92rcd13ifvqcr0","pricing_plan_id":"cebpf4jnsgd1na2vs0mg"},{"bike_id":"94849fe8-9bbe-44a1-ae33-2cb08d7e19c2","system_id":"levelo_inurba_marseille","lat":43.302784,"lon":5.377158,"is_reserved":false,"is_disabled":false,"rental_uris":{"android":"levelo://app?vid=94849fe8-9bbe-44a1-ae33-2cb08d7e19c2","ios":"levelo://app?vid=94849fe8-9bbe-44a1-ae33-2cb08d7e19c2"},"vehicle_type_id":"4","last_reported":1708196738,"current_range_meters":2800,"station_id":"ce4bguh2rcd13ifvqcj0","pricing_plan_id":"cebpf4jnsgd1na2vs0mg"},{"bike_id":"ad4504ad-6488-4262-a2b0-e65fcf62692c","system_id":"levelo_inurba_marseille","lat":43.301429,"lon":5.37413,"is_reserved":false,"is_disabled":false,"rental_uris":{"android":"levelo://app?vid=ad4504ad-6488-4262-a2b0-e65fcf62692c","ios":"levelo://app?vid=ad4504ad-6488-4262-a2b0-e65fcf62692c"},"vehicle_type_id":"4","last_reported":1708196738,"current_range_meters":20400,"station_id":"ce4bgs92rcd13ifvqcc0","pricing_plan_id":"cebpf4jnsgd1na2vs0mg"},{"bike_id":"16157779-4ae3-46c4-afa7-eb743b6df737","system_id":"levelo_inurba_marseille","lat":43.319935,"lon":5.381699,"is_reserved":false,"is_disabled":false,"rental_uris":{"android":"levelo://app?vid=16157779-4ae3-46c4-afa7-eb743b6df737","ios":"levelo://app?vid=16157779-4ae3-46c4-afa7-eb743b6df737"},"vehicle_type_id":"4","last_reported":1708196738,"current_range_meters":5600,"station_id":"ce4bhr12rcd13ifvqhpg","pricing_plan_id":"cebpf4jnsgd1na2vs0mg"},{"bike_id":"59e2cf64-f519-404e-b615-b29e9f6c4419","system_id":"levelo_inurba_marseille","lat":43.313571,"lon":5.384829,"is_reserved":false,"is_disabled":false,"rental_uris":{"android":"levelo://app?vid=59e2cf64-f519-404e-b615-b29e9f6c4419","ios":"levelo://app?vid=59e2cf64-f519-404e-b615-b29e9f6c4419"},"vehicle_type_id":"4","last_reported":1708196738,"current_range_meters":18000,"station_id":"ce4bgt92rcd13ifvqcf0","pricing_plan_id":"cebpf4jnsgd1na2vs0mg"},{"bike_id":"11298de3-ca59-4aa4-a005-860ac338509b","system_id":"levelo_inurba_marseille","lat":43.313571,"lon":5.384829,"is_reserved":false,"is_disabled":false,"rental_uris":{"android":"levelo://app?vid=11298de3-ca59-4aa4-a005-860ac338509b","ios":"levelo://app?vid=11298de3-ca59-4aa4-a005-860ac338509b"},"vehicle_type_id":"4","last_reported":1708196738,"current_range_meters":13600,"station_id":"ce4bgt92rcd13ifvqcf0","pricing_plan_id":"cebpf4jnsgd1na2vs0mg"},{"bike_id":"470c7419-98e3-4059-adc8-fb445c6e4847","system_id":"levelo_inurba_marseille","lat":43.313571,"lon":5.384829,"is_reserved":false,"is_disabled":false,"rental_uris":{"android":"levelo://app?vid=470c7419-98e3-4059-adc8-fb445c6e4847","ios":"levelo://app?vid=470c7419-98e3-4059-adc8-fb445c6e4847"},"vehicle_type_id":"4","last_reported":1708196738,"current_range_meters":0,"station_id":"ce4bgt92rcd13ifvqcf0","pricing_plan_id":"cebpf4jnsgd1na2vs0mg"},{"bike_id":"7351b036-da5e-4ccc-94e6-533e1af4474b","system_id":"levelo_inurba_marseille","lat":43.313571,"lon":5.384829,"is_reserved":false,"is_disabled":false,"rental_uris":{"android":"levelo://app?vid=7351b036-da5e-4ccc-94e6-533e1af4474b","ios":"levelo://app?vid=7351b036-da5e-4ccc-94e6-533e1af4474b"},"vehicle_type_id":"4","last_reported":1708196738,"current_range_meters":400,"station_id":"ce4bgt92rcd13ifvqcf0","pricing_plan_id":"cebpf4jnsgd1na2vs0mg"},{"bike_id":"d7122a35-34e0-4200-8fdb-176c8fed4439","system_id":"levelo_inurba_marseille","lat":43.313571,"lon":5.384829,"is_reserved":false,"is_disabled":false,"rental_uris":{"android":"levelo://app?vid=d7122a35-34e0-4200-8fdb-176c8fed4439","ios":"levelo://app?vid=d7122a35-34e0-4200-8fdb-176c8fed4439"},"vehicle_type_id":"4","last_reported":1708196738,"current_range_meters":30800,"station_id":"ce4bgt92rcd13ifvqcf0","pricing_plan_id":"cebpf4jnsgd1na2vs0mg"},{"bike_id":"04491044-92bf-4325-b3a1-6f8fab8c5b25","system_id":"levelo_inurba_marseille","lat":43.313571,"lon":5.384829,"is_reserved":false,"is_disabled":false,"rental_uris":{"android":"levelo://app?vid=04491044-92bf-4325-b3a1-6f8fab8c5b25","ios":"levelo://app?vid=04491044-92bf-4325-b3a1-6f8fab8c5b25"},"vehicle_type_id":"4","last_reported":1708196738,"current_range_meters":21200,"station_id":"ce4bgt92rcd13ifvqcf0","pricing_plan_id":"cebpf4jnsgd1na2vs0mg"},{"bike_id":"c968f80b-2ec7-4b98-8c37-172493c3f763","system_id":"levelo_inurba_marseille","lat":43.313571,"lon":5.384829,"is_reserved":false,"is_disabled":false,"rental_uris":{"android":"levelo://app?vid=c968f80b-2ec7-4b98-8c37-172493c3f763","ios":"levelo://app?vid=c968f80b-2ec7-4b98-8c37-172493c3f763"},"vehicle_type_id":"4","last_reported":1708196738,"current_range_meters":12400,"station_id":"ce4bgt92rcd13ifvqcf0","pricing_plan_id":"cebpf4jnsgd1na2vs0mg"},{"bike_id":"8ad2f7eb-9f56-42cc-ae45-c63959f806f0","system_id":"levelo_inurba_marseille","lat":43.313571,"lon":5.384829,"is_reserved":false,"is_disabled":false,"rental_uris":{"android":"levelo://app?vid=8ad2f7eb-9f56-42cc-ae45-c63959f806f0","ios":"levelo://app?vid=8ad2f7eb-9f56-42cc-ae45-c63959f806f0"},"vehicle_type_id":"4","last_reported":1708196738,"current_range_meters":20000,"station_id":"ce4bgt92rcd13ifvqcf0","pricing_plan_id":"cebpf4jnsgd1na2vs0mg"},{"bike_id":"c4b45808-8f51-4481-a9ed-6ce508005c9f","system_id":"levelo_inurba_marseille","lat":43.313571,"lon":5.384829,"is_reserved":false,"is_disabled":false,"rental_uris":{"android":"levelo://app?vid=c4b45808-8f51-4481-a9ed-6ce508005c9f","ios":"levelo://app?vid=c4b45808-8f51-4481-a9ed-6ce508005c9f"},"vehicle_type_id":"4","last_reported":1708196738,"current_range_meters":17600,"station_id":"ce4bgt92rcd13ifvqcf0","pricing_plan_id":"cebpf4jnsgd1na2vs0mg"},{"bike_id":"4700df60-0695-4a2f-b332-a6a3369d937c","system_id":"levelo_inurba_marseille","lat":43.313571,"lon":5.384829,"is_reserved":false,"is_disabled":false,"rental_uris":{"android":"levelo://app?vid=4700df60-0695-4a2f-b332-a6a3369d937c","ios":"levelo://app?vid=4700df60-0695-4a2f-b332-a6a3369d937c"},"vehicle_type_id":"4","last_reported":1708196738,"current_range_meters":4000,"station_id":"ce4bgt92rcd13ifvqcf0","pricing_plan_id":"cebpf4jnsgd1na2vs0mg"},{"bike_id":"1dac90cc-342b-4092-8352-c42a71902b45","system_id":"levelo_inurba_marseille","lat":43.313571,"lon":5.384829,"is_reserved":false,"is_disabled":false,"rental_uris":{"android":"levelo://app?vid=1dac90cc-342b-4092-8352-c42a71902b45","ios":"levelo://app?vid=1dac90cc-342b-4092-8352-c42a71902b45"},"vehicle_type_id":"4","last_reported":1708196738,"current_range_meters":18000,"station_id":"ce4bgt92rcd13ifvqcf0","pricing_plan_id":"cebpf4jnsgd1na2vs0mg"},{"bike_id":"622e0355-0f36-4512-9aa4-3384b16bfea4","system_id":"levelo_inurba_marseille","lat":43.313571,"lon":5.384829,"is_reserved":false,"is_disabled":false,"rental_uris":{"android":"levelo://app?vid=622e0355-0f36-4512-9aa4-3384b16bfea4","ios":"levelo://app?vid=622e0355-0f36-4512-9aa4-3384b16bfea4"},"vehicle_type_id":"4","last_reported":1708196738,"current_range_meters":28000,"station_id":"ce4bgt92rcd13ifvqcf0","pricing_plan_id":"cebpf4jnsgd1na2vs0mg"},{"bike_id":"bd4b7dd6-7470-4274-90a8-c4363f149003","system_id":"levelo_inurba_marseille","lat":43.313571,"lon":5.384829,"is_reserved":false,"is_disabled":false,"rental_uris":{"android":"levelo://app?vid=bd4b7dd6-7470-4274-90a8-c4363f149003","ios":"levelo://app?vid=bd4b7dd6-7470-4274-90a8-c4363f149003"},"vehicle_type_id":"4","last_reported":1708196738,"current_range_meters":15200,"station_id":"ce4bgt92rcd13ifvqcf0","pricing_plan_id":"cebpf4jnsgd1na2vs0mg"},{"bike_id":"a26c9355-13fd-4a89-ac92-a859584824cf","system_id":"levelo_inurba_marseille","lat":43.29989,"lon":5.37178,"is_reserved":false,"is_disabled":false,"rental_uris":{"android":"levelo://app?vid=a26c9355-13fd-4a89-ac92-a859584824cf","ios":"levelo://app?vid=a26c9355-13fd-4a89-ac92-a859584824cf"},"vehicle_type_id":"4","last_reported":1708196738,"current_range_meters":29200,"station_id":"ce4bgr92rcd13ifvqc7g","pricing_plan_id":"cebpf4jnsgd1na2vs0mg"},{"bike_id":"c3bddf53-8141-4c24-88f0-5f22c4ec761e","system_id":"levelo_inurba_marseille","lat":43.299222,"lon":5.365554,"is_reserved":false,"is_disabled":false,"rental_uris":{"android":"levelo://app?vid=c3bddf53-8141-4c24-88f0-5f22c4ec761e","ios":"levelo://app?vid=c3bddf53-8141-4c24-88f0-5f22c4ec761e"},"vehicle_type_id":"4","last_reported":1708196738,"current_range_meters":23200,"station_id":"ce4bgm92rcd13ifvqbr0","pricing_plan_id":"cebpf4jnsgd1na2vs0mg"},{"bike_id":"a16d2286-bc8e-42e6-8df9-92df60386e50","system_id":"levelo_inurba_marseille","lat":43.299298,"lon":5.365397,"is_reserved":false,"is_disabled":false,"rental_uris":{"android":"levelo://app?vid=a16d2286-bc8e-42e6-8df9-92df60386e50","ios":"levelo://app?vid=a16d2286-bc8e-42e6-8df9-92df60386e50"},"vehicle_type_id":"4","last_reported":1708196738,"current_range_meters":0,"station_id":"ce4bgm92rcd13ifvqbr0","pricing_plan_id":"cebpf4jnsgd1na2vs0mg"},{"bike_id":"3ac40525-3abc-460a-997c-dc9964b1b459","system_id":"levelo_inurba_marseille","lat":43.299724,"lon":5.371829,"is_reserved":false,"is_disabled":false,"rental_uris":{"android":"levelo://app?vid=3ac40525-3abc-460a-997c-dc9964b1b459","ios":"levelo://app?vid=3ac40525-3abc-460a-997c-dc9964b1b459"},"vehicle_type_id":"4","last_reported":1708196738,"current_range_meters":11200,"station_id":"ce4bgr92rcd13ifvqc7g","pricing_plan_id":"cebpf4jnsgd1na2vs0mg"},{"bike_id":"d10e38aa-d58d-438b-b57f-61fa1d53ecd2","system_id":"levelo_inurba_marseille","lat":43.299288,"lon":5.374688,"is_reserved":false,"is_disabled":false,"rental_uris":{"android":"levelo://app?vid=d10e38aa-d58d-438b-b57f-61fa1d53ecd2","ios":"levelo://app?vid=d10e38aa-d58d-438b-b57f-61fa1d53ecd2"},"vehicle_type_id":"4","last_reported":1708196738,"current_range_meters":0,"station_id":"ce4bgjh2rcd13ifvqbg0","pricing_plan_id":"cebpf4jnsgd1na2vs0mg"},{"bike_id":"ba48ead9-6987-4c60-ae77-b63c7ff7e9d1","system_id":"levelo_inurba_marseille","lat":43.311722,"lon":5.387247,"is_reserved":false,"is_disabled":false,"rental_uris":{"android":"levelo://app?vid=ba48ead9-6987-4c60-ae77-b63c7ff7e9d1","ios":"levelo://app?vid=ba48ead9-6987-4c60-ae77-b63c7ff7e9d1"},"vehicle_type_id":"4","last_reported":1708196738,"current_range_meters":22000,"station_id":"ce4bgv12rcd13ifvqcp0","pricing_plan_id":"cebpf4jnsgd1na2vs0mg"},{"bike_id":"01335930-d90f-4c46-83cd-e8191c0a49c7","system_id":"levelo_inurba_marseille","lat":43.298433,"lon":5.362774,"is_reserved":false,"is_disabled":false,"rental_uris":{"android":"levelo://app?vid=01335930-d90f-4c46-83cd-e8191c0a49c7","ios":"levelo://app?vid=01335930-d90f-4c46-83cd-e8191c0a49c7"},"vehicle_type_id":"4","last_reported":1708196738,"current_range_meters":0,"station_id":"ce4bgpp2rcd13ifvqc3g","pricing_plan_id":"cebpf4jnsgd1na2vs0mg"},{"bike_id":"608bf93d-680f-4f32-8ff4-ae87d681cb36","system_id":"levelo_inurba_marseille","lat":43.298433,"lon":5.362774,"is_reserved":false,"is_disabled":false,"rental_uris":{"android":"levelo://app?vid=608bf93d-680f-4f32-8ff4-ae87d681cb36","ios":"levelo://app?vid=608bf93d-680f-4f32-8ff4-ae87d681cb36"},"vehicle_type_id":"4","last_reported":1708196738,"current_range_meters":28800,"station_id":"ce4bgpp2rcd13ifvqc3g","pricing_plan_id":"cebpf4jnsgd1na2vs0mg"},{"bike_id":"47aff497-2976-46d5-9334-781e1964bb51","system_id":"levelo_inurba_marseille","lat":43.298433,"lon":5.362774,"is_reserved":false,"is_disabled":false,"rental_uris":{"android":"levelo://app?vid=47aff497-2976-46d5-9334-781e1964bb51","ios":"levelo://app?vid=47aff497-2976-46d5-9334-781e1964bb51"},"vehicle_type_id":"4","last_reported":1708196738,"current_range_meters":29600,"station_id":"ce4bgpp2rcd13ifvqc3g","pricing_plan_id":"cebpf4jnsgd1na2vs0mg"},{"bike_id":"4813855a-1fd1-4694-9c48-49ff4dddd2f4","system_id":"levelo_inurba_marseille","lat":43.299243,"lon":5.374807,"is_reserved":false,"is_disabled":false,"rental_uris":{"android":"levelo://app?vid=4813855a-1fd1-4694-9c48-49ff4dddd2f4","ios":"levelo://app?vid=4813855a-1fd1-4694-9c48-49ff4dddd2f4"},"vehicle_type_id":"4","last_reported":1708196738,"current_range_meters":4000,"station_id":"ce4bgjh2rcd13ifvqbg0","pricing_plan_id":"cebpf4jnsgd1na2vs0mg"},{"bike_id":"fa2cbc16-d9b1-4082-8888-42ec2d1f9787","system_id":"levelo_inurba_marseille","lat":43.311722,"lon":5.387247,"is_reserved":false,"is_disabled":false,"rental_uris":{"android":"levelo://app?vid=fa2cbc16-d9b1-4082-8888-42ec2d1f9787","ios":"levelo://app?vid=fa2cbc16-d9b1-4082-8888-42ec2d1f9787"},"vehicle_type_id":"4","last_reported":1708196738,"current_range_meters":12400,"station_id":"ce4bgv12rcd13ifvqcp0","pricing_plan_id":"cebpf4jnsgd1na2vs0mg"},{"bike_id":"7603bb76-6f30-4b28-bc97-6ba39430e886","system_id":"levelo_inurba_marseille","lat":43.311722,"lon":5.387247,"is_reserved":false,"is_disabled":false,"rental_uris":{"android":"levelo://app?vid=7603bb76-6f30-4b28-bc97-6ba39430e886","ios":"levelo://app?vid=7603bb76-6f30-4b28-bc97-6ba39430e886"},"vehicle_type_id":"4","last_reported":1708196738,"current_range_meters":5600,"station_id":"ce4bgv12rcd13ifvqcp0","pricing_plan_id":"cebpf4jnsgd1na2vs0mg"},{"bike_id":"efffa7c7-2f10-42ea-8071-ff1b4b7b7a1e","system_id":"levelo_inurba_marseille","lat":43.311722,"lon":5.387247,"is_reserved":false,"is_disabled":false,"rental_uris":{"android":"levelo://app?vid=efffa7c7-2f10-42ea-8071-ff1b4b7b7a1e","ios":"levelo://app?vid=efffa7c7-2f10-42ea-8071-ff1b4b7b7a1e"},"vehicle_type_id":"4","last_reported":1708196738,"current_range_meters":12800,"station_id":"ce4bgv12rcd13ifvqcp0","pricing_plan_id":"cebpf4jnsgd1na2vs0mg"},{"bike_id":"f19acdfb-7152-41ac-85b8-ce100bd30b3d","system_id":"levelo_inurba_marseille","lat":43.305364,"lon":5.384119,"is_reserved":false,"is_disabled":false,"rental_uris":{"android":"levelo://app?vid=f19acdfb-7152-41ac-85b8-ce100bd30b3d","ios":"levelo://app?vid=f19acdfb-7152-41ac-85b8-ce100bd30b3d"},"vehicle_type_id":"4","last_reported":1708196738,"current_range_meters":18400,"station_id":"ce4bgg92rcd13ifvqb30","pricing_plan_id":"cebpf4jnsgd1na2vs0mg"},{"bike_id":"15f37670-1584-4d1a-8082-554ee13ad03b","system_id":"levelo_inurba_marseille","lat":43.322872,"lon":5.382756,"is_reserved":false,"is_disabled":false,"rental_uris":{"android":"levelo://app?vid=15f37670-1584-4d1a-8082-554ee13ad03b","ios":"levelo://app?vid=15f37670-1584-4d1a-8082-554ee13ad03b"},"vehicle_type_id":"4","last_reported":1708196738,"current_range_meters":13600,"station_id":"ce4bhr12rcd13ifvqhqg","pricing_plan_id":"cebpf4jnsgd1na2vs0mg"},{"bike_id":"70fe7047-25f5-4921-82cd-938fed021886","system_id":"levelo_inurba_marseille","lat":43.322872,"lon":5.382756,"is_reserved":false,"is_disabled":false,"rental_uris":{"android":"levelo://app?vid=70fe7047-25f5-4921-82cd-938fed021886","ios":"levelo://app?vid=70fe7047-25f5-4921-82cd-938fed021886"},"vehicle_type_id":"4","last_reported":1708196738,"current_range_meters":20400,"station_id":"ce4bhr12rcd13ifvqhqg","pricing_plan_id":"cebpf4jnsgd1na2vs0mg"},{"bike_id":"9af28949-3abe-4ee4-a57a-c236655c3362","system_id":"levelo_inurba_marseille","lat":43.322872,"lon":5.382756,"is_reserved":false,"is_disabled":false,"rental_uris":{"android":"levelo://app?vid=9af28949-3abe-4ee4-a57a-c236655c3362","ios":"levelo://app?vid=9af28949-3abe-4ee4-a57a-c236655c3362"},"vehicle_type_id":"4","last_reported":1708196738,"current_range_meters":31200,"station_id":"ce4bhr12rcd13ifvqhqg","pricing_plan_id":"cebpf4jnsgd1na2vs0mg"},{"bike_id":"410a532b-f4d9-44b0-bece-5fd8115e2fc4","system_id":"levelo_inurba_marseille","lat":43.322872,"lon":5.382756,"is_reserved":false,"is_disabled":false,"rental_uris":{"android":"levelo://app?vid=410a532b-f4d9-44b0-bece-5fd8115e2fc4","ios":"levelo://app?vid=410a532b-f4d9-44b0-bece-5fd8115e2fc4"},"vehicle_type_id":"4","last_reported":1708196738,"current_range_meters":23200,"station_id":"ce4bhr12rcd13ifvqhqg","pricing_plan_id":"cebpf4jnsgd1na2vs0mg"},{"bike_id":"c78ca65d-3a32-439e-8a84-1618c883e69f","system_id":"levelo_inurba_marseille","lat":43.297774,"lon":5.370875,"is_reserved":false,"is_disabled":false,"rental_uris":{"android":"levelo://app?vid=c78ca65d-3a32-439e-8a84-1618c883e69f","ios":"levelo://app?vid=c78ca65d-3a32-439e-8a84-1618c883e69f"},"vehicle_type_id":"4","last_reported":1708196738,"current_range_meters":29600,"station_id":"ce4bgop2rcd13ifvqc1g","pricing_plan_id":"cebpf4jnsgd1na2vs0mg"},{"bike_id":"ac5c668f-af5b-45b3-99bb-3e0fed2999ee","system_id":"levelo_inurba_marseille","lat":43.297794,"lon":5.370888,"is_reserved":false,"is_disabled":false,"rental_uris":{"android":"levelo://app?vid=ac5c668f-af5b-45b3-99bb-3e0fed2999ee","ios":"levelo://app?vid=ac5c668f-af5b-45b3-99bb-3e0fed2999ee"},"vehicle_type_id":"4","last_reported":1708196738,"current_range_meters":30400,"station_id":"ce4bgop2rcd13ifvqc1g","pricing_plan_id":"cebpf4jnsgd1na2vs0mg"},{"bike_id":"aadfba98-88f5-4230-8488-f6b7556adf88","system_id":"levelo_inurba_marseille","lat":43.3282,"lon":5.3668,"is_reserved":false,"is_disabled":false,"rental_uris":{"android":"levelo://app?vid=aadfba98-88f5-4230-8488-f6b7556adf88","ios":"levelo://app?vid=aadfba98-88f5-4230-8488-f6b7556adf88"},"vehicle_type_id":"4","last_reported":1708196738,"current_range_meters":0,"station_id":"ce4bhs92rcd13ifvqi0g","pricing_plan_id":"cebpf4jnsgd1na2vs0mg"},{"bike_id":"798e1c77-cdb6-49fb-b2e4-2a646e449b0a","system_id":"levelo_inurba_marseille","lat":43.328371,"lon":5.366909,"is_reserved":false,"is_disabled":false,"rental_uris":{"android":"levelo://app?vid=798e1c77-cdb6-49fb-b2e4-2a646e449b0a","ios":"levelo://app?vid=798e1c77-cdb6-49fb-b2e4-2a646e449b0a"},"vehicle_type_id":"4","last_reported":1708196738,"current_range_meters":5600,"station_id":"ce4bhs92rcd13ifvqi0g","pricing_plan_id":"cebpf4jnsgd1na2vs0mg"},{"bike_id":"cc924a54-60e4-4421-b12c-5aa0bb659927","system_id":"levelo_inurba_marseille","lat":43.32824,"lon":5.36679,"is_reserved":false,"is_disabled":false,"rental_uris":{"android":"levelo://app?vid=cc924a54-60e4-4421-b12c-5aa0bb659927","ios":"levelo://app?vid=cc924a54-60e4-4421-b12c-5aa0bb659927"},"vehicle_type_id":"4","last_reported":1708196738,"current_range_meters":2000,"station_id":"ce4bhs92rcd13ifvqi0g","pricing_plan_id":"cebpf4jnsgd1na2vs0mg"},{"bike_id":"ec21c626-faeb-41e5-9192-4d2bef3ee4d3","system_id":"levelo_inurba_marseille","lat":43.32824,"lon":5.36673,"is_reserved":false,"is_disabled":false,"rental_uris":{"android":"levelo://app?vid=ec21c626-faeb-41e5-9192-4d2bef3ee4d3","ios":"levelo://app?vid=ec21c626-faeb-41e5-9192-4d2bef3ee4d3"},"vehicle_type_id":"4","last_reported":1708196738,"current_range_meters":0,"station_id":"ce4bhs92rcd13ifvqi0g","pricing_plan_id":"cebpf4jnsgd1na2vs0mg"},{"bike_id":"d125619a-6ae6-4def-8c67-f1352fae5a27","system_id":"levelo_inurba_marseille","lat":43.328243,"lon":5.366806,"is_reserved":false,"is_disabled":false,"rental_uris":{"android":"levelo://app?vid=d125619a-6ae6-4def-8c67-f1352fae5a27","ios":"levelo://app?vid=d125619a-6ae6-4def-8c67-f1352fae5a27"},"vehicle_type_id":"4","last_reported":1708196738,"current_range_meters":18000,"station_id":"ce4bhs92rcd13ifvqi0g","pricing_plan_id":"cebpf4jnsgd1na2vs0mg"},{"bike_id":"45fe6c6c-2569-4aee-9c18-3f3586004f23","system_id":"levelo_inurba_marseille","lat":43.32825,"lon":5.36677,"is_reserved":false,"is_disabled":false,"rental_uris":{"android":"levelo://app?vid=45fe6c6c-2569-4aee-9c18-3f3586004f23","ios":"levelo://app?vid=45fe6c6c-2569-4aee-9c18-3f3586004f23"},"vehicle_type_id":"4","last_reported":1708196738,"current_range_meters":22000,"station_id":"ce4bhs92rcd13ifvqi0g","pricing_plan_id":"cebpf4jnsgd1na2vs0mg"},{"bike_id":"4858fa03-d21d-48b2-a63e-a5500b96c079","system_id":"levelo_inurba_marseille","lat":43.32825,"lon":5.36677,"is_reserved":false,"is_disabled":false,"rental_uris":{"android":"levelo://app?vid=4858fa03-d21d-48b2-a63e-a5500b96c079","ios":"levelo://app?vid=4858fa03-d21d-48b2-a63e-a5500b96c079"},"vehicle_type_id":"4","last_reported":1708196738,"current_range_meters":1600,"station_id":"ce4bhs92rcd13ifvqi0g","pricing_plan_id":"cebpf4jnsgd1na2vs0mg"},{"bike_id":"b354d40e-f748-45df-b8a4-085ee0f39b31","system_id":"levelo_inurba_marseille","lat":43.32825,"lon":5.36674,"is_reserved":false,"is_disabled":false,"rental_uris":{"android":"levelo://app?vid=b354d40e-f748-45df-b8a4-085ee0f39b31","ios":"levelo://app?vid=b354d40e-f748-45df-b8a4-085ee0f39b31"},"vehicle_type_id":"4","last_reported":1708196738,"current_range_meters":10800,"station_id":"ce4bhs92rcd13ifvqi0g","pricing_plan_id":"cebpf4jnsgd1na2vs0mg"},{"bike_id":"5195dc94-0b55-41c8-9198-580992dd67c5","system_id":"levelo_inurba_marseille","lat":43.32827,"lon":5.36678,"is_reserved":false,"is_disabled":false,"rental_uris":{"android":"levelo://app?vid=5195dc94-0b55-41c8-9198-580992dd67c5","ios":"levelo://app?vid=5195dc94-0b55-41c8-9198-580992dd67c5"},"vehicle_type_id":"4","last_reported":1708196738,"current_range_meters":20400,"station_id":"ce4bhs92rcd13ifvqi0g","pricing_plan_id":"cebpf4jnsgd1na2vs0mg"},{"bike_id":"2459963a-9a41-477a-9f46-310730d184fe","system_id":"levelo_inurba_marseille","lat":43.32828,"lon":5.36688,"is_reserved":false,"is_disabled":false,"rental_uris":{"android":"levelo://app?vid=2459963a-9a41-477a-9f46-310730d184fe","ios":"levelo://app?vid=2459963a-9a41-477a-9f46-310730d184fe"},"vehicle_type_id":"4","last_reported":1708196738,"current_range_meters":17600,"station_id":"ce4bhs92rcd13ifvqi0g","pricing_plan_id":"cebpf4jnsgd1na2vs0mg"},{"bike_id":"c9ca704a-95d9-467c-ad5a-5403d53c76ed","system_id":"levelo_inurba_marseille","lat":43.328298,"lon":5.366774,"is_reserved":false,"is_disabled":false,"rental_uris":{"android":"levelo://app?vid=c9ca704a-95d9-467c-ad5a-5403d53c76ed","ios":"levelo://app?vid=c9ca704a-95d9-467c-ad5a-5403d53c76ed"},"vehicle_type_id":"4","last_reported":1708196738,"current_range_meters":7200,"station_id":"ce4bhs92rcd13ifvqi0g","pricing_plan_id":"cebpf4jnsgd1na2vs0mg"},{"bike_id":"d059372d-713e-4306-a0dc-ef5b2b5ad059","system_id":"levelo_inurba_marseille","lat":43.3283,"lon":5.36683,"is_reserved":false,"is_disabled":false,"rental_uris":{"android":"levelo://app?vid=d059372d-713e-4306-a0dc-ef5b2b5ad059","ios":"levelo://app?vid=d059372d-713e-4306-a0dc-ef5b2b5ad059"},"vehicle_type_id":"4","last_reported":1708196738,"current_range_meters":22000,"station_id":"ce4bhs92rcd13ifvqi0g","pricing_plan_id":"cebpf4jnsgd1na2vs0mg"},{"bike_id":"fcbb72e3-aeee-4031-b1db-dc05c41736e9","system_id":"levelo_inurba_marseille","lat":43.32831,"lon":5.36681,"is_reserved":false,"is_disabled":false,"rental_uris":{"android":"levelo://app?vid=fcbb72e3-aeee-4031-b1db-dc05c41736e9","ios":"levelo://app?vid=fcbb72e3-aeee-4031-b1db-dc05c41736e9"},"vehicle_type_id":"4","last_reported":1708196738,"current_range_meters":13600,"station_id":"ce4bhs92rcd13ifvqi0g","pricing_plan_id":"cebpf4jnsgd1na2vs0mg"},{"bike_id":"3ce3bf05-0e26-4ba4-9a11-4781ff3d0eb6","system_id":"levelo_inurba_marseille","lat":43.32831,"lon":5.3668,"is_reserved":false,"is_disabled":false,"rental_uris":{"android":"levelo://app?vid=3ce3bf05-0e26-4ba4-9a11-4781ff3d0eb6","ios":"levelo://app?vid=3ce3bf05-0e26-4ba4-9a11-4781ff3d0eb6"},"vehicle_type_id":"4","last_reported":1708196738,"current_range_meters":2800,"station_id":"ce4bhs92rcd13ifvqi0g","pricing_plan_id":"cebpf4jnsgd1na2vs0mg"},{"bike_id":"45a7a14e-9b1e-4a1b-ad54-93a32f013a67","system_id":"levelo_inurba_marseille","lat":43.32831,"lon":5.36676,"is_reserved":false,"is_disabled":false,"rental_uris":{"android":"levelo://app?vid=45a7a14e-9b1e-4a1b-ad54-93a32f013a67","ios":"levelo://app?vid=45a7a14e-9b1e-4a1b-ad54-93a32f013a67"},"vehicle_type_id":"4","last_reported":1708196738,"current_range_meters":11200,"station_id":"ce4bhs92rcd13ifvqi0g","pricing_plan_id":"cebpf4jnsgd1na2vs0mg"},{"bike_id":"b1a6d03f-e2ff-45bb-b890-788276a09a82","system_id":"levelo_inurba_marseille","lat":43.328318,"lon":5.366816,"is_reserved":false,"is_disabled":false,"rental_uris":{"android":"levelo://app?vid=b1a6d03f-e2ff-45bb-b890-788276a09a82","ios":"levelo://app?vid=b1a6d03f-e2ff-45bb-b890-788276a09a82"},"vehicle_type_id":"4","last_reported":1708196738,"current_range_meters":28800,"station_id":"ce4bhs92rcd13ifvqi0g","pricing_plan_id":"cebpf4jnsgd1na2vs0mg"},{"bike_id":"3833ec15-b081-4b20-84c5-72daf8aa7006","system_id":"levelo_inurba_marseille","lat":43.328332,"lon":5.366771,"is_reserved":false,"is_disabled":false,"rental_uris":{"android":"levelo://app?vid=3833ec15-b081-4b20-84c5-72daf8aa7006","ios":"levelo://app?vid=3833ec15-b081-4b20-84c5-72daf8aa7006"},"vehicle_type_id":"4","last_reported":1708196738,"current_range_meters":21600,"station_id":"ce4bhs92rcd13ifvqi0g","pricing_plan_id":"cebpf4jnsgd1na2vs0mg"},{"bike_id":"9a9df145-9e54-4492-8621-de0756e6d559","system_id":"levelo_inurba_marseille","lat":43.32836,"lon":5.36688,"is_reserved":false,"is_disabled":false,"rental_uris":{"android":"levelo://app?vid=9a9df145-9e54-4492-8621-de0756e6d559","ios":"levelo://app?vid=9a9df145-9e54-4492-8621-de0756e6d559"},"vehicle_type_id":"4","last_reported":1708196738,"current_range_meters":0,"station_id":"ce4bhs92rcd13ifvqi0g","pricing_plan_id":"cebpf4jnsgd1na2vs0mg"},{"bike_id":"de6578e5-2862-46c7-a6e9-08879b7cd536","system_id":"levelo_inurba_marseille","lat":43.296131,"lon":5.370773,"is_reserved":false,"is_disabled":false,"rental_uris":{"android":"levelo://app?vid=de6578e5-2862-46c7-a6e9-08879b7cd536","ios":"levelo://app?vid=de6578e5-2862-46c7-a6e9-08879b7cd536"},"vehicle_type_id":"4","last_reported":1708196738,"current_range_meters":27600,"station_id":"ce4bgnh2rcd13ifvqc0g","pricing_plan_id":"cebpf4jnsgd1na2vs0mg"},{"bike_id":"2f6ffd34-84f2-42aa-b9f4-204695d36868","system_id":"levelo_inurba_marseille","lat":43.296129,"lon":5.370777,"is_reserved":false,"is_disabled":false,"rental_uris":{"android":"levelo://app?vid=2f6ffd34-84f2-42aa-b9f4-204695d36868","ios":"levelo://app?vid=2f6ffd34-84f2-42aa-b9f4-204695d36868"},"vehicle_type_id":"4","last_reported":1708196738,"current_range_meters":6400,"station_id":"ce4bgnh2rcd13ifvqc0g","pricing_plan_id":"cebpf4jnsgd1na2vs0mg"},{"bike_id":"42ace4ea-2f6e-42b1-be69-6dbb36b573a3","system_id":"levelo_inurba_marseille","lat":43.29573,"lon":5.367355,"is_reserved":false,"is_disabled":false,"rental_uris":{"android":"levelo://app?vid=42ace4ea-2f6e-42b1-be69-6dbb36b573a3","ios":"levelo://app?vid=42ace4ea-2f6e-42b1-be69-6dbb36b573a3"},"vehicle_type_id":"4","last_reported":1708196738,"current_range_meters":2000,"station_id":"ce4bgph2rcd13ifvqc2g","pricing_plan_id":"cebpf4jnsgd1na2vs0mg"},{"bike_id":"2cb52262-f0ef-49ac-834d-2863d61ba76f","system_id":"levelo_inurba_marseille","lat":43.296129,"lon":5.370777,"is_reserved":false,"is_disabled":false,"rental_uris":{"android":"levelo://app?vid=2cb52262-f0ef-49ac-834d-2863d61ba76f","ios":"levelo://app?vid=2cb52262-f0ef-49ac-834d-2863d61ba76f"},"vehicle_type_id":"4","last_reported":1708196738,"current_range_meters":22400,"station_id":"ce4bgnh2rcd13ifvqc0g","pricing_plan_id":"cebpf4jnsgd1na2vs0mg"},{"bike_id":"3fa7e92a-25db-4177-8f54-bcf7d2f959b1","system_id":"levelo_inurba_marseille","lat":43.309484,"lon":5.390154,"is_reserved":false,"is_disabled":false,"rental_uris":{"android":"levelo://app?vid=3fa7e92a-25db-4177-8f54-bcf7d2f959b1","ios":"levelo://app?vid=3fa7e92a-25db-4177-8f54-bcf7d2f959b1"},"vehicle_type_id":"4","last_reported":1708196738,"current_range_meters":0,"station_id":"ce4bgup2rcd13ifvqco0","pricing_plan_id":"cebpf4jnsgd1na2vs0mg"},{"bike_id":"d746ee5c-9afd-4f6e-b091-24012cd81044","system_id":"levelo_inurba_marseille","lat":43.299028,"lon":5.381509,"is_reserved":false,"is_disabled":false,"rental_uris":{"android":"levelo://app?vid=d746ee5c-9afd-4f6e-b091-24012cd81044","ios":"levelo://app?vid=d746ee5c-9afd-4f6e-b091-24012cd81044"},"vehicle_type_id":"4","last_reported":1708196738,"current_range_meters":26000,"station_id":"ce4bgj12rcd13ifvqbc0","pricing_plan_id":"cebpf4jnsgd1na2vs0mg"},{"bike_id":"23daedb0-3d9c-4f7d-ba8d-ce6a2d4e6e21","system_id":"levelo_inurba_marseille","lat":43.299028,"lon":5.381509,"is_reserved":false,"is_disabled":false,"rental_uris":{"android":"levelo://app?vid=23daedb0-3d9c-4f7d-ba8d-ce6a2d4e6e21","ios":"levelo://app?vid=23daedb0-3d9c-4f7d-ba8d-ce6a2d4e6e21"},"vehicle_type_id":"4","last_reported":1708196738,"current_range_meters":1200,"station_id":"ce4bgj12rcd13ifvqbc0","pricing_plan_id":"cebpf4jnsgd1na2vs0mg"},{"bike_id":"82eb8069-7f75-4dfd-80c3-104b01d38215","system_id":"levelo_inurba_marseille","lat":43.299028,"lon":5.381509,"is_reserved":false,"is_disabled":false,"rental_uris":{"android":"levelo://app?vid=82eb8069-7f75-4dfd-80c3-104b01d38215","ios":"levelo://app?vid=82eb8069-7f75-4dfd-80c3-104b01d38215"},"vehicle_type_id":"4","last_reported":1708196738,"current_range_meters":4800,"station_id":"ce4bgj12rcd13ifvqbc0","pricing_plan_id":"cebpf4jnsgd1na2vs0mg"},{"bike_id":"b1b1f013-0181-4b7d-8417-09b4849be3f9","system_id":"levelo_inurba_marseille","lat":43.296921,"lon":5.376579,"is_reserved":false,"is_disabled":false,"rental_uris":{"android":"levelo://app?vid=b1b1f013-0181-4b7d-8417-09b4849be3f9","ios":"levelo://app?vid=b1b1f013-0181-4b7d-8417-09b4849be3f9"},"vehicle_type_id":"4","last_reported":1708196738,"current_range_meters":6400,"station_id":"ce4bgkh2rcd13ifvqbl0","pricing_plan_id":"cebpf4jnsgd1na2vs0mg"},{"bike_id":"d2586300-f377-45cd-85fe-99228048b6ae","system_id":"levelo_inurba_marseille","lat":43.299028,"lon":5.381509,"is_reserved":false,"is_disabled":false,"rental_uris":{"android":"levelo://app?vid=d2586300-f377-45cd-85fe-99228048b6ae","ios":"levelo://app?vid=d2586300-f377-45cd-85fe-99228048b6ae"},"vehicle_type_id":"4","last_reported":1708196738,"current_range_meters":3600,"station_id":"ce4bgj12rcd13ifvqbc0","pricing_plan_id":"cebpf4jnsgd1na2vs0mg"},{"bike_id":"c8873a98-cb72-42cd-9141-bbc28ddfcac7","system_id":"levelo_inurba_marseille","lat":43.309589,"lon":5.390258,"is_reserved":false,"is_disabled":false,"rental_uris":{"android":"levelo://app?vid=c8873a98-cb72-42cd-9141-bbc28ddfcac7","ios":"levelo://app?vid=c8873a98-cb72-42cd-9141-bbc28ddfcac7"},"vehicle_type_id":"4","last_reported":1708196738,"current_range_meters":5200,"station_id":"ce4bgup2rcd13ifvqco0","pricing_plan_id":"cebpf4jnsgd1na2vs0mg"},{"bike_id":"92a1b962-cc47-49c9-bd6f-a88547c124eb","system_id":"levelo_inurba_marseille","lat":43.317557,"lon":5.390173,"is_reserved":false,"is_disabled":false,"rental_uris":{"android":"levelo://app?vid=92a1b962-cc47-49c9-bd6f-a88547c124eb","ios":"levelo://app?vid=92a1b962-cc47-49c9-bd6f-a88547c124eb"},"vehicle_type_id":"4","last_reported":1708196738,"current_range_meters":6800,"station_id":"ce4bhqp2rcd13ifvqhng","pricing_plan_id":"cebpf4jnsgd1na2vs0mg"},{"bike_id":"ed87d69f-71e3-4a80-a6a0-6a1355afd957","system_id":"levelo_inurba_marseille","lat":43.31759,"lon":5.39014,"is_reserved":false,"is_disabled":false,"rental_uris":{"android":"levelo://app?vid=ed87d69f-71e3-4a80-a6a0-6a1355afd957","ios":"levelo://app?vid=ed87d69f-71e3-4a80-a6a0-6a1355afd957"},"vehicle_type_id":"4","last_reported":1708196738,"current_range_meters":10400,"station_id":"ce4bhqp2rcd13ifvqhng","pricing_plan_id":"cebpf4jnsgd1na2vs0mg"},{"bike_id":"b3dcb9ba-bf07-48c1-aada-2fbdb761a352","system_id":"levelo_inurba_marseille","lat":43.317557,"lon":5.390173,"is_reserved":false,"is_disabled":false,"rental_uris":{"android":"levelo://app?vid=b3dcb9ba-bf07-48c1-aada-2fbdb761a352","ios":"levelo://app?vid=b3dcb9ba-bf07-48c1-aada-2fbdb761a352"},"vehicle_type_id":"4","last_reported":1708196738,"current_range_meters":31600,"station_id":"ce4bhqp2rcd13ifvqhng","pricing_plan_id":"cebpf4jnsgd1na2vs0mg"},{"bike_id":"e71aad95-e785-4fac-9d74-e2b56468f77a","system_id":"levelo_inurba_marseille","lat":43.317557,"lon":5.390173,"is_reserved":false,"is_disabled":false,"rental_uris":{"android":"levelo://app?vid=e71aad95-e785-4fac-9d74-e2b56468f77a","ios":"levelo://app?vid=e71aad95-e785-4fac-9d74-e2b56468f77a"},"vehicle_type_id":"4","last_reported":1708196738,"current_range_meters":23600,"station_id":"ce4bhqp2rcd13ifvqhng","pricing_plan_id":"cebpf4jnsgd1na2vs0mg"},{"bike_id":"600d0150-1635-4556-806d-0085d6f1da6c","system_id":"levelo_inurba_marseille","lat":43.317557,"lon":5.390173,"is_reserved":false,"is_disabled":false,"rental_uris":{"android":"levelo://app?vid=600d0150-1635-4556-806d-0085d6f1da6c","ios":"levelo://app?vid=600d0150-1635-4556-806d-0085d6f1da6c"},"vehicle_type_id":"4","last_reported":1708196738,"current_range_meters":13600,"station_id":"ce4bhqp2rcd13ifvqhng","pricing_plan_id":"cebpf4jnsgd1na2vs0mg"},{"bike_id":"280349c5-d3b4-4d1b-8be2-d8aafb722357","system_id":"levelo_inurba_marseille","lat":43.298037,"lon":5.381066,"is_reserved":false,"is_disabled":false,"rental_uris":{"android":"levelo://app?vid=280349c5-d3b4-4d1b-8be2-d8aafb722357","ios":"levelo://app?vid=280349c5-d3b4-4d1b-8be2-d8aafb722357"},"vehicle_type_id":"4","last_reported":1708196738,"current_range_meters":11200,"station_id":"ce4bgip2rcd13ifvqbb0","pricing_plan_id":"cebpf4jnsgd1na2vs0mg"},{"bike_id":"2d51d6d2-4990-46c9-b3fe-09820a8c211c","system_id":"levelo_inurba_marseille","lat":43.298037,"lon":5.381066,"is_reserved":false,"is_disabled":false,"rental_uris":{"android":"levelo://app?vid=2d51d6d2-4990-46c9-b3fe-09820a8c211c","ios":"levelo://app?vid=2d51d6d2-4990-46c9-b3fe-09820a8c211c"},"vehicle_type_id":"4","last_reported":1708196738,"current_range_meters":28400,"station_id":"ce4bgip2rcd13ifvqbb0","pricing_plan_id":"cebpf4jnsgd1na2vs0mg"},{"bike_id":"143e9743-b37f-4ec1-8d3a-b2d128652c84","system_id":"levelo_inurba_marseille","lat":43.29798,"lon":5.38083,"is_reserved":false,"is_disabled":false,"rental_uris":{"android":"levelo://app?vid=143e9743-b37f-4ec1-8d3a-b2d128652c84","ios":"levelo://app?vid=143e9743-b37f-4ec1-8d3a-b2d128652c84"},"vehicle_type_id":"4","last_reported":1708196738,"current_range_meters":5200,"station_id":"ce4bgip2rcd13ifvqbb0","pricing_plan_id":"cebpf4jnsgd1na2vs0mg"},{"bike_id":"d2b1a75f-1699-4e1e-b245-ec5c8209dd08","system_id":"levelo_inurba_marseille","lat":43.298037,"lon":5.381066,"is_reserved":false,"is_disabled":false,"rental_uris":{"android":"levelo://app?vid=d2b1a75f-1699-4e1e-b245-ec5c8209dd08","ios":"levelo://app?vid=d2b1a75f-1699-4e1e-b245-ec5c8209dd08"},"vehicle_type_id":"4","last_reported":1708196738,"current_range_meters":31200,"station_id":"ce4bgip2rcd13ifvqbb0","pricing_plan_id":"cebpf4jnsgd1na2vs0mg"},{"bike_id":"4ae6ddf8-284c-466b-a48a-64d478199889","system_id":"levelo_inurba_marseille","lat":43.298037,"lon":5.381066,"is_reserved":false,"is_disabled":false,"rental_uris":{"android":"levelo://app?vid=4ae6ddf8-284c-466b-a48a-64d478199889","ios":"levelo://app?vid=4ae6ddf8-284c-466b-a48a-64d478199889"},"vehicle_type_id":"4","last_reported":1708196738,"current_range_meters":17600,"station_id":"ce4bgip2rcd13ifvqbb0","pricing_plan_id":"cebpf4jnsgd1na2vs0mg"},{"bike_id":"5702dd76-87dd-44d3-859f-fc54af45f71b","system_id":"levelo_inurba_marseille","lat":43.299028,"lon":5.381509,"is_reserved":false,"is_disabled":false,"rental_uris":{"android":"levelo://app?vid=5702dd76-87dd-44d3-859f-fc54af45f71b","ios":"levelo://app?vid=5702dd76-87dd-44d3-859f-fc54af45f71b"},"vehicle_type_id":"4","last_reported":1708196738,"current_range_meters":0,"station_id":"ce4bgj12rcd13ifvqbc0","pricing_plan_id":"cebpf4jnsgd1na2vs0mg"},{"bike_id":"2105e6e9-872d-4150-b292-c63b5d890405","system_id":"levelo_inurba_marseille","lat":43.298037,"lon":5.381066,"is_reserved":false,"is_disabled":false,"rental_uris":{"android":"levelo://app?vid=2105e6e9-872d-4150-b292-c63b5d890405","ios":"levelo://app?vid=2105e6e9-872d-4150-b292-c63b5d890405"},"vehicle_type_id":"4","last_reported":1708196738,"current_range_meters":3600,"station_id":"ce4bgip2rcd13ifvqbb0","pricing_plan_id":"cebpf4jnsgd1na2vs0mg"},{"bike_id":"9dd9478d-53da-4bab-82c3-0e45971c3925","system_id":"levelo_inurba_marseille","lat":43.299028,"lon":5.381509,"is_reserved":false,"is_disabled":false,"rental_uris":{"android":"levelo://app?vid=9dd9478d-53da-4bab-82c3-0e45971c3925","ios":"levelo://app?vid=9dd9478d-53da-4bab-82c3-0e45971c3925"},"vehicle_type_id":"4","last_reported":1708196738,"current_range_meters":4800,"station_id":"ce4bgj12rcd13ifvqbc0","pricing_plan_id":"cebpf4jnsgd1na2vs0mg"},{"bike_id":"4dc776dc-fa17-498d-8d98-29758f2f39a5","system_id":"levelo_inurba_marseille","lat":43.29793,"lon":5.38095,"is_reserved":false,"is_disabled":false,"rental_uris":{"android":"levelo://app?vid=4dc776dc-fa17-498d-8d98-29758f2f39a5","ios":"levelo://app?vid=4dc776dc-fa17-498d-8d98-29758f2f39a5"},"vehicle_type_id":"4","last_reported":1708196738,"current_range_meters":31200,"station_id":"ce4bgip2rcd13ifvqbb0","pricing_plan_id":"cebpf4jnsgd1na2vs0mg"},{"bike_id":"30feaa37-fe7a-45ff-af3e-89f688174a28","system_id":"levelo_inurba_marseille","lat":43.304322,"lon":5.388824,"is_reserved":false,"is_disabled":false,"rental_uris":{"android":"levelo://app?vid=30feaa37-fe7a-45ff-af3e-89f688174a28","ios":"levelo://app?vid=30feaa37-fe7a-45ff-af3e-89f688174a28"},"vehicle_type_id":"4","last_reported":1708196738,"current_range_meters":0,"station_id":"ce4bgk12rcd13ifvqbi0","pricing_plan_id":"cebpf4jnsgd1na2vs0mg"},{"bike_id":"45eb0509-2171-4db6-8348-04b93c47925d","system_id":"levelo_inurba_marseille","lat":43.304274,"lon":5.388873,"is_reserved":false,"is_disabled":false,"rental_uris":{"android":"levelo://app?vid=45eb0509-2171-4db6-8348-04b93c47925d","ios":"levelo://app?vid=45eb0509-2171-4db6-8348-04b93c47925d"},"vehicle_type_id":"4","last_reported":1708196738,"current_range_meters":16000,"station_id":"ce4bgk12rcd13ifvqbi0","pricing_plan_id":"cebpf4jnsgd1na2vs0mg"},{"bike_id":"73f8d889-51bb-4d5c-842c-4578d93847a5","system_id":"levelo_inurba_marseille","lat":43.2979,"lon":5.38103,"is_reserved":false,"is_disabled":false,"rental_uris":{"android":"levelo://app?vid=73f8d889-51bb-4d5c-842c-4578d93847a5","ios":"levelo://app?vid=73f8d889-51bb-4d5c-842c-4578d93847a5"},"vehicle_type_id":"4","last_reported":1708196738,"current_range_meters":8800,"station_id":"ce4bgip2rcd13ifvqbb0","pricing_plan_id":"cebpf4jnsgd1na2vs0mg"},{"bike_id":"264b9be4-25ec-42b8-a12d-0cecc593786d","system_id":"levelo_inurba_marseille","lat":43.304274,"lon":5.388873,"is_reserved":false,"is_disabled":false,"rental_uris":{"android":"levelo://app?vid=264b9be4-25ec-42b8-a12d-0cecc593786d","ios":"levelo://app?vid=264b9be4-25ec-42b8-a12d-0cecc593786d"},"vehicle_type_id":"4","last_reported":1708196738,"current_range_meters":3600,"station_id":"ce4bgk12rcd13ifvqbi0","pricing_plan_id":"cebpf4jnsgd1na2vs0mg"},{"bike_id":"e04527cf-767c-4431-adcd-f57c359f1190","system_id":"levelo_inurba_marseille","lat":43.29789,"lon":5.38102,"is_reserved":false,"is_disabled":false,"rental_uris":{"android":"levelo://app?vid=e04527cf-767c-4431-adcd-f57c359f1190","ios":"levelo://app?vid=e04527cf-767c-4431-adcd-f57c359f1190"},"vehicle_type_id":"4","last_reported":1708196738,"current_range_meters":5200,"station_id":"ce4bgip2rcd13ifvqbb0","pricing_plan_id":"cebpf4jnsgd1na2vs0mg"},{"bike_id":"a31963cd-c729-4a22-9413-0009e4b08caf","system_id":"levelo_inurba_marseille","lat":43.298037,"lon":5.381066,"is_reserved":false,"is_disabled":false,"rental_uris":{"android":"levelo://app?vid=a31963cd-c729-4a22-9413-0009e4b08caf","ios":"levelo://app?vid=a31963cd-c729-4a22-9413-0009e4b08caf"},"vehicle_type_id":"4","last_reported":1708196738,"current_range_meters":27200,"station_id":"ce4bgip2rcd13ifvqbb0","pricing_plan_id":"cebpf4jnsgd1na2vs0mg"},{"bike_id":"53b67057-f9e2-4bef-996d-67fcb9615030","system_id":"levelo_inurba_marseille","lat":43.29783,"lon":5.38094,"is_reserved":false,"is_disabled":false,"rental_uris":{"android":"levelo://app?vid=53b67057-f9e2-4bef-996d-67fcb9615030","ios":"levelo://app?vid=53b67057-f9e2-4bef-996d-67fcb9615030"},"vehicle_type_id":"4","last_reported":1708196738,"current_range_meters":26000,"station_id":"ce4bgip2rcd13ifvqbb0","pricing_plan_id":"cebpf4jnsgd1na2vs0mg"},{"bike_id":"28b8e481-b150-44c6-9d21-8a58b5997ea7","system_id":"levelo_inurba_marseille","lat":43.304324,"lon":5.388902,"is_reserved":false,"is_disabled":false,"rental_uris":{"android":"levelo://app?vid=28b8e481-b150-44c6-9d21-8a58b5997ea7","ios":"levelo://app?vid=28b8e481-b150-44c6-9d21-8a58b5997ea7"},"vehicle_type_id":"4","last_reported":1708196738,"current_range_meters":17200,"station_id":"ce4bgk12rcd13ifvqbi0","pricing_plan_id":"cebpf4jnsgd1na2vs0mg"},{"bike_id":"a7738896-ddec-491d-8072-e701901114ec","system_id":"levelo_inurba_marseille","lat":43.304274,"lon":5.388873,"is_reserved":false,"is_disabled":false,"rental_uris":{"android":"levelo://app?vid=a7738896-ddec-491d-8072-e701901114ec","ios":"levelo://app?vid=a7738896-ddec-491d-8072-e701901114ec"},"vehicle_type_id":"4","last_reported":1708196738,"current_range_meters":18800,"station_id":"ce4bgk12rcd13ifvqbi0","pricing_plan_id":"cebpf4jnsgd1na2vs0mg"},{"bike_id":"70364fd0-4f5e-43ff-8333-13ae716fdd53","system_id":"levelo_inurba_marseille","lat":43.304274,"lon":5.388873,"is_reserved":false,"is_disabled":false,"rental_uris":{"android":"levelo://app?vid=70364fd0-4f5e-43ff-8333-13ae716fdd53","ios":"levelo://app?vid=70364fd0-4f5e-43ff-8333-13ae716fdd53"},"vehicle_type_id":"4","last_reported":1708196738,"current_range_meters":8400,"station_id":"ce4bgk12rcd13ifvqbi0","pricing_plan_id":"cebpf4jnsgd1na2vs0mg"},{"bike_id":"d3bffbc9-2b46-4030-ae9b-b3a0556ab578","system_id":"levelo_inurba_marseille","lat":43.295748,"lon":5.37522,"is_reserved":false,"is_disabled":false,"rental_uris":{"android":"levelo://app?vid=d3bffbc9-2b46-4030-ae9b-b3a0556ab578","ios":"levelo://app?vid=d3bffbc9-2b46-4030-ae9b-b3a0556ab578"},"vehicle_type_id":"4","last_reported":1708196738,"current_range_meters":24000,"station_id":"ce4bgh92rcd13ifvqb50","pricing_plan_id":"cebpf4jnsgd1na2vs0mg"},{"bike_id":"afbe45e7-14af-41b5-b6e7-0f1a1a1fa014","system_id":"levelo_inurba_marseille","lat":43.304278,"lon":5.388868,"is_reserved":false,"is_disabled":false,"rental_uris":{"android":"levelo://app?vid=afbe45e7-14af-41b5-b6e7-0f1a1a1fa014","ios":"levelo://app?vid=afbe45e7-14af-41b5-b6e7-0f1a1a1fa014"},"vehicle_type_id":"4","last_reported":1708196738,"current_range_meters":1200,"station_id":"ce4bgk12rcd13ifvqbi0","pricing_plan_id":"cebpf4jnsgd1na2vs0mg"},{"bike_id":"c54dbb7b-5153-4a69-9f1c-205b1a4bccaf","system_id":"levelo_inurba_marseille","lat":43.304278,"lon":5.388868,"is_reserved":false,"is_disabled":false,"rental_uris":{"android":"levelo://app?vid=c54dbb7b-5153-4a69-9f1c-205b1a4bccaf","ios":"levelo://app?vid=c54dbb7b-5153-4a69-9f1c-205b1a4bccaf"},"vehicle_type_id":"4","last_reported":1708196738,"current_range_meters":6400,"station_id":"ce4bgk12rcd13ifvqbi0","pricing_plan_id":"cebpf4jnsgd1na2vs0mg"},{"bike_id":"5ba8b571-e42f-4855-9568-4082d3d986d3","system_id":"levelo_inurba_marseille","lat":43.29785,"lon":5.381073,"is_reserved":false,"is_disabled":false,"rental_uris":{"android":"levelo://app?vid=5ba8b571-e42f-4855-9568-4082d3d986d3","ios":"levelo://app?vid=5ba8b571-e42f-4855-9568-4082d3d986d3"},"vehicle_type_id":"4","last_reported":1708196738,"current_range_meters":31200,"station_id":"ce4bgip2rcd13ifvqbb0","pricing_plan_id":"cebpf4jnsgd1na2vs0mg"},{"bike_id":"317d6286-d0f4-4e81-9c04-350e638ed0ab","system_id":"levelo_inurba_marseille","lat":43.304274,"lon":5.388873,"is_reserved":false,"is_disabled":false,"rental_uris":{"android":"levelo://app?vid=317d6286-d0f4-4e81-9c04-350e638ed0ab","ios":"levelo://app?vid=317d6286-d0f4-4e81-9c04-350e638ed0ab"},"vehicle_type_id":"4","last_reported":1708196738,"current_range_meters":0,"station_id":"ce4bgk12rcd13ifvqbi0","pricing_plan_id":"cebpf4jnsgd1na2vs0mg"},{"bike_id":"275e3b6a-34a0-4db9-a4be-c87df08b7046","system_id":"levelo_inurba_marseille","lat":43.29783,"lon":5.38108,"is_reserved":false,"is_disabled":false,"rental_uris":{"android":"levelo://app?vid=275e3b6a-34a0-4db9-a4be-c87df08b7046","ios":"levelo://app?vid=275e3b6a-34a0-4db9-a4be-c87df08b7046"},"vehicle_type_id":"4","last_reported":1708196738,"current_range_meters":9200,"station_id":"ce4bgip2rcd13ifvqbb0","pricing_plan_id":"cebpf4jnsgd1na2vs0mg"},{"bike_id":"7440a1fc-eaff-471e-a4e3-1268f28511a3","system_id":"levelo_inurba_marseille","lat":43.304274,"lon":5.388873,"is_reserved":false,"is_disabled":false,"rental_uris":{"android":"levelo://app?vid=7440a1fc-eaff-471e-a4e3-1268f28511a3","ios":"levelo://app?vid=7440a1fc-eaff-471e-a4e3-1268f28511a3"},"vehicle_type_id":"4","last_reported":1708196738,"current_range_meters":2800,"station_id":"ce4bgk12rcd13ifvqbi0","pricing_plan_id":"cebpf4jnsgd1na2vs0mg"},{"bike_id":"c031f3b7-3c39-404f-a479-6ec584e72e37","system_id":"levelo_inurba_marseille","lat":43.29788,"lon":5.38134,"is_reserved":false,"is_disabled":false,"rental_uris":{"android":"levelo://app?vid=c031f3b7-3c39-404f-a479-6ec584e72e37","ios":"levelo://app?vid=c031f3b7-3c39-404f-a479-6ec584e72e37"},"vehicle_type_id":"4","last_reported":1708196738,"current_range_meters":31200,"station_id":"ce4bgip2rcd13ifvqbb0","pricing_plan_id":"cebpf4jnsgd1na2vs0mg"},{"bike_id":"05394b98-fad3-400b-8d23-1ec24c1dd69e","system_id":"levelo_inurba_marseille","lat":43.295321,"lon":5.374973,"is_reserved":false,"is_disabled":false,"rental_uris":{"android":"levelo://app?vid=05394b98-fad3-400b-8d23-1ec24c1dd69e","ios":"levelo://app?vid=05394b98-fad3-400b-8d23-1ec24c1dd69e"},"vehicle_type_id":"4","last_reported":1708196738,"current_range_meters":1200,"station_id":"ce4bgkp2rcd13ifvqbmg","pricing_plan_id":"cebpf4jnsgd1na2vs0mg"},{"bike_id":"fab2376a-1e6d-4447-abed-1504d33836d6","system_id":"levelo_inurba_marseille","lat":43.295311,"lon":5.374972,"is_reserved":false,"is_disabled":false,"rental_uris":{"android":"levelo://app?vid=fab2376a-1e6d-4447-abed-1504d33836d6","ios":"levelo://app?vid=fab2376a-1e6d-4447-abed-1504d33836d6"},"vehicle_type_id":"4","last_reported":1708196738,"current_range_meters":30000,"station_id":"ce4bgkp2rcd13ifvqbmg","pricing_plan_id":"cebpf4jnsgd1na2vs0mg"},{"bike_id":"57bb01fd-8940-402f-bae1-921e74fa3ebd","system_id":"levelo_inurba_marseille","lat":43.29531,"lon":5.37499,"is_reserved":false,"is_disabled":false,"rental_uris":{"android":"levelo://app?vid=57bb01fd-8940-402f-bae1-921e74fa3ebd","ios":"levelo://app?vid=57bb01fd-8940-402f-bae1-921e74fa3ebd"},"vehicle_type_id":"4","last_reported":1708196738,"current_range_meters":28800,"station_id":"ce4bgkp2rcd13ifvqbmg","pricing_plan_id":"cebpf4jnsgd1na2vs0mg"},{"bike_id":"c952d4b9-4c29-4572-a8ff-df2c6ac2f1e8","system_id":"levelo_inurba_marseille","lat":43.299717,"lon":5.384845,"is_reserved":false,"is_disabled":false,"rental_uris":{"android":"levelo://app?vid=c952d4b9-4c29-4572-a8ff-df2c6ac2f1e8","ios":"levelo://app?vid=c952d4b9-4c29-4572-a8ff-df2c6ac2f1e8"},"vehicle_type_id":"4","last_reported":1708196738,"current_range_meters":22800,"station_id":"ce4bgj92rcd13ifvqbd0","pricing_plan_id":"cebpf4jnsgd1na2vs0mg"},{"bike_id":"c3cb211d-38b0-4874-b40b-e67a417388f5","system_id":"levelo_inurba_marseille","lat":43.295279,"lon":5.375048,"is_reserved":false,"is_disabled":false,"rental_uris":{"android":"levelo://app?vid=c3cb211d-38b0-4874-b40b-e67a417388f5","ios":"levelo://app?vid=c3cb211d-38b0-4874-b40b-e67a417388f5"},"vehicle_type_id":"4","last_reported":1708196738,"current_range_meters":28400,"station_id":"ce4bgkp2rcd13ifvqbmg","pricing_plan_id":"cebpf4jnsgd1na2vs0mg"},{"bike_id":"3c10812e-8a8b-468f-ab34-8f19d1f5cdf2","system_id":"levelo_inurba_marseille","lat":43.29973,"lon":5.3849,"is_reserved":false,"is_disabled":false,"rental_uris":{"android":"levelo://app?vid=3c10812e-8a8b-468f-ab34-8f19d1f5cdf2","ios":"levelo://app?vid=3c10812e-8a8b-468f-ab34-8f19d1f5cdf2"},"vehicle_type_id":"4","last_reported":1708196738,"current_range_meters":10400,"station_id":"ce4bgj92rcd13ifvqbd0","pricing_plan_id":"cebpf4jnsgd1na2vs0mg"},{"bike_id":"c46d2697-082f-4565-a244-c01a162f19f5","system_id":"levelo_inurba_marseille","lat":43.29971,"lon":5.38489,"is_reserved":false,"is_disabled":false,"rental_uris":{"android":"levelo://app?vid=c46d2697-082f-4565-a244-c01a162f19f5","ios":"levelo://app?vid=c46d2697-082f-4565-a244-c01a162f19f5"},"vehicle_type_id":"4","last_reported":1708196738,"current_range_meters":12000,"station_id":"ce4bgj92rcd13ifvqbd0","pricing_plan_id":"cebpf4jnsgd1na2vs0mg"},{"bike_id":"16f0209c-81d4-4033-b283-8f9610fa87ea","system_id":"levelo_inurba_marseille","lat":43.299724,"lon":5.384848,"is_reserved":false,"is_disabled":false,"rental_uris":{"android":"levelo://app?vid=16f0209c-81d4-4033-b283-8f9610fa87ea","ios":"levelo://app?vid=16f0209c-81d4-4033-b283-8f9610fa87ea"},"vehicle_type_id":"4","last_reported":1708196738,"current_range_meters":400,"station_id":"ce4bgj92rcd13ifvqbd0","pricing_plan_id":"cebpf4jnsgd1na2vs0mg"},{"bike_id":"d1f0129c-641f-4367-a65f-46ab88c1e51b","system_id":"levelo_inurba_marseille","lat":43.299717,"lon":5.384845,"is_reserved":false,"is_disabled":false,"rental_uris":{"android":"levelo://app?vid=d1f0129c-641f-4367-a65f-46ab88c1e51b","ios":"levelo://app?vid=d1f0129c-641f-4367-a65f-46ab88c1e51b"},"vehicle_type_id":"4","last_reported":1708196738,"current_range_meters":4400,"station_id":"ce4bgj92rcd13ifvqbd0","pricing_plan_id":"cebpf4jnsgd1na2vs0mg"},{"bike_id":"bf0a5ef4-7762-484e-8fc0-19bd0ed68a25","system_id":"levelo_inurba_marseille","lat":43.299717,"lon":5.384845,"is_reserved":false,"is_disabled":false,"rental_uris":{"android":"levelo://app?vid=bf0a5ef4-7762-484e-8fc0-19bd0ed68a25","ios":"levelo://app?vid=bf0a5ef4-7762-484e-8fc0-19bd0ed68a25"},"vehicle_type_id":"4","last_reported":1708196738,"current_range_meters":10800,"station_id":"ce4bgj92rcd13ifvqbd0","pricing_plan_id":"cebpf4jnsgd1na2vs0mg"},{"bike_id":"efd09c1b-868e-4d14-a60f-4c49f3e4e4c9","system_id":"levelo_inurba_marseille","lat":43.299691,"lon":5.384956,"is_reserved":false,"is_disabled":false,"rental_uris":{"android":"levelo://app?vid=efd09c1b-868e-4d14-a60f-4c49f3e4e4c9","ios":"levelo://app?vid=efd09c1b-868e-4d14-a60f-4c49f3e4e4c9"},"vehicle_type_id":"4","last_reported":1708196738,"current_range_meters":0,"station_id":"ce4bgj92rcd13ifvqbd0","pricing_plan_id":"cebpf4jnsgd1na2vs0mg"},{"bike_id":"e0ba4656-9eaa-4dcc-b9d7-cb9560e8401b","system_id":"levelo_inurba_marseille","lat":43.299634,"lon":5.38495,"is_reserved":false,"is_disabled":false,"rental_uris":{"android":"levelo://app?vid=e0ba4656-9eaa-4dcc-b9d7-cb9560e8401b","ios":"levelo://app?vid=e0ba4656-9eaa-4dcc-b9d7-cb9560e8401b"},"vehicle_type_id":"4","last_reported":1708196738,"current_range_meters":0,"station_id":"ce4bgj92rcd13ifvqbd0","pricing_plan_id":"cebpf4jnsgd1na2vs0mg"},{"bike_id":"822791dd-a87e-48d9-8182-b0cf3da46db9","system_id":"levelo_inurba_marseille","lat":43.299717,"lon":5.384845,"is_reserved":false,"is_disabled":false,"rental_uris":{"android":"levelo://app?vid=822791dd-a87e-48d9-8182-b0cf3da46db9","ios":"levelo://app?vid=822791dd-a87e-48d9-8182-b0cf3da46db9"},"vehicle_type_id":"4","last_reported":1708196738,"current_range_meters":18800,"station_id":"ce4bgj92rcd13ifvqbd0","pricing_plan_id":"cebpf4jnsgd1na2vs0mg"},{"bike_id":"7c65a84e-8aee-4302-854f-34ab5ac914ee","system_id":"levelo_inurba_marseille","lat":43.299717,"lon":5.384845,"is_reserved":false,"is_disabled":false,"rental_uris":{"android":"levelo://app?vid=7c65a84e-8aee-4302-854f-34ab5ac914ee","ios":"levelo://app?vid=7c65a84e-8aee-4302-854f-34ab5ac914ee"},"vehicle_type_id":"4","last_reported":1708196738,"current_range_meters":8000,"station_id":"ce4bgj92rcd13ifvqbd0","pricing_plan_id":"cebpf4jnsgd1na2vs0mg"},{"bike_id":"13c55455-5afd-4f59-87e0-e5bf20168153","system_id":"levelo_inurba_marseille","lat":43.32367,"lon":5.388836,"is_reserved":false,"is_disabled":false,"rental_uris":{"android":"levelo://app?vid=13c55455-5afd-4f59-87e0-e5bf20168153","ios":"levelo://app?vid=13c55455-5afd-4f59-87e0-e5bf20168153"},"vehicle_type_id":"4","last_reported":1708196738,"current_range_meters":17200,"station_id":"ce4bhqp2rcd13ifvqhog","pricing_plan_id":"cebpf4jnsgd1na2vs0mg"},{"bike_id":"552029bf-ca42-4d0d-83fb-83812017cfd4","system_id":"levelo_inurba_marseille","lat":43.32367,"lon":5.388836,"is_reserved":false,"is_disabled":false,"rental_uris":{"android":"levelo://app?vid=552029bf-ca42-4d0d-83fb-83812017cfd4","ios":"levelo://app?vid=552029bf-ca42-4d0d-83fb-83812017cfd4"},"vehicle_type_id":"4","last_reported":1708196738,"current_range_meters":21200,"station_id":"ce4bhqp2rcd13ifvqhog","pricing_plan_id":"cebpf4jnsgd1na2vs0mg"},{"bike_id":"04bef4fc-f501-41bd-9104-a149c6db62aa","system_id":"levelo_inurba_marseille","lat":43.323658,"lon":5.388861,"is_reserved":false,"is_disabled":false,"rental_uris":{"android":"levelo://app?vid=04bef4fc-f501-41bd-9104-a149c6db62aa","ios":"levelo://app?vid=04bef4fc-f501-41bd-9104-a149c6db62aa"},"vehicle_type_id":"4","last_reported":1708196738,"current_range_meters":10400,"station_id":"ce4bhqp2rcd13ifvqhog","pricing_plan_id":"cebpf4jnsgd1na2vs0mg"},{"bike_id":"11f16d73-52cf-4b59-8120-4e257d4d363b","system_id":"levelo_inurba_marseille","lat":43.32367,"lon":5.388836,"is_reserved":false,"is_disabled":false,"rental_uris":{"android":"levelo://app?vid=11f16d73-52cf-4b59-8120-4e257d4d363b","ios":"levelo://app?vid=11f16d73-52cf-4b59-8120-4e257d4d363b"},"vehicle_type_id":"4","last_reported":1708196738,"current_range_meters":7600,"station_id":"ce4bhqp2rcd13ifvqhog","pricing_plan_id":"cebpf4jnsgd1na2vs0mg"},{"bike_id":"e9fb838e-b288-41f7-8b95-04552e228ee4","system_id":"levelo_inurba_marseille","lat":43.32366,"lon":5.38887,"is_reserved":false,"is_disabled":false,"rental_uris":{"android":"levelo://app?vid=e9fb838e-b288-41f7-8b95-04552e228ee4","ios":"levelo://app?vid=e9fb838e-b288-41f7-8b95-04552e228ee4"},"vehicle_type_id":"4","last_reported":1708196738,"current_range_meters":1200,"station_id":"ce4bhqp2rcd13ifvqhog","pricing_plan_id":"cebpf4jnsgd1na2vs0mg"},{"bike_id":"85b7d3f5-0fa2-43f3-a410-8e41ce1cabfc","system_id":"levelo_inurba_marseille","lat":43.3237,"lon":5.38884,"is_reserved":false,"is_disabled":false,"rental_uris":{"android":"levelo://app?vid=85b7d3f5-0fa2-43f3-a410-8e41ce1cabfc","ios":"levelo://app?vid=85b7d3f5-0fa2-43f3-a410-8e41ce1cabfc"},"vehicle_type_id":"4","last_reported":1708196738,"current_range_meters":7200,"station_id":"ce4bhqp2rcd13ifvqhog","pricing_plan_id":"cebpf4jnsgd1na2vs0mg"},{"bike_id":"097fbc68-0e12-4cda-a32c-f9f7e74ee0ed","system_id":"levelo_inurba_marseille","lat":43.3237,"lon":5.38886,"is_reserved":false,"is_disabled":false,"rental_uris":{"android":"levelo://app?vid=097fbc68-0e12-4cda-a32c-f9f7e74ee0ed","ios":"levelo://app?vid=097fbc68-0e12-4cda-a32c-f9f7e74ee0ed"},"vehicle_type_id":"4","last_reported":1708196738,"current_range_meters":5600,"station_id":"ce4bhqp2rcd13ifvqhog","pricing_plan_id":"cebpf4jnsgd1na2vs0mg"},{"bike_id":"6af73b7c-3333-47f9-9c52-fb4e2c063bc2","system_id":"levelo_inurba_marseille","lat":43.32367,"lon":5.388836,"is_reserved":false,"is_disabled":false,"rental_uris":{"android":"levelo://app?vid=6af73b7c-3333-47f9-9c52-fb4e2c063bc2","ios":"levelo://app?vid=6af73b7c-3333-47f9-9c52-fb4e2c063bc2"},"vehicle_type_id":"4","last_reported":1708196738,"current_range_meters":10400,"station_id":"ce4bhqp2rcd13ifvqhog","pricing_plan_id":"cebpf4jnsgd1na2vs0mg"},{"bike_id":"9d871f50-0327-4348-a9da-d10b72178825","system_id":"levelo_inurba_marseille","lat":43.32369,"lon":5.3889,"is_reserved":false,"is_disabled":false,"rental_uris":{"android":"levelo://app?vid=9d871f50-0327-4348-a9da-d10b72178825","ios":"levelo://app?vid=9d871f50-0327-4348-a9da-d10b72178825"},"vehicle_type_id":"4","last_reported":1708196738,"current_range_meters":23200,"station_id":"ce4bhqp2rcd13ifvqhog","pricing_plan_id":"cebpf4jnsgd1na2vs0mg"},{"bike_id":"e3633733-c4eb-42f9-8eee-9833c39b5588","system_id":"levelo_inurba_marseille","lat":43.29602,"lon":5.381084,"is_reserved":false,"is_disabled":false,"rental_uris":{"android":"levelo://app?vid=e3633733-c4eb-42f9-8eee-9833c39b5588","ios":"levelo://app?vid=e3633733-c4eb-42f9-8eee-9833c39b5588"},"vehicle_type_id":"4","last_reported":1708196738,"current_range_meters":5200,"station_id":"ce4bgl12rcd13ifvqbo0","pricing_plan_id":"cebpf4jnsgd1na2vs0mg"},{"bike_id":"c3bd6795-9f65-4068-a069-3238261fa124","system_id":"levelo_inurba_marseille","lat":43.29602,"lon":5.381084,"is_reserved":false,"is_disabled":false,"rental_uris":{"android":"levelo://app?vid=c3bd6795-9f65-4068-a069-3238261fa124","ios":"levelo://app?vid=c3bd6795-9f65-4068-a069-3238261fa124"},"vehicle_type_id":"4","last_reported":1708196738,"current_range_meters":31200,"station_id":"ce4bgl12rcd13ifvqbo0","pricing_plan_id":"cebpf4jnsgd1na2vs0mg"},{"bike_id":"73f03607-57eb-453f-b85d-72a20a984f8c","system_id":"levelo_inurba_marseille","lat":43.29602,"lon":5.381084,"is_reserved":false,"is_disabled":false,"rental_uris":{"android":"levelo://app?vid=73f03607-57eb-453f-b85d-72a20a984f8c","ios":"levelo://app?vid=73f03607-57eb-453f-b85d-72a20a984f8c"},"vehicle_type_id":"4","last_reported":1708196738,"current_range_meters":7600,"station_id":"ce4bgl12rcd13ifvqbo0","pricing_plan_id":"cebpf4jnsgd1na2vs0mg"},{"bike_id":"3f1e5935-0587-40ba-8dc9-8ac3a21fc8bf","system_id":"levelo_inurba_marseille","lat":43.29601,"lon":5.381084,"is_reserved":false,"is_disabled":false,"rental_uris":{"android":"levelo://app?vid=3f1e5935-0587-40ba-8dc9-8ac3a21fc8bf","ios":"levelo://app?vid=3f1e5935-0587-40ba-8dc9-8ac3a21fc8bf"},"vehicle_type_id":"4","last_reported":1708196738,"current_range_meters":31200,"station_id":"ce4bgl12rcd13ifvqbo0","pricing_plan_id":"cebpf4jnsgd1na2vs0mg"},{"bike_id":"dae7c9d4-6fc7-4147-956b-be12210d993a","system_id":"levelo_inurba_marseille","lat":43.29602,"lon":5.381084,"is_reserved":false,"is_disabled":false,"rental_uris":{"android":"levelo://app?vid=dae7c9d4-6fc7-4147-956b-be12210d993a","ios":"levelo://app?vid=dae7c9d4-6fc7-4147-956b-be12210d993a"},"vehicle_type_id":"4","last_reported":1708196738,"current_range_meters":29600,"station_id":"ce4bgl12rcd13ifvqbo0","pricing_plan_id":"cebpf4jnsgd1na2vs0mg"},{"bike_id":"4fc62dd6-58a0-426e-a230-ca4ed6a44e1f","system_id":"levelo_inurba_marseille","lat":43.29602,"lon":5.381084,"is_reserved":false,"is_disabled":false,"rental_uris":{"android":"levelo://app?vid=4fc62dd6-58a0-426e-a230-ca4ed6a44e1f","ios":"levelo://app?vid=4fc62dd6-58a0-426e-a230-ca4ed6a44e1f"},"vehicle_type_id":"4","last_reported":1708196738,"current_range_meters":0,"station_id":"ce4bgl12rcd13ifvqbo0","pricing_plan_id":"cebpf4jnsgd1na2vs0mg"},{"bike_id":"4ef093c4-eb50-4133-b0de-a03ac9618958","system_id":"levelo_inurba_marseille","lat":43.29602,"lon":5.381084,"is_reserved":false,"is_disabled":false,"rental_uris":{"android":"levelo://app?vid=4ef093c4-eb50-4133-b0de-a03ac9618958","ios":"levelo://app?vid=4ef093c4-eb50-4133-b0de-a03ac9618958"},"vehicle_type_id":"4","last_reported":1708196738,"current_range_meters":28000,"station_id":"ce4bgl12rcd13ifvqbo0","pricing_plan_id":"cebpf4jnsgd1na2vs0mg"},{"bike_id":"d3c0937f-cd1d-4ec1-a61d-2dcf529d7b9d","system_id":"levelo_inurba_marseille","lat":43.293065,"lon":5.371705,"is_reserved":false,"is_disabled":false,"rental_uris":{"android":"levelo://app?vid=d3c0937f-cd1d-4ec1-a61d-2dcf529d7b9d","ios":"levelo://app?vid=d3c0937f-cd1d-4ec1-a61d-2dcf529d7b9d"},"vehicle_type_id":"4","last_reported":1708196738,"current_range_meters":0,"station_id":"ce4bgh92rcd13ifvqb40","pricing_plan_id":"cebpf4jnsgd1na2vs0mg"},{"bike_id":"ec1683b1-2001-4251-8b6d-ba38801a68d2","system_id":"levelo_inurba_marseille","lat":43.292773,"lon":5.368385,"is_reserved":false,"is_disabled":false,"rental_uris":{"android":"levelo://app?vid=ec1683b1-2001-4251-8b6d-ba38801a68d2","ios":"levelo://app?vid=ec1683b1-2001-4251-8b6d-ba38801a68d2"},"vehicle_type_id":"4","last_reported":1708196738,"current_range_meters":6400,"station_id":"ce4bhbp2rcd13ifvqesg","pricing_plan_id":"cebpf4jnsgd1na2vs0mg"},{"bike_id":"d5c39780-986c-4c66-b189-5b4b29aac8d3","system_id":"levelo_inurba_marseille","lat":43.29304,"lon":5.37184,"is_reserved":false,"is_disabled":false,"rental_uris":{"android":"levelo://app?vid=d5c39780-986c-4c66-b189-5b4b29aac8d3","ios":"levelo://app?vid=d5c39780-986c-4c66-b189-5b4b29aac8d3"},"vehicle_type_id":"4","last_reported":1708196738,"current_range_meters":21200,"station_id":"ce4bgh92rcd13ifvqb40","pricing_plan_id":"cebpf4jnsgd1na2vs0mg"},{"bike_id":"da272412-faeb-45db-aca6-9938377e7642","system_id":"levelo_inurba_marseille","lat":43.29302,"lon":5.37171,"is_reserved":false,"is_disabled":false,"rental_uris":{"android":"levelo://app?vid=da272412-faeb-45db-aca6-9938377e7642","ios":"levelo://app?vid=da272412-faeb-45db-aca6-9938377e7642"},"vehicle_type_id":"4","last_reported":1708196738,"current_range_meters":30400,"station_id":"ce4bgh92rcd13ifvqb40","pricing_plan_id":"cebpf4jnsgd1na2vs0mg"},{"bike_id":"faa981c6-4ca2-457c-babd-2880310db4ae","system_id":"levelo_inurba_marseille","lat":43.29273,"lon":5.3684,"is_reserved":false,"is_disabled":false,"rental_uris":{"android":"levelo://app?vid=faa981c6-4ca2-457c-babd-2880310db4ae","ios":"levelo://app?vid=faa981c6-4ca2-457c-babd-2880310db4ae"},"vehicle_type_id":"4","last_reported":1708196738,"current_range_meters":0,"station_id":"ce4bhbp2rcd13ifvqesg","pricing_plan_id":"cebpf4jnsgd1na2vs0mg"},{"bike_id":"0857c47c-d42f-4e85-9836-1cf4d874b603","system_id":"levelo_inurba_marseille","lat":43.292702,"lon":5.368524,"is_reserved":false,"is_disabled":false,"rental_uris":{"android":"levelo://app?vid=0857c47c-d42f-4e85-9836-1cf4d874b603","ios":"levelo://app?vid=0857c47c-d42f-4e85-9836-1cf4d874b603"},"vehicle_type_id":"4","last_reported":1708196738,"current_range_meters":4400,"station_id":"ce4bhbp2rcd13ifvqesg","pricing_plan_id":"cebpf4jnsgd1na2vs0mg"},{"bike_id":"dae9a895-e1c7-42de-809e-aa7941a40398","system_id":"levelo_inurba_marseille","lat":43.29259,"lon":5.36681,"is_reserved":false,"is_disabled":false,"rental_uris":{"android":"levelo://app?vid=dae9a895-e1c7-42de-809e-aa7941a40398","ios":"levelo://app?vid=dae9a895-e1c7-42de-809e-aa7941a40398"},"vehicle_type_id":"4","last_reported":1708196738,"current_range_meters":0,"station_id":"","pricing_plan_id":"cebpf4jnsgd1na2vs0mg"},{"bike_id":"b0e704b6-0bc3-4d8a-ab19-cf437ec4a0c8","system_id":"levelo_inurba_marseille","lat":43.305994,"lon":5.393687,"is_reserved":false,"is_disabled":false,"rental_uris":{"android":"levelo://app?vid=b0e704b6-0bc3-4d8a-ab19-cf437ec4a0c8","ios":"levelo://app?vid=b0e704b6-0bc3-4d8a-ab19-cf437ec4a0c8"},"vehicle_type_id":"4","last_reported":1708196738,"current_range_meters":0,"station_id":"ce4bh0p2rcd13ifvqd80","pricing_plan_id":"cebpf4jnsgd1na2vs0mg"},{"bike_id":"a25df67e-6d71-4ba0-bc9c-8cc59aff685a","system_id":"levelo_inurba_marseille","lat":43.30592,"lon":5.39347,"is_reserved":false,"is_disabled":false,"rental_uris":{"android":"levelo://app?vid=a25df67e-6d71-4ba0-bc9c-8cc59aff685a","ios":"levelo://app?vid=a25df67e-6d71-4ba0-bc9c-8cc59aff685a"},"vehicle_type_id":"4","last_reported":1708196738,"current_range_meters":14400,"station_id":"ce4bh0p2rcd13ifvqd80","pricing_plan_id":"cebpf4jnsgd1na2vs0mg"},{"bike_id":"70832d58-17eb-4906-98aa-7655db3f5883","system_id":"levelo_inurba_marseille","lat":43.293009,"lon":5.374584,"is_reserved":false,"is_disabled":false,"rental_uris":{"android":"levelo://app?vid=70832d58-17eb-4906-98aa-7655db3f5883","ios":"levelo://app?vid=70832d58-17eb-4906-98aa-7655db3f5883"},"vehicle_type_id":"4","last_reported":1708196738,"current_range_meters":5600,"station_id":"ce4bgi12rcd13ifvqb70","pricing_plan_id":"cebpf4jnsgd1na2vs0mg"},{"bike_id":"acf81d2a-e7c1-4ae3-9670-a73733ab2b7c","system_id":"levelo_inurba_marseille","lat":43.305994,"lon":5.393687,"is_reserved":false,"is_disabled":false,"rental_uris":{"android":"levelo://app?vid=acf81d2a-e7c1-4ae3-9670-a73733ab2b7c","ios":"levelo://app?vid=acf81d2a-e7c1-4ae3-9670-a73733ab2b7c"},"vehicle_type_id":"4","last_reported":1708196738,"current_range_meters":11600,"station_id":"ce4bh0p2rcd13ifvqd80","pricing_plan_id":"cebpf4jnsgd1na2vs0mg"},{"bike_id":"cc325701-a2e1-453a-9f03-4239b865b8af","system_id":"levelo_inurba_marseille","lat":43.292311,"lon":5.360731,"is_reserved":false,"is_disabled":false,"rental_uris":{"android":"levelo://app?vid=cc325701-a2e1-453a-9f03-4239b865b8af","ios":"levelo://app?vid=cc325701-a2e1-453a-9f03-4239b865b8af"},"vehicle_type_id":"4","last_reported":1708196738,"current_range_meters":12400,"station_id":"ce4bhbh2rcd13ifvqeqg","pricing_plan_id":"cebpf4jnsgd1na2vs0mg"},{"bike_id":"f4df6cef-4c4b-40b6-babe-2613c18b50f9","system_id":"levelo_inurba_marseille","lat":43.300852,"lon":5.390859,"is_reserved":false,"is_disabled":false,"rental_uris":{"android":"levelo://app?vid=f4df6cef-4c4b-40b6-babe-2613c18b50f9","ios":"levelo://app?vid=f4df6cef-4c4b-40b6-babe-2613c18b50f9"},"vehicle_type_id":"4","last_reported":1708196738,"current_range_meters":800,"station_id":"ce4bh192rcd13ifvqdb0","pricing_plan_id":"cebpf4jnsgd1na2vs0mg"},{"bike_id":"2da10429-a816-4906-be41-49f7c8dfc11a","system_id":"levelo_inurba_marseille","lat":43.2936,"lon":5.37835,"is_reserved":false,"is_disabled":false,"rental_uris":{"android":"levelo://app?vid=2da10429-a816-4906-be41-49f7c8dfc11a","ios":"levelo://app?vid=2da10429-a816-4906-be41-49f7c8dfc11a"},"vehicle_type_id":"4","last_reported":1708196738,"current_range_meters":800,"station_id":"ce4bgjh2rcd13ifvqbf0","pricing_plan_id":"cebpf4jnsgd1na2vs0mg"},{"bike_id":"cc2f24f4-15b5-4a99-a883-dac40554f31d","system_id":"levelo_inurba_marseille","lat":43.293679,"lon":5.378355,"is_reserved":false,"is_disabled":false,"rental_uris":{"android":"levelo://app?vid=cc2f24f4-15b5-4a99-a883-dac40554f31d","ios":"levelo://app?vid=cc2f24f4-15b5-4a99-a883-dac40554f31d"},"vehicle_type_id":"4","last_reported":1708196738,"current_range_meters":0,"station_id":"ce4bgjh2rcd13ifvqbf0","pricing_plan_id":"cebpf4jnsgd1na2vs0mg"},{"bike_id":"95c38453-5355-4642-86af-29d9199ac571","system_id":"levelo_inurba_marseille","lat":43.29573,"lon":5.367355,"is_reserved":false,"is_disabled":false,"rental_uris":{"android":"levelo://app?vid=95c38453-5355-4642-86af-29d9199ac571","ios":"levelo://app?vid=95c38453-5355-4642-86af-29d9199ac571"},"vehicle_type_id":"4","last_reported":1708196738,"current_range_meters":4800,"station_id":"ce4bgph2rcd13ifvqc2g","pricing_plan_id":"cebpf4jnsgd1na2vs0mg"},{"bike_id":"459117ea-1736-4990-8d8b-19904c392063","system_id":"levelo_inurba_marseille","lat":43.2936,"lon":5.37835,"is_reserved":false,"is_disabled":false,"rental_uris":{"android":"levelo://app?vid=459117ea-1736-4990-8d8b-19904c392063","ios":"levelo://app?vid=459117ea-1736-4990-8d8b-19904c392063"},"vehicle_type_id":"4","last_reported":1708196738,"current_range_meters":2800,"station_id":"ce4bgjh2rcd13ifvqbf0","pricing_plan_id":"cebpf4jnsgd1na2vs0mg"},{"bike_id":"14d38a71-940a-4c1d-bb18-aae712e9c456","system_id":"levelo_inurba_marseille","lat":43.292311,"lon":5.360731,"is_reserved":false,"is_disabled":false,"rental_uris":{"android":"levelo://app?vid=14d38a71-940a-4c1d-bb18-aae712e9c456","ios":"levelo://app?vid=14d38a71-940a-4c1d-bb18-aae712e9c456"},"vehicle_type_id":"4","last_reported":1708196738,"current_range_meters":2800,"station_id":"ce4bhbh2rcd13ifvqeqg","pricing_plan_id":"cebpf4jnsgd1na2vs0mg"},{"bike_id":"6a257bf3-37cb-4d8c-87ab-2ef146f2c70b","system_id":"levelo_inurba_marseille","lat":43.292311,"lon":5.360731,"is_reserved":false,"is_disabled":false,"rental_uris":{"android":"levelo://app?vid=6a257bf3-37cb-4d8c-87ab-2ef146f2c70b","ios":"levelo://app?vid=6a257bf3-37cb-4d8c-87ab-2ef146f2c70b"},"vehicle_type_id":"4","last_reported":1708196738,"current_range_meters":0,"station_id":"ce4bhbh2rcd13ifvqeqg","pricing_plan_id":"cebpf4jnsgd1na2vs0mg"},{"bike_id":"df971d0c-afc9-405b-8678-866365656548","system_id":"levelo_inurba_marseille","lat":43.29217,"lon":5.36043,"is_reserved":false,"is_disabled":false,"rental_uris":{"android":"levelo://app?vid=df971d0c-afc9-405b-8678-866365656548","ios":"levelo://app?vid=df971d0c-afc9-405b-8678-866365656548"},"vehicle_type_id":"4","last_reported":1708196738,"current_range_meters":22400,"station_id":"ce4bhbh2rcd13ifvqeqg","pricing_plan_id":"cebpf4jnsgd1na2vs0mg"},{"bike_id":"1e4210e4-4b89-451a-ad2f-71ee969768c6","system_id":"levelo_inurba_marseille","lat":43.303002,"lon":5.392142,"is_reserved":false,"is_disabled":false,"rental_uris":{"android":"levelo://app?vid=1e4210e4-4b89-451a-ad2f-71ee969768c6","ios":"levelo://app?vid=1e4210e4-4b89-451a-ad2f-71ee969768c6"},"vehicle_type_id":"4","last_reported":1708196738,"current_range_meters":7200,"station_id":"ce4bgkh2rcd13ifvqbk0","pricing_plan_id":"cebpf4jnsgd1na2vs0mg"},{"bike_id":"62272959-a2e3-4fe6-a94f-e791e3bd2a9d","system_id":"levelo_inurba_marseille","lat":43.293009,"lon":5.374584,"is_reserved":false,"is_disabled":false,"rental_uris":{"android":"levelo://app?vid=62272959-a2e3-4fe6-a94f-e791e3bd2a9d","ios":"levelo://app?vid=62272959-a2e3-4fe6-a94f-e791e3bd2a9d"},"vehicle_type_id":"4","last_reported":1708196738,"current_range_meters":4800,"station_id":"ce4bgi12rcd13ifvqb70","pricing_plan_id":"cebpf4jnsgd1na2vs0mg"},{"bike_id":"5891ac4e-1b61-4f05-bccb-975361ac5ee4","system_id":"levelo_inurba_marseille","lat":43.293009,"lon":5.374584,"is_reserved":false,"is_disabled":false,"rental_uris":{"android":"levelo://app?vid=5891ac4e-1b61-4f05-bccb-975361ac5ee4","ios":"levelo://app?vid=5891ac4e-1b61-4f05-bccb-975361ac5ee4"},"vehicle_type_id":"4","last_reported":1708196738,"current_range_meters":1600,"station_id":"ce4bgi12rcd13ifvqb70","pricing_plan_id":"cebpf4jnsgd1na2vs0mg"},{"bike_id":"674c286a-4c67-4548-bd37-bad9822d0b71","system_id":"levelo_inurba_marseille","lat":43.291671,"lon":5.371575,"is_reserved":false,"is_disabled":false,"rental_uris":{"android":"levelo://app?vid=674c286a-4c67-4548-bd37-bad9822d0b71","ios":"levelo://app?vid=674c286a-4c67-4548-bd37-bad9822d0b71"},"vehicle_type_id":"4","last_reported":1708196738,"current_range_meters":0,"station_id":"ce4bha92rcd13ifvqeh0","pricing_plan_id":"cebpf4jnsgd1na2vs0mg"},{"bike_id":"aadf9e66-5ad4-40c6-8764-0467ec6aedf4","system_id":"levelo_inurba_marseille","lat":43.291671,"lon":5.371575,"is_reserved":false,"is_disabled":false,"rental_uris":{"android":"levelo://app?vid=aadf9e66-5ad4-40c6-8764-0467ec6aedf4","ios":"levelo://app?vid=aadf9e66-5ad4-40c6-8764-0467ec6aedf4"},"vehicle_type_id":"4","last_reported":1708196738,"current_range_meters":16400,"station_id":"ce4bha92rcd13ifvqeh0","pricing_plan_id":"cebpf4jnsgd1na2vs0mg"},{"bike_id":"bb1e5163-0f67-4680-8637-1401cb8a10d8","system_id":"levelo_inurba_marseille","lat":43.291675,"lon":5.371583,"is_reserved":false,"is_disabled":false,"rental_uris":{"android":"levelo://app?vid=bb1e5163-0f67-4680-8637-1401cb8a10d8","ios":"levelo://app?vid=bb1e5163-0f67-4680-8637-1401cb8a10d8"},"vehicle_type_id":"4","last_reported":1708196738,"current_range_meters":800,"station_id":"ce4bha92rcd13ifvqeh0","pricing_plan_id":"cebpf4jnsgd1na2vs0mg"},{"bike_id":"f44ca9d7-1009-4b21-8ab2-792b55dc8857","system_id":"levelo_inurba_marseille","lat":43.291671,"lon":5.371575,"is_reserved":false,"is_disabled":false,"rental_uris":{"android":"levelo://app?vid=f44ca9d7-1009-4b21-8ab2-792b55dc8857","ios":"levelo://app?vid=f44ca9d7-1009-4b21-8ab2-792b55dc8857"},"vehicle_type_id":"4","last_reported":1708196738,"current_range_meters":0,"station_id":"ce4bha92rcd13ifvqeh0","pricing_plan_id":"cebpf4jnsgd1na2vs0mg"},{"bike_id":"63134229-6287-4a1f-9fb8-ddde6b1d3c02","system_id":"levelo_inurba_marseille","lat":43.29165,"lon":5.37143,"is_reserved":false,"is_disabled":false,"rental_uris":{"android":"levelo://app?vid=63134229-6287-4a1f-9fb8-ddde6b1d3c02","ios":"levelo://app?vid=63134229-6287-4a1f-9fb8-ddde6b1d3c02"},"vehicle_type_id":"4","last_reported":1708196738,"current_range_meters":0,"station_id":"","pricing_plan_id":"cebpf4jnsgd1na2vs0mg"},{"bike_id":"9d8f156f-6f06-470b-85c8-dc6496b9600b","system_id":"levelo_inurba_marseille","lat":43.291671,"lon":5.371575,"is_reserved":false,"is_disabled":false,"rental_uris":{"android":"levelo://app?vid=9d8f156f-6f06-470b-85c8-dc6496b9600b","ios":"levelo://app?vid=9d8f156f-6f06-470b-85c8-dc6496b9600b"},"vehicle_type_id":"4","last_reported":1708196738,"current_range_meters":4000,"station_id":"ce4bha92rcd13ifvqeh0","pricing_plan_id":"cebpf4jnsgd1na2vs0mg"},{"bike_id":"1b626dec-7a22-45e3-8d17-c07ccb853cd9","system_id":"levelo_inurba_marseille","lat":43.298847,"lon":5.38922,"is_reserved":false,"is_disabled":false,"rental_uris":{"android":"levelo://app?vid=1b626dec-7a22-45e3-8d17-c07ccb853cd9","ios":"levelo://app?vid=1b626dec-7a22-45e3-8d17-c07ccb853cd9"},"vehicle_type_id":"4","last_reported":1708196738,"current_range_meters":2400,"station_id":"ce4bh392rcd13ifvqdl0","pricing_plan_id":"cebpf4jnsgd1na2vs0mg"},{"bike_id":"791bdd84-9d44-431a-8a3b-48494e902f30","system_id":"levelo_inurba_marseille","lat":43.291675,"lon":5.371583,"is_reserved":false,"is_disabled":false,"rental_uris":{"android":"levelo://app?vid=791bdd84-9d44-431a-8a3b-48494e902f30","ios":"levelo://app?vid=791bdd84-9d44-431a-8a3b-48494e902f30"},"vehicle_type_id":"4","last_reported":1708196738,"current_range_meters":0,"station_id":"ce4bha92rcd13ifvqeh0","pricing_plan_id":"cebpf4jnsgd1na2vs0mg"},{"bike_id":"c648d08d-c402-40f9-8fad-846846512446","system_id":"levelo_inurba_marseille","lat":43.29529,"lon":5.385581,"is_reserved":false,"is_disabled":false,"rental_uris":{"android":"levelo://app?vid=c648d08d-c402-40f9-8fad-846846512446","ios":"levelo://app?vid=c648d08d-c402-40f9-8fad-846846512446"},"vehicle_type_id":"4","last_reported":1708196738,"current_range_meters":3200,"station_id":"ce4bgih2rcd13ifvqba0","pricing_plan_id":"cebpf4jnsgd1na2vs0mg"},{"bike_id":"7acfc725-0b14-4b16-aafb-d87867498226","system_id":"levelo_inurba_marseille","lat":43.330442,"lon":5.389148,"is_reserved":false,"is_disabled":false,"rental_uris":{"android":"levelo://app?vid=7acfc725-0b14-4b16-aafb-d87867498226","ios":"levelo://app?vid=7acfc725-0b14-4b16-aafb-d87867498226"},"vehicle_type_id":"4","last_reported":1708196738,"current_range_meters":7600,"station_id":"ce4bhr92rcd13ifvqhrg","pricing_plan_id":"cebpf4jnsgd1na2vs0mg"},{"bike_id":"965da1ac-1e01-49d6-8c48-5eed15747cfd","system_id":"levelo_inurba_marseille","lat":43.313291,"lon":5.396838,"is_reserved":false,"is_disabled":false,"rental_uris":{"android":"levelo://app?vid=965da1ac-1e01-49d6-8c48-5eed15747cfd","ios":"levelo://app?vid=965da1ac-1e01-49d6-8c48-5eed15747cfd"},"vehicle_type_id":"4","last_reported":1708196738,"current_range_meters":12800,"station_id":"ce4bgvp2rcd13ifvqcu0","pricing_plan_id":"cebpf4jnsgd1na2vs0mg"},{"bike_id":"458b607e-417c-4354-bae4-e1a5b1e470f5","system_id":"levelo_inurba_marseille","lat":43.313291,"lon":5.396838,"is_reserved":false,"is_disabled":false,"rental_uris":{"android":"levelo://app?vid=458b607e-417c-4354-bae4-e1a5b1e470f5","ios":"levelo://app?vid=458b607e-417c-4354-bae4-e1a5b1e470f5"},"vehicle_type_id":"4","last_reported":1708196738,"current_range_meters":7200,"station_id":"ce4bgvp2rcd13ifvqcu0","pricing_plan_id":"cebpf4jnsgd1na2vs0mg"},{"bike_id":"3ac07de6-d369-4cf5-8bb1-3f73b0fde73d","system_id":"levelo_inurba_marseille","lat":43.291994,"lon":5.357886,"is_reserved":false,"is_disabled":false,"rental_uris":{"android":"levelo://app?vid=3ac07de6-d369-4cf5-8bb1-3f73b0fde73d","ios":"levelo://app?vid=3ac07de6-d369-4cf5-8bb1-3f73b0fde73d"},"vehicle_type_id":"4","last_reported":1708196738,"current_range_meters":0,"station_id":"ce4bhb12rcd13ifvqel0","pricing_plan_id":"cebpf4jnsgd1na2vs0mg"},{"bike_id":"bc93e66b-47e3-44bc-a390-d1ce5c835470","system_id":"levelo_inurba_marseille","lat":43.291994,"lon":5.357886,"is_reserved":false,"is_disabled":false,"rental_uris":{"android":"levelo://app?vid=bc93e66b-47e3-44bc-a390-d1ce5c835470","ios":"levelo://app?vid=bc93e66b-47e3-44bc-a390-d1ce5c835470"},"vehicle_type_id":"4","last_reported":1708196738,"current_range_meters":31200,"station_id":"ce4bhb12rcd13ifvqel0","pricing_plan_id":"cebpf4jnsgd1na2vs0mg"},{"bike_id":"9da59ff8-bbeb-41b1-9799-b7eddbb9f4c6","system_id":"levelo_inurba_marseille","lat":43.29193,"lon":5.35789,"is_reserved":false,"is_disabled":false,"rental_uris":{"android":"levelo://app?vid=9da59ff8-bbeb-41b1-9799-b7eddbb9f4c6","ios":"levelo://app?vid=9da59ff8-bbeb-41b1-9799-b7eddbb9f4c6"},"vehicle_type_id":"4","last_reported":1708196738,"current_range_meters":30400,"station_id":"ce4bhb12rcd13ifvqel0","pricing_plan_id":"cebpf4jnsgd1na2vs0mg"},{"bike_id":"414ffde9-5443-4726-a51f-4a95bd837eec","system_id":"levelo_inurba_marseille","lat":43.29188,"lon":5.35806,"is_reserved":false,"is_disabled":false,"rental_uris":{"android":"levelo://app?vid=414ffde9-5443-4726-a51f-4a95bd837eec","ios":"levelo://app?vid=414ffde9-5443-4726-a51f-4a95bd837eec"},"vehicle_type_id":"4","last_reported":1708196738,"current_range_meters":28800,"station_id":"","pricing_plan_id":"cebpf4jnsgd1na2vs0mg"},{"bike_id":"12368a32-957f-4675-a8a1-13ffa95cf081","system_id":"levelo_inurba_marseille","lat":43.313291,"lon":5.396838,"is_reserved":false,"is_disabled":false,"rental_uris":{"android":"levelo://app?vid=12368a32-957f-4675-a8a1-13ffa95cf081","ios":"levelo://app?vid=12368a32-957f-4675-a8a1-13ffa95cf081"},"vehicle_type_id":"4","last_reported":1708196738,"current_range_meters":19200,"station_id":"ce4bgvp2rcd13ifvqcu0","pricing_plan_id":"cebpf4jnsgd1na2vs0mg"},{"bike_id":"c8baa93c-f667-4602-8ee9-49c5c1e90dcc","system_id":"levelo_inurba_marseille","lat":43.309038,"lon":5.396546,"is_reserved":false,"is_disabled":false,"rental_uris":{"android":"levelo://app?vid=c8baa93c-f667-4602-8ee9-49c5c1e90dcc","ios":"levelo://app?vid=c8baa93c-f667-4602-8ee9-49c5c1e90dcc"},"vehicle_type_id":"4","last_reported":1708196738,"current_range_meters":800,"station_id":"ce4bh012rcd13ifvqcv0","pricing_plan_id":"cebpf4jnsgd1na2vs0mg"},{"bike_id":"76249670-e724-41c7-96b1-24dd765bb58c","system_id":"levelo_inurba_marseille","lat":43.30882,"lon":5.39651,"is_reserved":false,"is_disabled":false,"rental_uris":{"android":"levelo://app?vid=76249670-e724-41c7-96b1-24dd765bb58c","ios":"levelo://app?vid=76249670-e724-41c7-96b1-24dd765bb58c"},"vehicle_type_id":"4","last_reported":1708196738,"current_range_meters":12000,"station_id":"ce4bh012rcd13ifvqcv0","pricing_plan_id":"cebpf4jnsgd1na2vs0mg"},{"bike_id":"ad324ade-ac94-47ea-af00-e3adff6bf41d","system_id":"levelo_inurba_marseille","lat":43.29184,"lon":5.35797,"is_reserved":false,"is_disabled":false,"rental_uris":{"android":"levelo://app?vid=ad324ade-ac94-47ea-af00-e3adff6bf41d","ios":"levelo://app?vid=ad324ade-ac94-47ea-af00-e3adff6bf41d"},"vehicle_type_id":"4","last_reported":1708196738,"current_range_meters":4400,"station_id":"ce4bhb12rcd13ifvqel0","pricing_plan_id":"cebpf4jnsgd1na2vs0mg"},{"bike_id":"e2d748a1-8ed7-4b71-bf29-18fcbe87ced8","system_id":"levelo_inurba_marseille","lat":43.29178,"lon":5.35797,"is_reserved":false,"is_disabled":false,"rental_uris":{"android":"levelo://app?vid=e2d748a1-8ed7-4b71-bf29-18fcbe87ced8","ios":"levelo://app?vid=e2d748a1-8ed7-4b71-bf29-18fcbe87ced8"},"vehicle_type_id":"4","last_reported":1708196738,"current_range_meters":30800,"station_id":"ce4bhb12rcd13ifvqel0","pricing_plan_id":"cebpf4jnsgd1na2vs0mg"},{"bike_id":"3882b08b-dc39-484f-be41-892df0ad3741","system_id":"levelo_inurba_marseille","lat":43.29529,"lon":5.385581,"is_reserved":false,"is_disabled":false,"rental_uris":{"android":"levelo://app?vid=3882b08b-dc39-484f-be41-892df0ad3741","ios":"levelo://app?vid=3882b08b-dc39-484f-be41-892df0ad3741"},"vehicle_type_id":"4","last_reported":1708196738,"current_range_meters":8400,"station_id":"ce4bgih2rcd13ifvqba0","pricing_plan_id":"cebpf4jnsgd1na2vs0mg"},{"bike_id":"ba6850ed-a21c-49b0-abe1-d28a44d75614","system_id":"levelo_inurba_marseille","lat":43.29535,"lon":5.38539,"is_reserved":false,"is_disabled":false,"rental_uris":{"android":"levelo://app?vid=ba6850ed-a21c-49b0-abe1-d28a44d75614","ios":"levelo://app?vid=ba6850ed-a21c-49b0-abe1-d28a44d75614"},"vehicle_type_id":"4","last_reported":1708196738,"current_range_meters":4800,"station_id":"ce4bgih2rcd13ifvqba0","pricing_plan_id":"cebpf4jnsgd1na2vs0mg"},{"bike_id":"3fb4fbd7-8bb1-41ad-9ddc-88be852d4572","system_id":"levelo_inurba_marseille","lat":43.29541,"lon":5.38552,"is_reserved":false,"is_disabled":false,"rental_uris":{"android":"levelo://app?vid=3fb4fbd7-8bb1-41ad-9ddc-88be852d4572","ios":"levelo://app?vid=3fb4fbd7-8bb1-41ad-9ddc-88be852d4572"},"vehicle_type_id":"4","last_reported":1708196738,"current_range_meters":4800,"station_id":"ce4bgih2rcd13ifvqba0","pricing_plan_id":"cebpf4jnsgd1na2vs0mg"},{"bike_id":"4118afc0-9f78-41f0-84e3-9f7095b5fddf","system_id":"levelo_inurba_marseille","lat":43.29529,"lon":5.385581,"is_reserved":false,"is_disabled":false,"rental_uris":{"android":"levelo://app?vid=4118afc0-9f78-41f0-84e3-9f7095b5fddf","ios":"levelo://app?vid=4118afc0-9f78-41f0-84e3-9f7095b5fddf"},"vehicle_type_id":"4","last_reported":1708196738,"current_range_meters":30400,"station_id":"ce4bgih2rcd13ifvqba0","pricing_plan_id":"cebpf4jnsgd1na2vs0mg"},{"bike_id":"61b9516e-d939-4ae4-9bb7-1ab1c4669528","system_id":"levelo_inurba_marseille","lat":43.29529,"lon":5.385581,"is_reserved":false,"is_disabled":false,"rental_uris":{"android":"levelo://app?vid=61b9516e-d939-4ae4-9bb7-1ab1c4669528","ios":"levelo://app?vid=61b9516e-d939-4ae4-9bb7-1ab1c4669528"},"vehicle_type_id":"4","last_reported":1708196738,"current_range_meters":22400,"station_id":"ce4bgih2rcd13ifvqba0","pricing_plan_id":"cebpf4jnsgd1na2vs0mg"},{"bike_id":"62980f79-1740-41b3-a811-cdfb1098d4d0","system_id":"levelo_inurba_marseille","lat":43.29529,"lon":5.385581,"is_reserved":false,"is_disabled":false,"rental_uris":{"android":"levelo://app?vid=62980f79-1740-41b3-a811-cdfb1098d4d0","ios":"levelo://app?vid=62980f79-1740-41b3-a811-cdfb1098d4d0"},"vehicle_type_id":"4","last_reported":1708196738,"current_range_meters":30000,"station_id":"ce4bgih2rcd13ifvqba0","pricing_plan_id":"cebpf4jnsgd1na2vs0mg"},{"bike_id":"691337fe-ad79-4fea-9261-ecce7b786ecc","system_id":"levelo_inurba_marseille","lat":43.29529,"lon":5.385581,"is_reserved":false,"is_disabled":false,"rental_uris":{"android":"levelo://app?vid=691337fe-ad79-4fea-9261-ecce7b786ecc","ios":"levelo://app?vid=691337fe-ad79-4fea-9261-ecce7b786ecc"},"vehicle_type_id":"4","last_reported":1708196738,"current_range_meters":16000,"station_id":"ce4bgih2rcd13ifvqba0","pricing_plan_id":"cebpf4jnsgd1na2vs0mg"},{"bike_id":"2852128a-ef8a-4b31-bbb3-4206754baad2","system_id":"levelo_inurba_marseille","lat":43.295348,"lon":5.38548,"is_reserved":false,"is_disabled":false,"rental_uris":{"android":"levelo://app?vid=2852128a-ef8a-4b31-bbb3-4206754baad2","ios":"levelo://app?vid=2852128a-ef8a-4b31-bbb3-4206754baad2"},"vehicle_type_id":"4","last_reported":1708196738,"current_range_meters":8400,"station_id":"ce4bgih2rcd13ifvqba0","pricing_plan_id":"cebpf4jnsgd1na2vs0mg"},{"bike_id":"1e5b1418-5066-4987-97d6-6ea13b0f45c6","system_id":"levelo_inurba_marseille","lat":43.2953,"lon":5.38542,"is_reserved":false,"is_disabled":false,"rental_uris":{"android":"levelo://app?vid=1e5b1418-5066-4987-97d6-6ea13b0f45c6","ios":"levelo://app?vid=1e5b1418-5066-4987-97d6-6ea13b0f45c6"},"vehicle_type_id":"4","last_reported":1708196738,"current_range_meters":13200,"station_id":"ce4bgih2rcd13ifvqba0","pricing_plan_id":"cebpf4jnsgd1na2vs0mg"},