{"last_updated":1701706173,"ttl":30,"version":"2.2","data":{"bikes":[{"bike_id":"549e12a1-62c9-4bbb-9a3a-a61e019544aa","system_id":"levelo_inurba_marseille","lat":43.313519,"lon":5.367169,"is_reserved":false,"is_disabled":false,"rental_uris":{"android":"levelo://app?vid=549e12a1-62c9-4bbb-9a3a-a61e019544aa","ios":"levelo://app?vid=549e12a1-62c9-4bbb-9a3a-a61e019544aa"},"vehicle_type_id":"4","last_reported":1701706173,"current_range_meters":31200,"station_id":"ce4bgr92rcd13ifvqc6g","pricing_plan_id":"free"},{"bike_id":"0637ab4b-796f-4481-bf55-db78446d9143","system_id":"levelo_inurba_marseille","lat":43.313391,"lon":5.36706,"is_reserved":false,"is_disabled":false,"rental_uris":{"android":"levelo://app?vid=0637ab4b-796f-4481-bf55-db78446d9143","ios":"levelo://app?vid=0637ab4b-796f-4481-bf55-db78446d9143"},"vehicle_type_id":"4","last_reported":1701706173,"current_range_meters":13600,"station_id":"ce4bgr92rcd13ifvqc6g","pricing_plan_id":"free"},{"bike_id":"329896f5-e6d6-4f46-ba59-d0c444e5a534","system_id":"levelo_inurba_marseille","lat":43.313592,"lon":5.367132,"is_reserved":false,"is_disabled":false,"rental_uris":{"android":"levelo://app?vid=329896f5-e6d6-4f46-ba59-d0c444e5a534","ios":"levelo://app?vid=329896f5-e6d6-4f46-ba59-d0c444e5a534"},"vehicle_type_id":"4","last_reported":1701706173,"current_range_meters":14800,"station_id":"ce4bgr92rcd13ifvqc6g","pricing_plan_id":"free"},{"bike_id":"93bc443b-95f1-4e8b-aa1e-4ae50e6b89d7","system_id":"levelo_inurba_marseille","lat":43.3136,"lon":5.36723,"is_reserved":false,"is_disabled":false,"rental_uris":{"android":"levelo://app?vid=93bc443b-95f1-4e8b-aa1e-4ae50e6b89d7","ios":"levelo://app?vid=93bc443b-95f1-4e8b-aa1e-4ae50e6b89d7"},"vehicle_type_id":"4","last_reported":1701706173,"current_range_meters":19600,"station_id":"ce4bgr92rcd13ifvqc6g","pricing_plan_id":"free"},{"bike_id":"702e6b40-3bf5-448b-812d-f0255050294b","system_id":"levelo_inurba_marseille","lat":43.312239,"lon":5.368562,"is_reserved":false,"is_disabled":false,"rental_uris":{"android":"levelo://app?vid=702e6b40-3bf5-448b-812d-f0255050294b","ios":"levelo://app?vid=702e6b40-3bf5-448b-812d-f0255050294b"},"vehicle_type_id":"4","last_reported":1701706173,"current_range_meters":25600,"station_id":"ce4bgl92rcd13ifvqbq0","pricing_plan_id":"free"},{"bike_id":"8e9566f4-bb76-47ca-92f2-69cf9756d197","system_id":"levelo_inurba_marseille","lat":43.31238,"lon":5.36857,"is_reserved":false,"is_disabled":false,"rental_uris":{"android":"levelo://app?vid=8e9566f4-bb76-47ca-92f2-69cf9756d197","ios":"levelo://app?vid=8e9566f4-bb76-47ca-92f2-69cf9756d197"},"vehicle_type_id":"4","last_reported":1701706173,"current_range_meters":13600,"station_id":"ce4bgl92rcd13ifvqbq0","pricing_plan_id":"free"},{"bike_id":"49971ac8-eb05-4661-8b00-5548faed97d1","system_id":"levelo_inurba_marseille","lat":43.312239,"lon":5.368562,"is_reserved":false,"is_disabled":false,"rental_uris":{"android":"levelo://app?vid=49971ac8-eb05-4661-8b00-5548faed97d1","ios":"levelo://app?vid=49971ac8-eb05-4661-8b00-5548faed97d1"},"vehicle_type_id":"4","last_reported":1701706173,"current_range_meters":21200,"station_id":"ce4bgl92rcd13ifvqbq0","pricing_plan_id":"free"},{"bike_id":"285c93d8-a911-4b68-b9ca-c285ac9c9041","system_id":"levelo_inurba_marseille","lat":43.312239,"lon":5.368562,"is_reserved":false,"is_disabled":false,"rental_uris":{"android":"levelo://app?vid=285c93d8-a911-4b68-b9ca-c285ac9c9041","ios":"levelo://app?vid=285c93d8-a911-4b68-b9ca-c285ac9c9041"},"vehicle_type_id":"4","last_reported":1701706173,"current_range_meters":30400,"station_id":"ce4bgl92rcd13ifvqbq0","pricing_plan_id":"free"},{"bike_id":"f242a988-a4b6-4536-94a4-6fd246efa981","system_id":"levelo_inurba_marseille","lat":43.314811,"lon":5.373103,"is_reserved":false,"is_disabled":false,"rental_uris":{"android":"levelo://app?vid=f242a988-a4b6-4536-94a4-6fd246efa981","ios":"levelo://app?vid=f242a988-a4b6-4536-94a4-6fd246efa981"},"vehicle_type_id":"4","last_reported":1701706173,"current_range_meters":17200,"station_id":"ce4bgt12rcd13ifvqcd0","pricing_plan_id":"free"},{"bike_id":"964dbc32-8e3e-4ab0-b2ce-a32b14c1f110","system_id":"levelo_inurba_marseille","lat":43.314811,"lon":5.373104,"is_reserved":false,"is_disabled":false,"rental_uris":{"android":"levelo://app?vid=964dbc32-8e3e-4ab0-b2ce-a32b14c1f110","ios":"levelo://app?vid=964dbc32-8e3e-4ab0-b2ce-a32b14c1f110"},"vehicle_type_id":"4","last_reported":1701706173,"current_range_meters":19200,"station_id":"ce4bgt12rcd13ifvqcd0","pricing_plan_id":"free"},{"bike_id":"c4aff212-26d9-4865-9629-a104e3b3b138","system_id":"levelo_inurba_marseille","lat":43.309039,"lon":5.371797,"is_reserved":false,"is_disabled":false,"rental_uris":{"android":"levelo://app?vid=c4aff212-26d9-4865-9629-a104e3b3b138","ios":"levelo://app?vid=c4aff212-26d9-4865-9629-a104e3b3b138"},"vehicle_type_id":"4","last_reported":1701706173,"current_range_meters":26000,"station_id":"ce4bguh2rcd13ifvqckg","pricing_plan_id":"free"},{"bike_id":"8780c6b3-0d22-4bb9-8137-d6254ef8c48a","system_id":"levelo_inurba_marseille","lat":43.309039,"lon":5.371797,"is_reserved":false,"is_disabled":false,"rental_uris":{"android":"levelo://app?vid=8780c6b3-0d22-4bb9-8137-d6254ef8c48a","ios":"levelo://app?vid=8780c6b3-0d22-4bb9-8137-d6254ef8c48a"},"vehicle_type_id":"4","last_reported":1701706173,"current_range_meters":28400,"station_id":"ce4bguh2rcd13ifvqckg","pricing_plan_id":"free"},{"bike_id":"9a72667a-4079-4e7b-a49b-47b16b25e7fd","system_id":"levelo_inurba_marseille","lat":43.3112,"lon":5.37763,"is_reserved":false,"is_disabled":false,"rental_uris":{"android":"levelo://app?vid=9a72667a-4079-4e7b-a49b-47b16b25e7fd","ios":"levelo://app?vid=9a72667a-4079-4e7b-a49b-47b16b25e7fd"},"vehicle_type_id":"4","last_reported":1701706173,"current_range_meters":10000,"station_id":"ce4bgt92rcd13ifvqcg0","pricing_plan_id":"free"},{"bike_id":"0af5e360-5543-43f0-8429-715616c50783","system_id":"levelo_inurba_marseille","lat":43.311224,"lon":5.377676,"is_reserved":false,"is_disabled":false,"rental_uris":{"android":"levelo://app?vid=0af5e360-5543-43f0-8429-715616c50783","ios":"levelo://app?vid=0af5e360-5543-43f0-8429-715616c50783"},"vehicle_type_id":"4","last_reported":1701706173,"current_range_meters":25600,"station_id":"","pricing_plan_id":"free"},{"bike_id":"5d597ddc-1808-4b9b-82bd-5e6a70aefaca","system_id":"levelo_inurba_marseille","lat":43.31943,"lon":5.373003,"is_reserved":false,"is_disabled":false,"rental_uris":{"android":"levelo://app?vid=5d597ddc-1808-4b9b-82bd-5e6a70aefaca","ios":"levelo://app?vid=5d597ddc-1808-4b9b-82bd-5e6a70aefaca"},"vehicle_type_id":"4","last_reported":1701706173,"current_range_meters":0,"station_id":"","pricing_plan_id":"free"},{"bike_id":"c0799d16-c8a8-4cee-9b0a-69ef1a765b40","system_id":"levelo_inurba_marseille","lat":43.30814,"lon":5.37676,"is_reserved":false,"is_disabled":false,"rental_uris":{"android":"levelo://app?vid=c0799d16-c8a8-4cee-9b0a-69ef1a765b40","ios":"levelo://app?vid=c0799d16-c8a8-4cee-9b0a-69ef1a765b40"},"vehicle_type_id":"4","last_reported":1701706173,"current_range_meters":28000,"station_id":"ce4bgv92rcd13ifvqcq0","pricing_plan_id":"free"},{"bike_id":"fb6fd937-527b-4585-9058-0dfdc6436ac8","system_id":"levelo_inurba_marseille","lat":43.31351,"lon":5.37909,"is_reserved":false,"is_disabled":false,"rental_uris":{"android":"levelo://app?vid=fb6fd937-527b-4585-9058-0dfdc6436ac8","ios":"levelo://app?vid=fb6fd937-527b-4585-9058-0dfdc6436ac8"},"vehicle_type_id":"4","last_reported":1701706173,"current_range_meters":13600,"station_id":"","pricing_plan_id":"free"},{"bike_id":"4f060e9e-aca2-4257-a6ca-f6628812f38f","system_id":"levelo_inurba_marseille","lat":43.315208,"lon":5.380369,"is_reserved":false,"is_disabled":false,"rental_uris":{"android":"levelo://app?vid=4f060e9e-aca2-4257-a6ca-f6628812f38f","ios":"levelo://app?vid=4f060e9e-aca2-4257-a6ca-f6628812f38f"},"vehicle_type_id":"4","last_reported":1701706173,"current_range_meters":21600,"station_id":"ce4bhsp2rcd13ifvqi50","pricing_plan_id":"free"},{"bike_id":"04ce09ab-fc10-4385-b317-03800d51e81b","system_id":"levelo_inurba_marseille","lat":43.301939,"lon":5.366286,"is_reserved":false,"is_disabled":false,"rental_uris":{"android":"levelo://app?vid=04ce09ab-fc10-4385-b317-03800d51e81b","ios":"levelo://app?vid=04ce09ab-fc10-4385-b317-03800d51e81b"},"vehicle_type_id":"4","last_reported":1701706173,"current_range_meters":22800,"station_id":"ce4bgrh2rcd13ifvqc8g","pricing_plan_id":"free"},{"bike_id":"4ef3ac4c-7baf-4c6f-a8f6-b09a972873d2","system_id":"levelo_inurba_marseille","lat":43.30797,"lon":5.38167,"is_reserved":false,"is_disabled":false,"rental_uris":{"android":"levelo://app?vid=4ef3ac4c-7baf-4c6f-a8f6-b09a972873d2","ios":"levelo://app?vid=4ef3ac4c-7baf-4c6f-a8f6-b09a972873d2"},"vehicle_type_id":"4","last_reported":1701706173,"current_range_meters":5600,"station_id":"ce4bgt12rcd13ifvqce0","pricing_plan_id":"free"},{"bike_id":"3eb0a364-72c5-4a87-b540-fcb7c76e2f72","system_id":"levelo_inurba_marseille","lat":43.304606,"lon":5.379026,"is_reserved":false,"is_disabled":false,"rental_uris":{"android":"levelo://app?vid=3eb0a364-72c5-4a87-b540-fcb7c76e2f72","ios":"levelo://app?vid=3eb0a364-72c5-4a87-b540-fcb7c76e2f72"},"vehicle_type_id":"4","last_reported":1701706173,"current_range_meters":2400,"station_id":"ce4bgup2rcd13ifvqcn0","pricing_plan_id":"free"},{"bike_id":"2275aca5-3158-4c2c-8022-ca5d2714bc86","system_id":"levelo_inurba_marseille","lat":43.319997,"lon":5.381594,"is_reserved":false,"is_disabled":false,"rental_uris":{"android":"levelo://app?vid=2275aca5-3158-4c2c-8022-ca5d2714bc86","ios":"levelo://app?vid=2275aca5-3158-4c2c-8022-ca5d2714bc86"},"vehicle_type_id":"4","last_reported":1701706173,"current_range_meters":7200,"station_id":"ce4bhr12rcd13ifvqhpg","pricing_plan_id":"free"},{"bike_id":"3a98f093-c063-4de6-baee-1234560b3957","system_id":"levelo_inurba_marseille","lat":43.313571,"lon":5.384829,"is_reserved":false,"is_disabled":false,"rental_uris":{"android":"levelo://app?vid=3a98f093-c063-4de6-baee-1234560b3957","ios":"levelo://app?vid=3a98f093-c063-4de6-baee-1234560b3957"},"vehicle_type_id":"4","last_reported":1701706173,"current_range_meters":20400,"station_id":"ce4bgt92rcd13ifvqcf0","pricing_plan_id":"free"},{"bike_id":"f652b93f-c47f-4bb2-b8c6-67c28680c9bb","system_id":"levelo_inurba_marseille","lat":43.313571,"lon":5.384829,"is_reserved":false,"is_disabled":false,"rental_uris":{"android":"levelo://app?vid=f652b93f-c47f-4bb2-b8c6-67c28680c9bb","ios":"levelo://app?vid=f652b93f-c47f-4bb2-b8c6-67c28680c9bb"},"vehicle_type_id":"4","last_reported":1701706173,"current_range_meters":25600,"station_id":"ce4bgt92rcd13ifvqcf0","pricing_plan_id":"free"},{"bike_id":"9fdb7f97-586d-42d2-befd-15216ba2e422","system_id":"levelo_inurba_marseille","lat":43.31183,"lon":5.38523,"is_reserved":false,"is_disabled":false,"rental_uris":{"android":"levelo://app?vid=9fdb7f97-586d-42d2-befd-15216ba2e422","ios":"levelo://app?vid=9fdb7f97-586d-42d2-befd-15216ba2e422"},"vehicle_type_id":"4","last_reported":1701706173,"current_range_meters":0,"station_id":"","pricing_plan_id":"free"},{"bike_id":"88fa5a7d-0711-4e0e-8fab-044a07176026","system_id":"levelo_inurba_marseille","lat":43.299724,"lon":5.371829,"is_reserved":false,"is_disabled":false,"rental_uris":{"android":"levelo://app?vid=88fa5a7d-0711-4e0e-8fab-044a07176026","ios":"levelo://app?vid=88fa5a7d-0711-4e0e-8fab-044a07176026"},"vehicle_type_id":"4","last_reported":1701706173,"current_range_meters":30400,"station_id":"ce4bgr92rcd13ifvqc7g","pricing_plan_id":"free"},{"bike_id":"92e7f221-777f-4ed9-9c78-b96afa6c24a1","system_id":"levelo_inurba_marseille","lat":43.298433,"lon":5.362774,"is_reserved":false,"is_disabled":false,"rental_uris":{"android":"levelo://app?vid=92e7f221-777f-4ed9-9c78-b96afa6c24a1","ios":"levelo://app?vid=92e7f221-777f-4ed9-9c78-b96afa6c24a1"},"vehicle_type_id":"4","last_reported":1701706173,"current_range_meters":30000,"station_id":"ce4bgpp2rcd13ifvqc3g","pricing_plan_id":"free"},{"bike_id":"7b270567-40da-453b-8c37-a37b285f8ebf","system_id":"levelo_inurba_marseille","lat":43.29822,"lon":5.36547,"is_reserved":false,"is_disabled":false,"rental_uris":{"android":"levelo://app?vid=7b270567-40da-453b-8c37-a37b285f8ebf","ios":"levelo://app?vid=7b270567-40da-453b-8c37-a37b285f8ebf"},"vehicle_type_id":"4","last_reported":1701706173,"current_range_meters":18000,"station_id":"","pricing_plan_id":"free"},{"bike_id":"a93ae369-4277-41fc-8407-6ef27a87ea50","system_id":"levelo_inurba_marseille","lat":43.298433,"lon":5.362774,"is_reserved":false,"is_disabled":false,"rental_uris":{"android":"levelo://app?vid=a93ae369-4277-41fc-8407-6ef27a87ea50","ios":"levelo://app?vid=a93ae369-4277-41fc-8407-6ef27a87ea50"},"vehicle_type_id":"4","last_reported":1701706173,"current_range_meters":26400,"station_id":"ce4bgpp2rcd13ifvqc3g","pricing_plan_id":"free"},{"bike_id":"03eca2a0-fcad-41f8-9e26-05a4af81803a","system_id":"levelo_inurba_marseille","lat":43.298433,"lon":5.362774,"is_reserved":false,"is_disabled":false,"rental_uris":{"android":"levelo://app?vid=03eca2a0-fcad-41f8-9e26-05a4af81803a","ios":"levelo://app?vid=03eca2a0-fcad-41f8-9e26-05a4af81803a"},"vehicle_type_id":"4","last_reported":1701706173,"current_range_meters":28800,"station_id":"ce4bgpp2rcd13ifvqc3g","pricing_plan_id":"free"},{"bike_id":"fa46457d-df34-45cd-a91c-a0d41a9e8787","system_id":"levelo_inurba_marseille","lat":43.311722,"lon":5.387247,"is_reserved":false,"is_disabled":false,"rental_uris":{"android":"levelo://app?vid=fa46457d-df34-45cd-a91c-a0d41a9e8787","ios":"levelo://app?vid=fa46457d-df34-45cd-a91c-a0d41a9e8787"},"vehicle_type_id":"4","last_reported":1701706173,"current_range_meters":26400,"station_id":"ce4bgv12rcd13ifvqcp0","pricing_plan_id":"free"},{"bike_id":"47321b85-2ddb-4fa3-8d13-00bea002eae7","system_id":"levelo_inurba_marseille","lat":43.322872,"lon":5.382756,"is_reserved":false,"is_disabled":false,"rental_uris":{"android":"levelo://app?vid=47321b85-2ddb-4fa3-8d13-00bea002eae7","ios":"levelo://app?vid=47321b85-2ddb-4fa3-8d13-00bea002eae7"},"vehicle_type_id":"4","last_reported":1701706173,"current_range_meters":28000,"station_id":"ce4bhr12rcd13ifvqhqg","pricing_plan_id":"free"},{"bike_id":"cb8f4c3a-456c-4d50-8ea3-298e057d608b","system_id":"levelo_inurba_marseille","lat":43.322872,"lon":5.382756,"is_reserved":false,"is_disabled":false,"rental_uris":{"android":"levelo://app?vid=cb8f4c3a-456c-4d50-8ea3-298e057d608b","ios":"levelo://app?vid=cb8f4c3a-456c-4d50-8ea3-298e057d608b"},"vehicle_type_id":"4","last_reported":1701706173,"current_range_meters":6800,"station_id":"ce4bhr12rcd13ifvqhqg","pricing_plan_id":"free"},{"bike_id":"c6ce3b8f-2076-4eb8-b7d5-d674dca50e8e","system_id":"levelo_inurba_marseille","lat":43.328371,"lon":5.366909,"is_reserved":false,"is_disabled":false,"rental_uris":{"android":"levelo://app?vid=c6ce3b8f-2076-4eb8-b7d5-d674dca50e8e","ios":"levelo://app?vid=c6ce3b8f-2076-4eb8-b7d5-d674dca50e8e"},"vehicle_type_id":"4","last_reported":1701706173,"current_range_meters":6400,"station_id":"ce4bhs92rcd13ifvqi0g","pricing_plan_id":"free"},{"bike_id":"5c26bdfb-7b7c-43fb-8a01-250128a1a6f8","system_id":"levelo_inurba_marseille","lat":43.298218,"lon":5.374416,"is_reserved":false,"is_disabled":false,"rental_uris":{"android":"levelo://app?vid=5c26bdfb-7b7c-43fb-8a01-250128a1a6f8","ios":"levelo://app?vid=5c26bdfb-7b7c-43fb-8a01-250128a1a6f8"},"vehicle_type_id":"4","last_reported":1701706173,"current_range_meters":20800,"station_id":"","pricing_plan_id":"free"},{"bike_id":"2a519918-ba32-463a-9d26-cd677b5aa22a","system_id":"levelo_inurba_marseille","lat":43.297163,"lon":5.365866,"is_reserved":false,"is_disabled":false,"rental_uris":{"android":"levelo://app?vid=2a519918-ba32-463a-9d26-cd677b5aa22a","ios":"levelo://app?vid=2a519918-ba32-463a-9d26-cd677b5aa22a"},"vehicle_type_id":"4","last_reported":1701706173,"current_range_meters":31200,"station_id":"ce4bgn12rcd13ifvqbt0","pricing_plan_id":"free"},{"bike_id":"8874ef37-d11b-4860-b7df-daab8952a737","system_id":"levelo_inurba_marseille","lat":43.32831,"lon":5.36682,"is_reserved":false,"is_disabled":false,"rental_uris":{"android":"levelo://app?vid=8874ef37-d11b-4860-b7df-daab8952a737","ios":"levelo://app?vid=8874ef37-d11b-4860-b7df-daab8952a737"},"vehicle_type_id":"4","last_reported":1701706173,"current_range_meters":18800,"station_id":"ce4bhs92rcd13ifvqi0g","pricing_plan_id":"free"},{"bike_id":"c477d28a-023f-48dc-9b5a-c3f6bad6c889","system_id":"levelo_inurba_marseille","lat":43.32832,"lon":5.36679,"is_reserved":false,"is_disabled":false,"rental_uris":{"android":"levelo://app?vid=c477d28a-023f-48dc-9b5a-c3f6bad6c889","ios":"levelo://app?vid=c477d28a-023f-48dc-9b5a-c3f6bad6c889"},"vehicle_type_id":"4","last_reported":1701706173,"current_range_meters":20800,"station_id":"ce4bhs92rcd13ifvqi0g","pricing_plan_id":"free"},{"bike_id":"f8284d70-c5e7-490d-9c5a-74a62dd38512","system_id":"levelo_inurba_marseille","lat":43.32832,"lon":5.36676,"is_reserved":false,"is_disabled":false,"rental_uris":{"android":"levelo://app?vid=f8284d70-c5e7-490d-9c5a-74a62dd38512","ios":"levelo://app?vid=f8284d70-c5e7-490d-9c5a-74a62dd38512"},"vehicle_type_id":"4","last_reported":1701706173,"current_range_meters":12400,"station_id":"ce4bhs92rcd13ifvqi0g","pricing_plan_id":"free"},{"bike_id":"5cd15678-8589-4ed1-8bbe-368499d193d5","system_id":"levelo_inurba_marseille","lat":43.2968,"lon":5.37291,"is_reserved":false,"is_disabled":false,"rental_uris":{"android":"levelo://app?vid=5cd15678-8589-4ed1-8bbe-368499d193d5","ios":"levelo://app?vid=5cd15678-8589-4ed1-8bbe-368499d193d5"},"vehicle_type_id":"4","last_reported":1701706173,"current_range_meters":7600,"station_id":"ce4bgk12rcd13ifvqbj0","pricing_plan_id":"free"},{"bike_id":"3fb75319-620e-4114-a8f7-85ff0ac13477","system_id":"levelo_inurba_marseille","lat":43.2968,"lon":5.37291,"is_reserved":false,"is_disabled":false,"rental_uris":{"android":"levelo://app?vid=3fb75319-620e-4114-a8f7-85ff0ac13477","ios":"levelo://app?vid=3fb75319-620e-4114-a8f7-85ff0ac13477"},"vehicle_type_id":"4","last_reported":1701706173,"current_range_meters":20400,"station_id":"ce4bgk12rcd13ifvqbj0","pricing_plan_id":"free"},{"bike_id":"9843c21d-1183-476a-b0c6-edb77488e756","system_id":"levelo_inurba_marseille","lat":43.29573,"lon":5.367355,"is_reserved":false,"is_disabled":false,"rental_uris":{"android":"levelo://app?vid=9843c21d-1183-476a-b0c6-edb77488e756","ios":"levelo://app?vid=9843c21d-1183-476a-b0c6-edb77488e756"},"vehicle_type_id":"4","last_reported":1701706173,"current_range_meters":30800,"station_id":"ce4bgph2rcd13ifvqc2g","pricing_plan_id":"free"},{"bike_id":"eaa0e7e7-2390-47fa-909b-7b240952cbef","system_id":"levelo_inurba_marseille","lat":43.316538,"lon":5.38954,"is_reserved":false,"is_disabled":false,"rental_uris":{"android":"levelo://app?vid=eaa0e7e7-2390-47fa-909b-7b240952cbef","ios":"levelo://app?vid=eaa0e7e7-2390-47fa-909b-7b240952cbef"},"vehicle_type_id":"4","last_reported":1701706173,"current_range_meters":16400,"station_id":"","pricing_plan_id":"free"},{"bike_id":"c30ec4f4-771a-42a1-8006-44dd17008ebc","system_id":"levelo_inurba_marseille","lat":43.29573,"lon":5.367355,"is_reserved":false,"is_disabled":false,"rental_uris":{"android":"levelo://app?vid=c30ec4f4-771a-42a1-8006-44dd17008ebc","ios":"levelo://app?vid=c30ec4f4-771a-42a1-8006-44dd17008ebc"},"vehicle_type_id":"4","last_reported":1701706173,"current_range_meters":31200,"station_id":"ce4bgph2rcd13ifvqc2g","pricing_plan_id":"free"},{"bike_id":"fdec1f8c-3f65-4c4a-a693-42f0752abef1","system_id":"levelo_inurba_marseille","lat":43.29573,"lon":5.367355,"is_reserved":false,"is_disabled":false,"rental_uris":{"android":"levelo://app?vid=fdec1f8c-3f65-4c4a-a693-42f0752abef1","ios":"levelo://app?vid=fdec1f8c-3f65-4c4a-a693-42f0752abef1"},"vehicle_type_id":"4","last_reported":1701706173,"current_range_meters":3600,"station_id":"ce4bgph2rcd13ifvqc2g","pricing_plan_id":"free"},{"bike_id":"c4378ab6-2b12-4f0e-8442-ec7c3452ff2c","system_id":"levelo_inurba_marseille","lat":43.29573,"lon":5.367355,"is_reserved":false,"is_disabled":false,"rental_uris":{"android":"levelo://app?vid=c4378ab6-2b12-4f0e-8442-ec7c3452ff2c","ios":"levelo://app?vid=c4378ab6-2b12-4f0e-8442-ec7c3452ff2c"},"vehicle_type_id":"4","last_reported":1701706173,"current_range_meters":30400,"station_id":"ce4bgph2rcd13ifvqc2g","pricing_plan_id":"free"},{"bike_id":"821b761d-6865-4e52-b45a-331da3046b08","system_id":"levelo_inurba_marseille","lat":43.29573,"lon":5.367355,"is_reserved":false,"is_disabled":false,"rental_uris":{"android":"levelo://app?vid=821b761d-6865-4e52-b45a-331da3046b08","ios":"levelo://app?vid=821b761d-6865-4e52-b45a-331da3046b08"},"vehicle_type_id":"4","last_reported":1701706173,"current_range_meters":21600,"station_id":"ce4bgph2rcd13ifvqc2g","pricing_plan_id":"free"},{"bike_id":"c8e4d4f8-e420-471a-9d88-d16e5c5df564","system_id":"levelo_inurba_marseille","lat":43.29573,"lon":5.367355,"is_reserved":false,"is_disabled":false,"rental_uris":{"android":"levelo://app?vid=c8e4d4f8-e420-471a-9d88-d16e5c5df564","ios":"levelo://app?vid=c8e4d4f8-e420-471a-9d88-d16e5c5df564"},"vehicle_type_id":"4","last_reported":1701706173,"current_range_meters":27600,"station_id":"ce4bgph2rcd13ifvqc2g","pricing_plan_id":"free"},{"bike_id":"10375e89-6dba-4cca-b4ee-8625fdd0f636","system_id":"levelo_inurba_marseille","lat":43.29573,"lon":5.367355,"is_reserved":false,"is_disabled":false,"rental_uris":{"android":"levelo://app?vid=10375e89-6dba-4cca-b4ee-8625fdd0f636","ios":"levelo://app?vid=10375e89-6dba-4cca-b4ee-8625fdd0f636"},"vehicle_type_id":"4","last_reported":1701706173,"current_range_meters":10000,"station_id":"ce4bgph2rcd13ifvqc2g","pricing_plan_id":"free"},{"bike_id":"8c3ce7b5-bf45-4c96-9b6b-ada64a59ff11","system_id":"levelo_inurba_marseille","lat":43.29573,"lon":5.367355,"is_reserved":false,"is_disabled":false,"rental_uris":{"android":"levelo://app?vid=8c3ce7b5-bf45-4c96-9b6b-ada64a59ff11","ios":"levelo://app?vid=8c3ce7b5-bf45-4c96-9b6b-ada64a59ff11"},"vehicle_type_id":"4","last_reported":1701706173,"current_range_meters":29600,"station_id":"ce4bgph2rcd13ifvqc2g","pricing_plan_id":"free"},{"bike_id":"54520010-3631-4ffa-946c-aad46e5f28d6","system_id":"levelo_inurba_marseille","lat":43.29573,"lon":5.367355,"is_reserved":false,"is_disabled":false,"rental_uris":{"android":"levelo://app?vid=54520010-3631-4ffa-946c-aad46e5f28d6","ios":"levelo://app?vid=54520010-3631-4ffa-946c-aad46e5f28d6"},"vehicle_type_id":"4","last_reported":1701706173,"current_range_meters":28400,"station_id":"ce4bgph2rcd13ifvqc2g","pricing_plan_id":"free"},{"bike_id":"879a8c6a-88b2-4f7d-843e-93f3ee1c8705","system_id":"levelo_inurba_marseille","lat":43.29573,"lon":5.367355,"is_reserved":false,"is_disabled":false,"rental_uris":{"android":"levelo://app?vid=879a8c6a-88b2-4f7d-843e-93f3ee1c8705","ios":"levelo://app?vid=879a8c6a-88b2-4f7d-843e-93f3ee1c8705"},"vehicle_type_id":"4","last_reported":1701706173,"current_range_meters":22400,"station_id":"ce4bgph2rcd13ifvqc2g","pricing_plan_id":"free"},{"bike_id":"71448ccd-9d25-4704-b48a-d448c4dbcd14","system_id":"levelo_inurba_marseille","lat":43.29569,"lon":5.36748,"is_reserved":false,"is_disabled":false,"rental_uris":{"android":"levelo://app?vid=71448ccd-9d25-4704-b48a-d448c4dbcd14","ios":"levelo://app?vid=71448ccd-9d25-4704-b48a-d448c4dbcd14"},"vehicle_type_id":"4","last_reported":1701706173,"current_range_meters":8400,"station_id":"ce4bgph2rcd13ifvqc2g","pricing_plan_id":"free"},{"bike_id":"cbdb1b26-1b7b-4316-9220-24d1960a98cf","system_id":"levelo_inurba_marseille","lat":43.317557,"lon":5.390173,"is_reserved":false,"is_disabled":false,"rental_uris":{"android":"levelo://app?vid=cbdb1b26-1b7b-4316-9220-24d1960a98cf","ios":"levelo://app?vid=cbdb1b26-1b7b-4316-9220-24d1960a98cf"},"vehicle_type_id":"4","last_reported":1701706173,"current_range_meters":29600,"station_id":"ce4bhqp2rcd13ifvqhng","pricing_plan_id":"free"},{"bike_id":"c6c5acc0-3971-43b9-ba4d-33c881a5a76e","system_id":"levelo_inurba_marseille","lat":43.317557,"lon":5.390173,"is_reserved":false,"is_disabled":false,"rental_uris":{"android":"levelo://app?vid=c6c5acc0-3971-43b9-ba4d-33c881a5a76e","ios":"levelo://app?vid=c6c5acc0-3971-43b9-ba4d-33c881a5a76e"},"vehicle_type_id":"4","last_reported":1701706173,"current_range_meters":26000,"station_id":"ce4bhqp2rcd13ifvqhng","pricing_plan_id":"free"},{"bike_id":"a71c79c9-2e02-4efa-8ab0-fbd47268f50a","system_id":"levelo_inurba_marseille","lat":43.31752,"lon":5.39028,"is_reserved":false,"is_disabled":false,"rental_uris":{"android":"levelo://app?vid=a71c79c9-2e02-4efa-8ab0-fbd47268f50a","ios":"levelo://app?vid=a71c79c9-2e02-4efa-8ab0-fbd47268f50a"},"vehicle_type_id":"4","last_reported":1701706173,"current_range_meters":19200,"station_id":"ce4bhqp2rcd13ifvqhng","pricing_plan_id":"free"},{"bike_id":"8f117bb4-ef05-4443-bc7a-b6e1f68fdb0b","system_id":"levelo_inurba_marseille","lat":43.296263,"lon":5.377094,"is_reserved":false,"is_disabled":false,"rental_uris":{"android":"levelo://app?vid=8f117bb4-ef05-4443-bc7a-b6e1f68fdb0b","ios":"levelo://app?vid=8f117bb4-ef05-4443-bc7a-b6e1f68fdb0b"},"vehicle_type_id":"4","last_reported":1701706173,"current_range_meters":28800,"station_id":"ce4bgi92rcd13ifvqb90","pricing_plan_id":"free"},{"bike_id":"93667928-6504-408d-a0b0-67bed2eb15cc","system_id":"levelo_inurba_marseille","lat":43.298037,"lon":5.381066,"is_reserved":false,"is_disabled":false,"rental_uris":{"android":"levelo://app?vid=93667928-6504-408d-a0b0-67bed2eb15cc","ios":"levelo://app?vid=93667928-6504-408d-a0b0-67bed2eb15cc"},"vehicle_type_id":"4","last_reported":1701706173,"current_range_meters":15600,"station_id":"ce4bgip2rcd13ifvqbb0","pricing_plan_id":"free"},{"bike_id":"ccdbe2dd-b362-4a01-afd9-f84cf76fc50c","system_id":"levelo_inurba_marseille","lat":43.296263,"lon":5.377094,"is_reserved":false,"is_disabled":false,"rental_uris":{"android":"levelo://app?vid=ccdbe2dd-b362-4a01-afd9-f84cf76fc50c","ios":"levelo://app?vid=ccdbe2dd-b362-4a01-afd9-f84cf76fc50c"},"vehicle_type_id":"4","last_reported":1701706173,"current_range_meters":15600,"station_id":"ce4bgi92rcd13ifvqb90","pricing_plan_id":"free"},{"bike_id":"29851edb-e6e9-40fc-baf2-05b0aeeb5fc4","system_id":"levelo_inurba_marseille","lat":43.32367,"lon":5.388836,"is_reserved":false,"is_disabled":false,"rental_uris":{"android":"levelo://app?vid=29851edb-e6e9-40fc-baf2-05b0aeeb5fc4","ios":"levelo://app?vid=29851edb-e6e9-40fc-baf2-05b0aeeb5fc4"},"vehicle_type_id":"4","last_reported":1701706173,"current_range_meters":2400,"station_id":"ce4bhqp2rcd13ifvqhog","pricing_plan_id":"free"},{"bike_id":"4a781d9f-a62e-470b-b219-29b2d23a7282","system_id":"levelo_inurba_marseille","lat":43.32368,"lon":5.38888,"is_reserved":false,"is_disabled":false,"rental_uris":{"android":"levelo://app?vid=4a781d9f-a62e-470b-b219-29b2d23a7282","ios":"levelo://app?vid=4a781d9f-a62e-470b-b219-29b2d23a7282"},"vehicle_type_id":"4","last_reported":1701706173,"current_range_meters":20000,"station_id":"ce4bhqp2rcd13ifvqhog","pricing_plan_id":"free"},{"bike_id":"f0a59004-c78a-461f-a222-db3ebd57bc0a","system_id":"levelo_inurba_marseille","lat":43.29601,"lon":5.381084,"is_reserved":false,"is_disabled":false,"rental_uris":{"android":"levelo://app?vid=f0a59004-c78a-461f-a222-db3ebd57bc0a","ios":"levelo://app?vid=f0a59004-c78a-461f-a222-db3ebd57bc0a"},"vehicle_type_id":"4","last_reported":1701706173,"current_range_meters":28000,"station_id":"ce4bgl12rcd13ifvqbo0","pricing_plan_id":"free"},{"bike_id":"6c537c0c-21ca-4541-b373-90656694c7eb","system_id":"levelo_inurba_marseille","lat":43.29601,"lon":5.381084,"is_reserved":false,"is_disabled":false,"rental_uris":{"android":"levelo://app?vid=6c537c0c-21ca-4541-b373-90656694c7eb","ios":"levelo://app?vid=6c537c0c-21ca-4541-b373-90656694c7eb"},"vehicle_type_id":"4","last_reported":1701706173,"current_range_meters":25600,"station_id":"ce4bgl12rcd13ifvqbo0","pricing_plan_id":"free"},{"bike_id":"bb2c2da0-4258-4955-9947-5da16c73a6da","system_id":"levelo_inurba_marseille","lat":43.29601,"lon":5.381084,"is_reserved":false,"is_disabled":false,"rental_uris":{"android":"levelo://app?vid=bb2c2da0-4258-4955-9947-5da16c73a6da","ios":"levelo://app?vid=bb2c2da0-4258-4955-9947-5da16c73a6da"},"vehicle_type_id":"4","last_reported":1701706173,"current_range_meters":14800,"station_id":"ce4bgl12rcd13ifvqbo0","pricing_plan_id":"free"},{"bike_id":"9a1b239d-def9-4962-9902-8fceb2fd5d67","system_id":"levelo_inurba_marseille","lat":43.305994,"lon":5.393687,"is_reserved":false,"is_disabled":false,"rental_uris":{"android":"levelo://app?vid=9a1b239d-def9-4962-9902-8fceb2fd5d67","ios":"levelo://app?vid=9a1b239d-def9-4962-9902-8fceb2fd5d67"},"vehicle_type_id":"4","last_reported":1701706173,"current_range_meters":30000,"station_id":"ce4bh0p2rcd13ifvqd80","pricing_plan_id":"free"},{"bike_id":"c37e6402-1bdd-4f23-8cad-d2b81a68502b","system_id":"levelo_inurba_marseille","lat":43.31846,"lon":5.39413,"is_reserved":false,"is_disabled":false,"rental_uris":{"android":"levelo://app?vid=c37e6402-1bdd-4f23-8cad-d2b81a68502b","ios":"levelo://app?vid=c37e6402-1bdd-4f23-8cad-d2b81a68502b"},"vehicle_type_id":"4","last_reported":1701706173,"current_range_meters":5200,"station_id":"","pricing_plan_id":"free"},{"bike_id":"8ad5dc25-0e84-496a-b7de-b42434d30615","system_id":"levelo_inurba_marseille","lat":43.2936,"lon":5.37835,"is_reserved":false,"is_disabled":false,"rental_uris":{"android":"levelo://app?vid=8ad5dc25-0e84-496a-b7de-b42434d30615","ios":"levelo://app?vid=8ad5dc25-0e84-496a-b7de-b42434d30615"},"vehicle_type_id":"4","last_reported":1701706173,"current_range_meters":26000,"station_id":"ce4bgjh2rcd13ifvqbf0","pricing_plan_id":"free"},{"bike_id":"0274d436-e32b-4ee2-b989-9e99a510fd59","system_id":"levelo_inurba_marseille","lat":43.2936,"lon":5.37835,"is_reserved":false,"is_disabled":false,"rental_uris":{"android":"levelo://app?vid=0274d436-e32b-4ee2-b989-9e99a510fd59","ios":"levelo://app?vid=0274d436-e32b-4ee2-b989-9e99a510fd59"},"vehicle_type_id":"4","last_reported":1701706173,"current_range_meters":7200,"station_id":"ce4bgjh2rcd13ifvqbf0","pricing_plan_id":"free"},{"bike_id":"56574704-2479-4ee3-bc63-045ff7a3e95c","system_id":"levelo_inurba_marseille","lat":43.2936,"lon":5.37835,"is_reserved":false,"is_disabled":false,"rental_uris":{"android":"levelo://app?vid=56574704-2479-4ee3-bc63-045ff7a3e95c","ios":"levelo://app?vid=56574704-2479-4ee3-bc63-045ff7a3e95c"},"vehicle_type_id":"4","last_reported":1701706173,"current_range_meters":28400,"station_id":"ce4bgjh2rcd13ifvqbf0","pricing_plan_id":"free"},{"bike_id":"cdb283ee-9edf-4c0e-88f6-a844c5b6f549","system_id":"levelo_inurba_marseille","lat":43.292311,"lon":5.360731,"is_reserved":false,"is_disabled":false,"rental_uris":{"android":"levelo://app?vid=cdb283ee-9edf-4c0e-88f6-a844c5b6f549","ios":"levelo://app?vid=cdb283ee-9edf-4c0e-88f6-a844c5b6f549"},"vehicle_type_id":"4","last_reported":1701706173,"current_range_meters":4800,"station_id":"ce4bhbh2rcd13ifvqeqg","pricing_plan_id":"free"},{"bike_id":"826cd8b4-d2b0-4b89-a19b-402e4462be75","system_id":"levelo_inurba_marseille","lat":43.309047,"lon":5.396551,"is_reserved":false,"is_disabled":false,"rental_uris":{"android":"levelo://app?vid=826cd8b4-d2b0-4b89-a19b-402e4462be75","ios":"levelo://app?vid=826cd8b4-d2b0-4b89-a19b-402e4462be75"},"vehicle_type_id":"4","last_reported":1701706173,"current_range_meters":23200,"station_id":"ce4bh012rcd13ifvqcv0","pricing_plan_id":"free"},{"bike_id":"8c4f4702-1f5b-48b5-87e4-b68ebc2bae78","system_id":"levelo_inurba_marseille","lat":43.309038,"lon":5.396546,"is_reserved":false,"is_disabled":false,"rental_uris":{"android":"levelo://app?vid=8c4f4702-1f5b-48b5-87e4-b68ebc2bae78","ios":"levelo://app?vid=8c4f4702-1f5b-48b5-87e4-b68ebc2bae78"},"vehicle_type_id":"4","last_reported":1701706173,"current_range_meters":14400,"station_id":"ce4bh012rcd13ifvqcv0","pricing_plan_id":"free"},{"bike_id":"6c0ec6fb-432c-424b-bd29-fc2742876fa3","system_id":"levelo_inurba_marseille","lat":43.292642,"lon":5.384254,"is_reserved":false,"is_disabled":false,"rental_uris":{"android":"levelo://app?vid=6c0ec6fb-432c-424b-bd29-fc2742876fa3","ios":"levelo://app?vid=6c0ec6fb-432c-424b-bd29-fc2742876fa3"},"vehicle_type_id":"4","last_reported":1701706173,"current_range_meters":30400,"station_id":"ce4bh692rcd13ifvqea0","pricing_plan_id":"free"},{"bike_id":"e68cb0a3-5ba8-4f94-975d-896f308dabf6","system_id":"levelo_inurba_marseille","lat":43.292642,"lon":5.384254,"is_reserved":false,"is_disabled":false,"rental_uris":{"android":"levelo://app?vid=e68cb0a3-5ba8-4f94-975d-896f308dabf6","ios":"levelo://app?vid=e68cb0a3-5ba8-4f94-975d-896f308dabf6"},"vehicle_type_id":"4","last_reported":1701706173,"current_range_meters":23600,"station_id":"ce4bh692rcd13ifvqea0","pricing_plan_id":"free"},{"bike_id":"4be936e6-8c63-4215-97e1-17722f5fbcdf","system_id":"levelo_inurba_marseille","lat":43.295169,"lon":5.390426,"is_reserved":false,"is_disabled":false,"rental_uris":{"android":"levelo://app?vid=4be936e6-8c63-4215-97e1-17722f5fbcdf","ios":"levelo://app?vid=4be936e6-8c63-4215-97e1-17722f5fbcdf"},"vehicle_type_id":"4","last_reported":1701706173,"current_range_meters":31200,"station_id":"ce4bh3p2rcd13ifvqdp0","pricing_plan_id":"free"},{"bike_id":"59d248d8-450d-40cb-9ed7-2f76d99e3fd1","system_id":"levelo_inurba_marseille","lat":43.295169,"lon":5.390426,"is_reserved":false,"is_disabled":false,"rental_uris":{"android":"levelo://app?vid=59d248d8-450d-40cb-9ed7-2f76d99e3fd1","ios":"levelo://app?vid=59d248d8-450d-40cb-9ed7-2f76d99e3fd1"},"vehicle_type_id":"4","last_reported":1701706173,"current_range_meters":27200,"station_id":"ce4bh3p2rcd13ifvqdp0","pricing_plan_id":"free"},{"bike_id":"d130c28e-5fac-4c7e-a40b-3bfd2638a39d","system_id":"levelo_inurba_marseille","lat":43.312609,"lon":5.401662,"is_reserved":false,"is_disabled":false,"rental_uris":{"android":"levelo://app?vid=d130c28e-5fac-4c7e-a40b-3bfd2638a39d","ios":"levelo://app?vid=d130c28e-5fac-4c7e-a40b-3bfd2638a39d"},"vehicle_type_id":"4","last_reported":1701706173,"current_range_meters":15200,"station_id":"ce4bh092rcd13ifvqd30","pricing_plan_id":"free"},{"bike_id":"cc7b407b-5d65-4388-a7e4-64d1d4fe8d4a","system_id":"levelo_inurba_marseille","lat":43.30642,"lon":5.40077,"is_reserved":false,"is_disabled":false,"rental_uris":{"android":"levelo://app?vid=cc7b407b-5d65-4388-a7e4-64d1d4fe8d4a","ios":"levelo://app?vid=cc7b407b-5d65-4388-a7e4-64d1d4fe8d4a"},"vehicle_type_id":"4","last_reported":1701706173,"current_range_meters":30400,"station_id":"ce4bh112rcd13ifvqda0","pricing_plan_id":"free"},{"bike_id":"94dff6b1-c359-4e63-9b5b-5f815ee3ce54","system_id":"levelo_inurba_marseille","lat":43.33754,"lon":5.37465,"is_reserved":false,"is_disabled":false,"rental_uris":{"android":"levelo://app?vid=94dff6b1-c359-4e63-9b5b-5f815ee3ce54","ios":"levelo://app?vid=94dff6b1-c359-4e63-9b5b-5f815ee3ce54"},"vehicle_type_id":"4","last_reported":1701706173,"current_range_meters":8000,"station_id":"","pricing_plan_id":"free"},{"bike_id":"2a56761a-bf7b-4e7f-bcc0-3679ad1f0257","system_id":"levelo_inurba_marseille","lat":43.30646,"lon":5.40085,"is_reserved":false,"is_disabled":false,"rental_uris":{"android":"levelo://app?vid=2a56761a-bf7b-4e7f-bcc0-3679ad1f0257","ios":"levelo://app?vid=2a56761a-bf7b-4e7f-bcc0-3679ad1f0257"},"vehicle_type_id":"4","last_reported":1701706173,"current_range_meters":13600,"station_id":"ce4bh112rcd13ifvqda0","pricing_plan_id":"free"},{"bike_id":"b1da507f-59bc-4bfa-9de7-dd18b0d37739","system_id":"levelo_inurba_marseille","lat":43.337683,"lon":5.374633,"is_reserved":false,"is_disabled":false,"rental_uris":{"android":"levelo://app?vid=b1da507f-59bc-4bfa-9de7-dd18b0d37739","ios":"levelo://app?vid=b1da507f-59bc-4bfa-9de7-dd18b0d37739"},"vehicle_type_id":"4","last_reported":1701706173,"current_range_meters":31200,"station_id":"","pricing_plan_id":"free"},{"bike_id":"4f66eb45-68f0-48fa-bc1b-28f62386e8ca","system_id":"levelo_inurba_marseille","lat":43.306412,"lon":5.401035,"is_reserved":false,"is_disabled":false,"rental_uris":{"android":"levelo://app?vid=4f66eb45-68f0-48fa-bc1b-28f62386e8ca","ios":"levelo://app?vid=4f66eb45-68f0-48fa-bc1b-28f62386e8ca"},"vehicle_type_id":"4","last_reported":1701706173,"current_range_meters":21600,"station_id":"ce4bh112rcd13ifvqda0","pricing_plan_id":"free"},{"bike_id":"8cee75ba-1d04-46aa-a982-88e292c3131a","system_id":"levelo_inurba_marseille","lat":43.301117,"lon":5.398795,"is_reserved":false,"is_disabled":false,"rental_uris":{"android":"levelo://app?vid=8cee75ba-1d04-46aa-a982-88e292c3131a","ios":"levelo://app?vid=8cee75ba-1d04-46aa-a982-88e292c3131a"},"vehicle_type_id":"4","last_reported":1701706173,"current_range_meters":24800,"station_id":"ce4bh0h2rcd13ifvqd40","pricing_plan_id":"free"},{"bike_id":"a6d30fb2-2e63-47bd-9244-71c52b231c0b","system_id":"levelo_inurba_marseille","lat":43.301317,"lon":5.398681,"is_reserved":false,"is_disabled":false,"rental_uris":{"android":"levelo://app?vid=a6d30fb2-2e63-47bd-9244-71c52b231c0b","ios":"levelo://app?vid=a6d30fb2-2e63-47bd-9244-71c52b231c0b"},"vehicle_type_id":"4","last_reported":1701706173,"current_range_meters":0,"station_id":"","pricing_plan_id":"free"},{"bike_id":"37374201-6ea5-482b-8e71-2cc7c815c555","system_id":"levelo_inurba_marseille","lat":43.301117,"lon":5.398795,"is_reserved":false,"is_disabled":false,"rental_uris":{"android":"levelo://app?vid=37374201-6ea5-482b-8e71-2cc7c815c555","ios":"levelo://app?vid=37374201-6ea5-482b-8e71-2cc7c815c555"},"vehicle_type_id":"4","last_reported":1701706173,"current_range_meters":19600,"station_id":"ce4bh0h2rcd13ifvqd40","pricing_plan_id":"free"},{"bike_id":"abf70a06-ec3d-4eac-9831-a62a19498801","system_id":"levelo_inurba_marseille","lat":43.286961,"lon":5.373785,"is_reserved":false,"is_disabled":false,"rental_uris":{"android":"levelo://app?vid=abf70a06-ec3d-4eac-9831-a62a19498801","ios":"levelo://app?vid=abf70a06-ec3d-4eac-9831-a62a19498801"},"vehicle_type_id":"4","last_reported":1701706173,"current_range_meters":29600,"station_id":"ce4bh3p2rcd13ifvqdq0","pricing_plan_id":"free"},{"bike_id":"eb0c8726-ecc2-43bb-9bb0-044ddfd4faa9","system_id":"levelo_inurba_marseille","lat":43.286591,"lon":5.363346,"is_reserved":false,"is_disabled":false,"rental_uris":{"android":"levelo://app?vid=eb0c8726-ecc2-43bb-9bb0-044ddfd4faa9","ios":"levelo://app?vid=eb0c8726-ecc2-43bb-9bb0-044ddfd4faa9"},"vehicle_type_id":"4","last_reported":1701706173,"current_range_meters":28400,"station_id":"ce4bhah2rcd13ifvqej0","pricing_plan_id":"free"},{"bike_id":"8938b7c1-8af8-4303-95ab-27be3e6d609f","system_id":"levelo_inurba_marseille","lat":43.286591,"lon":5.363346,"is_reserved":false,"is_disabled":false,"rental_uris":{"android":"levelo://app?vid=8938b7c1-8af8-4303-95ab-27be3e6d609f","ios":"levelo://app?vid=8938b7c1-8af8-4303-95ab-27be3e6d609f"},"vehicle_type_id":"4","last_reported":1701706173,"current_range_meters":26000,"station_id":"ce4bhah2rcd13ifvqej0","pricing_plan_id":"free"},{"bike_id":"8694eff5-40cb-4c58-a77e-76f25f21d804","system_id":"levelo_inurba_marseille","lat":43.295196,"lon":5.39397,"is_reserved":false,"is_disabled":false,"rental_uris":{"android":"levelo://app?vid=8694eff5-40cb-4c58-a77e-76f25f21d804","ios":"levelo://app?vid=8694eff5-40cb-4c58-a77e-76f25f21d804"},"vehicle_type_id":"4","last_reported":1701706173,"current_range_meters":28800,"station_id":"ce4bh292rcd13ifvqdf0","pricing_plan_id":"free"},{"bike_id":"84ad86f1-88c4-490d-8fe0-c19e37f9aea0","system_id":"levelo_inurba_marseille","lat":43.295196,"lon":5.39397,"is_reserved":false,"is_disabled":false,"rental_uris":{"android":"levelo://app?vid=84ad86f1-88c4-490d-8fe0-c19e37f9aea0","ios":"levelo://app?vid=84ad86f1-88c4-490d-8fe0-c19e37f9aea0"},"vehicle_type_id":"4","last_reported":1701706173,"current_range_meters":30000,"station_id":"ce4bh292rcd13ifvqdf0","pricing_plan_id":"free"},{"bike_id":"37d75cfc-99b0-4911-bd4c-d6bb935cbf75","system_id":"levelo_inurba_marseille","lat":43.295194,"lon":5.39397,"is_reserved":false,"is_disabled":false,"rental_uris":{"android":"levelo://app?vid=37d75cfc-99b0-4911-bd4c-d6bb935cbf75","ios":"levelo://app?vid=37d75cfc-99b0-4911-bd4c-d6bb935cbf75"},"vehicle_type_id":"4","last_reported":1701706173,"current_range_meters":31200,"station_id":"ce4bh292rcd13ifvqdf0","pricing_plan_id":"free"},{"bike_id":"0f99f2ae-38c4-493f-b1c1-2f76313d4253","system_id":"levelo_inurba_marseille","lat":43.289307,"lon":5.38406,"is_reserved":false,"is_disabled":false,"rental_uris":{"android":"levelo://app?vid=0f99f2ae-38c4-493f-b1c1-2f76313d4253","ios":"levelo://app?vid=0f99f2ae-38c4-493f-b1c1-2f76313d4253"},"vehicle_type_id":"4","last_reported":1701706173,"current_range_meters":29200,"station_id":"ce4bh612rcd13ifvqe6g","pricing_plan_id":"free"},{"bike_id":"8ae11525-36c6-492b-8e2b-d9d757810fe9","system_id":"levelo_inurba_marseille","lat":43.290345,"lon":5.38646,"is_reserved":false,"is_disabled":false,"rental_uris":{"android":"levelo://app?vid=8ae11525-36c6-492b-8e2b-d9d757810fe9","ios":"levelo://app?vid=8ae11525-36c6-492b-8e2b-d9d757810fe9"},"vehicle_type_id":"4","last_reported":1701706173,"current_range_meters":400,"station_id":"ce4bh4p2rcd13ifvqe0g","pricing_plan_id":"free"},{"bike_id":"457f7e16-ee70-4acf-b94c-f0763ace58d2","system_id":"levelo_inurba_marseille","lat":43.287184,"lon":5.37937,"is_reserved":false,"is_disabled":false,"rental_uris":{"android":"levelo://app?vid=457f7e16-ee70-4acf-b94c-f0763ace58d2","ios":"levelo://app?vid=457f7e16-ee70-4acf-b94c-f0763ace58d2"},"vehicle_type_id":"4","last_reported":1701706173,"current_range_meters":19200,"station_id":"ce4bh9p2rcd13ifvqec0","pricing_plan_id":"free"},{"bike_id":"597e8b77-62d3-4f7e-bfe3-0398b3683f54","system_id":"levelo_inurba_marseille","lat":43.291994,"lon":5.392907,"is_reserved":false,"is_disabled":false,"rental_uris":{"android":"levelo://app?vid=597e8b77-62d3-4f7e-bfe3-0398b3683f54","ios":"levelo://app?vid=597e8b77-62d3-4f7e-bfe3-0398b3683f54"},"vehicle_type_id":"4","last_reported":1701706173,"current_range_meters":29600,"station_id":"ce4bh192rcd13ifvqdd0","pricing_plan_id":"free"},{"bike_id":"1455f3c7-93c0-4a26-925f-44b80c9af692","system_id":"levelo_inurba_marseille","lat":43.284538,"lon":5.358657,"is_reserved":false,"is_disabled":false,"rental_uris":{"android":"levelo://app?vid=1455f3c7-93c0-4a26-925f-44b80c9af692","ios":"levelo://app?vid=1455f3c7-93c0-4a26-925f-44b80c9af692"},"vehicle_type_id":"4","last_reported":1701706173,"current_range_meters":17200,"station_id":"ce4bhah2rcd13ifvqei0","pricing_plan_id":"free"},{"bike_id":"ee2d9cf5-6ead-4e73-9d82-9206501fe6c1","system_id":"levelo_inurba_marseille","lat":43.284538,"lon":5.358657,"is_reserved":false,"is_disabled":false,"rental_uris":{"android":"levelo://app?vid=ee2d9cf5-6ead-4e73-9d82-9206501fe6c1","ios":"levelo://app?vid=ee2d9cf5-6ead-4e73-9d82-9206501fe6c1"},"vehicle_type_id":"4","last_reported":1701706173,"current_range_meters":31200,"station_id":"ce4bhah2rcd13ifvqei0","pricing_plan_id":"free"},{"bike_id":"e410a40c-05e0-42e1-990c-d4230c575e22","system_id":"levelo_inurba_marseille","lat":43.28458,"lon":5.35898,"is_reserved":false,"is_disabled":false,"rental_uris":{"android":"levelo://app?vid=e410a40c-05e0-42e1-990c-d4230c575e22","ios":"levelo://app?vid=e410a40c-05e0-42e1-990c-d4230c575e22"},"vehicle_type_id":"4","last_reported":1701706173,"current_range_meters":28800,"station_id":"ce4bhah2rcd13ifvqei0","pricing_plan_id":"free"},{"bike_id":"a5cebb74-6333-4efa-a696-06816920b646","system_id":"levelo_inurba_marseille","lat":43.305706,"lon":5.365654,"is_reserved":false,"is_disabled":false,"rental_uris":{"android":"levelo://app?vid=a5cebb74-6333-4efa-a696-06816920b646","ios":"levelo://app?vid=a5cebb74-6333-4efa-a696-06816920b646"},"vehicle_type_id":"4","last_reported":1701706173,"current_range_meters":14800,"station_id":"ce4bgs12rcd13ifvqcag","pricing_plan_id":"free"},{"bike_id":"988e102d-bb1e-4a45-b559-d72bd97dc84e","system_id":"levelo_inurba_marseille","lat":43.283998,"lon":5.375062,"is_reserved":false,"is_disabled":false,"rental_uris":{"android":"levelo://app?vid=988e102d-bb1e-4a45-b559-d72bd97dc84e","ios":"levelo://app?vid=988e102d-bb1e-4a45-b559-d72bd97dc84e"},"vehicle_type_id":"4","last_reported":1701706173,"current_range_meters":19200,"station_id":"ce4bh412rcd13ifvqds0","pricing_plan_id":"free"},{"bike_id":"4b021143-be23-4d8d-ac72-086548831286","system_id":"levelo_inurba_marseille","lat":43.33717,"lon":5.391857,"is_reserved":false,"is_disabled":false,"rental_uris":{"android":"levelo://app?vid=4b021143-be23-4d8d-ac72-086548831286","ios":"levelo://app?vid=4b021143-be23-4d8d-ac72-086548831286"},"vehicle_type_id":"4","last_reported":1701706173,"current_range_meters":31200,"station_id":"ce4bhr92rcd13ifvqhsg","pricing_plan_id":"free"},{"bike_id":"2f73a9c6-ea7c-45de-beee-438befc58a7b","system_id":"levelo_inurba_marseille","lat":43.33717,"lon":5.391857,"is_reserved":false,"is_disabled":false,"rental_uris":{"android":"levelo://app?vid=2f73a9c6-ea7c-45de-beee-438befc58a7b","ios":"levelo://app?vid=2f73a9c6-ea7c-45de-beee-438befc58a7b"},"vehicle_type_id":"4","last_reported":1701706173,"current_range_meters":13600,"station_id":"ce4bhr92rcd13ifvqhsg","pricing_plan_id":"free"},{"bike_id":"23a6e18e-5ad6-40cf-b6fb-7a4b1a6034c9","system_id":"levelo_inurba_marseille","lat":43.337168,"lon":5.391825,"is_reserved":false,"is_disabled":false,"rental_uris":{"android":"levelo://app?vid=23a6e18e-5ad6-40cf-b6fb-7a4b1a6034c9","ios":"levelo://app?vid=23a6e18e-5ad6-40cf-b6fb-7a4b1a6034c9"},"vehicle_type_id":"4","last_reported":1701706173,"current_range_meters":28000,"station_id":"ce4bhr92rcd13ifvqhsg","pricing_plan_id":"free"},{"bike_id":"ed8549f3-b677-4190-81d6-42cbffca8e0b","system_id":"levelo_inurba_marseille","lat":43.288501,"lon":5.393087,"is_reserved":false,"is_disabled":false,"rental_uris":{"android":"levelo://app?vid=ed8549f3-b677-4190-81d6-42cbffca8e0b","ios":"levelo://app?vid=ed8549f3-b677-4190-81d6-42cbffca8e0b"},"vehicle_type_id":"4","last_reported":1701706173,"current_range_meters":400,"station_id":"ce4bh2p2rcd13ifvqdi0","pricing_plan_id":"free"},{"bike_id":"7e6b1e2c-ab1f-4f2b-8d61-9741ab022f65","system_id":"levelo_inurba_marseille","lat":43.289363,"lon":5.396322,"is_reserved":false,"is_disabled":false,"rental_uris":{"android":"levelo://app?vid=7e6b1e2c-ab1f-4f2b-8d61-9741ab022f65","ios":"levelo://app?vid=7e6b1e2c-ab1f-4f2b-8d61-9741ab022f65"},"vehicle_type_id":"4","last_reported":1701706173,"current_range_meters":28800,"station_id":"ce4bh3h2rcd13ifvqdn0","pricing_plan_id":"free"},{"bike_id":"10e7057c-88c0-4ef8-9e24-daf10849b857","system_id":"levelo_inurba_marseille","lat":43.292724,"lon":5.401131,"is_reserved":false,"is_disabled":false,"rental_uris":{"android":"levelo://app?vid=10e7057c-88c0-4ef8-9e24-daf10849b857","ios":"levelo://app?vid=10e7057c-88c0-4ef8-9e24-daf10849b857"},"vehicle_type_id":"4","last_reported":1701706173,"current_range_meters":11600,"station_id":"ce4bh312rcd13ifvqdk0","pricing_plan_id":"free"},{"bike_id":"988833a8-7039-44d4-877c-774a71934a9a","system_id":"levelo_inurba_marseille","lat":43.282744,"lon":5.350533,"is_reserved":false,"is_disabled":false,"rental_uris":{"android":"levelo://app?vid=988833a8-7039-44d4-877c-774a71934a9a","ios":"levelo://app?vid=988833a8-7039-44d4-877c-774a71934a9a"},"vehicle_type_id":"4","last_reported":1701706173,"current_range_meters":26800,"station_id":"ce4bhbp2rcd13ifvqerg","pricing_plan_id":"free"},{"bike_id":"95f276d3-eef7-4fe3-b0a5-6c5ac309ccee","system_id":"levelo_inurba_marseille","lat":43.280382,"lon":5.369291,"is_reserved":false,"is_disabled":false,"rental_uris":{"android":"levelo://app?vid=95f276d3-eef7-4fe3-b0a5-6c5ac309ccee","ios":"levelo://app?vid=95f276d3-eef7-4fe3-b0a5-6c5ac309ccee"},"vehicle_type_id":"4","last_reported":1701706173,"current_range_meters":27200,"station_id":"ce4bha12rcd13ifvqef0","pricing_plan_id":"free"},{"bike_id":"052c7fc7-ace5-456c-a6c3-741f73450385","system_id":"levelo_inurba_marseille","lat":43.28039,"lon":5.369297,"is_reserved":false,"is_disabled":false,"rental_uris":{"android":"levelo://app?vid=052c7fc7-ace5-456c-a6c3-741f73450385","ios":"levelo://app?vid=052c7fc7-ace5-456c-a6c3-741f73450385"},"vehicle_type_id":"4","last_reported":1701706173,"current_range_meters":28000,"station_id":"ce4bha12rcd13ifvqef0","pricing_plan_id":"free"},{"bike_id":"378e06e1-57f0-47f1-a348-dd7d576fe732","system_id":"levelo_inurba_marseille","lat":43.280382,"lon":5.369291,"is_reserved":false,"is_disabled":false,"rental_uris":{"android":"levelo://app?vid=378e06e1-57f0-47f1-a348-dd7d576fe732","ios":"levelo://app?vid=378e06e1-57f0-47f1-a348-dd7d576fe732"},"vehicle_type_id":"4","last_reported":1701706173,"current_range_meters":31200,"station_id":"ce4bha12rcd13ifvqef0","pricing_plan_id":"free"},{"bike_id":"f71c3e4b-56cc-4b56-8ba6-eea098969b60","system_id":"levelo_inurba_marseille","lat":43.32657,"lon":5.41001,"is_reserved":false,"is_disabled":false,"rental_uris":{"android":"levelo://app?vid=f71c3e4b-56cc-4b56-8ba6-eea098969b60","ios":"levelo://app?vid=f71c3e4b-56cc-4b56-8ba6-eea098969b60"},"vehicle_type_id":"4","last_reported":1701706173,"current_range_meters":27200,"station_id":"ce4bhpp2rcd13ifvqhgg","pricing_plan_id":"free"},{"bike_id":"9fdd3a50-dbdd-4503-9ec4-bd73094e86f2","system_id":"levelo_inurba_marseille","lat":43.320045,"lon":5.415048,"is_reserved":false,"is_disabled":false,"rental_uris":{"android":"levelo://app?vid=9fdd3a50-dbdd-4503-9ec4-bd73094e86f2","ios":"levelo://app?vid=9fdd3a50-dbdd-4503-9ec4-bd73094e86f2"},"vehicle_type_id":"4","last_reported":1701706173,"current_range_meters":13600,"station_id":"ce4bhq92rcd13ifvqhkg","pricing_plan_id":"free"},{"bike_id":"06494134-dbcf-43f9-a473-4fe407601d09","system_id":"levelo_inurba_marseille","lat":43.292571,"lon":5.409107,"is_reserved":false,"is_disabled":false,"rental_uris":{"android":"levelo://app?vid=06494134-dbcf-43f9-a473-4fe407601d09","ios":"levelo://app?vid=06494134-dbcf-43f9-a473-4fe407601d09"},"vehicle_type_id":"4","last_reported":1701706173,"current_range_meters":27600,"station_id":"ce4bh192rcd13ifvqdc0","pricing_plan_id":"free"},{"bike_id":"f92ba038-0647-412d-af8b-b30a0354bb8b","system_id":"levelo_inurba_marseille","lat":43.292569,"lon":5.409107,"is_reserved":false,"is_disabled":false,"rental_uris":{"android":"levelo://app?vid=f92ba038-0647-412d-af8b-b30a0354bb8b","ios":"levelo://app?vid=f92ba038-0647-412d-af8b-b30a0354bb8b"},"vehicle_type_id":"4","last_reported":1701706173,"current_range_meters":11600,"station_id":"ce4bh192rcd13ifvqdc0","pricing_plan_id":"free"},{"bike_id":"f908788e-919b-434c-8901-35a9da20b662","system_id":"levelo_inurba_marseille","lat":43.292569,"lon":5.409107,"is_reserved":false,"is_disabled":false,"rental_uris":{"android":"levelo://app?vid=f908788e-919b-434c-8901-35a9da20b662","ios":"levelo://app?vid=f908788e-919b-434c-8901-35a9da20b662"},"vehicle_type_id":"4","last_reported":1701706173,"current_range_meters":27600,"station_id":"ce4bh192rcd13ifvqdc0","pricing_plan_id":"free"},{"bike_id":"c02f5f00-a8b2-4fc2-a9da-0394cdf35230","system_id":"levelo_inurba_marseille","lat":43.292569,"lon":5.409107,"is_reserved":false,"is_disabled":false,"rental_uris":{"android":"levelo://app?vid=c02f5f00-a8b2-4fc2-a9da-0394cdf35230","ios":"levelo://app?vid=c02f5f00-a8b2-4fc2-a9da-0394cdf35230"},"vehicle_type_id":"4","last_reported":1701706173,"current_range_meters":18400,"station_id":"ce4bh192rcd13ifvqdc0","pricing_plan_id":"free"},{"bike_id":"638792e8-f6f5-4cb4-ad5c-65a20d7e6e82","system_id":"levelo_inurba_marseille","lat":43.276179,"lon":5.361009,"is_reserved":false,"is_disabled":false,"rental_uris":{"android":"levelo://app?vid=638792e8-f6f5-4cb4-ad5c-65a20d7e6e82","ios":"levelo://app?vid=638792e8-f6f5-4cb4-ad5c-65a20d7e6e82"},"vehicle_type_id":"4","last_reported":1701706173,"current_range_meters":17200,"station_id":"ce4bgj92rcd13ifvqbe0","pricing_plan_id":"free"},{"bike_id":"c0de6499-2376-42d4-97e2-9aeff38da8aa","system_id":"levelo_inurba_marseille","lat":43.280784,"lon":5.396622,"is_reserved":false,"is_disabled":false,"rental_uris":{"android":"levelo://app?vid=c0de6499-2376-42d4-97e2-9aeff38da8aa","ios":"levelo://app?vid=c0de6499-2376-42d4-97e2-9aeff38da8aa"},"vehicle_type_id":"4","last_reported":1701706173,"current_range_meters":28800,"station_id":"ce4bho12rcd13ifvqh2g","pricing_plan_id":"free"},{"bike_id":"3265701a-11e8-4470-a59e-8f840b41bf74","system_id":"levelo_inurba_marseille","lat":43.280784,"lon":5.396622,"is_reserved":false,"is_disabled":false,"rental_uris":{"android":"levelo://app?vid=3265701a-11e8-4470-a59e-8f840b41bf74","ios":"levelo://app?vid=3265701a-11e8-4470-a59e-8f840b41bf74"},"vehicle_type_id":"4","last_reported":1701706173,"current_range_meters":25200,"station_id":"ce4bho12rcd13ifvqh2g","pricing_plan_id":"free"},{"bike_id":"30f0c962-678d-4f32-bc90-8228e7fc9012","system_id":"levelo_inurba_marseille","lat":43.275625,"lon":5.384392,"is_reserved":false,"is_disabled":false,"rental_uris":{"android":"levelo://app?vid=30f0c962-678d-4f32-bc90-8228e7fc9012","ios":"levelo://app?vid=30f0c962-678d-4f32-bc90-8228e7fc9012"},"vehicle_type_id":"4","last_reported":1701706173,"current_range_meters":22800,"station_id":"ce4bhh92rcd13ifvqfi0","pricing_plan_id":"free"},{"bike_id":"fce20caf-6085-475b-a03f-5b6093a51fee","system_id":"levelo_inurba_marseille","lat":43.273613,"lon":5.362705,"is_reserved":false,"is_disabled":false,"rental_uris":{"android":"levelo://app?vid=fce20caf-6085-475b-a03f-5b6093a51fee","ios":"levelo://app?vid=fce20caf-6085-475b-a03f-5b6093a51fee"},"vehicle_type_id":"4","last_reported":1701706173,"current_range_meters":30400,"station_id":"ce4bhbh2rcd13ifvqeo0","pricing_plan_id":"free"},{"bike_id":"fda9e40b-e96c-4e66-a454-2245b873b970","system_id":"levelo_inurba_marseille","lat":43.273609,"lon":5.362708,"is_reserved":false,"is_disabled":false,"rental_uris":{"android":"levelo://app?vid=fda9e40b-e96c-4e66-a454-2245b873b970","ios":"levelo://app?vid=fda9e40b-e96c-4e66-a454-2245b873b970"},"vehicle_type_id":"4","last_reported":1701706173,"current_range_meters":30000,"station_id":"ce4bhbh2rcd13ifvqeo0","pricing_plan_id":"free"},{"bike_id":"3ea28be1-d23c-49b6-a64f-225039a206c7","system_id":"levelo_inurba_marseille","lat":43.273613,"lon":5.362705,"is_reserved":false,"is_disabled":false,"rental_uris":{"android":"levelo://app?vid=3ea28be1-d23c-49b6-a64f-225039a206c7","ios":"levelo://app?vid=3ea28be1-d23c-49b6-a64f-225039a206c7"},"vehicle_type_id":"4","last_reported":1701706173,"current_range_meters":31200,"station_id":"ce4bhbh2rcd13ifvqeo0","pricing_plan_id":"free"},{"bike_id":"10e10e55-f411-4577-921e-1dde136f02dc","system_id":"levelo_inurba_marseille","lat":43.275625,"lon":5.384392,"is_reserved":false,"is_disabled":false,"rental_uris":{"android":"levelo://app?vid=10e10e55-f411-4577-921e-1dde136f02dc","ios":"levelo://app?vid=10e10e55-f411-4577-921e-1dde136f02dc"},"vehicle_type_id":"4","last_reported":1701706173,"current_range_meters":4400,"station_id":"ce4bhh92rcd13ifvqfi0","pricing_plan_id":"free"},{"bike_id":"0de7abf9-fe9c-4185-b4cb-ad9d6ce98399","system_id":"levelo_inurba_marseille","lat":43.279952,"lon":5.400085,"is_reserved":false,"is_disabled":false,"rental_uris":{"android":"levelo://app?vid=0de7abf9-fe9c-4185-b4cb-ad9d6ce98399","ios":"levelo://app?vid=0de7abf9-fe9c-4185-b4cb-ad9d6ce98399"},"vehicle_type_id":"4","last_reported":1701706173,"current_range_meters":31200,"station_id":"ce4bho92rcd13ifvqh4g","pricing_plan_id":"free"},{"bike_id":"902eab3b-e06a-4249-9b84-35941c8be6f7","system_id":"levelo_inurba_marseille","lat":43.28006,"lon":5.40015,"is_reserved":false,"is_disabled":false,"rental_uris":{"android":"levelo://app?vid=902eab3b-e06a-4249-9b84-35941c8be6f7","ios":"levelo://app?vid=902eab3b-e06a-4249-9b84-35941c8be6f7"},"vehicle_type_id":"4","last_reported":1701706173,"current_range_meters":6000,"station_id":"ce4bho92rcd13ifvqh4g","pricing_plan_id":"free"},{"bike_id":"3a44682a-58ce-4b11-93fa-e13a92f3ab2d","system_id":"levelo_inurba_marseille","lat":43.279952,"lon":5.400085,"is_reserved":false,"is_disabled":false,"rental_uris":{"android":"levelo://app?vid=3a44682a-58ce-4b11-93fa-e13a92f3ab2d","ios":"levelo://app?vid=3a44682a-58ce-4b11-93fa-e13a92f3ab2d"},"vehicle_type_id":"4","last_reported":1701706173,"current_range_meters":22400,"station_id":"ce4bho92rcd13ifvqh4g","pricing_plan_id":"free"},{"bike_id":"3b8ec5c1-8a88-4ce0-8ae0-c202dec0b813","system_id":"levelo_inurba_marseille","lat":43.27998,"lon":5.400247,"is_reserved":false,"is_disabled":false,"rental_uris":{"android":"levelo://app?vid=3b8ec5c1-8a88-4ce0-8ae0-c202dec0b813","ios":"levelo://app?vid=3b8ec5c1-8a88-4ce0-8ae0-c202dec0b813"},"vehicle_type_id":"4","last_reported":1701706173,"current_range_meters":22000,"station_id":"ce4bho92rcd13ifvqh4g","pricing_plan_id":"free"},{"bike_id":"571e0f12-7075-4699-9eb6-1d50aa911b49","system_id":"levelo_inurba_marseille","lat":43.310812,"lon":5.424315,"is_reserved":false,"is_disabled":false,"rental_uris":{"android":"levelo://app?vid=571e0f12-7075-4699-9eb6-1d50aa911b49","ios":"levelo://app?vid=571e0f12-7075-4699-9eb6-1d50aa911b49"},"vehicle_type_id":"4","last_reported":1701706173,"current_range_meters":0,"station_id":"ce4bhp92rcd13ifvqhag","pricing_plan_id":"free"},{"bike_id":"910fd3aa-d2e0-4553-894a-6161d41c7fcd","system_id":"levelo_inurba_marseille","lat":43.27609,"lon":5.39475,"is_reserved":false,"is_disabled":false,"rental_uris":{"android":"levelo://app?vid=910fd3aa-d2e0-4553-894a-6161d41c7fcd","ios":"levelo://app?vid=910fd3aa-d2e0-4553-894a-6161d41c7fcd"},"vehicle_type_id":"4","last_reported":1701706173,"current_range_meters":10400,"station_id":"","pricing_plan_id":"free"},{"bike_id":"55c23f66-31a6-4882-8fa6-769301f13946","system_id":"levelo_inurba_marseille","lat":43.295523,"lon":5.422926,"is_reserved":false,"is_disabled":false,"rental_uris":{"android":"levelo://app?vid=55c23f66-31a6-4882-8fa6-769301f13946","ios":"levelo://app?vid=55c23f66-31a6-4882-8fa6-769301f13946"},"vehicle_type_id":"4","last_reported":1701706173,"current_range_meters":31200,"station_id":"ce4bhph2rcd13ifvqhdg","pricing_plan_id":"free"},{"bike_id":"939b60ca-347d-4311-a9c3-44ae23d596a0","system_id":"levelo_inurba_marseille","lat":43.295511,"lon":5.422926,"is_reserved":false,"is_disabled":false,"rental_uris":{"android":"levelo://app?vid=939b60ca-347d-4311-a9c3-44ae23d596a0","ios":"levelo://app?vid=939b60ca-347d-4311-a9c3-44ae23d596a0"},"vehicle_type_id":"4","last_reported":1701706173,"current_range_meters":31200,"station_id":"ce4bhph2rcd13ifvqhdg","pricing_plan_id":"free"},{"bike_id":"24512130-767c-4da7-a81e-def6b1744033","system_id":"levelo_inurba_marseille","lat":43.295511,"lon":5.422926,"is_reserved":false,"is_disabled":false,"rental_uris":{"android":"levelo://app?vid=24512130-767c-4da7-a81e-def6b1744033","ios":"levelo://app?vid=24512130-767c-4da7-a81e-def6b1744033"},"vehicle_type_id":"4","last_reported":1701706173,"current_range_meters":10000,"station_id":"ce4bhph2rcd13ifvqhdg","pricing_plan_id":"free"},{"bike_id":"4d227eb7-d36a-425e-8f14-420e16d126ca","system_id":"levelo_inurba_marseille","lat":43.272055,"lon":5.39256,"is_reserved":false,"is_disabled":false,"rental_uris":{"android":"levelo://app?vid=4d227eb7-d36a-425e-8f14-420e16d126ca","ios":"levelo://app?vid=4d227eb7-d36a-425e-8f14-420e16d126ca"},"vehicle_type_id":"4","last_reported":1701706173,"current_range_meters":25600,"station_id":"","pricing_plan_id":"free"},{"bike_id":"1d2c2328-2c5d-40c5-8c15-ff2aa23ff747","system_id":"levelo_inurba_marseille","lat":43.278128,"lon":5.407195,"is_reserved":false,"is_disabled":false,"rental_uris":{"android":"levelo://app?vid=1d2c2328-2c5d-40c5-8c15-ff2aa23ff747","ios":"levelo://app?vid=1d2c2328-2c5d-40c5-8c15-ff2aa23ff747"},"vehicle_type_id":"4","last_reported":1701706173,"current_range_meters":31200,"station_id":"ce4bhnh2rcd13ifvqgtg","pricing_plan_id":"free"},{"bike_id":"3d8f3b96-d6f4-44cb-a6a9-c8c853ed45a0","system_id":"levelo_inurba_marseille","lat":43.26554,"lon":5.37289,"is_reserved":false,"is_disabled":false,"rental_uris":{"android":"levelo://app?vid=3d8f3b96-d6f4-44cb-a6a9-c8c853ed45a0","ios":"levelo://app?vid=3d8f3b96-d6f4-44cb-a6a9-c8c853ed45a0"},"vehicle_type_id":"4","last_reported":1701706173,"current_range_meters":26000,"station_id":"ce4bhg12rcd13ifvqf70","pricing_plan_id":"free"},{"bike_id":"b2084a7d-613c-4e29-ab0b-e517f237fb20","system_id":"levelo_inurba_marseille","lat":43.308051,"lon":5.43527,"is_reserved":false,"is_disabled":false,"rental_uris":{"android":"levelo://app?vid=b2084a7d-613c-4e29-ab0b-e517f237fb20","ios":"levelo://app?vid=b2084a7d-613c-4e29-ab0b-e517f237fb20"},"vehicle_type_id":"4","last_reported":1701706173,"current_range_meters":6800,"station_id":"ce4bhph2rcd13ifvqheg","pricing_plan_id":"free"},{"bike_id":"b45c58ad-3a97-42d0-8505-0849f0a13bed","system_id":"levelo_inurba_marseille","lat":43.308051,"lon":5.43527,"is_reserved":false,"is_disabled":false,"rental_uris":{"android":"levelo://app?vid=b45c58ad-3a97-42d0-8505-0849f0a13bed","ios":"levelo://app?vid=b45c58ad-3a97-42d0-8505-0849f0a13bed"},"vehicle_type_id":"4","last_reported":1701706173,"current_range_meters":30000,"station_id":"ce4bhph2rcd13ifvqheg","pricing_plan_id":"free"},{"bike_id":"f9d02129-57e1-45a1-8128-20ac723786f2","system_id":"levelo_inurba_marseille","lat":43.269433,"lon":5.402551,"is_reserved":false,"is_disabled":false,"rental_uris":{"android":"levelo://app?vid=f9d02129-57e1-45a1-8128-20ac723786f2","ios":"levelo://app?vid=f9d02129-57e1-45a1-8128-20ac723786f2"},"vehicle_type_id":"4","last_reported":1701706173,"current_range_meters":19600,"station_id":"","pricing_plan_id":"free"},{"bike_id":"f75bcccd-5323-4b23-acdf-8ff0c34fa936","system_id":"levelo_inurba_marseille","lat":43.26949,"lon":5.40262,"is_reserved":false,"is_disabled":false,"rental_uris":{"android":"levelo://app?vid=f75bcccd-5323-4b23-acdf-8ff0c34fa936","ios":"levelo://app?vid=f75bcccd-5323-4b23-acdf-8ff0c34fa936"},"vehicle_type_id":"4","last_reported":1701706173,"current_range_meters":20800,"station_id":"cjm6bp8fraef2m0cb0m0","pricing_plan_id":"free"},{"bike_id":"ed1e1cbf-cbb0-46c3-931b-604c6dcdaa89","system_id":"levelo_inurba_marseille","lat":43.26937,"lon":5.40259,"is_reserved":false,"is_disabled":false,"rental_uris":{"android":"levelo://app?vid=ed1e1cbf-cbb0-46c3-931b-604c6dcdaa89","ios":"levelo://app?vid=ed1e1cbf-cbb0-46c3-931b-604c6dcdaa89"},"vehicle_type_id":"4","last_reported":1701706173,"current_range_meters":8400,"station_id":"cjm6bp8fraef2m0cb0m0","pricing_plan_id":"free"},{"bike_id":"c603ebe0-7bba-4739-9538-1f0044e728ca","system_id":"levelo_inurba_marseille","lat":43.317104,"lon":5.436818,"is_reserved":false,"is_disabled":false,"rental_uris":{"android":"levelo://app?vid=c603ebe0-7bba-4739-9538-1f0044e728ca","ios":"levelo://app?vid=c603ebe0-7bba-4739-9538-1f0044e728ca"},"vehicle_type_id":"4","last_reported":1701706173,"current_range_meters":20800,"station_id":"ce4bhp92rcd13ifvqhcg","pricing_plan_id":"free"},{"bike_id":"cfcc421e-b30c-4f0c-93f1-4d1147cb1423","system_id":"levelo_inurba_marseille","lat":43.317104,"lon":5.436818,"is_reserved":false,"is_disabled":false,"rental_uris":{"android":"levelo://app?vid=cfcc421e-b30c-4f0c-93f1-4d1147cb1423","ios":"levelo://app?vid=cfcc421e-b30c-4f0c-93f1-4d1147cb1423"},"vehicle_type_id":"4","last_reported":1701706173,"current_range_meters":23200,"station_id":"ce4bhp92rcd13ifvqhcg","pricing_plan_id":"free"},{"bike_id":"ee58d767-f116-46cd-b9c6-2f903f6b13f0","system_id":"levelo_inurba_marseille","lat":43.317104,"lon":5.436818,"is_reserved":false,"is_disabled":false,"rental_uris":{"android":"levelo://app?vid=ee58d767-f116-46cd-b9c6-2f903f6b13f0","ios":"levelo://app?vid=ee58d767-f116-46cd-b9c6-2f903f6b13f0"},"vehicle_type_id":"4","last_reported":1701706173,"current_range_meters":12000,"station_id":"ce4bhp92rcd13ifvqhcg","pricing_plan_id":"free"},{"bike_id":"1346e3a4-157f-46b9-9ad3-17cf740a6866","system_id":"levelo_inurba_marseille","lat":43.26202,"lon":5.379299,"is_reserved":false,"is_disabled":false,"rental_uris":{"android":"levelo://app?vid=1346e3a4-157f-46b9-9ad3-17cf740a6866","ios":"levelo://app?vid=1346e3a4-157f-46b9-9ad3-17cf740a6866"},"vehicle_type_id":"4","last_reported":1701706173,"current_range_meters":27200,"station_id":"ce4bhjp2rcd13ifvqg90","pricing_plan_id":"free"},{"bike_id":"e3f5b7df-afff-4158-8700-cf39e754f4de","system_id":"levelo_inurba_marseille","lat":43.27172,"lon":5.40996,"is_reserved":false,"is_disabled":false,"rental_uris":{"android":"levelo://app?vid=e3f5b7df-afff-4158-8700-cf39e754f4de","ios":"levelo://app?vid=e3f5b7df-afff-4158-8700-cf39e754f4de"},"vehicle_type_id":"4","last_reported":1701706173,"current_range_meters":20800,"station_id":"ce4bhl12rcd13ifvqgf0","pricing_plan_id":"free"},{"bike_id":"043d539e-aee5-49a1-9664-34184bfdbcd1","system_id":"levelo_inurba_marseille","lat":43.271368,"lon":5.40928,"is_reserved":false,"is_disabled":false,"rental_uris":{"android":"levelo://app?vid=043d539e-aee5-49a1-9664-34184bfdbcd1","ios":"levelo://app?vid=043d539e-aee5-49a1-9664-34184bfdbcd1"},"vehicle_type_id":"4","last_reported":1701706173,"current_range_meters":28400,"station_id":"ce4bhl12rcd13ifvqgf0","pricing_plan_id":"free"},{"bike_id":"5491323b-121b-4790-9a52-750778757bc0","system_id":"levelo_inurba_marseille","lat":43.26807,"lon":5.402706,"is_reserved":false,"is_disabled":false,"rental_uris":{"android":"levelo://app?vid=5491323b-121b-4790-9a52-750778757bc0","ios":"levelo://app?vid=5491323b-121b-4790-9a52-750778757bc0"},"vehicle_type_id":"4","last_reported":1701706173,"current_range_meters":15600,"station_id":"","pricing_plan_id":"free"},{"bike_id":"8f763f0e-3b0e-415e-955d-a8ccf707801a","system_id":"levelo_inurba_marseille","lat":43.267959,"lon":5.402685,"is_reserved":false,"is_disabled":false,"rental_uris":{"android":"levelo://app?vid=8f763f0e-3b0e-415e-955d-a8ccf707801a","ios":"levelo://app?vid=8f763f0e-3b0e-415e-955d-a8ccf707801a"},"vehicle_type_id":"4","last_reported":1701706173,"current_range_meters":14800,"station_id":"ce501612rcd8frsf0b60","pricing_plan_id":"free"},{"bike_id":"b1786678-2089-4165-b70b-e8103e9d5a0a","system_id":"levelo_inurba_marseille","lat":43.267959,"lon":5.402687,"is_reserved":false,"is_disabled":false,"rental_uris":{"android":"levelo://app?vid=b1786678-2089-4165-b70b-e8103e9d5a0a","ios":"levelo://app?vid=b1786678-2089-4165-b70b-e8103e9d5a0a"},"vehicle_type_id":"4","last_reported":1701706173,"current_range_meters":26800,"station_id":"ce501612rcd8frsf0b60","pricing_plan_id":"free"},{"bike_id":"3cb6b109-a5c1-4d2e-a9dd-15f612258224","system_id":"levelo_inurba_marseille","lat":43.281548,"lon":5.42643,"is_reserved":false,"is_disabled":false,"rental_uris":{"android":"levelo://app?vid=3cb6b109-a5c1-4d2e-a9dd-15f612258224","ios":"levelo://app?vid=3cb6b109-a5c1-4d2e-a9dd-15f612258224"},"vehicle_type_id":"4","last_reported":1701706173,"current_range_meters":22000,"station_id":"ce4bhnh2rcd13ifvqgug","pricing_plan_id":"free"},{"bike_id":"4215a844-dcaa-443e-9cc5-f25dfbdb0c58","system_id":"levelo_inurba_marseille","lat":43.281548,"lon":5.42643,"is_reserved":false,"is_disabled":false,"rental_uris":{"android":"levelo://app?vid=4215a844-dcaa-443e-9cc5-f25dfbdb0c58","ios":"levelo://app?vid=4215a844-dcaa-443e-9cc5-f25dfbdb0c58"},"vehicle_type_id":"4","last_reported":1701706173,"current_range_meters":8400,"station_id":"ce4bhnh2rcd13ifvqgug","pricing_plan_id":"free"},{"bike_id":"e649fc19-3a37-4876-bac7-65fad368efb3","system_id":"levelo_inurba_marseille","lat":43.281548,"lon":5.42643,"is_reserved":false,"is_disabled":false,"rental_uris":{"android":"levelo://app?vid=e649fc19-3a37-4876-bac7-65fad368efb3","ios":"levelo://app?vid=e649fc19-3a37-4876-bac7-65fad368efb3"},"vehicle_type_id":"4","last_reported":1701706173,"current_range_meters":29200,"station_id":"ce4bhnh2rcd13ifvqgug","pricing_plan_id":"free"},{"bike_id":"f7416217-e93c-4441-b8e1-804811b1e8bc","system_id":"levelo_inurba_marseille","lat":43.2607,"lon":5.393983,"is_reserved":false,"is_disabled":false,"rental_uris":{"android":"levelo://app?vid=f7416217-e93c-4441-b8e1-804811b1e8bc","ios":"levelo://app?vid=f7416217-e93c-4441-b8e1-804811b1e8bc"},"vehicle_type_id":"4","last_reported":1701706173,"current_range_meters":21600,"station_id":"ce4bhh92rcd13ifvqfj0","pricing_plan_id":"free"},{"bike_id":"66b21a0c-94da-405d-8137-c1cddb78fb4e","system_id":"levelo_inurba_marseille","lat":43.255782,"lon":5.382359,"is_reserved":false,"is_disabled":false,"rental_uris":{"android":"levelo://app?vid=66b21a0c-94da-405d-8137-c1cddb78fb4e","ios":"levelo://app?vid=66b21a0c-94da-405d-8137-c1cddb78fb4e"},"vehicle_type_id":"4","last_reported":1701706173,"current_range_meters":16400,"station_id":"ce4bhih2rcd13ifvqfs0","pricing_plan_id":"free"},{"bike_id":"7e54863e-d3db-4f15-afbc-583326a063c5","system_id":"levelo_inurba_marseille","lat":43.258205,"lon":5.394369,"is_reserved":false,"is_disabled":false,"rental_uris":{"android":"levelo://app?vid=7e54863e-d3db-4f15-afbc-583326a063c5","ios":"levelo://app?vid=7e54863e-d3db-4f15-afbc-583326a063c5"},"vehicle_type_id":"4","last_reported":1701706173,"current_range_meters":28000,"station_id":"ce4bhip2rcd13ifvqft0","pricing_plan_id":"free"},{"bike_id":"321de196-a6aa-4600-8b29-e149566dd4e9","system_id":"levelo_inurba_marseille","lat":43.25578,"lon":5.38248,"is_reserved":false,"is_disabled":false,"rental_uris":{"android":"levelo://app?vid=321de196-a6aa-4600-8b29-e149566dd4e9","ios":"levelo://app?vid=321de196-a6aa-4600-8b29-e149566dd4e9"},"vehicle_type_id":"4","last_reported":1701706173,"current_range_meters":4400,"station_id":"ce4bhih2rcd13ifvqfs0","pricing_plan_id":"free"},{"bike_id":"01cafc76-788b-4956-a52f-65796b80b893","system_id":"levelo_inurba_marseille","lat":43.25576,"lon":5.3824,"is_reserved":false,"is_disabled":false,"rental_uris":{"android":"levelo://app?vid=01cafc76-788b-4956-a52f-65796b80b893","ios":"levelo://app?vid=01cafc76-788b-4956-a52f-65796b80b893"},"vehicle_type_id":"4","last_reported":1701706173,"current_range_meters":13600,"station_id":"ce4bhih2rcd13ifvqfs0","pricing_plan_id":"free"},{"bike_id":"bb600713-36e5-4fdb-8cc9-0b7b919e2bd5","system_id":"levelo_inurba_marseille","lat":43.258224,"lon":5.394369,"is_reserved":false,"is_disabled":false,"rental_uris":{"android":"levelo://app?vid=bb600713-36e5-4fdb-8cc9-0b7b919e2bd5","ios":"levelo://app?vid=bb600713-36e5-4fdb-8cc9-0b7b919e2bd5"},"vehicle_type_id":"4","last_reported":1701706173,"current_range_meters":22800,"station_id":"ce4bhip2rcd13ifvqft0","pricing_plan_id":"free"},{"bike_id":"343abc3c-e02d-437e-b758-4b73aef440db","system_id":"levelo_inurba_marseille","lat":43.255044,"lon":5.376493,"is_reserved":false,"is_disabled":false,"rental_uris":{"android":"levelo://app?vid=343abc3c-e02d-437e-b758-4b73aef440db","ios":"levelo://app?vid=343abc3c-e02d-437e-b758-4b73aef440db"},"vehicle_type_id":"4","last_reported":1701706173,"current_range_meters":26400,"station_id":"ce4bhh12rcd13ifvqff0","pricing_plan_id":"free"},{"bike_id":"60f7c106-2b79-4daa-b89f-4b181f6738aa","system_id":"levelo_inurba_marseille","lat":43.255036,"lon":5.376521,"is_reserved":false,"is_disabled":false,"rental_uris":{"android":"levelo://app?vid=60f7c106-2b79-4daa-b89f-4b181f6738aa","ios":"levelo://app?vid=60f7c106-2b79-4daa-b89f-4b181f6738aa"},"vehicle_type_id":"4","last_reported":1701706173,"current_range_meters":23200,"station_id":"ce4bhh12rcd13ifvqff0","pricing_plan_id":"free"},{"bike_id":"c4190b31-98fb-4e4e-b800-789652f41352","system_id":"levelo_inurba_marseille","lat":43.25503,"lon":5.376501,"is_reserved":false,"is_disabled":false,"rental_uris":{"android":"levelo://app?vid=c4190b31-98fb-4e4e-b800-789652f41352","ios":"levelo://app?vid=c4190b31-98fb-4e4e-b800-789652f41352"},"vehicle_type_id":"4","last_reported":1701706173,"current_range_meters":22000,"station_id":"ce4bhh12rcd13ifvqff0","pricing_plan_id":"free"},{"bike_id":"0e59bbb9-f88f-4e14-8f7c-2fbb0b376d60","system_id":"levelo_inurba_marseille","lat":43.255024,"lon":5.376503,"is_reserved":false,"is_disabled":false,"rental_uris":{"android":"levelo://app?vid=0e59bbb9-f88f-4e14-8f7c-2fbb0b376d60","ios":"levelo://app?vid=0e59bbb9-f88f-4e14-8f7c-2fbb0b376d60"},"vehicle_type_id":"4","last_reported":1701706173,"current_range_meters":31200,"station_id":"ce4bhh12rcd13ifvqff0","pricing_plan_id":"free"},{"bike_id":"e72008a9-53a7-4941-a163-953a03680224","system_id":"levelo_inurba_marseille","lat":43.255001,"lon":5.376506,"is_reserved":false,"is_disabled":false,"rental_uris":{"android":"levelo://app?vid=e72008a9-53a7-4941-a163-953a03680224","ios":"levelo://app?vid=e72008a9-53a7-4941-a163-953a03680224"},"vehicle_type_id":"4","last_reported":1701706173,"current_range_meters":12800,"station_id":"ce4bhh12rcd13ifvqff0","pricing_plan_id":"free"},{"bike_id":"c83a6843-d3b6-44d4-8196-ed59293c8bdd","system_id":"levelo_inurba_marseille","lat":43.254947,"lon":5.376454,"is_reserved":false,"is_disabled":false,"rental_uris":{"android":"levelo://app?vid=c83a6843-d3b6-44d4-8196-ed59293c8bdd","ios":"levelo://app?vid=c83a6843-d3b6-44d4-8196-ed59293c8bdd"},"vehicle_type_id":"4","last_reported":1701706173,"current_range_meters":26000,"station_id":"ce4bhh12rcd13ifvqff0","pricing_plan_id":"free"},{"bike_id":"8338d9b1-f098-4c5c-9d6b-c1fe2c6582b9","system_id":"levelo_inurba_marseille","lat":43.258658,"lon":5.398935,"is_reserved":false,"is_disabled":false,"rental_uris":{"android":"levelo://app?vid=8338d9b1-f098-4c5c-9d6b-c1fe2c6582b9","ios":"levelo://app?vid=8338d9b1-f098-4c5c-9d6b-c1fe2c6582b9"},"vehicle_type_id":"4","last_reported":1701706173,"current_range_meters":30000,"station_id":"ce4bhl92rcd13ifvqghg","pricing_plan_id":"free"},{"bike_id":"79931ad1-634d-46b6-b4f2-2d3e004f3743","system_id":"levelo_inurba_marseille","lat":43.259013,"lon":5.409301,"is_reserved":false,"is_disabled":false,"rental_uris":{"android":"levelo://app?vid=79931ad1-634d-46b6-b4f2-2d3e004f3743","ios":"levelo://app?vid=79931ad1-634d-46b6-b4f2-2d3e004f3743"},"vehicle_type_id":"4","last_reported":1701706173,"current_range_meters":31200,"station_id":"ce4bhm92rcd13ifvqglg","pricing_plan_id":"free"},{"bike_id":"a934efa2-3f1b-4a11-9399-5fef204a4457","system_id":"levelo_inurba_marseille","lat":43.25729,"lon":5.41109,"is_reserved":false,"is_disabled":false,"rental_uris":{"android":"levelo://app?vid=a934efa2-3f1b-4a11-9399-5fef204a4457","ios":"levelo://app?vid=a934efa2-3f1b-4a11-9399-5fef204a4457"},"vehicle_type_id":"4","last_reported":1701706173,"current_range_meters":20000,"station_id":"ce4bhkp2rcd13ifvqgd0","pricing_plan_id":"free"},{"bike_id":"f8524826-4b2c-4885-8c92-08b608855a4c","system_id":"levelo_inurba_marseille","lat":43.257079,"lon":5.411051,"is_reserved":false,"is_disabled":false,"rental_uris":{"android":"levelo://app?vid=f8524826-4b2c-4885-8c92-08b608855a4c","ios":"levelo://app?vid=f8524826-4b2c-4885-8c92-08b608855a4c"},"vehicle_type_id":"4","last_reported":1701706173,"current_range_meters":10000,"station_id":"ce4bhkp2rcd13ifvqgd0","pricing_plan_id":"free"},{"bike_id":"0b29a01c-d217-401e-9db6-6cbe6826891e","system_id":"levelo_inurba_marseille","lat":43.257079,"lon":5.411051,"is_reserved":false,"is_disabled":false,"rental_uris":{"android":"levelo://app?vid=0b29a01c-d217-401e-9db6-6cbe6826891e","ios":"levelo://app?vid=0b29a01c-d217-401e-9db6-6cbe6826891e"},"vehicle_type_id":"4","last_reported":1701706173,"current_range_meters":23600,"station_id":"ce4bhkp2rcd13ifvqgd0","pricing_plan_id":"free"},{"bike_id":"31e5ec22-ad54-4664-a53c-4047076b073f","system_id":"levelo_inurba_marseille","lat":43.250966,"lon":5.395186,"is_reserved":false,"is_disabled":false,"rental_uris":{"android":"levelo://app?vid=31e5ec22-ad54-4664-a53c-4047076b073f","ios":"levelo://app?vid=31e5ec22-ad54-4664-a53c-4047076b073f"},"vehicle_type_id":"4","last_reported":1701706173,"current_range_meters":19600,"station_id":"ce4bhm12rcd13ifvqgkg","pricing_plan_id":"free"},{"bike_id":"073f41c1-f428-473b-82cd-36cd24452aa6","system_id":"levelo_inurba_marseille","lat":43.250966,"lon":5.395186,"is_reserved":false,"is_disabled":false,"rental_uris":{"android":"levelo://app?vid=073f41c1-f428-473b-82cd-36cd24452aa6","ios":"levelo://app?vid=073f41c1-f428-473b-82cd-36cd24452aa6"},"vehicle_type_id":"4","last_reported":1701706173,"current_range_meters":16000,"station_id":"ce4bhm12rcd13ifvqgkg","pricing_plan_id":"free"},{"bike_id":"3665a89d-fffa-4b28-a8f9-b3962babd92b","system_id":"levelo_inurba_marseille","lat":43.25102,"lon":5.403214,"is_reserved":false,"is_disabled":false,"rental_uris":{"android":"levelo://app?vid=3665a89d-fffa-4b28-a8f9-b3962babd92b","ios":"levelo://app?vid=3665a89d-fffa-4b28-a8f9-b3962babd92b"},"vehicle_type_id":"4","last_reported":1701706173,"current_range_meters":27600,"station_id":"ce4bhlh2rcd13ifvqgig","pricing_plan_id":"free"},{"bike_id":"02e70b81-1339-4843-aea6-d2e9129d737a","system_id":"levelo_inurba_marseille","lat":43.246467,"lon":5.388984,"is_reserved":false,"is_disabled":false,"rental_uris":{"android":"levelo://app?vid=02e70b81-1339-4843-aea6-d2e9129d737a","ios":"levelo://app?vid=02e70b81-1339-4843-aea6-d2e9129d737a"},"vehicle_type_id":"4","last_reported":1701706173,"current_range_meters":30400,"station_id":"ce4bhg12rcd13ifvqf60","pricing_plan_id":"free"},{"bike_id":"075c5af7-8a66-44a0-ae30-a6b648947e96","system_id":"levelo_inurba_marseille","lat":43.246461,"lon":5.389014,"is_reserved":false,"is_disabled":false,"rental_uris":{"android":"levelo://app?vid=075c5af7-8a66-44a0-ae30-a6b648947e96","ios":"levelo://app?vid=075c5af7-8a66-44a0-ae30-a6b648947e96"},"vehicle_type_id":"4","last_reported":1701706173,"current_range_meters":22800,"station_id":"ce4bhg12rcd13ifvqf60","pricing_plan_id":"free"},{"bike_id":"40dd6df8-9a91-4104-9816-30c6f87a1c59","system_id":"levelo_inurba_marseille","lat":43.243884,"lon":5.370736,"is_reserved":false,"is_disabled":false,"rental_uris":{"android":"levelo://app?vid=40dd6df8-9a91-4104-9816-30c6f87a1c59","ios":"levelo://app?vid=40dd6df8-9a91-4104-9816-30c6f87a1c59"},"vehicle_type_id":"4","last_reported":1701706173,"current_range_meters":18400,"station_id":"ce4bhhh2rcd13ifvqfk0","pricing_plan_id":"free"},{"bike_id":"24f755ce-b094-48d8-96ab-65f254e17598","system_id":"levelo_inurba_marseille","lat":43.24386,"lon":5.3706,"is_reserved":false,"is_disabled":false,"rental_uris":{"android":"levelo://app?vid=24f755ce-b094-48d8-96ab-65f254e17598","ios":"levelo://app?vid=24f755ce-b094-48d8-96ab-65f254e17598"},"vehicle_type_id":"4","last_reported":1701706173,"current_range_meters":27200,"station_id":"ce4bhhh2rcd13ifvqfk0","pricing_plan_id":"free"},{"bike_id":"15ec8c74-bb7d-4bed-ae17-b97a26635983","system_id":"levelo_inurba_marseille","lat":43.239588,"lon":5.366238,"is_reserved":false,"is_disabled":false,"rental_uris":{"android":"levelo://app?vid=15ec8c74-bb7d-4bed-ae17-b97a26635983","ios":"levelo://app?vid=15ec8c74-bb7d-4bed-ae17-b97a26635983"},"vehicle_type_id":"4","last_reported":1701706173,"current_range_meters":30800,"station_id":"ce4bhi12rcd13ifvqfp0","pricing_plan_id":"free"},{"bike_id":"7f284465-fada-4bfe-83d9-86527b7b5358","system_id":"levelo_inurba_marseille","lat":43.239588,"lon":5.366238,"is_reserved":false,"is_disabled":false,"rental_uris":{"android":"levelo://app?vid=7f284465-fada-4bfe-83d9-86527b7b5358","ios":"levelo://app?vid=7f284465-fada-4bfe-83d9-86527b7b5358"},"vehicle_type_id":"4","last_reported":1701706173,"current_range_meters":31200,"station_id":"ce4bhi12rcd13ifvqfp0","pricing_plan_id":"free"},{"bike_id":"43dcc53c-0402-4665-82aa-27920a7c50a2","system_id":"levelo_inurba_marseille","lat":43.239588,"lon":5.366238,"is_reserved":false,"is_disabled":false,"rental_uris":{"android":"levelo://app?vid=43dcc53c-0402-4665-82aa-27920a7c50a2","ios":"levelo://app?vid=43dcc53c-0402-4665-82aa-27920a7c50a2"},"vehicle_type_id":"4","last_reported":1701706173,"current_range_meters":28000,"station_id":"ce4bhi12rcd13ifvqfp0","pricing_plan_id":"free"},{"bike_id":"2298e454-f0c3-40dc-8f12-8944622c5a7d","system_id":"levelo_inurba_marseille","lat":43.241782,"lon":5.397261,"is_reserved":false,"is_disabled":false,"rental_uris":{"android":"levelo://app?vid=2298e454-f0c3-40dc-8f12-8944622c5a7d","ios":"levelo://app?vid=2298e454-f0c3-40dc-8f12-8944622c5a7d"},"vehicle_type_id":"4","last_reported":1701706173,"current_range_meters":24400,"station_id":"ce4bhn12rcd13ifvqgpg","pricing_plan_id":"free"},{"bike_id":"eb1d283c-e696-4afd-beba-5a6438129bb8","system_id":"levelo_inurba_marseille","lat":43.241782,"lon":5.397261,"is_reserved":false,"is_disabled":false,"rental_uris":{"android":"levelo://app?vid=eb1d283c-e696-4afd-beba-5a6438129bb8","ios":"levelo://app?vid=eb1d283c-e696-4afd-beba-5a6438129bb8"},"vehicle_type_id":"4","last_reported":1701706173,"current_range_meters":26400,"station_id":"ce4bhn12rcd13ifvqgpg","pricing_plan_id":"free"},{"bike_id":"d56a6e17-2997-421a-bc4f-117dc8258f86","system_id":"levelo_inurba_marseille","lat":43.241782,"lon":5.397261,"is_reserved":false,"is_disabled":false,"rental_uris":{"android":"levelo://app?vid=d56a6e17-2997-421a-bc4f-117dc8258f86","ios":"levelo://app?vid=d56a6e17-2997-421a-bc4f-117dc8258f86"},"vehicle_type_id":"4","last_reported":1701706173,"current_range_meters":31200,"station_id":"ce4bhn12rcd13ifvqgpg","pricing_plan_id":"free"},{"bike_id":"9e01ee59-41e6-425c-ae1f-3e33312fefcd","system_id":"levelo_inurba_marseille","lat":43.231923,"lon":5.355545,"is_reserved":false,"is_disabled":false,"rental_uris":{"android":"levelo://app?vid=9e01ee59-41e6-425c-ae1f-3e33312fefcd","ios":"levelo://app?vid=9e01ee59-41e6-425c-ae1f-3e33312fefcd"},"vehicle_type_id":"4","last_reported":1701706173,"current_range_meters":11200,"station_id":"ce4bhu92rcd13ifvqi70","pricing_plan_id":"free"},{"bike_id":"8756435f-ebd3-4df3-89fa-6a5a1e380d37","system_id":"levelo_inurba_marseille","lat":43.231919,"lon":5.355532,"is_reserved":false,"is_disabled":false,"rental_uris":{"android":"levelo://app?vid=8756435f-ebd3-4df3-89fa-6a5a1e380d37","ios":"levelo://app?vid=8756435f-ebd3-4df3-89fa-6a5a1e380d37"},"vehicle_type_id":"4","last_reported":1701706173,"current_range_meters":30400,"station_id":"ce4bhu92rcd13ifvqi70","pricing_plan_id":"free"},{"bike_id":"6041d620-664b-4836-b597-a0e62593a032","system_id":"levelo_inurba_marseille","lat":43.231923,"lon":5.355545,"is_reserved":false,"is_disabled":false,"rental_uris":{"android":"levelo://app?vid=6041d620-664b-4836-b597-a0e62593a032","ios":"levelo://app?vid=6041d620-664b-4836-b597-a0e62593a032"},"vehicle_type_id":"4","last_reported":1701706173,"current_range_meters":24000,"station_id":"ce4bhu92rcd13ifvqi70","pricing_plan_id":"free"},{"bike_id":"cf3102c4-88e0-4a41-86b7-69a76932d3e6","system_id":"levelo_inurba_marseille","lat":43.231923,"lon":5.355545,"is_reserved":false,"is_disabled":false,"rental_uris":{"android":"levelo://app?vid=cf3102c4-88e0-4a41-86b7-69a76932d3e6","ios":"levelo://app?vid=cf3102c4-88e0-4a41-86b7-69a76932d3e6"},"vehicle_type_id":"4","last_reported":1701706173,"current_range_meters":31200,"station_id":"ce4bhu92rcd13ifvqi70","pricing_plan_id":"free"},{"bike_id":"2b04708e-eed8-4471-916a-9fdeea01eec7","system_id":"levelo_inurba_marseille","lat":43.231923,"lon":5.355545,"is_reserved":false,"is_disabled":false,"rental_uris":{"android":"levelo://app?vid=2b04708e-eed8-4471-916a-9fdeea01eec7","ios":"levelo://app?vid=2b04708e-eed8-4471-916a-9fdeea01eec7"},"vehicle_type_id":"4","last_reported":1701706173,"current_range_meters":27600,"station_id":"ce4bhu92rcd13ifvqi70","pricing_plan_id":"free"},{"bike_id":"0cf73e26-cfe4-495a-8675-6603ab968aec","system_id":"levelo_inurba_marseille","lat":43.231794,"lon":5.400052,"is_reserved":false,"is_disabled":false,"rental_uris":{"android":"levelo://app?vid=0cf73e26-cfe4-495a-8675-6603ab968aec","ios":"levelo://app?vid=0cf73e26-cfe4-495a-8675-6603ab968aec"},"vehicle_type_id":"4","last_reported":1701706173,"current_range_meters":27600,"station_id":"ce4bhn12rcd13ifvqgqg","pricing_plan_id":"free"},{"bike_id":"83e4efaf-d8fa-4cf8-be8c-86d2713eb09f","system_id":"levelo_inurba_marseille","lat":43.231794,"lon":5.400052,"is_reserved":false,"is_disabled":false,"rental_uris":{"android":"levelo://app?vid=83e4efaf-d8fa-4cf8-be8c-86d2713eb09f","ios":"levelo://app?vid=83e4efaf-d8fa-4cf8-be8c-86d2713eb09f"},"vehicle_type_id":"4","last_reported":1701706173,"current_range_meters":23600,"station_id":"ce4bhn12rcd13ifvqgqg","pricing_plan_id":"free"},{"bike_id":"e44db449-6914-4cfb-bde0-4c3cbeca97c3","system_id":"levelo_inurba_marseille","lat":43.231794,"lon":5.400052,"is_reserved":false,"is_disabled":false,"rental_uris":{"android":"levelo://app?vid=e44db449-6914-4cfb-bde0-4c3cbeca97c3","ios":"levelo://app?vid=e44db449-6914-4cfb-bde0-4c3cbeca97c3"},"vehicle_type_id":"4","last_reported":1701706173,"current_range_meters":30400,"station_id":"ce4bhn12rcd13ifvqgqg","pricing_plan_id":"free"},{"bike_id":"6bd9f065-50d9-4657-9ca0-a006f413d305","system_id":"levelo_inurba_marseille","lat":43.231794,"lon":5.400052,"is_reserved":false,"is_disabled":false,"rental_uris":{"android":"levelo://app?vid=6bd9f065-50d9-4657-9ca0-a006f413d305","ios":"levelo://app?vid=6bd9f065-50d9-4657-9ca0-a006f413d305"},"vehicle_type_id":"4","last_reported":1701706173,"current_range_meters":31200,"station_id":"ce4bhn12rcd13ifvqgqg","pricing_plan_id":"free"},{"bike_id":"88cf855f-bb31-40e0-8afc-686df3c193ab","system_id":"levelo_inurba_marseille","lat":43.231794,"lon":5.400052,"is_reserved":false,"is_disabled":false,"rental_uris":{"android":"levelo://app?vid=88cf855f-bb31-40e0-8afc-686df3c193ab","ios":"levelo://app?vid=88cf855f-bb31-40e0-8afc-686df3c193ab"},"vehicle_type_id":"4","last_reported":1701706173,"current_range_meters":29200,"station_id":"ce4bhn12rcd13ifvqgqg","pricing_plan_id":"free"},{"bike_id":"77b1a551-da7f-429a-980e-bfc6767a5958","system_id":"levelo_inurba_marseille","lat":43.231794,"lon":5.400052,"is_reserved":false,"is_disabled":false,"rental_uris":{"android":"levelo://app?vid=77b1a551-da7f-429a-980e-bfc6767a5958","ios":"levelo://app?vid=77b1a551-da7f-429a-980e-bfc6767a5958"},"vehicle_type_id":"4","last_reported":1701706173,"current_range_meters":31200,"station_id":"ce4bhn12rcd13ifvqgqg","pricing_plan_id":"free"},{"bike_id":"554e18bc-f6bd-448a-9d3a-a49810d0b6de","system_id":"levelo_inurba_marseille","lat":43.231794,"lon":5.400052,"is_reserved":false,"is_disabled":false,"rental_uris":{"android":"levelo://app?vid=554e18bc-f6bd-448a-9d3a-a49810d0b6de","ios":"levelo://app?vid=554e18bc-f6bd-448a-9d3a-a49810d0b6de"},"vehicle_type_id":"4","last_reported":1701706173,"current_range_meters":13600,"station_id":"ce4bhn12rcd13ifvqgqg","pricing_plan_id":"free"},{"bike_id":"22bd98e3-c33f-4c44-ae2b-f96729d36f4f","system_id":"levelo_inurba_marseille","lat":43.231793,"lon":5.400044,"is_reserved":false,"is_disabled":false,"rental_uris":{"android":"levelo://app?vid=22bd98e3-c33f-4c44-ae2b-f96729d36f4f","ios":"levelo://app?vid=22bd98e3-c33f-4c44-ae2b-f96729d36f4f"},"vehicle_type_id":"4","last_reported":1701706173,"current_range_meters":31200,"station_id":"ce4bhn12rcd13ifvqgqg","pricing_plan_id":"free"},{"bike_id":"e47e98e0-4256-4c41-ae86-e531a41b9213","system_id":"levelo_inurba_marseille","lat":43.231794,"lon":5.400052,"is_reserved":false,"is_disabled":false,"rental_uris":{"android":"levelo://app?vid=e47e98e0-4256-4c41-ae86-e531a41b9213","ios":"levelo://app?vid=e47e98e0-4256-4c41-ae86-e531a41b9213"},"vehicle_type_id":"4","last_reported":1701706173,"current_range_meters":31200,"station_id":"ce4bhn12rcd13ifvqgqg","pricing_plan_id":"free"},{"bike_id":"8f0fb87f-53e2-432d-b05f-ab1e816b61dc","system_id":"levelo_inurba_marseille","lat":43.231794,"lon":5.400052,"is_reserved":false,"is_disabled":false,"rental_uris":{"android":"levelo://app?vid=8f0fb87f-53e2-432d-b05f-ab1e816b61dc","ios":"levelo://app?vid=8f0fb87f-53e2-432d-b05f-ab1e816b61dc"},"vehicle_type_id":"4","last_reported":1701706173,"current_range_meters":30800,"station_id":"ce4bhn12rcd13ifvqgqg","pricing_plan_id":"free"},{"bike_id":"ab5eae98-96ca-4718-91b7-353de917f40d","system_id":"levelo_inurba_marseille","lat":43.231793,"lon":5.400044,"is_reserved":false,"is_disabled":false,"rental_uris":{"android":"levelo://app?vid=ab5eae98-96ca-4718-91b7-353de917f40d","ios":"levelo://app?vid=ab5eae98-96ca-4718-91b7-353de917f40d"},"vehicle_type_id":"4","last_reported":1701706173,"current_range_meters":31200,"station_id":"ce4bhn12rcd13ifvqgqg","pricing_plan_id":"free"},{"bike_id":"5d9be6d5-2985-432d-ac4f-8e0798b2a0ac","system_id":"levelo_inurba_marseille","lat":43.231793,"lon":5.400044,"is_reserved":false,"is_disabled":false,"rental_uris":{"android":"levelo://app?vid=5d9be6d5-2985-432d-ac4f-8e0798b2a0ac","ios":"levelo://app?vid=5d9be6d5-2985-432d-ac4f-8e0798b2a0ac"},"vehicle_type_id":"4","last_reported":1701706173,"current_range_meters":30400,"station_id":"ce4bhn12rcd13ifvqgqg","pricing_plan_id":"free"},{"bike_id":"8018717d-336c-48a7-9c90-84a6551a8bc7","system_id":"levelo_inurba_marseille","lat":43.23159,"lon":5.4371,"is_reserved":false,"is_disabled":false,"rental_uris":{"android":"levelo://app?vid=8018717d-336c-48a7-9c90-84a6551a8bc7","ios":"levelo://app?vid=8018717d-336c-48a7-9c90-84a6551a8bc7"},"vehicle_type_id":"4","last_reported":1701706173,"current_range_meters":31200,"station_id":"ce4bhmp2rcd13ifvqgog","pricing_plan_id":"free"},{"bike_id":"818b7971-a62f-4d0c-b4d6-ebcff5688a44","system_id":"levelo_inurba_marseille","lat":43.231562,"lon":5.436933,"is_reserved":false,"is_disabled":false,"rental_uris":{"android":"levelo://app?vid=818b7971-a62f-4d0c-b4d6-ebcff5688a44","ios":"levelo://app?vid=818b7971-a62f-4d0c-b4d6-ebcff5688a44"},"vehicle_type_id":"4","last_reported":1701706173,"current_range_meters":27600,"station_id":"ce4bhmp2rcd13ifvqgog","pricing_plan_id":"free"},{"bike_id":"30690881-465e-4f4e-a81a-04a1a40e4341","system_id":"levelo_inurba_marseille","lat":43.231562,"lon":5.436933,"is_reserved":false,"is_disabled":false,"rental_uris":{"android":"levelo://app?vid=30690881-465e-4f4e-a81a-04a1a40e4341","ios":"levelo://app?vid=30690881-465e-4f4e-a81a-04a1a40e4341"},"vehicle_type_id":"4","last_reported":1701706173,"current_range_meters":17600,"station_id":"ce4bhmp2rcd13ifvqgog","pricing_plan_id":"free"},{"bike_id":"1470ce37-368f-45ab-b473-5fbe751d8010","system_id":"levelo_inurba_marseille","lat":43.23147,"lon":5.43717,"is_reserved":false,"is_disabled":false,"rental_uris":{"android":"levelo://app?vid=1470ce37-368f-45ab-b473-5fbe751d8010","ios":"levelo://app?vid=1470ce37-368f-45ab-b473-5fbe751d8010"},"vehicle_type_id":"4","last_reported":1701706173,"current_range_meters":31200,"station_id":"ce4bhmp2rcd13ifvqgog","pricing_plan_id":"free"},{"bike_id":"2e1f4911-ec15-4212-aa8f-8ade17ab151d","system_id":"levelo_inurba_marseille","lat":43.23148,"lon":5.43724,"is_reserved":false,"is_disabled":false,"rental_uris":{"android":"levelo://app?vid=2e1f4911-ec15-4212-aa8f-8ade17ab151d","ios":"levelo://app?vid=2e1f4911-ec15-4212-aa8f-8ade17ab151d"},"vehicle_type_id":"4","last_reported":1701706173,"current_range_meters":29600,"station_id":"ce4bhmp2rcd13ifvqgog","pricing_plan_id":"free"},{"bike_id":"b718cec7-5e66-4216-830b-20c4cb80c1f6","system_id":"levelo_inurba_marseille","lat":43.231562,"lon":5.436933,"is_reserved":false,"is_disabled":false,"rental_uris":{"android":"levelo://app?vid=b718cec7-5e66-4216-830b-20c4cb80c1f6","ios":"levelo://app?vid=b718cec7-5e66-4216-830b-20c4cb80c1f6"},"vehicle_type_id":"4","last_reported":1701706173,"current_range_meters":30000,"station_id":"ce4bhmp2rcd13ifvqgog","pricing_plan_id":"free"},{"bike_id":"31d0811f-403f-42aa-9ea6-b138ed5aedee","system_id":"levelo_inurba_marseille","lat":43.231562,"lon":5.436933,"is_reserved":false,"is_disabled":false,"rental_uris":{"android":"levelo://app?vid=31d0811f-403f-42aa-9ea6-b138ed5aedee","ios":"levelo://app?vid=31d0811f-403f-42aa-9ea6-b138ed5aedee"},"vehicle_type_id":"4","last_reported":1701706173,"current_range_meters":31200,"station_id":"ce4bhmp2rcd13ifvqgog","pricing_plan_id":"free"},{"bike_id":"706f037c-7ec0-40f4-884a-de295754c8cd","system_id":"levelo_inurba_marseille","lat":43.231562,"lon":5.436933,"is_reserved":false,"is_disabled":false,"rental_uris":{"android":"levelo://app?vid=706f037c-7ec0-40f4-884a-de295754c8cd","ios":"levelo://app?vid=706f037c-7ec0-40f4-884a-de295754c8cd"},"vehicle_type_id":"4","last_reported":1701706173,"current_range_meters":30000,"station_id":"ce4bhmp2rcd13ifvqgog","pricing_plan_id":"free"}]}}