{"last_updated":1751537509,"ttl":60,"version":"2.2","data":{"bikes":[{"bike_id":"3da29fb8-fc97-44c6-b9ac-31dd456b2fd4","system_id":"levelo_inurba_marseille","lat":43.33771,"lon":5.37424,"is_reserved":false,"is_disabled":true,"rental_uris":{"android":"levelo://app?vid=3da29fb8-fc97-44c6-b9ac-31dd456b2fd4","ios":"levelo://app?vid=3da29fb8-fc97-44c6-b9ac-31dd456b2fd4"},"vehicle_type_id":"4","last_reported":1751537510,"current_range_meters":0,"station_id":"","pricing_plan_id":"cebpf4jnsgd1na2vs0mg"},{"bike_id":"01861ad8-a8d7-4be6-816e-651927c87584","system_id":"levelo_inurba_marseille","lat":43.33751,"lon":5.37456,"is_reserved":false,"is_disabled":true,"rental_uris":{"android":"levelo://app?vid=01861ad8-a8d7-4be6-816e-651927c87584","ios":"levelo://app?vid=01861ad8-a8d7-4be6-816e-651927c87584"},"vehicle_type_id":"4","last_reported":1751537510,"current_range_meters":0,"station_id":"","pricing_plan_id":"cebpf4jnsgd1na2vs0mg"},{"bike_id":"34525e0e-88eb-4fe8-be83-e19f0f1185d3","system_id":"levelo_inurba_marseille","lat":43.22506,"lon":5.34775,"is_reserved":false,"is_disabled":true,"rental_uris":{"android":"levelo://app?vid=34525e0e-88eb-4fe8-be83-e19f0f1185d3","ios":"levelo://app?vid=34525e0e-88eb-4fe8-be83-e19f0f1185d3"},"vehicle_type_id":"4","last_reported":1751537510,"current_range_meters":0,"station_id":"","pricing_plan_id":"cebpf4jnsgd1na2vs0mg"},{"bike_id":"6e5b5a4d-1ee5-4068-9613-fb44ab4d8a9a","system_id":"levelo_inurba_marseille","lat":43.34858,"lon":5.34683,"is_reserved":false,"is_disabled":true,"rental_uris":{"android":"levelo://app?vid=6e5b5a4d-1ee5-4068-9613-fb44ab4d8a9a","ios":"levelo://app?vid=6e5b5a4d-1ee5-4068-9613-fb44ab4d8a9a"},"vehicle_type_id":"4","last_reported":1751537510,"current_range_meters":0,"station_id":"","pricing_plan_id":"cebpf4jnsgd1na2vs0mg"},{"bike_id":"5fe1f33a-ebc4-4182-b521-7ef3eadc1773","system_id":"levelo_inurba_marseille","lat":43.26882,"lon":5.36876,"is_reserved":false,"is_disabled":true,"rental_uris":{"android":"levelo://app?vid=5fe1f33a-ebc4-4182-b521-7ef3eadc1773","ios":"levelo://app?vid=5fe1f33a-ebc4-4182-b521-7ef3eadc1773"},"vehicle_type_id":"4","last_reported":1751537510,"current_range_meters":0,"station_id":"","pricing_plan_id":"cebpf4jnsgd1na2vs0mg"},{"bike_id":"8e520791-f3c2-458c-9680-3acd4b41f812","system_id":"levelo_inurba_marseille","lat":43.31163,"lon":5.38712,"is_reserved":false,"is_disabled":true,"rental_uris":{"android":"levelo://app?vid=8e520791-f3c2-458c-9680-3acd4b41f812","ios":"levelo://app?vid=8e520791-f3c2-458c-9680-3acd4b41f812"},"vehicle_type_id":"4","last_reported":1751537510,"current_range_meters":0,"station_id":"ce4bgv12rcd13ifvqcp0","pricing_plan_id":"cebpf4jnsgd1na2vs0mg"},{"bike_id":"e198fdcc-cd13-4de1-8bde-5dc6dca16ab0","system_id":"levelo_inurba_marseille","lat":43.31075,"lon":5.38359,"is_reserved":false,"is_disabled":true,"rental_uris":{"android":"levelo://app?vid=e198fdcc-cd13-4de1-8bde-5dc6dca16ab0","ios":"levelo://app?vid=e198fdcc-cd13-4de1-8bde-5dc6dca16ab0"},"vehicle_type_id":"4","last_reported":1751537510,"current_range_meters":0,"station_id":"ce4bgv92rcd13ifvqcr0","pricing_plan_id":"cebpf4jnsgd1na2vs0mg"},{"bike_id":"004b0ef6-a307-4259-be8f-b5e46921fd41","system_id":"levelo_inurba_marseille","lat":43.30881,"lon":5.39613,"is_reserved":false,"is_disabled":true,"rental_uris":{"android":"levelo://app?vid=004b0ef6-a307-4259-be8f-b5e46921fd41","ios":"levelo://app?vid=004b0ef6-a307-4259-be8f-b5e46921fd41"},"vehicle_type_id":"4","last_reported":1751537510,"current_range_meters":0,"station_id":"ce4bh012rcd13ifvqcv0","pricing_plan_id":"cebpf4jnsgd1na2vs0mg"},{"bike_id":"1314e217-f311-4c6c-8dab-9a2654697bbc","system_id":"levelo_inurba_marseille","lat":43.24387,"lon":5.37043,"is_reserved":false,"is_disabled":true,"rental_uris":{"android":"levelo://app?vid=1314e217-f311-4c6c-8dab-9a2654697bbc","ios":"levelo://app?vid=1314e217-f311-4c6c-8dab-9a2654697bbc"},"vehicle_type_id":"4","last_reported":1751537510,"current_range_meters":0,"station_id":"ce4bhhh2rcd13ifvqfk0","pricing_plan_id":"cebpf4jnsgd1na2vs0mg"},{"bike_id":"45a36d42-3f75-4451-929c-2980bab85fb7","system_id":"levelo_inurba_marseille","lat":43.23153,"lon":5.4366,"is_reserved":false,"is_disabled":true,"rental_uris":{"android":"levelo://app?vid=45a36d42-3f75-4451-929c-2980bab85fb7","ios":"levelo://app?vid=45a36d42-3f75-4451-929c-2980bab85fb7"},"vehicle_type_id":"4","last_reported":1751537510,"current_range_meters":0,"station_id":"ce4bhmp2rcd13ifvqgog","pricing_plan_id":"cebpf4jnsgd1na2vs0mg"},{"bike_id":"7e39ea07-3ec1-4f66-8d21-89c3fc316912","system_id":"levelo_inurba_marseille","lat":43.31733,"lon":5.42394,"is_reserved":false,"is_disabled":true,"rental_uris":{"android":"levelo://app?vid=7e39ea07-3ec1-4f66-8d21-89c3fc316912","ios":"levelo://app?vid=7e39ea07-3ec1-4f66-8d21-89c3fc316912"},"vehicle_type_id":"4","last_reported":1751537510,"current_range_meters":0,"station_id":"ce4bhp92rcd13ifvqhbg","pricing_plan_id":"cebpf4jnsgd1na2vs0mg"},{"bike_id":"cbab8e8e-76d8-4b25-9f75-190c476c076a","system_id":"levelo_inurba_marseille","lat":43.33623,"lon":5.40992,"is_reserved":false,"is_disabled":true,"rental_uris":{"android":"levelo://app?vid=cbab8e8e-76d8-4b25-9f75-190c476c076a","ios":"levelo://app?vid=cbab8e8e-76d8-4b25-9f75-190c476c076a"},"vehicle_type_id":"4","last_reported":1751537510,"current_range_meters":0,"station_id":"ce4bhqh2rcd13ifvqhmg","pricing_plan_id":"cebpf4jnsgd1na2vs0mg"},{"bike_id":"8e365e3c-559a-4ba6-a6c5-4c159e2434fc","system_id":"levelo_inurba_marseille","lat":43.21748,"lon":5.3462,"is_reserved":false,"is_disabled":true,"rental_uris":{"android":"levelo://app?vid=8e365e3c-559a-4ba6-a6c5-4c159e2434fc","ios":"levelo://app?vid=8e365e3c-559a-4ba6-a6c5-4c159e2434fc"},"vehicle_type_id":"4","last_reported":1751537510,"current_range_meters":400,"station_id":"","pricing_plan_id":"cebpf4jnsgd1na2vs0mg"},{"bike_id":"9795e511-4f68-494d-9846-41f87f5dd923","system_id":"levelo_inurba_marseille","lat":43.22507,"lon":5.34773,"is_reserved":false,"is_disabled":true,"rental_uris":{"android":"levelo://app?vid=9795e511-4f68-494d-9846-41f87f5dd923","ios":"levelo://app?vid=9795e511-4f68-494d-9846-41f87f5dd923"},"vehicle_type_id":"4","last_reported":1751537510,"current_range_meters":400,"station_id":"st_cvj5dfep6f1abm77gieg","pricing_plan_id":"cebpf4jnsgd1na2vs0mg"},{"bike_id":"92585675-218b-458a-ab87-46342fb33185","system_id":"levelo_inurba_marseille","lat":43.28851,"lon":5.35838,"is_reserved":false,"is_disabled":true,"rental_uris":{"android":"levelo://app?vid=92585675-218b-458a-ab87-46342fb33185","ios":"levelo://app?vid=92585675-218b-458a-ab87-46342fb33185"},"vehicle_type_id":"4","last_reported":1751537510,"current_range_meters":800,"station_id":"ce4bhb12rcd13ifvqem0","pricing_plan_id":"cebpf4jnsgd1na2vs0mg"},{"bike_id":"bca95006-cf66-4e6a-b00f-b457f5a891dd","system_id":"levelo_inurba_marseille","lat":43.30378,"lon":5.42487,"is_reserved":false,"is_disabled":true,"rental_uris":{"android":"levelo://app?vid=bca95006-cf66-4e6a-b00f-b457f5a891dd","ios":"levelo://app?vid=bca95006-cf66-4e6a-b00f-b457f5a891dd"},"vehicle_type_id":"4","last_reported":1751537510,"current_range_meters":800,"station_id":"ce4bhoh2rcd13ifvqh6g","pricing_plan_id":"cebpf4jnsgd1na2vs0mg"},{"bike_id":"e1a82d09-b4ba-4521-bf1e-f96e63f9891a","system_id":"levelo_inurba_marseille","lat":43.24166,"lon":5.3639,"is_reserved":false,"is_disabled":true,"rental_uris":{"android":"levelo://app?vid=e1a82d09-b4ba-4521-bf1e-f96e63f9891a","ios":"levelo://app?vid=e1a82d09-b4ba-4521-bf1e-f96e63f9891a"},"vehicle_type_id":"4","last_reported":1751537510,"current_range_meters":800,"station_id":"cpo36qri1sfpv3e86is0","pricing_plan_id":"cebpf4jnsgd1na2vs0mg"},{"bike_id":"75d0a17c-d0c5-45e5-9632-3722a87e82d5","system_id":"levelo_inurba_marseille","lat":43.32124,"lon":5.36813,"is_reserved":false,"is_disabled":true,"rental_uris":{"android":"levelo://app?vid=75d0a17c-d0c5-45e5-9632-3722a87e82d5","ios":"levelo://app?vid=75d0a17c-d0c5-45e5-9632-3722a87e82d5"},"vehicle_type_id":"4","last_reported":1751537510,"current_range_meters":1200,"station_id":"ce4bhrh2rcd13ifvqhug","pricing_plan_id":"cebpf4jnsgd1na2vs0mg"},{"bike_id":"c077b828-a2a6-46af-afee-b8f1e5503f43","system_id":"levelo_inurba_marseille","lat":43.23188,"lon":5.35549,"is_reserved":false,"is_disabled":true,"rental_uris":{"android":"levelo://app?vid=c077b828-a2a6-46af-afee-b8f1e5503f43","ios":"levelo://app?vid=c077b828-a2a6-46af-afee-b8f1e5503f43"},"vehicle_type_id":"4","last_reported":1751537510,"current_range_meters":1200,"station_id":"ce4bhu92rcd13ifvqi70","pricing_plan_id":"cebpf4jnsgd1na2vs0mg"},{"bike_id":"0e13de3a-aaea-4a72-ac2b-6456e4f44149","system_id":"levelo_inurba_marseille","lat":43.295322,"lon":5.377385,"is_reserved":false,"is_disabled":true,"rental_uris":{"android":"levelo://app?vid=0e13de3a-aaea-4a72-ac2b-6456e4f44149","ios":"levelo://app?vid=0e13de3a-aaea-4a72-ac2b-6456e4f44149"},"vehicle_type_id":"4","last_reported":1751537510,"current_range_meters":1600,"station_id":"ce4bgi92rcd13ifvqb90","pricing_plan_id":"cebpf4jnsgd1na2vs0mg"},{"bike_id":"acc6c06a-34b5-4f62-9844-ad286fadf5da","system_id":"levelo_inurba_marseille","lat":43.31075,"lon":5.38356,"is_reserved":false,"is_disabled":true,"rental_uris":{"android":"levelo://app?vid=acc6c06a-34b5-4f62-9844-ad286fadf5da","ios":"levelo://app?vid=acc6c06a-34b5-4f62-9844-ad286fadf5da"},"vehicle_type_id":"4","last_reported":1751537510,"current_range_meters":2000,"station_id":"ce4bgv92rcd13ifvqcr0","pricing_plan_id":"cebpf4jnsgd1na2vs0mg"},{"bike_id":"a6763974-09ff-4066-89a0-5bae7823e1ea","system_id":"levelo_inurba_marseille","lat":43.28722,"lon":5.37929,"is_reserved":false,"is_disabled":true,"rental_uris":{"android":"levelo://app?vid=a6763974-09ff-4066-89a0-5bae7823e1ea","ios":"levelo://app?vid=a6763974-09ff-4066-89a0-5bae7823e1ea"},"vehicle_type_id":"4","last_reported":1751537510,"current_range_meters":2000,"station_id":"ce4bh9p2rcd13ifvqec0","pricing_plan_id":"cebpf4jnsgd1na2vs0mg"},{"bike_id":"9713018a-f4b5-4c25-ae49-c1172b0b0337","system_id":"levelo_inurba_marseille","lat":43.23194,"lon":5.35553,"is_reserved":false,"is_disabled":false,"rental_uris":{"android":"levelo://app?vid=9713018a-f4b5-4c25-ae49-c1172b0b0337","ios":"levelo://app?vid=9713018a-f4b5-4c25-ae49-c1172b0b0337"},"vehicle_type_id":"4","last_reported":1751537510,"current_range_meters":2000,"station_id":"ce4bhu92rcd13ifvqi70","pricing_plan_id":"cebpf4jnsgd1na2vs0mg"},{"bike_id":"ad1ac6f2-2a0b-4f2a-af14-951caac9d773","system_id":"levelo_inurba_marseille","lat":43.29535,"lon":5.38551,"is_reserved":false,"is_disabled":false,"rental_uris":{"android":"levelo://app?vid=ad1ac6f2-2a0b-4f2a-af14-951caac9d773","ios":"levelo://app?vid=ad1ac6f2-2a0b-4f2a-af14-951caac9d773"},"vehicle_type_id":"4","last_reported":1751537510,"current_range_meters":2800,"station_id":"ce4bgih2rcd13ifvqba0","pricing_plan_id":"cebpf4jnsgd1na2vs0mg"},{"bike_id":"4ef27fec-1716-44d4-aabb-3c6267b763ac","system_id":"levelo_inurba_marseille","lat":43.27365,"lon":5.36249,"is_reserved":false,"is_disabled":false,"rental_uris":{"android":"levelo://app?vid=4ef27fec-1716-44d4-aabb-3c6267b763ac","ios":"levelo://app?vid=4ef27fec-1716-44d4-aabb-3c6267b763ac"},"vehicle_type_id":"4","last_reported":1751537510,"current_range_meters":2800,"station_id":"ce4bhbh2rcd13ifvqeo0","pricing_plan_id":"cebpf4jnsgd1na2vs0mg"},{"bike_id":"e9baed1d-b20a-4484-a06b-3bcc78d0ad5d","system_id":"levelo_inurba_marseille","lat":43.29581,"lon":5.36737,"is_reserved":false,"is_disabled":false,"rental_uris":{"android":"levelo://app?vid=e9baed1d-b20a-4484-a06b-3bcc78d0ad5d","ios":"levelo://app?vid=e9baed1d-b20a-4484-a06b-3bcc78d0ad5d"},"vehicle_type_id":"4","last_reported":1751537510,"current_range_meters":3200,"station_id":"ce4bgph2rcd13ifvqc2g","pricing_plan_id":"cebpf4jnsgd1na2vs0mg"},{"bike_id":"38a5b3e2-b449-4034-a13b-d62090a77d4b","system_id":"levelo_inurba_marseille","lat":43.291301,"lon":5.384503,"is_reserved":false,"is_disabled":false,"rental_uris":{"android":"levelo://app?vid=38a5b3e2-b449-4034-a13b-d62090a77d4b","ios":"levelo://app?vid=38a5b3e2-b449-4034-a13b-d62090a77d4b"},"vehicle_type_id":"4","last_reported":1751537510,"current_range_meters":3200,"station_id":"ce4bh4p2rcd13ifvqe0g","pricing_plan_id":"cebpf4jnsgd1na2vs0mg"},{"bike_id":"3171c720-c684-4a95-8c6a-ab128f5d1044","system_id":"levelo_inurba_marseille","lat":43.313689,"lon":5.367189,"is_reserved":false,"is_disabled":false,"rental_uris":{"android":"levelo://app?vid=3171c720-c684-4a95-8c6a-ab128f5d1044","ios":"levelo://app?vid=3171c720-c684-4a95-8c6a-ab128f5d1044"},"vehicle_type_id":"4","last_reported":1751537510,"current_range_meters":4000,"station_id":"ce4bgr92rcd13ifvqc6g","pricing_plan_id":"cebpf4jnsgd1na2vs0mg"},{"bike_id":"28e381ac-e7e5-41e2-a33f-826079194204","system_id":"levelo_inurba_marseille","lat":43.32336,"lon":5.40622,"is_reserved":false,"is_disabled":false,"rental_uris":{"android":"levelo://app?vid=28e381ac-e7e5-41e2-a33f-826079194204","ios":"levelo://app?vid=28e381ac-e7e5-41e2-a33f-826079194204"},"vehicle_type_id":"4","last_reported":1751537510,"current_range_meters":4000,"station_id":"ce4bhq92rcd13ifvqhjg","pricing_plan_id":"cebpf4jnsgd1na2vs0mg"},{"bike_id":"96b1f936-963f-43fc-8411-d2e01c50430e","system_id":"levelo_inurba_marseille","lat":43.24074,"lon":5.37761,"is_reserved":false,"is_disabled":false,"rental_uris":{"android":"levelo://app?vid=96b1f936-963f-43fc-8411-d2e01c50430e","ios":"levelo://app?vid=96b1f936-963f-43fc-8411-d2e01c50430e"},"vehicle_type_id":"4","last_reported":1751537510,"current_range_meters":4400,"station_id":"ce4bhnp2rcd13ifvqgvg","pricing_plan_id":"cebpf4jnsgd1na2vs0mg"},{"bike_id":"f01bc8f1-adbd-4ce7-b1a0-7a0fa10b7efb","system_id":"levelo_inurba_marseille","lat":43.330438,"lon":5.390592,"is_reserved":false,"is_disabled":false,"rental_uris":{"android":"levelo://app?vid=f01bc8f1-adbd-4ce7-b1a0-7a0fa10b7efb","ios":"levelo://app?vid=f01bc8f1-adbd-4ce7-b1a0-7a0fa10b7efb"},"vehicle_type_id":"4","last_reported":1751537510,"current_range_meters":4400,"station_id":"ce4bhr92rcd13ifvqhrg","pricing_plan_id":"cebpf4jnsgd1na2vs0mg"},{"bike_id":"f4af9da7-300d-48b9-9c13-71a488f5cc95","system_id":"levelo_inurba_marseille","lat":43.29507,"lon":5.37507,"is_reserved":false,"is_disabled":false,"rental_uris":{"android":"levelo://app?vid=f4af9da7-300d-48b9-9c13-71a488f5cc95","ios":"levelo://app?vid=f4af9da7-300d-48b9-9c13-71a488f5cc95"},"vehicle_type_id":"4","last_reported":1751537510,"current_range_meters":4800,"station_id":"ce4bgkp2rcd13ifvqbmg","pricing_plan_id":"cebpf4jnsgd1na2vs0mg"},{"bike_id":"cf118203-dfba-4a72-8f47-668c562e2473","system_id":"levelo_inurba_marseille","lat":43.313648,"lon":5.367116,"is_reserved":false,"is_disabled":false,"rental_uris":{"android":"levelo://app?vid=cf118203-dfba-4a72-8f47-668c562e2473","ios":"levelo://app?vid=cf118203-dfba-4a72-8f47-668c562e2473"},"vehicle_type_id":"4","last_reported":1751537510,"current_range_meters":4800,"station_id":"ce4bgr92rcd13ifvqc6g","pricing_plan_id":"cebpf4jnsgd1na2vs0mg"},{"bike_id":"4792b17c-c917-4b11-a8f3-6466f0a03dc8","system_id":"levelo_inurba_marseille","lat":43.23148,"lon":5.43719,"is_reserved":false,"is_disabled":false,"rental_uris":{"android":"levelo://app?vid=4792b17c-c917-4b11-a8f3-6466f0a03dc8","ios":"levelo://app?vid=4792b17c-c917-4b11-a8f3-6466f0a03dc8"},"vehicle_type_id":"4","last_reported":1751537510,"current_range_meters":4800,"station_id":"ce4bhmp2rcd13ifvqgog","pricing_plan_id":"cebpf4jnsgd1na2vs0mg"},{"bike_id":"8becf1b9-b72c-4763-a062-bbd587ae45bf","system_id":"levelo_inurba_marseille","lat":43.32605,"lon":5.42555,"is_reserved":false,"is_disabled":false,"rental_uris":{"android":"levelo://app?vid=8becf1b9-b72c-4763-a062-bbd587ae45bf","ios":"levelo://app?vid=8becf1b9-b72c-4763-a062-bbd587ae45bf"},"vehicle_type_id":"4","last_reported":1751537510,"current_range_meters":5600,"station_id":"","pricing_plan_id":"cebpf4jnsgd1na2vs0mg"},{"bike_id":"b5afba14-8b3c-4d05-884f-e556e0b6f0aa","system_id":"levelo_inurba_marseille","lat":43.32346,"lon":5.40609,"is_reserved":false,"is_disabled":false,"rental_uris":{"android":"levelo://app?vid=b5afba14-8b3c-4d05-884f-e556e0b6f0aa","ios":"levelo://app?vid=b5afba14-8b3c-4d05-884f-e556e0b6f0aa"},"vehicle_type_id":"4","last_reported":1751537510,"current_range_meters":5600,"station_id":"ce4bhq92rcd13ifvqhjg","pricing_plan_id":"cebpf4jnsgd1na2vs0mg"},{"bike_id":"1e8653f9-998f-46da-88e5-88254bedf577","system_id":"levelo_inurba_marseille","lat":43.29712,"lon":5.36597,"is_reserved":false,"is_disabled":false,"rental_uris":{"android":"levelo://app?vid=1e8653f9-998f-46da-88e5-88254bedf577","ios":"levelo://app?vid=1e8653f9-998f-46da-88e5-88254bedf577"},"vehicle_type_id":"4","last_reported":1751537510,"current_range_meters":6000,"station_id":"ce4bgn12rcd13ifvqbt0","pricing_plan_id":"cebpf4jnsgd1na2vs0mg"},{"bike_id":"28dd3fc4-fd50-458f-b989-dcfde8952305","system_id":"levelo_inurba_marseille","lat":43.29022,"lon":5.38117,"is_reserved":false,"is_disabled":false,"rental_uris":{"android":"levelo://app?vid=28dd3fc4-fd50-458f-b989-dcfde8952305","ios":"levelo://app?vid=28dd3fc4-fd50-458f-b989-dcfde8952305"},"vehicle_type_id":"4","last_reported":1751537510,"current_range_meters":6000,"station_id":"ce4bh4p2rcd13ifvqe1g","pricing_plan_id":"cebpf4jnsgd1na2vs0mg"},{"bike_id":"c1d22c16-89b5-44df-8562-1e08681ee557","system_id":"levelo_inurba_marseille","lat":43.26208,"lon":5.37441,"is_reserved":false,"is_disabled":false,"rental_uris":{"android":"levelo://app?vid=c1d22c16-89b5-44df-8562-1e08681ee557","ios":"levelo://app?vid=c1d22c16-89b5-44df-8562-1e08681ee557"},"vehicle_type_id":"4","last_reported":1751537510,"current_range_meters":6000,"station_id":"ce4bhgp2rcd13ifvqfc0","pricing_plan_id":"cebpf4jnsgd1na2vs0mg"},{"bike_id":"cba5b54b-79c5-4b17-abe0-2f4e94c57b41","system_id":"levelo_inurba_marseille","lat":43.280741,"lon":5.347728,"is_reserved":false,"is_disabled":false,"rental_uris":{"android":"levelo://app?vid=cba5b54b-79c5-4b17-abe0-2f4e94c57b41","ios":"levelo://app?vid=cba5b54b-79c5-4b17-abe0-2f4e94c57b41"},"vehicle_type_id":"4","last_reported":1751537510,"current_range_meters":6400,"station_id":"","pricing_plan_id":"cebpf4jnsgd1na2vs0mg"},{"bike_id":"12937674-b824-4a30-a630-318239fb239e","system_id":"levelo_inurba_marseille","lat":43.29568,"lon":5.37517,"is_reserved":false,"is_disabled":false,"rental_uris":{"android":"levelo://app?vid=12937674-b824-4a30-a630-318239fb239e","ios":"levelo://app?vid=12937674-b824-4a30-a630-318239fb239e"},"vehicle_type_id":"4","last_reported":1751537510,"current_range_meters":6400,"station_id":"ce4bgh92rcd13ifvqb50","pricing_plan_id":"cebpf4jnsgd1na2vs0mg"},{"bike_id":"9bbb3505-f5f2-4752-b6b8-995e04070cae","system_id":"levelo_inurba_marseille","lat":43.30094,"lon":5.39068,"is_reserved":false,"is_disabled":false,"rental_uris":{"android":"levelo://app?vid=9bbb3505-f5f2-4752-b6b8-995e04070cae","ios":"levelo://app?vid=9bbb3505-f5f2-4752-b6b8-995e04070cae"},"vehicle_type_id":"4","last_reported":1751537510,"current_range_meters":6400,"station_id":"ce4bh192rcd13ifvqdb0","pricing_plan_id":"cebpf4jnsgd1na2vs0mg"},{"bike_id":"88f0d88a-1dec-4977-a19a-71293da7fba4","system_id":"levelo_inurba_marseille","lat":43.32357,"lon":5.36745,"is_reserved":false,"is_disabled":false,"rental_uris":{"android":"levelo://app?vid=88f0d88a-1dec-4977-a19a-71293da7fba4","ios":"levelo://app?vid=88f0d88a-1dec-4977-a19a-71293da7fba4"},"vehicle_type_id":"4","last_reported":1751537510,"current_range_meters":6400,"station_id":"ce4bhsh2rcd13ifvqi2g","pricing_plan_id":"cebpf4jnsgd1na2vs0mg"},{"bike_id":"3fbceb20-d877-411e-a90d-f13a05e02fc6","system_id":"levelo_inurba_marseille","lat":43.30325,"lon":5.3792,"is_reserved":false,"is_disabled":false,"rental_uris":{"android":"levelo://app?vid=3fbceb20-d877-411e-a90d-f13a05e02fc6","ios":"levelo://app?vid=3fbceb20-d877-411e-a90d-f13a05e02fc6"},"vehicle_type_id":"4","last_reported":1751537510,"current_range_meters":6800,"station_id":"","pricing_plan_id":"cebpf4jnsgd1na2vs0mg"},{"bike_id":"d965f0e6-b6ac-4933-93da-3563cda19047","system_id":"levelo_inurba_marseille","lat":43.28478,"lon":5.38408,"is_reserved":false,"is_disabled":false,"rental_uris":{"android":"levelo://app?vid=d965f0e6-b6ac-4933-93da-3563cda19047","ios":"levelo://app?vid=d965f0e6-b6ac-4933-93da-3563cda19047"},"vehicle_type_id":"4","last_reported":1751537510,"current_range_meters":6800,"station_id":"ce4bh512rcd13ifvqe3g","pricing_plan_id":"cebpf4jnsgd1na2vs0mg"},{"bike_id":"7ec2a9f8-54a9-4710-a188-7a51044165cd","system_id":"levelo_inurba_marseille","lat":43.28621,"lon":5.35103,"is_reserved":false,"is_disabled":false,"rental_uris":{"android":"levelo://app?vid=7ec2a9f8-54a9-4710-a188-7a51044165cd","ios":"levelo://app?vid=7ec2a9f8-54a9-4710-a188-7a51044165cd"},"vehicle_type_id":"4","last_reported":1751537510,"current_range_meters":6800,"station_id":"ce4bhch2rcd13ifvqeug","pricing_plan_id":"cebpf4jnsgd1na2vs0mg"},{"bike_id":"4f60aa92-92a2-4c82-a3da-e9cf53fb88b9","system_id":"levelo_inurba_marseille","lat":43.25498,"lon":5.37649,"is_reserved":false,"is_disabled":false,"rental_uris":{"android":"levelo://app?vid=4f60aa92-92a2-4c82-a3da-e9cf53fb88b9","ios":"levelo://app?vid=4f60aa92-92a2-4c82-a3da-e9cf53fb88b9"},"vehicle_type_id":"4","last_reported":1751537510,"current_range_meters":6800,"station_id":"ce4bhh12rcd13ifvqff0","pricing_plan_id":"cebpf4jnsgd1na2vs0mg"},{"bike_id":"7f0bd08c-298f-4533-a0b6-73633a6ce39f","system_id":"levelo_inurba_marseille","lat":43.30324,"lon":5.38594,"is_reserved":false,"is_disabled":false,"rental_uris":{"android":"levelo://app?vid=7f0bd08c-298f-4533-a0b6-73633a6ce39f","ios":"levelo://app?vid=7f0bd08c-298f-4533-a0b6-73633a6ce39f"},"vehicle_type_id":"4","last_reported":1751537510,"current_range_meters":7200,"station_id":"ce4bgg92rcd13ifvqb30","pricing_plan_id":"cebpf4jnsgd1na2vs0mg"},{"bike_id":"2da545cd-0049-4224-9c8e-7eaad906a5ef","system_id":"levelo_inurba_marseille","lat":43.32472,"lon":5.36551,"is_reserved":false,"is_disabled":false,"rental_uris":{"android":"levelo://app?vid=2da545cd-0049-4224-9c8e-7eaad906a5ef","ios":"levelo://app?vid=2da545cd-0049-4224-9c8e-7eaad906a5ef"},"vehicle_type_id":"4","last_reported":1751537510,"current_range_meters":8000,"station_id":"ce4bhs12rcd13ifvqhvg","pricing_plan_id":"cebpf4jnsgd1na2vs0mg"},{"bike_id":"ef50a132-c502-4afc-a8c2-7de6a0df1152","system_id":"levelo_inurba_marseille","lat":43.22505,"lon":5.34785,"is_reserved":false,"is_disabled":false,"rental_uris":{"android":"levelo://app?vid=ef50a132-c502-4afc-a8c2-7de6a0df1152","ios":"levelo://app?vid=ef50a132-c502-4afc-a8c2-7de6a0df1152"},"vehicle_type_id":"4","last_reported":1751537510,"current_range_meters":8000,"station_id":"st_cvj5dfep6f1abm77gieg","pricing_plan_id":"cebpf4jnsgd1na2vs0mg"},{"bike_id":"da921d92-526f-401b-95dc-b12109d1091d","system_id":"levelo_inurba_marseille","lat":43.36362,"lon":5.35031,"is_reserved":false,"is_disabled":false,"rental_uris":{"android":"levelo://app?vid=da921d92-526f-401b-95dc-b12109d1091d","ios":"levelo://app?vid=da921d92-526f-401b-95dc-b12109d1091d"},"vehicle_type_id":"4","last_reported":1751537510,"current_range_meters":8400,"station_id":"","pricing_plan_id":"cebpf4jnsgd1na2vs0mg"},{"bike_id":"5bd451ed-0066-4e3f-a862-828c225711d5","system_id":"levelo_inurba_marseille","lat":43.29791,"lon":5.38087,"is_reserved":false,"is_disabled":false,"rental_uris":{"android":"levelo://app?vid=5bd451ed-0066-4e3f-a862-828c225711d5","ios":"levelo://app?vid=5bd451ed-0066-4e3f-a862-828c225711d5"},"vehicle_type_id":"4","last_reported":1751537510,"current_range_meters":8400,"station_id":"ce4bgip2rcd13ifvqbb0","pricing_plan_id":"cebpf4jnsgd1na2vs0mg"},{"bike_id":"a4b99409-6517-4f42-b01d-879aaab3284b","system_id":"levelo_inurba_marseille","lat":43.31164,"lon":5.38729,"is_reserved":false,"is_disabled":false,"rental_uris":{"android":"levelo://app?vid=a4b99409-6517-4f42-b01d-879aaab3284b","ios":"levelo://app?vid=a4b99409-6517-4f42-b01d-879aaab3284b"},"vehicle_type_id":"4","last_reported":1751537510,"current_range_meters":8400,"station_id":"ce4bgv12rcd13ifvqcp0","pricing_plan_id":"cebpf4jnsgd1na2vs0mg"},{"bike_id":"1ac7a2fb-de5c-4fc7-9a53-a1342d34dd69","system_id":"levelo_inurba_marseille","lat":43.29804,"lon":5.40399,"is_reserved":false,"is_disabled":false,"rental_uris":{"android":"levelo://app?vid=1ac7a2fb-de5c-4fc7-9a53-a1342d34dd69","ios":"levelo://app?vid=1ac7a2fb-de5c-4fc7-9a53-a1342d34dd69"},"vehicle_type_id":"4","last_reported":1751537510,"current_range_meters":8400,"station_id":"ce4bh112rcd13ifvqd90","pricing_plan_id":"cebpf4jnsgd1na2vs0mg"},{"bike_id":"a62a0ef6-babe-44d3-9278-a9bccd58a7db","system_id":"levelo_inurba_marseille","lat":43.29592,"lon":5.42275,"is_reserved":false,"is_disabled":false,"rental_uris":{"android":"levelo://app?vid=a62a0ef6-babe-44d3-9278-a9bccd58a7db","ios":"levelo://app?vid=a62a0ef6-babe-44d3-9278-a9bccd58a7db"},"vehicle_type_id":"4","last_reported":1751537510,"current_range_meters":8400,"station_id":"ce4bhph2rcd13ifvqhdg","pricing_plan_id":"cebpf4jnsgd1na2vs0mg"},{"bike_id":"eb6f172f-68c2-4fbc-b984-276818caa76a","system_id":"levelo_inurba_marseille","lat":43.29324,"lon":5.43912,"is_reserved":false,"is_disabled":false,"rental_uris":{"android":"levelo://app?vid=eb6f172f-68c2-4fbc-b984-276818caa76a","ios":"levelo://app?vid=eb6f172f-68c2-4fbc-b984-276818caa76a"},"vehicle_type_id":"4","last_reported":1751537510,"current_range_meters":8800,"station_id":"","pricing_plan_id":"cebpf4jnsgd1na2vs0mg"},{"bike_id":"6b5f2251-5553-4d29-b6c6-2d7bc1acfca1","system_id":"levelo_inurba_marseille","lat":43.30957,"lon":5.390465,"is_reserved":false,"is_disabled":false,"rental_uris":{"android":"levelo://app?vid=6b5f2251-5553-4d29-b6c6-2d7bc1acfca1","ios":"levelo://app?vid=6b5f2251-5553-4d29-b6c6-2d7bc1acfca1"},"vehicle_type_id":"4","last_reported":1751537510,"current_range_meters":9200,"station_id":"ce4bgup2rcd13ifvqco0","pricing_plan_id":"cebpf4jnsgd1na2vs0mg"},{"bike_id":"edfaaa10-f501-4f03-a76c-660d1ee91efe","system_id":"levelo_inurba_marseille","lat":43.29861,"lon":5.38896,"is_reserved":false,"is_disabled":false,"rental_uris":{"android":"levelo://app?vid=edfaaa10-f501-4f03-a76c-660d1ee91efe","ios":"levelo://app?vid=edfaaa10-f501-4f03-a76c-660d1ee91efe"},"vehicle_type_id":"4","last_reported":1751537510,"current_range_meters":9200,"station_id":"ce4bh392rcd13ifvqdl0","pricing_plan_id":"cebpf4jnsgd1na2vs0mg"},{"bike_id":"77d164ad-2057-41db-9787-d453900482e5","system_id":"levelo_inurba_marseille","lat":43.286628,"lon":5.386752,"is_reserved":false,"is_disabled":false,"rental_uris":{"android":"levelo://app?vid=77d164ad-2057-41db-9787-d453900482e5","ios":"levelo://app?vid=77d164ad-2057-41db-9787-d453900482e5"},"vehicle_type_id":"4","last_reported":1751537510,"current_range_meters":9200,"station_id":"ce4bh492rcd13ifvqdug","pricing_plan_id":"cebpf4jnsgd1na2vs0mg"},{"bike_id":"b64a52c1-5a60-4e26-9cc8-a302011abf58","system_id":"levelo_inurba_marseille","lat":43.2917,"lon":5.37164,"is_reserved":false,"is_disabled":false,"rental_uris":{"android":"levelo://app?vid=b64a52c1-5a60-4e26-9cc8-a302011abf58","ios":"levelo://app?vid=b64a52c1-5a60-4e26-9cc8-a302011abf58"},"vehicle_type_id":"4","last_reported":1751537510,"current_range_meters":9200,"station_id":"ce4bha92rcd13ifvqeh0","pricing_plan_id":"cebpf4jnsgd1na2vs0mg"},{"bike_id":"9f2e5713-72d7-4598-ac25-4c5a518db190","system_id":"levelo_inurba_marseille","lat":43.32108,"lon":5.368,"is_reserved":false,"is_disabled":false,"rental_uris":{"android":"levelo://app?vid=9f2e5713-72d7-4598-ac25-4c5a518db190","ios":"levelo://app?vid=9f2e5713-72d7-4598-ac25-4c5a518db190"},"vehicle_type_id":"4","last_reported":1751537510,"current_range_meters":9200,"station_id":"ce4bhrh2rcd13ifvqhug","pricing_plan_id":"cebpf4jnsgd1na2vs0mg"},{"bike_id":"28d86718-cc2e-44d8-9941-d74e943a80d9","system_id":"levelo_inurba_marseille","lat":43.304333,"lon":5.389011,"is_reserved":false,"is_disabled":false,"rental_uris":{"android":"levelo://app?vid=28d86718-cc2e-44d8-9941-d74e943a80d9","ios":"levelo://app?vid=28d86718-cc2e-44d8-9941-d74e943a80d9"},"vehicle_type_id":"4","last_reported":1751537510,"current_range_meters":9600,"station_id":"ce4bgk12rcd13ifvqbi0","pricing_plan_id":"cebpf4jnsgd1na2vs0mg"},{"bike_id":"531653c9-340b-4978-b6b6-5078a52e0e0c","system_id":"levelo_inurba_marseille","lat":43.30421,"lon":5.41275,"is_reserved":false,"is_disabled":false,"rental_uris":{"android":"levelo://app?vid=531653c9-340b-4978-b6b6-5078a52e0e0c","ios":"levelo://app?vid=531653c9-340b-4978-b6b6-5078a52e0e0c"},"vehicle_type_id":"4","last_reported":1751537510,"current_range_meters":9600,"station_id":"ce4bhop2rcd13ifvqh8g","pricing_plan_id":"cebpf4jnsgd1na2vs0mg"},{"bike_id":"9d06beda-1bc5-4b5e-a97e-4c40320ce321","system_id":"levelo_inurba_marseille","lat":43.336053,"lon":5.410244,"is_reserved":false,"is_disabled":false,"rental_uris":{"android":"levelo://app?vid=9d06beda-1bc5-4b5e-a97e-4c40320ce321","ios":"levelo://app?vid=9d06beda-1bc5-4b5e-a97e-4c40320ce321"},"vehicle_type_id":"4","last_reported":1751537510,"current_range_meters":9600,"station_id":"ce4bhqh2rcd13ifvqhmg","pricing_plan_id":"cebpf4jnsgd1na2vs0mg"},{"bike_id":"7d13b89f-040f-47a2-9b58-c96a993e200a","system_id":"levelo_inurba_marseille","lat":43.3211,"lon":5.36793,"is_reserved":false,"is_disabled":false,"rental_uris":{"android":"levelo://app?vid=7d13b89f-040f-47a2-9b58-c96a993e200a","ios":"levelo://app?vid=7d13b89f-040f-47a2-9b58-c96a993e200a"},"vehicle_type_id":"4","last_reported":1751537510,"current_range_meters":9600,"station_id":"ce4bhrh2rcd13ifvqhug","pricing_plan_id":"cebpf4jnsgd1na2vs0mg"},{"bike_id":"0e95c039-e344-4ef2-8ae3-2271111801b3","system_id":"levelo_inurba_marseille","lat":43.22514,"lon":5.34783,"is_reserved":false,"is_disabled":false,"rental_uris":{"android":"levelo://app?vid=0e95c039-e344-4ef2-8ae3-2271111801b3","ios":"levelo://app?vid=0e95c039-e344-4ef2-8ae3-2271111801b3"},"vehicle_type_id":"4","last_reported":1751537510,"current_range_meters":9600,"station_id":"st_cvj5dfep6f1abm77gieg","pricing_plan_id":"cebpf4jnsgd1na2vs0mg"},{"bike_id":"9a7d342a-ff8e-46c4-af1e-6e0519bd67dc","system_id":"levelo_inurba_marseille","lat":43.291433,"lon":5.355899,"is_reserved":false,"is_disabled":false,"rental_uris":{"android":"levelo://app?vid=9a7d342a-ff8e-46c4-af1e-6e0519bd67dc","ios":"levelo://app?vid=9a7d342a-ff8e-46c4-af1e-6e0519bd67dc"},"vehicle_type_id":"4","last_reported":1751537510,"current_range_meters":10000,"station_id":"","pricing_plan_id":"cebpf4jnsgd1na2vs0mg"},{"bike_id":"7e62b058-a7ed-4634-80f1-04d3de596de7","system_id":"levelo_inurba_marseille","lat":43.298501,"lon":5.368131,"is_reserved":false,"is_disabled":false,"rental_uris":{"android":"levelo://app?vid=7e62b058-a7ed-4634-80f1-04d3de596de7","ios":"levelo://app?vid=7e62b058-a7ed-4634-80f1-04d3de596de7"},"vehicle_type_id":"4","last_reported":1751537510,"current_range_meters":10000,"station_id":"","pricing_plan_id":"cebpf4jnsgd1na2vs0mg"},{"bike_id":"bf00a211-3496-4df0-8e4e-99767047ca09","system_id":"levelo_inurba_marseille","lat":43.29973,"lon":5.37594,"is_reserved":false,"is_disabled":false,"rental_uris":{"android":"levelo://app?vid=bf00a211-3496-4df0-8e4e-99767047ca09","ios":"levelo://app?vid=bf00a211-3496-4df0-8e4e-99767047ca09"},"vehicle_type_id":"4","last_reported":1751537510,"current_range_meters":10000,"station_id":"","pricing_plan_id":"cebpf4jnsgd1na2vs0mg"},{"bike_id":"71a8e3a0-105e-4516-b682-7162963496b5","system_id":"levelo_inurba_marseille","lat":43.29548,"lon":5.3905,"is_reserved":false,"is_disabled":false,"rental_uris":{"android":"levelo://app?vid=71a8e3a0-105e-4516-b682-7162963496b5","ios":"levelo://app?vid=71a8e3a0-105e-4516-b682-7162963496b5"},"vehicle_type_id":"4","last_reported":1751537510,"current_range_meters":10000,"station_id":"ce4bh3p2rcd13ifvqdp0","pricing_plan_id":"cebpf4jnsgd1na2vs0mg"},{"bike_id":"f40e1651-cae6-41e6-b3bb-92554ff4d1b9","system_id":"levelo_inurba_marseille","lat":43.29283,"lon":5.38439,"is_reserved":false,"is_disabled":false,"rental_uris":{"android":"levelo://app?vid=f40e1651-cae6-41e6-b3bb-92554ff4d1b9","ios":"levelo://app?vid=f40e1651-cae6-41e6-b3bb-92554ff4d1b9"},"vehicle_type_id":"4","last_reported":1751537510,"current_range_meters":10000,"station_id":"ce4bh692rcd13ifvqea0","pricing_plan_id":"cebpf4jnsgd1na2vs0mg"},{"bike_id":"89494d6e-e11a-438f-8875-5fc51e937fc2","system_id":"levelo_inurba_marseille","lat":43.30362,"lon":5.41913,"is_reserved":false,"is_disabled":false,"rental_uris":{"android":"levelo://app?vid=89494d6e-e11a-438f-8875-5fc51e937fc2","ios":"levelo://app?vid=89494d6e-e11a-438f-8875-5fc51e937fc2"},"vehicle_type_id":"4","last_reported":1751537510,"current_range_meters":10000,"station_id":"ce4bhop2rcd13ifvqh7g","pricing_plan_id":"cebpf4jnsgd1na2vs0mg"},{"bike_id":"b44c5f08-ff86-44db-a0f4-3b801f7529e3","system_id":"levelo_inurba_marseille","lat":43.32043,"lon":5.41537,"is_reserved":false,"is_disabled":false,"rental_uris":{"android":"levelo://app?vid=b44c5f08-ff86-44db-a0f4-3b801f7529e3","ios":"levelo://app?vid=b44c5f08-ff86-44db-a0f4-3b801f7529e3"},"vehicle_type_id":"4","last_reported":1751537510,"current_range_meters":10000,"station_id":"ce4bhq92rcd13ifvqhkg","pricing_plan_id":"cebpf4jnsgd1na2vs0mg"},{"bike_id":"22c65f34-5b9a-4ce8-b3b0-5a1a52b259a2","system_id":"levelo_inurba_marseille","lat":43.297105,"lon":5.401904,"is_reserved":false,"is_disabled":false,"rental_uris":{"android":"levelo://app?vid=22c65f34-5b9a-4ce8-b3b0-5a1a52b259a2","ios":"levelo://app?vid=22c65f34-5b9a-4ce8-b3b0-5a1a52b259a2"},"vehicle_type_id":"4","last_reported":1751537510,"current_range_meters":10800,"station_id":"","pricing_plan_id":"cebpf4jnsgd1na2vs0mg"},{"bike_id":"e26ba497-efc7-4420-b8c5-9fa5e27f2ce4","system_id":"levelo_inurba_marseille","lat":43.31352,"lon":5.37074,"is_reserved":false,"is_disabled":false,"rental_uris":{"android":"levelo://app?vid=e26ba497-efc7-4420-b8c5-9fa5e27f2ce4","ios":"levelo://app?vid=e26ba497-efc7-4420-b8c5-9fa5e27f2ce4"},"vehicle_type_id":"4","last_reported":1751537510,"current_range_meters":10800,"station_id":"","pricing_plan_id":"cebpf4jnsgd1na2vs0mg"},{"bike_id":"221807b8-f07f-4026-8717-15f65c9a40e1","system_id":"levelo_inurba_marseille","lat":43.302421,"lon":5.400423,"is_reserved":false,"is_disabled":false,"rental_uris":{"android":"levelo://app?vid=221807b8-f07f-4026-8717-15f65c9a40e1","ios":"levelo://app?vid=221807b8-f07f-4026-8717-15f65c9a40e1"},"vehicle_type_id":"4","last_reported":1751537510,"current_range_meters":10800,"station_id":"ce4bgvh2rcd13ifvqcs0","pricing_plan_id":"cebpf4jnsgd1na2vs0mg"},{"bike_id":"f228e694-30f5-4a8c-ba5e-247b89fba895","system_id":"levelo_inurba_marseille","lat":43.29171,"lon":5.37165,"is_reserved":false,"is_disabled":false,"rental_uris":{"android":"levelo://app?vid=f228e694-30f5-4a8c-ba5e-247b89fba895","ios":"levelo://app?vid=f228e694-30f5-4a8c-ba5e-247b89fba895"},"vehicle_type_id":"4","last_reported":1751537510,"current_range_meters":10800,"station_id":"ce4bha92rcd13ifvqeh0","pricing_plan_id":"cebpf4jnsgd1na2vs0mg"},{"bike_id":"aaceb205-1d97-46e1-aeab-e0a5232b2d4d","system_id":"levelo_inurba_marseille","lat":43.27953,"lon":5.41043,"is_reserved":false,"is_disabled":false,"rental_uris":{"android":"levelo://app?vid=aaceb205-1d97-46e1-aeab-e0a5232b2d4d","ios":"levelo://app?vid=aaceb205-1d97-46e1-aeab-e0a5232b2d4d"},"vehicle_type_id":"4","last_reported":1751537510,"current_range_meters":10800,"station_id":"ce4bhnp2rcd13ifvqh0g","pricing_plan_id":"cebpf4jnsgd1na2vs0mg"},{"bike_id":"2e48fca3-ffe9-4d95-86cb-e781dcb8a44e","system_id":"levelo_inurba_marseille","lat":43.30357,"lon":5.41874,"is_reserved":false,"is_disabled":false,"rental_uris":{"android":"levelo://app?vid=2e48fca3-ffe9-4d95-86cb-e781dcb8a44e","ios":"levelo://app?vid=2e48fca3-ffe9-4d95-86cb-e781dcb8a44e"},"vehicle_type_id":"4","last_reported":1751537510,"current_range_meters":10800,"station_id":"ce4bhop2rcd13ifvqh7g","pricing_plan_id":"cebpf4jnsgd1na2vs0mg"},{"bike_id":"45544962-a375-4e28-a38d-3bbdf8b0fe9e","system_id":"levelo_inurba_marseille","lat":43.32293,"lon":5.38277,"is_reserved":false,"is_disabled":false,"rental_uris":{"android":"levelo://app?vid=45544962-a375-4e28-a38d-3bbdf8b0fe9e","ios":"levelo://app?vid=45544962-a375-4e28-a38d-3bbdf8b0fe9e"},"vehicle_type_id":"4","last_reported":1751537510,"current_range_meters":10800,"station_id":"ce4bhr12rcd13ifvqhqg","pricing_plan_id":"cebpf4jnsgd1na2vs0mg"},{"bike_id":"bcfd0eda-b9ab-4bec-9ca3-3f2b86617415","system_id":"levelo_inurba_marseille","lat":43.21193,"lon":5.35085,"is_reserved":false,"is_disabled":false,"rental_uris":{"android":"levelo://app?vid=bcfd0eda-b9ab-4bec-9ca3-3f2b86617415","ios":"levelo://app?vid=bcfd0eda-b9ab-4bec-9ca3-3f2b86617415"},"vehicle_type_id":"4","last_reported":1751537510,"current_range_meters":10800,"station_id":"st_cvj6sg6p6f1abm77japg","pricing_plan_id":"cebpf4jnsgd1na2vs0mg"},{"bike_id":"74da8f58-2e0d-49af-8617-6f647e2570f5","system_id":"levelo_inurba_marseille","lat":43.29791,"lon":5.38086,"is_reserved":false,"is_disabled":false,"rental_uris":{"android":"levelo://app?vid=74da8f58-2e0d-49af-8617-6f647e2570f5","ios":"levelo://app?vid=74da8f58-2e0d-49af-8617-6f647e2570f5"},"vehicle_type_id":"4","last_reported":1751537510,"current_range_meters":11200,"station_id":"ce4bgip2rcd13ifvqbb0","pricing_plan_id":"cebpf4jnsgd1na2vs0mg"},{"bike_id":"2d659fe1-36b2-4981-bcd7-0c6fca4b3667","system_id":"levelo_inurba_marseille","lat":43.30545,"lon":5.3657,"is_reserved":false,"is_disabled":false,"rental_uris":{"android":"levelo://app?vid=2d659fe1-36b2-4981-bcd7-0c6fca4b3667","ios":"levelo://app?vid=2d659fe1-36b2-4981-bcd7-0c6fca4b3667"},"vehicle_type_id":"4","last_reported":1751537510,"current_range_meters":11200,"station_id":"ce4bgs12rcd13ifvqcag","pricing_plan_id":"cebpf4jnsgd1na2vs0mg"},{"bike_id":"682a0145-0ef0-42de-b96f-44ba52ddbe0b","system_id":"levelo_inurba_marseille","lat":43.2979,"lon":5.39357,"is_reserved":false,"is_disabled":false,"rental_uris":{"android":"levelo://app?vid=682a0145-0ef0-42de-b96f-44ba52ddbe0b","ios":"levelo://app?vid=682a0145-0ef0-42de-b96f-44ba52ddbe0b"},"vehicle_type_id":"4","last_reported":1751537510,"current_range_meters":11200,"station_id":"chh1huq6cuj3fo74tm60","pricing_plan_id":"cebpf4jnsgd1na2vs0mg"},{"bike_id":"336e4197-9dc2-4702-9b29-e8d0de6c8ad1","system_id":"levelo_inurba_marseille","lat":43.31224,"lon":5.36853,"is_reserved":false,"is_disabled":false,"rental_uris":{"android":"levelo://app?vid=336e4197-9dc2-4702-9b29-e8d0de6c8ad1","ios":"levelo://app?vid=336e4197-9dc2-4702-9b29-e8d0de6c8ad1"},"vehicle_type_id":"4","last_reported":1751537510,"current_range_meters":11600,"station_id":"ce4bgl92rcd13ifvqbq0","pricing_plan_id":"cebpf4jnsgd1na2vs0mg"},{"bike_id":"82dbc278-04ea-447d-a856-87024045e07d","system_id":"levelo_inurba_marseille","lat":43.283511,"lon":5.38107,"is_reserved":false,"is_disabled":false,"rental_uris":{"android":"levelo://app?vid=82dbc278-04ea-447d-a856-87024045e07d","ios":"levelo://app?vid=82dbc278-04ea-447d-a856-87024045e07d"},"vehicle_type_id":"4","last_reported":1751537510,"current_range_meters":11600,"station_id":"ce4bh412rcd13ifvqdr0","pricing_plan_id":"cebpf4jnsgd1na2vs0mg"},{"bike_id":"e36eeb04-35cc-4a52-97d7-6ba58bfe555b","system_id":"levelo_inurba_marseille","lat":43.29546,"lon":5.42287,"is_reserved":false,"is_disabled":false,"rental_uris":{"android":"levelo://app?vid=e36eeb04-35cc-4a52-97d7-6ba58bfe555b","ios":"levelo://app?vid=e36eeb04-35cc-4a52-97d7-6ba58bfe555b"},"vehicle_type_id":"4","last_reported":1751537510,"current_range_meters":11600,"station_id":"ce4bhph2rcd13ifvqhdg","pricing_plan_id":"cebpf4jnsgd1na2vs0mg"},{"bike_id":"16a8afe6-e43e-4d1b-a7bd-ed83d113735a","system_id":"levelo_inurba_marseille","lat":43.32436,"lon":5.41185,"is_reserved":false,"is_disabled":false,"rental_uris":{"android":"levelo://app?vid=16a8afe6-e43e-4d1b-a7bd-ed83d113735a","ios":"levelo://app?vid=16a8afe6-e43e-4d1b-a7bd-ed83d113735a"},"vehicle_type_id":"4","last_reported":1751537510,"current_range_meters":12000,"station_id":"","pricing_plan_id":"cebpf4jnsgd1na2vs0mg"},{"bike_id":"a309f7b6-cc6c-462b-bf81-88494e0f3050","system_id":"levelo_inurba_marseille","lat":43.30538,"lon":5.36532,"is_reserved":false,"is_disabled":false,"rental_uris":{"android":"levelo://app?vid=a309f7b6-cc6c-462b-bf81-88494e0f3050","ios":"levelo://app?vid=a309f7b6-cc6c-462b-bf81-88494e0f3050"},"vehicle_type_id":"4","last_reported":1751537510,"current_range_meters":12000,"station_id":"ce4bgs12rcd13ifvqcag","pricing_plan_id":"cebpf4jnsgd1na2vs0mg"},{"bike_id":"ca5e44b1-c281-4ae5-a249-1b3d5871dab6","system_id":"levelo_inurba_marseille","lat":43.30109,"lon":5.39089,"is_reserved":false,"is_disabled":false,"rental_uris":{"android":"levelo://app?vid=ca5e44b1-c281-4ae5-a249-1b3d5871dab6","ios":"levelo://app?vid=ca5e44b1-c281-4ae5-a249-1b3d5871dab6"},"vehicle_type_id":"4","last_reported":1751537510,"current_range_meters":12000,"station_id":"ce4bh192rcd13ifvqdb0","pricing_plan_id":"cebpf4jnsgd1na2vs0mg"},{"bike_id":"7b82ce06-9a81-436b-bdf4-db08cf7b33d1","system_id":"levelo_inurba_marseille","lat":43.24195,"lon":5.36412,"is_reserved":false,"is_disabled":false,"rental_uris":{"android":"levelo://app?vid=7b82ce06-9a81-436b-bdf4-db08cf7b33d1","ios":"levelo://app?vid=7b82ce06-9a81-436b-bdf4-db08cf7b33d1"},"vehicle_type_id":"4","last_reported":1751537510,"current_range_meters":12000,"station_id":"cpo36qri1sfpv3e86is0","pricing_plan_id":"cebpf4jnsgd1na2vs0mg"},{"bike_id":"959e6f20-8ed0-4d36-bc1d-3efb82d6190b","system_id":"levelo_inurba_marseille","lat":43.21193,"lon":5.35056,"is_reserved":false,"is_disabled":false,"rental_uris":{"android":"levelo://app?vid=959e6f20-8ed0-4d36-bc1d-3efb82d6190b","ios":"levelo://app?vid=959e6f20-8ed0-4d36-bc1d-3efb82d6190b"},"vehicle_type_id":"4","last_reported":1751537510,"current_range_meters":12000,"station_id":"st_cvj6sg6p6f1abm77japg","pricing_plan_id":"cebpf4jnsgd1na2vs0mg"},{"bike_id":"1378f1f6-c1d7-4f17-9abb-f536950bd0f0","system_id":"levelo_inurba_marseille","lat":43.30559,"lon":5.36732,"is_reserved":false,"is_disabled":false,"rental_uris":{"android":"levelo://app?vid=1378f1f6-c1d7-4f17-9abb-f536950bd0f0","ios":"levelo://app?vid=1378f1f6-c1d7-4f17-9abb-f536950bd0f0"},"vehicle_type_id":"4","last_reported":1751537510,"current_range_meters":12400,"station_id":"ce4bgrp2rcd13ifvqc9g","pricing_plan_id":"cebpf4jnsgd1na2vs0mg"},{"bike_id":"64bb485e-0856-48ce-befe-bde5a394f93d","system_id":"levelo_inurba_marseille","lat":43.27653,"lon":5.38905,"is_reserved":false,"is_disabled":false,"rental_uris":{"android":"levelo://app?vid=64bb485e-0856-48ce-befe-bde5a394f93d","ios":"levelo://app?vid=64bb485e-0856-48ce-befe-bde5a394f93d"},"vehicle_type_id":"4","last_reported":1751537510,"current_range_meters":12400,"station_id":"ce4bhi12rcd13ifvqfo0","pricing_plan_id":"cebpf4jnsgd1na2vs0mg"},{"bike_id":"8b784f28-b0e0-4960-8cfe-7e3d0de16521","system_id":"levelo_inurba_marseille","lat":43.23153,"lon":5.43716,"is_reserved":false,"is_disabled":false,"rental_uris":{"android":"levelo://app?vid=8b784f28-b0e0-4960-8cfe-7e3d0de16521","ios":"levelo://app?vid=8b784f28-b0e0-4960-8cfe-7e3d0de16521"},"vehicle_type_id":"4","last_reported":1751537510,"current_range_meters":12400,"station_id":"ce4bhmp2rcd13ifvqgog","pricing_plan_id":"cebpf4jnsgd1na2vs0mg"},{"bike_id":"8b275258-2617-4b52-9a95-0d45670b5894","system_id":"levelo_inurba_marseille","lat":43.33031,"lon":5.3905,"is_reserved":false,"is_disabled":false,"rental_uris":{"android":"levelo://app?vid=8b275258-2617-4b52-9a95-0d45670b5894","ios":"levelo://app?vid=8b275258-2617-4b52-9a95-0d45670b5894"},"vehicle_type_id":"4","last_reported":1751537510,"current_range_meters":12400,"station_id":"ce4bhr92rcd13ifvqhrg","pricing_plan_id":"cebpf4jnsgd1na2vs0mg"},{"bike_id":"4339f028-bab0-47c3-85f1-561f4c003dd7","system_id":"levelo_inurba_marseille","lat":43.2951,"lon":5.37494,"is_reserved":false,"is_disabled":false,"rental_uris":{"android":"levelo://app?vid=4339f028-bab0-47c3-85f1-561f4c003dd7","ios":"levelo://app?vid=4339f028-bab0-47c3-85f1-561f4c003dd7"},"vehicle_type_id":"4","last_reported":1751537510,"current_range_meters":12800,"station_id":"ce4bgkp2rcd13ifvqbmg","pricing_plan_id":"cebpf4jnsgd1na2vs0mg"},{"bike_id":"0e030323-4386-4e72-9a0d-0f6a2ff539de","system_id":"levelo_inurba_marseille","lat":43.29603,"lon":5.40552,"is_reserved":false,"is_disabled":false,"rental_uris":{"android":"levelo://app?vid=0e030323-4386-4e72-9a0d-0f6a2ff539de","ios":"levelo://app?vid=0e030323-4386-4e72-9a0d-0f6a2ff539de"},"vehicle_type_id":"4","last_reported":1751537510,"current_range_meters":12800,"station_id":"ce4bh0h2rcd13ifvqd60","pricing_plan_id":"cebpf4jnsgd1na2vs0mg"},{"bike_id":"169cbfe7-6c3d-45f9-8fa3-396a3261ddc0","system_id":"levelo_inurba_marseille","lat":43.28937,"lon":5.38385,"is_reserved":false,"is_disabled":false,"rental_uris":{"android":"levelo://app?vid=169cbfe7-6c3d-45f9-8fa3-396a3261ddc0","ios":"levelo://app?vid=169cbfe7-6c3d-45f9-8fa3-396a3261ddc0"},"vehicle_type_id":"4","last_reported":1751537510,"current_range_meters":12800,"station_id":"ce4bh612rcd13ifvqe6g","pricing_plan_id":"cebpf4jnsgd1na2vs0mg"},{"bike_id":"eac33aec-008d-40f4-b2c0-90d4f8729473","system_id":"levelo_inurba_marseille","lat":43.24172,"lon":5.39712,"is_reserved":false,"is_disabled":false,"rental_uris":{"android":"levelo://app?vid=eac33aec-008d-40f4-b2c0-90d4f8729473","ios":"levelo://app?vid=eac33aec-008d-40f4-b2c0-90d4f8729473"},"vehicle_type_id":"4","last_reported":1751537510,"current_range_meters":12800,"station_id":"ce4bhn12rcd13ifvqgpg","pricing_plan_id":"cebpf4jnsgd1na2vs0mg"},{"bike_id":"09a51d17-1b05-40aa-a16a-11c017bff622","system_id":"levelo_inurba_marseille","lat":43.29844,"lon":5.36283,"is_reserved":false,"is_disabled":false,"rental_uris":{"android":"levelo://app?vid=09a51d17-1b05-40aa-a16a-11c017bff622","ios":"levelo://app?vid=09a51d17-1b05-40aa-a16a-11c017bff622"},"vehicle_type_id":"4","last_reported":1751537510,"current_range_meters":13600,"station_id":"ce4bgpp2rcd13ifvqc3g","pricing_plan_id":"cebpf4jnsgd1na2vs0mg"},{"bike_id":"9703be82-cd5f-4d82-875f-c478c567f6a1","system_id":"levelo_inurba_marseille","lat":43.281,"lon":5.37833,"is_reserved":false,"is_disabled":false,"rental_uris":{"android":"levelo://app?vid=9703be82-cd5f-4d82-875f-c478c567f6a1","ios":"levelo://app?vid=9703be82-cd5f-4d82-875f-c478c567f6a1"},"vehicle_type_id":"4","last_reported":1751537510,"current_range_meters":13600,"station_id":"ce4bha12rcd13ifvqee0","pricing_plan_id":"cebpf4jnsgd1na2vs0mg"},{"bike_id":"bc7450c7-6bce-4b7e-89d8-965d46bff2bf","system_id":"levelo_inurba_marseille","lat":43.25503,"lon":5.3765,"is_reserved":false,"is_disabled":false,"rental_uris":{"android":"levelo://app?vid=bc7450c7-6bce-4b7e-89d8-965d46bff2bf","ios":"levelo://app?vid=bc7450c7-6bce-4b7e-89d8-965d46bff2bf"},"vehicle_type_id":"4","last_reported":1751537510,"current_range_meters":13600,"station_id":"ce4bhh12rcd13ifvqff0","pricing_plan_id":"cebpf4jnsgd1na2vs0mg"},{"bike_id":"b30e31d7-58a6-4ca8-84c8-7339151a0883","system_id":"levelo_inurba_marseille","lat":43.24169,"lon":5.3639,"is_reserved":false,"is_disabled":false,"rental_uris":{"android":"levelo://app?vid=b30e31d7-58a6-4ca8-84c8-7339151a0883","ios":"levelo://app?vid=b30e31d7-58a6-4ca8-84c8-7339151a0883"},"vehicle_type_id":"4","last_reported":1751537510,"current_range_meters":13600,"station_id":"cpo36qri1sfpv3e86is0","pricing_plan_id":"cebpf4jnsgd1na2vs0mg"},{"bike_id":"5a12afa5-ecad-4879-ad1f-0cf8d9ce03d7","system_id":"levelo_inurba_marseille","lat":43.29198,"lon":5.39375,"is_reserved":false,"is_disabled":false,"rental_uris":{"android":"levelo://app?vid=5a12afa5-ecad-4879-ad1f-0cf8d9ce03d7","ios":"levelo://app?vid=5a12afa5-ecad-4879-ad1f-0cf8d9ce03d7"},"vehicle_type_id":"4","last_reported":1751537510,"current_range_meters":14000,"station_id":"ce4bh192rcd13ifvqdd0","pricing_plan_id":"cebpf4jnsgd1na2vs0mg"},{"bike_id":"41619e26-1571-4721-942c-099b3a6d37f5","system_id":"levelo_inurba_marseille","lat":43.29037,"lon":5.39971,"is_reserved":false,"is_disabled":false,"rental_uris":{"android":"levelo://app?vid=41619e26-1571-4721-942c-099b3a6d37f5","ios":"levelo://app?vid=41619e26-1571-4721-942c-099b3a6d37f5"},"vehicle_type_id":"4","last_reported":1751537510,"current_range_meters":14000,"station_id":"ce4bh392rcd13ifvqdm0","pricing_plan_id":"cebpf4jnsgd1na2vs0mg"},{"bike_id":"5f1590cb-1409-4bc4-b379-1daeaa86f422","system_id":"levelo_inurba_marseille","lat":43.25938,"lon":5.40909,"is_reserved":false,"is_disabled":false,"rental_uris":{"android":"levelo://app?vid=5f1590cb-1409-4bc4-b379-1daeaa86f422","ios":"levelo://app?vid=5f1590cb-1409-4bc4-b379-1daeaa86f422"},"vehicle_type_id":"4","last_reported":1751537510,"current_range_meters":14000,"station_id":"ce4bhm92rcd13ifvqglg","pricing_plan_id":"cebpf4jnsgd1na2vs0mg"},{"bike_id":"323016ac-ad41-496e-9c5f-4414cb2ac532","system_id":"levelo_inurba_marseille","lat":43.28154,"lon":5.42638,"is_reserved":false,"is_disabled":false,"rental_uris":{"android":"levelo://app?vid=323016ac-ad41-496e-9c5f-4414cb2ac532","ios":"levelo://app?vid=323016ac-ad41-496e-9c5f-4414cb2ac532"},"vehicle_type_id":"4","last_reported":1751537510,"current_range_meters":14000,"station_id":"ce4bhnh2rcd13ifvqgug","pricing_plan_id":"cebpf4jnsgd1na2vs0mg"},{"bike_id":"8bf0d992-d2a0-428e-940a-091ee9b7c2a4","system_id":"levelo_inurba_marseille","lat":43.21171,"lon":5.35083,"is_reserved":false,"is_disabled":false,"rental_uris":{"android":"levelo://app?vid=8bf0d992-d2a0-428e-940a-091ee9b7c2a4","ios":"levelo://app?vid=8bf0d992-d2a0-428e-940a-091ee9b7c2a4"},"vehicle_type_id":"4","last_reported":1751537510,"current_range_meters":14000,"station_id":"st_cvj6sg6p6f1abm77japg","pricing_plan_id":"cebpf4jnsgd1na2vs0mg"},{"bike_id":"c10a4283-320d-4e64-8d75-ff83e94026ba","system_id":"levelo_inurba_marseille","lat":43.211916,"lon":5.350719,"is_reserved":false,"is_disabled":false,"rental_uris":{"android":"levelo://app?vid=c10a4283-320d-4e64-8d75-ff83e94026ba","ios":"levelo://app?vid=c10a4283-320d-4e64-8d75-ff83e94026ba"},"vehicle_type_id":"4","last_reported":1751537510,"current_range_meters":14000,"station_id":"st_cvj6sg6p6f1abm77japg","pricing_plan_id":"cebpf4jnsgd1na2vs0mg"},{"bike_id":"a588469b-12ca-41c6-8c6f-3f3bda5b7f15","system_id":"levelo_inurba_marseille","lat":43.31568,"lon":5.38373,"is_reserved":false,"is_disabled":false,"rental_uris":{"android":"levelo://app?vid=a588469b-12ca-41c6-8c6f-3f3bda5b7f15","ios":"levelo://app?vid=a588469b-12ca-41c6-8c6f-3f3bda5b7f15"},"vehicle_type_id":"4","last_reported":1751537510,"current_range_meters":14400,"station_id":"","pricing_plan_id":"cebpf4jnsgd1na2vs0mg"},{"bike_id":"fe713cde-304d-47b7-9949-0d8102752cad","system_id":"levelo_inurba_marseille","lat":43.29511,"lon":5.37503,"is_reserved":false,"is_disabled":false,"rental_uris":{"android":"levelo://app?vid=fe713cde-304d-47b7-9949-0d8102752cad","ios":"levelo://app?vid=fe713cde-304d-47b7-9949-0d8102752cad"},"vehicle_type_id":"4","last_reported":1751537510,"current_range_meters":14400,"station_id":"ce4bgkp2rcd13ifvqbmg","pricing_plan_id":"cebpf4jnsgd1na2vs0mg"},{"bike_id":"a4e15f80-53fd-417d-9757-38e79c796361","system_id":"levelo_inurba_marseille","lat":43.30548,"lon":5.36718,"is_reserved":false,"is_disabled":false,"rental_uris":{"android":"levelo://app?vid=a4e15f80-53fd-417d-9757-38e79c796361","ios":"levelo://app?vid=a4e15f80-53fd-417d-9757-38e79c796361"},"vehicle_type_id":"4","last_reported":1751537510,"current_range_meters":14400,"station_id":"ce4bgrp2rcd13ifvqc9g","pricing_plan_id":"cebpf4jnsgd1na2vs0mg"},{"bike_id":"e416c998-4d9a-4848-acdf-fc99f6494b08","system_id":"levelo_inurba_marseille","lat":43.25493,"lon":5.37649,"is_reserved":false,"is_disabled":false,"rental_uris":{"android":"levelo://app?vid=e416c998-4d9a-4848-acdf-fc99f6494b08","ios":"levelo://app?vid=e416c998-4d9a-4848-acdf-fc99f6494b08"},"vehicle_type_id":"4","last_reported":1751537510,"current_range_meters":14400,"station_id":"ce4bhh12rcd13ifvqff0","pricing_plan_id":"cebpf4jnsgd1na2vs0mg"},{"bike_id":"912d67f3-78e7-48fd-8929-37f0572cfee4","system_id":"levelo_inurba_marseille","lat":43.26393,"lon":5.37422,"is_reserved":false,"is_disabled":false,"rental_uris":{"android":"levelo://app?vid=912d67f3-78e7-48fd-8929-37f0572cfee4","ios":"levelo://app?vid=912d67f3-78e7-48fd-8929-37f0572cfee4"},"vehicle_type_id":"4","last_reported":1751537510,"current_range_meters":14800,"station_id":"","pricing_plan_id":"cebpf4jnsgd1na2vs0mg"},{"bike_id":"aa0f1230-e1e9-41f1-9211-043e633764ce","system_id":"levelo_inurba_marseille","lat":43.30561,"lon":5.36534,"is_reserved":false,"is_disabled":false,"rental_uris":{"android":"levelo://app?vid=aa0f1230-e1e9-41f1-9211-043e633764ce","ios":"levelo://app?vid=aa0f1230-e1e9-41f1-9211-043e633764ce"},"vehicle_type_id":"4","last_reported":1751537510,"current_range_meters":14800,"station_id":"ce4bgs12rcd13ifvqcag","pricing_plan_id":"cebpf4jnsgd1na2vs0mg"},{"bike_id":"ffc4ee84-d1be-4ebc-8ebf-1a1ca37b8401","system_id":"levelo_inurba_marseille","lat":43.30866,"lon":5.37407,"is_reserved":false,"is_disabled":false,"rental_uris":{"android":"levelo://app?vid=ffc4ee84-d1be-4ebc-8ebf-1a1ca37b8401","ios":"levelo://app?vid=ffc4ee84-d1be-4ebc-8ebf-1a1ca37b8401"},"vehicle_type_id":"4","last_reported":1751537510,"current_range_meters":15200,"station_id":"","pricing_plan_id":"cebpf4jnsgd1na2vs0mg"},{"bike_id":"387a9ddb-8688-496f-976d-0f4947bf34f4","system_id":"levelo_inurba_marseille","lat":43.23156,"lon":5.43704,"is_reserved":false,"is_disabled":false,"rental_uris":{"android":"levelo://app?vid=387a9ddb-8688-496f-976d-0f4947bf34f4","ios":"levelo://app?vid=387a9ddb-8688-496f-976d-0f4947bf34f4"},"vehicle_type_id":"4","last_reported":1751537510,"current_range_meters":15200,"station_id":"ce4bhmp2rcd13ifvqgog","pricing_plan_id":"cebpf4jnsgd1na2vs0mg"},{"bike_id":"2a4f59ce-66e7-45e9-9c1e-360f10c7a0eb","system_id":"levelo_inurba_marseille","lat":43.323698,"lon":5.388858,"is_reserved":false,"is_disabled":false,"rental_uris":{"android":"levelo://app?vid=2a4f59ce-66e7-45e9-9c1e-360f10c7a0eb","ios":"levelo://app?vid=2a4f59ce-66e7-45e9-9c1e-360f10c7a0eb"},"vehicle_type_id":"4","last_reported":1751537510,"current_range_meters":15200,"station_id":"ce4bhqp2rcd13ifvqhog","pricing_plan_id":"cebpf4jnsgd1na2vs0mg"},{"bike_id":"3127aa94-ef1f-4ab8-b2e3-1da153a47168","system_id":"levelo_inurba_marseille","lat":43.22505,"lon":5.34784,"is_reserved":false,"is_disabled":false,"rental_uris":{"android":"levelo://app?vid=3127aa94-ef1f-4ab8-b2e3-1da153a47168","ios":"levelo://app?vid=3127aa94-ef1f-4ab8-b2e3-1da153a47168"},"vehicle_type_id":"4","last_reported":1751537510,"current_range_meters":15200,"station_id":"st_cvj5dfep6f1abm77gieg","pricing_plan_id":"cebpf4jnsgd1na2vs0mg"},{"bike_id":"ba154a12-11bd-42a5-958a-5992f5d043d1","system_id":"levelo_inurba_marseille","lat":43.30489,"lon":5.37046,"is_reserved":false,"is_disabled":false,"rental_uris":{"android":"levelo://app?vid=ba154a12-11bd-42a5-958a-5992f5d043d1","ios":"levelo://app?vid=ba154a12-11bd-42a5-958a-5992f5d043d1"},"vehicle_type_id":"4","last_reported":1751537510,"current_range_meters":16000,"station_id":"","pricing_plan_id":"cebpf4jnsgd1na2vs0mg"},{"bike_id":"652c661a-79b2-4990-be8e-d6435b062c70","system_id":"levelo_inurba_marseille","lat":43.30527,"lon":5.36541,"is_reserved":false,"is_disabled":false,"rental_uris":{"android":"levelo://app?vid=652c661a-79b2-4990-be8e-d6435b062c70","ios":"levelo://app?vid=652c661a-79b2-4990-be8e-d6435b062c70"},"vehicle_type_id":"4","last_reported":1751537510,"current_range_meters":16000,"station_id":"ce4bgs12rcd13ifvqcag","pricing_plan_id":"cebpf4jnsgd1na2vs0mg"},{"bike_id":"77962f41-f19d-4050-be70-108283babbb8","system_id":"levelo_inurba_marseille","lat":43.27208,"lon":5.39181,"is_reserved":false,"is_disabled":false,"rental_uris":{"android":"levelo://app?vid=77962f41-f19d-4050-be70-108283babbb8","ios":"levelo://app?vid=77962f41-f19d-4050-be70-108283babbb8"},"vehicle_type_id":"4","last_reported":1751537510,"current_range_meters":16000,"station_id":"ce4bhhp2rcd13ifvqfm0","pricing_plan_id":"cebpf4jnsgd1na2vs0mg"},{"bike_id":"ce687950-33f9-4a5e-9ae0-2d940f497adb","system_id":"levelo_inurba_marseille","lat":43.27376,"lon":5.36254,"is_reserved":false,"is_disabled":false,"rental_uris":{"android":"levelo://app?vid=ce687950-33f9-4a5e-9ae0-2d940f497adb","ios":"levelo://app?vid=ce687950-33f9-4a5e-9ae0-2d940f497adb"},"vehicle_type_id":"4","last_reported":1751537510,"current_range_meters":16400,"station_id":"ce4bhbh2rcd13ifvqeo0","pricing_plan_id":"cebpf4jnsgd1na2vs0mg"},{"bike_id":"08e2a6c3-9b7d-484e-881e-50f9f2eb148d","system_id":"levelo_inurba_marseille","lat":43.2756,"lon":5.38413,"is_reserved":false,"is_disabled":false,"rental_uris":{"android":"levelo://app?vid=08e2a6c3-9b7d-484e-881e-50f9f2eb148d","ios":"levelo://app?vid=08e2a6c3-9b7d-484e-881e-50f9f2eb148d"},"vehicle_type_id":"4","last_reported":1751537510,"current_range_meters":16400,"station_id":"ce4bhh92rcd13ifvqfi0","pricing_plan_id":"cebpf4jnsgd1na2vs0mg"},{"bike_id":"b114c7d7-5812-4f16-aaa4-1d26988844ab","system_id":"levelo_inurba_marseille","lat":43.27178,"lon":5.40983,"is_reserved":false,"is_disabled":false,"rental_uris":{"android":"levelo://app?vid=b114c7d7-5812-4f16-aaa4-1d26988844ab","ios":"levelo://app?vid=b114c7d7-5812-4f16-aaa4-1d26988844ab"},"vehicle_type_id":"4","last_reported":1751537510,"current_range_meters":16400,"station_id":"ce4bhl12rcd13ifvqgf0","pricing_plan_id":"cebpf4jnsgd1na2vs0mg"},{"bike_id":"4ce97214-5611-4f83-ac94-e2b7b990b9dd","system_id":"levelo_inurba_marseille","lat":43.31758,"lon":5.39012,"is_reserved":false,"is_disabled":false,"rental_uris":{"android":"levelo://app?vid=4ce97214-5611-4f83-ac94-e2b7b990b9dd","ios":"levelo://app?vid=4ce97214-5611-4f83-ac94-e2b7b990b9dd"},"vehicle_type_id":"4","last_reported":1751537510,"current_range_meters":16400,"station_id":"ce4bhqp2rcd13ifvqhng","pricing_plan_id":"cebpf4jnsgd1na2vs0mg"},{"bike_id":"37b84a38-055a-4a6e-a56a-8ff3d0c1b2ec","system_id":"levelo_inurba_marseille","lat":43.21233,"lon":5.35096,"is_reserved":false,"is_disabled":false,"rental_uris":{"android":"levelo://app?vid=37b84a38-055a-4a6e-a56a-8ff3d0c1b2ec","ios":"levelo://app?vid=37b84a38-055a-4a6e-a56a-8ff3d0c1b2ec"},"vehicle_type_id":"4","last_reported":1751537510,"current_range_meters":16400,"station_id":"st_cvj6sg6p6f1abm77japg","pricing_plan_id":"cebpf4jnsgd1na2vs0mg"},{"bike_id":"d6a97fc8-7c5d-4b77-9d38-d22003db8fe5","system_id":"levelo_inurba_marseille","lat":43.34721,"lon":5.36602,"is_reserved":false,"is_disabled":false,"rental_uris":{"android":"levelo://app?vid=d6a97fc8-7c5d-4b77-9d38-d22003db8fe5","ios":"levelo://app?vid=d6a97fc8-7c5d-4b77-9d38-d22003db8fe5"},"vehicle_type_id":"4","last_reported":1751537510,"current_range_meters":16800,"station_id":"","pricing_plan_id":"cebpf4jnsgd1na2vs0mg"},{"bike_id":"a985f2f4-6a3b-46ba-a738-e84bc568026c","system_id":"levelo_inurba_marseille","lat":43.30522,"lon":5.36539,"is_reserved":false,"is_disabled":false,"rental_uris":{"android":"levelo://app?vid=a985f2f4-6a3b-46ba-a738-e84bc568026c","ios":"levelo://app?vid=a985f2f4-6a3b-46ba-a738-e84bc568026c"},"vehicle_type_id":"4","last_reported":1751537510,"current_range_meters":16800,"station_id":"ce4bgs12rcd13ifvqcag","pricing_plan_id":"cebpf4jnsgd1na2vs0mg"},{"bike_id":"bb4d6d50-9e76-429d-87e3-72a9b3336d59","system_id":"levelo_inurba_marseille","lat":43.26206,"lon":5.37966,"is_reserved":false,"is_disabled":false,"rental_uris":{"android":"levelo://app?vid=bb4d6d50-9e76-429d-87e3-72a9b3336d59","ios":"levelo://app?vid=bb4d6d50-9e76-429d-87e3-72a9b3336d59"},"vehicle_type_id":"4","last_reported":1751537510,"current_range_meters":16800,"station_id":"ce4bhjp2rcd13ifvqg90","pricing_plan_id":"cebpf4jnsgd1na2vs0mg"},{"bike_id":"4d4995e7-0bba-4ac2-a238-afd84a5e99b5","system_id":"levelo_inurba_marseille","lat":43.304848,"lon":5.398345,"is_reserved":false,"is_disabled":false,"rental_uris":{"android":"levelo://app?vid=4d4995e7-0bba-4ac2-a238-afd84a5e99b5","ios":"levelo://app?vid=4d4995e7-0bba-4ac2-a238-afd84a5e99b5"},"vehicle_type_id":"4","last_reported":1751537510,"current_range_meters":17200,"station_id":"","pricing_plan_id":"cebpf4jnsgd1na2vs0mg"},{"bike_id":"0c5e46df-9adb-4aa5-842c-17a1961c0106","system_id":"levelo_inurba_marseille","lat":43.27991,"lon":5.40715,"is_reserved":false,"is_disabled":false,"rental_uris":{"android":"levelo://app?vid=0c5e46df-9adb-4aa5-842c-17a1961c0106","ios":"levelo://app?vid=0c5e46df-9adb-4aa5-842c-17a1961c0106"},"vehicle_type_id":"4","last_reported":1751537510,"current_range_meters":17200,"station_id":"","pricing_plan_id":"cebpf4jnsgd1na2vs0mg"},{"bike_id":"175513bb-dce2-48e2-83c8-1e9f1cb23cd0","system_id":"levelo_inurba_marseille","lat":43.286255,"lon":5.412651,"is_reserved":false,"is_disabled":false,"rental_uris":{"android":"levelo://app?vid=175513bb-dce2-48e2-83c8-1e9f1cb23cd0","ios":"levelo://app?vid=175513bb-dce2-48e2-83c8-1e9f1cb23cd0"},"vehicle_type_id":"4","last_reported":1751537510,"current_range_meters":17200,"station_id":"","pricing_plan_id":"cebpf4jnsgd1na2vs0mg"},{"bike_id":"047fad09-98ed-481f-98cd-10a467775053","system_id":"levelo_inurba_marseille","lat":43.30909,"lon":5.36878,"is_reserved":false,"is_disabled":false,"rental_uris":{"android":"levelo://app?vid=047fad09-98ed-481f-98cd-10a467775053","ios":"levelo://app?vid=047fad09-98ed-481f-98cd-10a467775053"},"vehicle_type_id":"4","last_reported":1751537510,"current_range_meters":17200,"station_id":"ce4bgn92rcd13ifvqbvg","pricing_plan_id":"cebpf4jnsgd1na2vs0mg"},{"bike_id":"edd0dadd-87f4-4c2e-bcb9-48eff12407b8","system_id":"levelo_inurba_marseille","lat":43.29531,"lon":5.39037,"is_reserved":false,"is_disabled":false,"rental_uris":{"android":"levelo://app?vid=edd0dadd-87f4-4c2e-bcb9-48eff12407b8","ios":"levelo://app?vid=edd0dadd-87f4-4c2e-bcb9-48eff12407b8"},"vehicle_type_id":"4","last_reported":1751537510,"current_range_meters":17200,"station_id":"ce4bh3p2rcd13ifvqdp0","pricing_plan_id":"cebpf4jnsgd1na2vs0mg"},{"bike_id":"a4bfd3cb-3b24-4535-a2db-c92bb8cbeef1","system_id":"levelo_inurba_marseille","lat":43.2927,"lon":5.38451,"is_reserved":false,"is_disabled":false,"rental_uris":{"android":"levelo://app?vid=a4bfd3cb-3b24-4535-a2db-c92bb8cbeef1","ios":"levelo://app?vid=a4bfd3cb-3b24-4535-a2db-c92bb8cbeef1"},"vehicle_type_id":"4","last_reported":1751537510,"current_range_meters":17200,"station_id":"ce4bh692rcd13ifvqea0","pricing_plan_id":"cebpf4jnsgd1na2vs0mg"},{"bike_id":"7c67e7dd-7a7f-426b-9249-641f91643932","system_id":"levelo_inurba_marseille","lat":43.24166,"lon":5.36409,"is_reserved":false,"is_disabled":false,"rental_uris":{"android":"levelo://app?vid=7c67e7dd-7a7f-426b-9249-641f91643932","ios":"levelo://app?vid=7c67e7dd-7a7f-426b-9249-641f91643932"},"vehicle_type_id":"4","last_reported":1751537510,"current_range_meters":17200,"station_id":"cpo36qri1sfpv3e86is0","pricing_plan_id":"cebpf4jnsgd1na2vs0mg"},{"bike_id":"a6715104-7492-4ec6-a996-23050baf8551","system_id":"levelo_inurba_marseille","lat":43.225018,"lon":5.347741,"is_reserved":false,"is_disabled":false,"rental_uris":{"android":"levelo://app?vid=a6715104-7492-4ec6-a996-23050baf8551","ios":"levelo://app?vid=a6715104-7492-4ec6-a996-23050baf8551"},"vehicle_type_id":"4","last_reported":1751537510,"current_range_meters":17200,"station_id":"st_cvj5dfep6f1abm77gieg","pricing_plan_id":"cebpf4jnsgd1na2vs0mg"},{"bike_id":"0c4b7fdb-b39e-49b3-a2b0-ae3d0f43e89d","system_id":"levelo_inurba_marseille","lat":43.32903,"lon":5.40557,"is_reserved":false,"is_disabled":false,"rental_uris":{"android":"levelo://app?vid=0c4b7fdb-b39e-49b3-a2b0-ae3d0f43e89d","ios":"levelo://app?vid=0c4b7fdb-b39e-49b3-a2b0-ae3d0f43e89d"},"vehicle_type_id":"4","last_reported":1751537510,"current_range_meters":17600,"station_id":"","pricing_plan_id":"cebpf4jnsgd1na2vs0mg"},{"bike_id":"603f229c-09b9-4145-9510-d250a8eff49b","system_id":"levelo_inurba_marseille","lat":43.28617,"lon":5.35096,"is_reserved":false,"is_disabled":false,"rental_uris":{"android":"levelo://app?vid=603f229c-09b9-4145-9510-d250a8eff49b","ios":"levelo://app?vid=603f229c-09b9-4145-9510-d250a8eff49b"},"vehicle_type_id":"4","last_reported":1751537510,"current_range_meters":17600,"station_id":"ce4bhch2rcd13ifvqeug","pricing_plan_id":"cebpf4jnsgd1na2vs0mg"},{"bike_id":"57e84e33-8ef2-49b0-9c52-2dd89adcc82a","system_id":"levelo_inurba_marseille","lat":43.2316,"lon":5.43696,"is_reserved":false,"is_disabled":false,"rental_uris":{"android":"levelo://app?vid=57e84e33-8ef2-49b0-9c52-2dd89adcc82a","ios":"levelo://app?vid=57e84e33-8ef2-49b0-9c52-2dd89adcc82a"},"vehicle_type_id":"4","last_reported":1751537510,"current_range_meters":17600,"station_id":"ce4bhmp2rcd13ifvqgog","pricing_plan_id":"cebpf4jnsgd1na2vs0mg"},{"bike_id":"7e21e8f2-09c8-4cc5-8113-278ebd23888d","system_id":"levelo_inurba_marseille","lat":43.21195,"lon":5.35086,"is_reserved":false,"is_disabled":false,"rental_uris":{"android":"levelo://app?vid=7e21e8f2-09c8-4cc5-8113-278ebd23888d","ios":"levelo://app?vid=7e21e8f2-09c8-4cc5-8113-278ebd23888d"},"vehicle_type_id":"4","last_reported":1751537510,"current_range_meters":17600,"station_id":"st_cvj6sg6p6f1abm77japg","pricing_plan_id":"cebpf4jnsgd1na2vs0mg"},{"bike_id":"b2ce53ca-166b-417e-9d70-9bee393f75bb","system_id":"levelo_inurba_marseille","lat":43.21217,"lon":5.35093,"is_reserved":false,"is_disabled":false,"rental_uris":{"android":"levelo://app?vid=b2ce53ca-166b-417e-9d70-9bee393f75bb","ios":"levelo://app?vid=b2ce53ca-166b-417e-9d70-9bee393f75bb"},"vehicle_type_id":"4","last_reported":1751537510,"current_range_meters":17600,"station_id":"st_cvj6sg6p6f1abm77japg","pricing_plan_id":"cebpf4jnsgd1na2vs0mg"},{"bike_id":"ab1573bb-cfaf-4631-b520-3bdeddf5a347","system_id":"levelo_inurba_marseille","lat":43.30439,"lon":5.38884,"is_reserved":false,"is_disabled":false,"rental_uris":{"android":"levelo://app?vid=ab1573bb-cfaf-4631-b520-3bdeddf5a347","ios":"levelo://app?vid=ab1573bb-cfaf-4631-b520-3bdeddf5a347"},"vehicle_type_id":"4","last_reported":1751537510,"current_range_meters":18000,"station_id":"ce4bgk12rcd13ifvqbi0","pricing_plan_id":"cebpf4jnsgd1na2vs0mg"},{"bike_id":"2ef81746-0fca-469c-ad0f-71b1d40821c4","system_id":"levelo_inurba_marseille","lat":43.2959,"lon":5.36742,"is_reserved":false,"is_disabled":false,"rental_uris":{"android":"levelo://app?vid=2ef81746-0fca-469c-ad0f-71b1d40821c4","ios":"levelo://app?vid=2ef81746-0fca-469c-ad0f-71b1d40821c4"},"vehicle_type_id":"4","last_reported":1751537510,"current_range_meters":18000,"station_id":"ce4bgph2rcd13ifvqc2g","pricing_plan_id":"cebpf4jnsgd1na2vs0mg"},{"bike_id":"9de5e5eb-7aca-47d5-a8fb-d44c5761fb80","system_id":"levelo_inurba_marseille","lat":43.29852,"lon":5.36285,"is_reserved":false,"is_disabled":false,"rental_uris":{"android":"levelo://app?vid=9de5e5eb-7aca-47d5-a8fb-d44c5761fb80","ios":"levelo://app?vid=9de5e5eb-7aca-47d5-a8fb-d44c5761fb80"},"vehicle_type_id":"4","last_reported":1751537510,"current_range_meters":18000,"station_id":"ce4bgpp2rcd13ifvqc3g","pricing_plan_id":"cebpf4jnsgd1na2vs0mg"},{"bike_id":"0bcf60c6-4042-4a3f-8bc3-b4abddcf5799","system_id":"levelo_inurba_marseille","lat":43.30547,"lon":5.36691,"is_reserved":false,"is_disabled":false,"rental_uris":{"android":"levelo://app?vid=0bcf60c6-4042-4a3f-8bc3-b4abddcf5799","ios":"levelo://app?vid=0bcf60c6-4042-4a3f-8bc3-b4abddcf5799"},"vehicle_type_id":"4","last_reported":1751537510,"current_range_meters":18000,"station_id":"ce4bgrp2rcd13ifvqc9g","pricing_plan_id":"cebpf4jnsgd1na2vs0mg"},{"bike_id":"b19cea31-4713-475e-adff-68764a256fc0","system_id":"levelo_inurba_marseille","lat":43.30553,"lon":5.3669,"is_reserved":false,"is_disabled":false,"rental_uris":{"android":"levelo://app?vid=b19cea31-4713-475e-adff-68764a256fc0","ios":"levelo://app?vid=b19cea31-4713-475e-adff-68764a256fc0"},"vehicle_type_id":"4","last_reported":1751537510,"current_range_meters":18000,"station_id":"ce4bgrp2rcd13ifvqc9g","pricing_plan_id":"cebpf4jnsgd1na2vs0mg"},{"bike_id":"c720ddc0-789d-41bd-8c6f-760ef217b249","system_id":"levelo_inurba_marseille","lat":43.29251,"lon":5.38437,"is_reserved":false,"is_disabled":false,"rental_uris":{"android":"levelo://app?vid=c720ddc0-789d-41bd-8c6f-760ef217b249","ios":"levelo://app?vid=c720ddc0-789d-41bd-8c6f-760ef217b249"},"vehicle_type_id":"4","last_reported":1751537510,"current_range_meters":18000,"station_id":"ce4bh692rcd13ifvqea0","pricing_plan_id":"cebpf4jnsgd1na2vs0mg"},{"bike_id":"01f03053-2389-444d-8672-16f44c9a3d6e","system_id":"levelo_inurba_marseille","lat":43.272066,"lon":5.391901,"is_reserved":false,"is_disabled":false,"rental_uris":{"android":"levelo://app?vid=01f03053-2389-444d-8672-16f44c9a3d6e","ios":"levelo://app?vid=01f03053-2389-444d-8672-16f44c9a3d6e"},"vehicle_type_id":"4","last_reported":1751537510,"current_range_meters":18000,"station_id":"ce4bhhp2rcd13ifvqfm0","pricing_plan_id":"cebpf4jnsgd1na2vs0mg"},{"bike_id":"9e407ba8-2841-4932-8f97-01cd9325a67e","system_id":"levelo_inurba_marseille","lat":43.25718,"lon":5.41097,"is_reserved":false,"is_disabled":false,"rental_uris":{"android":"levelo://app?vid=9e407ba8-2841-4932-8f97-01cd9325a67e","ios":"levelo://app?vid=9e407ba8-2841-4932-8f97-01cd9325a67e"},"vehicle_type_id":"4","last_reported":1751537510,"current_range_meters":18000,"station_id":"ce4bhkp2rcd13ifvqgd0","pricing_plan_id":"cebpf4jnsgd1na2vs0mg"},{"bike_id":"cc04118e-9312-4bf8-9106-d64e829afbaa","system_id":"levelo_inurba_marseille","lat":43.21211,"lon":5.35068,"is_reserved":false,"is_disabled":false,"rental_uris":{"android":"levelo://app?vid=cc04118e-9312-4bf8-9106-d64e829afbaa","ios":"levelo://app?vid=cc04118e-9312-4bf8-9106-d64e829afbaa"},"vehicle_type_id":"4","last_reported":1751537510,"current_range_meters":18000,"station_id":"st_cvj6sg6p6f1abm77japg","pricing_plan_id":"cebpf4jnsgd1na2vs0mg"},{"bike_id":"1c8ab180-05fd-405f-9922-b2b2c2d5142f","system_id":"levelo_inurba_marseille","lat":43.33814,"lon":5.38168,"is_reserved":false,"is_disabled":false,"rental_uris":{"android":"levelo://app?vid=1c8ab180-05fd-405f-9922-b2b2c2d5142f","ios":"levelo://app?vid=1c8ab180-05fd-405f-9922-b2b2c2d5142f"},"vehicle_type_id":"4","last_reported":1751537510,"current_range_meters":18800,"station_id":"","pricing_plan_id":"cebpf4jnsgd1na2vs0mg"},{"bike_id":"587e85fa-90f1-4359-a39f-d6529b993743","system_id":"levelo_inurba_marseille","lat":43.29852,"lon":5.36285,"is_reserved":false,"is_disabled":false,"rental_uris":{"android":"levelo://app?vid=587e85fa-90f1-4359-a39f-d6529b993743","ios":"levelo://app?vid=587e85fa-90f1-4359-a39f-d6529b993743"},"vehicle_type_id":"4","last_reported":1751537510,"current_range_meters":18800,"station_id":"ce4bgpp2rcd13ifvqc3g","pricing_plan_id":"cebpf4jnsgd1na2vs0mg"},{"bike_id":"15e873c2-0c46-4d90-ad70-84190b8eec93","system_id":"levelo_inurba_marseille","lat":43.30543,"lon":5.36523,"is_reserved":false,"is_disabled":false,"rental_uris":{"android":"levelo://app?vid=15e873c2-0c46-4d90-ad70-84190b8eec93","ios":"levelo://app?vid=15e873c2-0c46-4d90-ad70-84190b8eec93"},"vehicle_type_id":"4","last_reported":1751537510,"current_range_meters":18800,"station_id":"ce4bgs12rcd13ifvqcag","pricing_plan_id":"cebpf4jnsgd1na2vs0mg"},{"bike_id":"df2ad5da-c9c7-4100-b825-8bb9694e84cb","system_id":"levelo_inurba_marseille","lat":43.262141,"lon":5.37441,"is_reserved":false,"is_disabled":false,"rental_uris":{"android":"levelo://app?vid=df2ad5da-c9c7-4100-b825-8bb9694e84cb","ios":"levelo://app?vid=df2ad5da-c9c7-4100-b825-8bb9694e84cb"},"vehicle_type_id":"4","last_reported":1751537510,"current_range_meters":18800,"station_id":"ce4bhgp2rcd13ifvqfc0","pricing_plan_id":"cebpf4jnsgd1na2vs0mg"},{"bike_id":"51028876-31ee-4e14-9aaf-eac088c567df","system_id":"levelo_inurba_marseille","lat":43.25938,"lon":5.40899,"is_reserved":false,"is_disabled":false,"rental_uris":{"android":"levelo://app?vid=51028876-31ee-4e14-9aaf-eac088c567df","ios":"levelo://app?vid=51028876-31ee-4e14-9aaf-eac088c567df"},"vehicle_type_id":"4","last_reported":1751537510,"current_range_meters":18800,"station_id":"ce4bhm92rcd13ifvqglg","pricing_plan_id":"cebpf4jnsgd1na2vs0mg"},{"bike_id":"072c1623-0cde-4bde-882e-9ebd9afe837d","system_id":"levelo_inurba_marseille","lat":43.23155,"lon":5.437123,"is_reserved":false,"is_disabled":false,"rental_uris":{"android":"levelo://app?vid=072c1623-0cde-4bde-882e-9ebd9afe837d","ios":"levelo://app?vid=072c1623-0cde-4bde-882e-9ebd9afe837d"},"vehicle_type_id":"4","last_reported":1751537510,"current_range_meters":18800,"station_id":"ce4bhmp2rcd13ifvqgog","pricing_plan_id":"cebpf4jnsgd1na2vs0mg"},{"bike_id":"0dbbfd7c-5e93-4301-aea8-6d89ce7ed33b","system_id":"levelo_inurba_marseille","lat":43.21756,"lon":5.34622,"is_reserved":false,"is_disabled":false,"rental_uris":{"android":"levelo://app?vid=0dbbfd7c-5e93-4301-aea8-6d89ce7ed33b","ios":"levelo://app?vid=0dbbfd7c-5e93-4301-aea8-6d89ce7ed33b"},"vehicle_type_id":"4","last_reported":1751537510,"current_range_meters":18800,"station_id":"st_cvj6r9ubvosntc0bgbag","pricing_plan_id":"cebpf4jnsgd1na2vs0mg"},{"bike_id":"2a3c8a94-4c58-4f24-9b3b-1f7a24c3f5d3","system_id":"levelo_inurba_marseille","lat":43.26078,"lon":5.40687,"is_reserved":false,"is_disabled":false,"rental_uris":{"android":"levelo://app?vid=2a3c8a94-4c58-4f24-9b3b-1f7a24c3f5d3","ios":"levelo://app?vid=2a3c8a94-4c58-4f24-9b3b-1f7a24c3f5d3"},"vehicle_type_id":"4","last_reported":1751537510,"current_range_meters":19200,"station_id":"","pricing_plan_id":"cebpf4jnsgd1na2vs0mg"},{"bike_id":"3f5c9bc0-7b94-4822-a227-cb60a4ed9985","system_id":"levelo_inurba_marseille","lat":43.29545,"lon":5.38542,"is_reserved":false,"is_disabled":false,"rental_uris":{"android":"levelo://app?vid=3f5c9bc0-7b94-4822-a227-cb60a4ed9985","ios":"levelo://app?vid=3f5c9bc0-7b94-4822-a227-cb60a4ed9985"},"vehicle_type_id":"4","last_reported":1751537510,"current_range_meters":19200,"station_id":"ce4bgih2rcd13ifvqba0","pricing_plan_id":"cebpf4jnsgd1na2vs0mg"},{"bike_id":"21522ee2-42a9-4834-bba1-e2afe9a37c3d","system_id":"levelo_inurba_marseille","lat":43.3091,"lon":5.36846,"is_reserved":false,"is_disabled":false,"rental_uris":{"android":"levelo://app?vid=21522ee2-42a9-4834-bba1-e2afe9a37c3d","ios":"levelo://app?vid=21522ee2-42a9-4834-bba1-e2afe9a37c3d"},"vehicle_type_id":"4","last_reported":1751537510,"current_range_meters":19200,"station_id":"ce4bgn92rcd13ifvqbvg","pricing_plan_id":"cebpf4jnsgd1na2vs0mg"},{"bike_id":"62216843-d9c4-47b8-bcd2-70812d8e2b95","system_id":"levelo_inurba_marseille","lat":43.30478,"lon":5.37894,"is_reserved":false,"is_disabled":false,"rental_uris":{"android":"levelo://app?vid=62216843-d9c4-47b8-bcd2-70812d8e2b95","ios":"levelo://app?vid=62216843-d9c4-47b8-bcd2-70812d8e2b95"},"vehicle_type_id":"4","last_reported":1751537510,"current_range_meters":19200,"station_id":"ce4bgup2rcd13ifvqcn0","pricing_plan_id":"cebpf4jnsgd1na2vs0mg"},{"bike_id":"e9d26c79-d78f-4002-bc79-c4aa63e66364","system_id":"levelo_inurba_marseille","lat":43.31189,"lon":5.38737,"is_reserved":false,"is_disabled":false,"rental_uris":{"android":"levelo://app?vid=e9d26c79-d78f-4002-bc79-c4aa63e66364","ios":"levelo://app?vid=e9d26c79-d78f-4002-bc79-c4aa63e66364"},"vehicle_type_id":"4","last_reported":1751537510,"current_range_meters":19200,"station_id":"ce4bgv12rcd13ifvqcp0","pricing_plan_id":"cebpf4jnsgd1na2vs0mg"},{"bike_id":"a079648b-1bdb-4659-8136-73d9fcc73d42","system_id":"levelo_inurba_marseille","lat":43.31156,"lon":5.38727,"is_reserved":false,"is_disabled":false,"rental_uris":{"android":"levelo://app?vid=a079648b-1bdb-4659-8136-73d9fcc73d42","ios":"levelo://app?vid=a079648b-1bdb-4659-8136-73d9fcc73d42"},"vehicle_type_id":"4","last_reported":1751537510,"current_range_meters":19200,"station_id":"ce4bgv12rcd13ifvqcp0","pricing_plan_id":"cebpf4jnsgd1na2vs0mg"},{"bike_id":"55aa929b-2db6-4ab6-8121-df233a47781a","system_id":"levelo_inurba_marseille","lat":43.26215,"lon":5.37436,"is_reserved":false,"is_disabled":false,"rental_uris":{"android":"levelo://app?vid=55aa929b-2db6-4ab6-8121-df233a47781a","ios":"levelo://app?vid=55aa929b-2db6-4ab6-8121-df233a47781a"},"vehicle_type_id":"4","last_reported":1751537510,"current_range_meters":19200,"station_id":"ce4bhgp2rcd13ifvqfc0","pricing_plan_id":"cebpf4jnsgd1na2vs0mg"},{"bike_id":"368f1daf-7322-42a6-b8be-0072f9a91af0","system_id":"levelo_inurba_marseille","lat":43.26192,"lon":5.3745,"is_reserved":false,"is_disabled":false,"rental_uris":{"android":"levelo://app?vid=368f1daf-7322-42a6-b8be-0072f9a91af0","ios":"levelo://app?vid=368f1daf-7322-42a6-b8be-0072f9a91af0"},"vehicle_type_id":"4","last_reported":1751537510,"current_range_meters":19200,"station_id":"ce4bhgp2rcd13ifvqfc0","pricing_plan_id":"cebpf4jnsgd1na2vs0mg"},{"bike_id":"52df517b-a0e2-4937-a9b8-8e983bc80db1","system_id":"levelo_inurba_marseille","lat":43.26784,"lon":5.39417,"is_reserved":false,"is_disabled":false,"rental_uris":{"android":"levelo://app?vid=52df517b-a0e2-4937-a9b8-8e983bc80db1","ios":"levelo://app?vid=52df517b-a0e2-4937-a9b8-8e983bc80db1"},"vehicle_type_id":"4","last_reported":1751537510,"current_range_meters":19200,"station_id":"ce4bhh12rcd13ifvqfg0","pricing_plan_id":"cebpf4jnsgd1na2vs0mg"},{"bike_id":"5ecbe7d9-b835-47e3-87d6-0fd67017673c","system_id":"levelo_inurba_marseille","lat":43.321135,"lon":5.367838,"is_reserved":false,"is_disabled":false,"rental_uris":{"android":"levelo://app?vid=5ecbe7d9-b835-47e3-87d6-0fd67017673c","ios":"levelo://app?vid=5ecbe7d9-b835-47e3-87d6-0fd67017673c"},"vehicle_type_id":"4","last_reported":1751537510,"current_range_meters":19200,"station_id":"ce4bhrh2rcd13ifvqhug","pricing_plan_id":"cebpf4jnsgd1na2vs0mg"},{"bike_id":"5f1e5526-9ff8-4075-8194-48a897f058b4","system_id":"levelo_inurba_marseille","lat":43.212007,"lon":5.350826,"is_reserved":false,"is_disabled":false,"rental_uris":{"android":"levelo://app?vid=5f1e5526-9ff8-4075-8194-48a897f058b4","ios":"levelo://app?vid=5f1e5526-9ff8-4075-8194-48a897f058b4"},"vehicle_type_id":"4","last_reported":1751537510,"current_range_meters":19200,"station_id":"st_cvj6sg6p6f1abm77japg","pricing_plan_id":"cebpf4jnsgd1na2vs0mg"},{"bike_id":"ec19b26d-8eae-4bd6-97bb-8c8b96809804","system_id":"levelo_inurba_marseille","lat":43.30948,"lon":5.39044,"is_reserved":false,"is_disabled":false,"rental_uris":{"android":"levelo://app?vid=ec19b26d-8eae-4bd6-97bb-8c8b96809804","ios":"levelo://app?vid=ec19b26d-8eae-4bd6-97bb-8c8b96809804"},"vehicle_type_id":"4","last_reported":1751537510,"current_range_meters":19600,"station_id":"ce4bgup2rcd13ifvqco0","pricing_plan_id":"cebpf4jnsgd1na2vs0mg"},{"bike_id":"f457eef8-274f-4119-9929-65efd885413d","system_id":"levelo_inurba_marseille","lat":43.27206,"lon":5.3918,"is_reserved":false,"is_disabled":false,"rental_uris":{"android":"levelo://app?vid=f457eef8-274f-4119-9929-65efd885413d","ios":"levelo://app?vid=f457eef8-274f-4119-9929-65efd885413d"},"vehicle_type_id":"4","last_reported":1751537510,"current_range_meters":19600,"station_id":"ce4bhhp2rcd13ifvqfm0","pricing_plan_id":"cebpf4jnsgd1na2vs0mg"},{"bike_id":"32c0fc37-6823-41d0-9497-8d1eea24742c","system_id":"levelo_inurba_marseille","lat":43.24172,"lon":5.36401,"is_reserved":false,"is_disabled":false,"rental_uris":{"android":"levelo://app?vid=32c0fc37-6823-41d0-9497-8d1eea24742c","ios":"levelo://app?vid=32c0fc37-6823-41d0-9497-8d1eea24742c"},"vehicle_type_id":"4","last_reported":1751537510,"current_range_meters":19600,"station_id":"cpo36qri1sfpv3e86is0","pricing_plan_id":"cebpf4jnsgd1na2vs0mg"},{"bike_id":"d3bdb41c-8b0a-446d-98af-e6de2988fc13","system_id":"levelo_inurba_marseille","lat":43.22507,"lon":5.34783,"is_reserved":false,"is_disabled":false,"rental_uris":{"android":"levelo://app?vid=d3bdb41c-8b0a-446d-98af-e6de2988fc13","ios":"levelo://app?vid=d3bdb41c-8b0a-446d-98af-e6de2988fc13"},"vehicle_type_id":"4","last_reported":1751537510,"current_range_meters":19600,"station_id":"st_cvj5dfep6f1abm77gieg","pricing_plan_id":"cebpf4jnsgd1na2vs0mg"},{"bike_id":"ba926bfc-9632-4680-b0ed-32a040d6fb83","system_id":"levelo_inurba_marseille","lat":43.21196,"lon":5.3506,"is_reserved":false,"is_disabled":false,"rental_uris":{"android":"levelo://app?vid=ba926bfc-9632-4680-b0ed-32a040d6fb83","ios":"levelo://app?vid=ba926bfc-9632-4680-b0ed-32a040d6fb83"},"vehicle_type_id":"4","last_reported":1751537510,"current_range_meters":19600,"station_id":"st_cvj6sg6p6f1abm77japg","pricing_plan_id":"cebpf4jnsgd1na2vs0mg"},{"bike_id":"b13877a6-4825-4d82-b46b-67fa8ad66c5d","system_id":"levelo_inurba_marseille","lat":43.211926,"lon":5.350676,"is_reserved":false,"is_disabled":false,"rental_uris":{"android":"levelo://app?vid=b13877a6-4825-4d82-b46b-67fa8ad66c5d","ios":"levelo://app?vid=b13877a6-4825-4d82-b46b-67fa8ad66c5d"},"vehicle_type_id":"4","last_reported":1751537510,"current_range_meters":19600,"station_id":"st_cvj6sg6p6f1abm77japg","pricing_plan_id":"cebpf4jnsgd1na2vs0mg"},{"bike_id":"7712491c-e18b-4b09-bb79-30880b357c07","system_id":"levelo_inurba_marseille","lat":43.21193,"lon":5.35078,"is_reserved":false,"is_disabled":false,"rental_uris":{"android":"levelo://app?vid=7712491c-e18b-4b09-bb79-30880b357c07","ios":"levelo://app?vid=7712491c-e18b-4b09-bb79-30880b357c07"},"vehicle_type_id":"4","last_reported":1751537510,"current_range_meters":19600,"station_id":"st_cvj6sg6p6f1abm77japg","pricing_plan_id":"cebpf4jnsgd1na2vs0mg"},{"bike_id":"63acad33-6ce0-4879-bb8b-7b4910bd10f3","system_id":"levelo_inurba_marseille","lat":43.24835,"lon":5.41214,"is_reserved":false,"is_disabled":false,"rental_uris":{"android":"levelo://app?vid=63acad33-6ce0-4879-bb8b-7b4910bd10f3","ios":"levelo://app?vid=63acad33-6ce0-4879-bb8b-7b4910bd10f3"},"vehicle_type_id":"4","last_reported":1751537510,"current_range_meters":20000,"station_id":"","pricing_plan_id":"cebpf4jnsgd1na2vs0mg"},{"bike_id":"b93351dd-d6c1-4fa7-a50c-e2ebdce8a8df","system_id":"levelo_inurba_marseille","lat":43.29623,"lon":5.37738,"is_reserved":false,"is_disabled":false,"rental_uris":{"android":"levelo://app?vid=b93351dd-d6c1-4fa7-a50c-e2ebdce8a8df","ios":"levelo://app?vid=b93351dd-d6c1-4fa7-a50c-e2ebdce8a8df"},"vehicle_type_id":"4","last_reported":1751537510,"current_range_meters":20000,"station_id":"ce4bgi92rcd13ifvqb90","pricing_plan_id":"cebpf4jnsgd1na2vs0mg"},{"bike_id":"4e0ceeee-cc6c-4d5b-9838-93c57bc1c3b0","system_id":"levelo_inurba_marseille","lat":43.31236,"lon":5.368562,"is_reserved":false,"is_disabled":false,"rental_uris":{"android":"levelo://app?vid=4e0ceeee-cc6c-4d5b-9838-93c57bc1c3b0","ios":"levelo://app?vid=4e0ceeee-cc6c-4d5b-9838-93c57bc1c3b0"},"vehicle_type_id":"4","last_reported":1751537510,"current_range_meters":20000,"station_id":"ce4bgl92rcd13ifvqbq0","pricing_plan_id":"cebpf4jnsgd1na2vs0mg"},{"bike_id":"5ca573f7-adce-4e65-a0a5-8aecba433aef","system_id":"levelo_inurba_marseille","lat":43.3095,"lon":5.39029,"is_reserved":false,"is_disabled":false,"rental_uris":{"android":"levelo://app?vid=5ca573f7-adce-4e65-a0a5-8aecba433aef","ios":"levelo://app?vid=5ca573f7-adce-4e65-a0a5-8aecba433aef"},"vehicle_type_id":"4","last_reported":1751537510,"current_range_meters":20000,"station_id":"ce4bgup2rcd13ifvqco0","pricing_plan_id":"cebpf4jnsgd1na2vs0mg"},{"bike_id":"d1417020-35ca-4f6e-8915-b71738e62cd1","system_id":"levelo_inurba_marseille","lat":43.28417,"lon":5.34982,"is_reserved":false,"is_disabled":false,"rental_uris":{"android":"levelo://app?vid=d1417020-35ca-4f6e-8915-b71738e62cd1","ios":"levelo://app?vid=d1417020-35ca-4f6e-8915-b71738e62cd1"},"vehicle_type_id":"4","last_reported":1751537510,"current_range_meters":20000,"station_id":"ce4bhbh2rcd13ifvqepg","pricing_plan_id":"cebpf4jnsgd1na2vs0mg"},{"bike_id":"009853a2-7cec-49bf-8d91-c467927a94a4","system_id":"levelo_inurba_marseille","lat":43.24073,"lon":5.37759,"is_reserved":false,"is_disabled":false,"rental_uris":{"android":"levelo://app?vid=009853a2-7cec-49bf-8d91-c467927a94a4","ios":"levelo://app?vid=009853a2-7cec-49bf-8d91-c467927a94a4"},"vehicle_type_id":"4","last_reported":1751537510,"current_range_meters":20000,"station_id":"ce4bhnp2rcd13ifvqgvg","pricing_plan_id":"cebpf4jnsgd1na2vs0mg"},{"bike_id":"08e81811-c9ab-430d-a98b-a4424b37dd49","system_id":"levelo_inurba_marseille","lat":43.295542,"lon":5.422895,"is_reserved":false,"is_disabled":false,"rental_uris":{"android":"levelo://app?vid=08e81811-c9ab-430d-a98b-a4424b37dd49","ios":"levelo://app?vid=08e81811-c9ab-430d-a98b-a4424b37dd49"},"vehicle_type_id":"4","last_reported":1751537510,"current_range_meters":20000,"station_id":"ce4bhph2rcd13ifvqhdg","pricing_plan_id":"cebpf4jnsgd1na2vs0mg"},{"bike_id":"3eabe1e2-f9f5-41cb-a4ed-73ca7f909c5c","system_id":"levelo_inurba_marseille","lat":43.21199,"lon":5.35077,"is_reserved":false,"is_disabled":false,"rental_uris":{"android":"levelo://app?vid=3eabe1e2-f9f5-41cb-a4ed-73ca7f909c5c","ios":"levelo://app?vid=3eabe1e2-f9f5-41cb-a4ed-73ca7f909c5c"},"vehicle_type_id":"4","last_reported":1751537510,"current_range_meters":20000,"station_id":"st_cvj6sg6p6f1abm77japg","pricing_plan_id":"cebpf4jnsgd1na2vs0mg"},{"bike_id":"39fa5f31-4afa-4271-a36e-400e3970d6f0","system_id":"levelo_inurba_marseille","lat":43.30378,"lon":5.37597,"is_reserved":false,"is_disabled":false,"rental_uris":{"android":"levelo://app?vid=39fa5f31-4afa-4271-a36e-400e3970d6f0","ios":"levelo://app?vid=39fa5f31-4afa-4271-a36e-400e3970d6f0"},"vehicle_type_id":"4","last_reported":1751537510,"current_range_meters":20400,"station_id":"","pricing_plan_id":"cebpf4jnsgd1na2vs0mg"},{"bike_id":"1eaf90b5-9ff0-4410-82c9-5c74165a02c3","system_id":"levelo_inurba_marseille","lat":43.29031,"lon":5.37571,"is_reserved":false,"is_disabled":false,"rental_uris":{"android":"levelo://app?vid=1eaf90b5-9ff0-4410-82c9-5c74165a02c3","ios":"levelo://app?vid=1eaf90b5-9ff0-4410-82c9-5c74165a02c3"},"vehicle_type_id":"4","last_reported":1751537510,"current_range_meters":20400,"station_id":"ce4bh692rcd13ifvqe90","pricing_plan_id":"cebpf4jnsgd1na2vs0mg"},{"bike_id":"4a85f60c-2617-4596-8273-abe4e51116d9","system_id":"levelo_inurba_marseille","lat":43.29277,"lon":5.38446,"is_reserved":false,"is_disabled":false,"rental_uris":{"android":"levelo://app?vid=4a85f60c-2617-4596-8273-abe4e51116d9","ios":"levelo://app?vid=4a85f60c-2617-4596-8273-abe4e51116d9"},"vehicle_type_id":"4","last_reported":1751537510,"current_range_meters":20400,"station_id":"ce4bh692rcd13ifvqea0","pricing_plan_id":"cebpf4jnsgd1na2vs0mg"},{"bike_id":"f1a26d48-bdd3-4557-a2cb-04d78f452744","system_id":"levelo_inurba_marseille","lat":43.26778,"lon":5.39464,"is_reserved":false,"is_disabled":false,"rental_uris":{"android":"levelo://app?vid=f1a26d48-bdd3-4557-a2cb-04d78f452744","ios":"levelo://app?vid=f1a26d48-bdd3-4557-a2cb-04d78f452744"},"vehicle_type_id":"4","last_reported":1751537510,"current_range_meters":20400,"station_id":"ce4bhh12rcd13ifvqfg0","pricing_plan_id":"cebpf4jnsgd1na2vs0mg"},{"bike_id":"b3d7a6ac-4ad8-404e-91ae-53d96dbbd9fb","system_id":"levelo_inurba_marseille","lat":43.21167,"lon":5.35137,"is_reserved":false,"is_disabled":false,"rental_uris":{"android":"levelo://app?vid=b3d7a6ac-4ad8-404e-91ae-53d96dbbd9fb","ios":"levelo://app?vid=b3d7a6ac-4ad8-404e-91ae-53d96dbbd9fb"},"vehicle_type_id":"4","last_reported":1751537510,"current_range_meters":20400,"station_id":"st_cvj6sg6p6f1abm77japg","pricing_plan_id":"cebpf4jnsgd1na2vs0mg"},{"bike_id":"a7405bbc-1af6-48dc-9022-dbb12457827d","system_id":"levelo_inurba_marseille","lat":43.297093,"lon":5.376969,"is_reserved":false,"is_disabled":false,"rental_uris":{"android":"levelo://app?vid=a7405bbc-1af6-48dc-9022-dbb12457827d","ios":"levelo://app?vid=a7405bbc-1af6-48dc-9022-dbb12457827d"},"vehicle_type_id":"4","last_reported":1751537510,"current_range_meters":20800,"station_id":"ce4bgkh2rcd13ifvqbl0","pricing_plan_id":"cebpf4jnsgd1na2vs0mg"},{"bike_id":"edaf3f60-0f81-4195-b4ab-90e3dd1ad1d9","system_id":"levelo_inurba_marseille","lat":43.30445,"lon":5.39744,"is_reserved":false,"is_disabled":false,"rental_uris":{"android":"levelo://app?vid=edaf3f60-0f81-4195-b4ab-90e3dd1ad1d9","ios":"levelo://app?vid=edaf3f60-0f81-4195-b4ab-90e3dd1ad1d9"},"vehicle_type_id":"4","last_reported":1751537510,"current_range_meters":20800,"station_id":"ce4bh092rcd13ifvqd20","pricing_plan_id":"cebpf4jnsgd1na2vs0mg"},{"bike_id":"f915e77b-9553-49d5-8659-7bbddd61e86c","system_id":"levelo_inurba_marseille","lat":43.341462,"lon":5.40914,"is_reserved":false,"is_disabled":false,"rental_uris":{"android":"levelo://app?vid=f915e77b-9553-49d5-8659-7bbddd61e86c","ios":"levelo://app?vid=f915e77b-9553-49d5-8659-7bbddd61e86c"},"vehicle_type_id":"4","last_reported":1751537510,"current_range_meters":20800,"station_id":"ce4bhqh2rcd13ifvqhlg","pricing_plan_id":"cebpf4jnsgd1na2vs0mg"},{"bike_id":"8fcf9785-eaa7-404c-9e4b-30bc240668e8","system_id":"levelo_inurba_marseille","lat":43.32476,"lon":5.36558,"is_reserved":false,"is_disabled":false,"rental_uris":{"android":"levelo://app?vid=8fcf9785-eaa7-404c-9e4b-30bc240668e8","ios":"levelo://app?vid=8fcf9785-eaa7-404c-9e4b-30bc240668e8"},"vehicle_type_id":"4","last_reported":1751537510,"current_range_meters":20800,"station_id":"ce4bhs12rcd13ifvqhvg","pricing_plan_id":"cebpf4jnsgd1na2vs0mg"},{"bike_id":"8f35577a-eb1f-42be-9fa9-a6a0b01a5264","system_id":"levelo_inurba_marseille","lat":43.30348,"lon":5.37884,"is_reserved":false,"is_disabled":false,"rental_uris":{"android":"levelo://app?vid=8f35577a-eb1f-42be-9fa9-a6a0b01a5264","ios":"levelo://app?vid=8f35577a-eb1f-42be-9fa9-a6a0b01a5264"},"vehicle_type_id":"4","last_reported":1751537510,"current_range_meters":21600,"station_id":"","pricing_plan_id":"cebpf4jnsgd1na2vs0mg"},{"bike_id":"8734bc42-361e-4c72-9212-27e99f10c61f","system_id":"levelo_inurba_marseille","lat":43.27363,"lon":5.42771,"is_reserved":false,"is_disabled":false,"rental_uris":{"android":"levelo://app?vid=8734bc42-361e-4c72-9212-27e99f10c61f","ios":"levelo://app?vid=8734bc42-361e-4c72-9212-27e99f10c61f"},"vehicle_type_id":"4","last_reported":1751537510,"current_range_meters":21600,"station_id":"","pricing_plan_id":"cebpf4jnsgd1na2vs0mg"},{"bike_id":"4b8da722-ee9e-48a4-a5e5-3a8a10364708","system_id":"levelo_inurba_marseille","lat":43.312324,"lon":5.378212,"is_reserved":false,"is_disabled":false,"rental_uris":{"android":"levelo://app?vid=4b8da722-ee9e-48a4-a5e5-3a8a10364708","ios":"levelo://app?vid=4b8da722-ee9e-48a4-a5e5-3a8a10364708"},"vehicle_type_id":"4","last_reported":1751537510,"current_range_meters":21600,"station_id":"","pricing_plan_id":"cebpf4jnsgd1na2vs0mg"},{"bike_id":"90bc6e28-4e91-42df-8a5d-445f1a69af03","system_id":"levelo_inurba_marseille","lat":43.295294,"lon":5.385429,"is_reserved":false,"is_disabled":false,"rental_uris":{"android":"levelo://app?vid=90bc6e28-4e91-42df-8a5d-445f1a69af03","ios":"levelo://app?vid=90bc6e28-4e91-42df-8a5d-445f1a69af03"},"vehicle_type_id":"4","last_reported":1751537510,"current_range_meters":21600,"station_id":"ce4bgih2rcd13ifvqba0","pricing_plan_id":"cebpf4jnsgd1na2vs0mg"},{"bike_id":"a301653e-3746-4c5b-89df-a8600381b19c","system_id":"levelo_inurba_marseille","lat":43.276217,"lon":5.361033,"is_reserved":false,"is_disabled":false,"rental_uris":{"android":"levelo://app?vid=a301653e-3746-4c5b-89df-a8600381b19c","ios":"levelo://app?vid=a301653e-3746-4c5b-89df-a8600381b19c"},"vehicle_type_id":"4","last_reported":1751537510,"current_range_meters":21600,"station_id":"ce4bgj92rcd13ifvqbe0","pricing_plan_id":"cebpf4jnsgd1na2vs0mg"},{"bike_id":"99c01276-33a5-45a7-b325-33368be4a458","system_id":"levelo_inurba_marseille","lat":43.312272,"lon":5.368589,"is_reserved":false,"is_disabled":false,"rental_uris":{"android":"levelo://app?vid=99c01276-33a5-45a7-b325-33368be4a458","ios":"levelo://app?vid=99c01276-33a5-45a7-b325-33368be4a458"},"vehicle_type_id":"4","last_reported":1751537510,"current_range_meters":21600,"station_id":"ce4bgl92rcd13ifvqbq0","pricing_plan_id":"cebpf4jnsgd1na2vs0mg"},{"bike_id":"833bb9ff-7b15-4a8e-91f3-ff216ef28553","system_id":"levelo_inurba_marseille","lat":43.31685,"lon":5.37485,"is_reserved":false,"is_disabled":false,"rental_uris":{"android":"levelo://app?vid=833bb9ff-7b15-4a8e-91f3-ff216ef28553","ios":"levelo://app?vid=833bb9ff-7b15-4a8e-91f3-ff216ef28553"},"vehicle_type_id":"4","last_reported":1751537510,"current_range_meters":22000,"station_id":"","pricing_plan_id":"cebpf4jnsgd1na2vs0mg"},{"bike_id":"4f8c7826-ef00-4467-b0a9-56921dcbf3b3","system_id":"levelo_inurba_marseille","lat":43.31174,"lon":5.38716,"is_reserved":false,"is_disabled":false,"rental_uris":{"android":"levelo://app?vid=4f8c7826-ef00-4467-b0a9-56921dcbf3b3","ios":"levelo://app?vid=4f8c7826-ef00-4467-b0a9-56921dcbf3b3"},"vehicle_type_id":"4","last_reported":1751537510,"current_range_meters":22000,"station_id":"","pricing_plan_id":"cebpf4jnsgd1na2vs0mg"},{"bike_id":"d4d859b7-6ad2-4ef4-aef7-acc3399e9d60","system_id":"levelo_inurba_marseille","lat":43.29528,"lon":5.38546,"is_reserved":false,"is_disabled":false,"rental_uris":{"android":"levelo://app?vid=d4d859b7-6ad2-4ef4-aef7-acc3399e9d60","ios":"levelo://app?vid=d4d859b7-6ad2-4ef4-aef7-acc3399e9d60"},"vehicle_type_id":"4","last_reported":1751537510,"current_range_meters":22000,"station_id":"ce4bgih2rcd13ifvqba0","pricing_plan_id":"cebpf4jnsgd1na2vs0mg"},{"bike_id":"44f7fc82-2c3a-481b-af9c-974c97993882","system_id":"levelo_inurba_marseille","lat":43.28423,"lon":5.34975,"is_reserved":false,"is_disabled":false,"rental_uris":{"android":"levelo://app?vid=44f7fc82-2c3a-481b-af9c-974c97993882","ios":"levelo://app?vid=44f7fc82-2c3a-481b-af9c-974c97993882"},"vehicle_type_id":"4","last_reported":1751537510,"current_range_meters":22000,"station_id":"ce4bhbh2rcd13ifvqepg","pricing_plan_id":"cebpf4jnsgd1na2vs0mg"},{"bike_id":"867cd113-b33b-42b3-ae90-49d2244a87da","system_id":"levelo_inurba_marseille","lat":43.23962,"lon":5.36626,"is_reserved":false,"is_disabled":false,"rental_uris":{"android":"levelo://app?vid=867cd113-b33b-42b3-ae90-49d2244a87da","ios":"levelo://app?vid=867cd113-b33b-42b3-ae90-49d2244a87da"},"vehicle_type_id":"4","last_reported":1751537510,"current_range_meters":22000,"station_id":"ce4bhi12rcd13ifvqfp0","pricing_plan_id":"cebpf4jnsgd1na2vs0mg"},{"bike_id":"60319928-d4d1-45ad-bc4b-70be978c4913","system_id":"levelo_inurba_marseille","lat":43.24071,"lon":5.37763,"is_reserved":false,"is_disabled":false,"rental_uris":{"android":"levelo://app?vid=60319928-d4d1-45ad-bc4b-70be978c4913","ios":"levelo://app?vid=60319928-d4d1-45ad-bc4b-70be978c4913"},"vehicle_type_id":"4","last_reported":1751537510,"current_range_meters":22000,"station_id":"ce4bhnp2rcd13ifvqgvg","pricing_plan_id":"cebpf4jnsgd1na2vs0mg"},{"bike_id":"7be93d05-2405-4cfe-a0c4-c6f3670e10c7","system_id":"levelo_inurba_marseille","lat":43.21203,"lon":5.35119,"is_reserved":false,"is_disabled":false,"rental_uris":{"android":"levelo://app?vid=7be93d05-2405-4cfe-a0c4-c6f3670e10c7","ios":"levelo://app?vid=7be93d05-2405-4cfe-a0c4-c6f3670e10c7"},"vehicle_type_id":"4","last_reported":1751537510,"current_range_meters":22000,"station_id":"st_cvj6sg6p6f1abm77japg","pricing_plan_id":"cebpf4jnsgd1na2vs0mg"},{"bike_id":"fe26a872-faca-4c8a-a4b9-23d325602e8f","system_id":"levelo_inurba_marseille","lat":43.29274,"lon":5.38423,"is_reserved":false,"is_disabled":false,"rental_uris":{"android":"levelo://app?vid=fe26a872-faca-4c8a-a4b9-23d325602e8f","ios":"levelo://app?vid=fe26a872-faca-4c8a-a4b9-23d325602e8f"},"vehicle_type_id":"4","last_reported":1751537510,"current_range_meters":22400,"station_id":"ce4bh692rcd13ifvqea0","pricing_plan_id":"cebpf4jnsgd1na2vs0mg"},{"bike_id":"4c83da2c-fc2b-47d6-abb5-1d7666138c32","system_id":"levelo_inurba_marseille","lat":43.29274,"lon":5.38443,"is_reserved":false,"is_disabled":false,"rental_uris":{"android":"levelo://app?vid=4c83da2c-fc2b-47d6-abb5-1d7666138c32","ios":"levelo://app?vid=4c83da2c-fc2b-47d6-abb5-1d7666138c32"},"vehicle_type_id":"4","last_reported":1751537510,"current_range_meters":22400,"station_id":"ce4bh692rcd13ifvqea0","pricing_plan_id":"cebpf4jnsgd1na2vs0mg"},{"bike_id":"acaea3d4-89fe-49f6-a119-3f6302ae77b1","system_id":"levelo_inurba_marseille","lat":43.295578,"lon":5.422918,"is_reserved":false,"is_disabled":false,"rental_uris":{"android":"levelo://app?vid=acaea3d4-89fe-49f6-a119-3f6302ae77b1","ios":"levelo://app?vid=acaea3d4-89fe-49f6-a119-3f6302ae77b1"},"vehicle_type_id":"4","last_reported":1751537510,"current_range_meters":22400,"station_id":"ce4bhph2rcd13ifvqhdg","pricing_plan_id":"cebpf4jnsgd1na2vs0mg"},{"bike_id":"fd11cc56-66f8-4872-814c-230613977add","system_id":"levelo_inurba_marseille","lat":43.2956,"lon":5.42291,"is_reserved":false,"is_disabled":false,"rental_uris":{"android":"levelo://app?vid=fd11cc56-66f8-4872-814c-230613977add","ios":"levelo://app?vid=fd11cc56-66f8-4872-814c-230613977add"},"vehicle_type_id":"4","last_reported":1751537510,"current_range_meters":22400,"station_id":"ce4bhph2rcd13ifvqhdg","pricing_plan_id":"cebpf4jnsgd1na2vs0mg"},{"bike_id":"ed51dc5b-d1d3-42c8-a2a3-3e55ebd1876c","system_id":"levelo_inurba_marseille","lat":43.30805,"lon":5.43522,"is_reserved":false,"is_disabled":false,"rental_uris":{"android":"levelo://app?vid=ed51dc5b-d1d3-42c8-a2a3-3e55ebd1876c","ios":"levelo://app?vid=ed51dc5b-d1d3-42c8-a2a3-3e55ebd1876c"},"vehicle_type_id":"4","last_reported":1751537510,"current_range_meters":22400,"station_id":"ce4bhph2rcd13ifvqheg","pricing_plan_id":"cebpf4jnsgd1na2vs0mg"},{"bike_id":"c13c93ac-6b62-443c-9e36-caf61b27325a","system_id":"levelo_inurba_marseille","lat":43.21193,"lon":5.35072,"is_reserved":false,"is_disabled":false,"rental_uris":{"android":"levelo://app?vid=c13c93ac-6b62-443c-9e36-caf61b27325a","ios":"levelo://app?vid=c13c93ac-6b62-443c-9e36-caf61b27325a"},"vehicle_type_id":"4","last_reported":1751537510,"current_range_meters":22400,"station_id":"st_cvj6sg6p6f1abm77japg","pricing_plan_id":"cebpf4jnsgd1na2vs0mg"},{"bike_id":"d77cb04e-951c-4647-a663-bf254c5970aa","system_id":"levelo_inurba_marseille","lat":43.21749,"lon":5.34603,"is_reserved":false,"is_disabled":false,"rental_uris":{"android":"levelo://app?vid=d77cb04e-951c-4647-a663-bf254c5970aa","ios":"levelo://app?vid=d77cb04e-951c-4647-a663-bf254c5970aa"},"vehicle_type_id":"4","last_reported":1751537510,"current_range_meters":22800,"station_id":"","pricing_plan_id":"cebpf4jnsgd1na2vs0mg"},{"bike_id":"46a98dcc-0a20-4f77-827e-c6f94065e571","system_id":"levelo_inurba_marseille","lat":43.21742,"lon":5.34602,"is_reserved":false,"is_disabled":false,"rental_uris":{"android":"levelo://app?vid=46a98dcc-0a20-4f77-827e-c6f94065e571","ios":"levelo://app?vid=46a98dcc-0a20-4f77-827e-c6f94065e571"},"vehicle_type_id":"4","last_reported":1751537510,"current_range_meters":22800,"station_id":"","pricing_plan_id":"cebpf4jnsgd1na2vs0mg"},{"bike_id":"25e61134-769d-40c5-a5ac-d02110bae8f4","system_id":"levelo_inurba_marseille","lat":43.29305,"lon":5.3745,"is_reserved":false,"is_disabled":false,"rental_uris":{"android":"levelo://app?vid=25e61134-769d-40c5-a5ac-d02110bae8f4","ios":"levelo://app?vid=25e61134-769d-40c5-a5ac-d02110bae8f4"},"vehicle_type_id":"4","last_reported":1751537510,"current_range_meters":22800,"station_id":"ce4bgi12rcd13ifvqb70","pricing_plan_id":"cebpf4jnsgd1na2vs0mg"},{"bike_id":"294e76e5-7a1c-4b6a-aae0-a5fc5a502434","system_id":"levelo_inurba_marseille","lat":43.29856,"lon":5.36288,"is_reserved":false,"is_disabled":false,"rental_uris":{"android":"levelo://app?vid=294e76e5-7a1c-4b6a-aae0-a5fc5a502434","ios":"levelo://app?vid=294e76e5-7a1c-4b6a-aae0-a5fc5a502434"},"vehicle_type_id":"4","last_reported":1751537510,"current_range_meters":22800,"station_id":"ce4bgpp2rcd13ifvqc3g","pricing_plan_id":"cebpf4jnsgd1na2vs0mg"},{"bike_id":"6bcf91b9-b197-484c-adee-835c73be0db4","system_id":"levelo_inurba_marseille","lat":43.30568,"lon":5.36519,"is_reserved":false,"is_disabled":false,"rental_uris":{"android":"levelo://app?vid=6bcf91b9-b197-484c-adee-835c73be0db4","ios":"levelo://app?vid=6bcf91b9-b197-484c-adee-835c73be0db4"},"vehicle_type_id":"4","last_reported":1751537510,"current_range_meters":22800,"station_id":"ce4bgs12rcd13ifvqcag","pricing_plan_id":"cebpf4jnsgd1na2vs0mg"},{"bike_id":"676129ca-e142-463c-9e7c-86ae9868955a","system_id":"levelo_inurba_marseille","lat":43.29635,"lon":5.40596,"is_reserved":false,"is_disabled":false,"rental_uris":{"android":"levelo://app?vid=676129ca-e142-463c-9e7c-86ae9868955a","ios":"levelo://app?vid=676129ca-e142-463c-9e7c-86ae9868955a"},"vehicle_type_id":"4","last_reported":1751537510,"current_range_meters":22800,"station_id":"ce4bh0h2rcd13ifvqd60","pricing_plan_id":"cebpf4jnsgd1na2vs0mg"},