{"last_updated":1760605931,"ttl":60,"version":"2.2","data":{"bikes":[{"bike_id":"1b78d50e-e95b-419e-a5ec-c3093b7e141a","system_id":"levelo_inurba_marseille","lat":43.337444,"lon":5.374475,"is_reserved":false,"is_disabled":true,"rental_uris":{"android":"levelo://app?vid=1b78d50e-e95b-419e-a5ec-c3093b7e141a","ios":"levelo://app?vid=1b78d50e-e95b-419e-a5ec-c3093b7e141a"},"vehicle_type_id":"4","last_reported":1760605931,"current_range_meters":0,"station_id":"","pricing_plan_id":"cebpf4jnsgd1na2vs0mg"},{"bike_id":"84c22208-7ddb-49b8-be8e-b34b5bdf05b2","system_id":"levelo_inurba_marseille","lat":43.33771,"lon":5.37424,"is_reserved":false,"is_disabled":true,"rental_uris":{"android":"levelo://app?vid=84c22208-7ddb-49b8-be8e-b34b5bdf05b2","ios":"levelo://app?vid=84c22208-7ddb-49b8-be8e-b34b5bdf05b2"},"vehicle_type_id":"4","last_reported":1760605931,"current_range_meters":0,"station_id":"","pricing_plan_id":"cebpf4jnsgd1na2vs0mg"},{"bike_id":"da90025a-3512-4db8-9c5c-f808888b7e59","system_id":"levelo_inurba_marseille","lat":43.33751,"lon":5.37456,"is_reserved":false,"is_disabled":true,"rental_uris":{"android":"levelo://app?vid=da90025a-3512-4db8-9c5c-f808888b7e59","ios":"levelo://app?vid=da90025a-3512-4db8-9c5c-f808888b7e59"},"vehicle_type_id":"4","last_reported":1760605931,"current_range_meters":0,"station_id":"","pricing_plan_id":"cebpf4jnsgd1na2vs0mg"},{"bike_id":"783b0905-e73e-4043-b791-e38f037df91f","system_id":"levelo_inurba_marseille","lat":43.33747,"lon":5.37463,"is_reserved":false,"is_disabled":true,"rental_uris":{"android":"levelo://app?vid=783b0905-e73e-4043-b791-e38f037df91f","ios":"levelo://app?vid=783b0905-e73e-4043-b791-e38f037df91f"},"vehicle_type_id":"1","last_reported":1760605931,"current_range_meters":0,"station_id":"","pricing_plan_id":"cebpf4jnsgd1na2vs0mg"},{"bike_id":"8d89ee17-9f9e-4689-8ca8-8bd05eb5782d","system_id":"levelo_inurba_marseille","lat":43.33737,"lon":5.37465,"is_reserved":false,"is_disabled":true,"rental_uris":{"android":"levelo://app?vid=8d89ee17-9f9e-4689-8ca8-8bd05eb5782d","ios":"levelo://app?vid=8d89ee17-9f9e-4689-8ca8-8bd05eb5782d"},"vehicle_type_id":"4","last_reported":1760605931,"current_range_meters":0,"station_id":"","pricing_plan_id":"cebpf4jnsgd1na2vs0mg"},{"bike_id":"0ab0967e-1041-44e0-b599-5f9a08360f34","system_id":"levelo_inurba_marseille","lat":43.33755,"lon":5.37468,"is_reserved":false,"is_disabled":true,"rental_uris":{"android":"levelo://app?vid=0ab0967e-1041-44e0-b599-5f9a08360f34","ios":"levelo://app?vid=0ab0967e-1041-44e0-b599-5f9a08360f34"},"vehicle_type_id":"4","last_reported":1760605931,"current_range_meters":0,"station_id":"","pricing_plan_id":"cebpf4jnsgd1na2vs0mg"},{"bike_id":"44c5d8b8-3b93-4ee7-95d3-747bcabcce2c","system_id":"levelo_inurba_marseille","lat":43.337444,"lon":5.374475,"is_reserved":false,"is_disabled":true,"rental_uris":{"android":"levelo://app?vid=44c5d8b8-3b93-4ee7-95d3-747bcabcce2c","ios":"levelo://app?vid=44c5d8b8-3b93-4ee7-95d3-747bcabcce2c"},"vehicle_type_id":"4","last_reported":1760605931,"current_range_meters":0,"station_id":"","pricing_plan_id":"cebpf4jnsgd1na2vs0mg"},{"bike_id":"29f607de-69fd-4e0e-99ca-072e5b9ced5e","system_id":"levelo_inurba_marseille","lat":43.317375,"lon":5.405511,"is_reserved":false,"is_disabled":true,"rental_uris":{"android":"levelo://app?vid=29f607de-69fd-4e0e-99ca-072e5b9ced5e","ios":"levelo://app?vid=29f607de-69fd-4e0e-99ca-072e5b9ced5e"},"vehicle_type_id":"4","last_reported":1760605931,"current_range_meters":0,"station_id":"","pricing_plan_id":"cebpf4jnsgd1na2vs0mg"},{"bike_id":"132126b7-5666-425a-a1ed-3e9c9286f003","system_id":"levelo_inurba_marseille","lat":43.28008,"lon":5.41006,"is_reserved":false,"is_disabled":true,"rental_uris":{"android":"levelo://app?vid=132126b7-5666-425a-a1ed-3e9c9286f003","ios":"levelo://app?vid=132126b7-5666-425a-a1ed-3e9c9286f003"},"vehicle_type_id":"4","last_reported":1760605931,"current_range_meters":0,"station_id":"","pricing_plan_id":"cebpf4jnsgd1na2vs0mg"},{"bike_id":"48f50893-a784-4606-81fd-1517c053f3f7","system_id":"levelo_inurba_marseille","lat":43.29254,"lon":5.37354,"is_reserved":false,"is_disabled":true,"rental_uris":{"android":"levelo://app?vid=48f50893-a784-4606-81fd-1517c053f3f7","ios":"levelo://app?vid=48f50893-a784-4606-81fd-1517c053f3f7"},"vehicle_type_id":"4","last_reported":1760605931,"current_range_meters":0,"station_id":"","pricing_plan_id":"cebpf4jnsgd1na2vs0mg"},{"bike_id":"af233c89-ff22-4fc0-a87b-2353168c05dd","system_id":"levelo_inurba_marseille","lat":43.27413,"lon":5.41169,"is_reserved":false,"is_disabled":true,"rental_uris":{"android":"levelo://app?vid=af233c89-ff22-4fc0-a87b-2353168c05dd","ios":"levelo://app?vid=af233c89-ff22-4fc0-a87b-2353168c05dd"},"vehicle_type_id":"4","last_reported":1760605931,"current_range_meters":0,"station_id":"","pricing_plan_id":"cebpf4jnsgd1na2vs0mg"},{"bike_id":"e174ec7a-3d90-4146-9085-b8a14d5ce575","system_id":"levelo_inurba_marseille","lat":43.249767,"lon":5.401329,"is_reserved":false,"is_disabled":true,"rental_uris":{"android":"levelo://app?vid=e174ec7a-3d90-4146-9085-b8a14d5ce575","ios":"levelo://app?vid=e174ec7a-3d90-4146-9085-b8a14d5ce575"},"vehicle_type_id":"4","last_reported":1760605931,"current_range_meters":0,"station_id":"","pricing_plan_id":"cebpf4jnsgd1na2vs0mg"},{"bike_id":"c1893587-e5ad-4b72-a3e6-189c91e5c719","system_id":"levelo_inurba_marseille","lat":43.28257,"lon":5.39185,"is_reserved":false,"is_disabled":true,"rental_uris":{"android":"levelo://app?vid=c1893587-e5ad-4b72-a3e6-189c91e5c719","ios":"levelo://app?vid=c1893587-e5ad-4b72-a3e6-189c91e5c719"},"vehicle_type_id":"4","last_reported":1760605931,"current_range_meters":0,"station_id":"","pricing_plan_id":"cebpf4jnsgd1na2vs0mg"},{"bike_id":"83560911-40e0-4475-b727-bda6aeb6ed60","system_id":"levelo_inurba_marseille","lat":43.225331,"lon":5.348328,"is_reserved":false,"is_disabled":true,"rental_uris":{"android":"levelo://app?vid=83560911-40e0-4475-b727-bda6aeb6ed60","ios":"levelo://app?vid=83560911-40e0-4475-b727-bda6aeb6ed60"},"vehicle_type_id":"4","last_reported":1760605931,"current_range_meters":0,"station_id":"","pricing_plan_id":"cebpf4jnsgd1na2vs0mg"},{"bike_id":"3327e998-6a1b-431b-a68a-176444eaf7d0","system_id":"levelo_inurba_marseille","lat":43.29662,"lon":5.36757,"is_reserved":false,"is_disabled":true,"rental_uris":{"android":"levelo://app?vid=3327e998-6a1b-431b-a68a-176444eaf7d0","ios":"levelo://app?vid=3327e998-6a1b-431b-a68a-176444eaf7d0"},"vehicle_type_id":"4","last_reported":1760605931,"current_range_meters":0,"station_id":"","pricing_plan_id":"cebpf4jnsgd1na2vs0mg"},{"bike_id":"4c49ff48-f815-4dd0-8fd4-375b27e08d94","system_id":"levelo_inurba_marseille","lat":43.29147,"lon":5.40795,"is_reserved":false,"is_disabled":true,"rental_uris":{"android":"levelo://app?vid=4c49ff48-f815-4dd0-8fd4-375b27e08d94","ios":"levelo://app?vid=4c49ff48-f815-4dd0-8fd4-375b27e08d94"},"vehicle_type_id":"4","last_reported":1760605931,"current_range_meters":0,"station_id":"","pricing_plan_id":"cebpf4jnsgd1na2vs0mg"},{"bike_id":"6776cb03-734b-4d27-9345-e3fc5cb1d40c","system_id":"levelo_inurba_marseille","lat":43.26343,"lon":5.40102,"is_reserved":false,"is_disabled":true,"rental_uris":{"android":"levelo://app?vid=6776cb03-734b-4d27-9345-e3fc5cb1d40c","ios":"levelo://app?vid=6776cb03-734b-4d27-9345-e3fc5cb1d40c"},"vehicle_type_id":"4","last_reported":1760605931,"current_range_meters":0,"station_id":"","pricing_plan_id":"cebpf4jnsgd1na2vs0mg"},{"bike_id":"3804a29c-a782-4c50-a410-9157f2094310","system_id":"levelo_inurba_marseille","lat":43.27447,"lon":5.38498,"is_reserved":false,"is_disabled":true,"rental_uris":{"android":"levelo://app?vid=3804a29c-a782-4c50-a410-9157f2094310","ios":"levelo://app?vid=3804a29c-a782-4c50-a410-9157f2094310"},"vehicle_type_id":"4","last_reported":1760605931,"current_range_meters":0,"station_id":"","pricing_plan_id":"cebpf4jnsgd1na2vs0mg"},{"bike_id":"c5939fc8-9930-4946-980f-efc9f762c9ae","system_id":"levelo_inurba_marseille","lat":43.251645,"lon":5.375516,"is_reserved":false,"is_disabled":true,"rental_uris":{"android":"levelo://app?vid=c5939fc8-9930-4946-980f-efc9f762c9ae","ios":"levelo://app?vid=c5939fc8-9930-4946-980f-efc9f762c9ae"},"vehicle_type_id":"4","last_reported":1760605931,"current_range_meters":0,"station_id":"","pricing_plan_id":"cebpf4jnsgd1na2vs0mg"},{"bike_id":"4b0f356a-7a97-4f4e-85ee-bd2469184852","system_id":"levelo_inurba_marseille","lat":43.27947,"lon":5.41517,"is_reserved":false,"is_disabled":true,"rental_uris":{"android":"levelo://app?vid=4b0f356a-7a97-4f4e-85ee-bd2469184852","ios":"levelo://app?vid=4b0f356a-7a97-4f4e-85ee-bd2469184852"},"vehicle_type_id":"4","last_reported":1760605931,"current_range_meters":0,"station_id":"","pricing_plan_id":"cebpf4jnsgd1na2vs0mg"},{"bike_id":"124077fa-3fea-4e89-99ac-8687f87c4c44","system_id":"levelo_inurba_marseille","lat":43.2954,"lon":5.383068,"is_reserved":false,"is_disabled":true,"rental_uris":{"android":"levelo://app?vid=124077fa-3fea-4e89-99ac-8687f87c4c44","ios":"levelo://app?vid=124077fa-3fea-4e89-99ac-8687f87c4c44"},"vehicle_type_id":"4","last_reported":1760605931,"current_range_meters":0,"station_id":"","pricing_plan_id":"cebpf4jnsgd1na2vs0mg"},{"bike_id":"14b2c2ae-b21d-4422-a602-7ad9cf908478","system_id":"levelo_inurba_marseille","lat":43.279369,"lon":5.412283,"is_reserved":false,"is_disabled":true,"rental_uris":{"android":"levelo://app?vid=14b2c2ae-b21d-4422-a602-7ad9cf908478","ios":"levelo://app?vid=14b2c2ae-b21d-4422-a602-7ad9cf908478"},"vehicle_type_id":"4","last_reported":1760605931,"current_range_meters":0,"station_id":"","pricing_plan_id":"cebpf4jnsgd1na2vs0mg"},{"bike_id":"494d33d3-6ab9-4c72-9fe7-17d635a4c1a2","system_id":"levelo_inurba_marseille","lat":43.23775,"lon":5.43572,"is_reserved":false,"is_disabled":true,"rental_uris":{"android":"levelo://app?vid=494d33d3-6ab9-4c72-9fe7-17d635a4c1a2","ios":"levelo://app?vid=494d33d3-6ab9-4c72-9fe7-17d635a4c1a2"},"vehicle_type_id":"4","last_reported":1760605931,"current_range_meters":0,"station_id":"","pricing_plan_id":"cebpf4jnsgd1na2vs0mg"},{"bike_id":"b93c5eae-1b48-400a-8142-21b3a9bfdc31","system_id":"levelo_inurba_marseille","lat":43.29265,"lon":5.37627,"is_reserved":false,"is_disabled":true,"rental_uris":{"android":"levelo://app?vid=b93c5eae-1b48-400a-8142-21b3a9bfdc31","ios":"levelo://app?vid=b93c5eae-1b48-400a-8142-21b3a9bfdc31"},"vehicle_type_id":"4","last_reported":1760605931,"current_range_meters":0,"station_id":"ce4bgi12rcd13ifvqb80","pricing_plan_id":"cebpf4jnsgd1na2vs0mg"},{"bike_id":"8dd6dd64-a909-4d4a-a9fa-ad7af633ef66","system_id":"levelo_inurba_marseille","lat":43.29794,"lon":5.38101,"is_reserved":false,"is_disabled":true,"rental_uris":{"android":"levelo://app?vid=8dd6dd64-a909-4d4a-a9fa-ad7af633ef66","ios":"levelo://app?vid=8dd6dd64-a909-4d4a-a9fa-ad7af633ef66"},"vehicle_type_id":"4","last_reported":1760605931,"current_range_meters":0,"station_id":"ce4bgip2rcd13ifvqbb0","pricing_plan_id":"cebpf4jnsgd1na2vs0mg"},{"bike_id":"62bcc097-ed67-4321-b493-952c5997167f","system_id":"levelo_inurba_marseille","lat":43.30153,"lon":5.38082,"is_reserved":false,"is_disabled":true,"rental_uris":{"android":"levelo://app?vid=62bcc097-ed67-4321-b493-952c5997167f","ios":"levelo://app?vid=62bcc097-ed67-4321-b493-952c5997167f"},"vehicle_type_id":"4","last_reported":1760605931,"current_range_meters":0,"station_id":"ce4bgjp2rcd13ifvqbh0","pricing_plan_id":"cebpf4jnsgd1na2vs0mg"},{"bike_id":"528f3c09-446d-4561-9f6f-79d1ade7b327","system_id":"levelo_inurba_marseille","lat":43.316746,"lon":5.404834,"is_reserved":false,"is_disabled":true,"rental_uris":{"android":"levelo://app?vid=528f3c09-446d-4561-9f6f-79d1ade7b327","ios":"levelo://app?vid=528f3c09-446d-4561-9f6f-79d1ade7b327"},"vehicle_type_id":"4","last_reported":1760605931,"current_range_meters":0,"station_id":"ce4bh012rcd13ifvqd00","pricing_plan_id":"cebpf4jnsgd1na2vs0mg"},{"bike_id":"3c48b6d3-7897-41ef-a509-fb337553b010","system_id":"levelo_inurba_marseille","lat":43.30129,"lon":5.39872,"is_reserved":false,"is_disabled":true,"rental_uris":{"android":"levelo://app?vid=3c48b6d3-7897-41ef-a509-fb337553b010","ios":"levelo://app?vid=3c48b6d3-7897-41ef-a509-fb337553b010"},"vehicle_type_id":"4","last_reported":1760605931,"current_range_meters":0,"station_id":"ce4bh0h2rcd13ifvqd40","pricing_plan_id":"cebpf4jnsgd1na2vs0mg"},{"bike_id":"21a18d8d-acf0-4656-ac74-5cb3dd19470a","system_id":"levelo_inurba_marseille","lat":43.291949,"lon":5.393149,"is_reserved":false,"is_disabled":true,"rental_uris":{"android":"levelo://app?vid=21a18d8d-acf0-4656-ac74-5cb3dd19470a","ios":"levelo://app?vid=21a18d8d-acf0-4656-ac74-5cb3dd19470a"},"vehicle_type_id":"4","last_reported":1760605931,"current_range_meters":0,"station_id":"ce4bh192rcd13ifvqdd0","pricing_plan_id":"cebpf4jnsgd1na2vs0mg"},{"bike_id":"22d60d16-0746-4fb9-964b-e045c50b15ff","system_id":"levelo_inurba_marseille","lat":43.28563,"lon":5.39499,"is_reserved":false,"is_disabled":true,"rental_uris":{"android":"levelo://app?vid=22d60d16-0746-4fb9-964b-e045c50b15ff","ios":"levelo://app?vid=22d60d16-0746-4fb9-964b-e045c50b15ff"},"vehicle_type_id":"4","last_reported":1760605931,"current_range_meters":0,"station_id":"ce4bh292rcd13ifvqdg0","pricing_plan_id":"cebpf4jnsgd1na2vs0mg"},{"bike_id":"2f6f310d-44af-4e18-aaac-ed7dc7f4b732","system_id":"levelo_inurba_marseille","lat":43.29033,"lon":5.39972,"is_reserved":false,"is_disabled":true,"rental_uris":{"android":"levelo://app?vid=2f6f310d-44af-4e18-aaac-ed7dc7f4b732","ios":"levelo://app?vid=2f6f310d-44af-4e18-aaac-ed7dc7f4b732"},"vehicle_type_id":"4","last_reported":1760605931,"current_range_meters":0,"station_id":"ce4bh392rcd13ifvqdm0","pricing_plan_id":"cebpf4jnsgd1na2vs0mg"},{"bike_id":"da083e7a-d33e-4e05-a23d-204c54050a7b","system_id":"levelo_inurba_marseille","lat":43.28471,"lon":5.3841,"is_reserved":false,"is_disabled":true,"rental_uris":{"android":"levelo://app?vid=da083e7a-d33e-4e05-a23d-204c54050a7b","ios":"levelo://app?vid=da083e7a-d33e-4e05-a23d-204c54050a7b"},"vehicle_type_id":"4","last_reported":1760605931,"current_range_meters":0,"station_id":"ce4bh512rcd13ifvqe3g","pricing_plan_id":"cebpf4jnsgd1na2vs0mg"},{"bike_id":"6cc50969-aa1a-469c-94df-374ec434f6ec","system_id":"levelo_inurba_marseille","lat":43.29011,"lon":5.35586,"is_reserved":false,"is_disabled":true,"rental_uris":{"android":"levelo://app?vid=6cc50969-aa1a-469c-94df-374ec434f6ec","ios":"levelo://app?vid=6cc50969-aa1a-469c-94df-374ec434f6ec"},"vehicle_type_id":"4","last_reported":1760605931,"current_range_meters":0,"station_id":"ce4bhb92rcd13ifvqen0","pricing_plan_id":"cebpf4jnsgd1na2vs0mg"},{"bike_id":"2aa20560-0bc2-4868-92b8-8419e3b5cd8d","system_id":"levelo_inurba_marseille","lat":43.26551,"lon":5.37278,"is_reserved":false,"is_disabled":true,"rental_uris":{"android":"levelo://app?vid=2aa20560-0bc2-4868-92b8-8419e3b5cd8d","ios":"levelo://app?vid=2aa20560-0bc2-4868-92b8-8419e3b5cd8d"},"vehicle_type_id":"4","last_reported":1760605931,"current_range_meters":0,"station_id":"ce4bhg12rcd13ifvqf70","pricing_plan_id":"cebpf4jnsgd1na2vs0mg"},{"bike_id":"cb09a8d9-0bf2-49ff-83d0-ea8c2ce30ced","system_id":"levelo_inurba_marseille","lat":43.26578,"lon":5.40301,"is_reserved":false,"is_disabled":true,"rental_uris":{"android":"levelo://app?vid=cb09a8d9-0bf2-49ff-83d0-ea8c2ce30ced","ios":"levelo://app?vid=cb09a8d9-0bf2-49ff-83d0-ea8c2ce30ced"},"vehicle_type_id":"4","last_reported":1760605931,"current_range_meters":0,"station_id":"ce4bhmp2rcd13ifvqgng","pricing_plan_id":"cebpf4jnsgd1na2vs0mg"},{"bike_id":"f21a055a-8441-46c8-8e8d-906f22c06774","system_id":"levelo_inurba_marseille","lat":43.28217,"lon":5.39064,"is_reserved":false,"is_disabled":true,"rental_uris":{"android":"levelo://app?vid=f21a055a-8441-46c8-8e8d-906f22c06774","ios":"levelo://app?vid=f21a055a-8441-46c8-8e8d-906f22c06774"},"vehicle_type_id":"4","last_reported":1760605931,"current_range_meters":0,"station_id":"ce4bhn92rcd13ifvqgsg","pricing_plan_id":"cebpf4jnsgd1na2vs0mg"},{"bike_id":"d2969e69-ec65-4262-9709-9e0b1379f210","system_id":"levelo_inurba_marseille","lat":43.27953,"lon":5.41051,"is_reserved":false,"is_disabled":true,"rental_uris":{"android":"levelo://app?vid=d2969e69-ec65-4262-9709-9e0b1379f210","ios":"levelo://app?vid=d2969e69-ec65-4262-9709-9e0b1379f210"},"vehicle_type_id":"4","last_reported":1760605931,"current_range_meters":0,"station_id":"ce4bhnp2rcd13ifvqh0g","pricing_plan_id":"cebpf4jnsgd1na2vs0mg"},{"bike_id":"b674281a-eace-4038-a66b-16c5ca6e6200","system_id":"levelo_inurba_marseille","lat":43.325454,"lon":5.414344,"is_reserved":false,"is_disabled":true,"rental_uris":{"android":"levelo://app?vid=b674281a-eace-4038-a66b-16c5ca6e6200","ios":"levelo://app?vid=b674281a-eace-4038-a66b-16c5ca6e6200"},"vehicle_type_id":"4","last_reported":1760605931,"current_range_meters":0,"station_id":"ce4bhq12rcd13ifvqhhg","pricing_plan_id":"cebpf4jnsgd1na2vs0mg"},{"bike_id":"62b748d2-7193-4577-81bf-9cdd82f04b30","system_id":"levelo_inurba_marseille","lat":43.32366,"lon":5.36743,"is_reserved":false,"is_disabled":true,"rental_uris":{"android":"levelo://app?vid=62b748d2-7193-4577-81bf-9cdd82f04b30","ios":"levelo://app?vid=62b748d2-7193-4577-81bf-9cdd82f04b30"},"vehicle_type_id":"4","last_reported":1760605931,"current_range_meters":0,"station_id":"ce4bhsh2rcd13ifvqi2g","pricing_plan_id":"cebpf4jnsgd1na2vs0mg"},{"bike_id":"b58cbbdf-bef0-4233-9af2-f737053b70a4","system_id":"levelo_inurba_marseille","lat":43.28599,"lon":5.3708,"is_reserved":false,"is_disabled":true,"rental_uris":{"android":"levelo://app?vid=b58cbbdf-bef0-4233-9af2-f737053b70a4","ios":"levelo://app?vid=b58cbbdf-bef0-4233-9af2-f737053b70a4"},"vehicle_type_id":"4","last_reported":1760605931,"current_range_meters":0,"station_id":"ce4bht12rcd13ifvqi60","pricing_plan_id":"cebpf4jnsgd1na2vs0mg"},{"bike_id":"8e9f0658-d50d-4e6e-82da-330ef90da38c","system_id":"levelo_inurba_marseille","lat":43.337444,"lon":5.374475,"is_reserved":false,"is_disabled":true,"rental_uris":{"android":"levelo://app?vid=8e9f0658-d50d-4e6e-82da-330ef90da38c","ios":"levelo://app?vid=8e9f0658-d50d-4e6e-82da-330ef90da38c"},"vehicle_type_id":"4","last_reported":1760605931,"current_range_meters":0,"station_id":"cpo3342slgdg3j2ifvpg","pricing_plan_id":"cebpf4jnsgd1na2vs0mg"},{"bike_id":"4e9ab92e-7d1e-48f0-a83a-4a116fd7dffa","system_id":"levelo_inurba_marseille","lat":43.24637,"lon":5.43155,"is_reserved":false,"is_disabled":true,"rental_uris":{"android":"levelo://app?vid=4e9ab92e-7d1e-48f0-a83a-4a116fd7dffa","ios":"levelo://app?vid=4e9ab92e-7d1e-48f0-a83a-4a116fd7dffa"},"vehicle_type_id":"4","last_reported":1760605931,"current_range_meters":0,"station_id":"st_d2m6c4gdas8pm72e190g","pricing_plan_id":"cebpf4jnsgd1na2vs0mg"},{"bike_id":"b0a6fbac-89b7-4199-8627-b210815fea76","system_id":"levelo_inurba_marseille","lat":43.26752,"lon":5.39388,"is_reserved":false,"is_disabled":true,"rental_uris":{"android":"levelo://app?vid=b0a6fbac-89b7-4199-8627-b210815fea76","ios":"levelo://app?vid=b0a6fbac-89b7-4199-8627-b210815fea76"},"vehicle_type_id":"4","last_reported":1760605931,"current_range_meters":400,"station_id":"","pricing_plan_id":"cebpf4jnsgd1na2vs0mg"},{"bike_id":"af122e3a-cd15-43a4-a152-67fd7883d470","system_id":"levelo_inurba_marseille","lat":43.29526,"lon":5.38517,"is_reserved":false,"is_disabled":true,"rental_uris":{"android":"levelo://app?vid=af122e3a-cd15-43a4-a152-67fd7883d470","ios":"levelo://app?vid=af122e3a-cd15-43a4-a152-67fd7883d470"},"vehicle_type_id":"4","last_reported":1760605931,"current_range_meters":400,"station_id":"ce4bgih2rcd13ifvqba0","pricing_plan_id":"cebpf4jnsgd1na2vs0mg"},{"bike_id":"30681bed-7873-4c59-941b-9674ada304e3","system_id":"levelo_inurba_marseille","lat":43.3032,"lon":5.36903,"is_reserved":false,"is_disabled":true,"rental_uris":{"android":"levelo://app?vid=30681bed-7873-4c59-941b-9674ada304e3","ios":"levelo://app?vid=30681bed-7873-4c59-941b-9674ada304e3"},"vehicle_type_id":"4","last_reported":1760605931,"current_range_meters":400,"station_id":"ce4bgqh2rcd13ifvqc5g","pricing_plan_id":"cebpf4jnsgd1na2vs0mg"},{"bike_id":"742310cf-ce83-4a6c-843f-87c2de4f60ea","system_id":"levelo_inurba_marseille","lat":43.30552,"lon":5.36543,"is_reserved":false,"is_disabled":true,"rental_uris":{"android":"levelo://app?vid=742310cf-ce83-4a6c-843f-87c2de4f60ea","ios":"levelo://app?vid=742310cf-ce83-4a6c-843f-87c2de4f60ea"},"vehicle_type_id":"4","last_reported":1760605931,"current_range_meters":400,"station_id":"ce4bgs12rcd13ifvqcag","pricing_plan_id":"cebpf4jnsgd1na2vs0mg"},{"bike_id":"a1376c1a-5ecb-46f1-99dc-a53a48072a14","system_id":"levelo_inurba_marseille","lat":43.30872,"lon":5.37192,"is_reserved":false,"is_disabled":true,"rental_uris":{"android":"levelo://app?vid=a1376c1a-5ecb-46f1-99dc-a53a48072a14","ios":"levelo://app?vid=a1376c1a-5ecb-46f1-99dc-a53a48072a14"},"vehicle_type_id":"4","last_reported":1760605931,"current_range_meters":400,"station_id":"ce4bguh2rcd13ifvqckg","pricing_plan_id":"cebpf4jnsgd1na2vs0mg"},{"bike_id":"bf9eae5d-24b1-4142-96a6-bb1a1665f20d","system_id":"levelo_inurba_marseille","lat":43.28418,"lon":5.37507,"is_reserved":false,"is_disabled":true,"rental_uris":{"android":"levelo://app?vid=bf9eae5d-24b1-4142-96a6-bb1a1665f20d","ios":"levelo://app?vid=bf9eae5d-24b1-4142-96a6-bb1a1665f20d"},"vehicle_type_id":"4","last_reported":1760605931,"current_range_meters":800,"station_id":"ce4bh412rcd13ifvqds0","pricing_plan_id":"cebpf4jnsgd1na2vs0mg"},{"bike_id":"daaf90c6-a6f4-409c-af78-3b62f04e2259","system_id":"levelo_inurba_marseille","lat":43.293,"lon":5.3746,"is_reserved":false,"is_disabled":true,"rental_uris":{"android":"levelo://app?vid=daaf90c6-a6f4-409c-af78-3b62f04e2259","ios":"levelo://app?vid=daaf90c6-a6f4-409c-af78-3b62f04e2259"},"vehicle_type_id":"4","last_reported":1760605931,"current_range_meters":1200,"station_id":"ce4bgi12rcd13ifvqb70","pricing_plan_id":"cebpf4jnsgd1na2vs0mg"},{"bike_id":"34203c10-00ba-4d64-9e1b-0b04bca30373","system_id":"levelo_inurba_marseille","lat":43.231506,"lon":5.437171,"is_reserved":false,"is_disabled":true,"rental_uris":{"android":"levelo://app?vid=34203c10-00ba-4d64-9e1b-0b04bca30373","ios":"levelo://app?vid=34203c10-00ba-4d64-9e1b-0b04bca30373"},"vehicle_type_id":"4","last_reported":1760605931,"current_range_meters":1600,"station_id":"ce4bhmp2rcd13ifvqgog","pricing_plan_id":"cebpf4jnsgd1na2vs0mg"},{"bike_id":"8a1ee572-6f78-41b7-a44a-df4db156121f","system_id":"levelo_inurba_marseille","lat":43.28723,"lon":5.39982,"is_reserved":false,"is_disabled":true,"rental_uris":{"android":"levelo://app?vid=8a1ee572-6f78-41b7-a44a-df4db156121f","ios":"levelo://app?vid=8a1ee572-6f78-41b7-a44a-df4db156121f"},"vehicle_type_id":"4","last_reported":1760605931,"current_range_meters":1600,"station_id":"ce4bho92rcd13ifvqh3g","pricing_plan_id":"cebpf4jnsgd1na2vs0mg"},{"bike_id":"b96af349-5e0c-4d72-891e-11f84df35c46","system_id":"levelo_inurba_marseille","lat":43.29971,"lon":5.38496,"is_reserved":false,"is_disabled":true,"rental_uris":{"android":"levelo://app?vid=b96af349-5e0c-4d72-891e-11f84df35c46","ios":"levelo://app?vid=b96af349-5e0c-4d72-891e-11f84df35c46"},"vehicle_type_id":"4","last_reported":1760605931,"current_range_meters":2000,"station_id":"ce4bgj92rcd13ifvqbd0","pricing_plan_id":"cebpf4jnsgd1na2vs0mg"},{"bike_id":"481c51e8-bfe7-4e75-a626-d0063a0f2153","system_id":"levelo_inurba_marseille","lat":43.305264,"lon":5.367002,"is_reserved":false,"is_disabled":true,"rental_uris":{"android":"levelo://app?vid=481c51e8-bfe7-4e75-a626-d0063a0f2153","ios":"levelo://app?vid=481c51e8-bfe7-4e75-a626-d0063a0f2153"},"vehicle_type_id":"4","last_reported":1760605931,"current_range_meters":2000,"station_id":"ce4bgrp2rcd13ifvqc9g","pricing_plan_id":"cebpf4jnsgd1na2vs0mg"},{"bike_id":"09c48c63-97e4-48d5-9c46-fe2c0bd4515e","system_id":"levelo_inurba_marseille","lat":43.30463,"lon":5.379,"is_reserved":false,"is_disabled":true,"rental_uris":{"android":"levelo://app?vid=09c48c63-97e4-48d5-9c46-fe2c0bd4515e","ios":"levelo://app?vid=09c48c63-97e4-48d5-9c46-fe2c0bd4515e"},"vehicle_type_id":"4","last_reported":1760605931,"current_range_meters":2000,"station_id":"ce4bgup2rcd13ifvqcn0","pricing_plan_id":"cebpf4jnsgd1na2vs0mg"},{"bike_id":"84c0440e-b420-461e-b18e-0e7527d877d9","system_id":"levelo_inurba_marseille","lat":43.262084,"lon":5.374426,"is_reserved":false,"is_disabled":true,"rental_uris":{"android":"levelo://app?vid=84c0440e-b420-461e-b18e-0e7527d877d9","ios":"levelo://app?vid=84c0440e-b420-461e-b18e-0e7527d877d9"},"vehicle_type_id":"4","last_reported":1760605931,"current_range_meters":2000,"station_id":"ce4bhgp2rcd13ifvqfc0","pricing_plan_id":"cebpf4jnsgd1na2vs0mg"},{"bike_id":"368a4183-c3b2-4e27-8699-cda245670b67","system_id":"levelo_inurba_marseille","lat":43.30157,"lon":5.39891,"is_reserved":false,"is_disabled":false,"rental_uris":{"android":"levelo://app?vid=368a4183-c3b2-4e27-8699-cda245670b67","ios":"levelo://app?vid=368a4183-c3b2-4e27-8699-cda245670b67"},"vehicle_type_id":"4","last_reported":1760605931,"current_range_meters":2800,"station_id":"ce4bh0h2rcd13ifvqd40","pricing_plan_id":"cebpf4jnsgd1na2vs0mg"},{"bike_id":"b4052f7a-27b6-479b-bdb3-900e233c35a7","system_id":"levelo_inurba_marseille","lat":43.295744,"lon":5.363953,"is_reserved":false,"is_disabled":false,"rental_uris":{"android":"levelo://app?vid=b4052f7a-27b6-479b-bdb3-900e233c35a7","ios":"levelo://app?vid=b4052f7a-27b6-479b-bdb3-900e233c35a7"},"vehicle_type_id":"4","last_reported":1760605931,"current_range_meters":4000,"station_id":"","pricing_plan_id":"cebpf4jnsgd1na2vs0mg"},{"bike_id":"0e36054b-179e-4526-8eda-2410081eb74b","system_id":"levelo_inurba_marseille","lat":43.298023,"lon":5.380892,"is_reserved":false,"is_disabled":false,"rental_uris":{"android":"levelo://app?vid=0e36054b-179e-4526-8eda-2410081eb74b","ios":"levelo://app?vid=0e36054b-179e-4526-8eda-2410081eb74b"},"vehicle_type_id":"4","last_reported":1760605931,"current_range_meters":4000,"station_id":"ce4bgip2rcd13ifvqbb0","pricing_plan_id":"cebpf4jnsgd1na2vs0mg"},{"bike_id":"211ddae9-8843-45a4-bfa1-388188d3c037","system_id":"levelo_inurba_marseille","lat":43.31165,"lon":5.38712,"is_reserved":false,"is_disabled":false,"rental_uris":{"android":"levelo://app?vid=211ddae9-8843-45a4-bfa1-388188d3c037","ios":"levelo://app?vid=211ddae9-8843-45a4-bfa1-388188d3c037"},"vehicle_type_id":"4","last_reported":1760605931,"current_range_meters":4000,"station_id":"ce4bgv12rcd13ifvqcp0","pricing_plan_id":"cebpf4jnsgd1na2vs0mg"},{"bike_id":"4368ed35-defd-4beb-86ea-8002f6edd09d","system_id":"levelo_inurba_marseille","lat":43.28483,"lon":5.38418,"is_reserved":false,"is_disabled":false,"rental_uris":{"android":"levelo://app?vid=4368ed35-defd-4beb-86ea-8002f6edd09d","ios":"levelo://app?vid=4368ed35-defd-4beb-86ea-8002f6edd09d"},"vehicle_type_id":"4","last_reported":1760605931,"current_range_meters":4000,"station_id":"ce4bh512rcd13ifvqe3g","pricing_plan_id":"cebpf4jnsgd1na2vs0mg"},{"bike_id":"1242699d-572f-45e1-b762-b27b29bac620","system_id":"levelo_inurba_marseille","lat":43.321077,"lon":5.367724,"is_reserved":false,"is_disabled":false,"rental_uris":{"android":"levelo://app?vid=1242699d-572f-45e1-b762-b27b29bac620","ios":"levelo://app?vid=1242699d-572f-45e1-b762-b27b29bac620"},"vehicle_type_id":"4","last_reported":1760605931,"current_range_meters":4000,"station_id":"ce4bhrh2rcd13ifvqhug","pricing_plan_id":"cebpf4jnsgd1na2vs0mg"},{"bike_id":"d6c50d7b-8b18-4f19-a4e7-8c526d79f6db","system_id":"levelo_inurba_marseille","lat":43.25333,"lon":5.4217,"is_reserved":false,"is_disabled":false,"rental_uris":{"android":"levelo://app?vid=d6c50d7b-8b18-4f19-a4e7-8c526d79f6db","ios":"levelo://app?vid=d6c50d7b-8b18-4f19-a4e7-8c526d79f6db"},"vehicle_type_id":"4","last_reported":1760605931,"current_range_meters":4000,"station_id":"st_d2m65c5bi1j21697t3ng","pricing_plan_id":"cebpf4jnsgd1na2vs0mg"},{"bike_id":"ead3e56d-cfc8-453b-855f-5486221bb5b2","system_id":"levelo_inurba_marseille","lat":43.30558,"lon":5.36548,"is_reserved":false,"is_disabled":false,"rental_uris":{"android":"levelo://app?vid=ead3e56d-cfc8-453b-855f-5486221bb5b2","ios":"levelo://app?vid=ead3e56d-cfc8-453b-855f-5486221bb5b2"},"vehicle_type_id":"4","last_reported":1760605931,"current_range_meters":4400,"station_id":"ce4bgs12rcd13ifvqcag","pricing_plan_id":"cebpf4jnsgd1na2vs0mg"},{"bike_id":"a54515ce-1671-4521-a6c7-9da7aa68d70c","system_id":"levelo_inurba_marseille","lat":43.27365,"lon":5.36263,"is_reserved":false,"is_disabled":false,"rental_uris":{"android":"levelo://app?vid=a54515ce-1671-4521-a6c7-9da7aa68d70c","ios":"levelo://app?vid=a54515ce-1671-4521-a6c7-9da7aa68d70c"},"vehicle_type_id":"4","last_reported":1760605931,"current_range_meters":4400,"station_id":"ce4bhbh2rcd13ifvqeo0","pricing_plan_id":"cebpf4jnsgd1na2vs0mg"},{"bike_id":"24d9c63e-e14e-475e-b808-608bafd3289f","system_id":"levelo_inurba_marseille","lat":43.22428,"lon":5.34657,"is_reserved":false,"is_disabled":false,"rental_uris":{"android":"levelo://app?vid=24d9c63e-e14e-475e-b808-608bafd3289f","ios":"levelo://app?vid=24d9c63e-e14e-475e-b808-608bafd3289f"},"vehicle_type_id":"4","last_reported":1760605931,"current_range_meters":4800,"station_id":"","pricing_plan_id":"cebpf4jnsgd1na2vs0mg"},{"bike_id":"bd9e5ceb-1137-4ead-b29c-458daaa877c6","system_id":"levelo_inurba_marseille","lat":43.291717,"lon":5.371567,"is_reserved":false,"is_disabled":false,"rental_uris":{"android":"levelo://app?vid=bd9e5ceb-1137-4ead-b29c-458daaa877c6","ios":"levelo://app?vid=bd9e5ceb-1137-4ead-b29c-458daaa877c6"},"vehicle_type_id":"4","last_reported":1760605931,"current_range_meters":4800,"station_id":"","pricing_plan_id":"cebpf4jnsgd1na2vs0mg"},{"bike_id":"1b69c478-0978-4b13-93dc-7396c1840a3a","system_id":"levelo_inurba_marseille","lat":43.26929,"lon":5.38924,"is_reserved":false,"is_disabled":false,"rental_uris":{"android":"levelo://app?vid=1b69c478-0978-4b13-93dc-7396c1840a3a","ios":"levelo://app?vid=1b69c478-0978-4b13-93dc-7396c1840a3a"},"vehicle_type_id":"4","last_reported":1760605931,"current_range_meters":4800,"station_id":"ce4bhhh2rcd13ifvqfl0","pricing_plan_id":"cebpf4jnsgd1na2vs0mg"},{"bike_id":"9cffbe07-72ae-4d07-8625-98007d8a776f","system_id":"levelo_inurba_marseille","lat":43.29567,"lon":5.37531,"is_reserved":false,"is_disabled":false,"rental_uris":{"android":"levelo://app?vid=9cffbe07-72ae-4d07-8625-98007d8a776f","ios":"levelo://app?vid=9cffbe07-72ae-4d07-8625-98007d8a776f"},"vehicle_type_id":"4","last_reported":1760605931,"current_range_meters":5600,"station_id":"ce4bgh92rcd13ifvqb50","pricing_plan_id":"cebpf4jnsgd1na2vs0mg"},{"bike_id":"97c0b449-609a-47a4-8fa1-4cb6474dacbc","system_id":"levelo_inurba_marseille","lat":43.285338,"lon":5.395021,"is_reserved":false,"is_disabled":false,"rental_uris":{"android":"levelo://app?vid=97c0b449-609a-47a4-8fa1-4cb6474dacbc","ios":"levelo://app?vid=97c0b449-609a-47a4-8fa1-4cb6474dacbc"},"vehicle_type_id":"4","last_reported":1760605931,"current_range_meters":5600,"station_id":"ce4bh292rcd13ifvqdg0","pricing_plan_id":"cebpf4jnsgd1na2vs0mg"},{"bike_id":"2a9088af-4241-403d-9c17-2a910cadb8db","system_id":"levelo_inurba_marseille","lat":43.28121,"lon":5.37836,"is_reserved":false,"is_disabled":false,"rental_uris":{"android":"levelo://app?vid=2a9088af-4241-403d-9c17-2a910cadb8db","ios":"levelo://app?vid=2a9088af-4241-403d-9c17-2a910cadb8db"},"vehicle_type_id":"4","last_reported":1760605931,"current_range_meters":5600,"station_id":"ce4bha12rcd13ifvqee0","pricing_plan_id":"cebpf4jnsgd1na2vs0mg"},{"bike_id":"eb9fdec9-99d7-422d-ba0b-35ee4d7c324b","system_id":"levelo_inurba_marseille","lat":43.22539,"lon":5.34837,"is_reserved":false,"is_disabled":false,"rental_uris":{"android":"levelo://app?vid=eb9fdec9-99d7-422d-ba0b-35ee4d7c324b","ios":"levelo://app?vid=eb9fdec9-99d7-422d-ba0b-35ee4d7c324b"},"vehicle_type_id":"4","last_reported":1760605931,"current_range_meters":6000,"station_id":"","pricing_plan_id":"cebpf4jnsgd1na2vs0mg"},{"bike_id":"ea03b3cc-1292-47b4-be02-be7c627b5349","system_id":"levelo_inurba_marseille","lat":43.25026,"lon":5.38919,"is_reserved":false,"is_disabled":false,"rental_uris":{"android":"levelo://app?vid=ea03b3cc-1292-47b4-be02-be7c627b5349","ios":"levelo://app?vid=ea03b3cc-1292-47b4-be02-be7c627b5349"},"vehicle_type_id":"4","last_reported":1760605931,"current_range_meters":6000,"station_id":"ce4bhgp2rcd13ifvqfd0","pricing_plan_id":"cebpf4jnsgd1na2vs0mg"},{"bike_id":"d86cc4e6-0873-4d34-b293-7fbd6491468e","system_id":"levelo_inurba_marseille","lat":43.29247,"lon":5.37646,"is_reserved":false,"is_disabled":false,"rental_uris":{"android":"levelo://app?vid=d86cc4e6-0873-4d34-b293-7fbd6491468e","ios":"levelo://app?vid=d86cc4e6-0873-4d34-b293-7fbd6491468e"},"vehicle_type_id":"4","last_reported":1760605931,"current_range_meters":6400,"station_id":"ce4bgi12rcd13ifvqb80","pricing_plan_id":"cebpf4jnsgd1na2vs0mg"},{"bike_id":"b37c6947-426d-4529-96b7-98433cfd4c6f","system_id":"levelo_inurba_marseille","lat":43.28464,"lon":5.38425,"is_reserved":false,"is_disabled":false,"rental_uris":{"android":"levelo://app?vid=b37c6947-426d-4529-96b7-98433cfd4c6f","ios":"levelo://app?vid=b37c6947-426d-4529-96b7-98433cfd4c6f"},"vehicle_type_id":"4","last_reported":1760605931,"current_range_meters":6400,"station_id":"ce4bh512rcd13ifvqe3g","pricing_plan_id":"cebpf4jnsgd1na2vs0mg"},{"bike_id":"903fa377-cc52-4300-8950-8fb0d0d1f8c6","system_id":"levelo_inurba_marseille","lat":43.27209,"lon":5.39183,"is_reserved":false,"is_disabled":false,"rental_uris":{"android":"levelo://app?vid=903fa377-cc52-4300-8950-8fb0d0d1f8c6","ios":"levelo://app?vid=903fa377-cc52-4300-8950-8fb0d0d1f8c6"},"vehicle_type_id":"4","last_reported":1760605931,"current_range_meters":6400,"station_id":"ce4bhhp2rcd13ifvqfm0","pricing_plan_id":"cebpf4jnsgd1na2vs0mg"},{"bike_id":"859dcf5c-2d93-4226-9c1e-3b58130126c5","system_id":"levelo_inurba_marseille","lat":43.29518,"lon":5.36135,"is_reserved":false,"is_disabled":false,"rental_uris":{"android":"levelo://app?vid=859dcf5c-2d93-4226-9c1e-3b58130126c5","ios":"levelo://app?vid=859dcf5c-2d93-4226-9c1e-3b58130126c5"},"vehicle_type_id":"4","last_reported":1760605931,"current_range_meters":6800,"station_id":"","pricing_plan_id":"cebpf4jnsgd1na2vs0mg"},{"bike_id":"00acfffb-f4e9-4f35-966e-8c211c0bb9ed","system_id":"levelo_inurba_marseille","lat":43.29258,"lon":5.37627,"is_reserved":false,"is_disabled":false,"rental_uris":{"android":"levelo://app?vid=00acfffb-f4e9-4f35-966e-8c211c0bb9ed","ios":"levelo://app?vid=00acfffb-f4e9-4f35-966e-8c211c0bb9ed"},"vehicle_type_id":"4","last_reported":1760605931,"current_range_meters":6800,"station_id":"ce4bgi12rcd13ifvqb80","pricing_plan_id":"cebpf4jnsgd1na2vs0mg"},{"bike_id":"85a23966-512f-4f2b-b4fe-757ce4562218","system_id":"levelo_inurba_marseille","lat":43.29801,"lon":5.38087,"is_reserved":false,"is_disabled":false,"rental_uris":{"android":"levelo://app?vid=85a23966-512f-4f2b-b4fe-757ce4562218","ios":"levelo://app?vid=85a23966-512f-4f2b-b4fe-757ce4562218"},"vehicle_type_id":"4","last_reported":1760605931,"current_range_meters":6800,"station_id":"ce4bgip2rcd13ifvqbb0","pricing_plan_id":"cebpf4jnsgd1na2vs0mg"},{"bike_id":"26545edc-91b5-4eb9-98b7-e06eae770ff2","system_id":"levelo_inurba_marseille","lat":43.31732,"lon":5.43913,"is_reserved":false,"is_disabled":false,"rental_uris":{"android":"levelo://app?vid=26545edc-91b5-4eb9-98b7-e06eae770ff2","ios":"levelo://app?vid=26545edc-91b5-4eb9-98b7-e06eae770ff2"},"vehicle_type_id":"4","last_reported":1760605931,"current_range_meters":7200,"station_id":"","pricing_plan_id":"cebpf4jnsgd1na2vs0mg"},{"bike_id":"724f91de-50c5-48b3-89bb-06c8eb2484fd","system_id":"levelo_inurba_marseille","lat":43.30539,"lon":5.38431,"is_reserved":false,"is_disabled":false,"rental_uris":{"android":"levelo://app?vid=724f91de-50c5-48b3-89bb-06c8eb2484fd","ios":"levelo://app?vid=724f91de-50c5-48b3-89bb-06c8eb2484fd"},"vehicle_type_id":"4","last_reported":1760605931,"current_range_meters":7200,"station_id":"ce4bgg92rcd13ifvqb30","pricing_plan_id":"cebpf4jnsgd1na2vs0mg"},{"bike_id":"8316f670-1f5d-4e55-b68c-c65effc12cd7","system_id":"levelo_inurba_marseille","lat":43.28415,"lon":5.34981,"is_reserved":false,"is_disabled":false,"rental_uris":{"android":"levelo://app?vid=8316f670-1f5d-4e55-b68c-c65effc12cd7","ios":"levelo://app?vid=8316f670-1f5d-4e55-b68c-c65effc12cd7"},"vehicle_type_id":"4","last_reported":1760605931,"current_range_meters":7200,"station_id":"ce4bhbh2rcd13ifvqepg","pricing_plan_id":"cebpf4jnsgd1na2vs0mg"},{"bike_id":"019419fe-82e1-4d3e-8bc2-0dedf61c1029","system_id":"levelo_inurba_marseille","lat":43.292227,"lon":5.392606,"is_reserved":false,"is_disabled":false,"rental_uris":{"android":"levelo://app?vid=019419fe-82e1-4d3e-8bc2-0dedf61c1029","ios":"levelo://app?vid=019419fe-82e1-4d3e-8bc2-0dedf61c1029"},"vehicle_type_id":"4","last_reported":1760605931,"current_range_meters":8000,"station_id":"ce4bh192rcd13ifvqdd0","pricing_plan_id":"cebpf4jnsgd1na2vs0mg"},{"bike_id":"397af507-ff2f-43a3-9460-ba5b4df7915e","system_id":"levelo_inurba_marseille","lat":43.29035,"lon":5.3756,"is_reserved":false,"is_disabled":false,"rental_uris":{"android":"levelo://app?vid=397af507-ff2f-43a3-9460-ba5b4df7915e","ios":"levelo://app?vid=397af507-ff2f-43a3-9460-ba5b4df7915e"},"vehicle_type_id":"4","last_reported":1760605931,"current_range_meters":8000,"station_id":"ce4bh692rcd13ifvqe90","pricing_plan_id":"cebpf4jnsgd1na2vs0mg"},{"bike_id":"3184a0e0-75d2-4a26-bab3-fbca9c4d5f52","system_id":"levelo_inurba_marseille","lat":43.32536,"lon":5.41422,"is_reserved":false,"is_disabled":false,"rental_uris":{"android":"levelo://app?vid=3184a0e0-75d2-4a26-bab3-fbca9c4d5f52","ios":"levelo://app?vid=3184a0e0-75d2-4a26-bab3-fbca9c4d5f52"},"vehicle_type_id":"4","last_reported":1760605931,"current_range_meters":8000,"station_id":"ce4bhq12rcd13ifvqhhg","pricing_plan_id":"cebpf4jnsgd1na2vs0mg"},{"bike_id":"e0863f88-6065-41da-9ecd-468f1156f9d8","system_id":"levelo_inurba_marseille","lat":43.27347,"lon":5.41408,"is_reserved":false,"is_disabled":false,"rental_uris":{"android":"levelo://app?vid=e0863f88-6065-41da-9ecd-468f1156f9d8","ios":"levelo://app?vid=e0863f88-6065-41da-9ecd-468f1156f9d8"},"vehicle_type_id":"4","last_reported":1760605931,"current_range_meters":8400,"station_id":"","pricing_plan_id":"cebpf4jnsgd1na2vs0mg"},{"bike_id":"afd3a141-6f64-4928-ba91-fca21b7af038","system_id":"levelo_inurba_marseille","lat":43.295756,"lon":5.364125,"is_reserved":false,"is_disabled":false,"rental_uris":{"android":"levelo://app?vid=afd3a141-6f64-4928-ba91-fca21b7af038","ios":"levelo://app?vid=afd3a141-6f64-4928-ba91-fca21b7af038"},"vehicle_type_id":"4","last_reported":1760605931,"current_range_meters":8400,"station_id":"","pricing_plan_id":"cebpf4jnsgd1na2vs0mg"},{"bike_id":"f4446fcb-8e31-443a-b978-3a32bb192da6","system_id":"levelo_inurba_marseille","lat":43.283826,"lon":5.394538,"is_reserved":false,"is_disabled":false,"rental_uris":{"android":"levelo://app?vid=f4446fcb-8e31-443a-b978-3a32bb192da6","ios":"levelo://app?vid=f4446fcb-8e31-443a-b978-3a32bb192da6"},"vehicle_type_id":"4","last_reported":1760605931,"current_range_meters":8400,"station_id":"ce4bgh92rcd13ifvqb50","pricing_plan_id":"cebpf4jnsgd1na2vs0mg"},{"bike_id":"8a10c461-67f4-430e-b291-229e5a9798d4","system_id":"levelo_inurba_marseille","lat":43.28946,"lon":5.3642,"is_reserved":false,"is_disabled":false,"rental_uris":{"android":"levelo://app?vid=8a10c461-67f4-430e-b291-229e5a9798d4","ios":"levelo://app?vid=8a10c461-67f4-430e-b291-229e5a9798d4"},"vehicle_type_id":"4","last_reported":1760605931,"current_range_meters":8400,"station_id":"ce4bhc92rcd13ifvqetg","pricing_plan_id":"cebpf4jnsgd1na2vs0mg"},{"bike_id":"56e8f168-0239-4dab-a231-9caf80fb776c","system_id":"levelo_inurba_marseille","lat":43.292676,"lon":5.376168,"is_reserved":false,"is_disabled":false,"rental_uris":{"android":"levelo://app?vid=56e8f168-0239-4dab-a231-9caf80fb776c","ios":"levelo://app?vid=56e8f168-0239-4dab-a231-9caf80fb776c"},"vehicle_type_id":"4","last_reported":1760605931,"current_range_meters":8800,"station_id":"","pricing_plan_id":"cebpf4jnsgd1na2vs0mg"},{"bike_id":"f26d01ee-6f0e-415b-a813-f6851d8866dc","system_id":"levelo_inurba_marseille","lat":43.301213,"lon":5.398596,"is_reserved":false,"is_disabled":false,"rental_uris":{"android":"levelo://app?vid=f26d01ee-6f0e-415b-a813-f6851d8866dc","ios":"levelo://app?vid=f26d01ee-6f0e-415b-a813-f6851d8866dc"},"vehicle_type_id":"4","last_reported":1760605931,"current_range_meters":8800,"station_id":"","pricing_plan_id":"cebpf4jnsgd1na2vs0mg"},{"bike_id":"dd7e4591-27a2-4518-931f-8526f0ea1d35","system_id":"levelo_inurba_marseille","lat":43.25494,"lon":5.37644,"is_reserved":false,"is_disabled":false,"rental_uris":{"android":"levelo://app?vid=dd7e4591-27a2-4518-931f-8526f0ea1d35","ios":"levelo://app?vid=dd7e4591-27a2-4518-931f-8526f0ea1d35"},"vehicle_type_id":"4","last_reported":1760605931,"current_range_meters":8800,"station_id":"ce4bhh12rcd13ifvqff0","pricing_plan_id":"cebpf4jnsgd1na2vs0mg"},{"bike_id":"07cc4909-d3cd-4779-b47a-cef8bf1329c9","system_id":"levelo_inurba_marseille","lat":43.25826,"lon":5.3943,"is_reserved":false,"is_disabled":false,"rental_uris":{"android":"levelo://app?vid=07cc4909-d3cd-4779-b47a-cef8bf1329c9","ios":"levelo://app?vid=07cc4909-d3cd-4779-b47a-cef8bf1329c9"},"vehicle_type_id":"4","last_reported":1760605931,"current_range_meters":8800,"station_id":"ce4bhip2rcd13ifvqft0","pricing_plan_id":"cebpf4jnsgd1na2vs0mg"},{"bike_id":"72ffca68-66c0-4aeb-ac77-768748612353","system_id":"levelo_inurba_marseille","lat":43.27499,"lon":5.42451,"is_reserved":false,"is_disabled":false,"rental_uris":{"android":"levelo://app?vid=72ffca68-66c0-4aeb-ac77-768748612353","ios":"levelo://app?vid=72ffca68-66c0-4aeb-ac77-768748612353"},"vehicle_type_id":"4","last_reported":1760605931,"current_range_meters":8800,"station_id":"ce4bhn92rcd13ifvqgrg","pricing_plan_id":"cebpf4jnsgd1na2vs0mg"},{"bike_id":"d1535785-517b-41ee-8ee0-1e9b8477afef","system_id":"levelo_inurba_marseille","lat":43.337444,"lon":5.374475,"is_reserved":false,"is_disabled":false,"rental_uris":{"android":"levelo://app?vid=d1535785-517b-41ee-8ee0-1e9b8477afef","ios":"levelo://app?vid=d1535785-517b-41ee-8ee0-1e9b8477afef"},"vehicle_type_id":"4","last_reported":1760605931,"current_range_meters":9200,"station_id":"","pricing_plan_id":"cebpf4jnsgd1na2vs0mg"},{"bike_id":"7028e430-f1fe-427b-8c46-22d94d1c545d","system_id":"levelo_inurba_marseille","lat":43.31629,"lon":5.36933,"is_reserved":false,"is_disabled":false,"rental_uris":{"android":"levelo://app?vid=7028e430-f1fe-427b-8c46-22d94d1c545d","ios":"levelo://app?vid=7028e430-f1fe-427b-8c46-22d94d1c545d"},"vehicle_type_id":"4","last_reported":1760605931,"current_range_meters":9200,"station_id":"","pricing_plan_id":"cebpf4jnsgd1na2vs0mg"},{"bike_id":"b0e3fac0-2cba-43db-8a27-05393f9977ec","system_id":"levelo_inurba_marseille","lat":43.297242,"lon":5.373265,"is_reserved":false,"is_disabled":false,"rental_uris":{"android":"levelo://app?vid=b0e3fac0-2cba-43db-8a27-05393f9977ec","ios":"levelo://app?vid=b0e3fac0-2cba-43db-8a27-05393f9977ec"},"vehicle_type_id":"4","last_reported":1760605931,"current_range_meters":9200,"station_id":"","pricing_plan_id":"cebpf4jnsgd1na2vs0mg"},{"bike_id":"f0622547-115c-4aab-a330-c8c9f80dea9e","system_id":"levelo_inurba_marseille","lat":43.28077,"lon":5.35231,"is_reserved":false,"is_disabled":false,"rental_uris":{"android":"levelo://app?vid=f0622547-115c-4aab-a330-c8c9f80dea9e","ios":"levelo://app?vid=f0622547-115c-4aab-a330-c8c9f80dea9e"},"vehicle_type_id":"4","last_reported":1760605931,"current_range_meters":9200,"station_id":"","pricing_plan_id":"cebpf4jnsgd1na2vs0mg"},{"bike_id":"8436a874-ff8a-4b94-b322-77532a1c08ea","system_id":"levelo_inurba_marseille","lat":43.25935,"lon":5.40904,"is_reserved":false,"is_disabled":false,"rental_uris":{"android":"levelo://app?vid=8436a874-ff8a-4b94-b322-77532a1c08ea","ios":"levelo://app?vid=8436a874-ff8a-4b94-b322-77532a1c08ea"},"vehicle_type_id":"4","last_reported":1760605931,"current_range_meters":9200,"station_id":"ce4bhm92rcd13ifvqglg","pricing_plan_id":"cebpf4jnsgd1na2vs0mg"},{"bike_id":"c5104aad-d988-4ab9-9a15-9d706b138fd1","system_id":"levelo_inurba_marseille","lat":43.24162,"lon":5.39732,"is_reserved":false,"is_disabled":false,"rental_uris":{"android":"levelo://app?vid=c5104aad-d988-4ab9-9a15-9d706b138fd1","ios":"levelo://app?vid=c5104aad-d988-4ab9-9a15-9d706b138fd1"},"vehicle_type_id":"4","last_reported":1760605931,"current_range_meters":9200,"station_id":"ce4bhn12rcd13ifvqgpg","pricing_plan_id":"cebpf4jnsgd1na2vs0mg"},{"bike_id":"6d02532e-4cb4-4048-bfac-6338972aaf99","system_id":"levelo_inurba_marseille","lat":43.34306,"lon":5.35012,"is_reserved":false,"is_disabled":false,"rental_uris":{"android":"levelo://app?vid=6d02532e-4cb4-4048-bfac-6338972aaf99","ios":"levelo://app?vid=6d02532e-4cb4-4048-bfac-6338972aaf99"},"vehicle_type_id":"4","last_reported":1760605931,"current_range_meters":9600,"station_id":"","pricing_plan_id":"cebpf4jnsgd1na2vs0mg"},{"bike_id":"888532e3-8dff-4083-96c9-cb159c428b8b","system_id":"levelo_inurba_marseille","lat":43.29284,"lon":5.3802,"is_reserved":false,"is_disabled":false,"rental_uris":{"android":"levelo://app?vid=888532e3-8dff-4083-96c9-cb159c428b8b","ios":"levelo://app?vid=888532e3-8dff-4083-96c9-cb159c428b8b"},"vehicle_type_id":"4","last_reported":1760605931,"current_range_meters":9600,"station_id":"","pricing_plan_id":"cebpf4jnsgd1na2vs0mg"},{"bike_id":"28da5b4e-f99f-4f24-9f45-721012a88385","system_id":"levelo_inurba_marseille","lat":43.30597,"lon":5.37228,"is_reserved":false,"is_disabled":false,"rental_uris":{"android":"levelo://app?vid=28da5b4e-f99f-4f24-9f45-721012a88385","ios":"levelo://app?vid=28da5b4e-f99f-4f24-9f45-721012a88385"},"vehicle_type_id":"4","last_reported":1760605931,"current_range_meters":9600,"station_id":"ce4bgqh2rcd13ifvqc4g","pricing_plan_id":"cebpf4jnsgd1na2vs0mg"},{"bike_id":"e8a19a34-b364-4dbd-8fcd-21e3d42202be","system_id":"levelo_inurba_marseille","lat":43.287687,"lon":5.379307,"is_reserved":false,"is_disabled":false,"rental_uris":{"android":"levelo://app?vid=e8a19a34-b364-4dbd-8fcd-21e3d42202be","ios":"levelo://app?vid=e8a19a34-b364-4dbd-8fcd-21e3d42202be"},"vehicle_type_id":"4","last_reported":1760605931,"current_range_meters":9600,"station_id":"ce4bh9p2rcd13ifvqec0","pricing_plan_id":"cebpf4jnsgd1na2vs0mg"},{"bike_id":"8b201c7f-350b-4b11-a189-db8bab3bb0b3","system_id":"levelo_inurba_marseille","lat":43.34103,"lon":5.40933,"is_reserved":false,"is_disabled":false,"rental_uris":{"android":"levelo://app?vid=8b201c7f-350b-4b11-a189-db8bab3bb0b3","ios":"levelo://app?vid=8b201c7f-350b-4b11-a189-db8bab3bb0b3"},"vehicle_type_id":"4","last_reported":1760605931,"current_range_meters":9600,"station_id":"ce4bhqh2rcd13ifvqhlg","pricing_plan_id":"cebpf4jnsgd1na2vs0mg"},{"bike_id":"6d0cbaa7-ce68-440d-8265-54ba0eac65b9","system_id":"levelo_inurba_marseille","lat":43.306009,"lon":5.372316,"is_reserved":false,"is_disabled":false,"rental_uris":{"android":"levelo://app?vid=6d0cbaa7-ce68-440d-8265-54ba0eac65b9","ios":"levelo://app?vid=6d0cbaa7-ce68-440d-8265-54ba0eac65b9"},"vehicle_type_id":"4","last_reported":1760605931,"current_range_meters":10000,"station_id":"ce4bgqh2rcd13ifvqc4g","pricing_plan_id":"cebpf4jnsgd1na2vs0mg"},{"bike_id":"7e4db153-2535-4f36-8eab-926f6094a51a","system_id":"levelo_inurba_marseille","lat":43.23183,"lon":5.39987,"is_reserved":false,"is_disabled":false,"rental_uris":{"android":"levelo://app?vid=7e4db153-2535-4f36-8eab-926f6094a51a","ios":"levelo://app?vid=7e4db153-2535-4f36-8eab-926f6094a51a"},"vehicle_type_id":"4","last_reported":1760605931,"current_range_meters":10000,"station_id":"ce4bhn12rcd13ifvqgqg","pricing_plan_id":"cebpf4jnsgd1na2vs0mg"},{"bike_id":"212a88fc-2b0b-41c9-b5a7-530e0b070596","system_id":"levelo_inurba_marseille","lat":43.29584,"lon":5.37506,"is_reserved":false,"is_disabled":false,"rental_uris":{"android":"levelo://app?vid=212a88fc-2b0b-41c9-b5a7-530e0b070596","ios":"levelo://app?vid=212a88fc-2b0b-41c9-b5a7-530e0b070596"},"vehicle_type_id":"4","last_reported":1760605931,"current_range_meters":10800,"station_id":"ce4bgh92rcd13ifvqb50","pricing_plan_id":"cebpf4jnsgd1na2vs0mg"},{"bike_id":"d7699866-29dd-41c5-9cb7-e5f7b9029d2c","system_id":"levelo_inurba_marseille","lat":43.29278,"lon":5.36846,"is_reserved":false,"is_disabled":false,"rental_uris":{"android":"levelo://app?vid=d7699866-29dd-41c5-9cb7-e5f7b9029d2c","ios":"levelo://app?vid=d7699866-29dd-41c5-9cb7-e5f7b9029d2c"},"vehicle_type_id":"4","last_reported":1760605931,"current_range_meters":10800,"station_id":"ce4bhbp2rcd13ifvqesg","pricing_plan_id":"cebpf4jnsgd1na2vs0mg"},{"bike_id":"2133d1a6-102f-478e-8fe7-f1b611edfd5c","system_id":"levelo_inurba_marseille","lat":43.266805,"lon":5.382623,"is_reserved":false,"is_disabled":false,"rental_uris":{"android":"levelo://app?vid=2133d1a6-102f-478e-8fe7-f1b611edfd5c","ios":"levelo://app?vid=2133d1a6-102f-478e-8fe7-f1b611edfd5c"},"vehicle_type_id":"4","last_reported":1760605931,"current_range_meters":10800,"station_id":"ce4bhg92rcd13ifvqf90","pricing_plan_id":"cebpf4jnsgd1na2vs0mg"},{"bike_id":"e892d517-9a78-4cba-a0ce-4839b25ed8f9","system_id":"levelo_inurba_marseille","lat":43.27191,"lon":5.39195,"is_reserved":false,"is_disabled":false,"rental_uris":{"android":"levelo://app?vid=e892d517-9a78-4cba-a0ce-4839b25ed8f9","ios":"levelo://app?vid=e892d517-9a78-4cba-a0ce-4839b25ed8f9"},"vehicle_type_id":"4","last_reported":1760605931,"current_range_meters":10800,"station_id":"ce4bhhp2rcd13ifvqfm0","pricing_plan_id":"cebpf4jnsgd1na2vs0mg"},{"bike_id":"39360dea-0fa4-4b0f-a3a7-7d9406dc4bf5","system_id":"levelo_inurba_marseille","lat":43.323403,"lon":5.36733,"is_reserved":false,"is_disabled":false,"rental_uris":{"android":"levelo://app?vid=39360dea-0fa4-4b0f-a3a7-7d9406dc4bf5","ios":"levelo://app?vid=39360dea-0fa4-4b0f-a3a7-7d9406dc4bf5"},"vehicle_type_id":"4","last_reported":1760605931,"current_range_meters":10800,"station_id":"ce4bhsh2rcd13ifvqi2g","pricing_plan_id":"cebpf4jnsgd1na2vs0mg"},{"bike_id":"c7b72f18-789f-4aae-b4c4-dd159cab4056","system_id":"levelo_inurba_marseille","lat":43.22566,"lon":5.41642,"is_reserved":false,"is_disabled":false,"rental_uris":{"android":"levelo://app?vid=c7b72f18-789f-4aae-b4c4-dd159cab4056","ios":"levelo://app?vid=c7b72f18-789f-4aae-b4c4-dd159cab4056"},"vehicle_type_id":"4","last_reported":1760605931,"current_range_meters":10800,"station_id":"st_d2o4gvlbi1j2169b742g","pricing_plan_id":"cebpf4jnsgd1na2vs0mg"},{"bike_id":"a3cb4bd9-3634-4eb3-803c-69ae7465a7d5","system_id":"levelo_inurba_marseille","lat":43.30513,"lon":5.38257,"is_reserved":false,"is_disabled":false,"rental_uris":{"android":"levelo://app?vid=a3cb4bd9-3634-4eb3-803c-69ae7465a7d5","ios":"levelo://app?vid=a3cb4bd9-3634-4eb3-803c-69ae7465a7d5"},"vehicle_type_id":"4","last_reported":1760605931,"current_range_meters":11200,"station_id":"","pricing_plan_id":"cebpf4jnsgd1na2vs0mg"},{"bike_id":"7a63795d-d6ae-4db3-866d-c16b2af002f1","system_id":"levelo_inurba_marseille","lat":43.29957,"lon":5.37492,"is_reserved":false,"is_disabled":false,"rental_uris":{"android":"levelo://app?vid=7a63795d-d6ae-4db3-866d-c16b2af002f1","ios":"levelo://app?vid=7a63795d-d6ae-4db3-866d-c16b2af002f1"},"vehicle_type_id":"4","last_reported":1760605931,"current_range_meters":11200,"station_id":"ce4bgjh2rcd13ifvqbg0","pricing_plan_id":"cebpf4jnsgd1na2vs0mg"},{"bike_id":"5b18402f-0c12-4c7b-bdbc-bf1004f70657","system_id":"levelo_inurba_marseille","lat":43.30562,"lon":5.36535,"is_reserved":false,"is_disabled":false,"rental_uris":{"android":"levelo://app?vid=5b18402f-0c12-4c7b-bdbc-bf1004f70657","ios":"levelo://app?vid=5b18402f-0c12-4c7b-bdbc-bf1004f70657"},"vehicle_type_id":"4","last_reported":1760605931,"current_range_meters":11200,"station_id":"ce4bgs12rcd13ifvqcag","pricing_plan_id":"cebpf4jnsgd1na2vs0mg"},{"bike_id":"13821bae-7fa7-47a9-8673-75cdb308af3a","system_id":"levelo_inurba_marseille","lat":43.32546,"lon":5.41423,"is_reserved":false,"is_disabled":false,"rental_uris":{"android":"levelo://app?vid=13821bae-7fa7-47a9-8673-75cdb308af3a","ios":"levelo://app?vid=13821bae-7fa7-47a9-8673-75cdb308af3a"},"vehicle_type_id":"4","last_reported":1760605931,"current_range_meters":11200,"station_id":"ce4bhq12rcd13ifvqhhg","pricing_plan_id":"cebpf4jnsgd1na2vs0mg"},{"bike_id":"10b9399d-66f1-4536-b25f-4c33f24aaf44","system_id":"levelo_inurba_marseille","lat":43.320993,"lon":5.367896,"is_reserved":false,"is_disabled":false,"rental_uris":{"android":"levelo://app?vid=10b9399d-66f1-4536-b25f-4c33f24aaf44","ios":"levelo://app?vid=10b9399d-66f1-4536-b25f-4c33f24aaf44"},"vehicle_type_id":"4","last_reported":1760605931,"current_range_meters":11200,"station_id":"ce4bhrh2rcd13ifvqhug","pricing_plan_id":"cebpf4jnsgd1na2vs0mg"},{"bike_id":"9ed496f8-b157-4138-8c87-2906cda03afd","system_id":"levelo_inurba_marseille","lat":43.32353,"lon":5.36751,"is_reserved":false,"is_disabled":false,"rental_uris":{"android":"levelo://app?vid=9ed496f8-b157-4138-8c87-2906cda03afd","ios":"levelo://app?vid=9ed496f8-b157-4138-8c87-2906cda03afd"},"vehicle_type_id":"4","last_reported":1760605931,"current_range_meters":11200,"station_id":"ce4bhsh2rcd13ifvqi2g","pricing_plan_id":"cebpf4jnsgd1na2vs0mg"},{"bike_id":"d36aad05-df41-4fbc-959a-1a460a05a767","system_id":"levelo_inurba_marseille","lat":43.2549,"lon":5.37652,"is_reserved":false,"is_disabled":false,"rental_uris":{"android":"levelo://app?vid=d36aad05-df41-4fbc-959a-1a460a05a767","ios":"levelo://app?vid=d36aad05-df41-4fbc-959a-1a460a05a767"},"vehicle_type_id":"4","last_reported":1760605931,"current_range_meters":11600,"station_id":"","pricing_plan_id":"cebpf4jnsgd1na2vs0mg"},{"bike_id":"eb5d962b-9bf5-48b5-93ff-83563f1526d8","system_id":"levelo_inurba_marseille","lat":43.30455,"lon":5.37903,"is_reserved":false,"is_disabled":false,"rental_uris":{"android":"levelo://app?vid=eb5d962b-9bf5-48b5-93ff-83563f1526d8","ios":"levelo://app?vid=eb5d962b-9bf5-48b5-93ff-83563f1526d8"},"vehicle_type_id":"4","last_reported":1760605931,"current_range_meters":11600,"station_id":"ce4bgup2rcd13ifvqcn0","pricing_plan_id":"cebpf4jnsgd1na2vs0mg"},{"bike_id":"001520d8-a7cf-4777-8a5e-28943c60ab4f","system_id":"levelo_inurba_marseille","lat":43.27317,"lon":5.39083,"is_reserved":false,"is_disabled":false,"rental_uris":{"android":"levelo://app?vid=001520d8-a7cf-4777-8a5e-28943c60ab4f","ios":"levelo://app?vid=001520d8-a7cf-4777-8a5e-28943c60ab4f"},"vehicle_type_id":"4","last_reported":1760605931,"current_range_meters":11600,"station_id":"ce4bhgp2rcd13ifvqfe0","pricing_plan_id":"cebpf4jnsgd1na2vs0mg"},{"bike_id":"32d6f6d2-f8ac-4393-8c41-10ab770edbd5","system_id":"levelo_inurba_marseille","lat":43.3414,"lon":5.40896,"is_reserved":false,"is_disabled":false,"rental_uris":{"android":"levelo://app?vid=32d6f6d2-f8ac-4393-8c41-10ab770edbd5","ios":"levelo://app?vid=32d6f6d2-f8ac-4393-8c41-10ab770edbd5"},"vehicle_type_id":"4","last_reported":1760605931,"current_range_meters":11600,"station_id":"ce4bhqh2rcd13ifvqhlg","pricing_plan_id":"cebpf4jnsgd1na2vs0mg"},{"bike_id":"69498116-c619-4c18-bdcc-044f697eb141","system_id":"levelo_inurba_marseille","lat":43.288836,"lon":5.38212,"is_reserved":false,"is_disabled":false,"rental_uris":{"android":"levelo://app?vid=69498116-c619-4c18-bdcc-044f697eb141","ios":"levelo://app?vid=69498116-c619-4c18-bdcc-044f697eb141"},"vehicle_type_id":"4","last_reported":1760605931,"current_range_meters":12000,"station_id":"","pricing_plan_id":"cebpf4jnsgd1na2vs0mg"},{"bike_id":"96e14c87-e6f9-4ba5-9f9e-4896430f8dbe","system_id":"levelo_inurba_marseille","lat":43.3014,"lon":5.37393,"is_reserved":false,"is_disabled":false,"rental_uris":{"android":"levelo://app?vid=96e14c87-e6f9-4ba5-9f9e-4896430f8dbe","ios":"levelo://app?vid=96e14c87-e6f9-4ba5-9f9e-4896430f8dbe"},"vehicle_type_id":"4","last_reported":1760605931,"current_range_meters":12000,"station_id":"ce4bgs92rcd13ifvqcc0","pricing_plan_id":"cebpf4jnsgd1na2vs0mg"},{"bike_id":"c43c5736-7715-4776-9f25-180a73c21d32","system_id":"levelo_inurba_marseille","lat":43.32123,"lon":5.3676,"is_reserved":false,"is_disabled":false,"rental_uris":{"android":"levelo://app?vid=c43c5736-7715-4776-9f25-180a73c21d32","ios":"levelo://app?vid=c43c5736-7715-4776-9f25-180a73c21d32"},"vehicle_type_id":"4","last_reported":1760605931,"current_range_meters":12000,"station_id":"ce4bhrh2rcd13ifvqhug","pricing_plan_id":"cebpf4jnsgd1na2vs0mg"},{"bike_id":"c871ca87-9ea0-4c82-8f96-1d74fe568265","system_id":"levelo_inurba_marseille","lat":43.28578,"lon":5.4148,"is_reserved":false,"is_disabled":false,"rental_uris":{"android":"levelo://app?vid=c871ca87-9ea0-4c82-8f96-1d74fe568265","ios":"levelo://app?vid=c871ca87-9ea0-4c82-8f96-1d74fe568265"},"vehicle_type_id":"4","last_reported":1760605931,"current_range_meters":12400,"station_id":"","pricing_plan_id":"cebpf4jnsgd1na2vs0mg"},{"bike_id":"42e5450d-2519-4084-859e-496f9db84973","system_id":"levelo_inurba_marseille","lat":43.29209,"lon":5.38029,"is_reserved":false,"is_disabled":false,"rental_uris":{"android":"levelo://app?vid=42e5450d-2519-4084-859e-496f9db84973","ios":"levelo://app?vid=42e5450d-2519-4084-859e-496f9db84973"},"vehicle_type_id":"4","last_reported":1760605931,"current_range_meters":12800,"station_id":"","pricing_plan_id":"cebpf4jnsgd1na2vs0mg"},{"bike_id":"b518401d-14f5-4c78-9e5c-f0f0c12d0c63","system_id":"levelo_inurba_marseille","lat":43.29744,"lon":5.37677,"is_reserved":false,"is_disabled":false,"rental_uris":{"android":"levelo://app?vid=b518401d-14f5-4c78-9e5c-f0f0c12d0c63","ios":"levelo://app?vid=b518401d-14f5-4c78-9e5c-f0f0c12d0c63"},"vehicle_type_id":"4","last_reported":1760605931,"current_range_meters":12800,"station_id":"ce4bgkh2rcd13ifvqbl0","pricing_plan_id":"cebpf4jnsgd1na2vs0mg"},{"bike_id":"44c6c3f4-ef96-4e6f-9403-b313d92ad2bc","system_id":"levelo_inurba_marseille","lat":43.30907,"lon":5.36852,"is_reserved":false,"is_disabled":false,"rental_uris":{"android":"levelo://app?vid=44c6c3f4-ef96-4e6f-9403-b313d92ad2bc","ios":"levelo://app?vid=44c6c3f4-ef96-4e6f-9403-b313d92ad2bc"},"vehicle_type_id":"4","last_reported":1760605931,"current_range_meters":12800,"station_id":"ce4bgn92rcd13ifvqbvg","pricing_plan_id":"cebpf4jnsgd1na2vs0mg"},{"bike_id":"d95c4bd2-0884-486e-9987-0e592b9bf434","system_id":"levelo_inurba_marseille","lat":43.303517,"lon":5.418783,"is_reserved":false,"is_disabled":false,"rental_uris":{"android":"levelo://app?vid=d95c4bd2-0884-486e-9987-0e592b9bf434","ios":"levelo://app?vid=d95c4bd2-0884-486e-9987-0e592b9bf434"},"vehicle_type_id":"4","last_reported":1760605931,"current_range_meters":12800,"station_id":"ce4bhop2rcd13ifvqh7g","pricing_plan_id":"cebpf4jnsgd1na2vs0mg"},{"bike_id":"6ad55051-fa95-4f44-9f1b-58f6f1863f9e","system_id":"levelo_inurba_marseille","lat":43.32463,"lon":5.3658,"is_reserved":false,"is_disabled":false,"rental_uris":{"android":"levelo://app?vid=6ad55051-fa95-4f44-9f1b-58f6f1863f9e","ios":"levelo://app?vid=6ad55051-fa95-4f44-9f1b-58f6f1863f9e"},"vehicle_type_id":"4","last_reported":1760605931,"current_range_meters":12800,"station_id":"ce4bhs12rcd13ifvqhvg","pricing_plan_id":"cebpf4jnsgd1na2vs0mg"},{"bike_id":"71111ccd-3931-4659-93e5-0a9611e14316","system_id":"levelo_inurba_marseille","lat":43.28381,"lon":5.35342,"is_reserved":false,"is_disabled":false,"rental_uris":{"android":"levelo://app?vid=71111ccd-3931-4659-93e5-0a9611e14316","ios":"levelo://app?vid=71111ccd-3931-4659-93e5-0a9611e14316"},"vehicle_type_id":"4","last_reported":1760605931,"current_range_meters":13600,"station_id":"","pricing_plan_id":"cebpf4jnsgd1na2vs0mg"},{"bike_id":"85edce40-0779-4d03-9fdd-b91af036aadf","system_id":"levelo_inurba_marseille","lat":43.2944,"lon":5.3817,"is_reserved":false,"is_disabled":false,"rental_uris":{"android":"levelo://app?vid=85edce40-0779-4d03-9fdd-b91af036aadf","ios":"levelo://app?vid=85edce40-0779-4d03-9fdd-b91af036aadf"},"vehicle_type_id":"4","last_reported":1760605931,"current_range_meters":13600,"station_id":"","pricing_plan_id":"cebpf4jnsgd1na2vs0mg"},{"bike_id":"8a79a6a3-168d-4097-9128-70b470c3fe43","system_id":"levelo_inurba_marseille","lat":43.30605,"lon":5.37223,"is_reserved":false,"is_disabled":false,"rental_uris":{"android":"levelo://app?vid=8a79a6a3-168d-4097-9128-70b470c3fe43","ios":"levelo://app?vid=8a79a6a3-168d-4097-9128-70b470c3fe43"},"vehicle_type_id":"4","last_reported":1760605931,"current_range_meters":13600,"station_id":"ce4bgqh2rcd13ifvqc4g","pricing_plan_id":"cebpf4jnsgd1na2vs0mg"},{"bike_id":"5ac42d56-5c84-462a-9ae4-ae01512446c6","system_id":"levelo_inurba_marseille","lat":43.32346,"lon":5.40975,"is_reserved":false,"is_disabled":false,"rental_uris":{"android":"levelo://app?vid=5ac42d56-5c84-462a-9ae4-ae01512446c6","ios":"levelo://app?vid=5ac42d56-5c84-462a-9ae4-ae01512446c6"},"vehicle_type_id":"4","last_reported":1760605931,"current_range_meters":13600,"station_id":"ce4bgup2rcd13ifvqco0","pricing_plan_id":"cebpf4jnsgd1na2vs0mg"},{"bike_id":"e6f21f28-9f88-480a-a9bd-1fe4b961eb08","system_id":"levelo_inurba_marseille","lat":43.280389,"lon":5.36948,"is_reserved":false,"is_disabled":false,"rental_uris":{"android":"levelo://app?vid=e6f21f28-9f88-480a-a9bd-1fe4b961eb08","ios":"levelo://app?vid=e6f21f28-9f88-480a-a9bd-1fe4b961eb08"},"vehicle_type_id":"4","last_reported":1760605931,"current_range_meters":13600,"station_id":"ce4bha12rcd13ifvqef0","pricing_plan_id":"cebpf4jnsgd1na2vs0mg"},{"bike_id":"c7de96ac-5658-4b00-b02a-354671d9d898","system_id":"levelo_inurba_marseille","lat":43.29873,"lon":5.43673,"is_reserved":false,"is_disabled":false,"rental_uris":{"android":"levelo://app?vid=c7de96ac-5658-4b00-b02a-354671d9d898","ios":"levelo://app?vid=c7de96ac-5658-4b00-b02a-354671d9d898"},"vehicle_type_id":"4","last_reported":1760605931,"current_range_meters":13600,"station_id":"ce4bhpp2rcd13ifvqhfg","pricing_plan_id":"cebpf4jnsgd1na2vs0mg"},{"bike_id":"749d8efb-a568-45ea-82d3-794871251568","system_id":"levelo_inurba_marseille","lat":43.34162,"lon":5.40895,"is_reserved":false,"is_disabled":false,"rental_uris":{"android":"levelo://app?vid=749d8efb-a568-45ea-82d3-794871251568","ios":"levelo://app?vid=749d8efb-a568-45ea-82d3-794871251568"},"vehicle_type_id":"4","last_reported":1760605931,"current_range_meters":13600,"station_id":"ce4bhqh2rcd13ifvqhlg","pricing_plan_id":"cebpf4jnsgd1na2vs0mg"},{"bike_id":"f6741c9c-9991-44e9-9fee-3bb56a4d0ee1","system_id":"levelo_inurba_marseille","lat":43.2853,"lon":5.44118,"is_reserved":false,"is_disabled":false,"rental_uris":{"android":"levelo://app?vid=f6741c9c-9991-44e9-9fee-3bb56a4d0ee1","ios":"levelo://app?vid=f6741c9c-9991-44e9-9fee-3bb56a4d0ee1"},"vehicle_type_id":"4","last_reported":1760605931,"current_range_meters":13600,"station_id":"st_d3j3df2ikq2c7380ej80","pricing_plan_id":"cebpf4jnsgd1na2vs0mg"},{"bike_id":"68883d99-7f94-4425-81c5-f981ad5dfd2d","system_id":"levelo_inurba_marseille","lat":43.27936,"lon":5.39575,"is_reserved":false,"is_disabled":false,"rental_uris":{"android":"levelo://app?vid=68883d99-7f94-4425-81c5-f981ad5dfd2d","ios":"levelo://app?vid=68883d99-7f94-4425-81c5-f981ad5dfd2d"},"vehicle_type_id":"4","last_reported":1760605931,"current_range_meters":14000,"station_id":"","pricing_plan_id":"cebpf4jnsgd1na2vs0mg"},{"bike_id":"d68b41be-366f-40d7-a414-434cfe0517a5","system_id":"levelo_inurba_marseille","lat":43.317686,"lon":5.422204,"is_reserved":false,"is_disabled":false,"rental_uris":{"android":"levelo://app?vid=d68b41be-366f-40d7-a414-434cfe0517a5","ios":"levelo://app?vid=d68b41be-366f-40d7-a414-434cfe0517a5"},"vehicle_type_id":"4","last_reported":1760605931,"current_range_meters":14000,"station_id":"","pricing_plan_id":"cebpf4jnsgd1na2vs0mg"},{"bike_id":"de65741c-e49f-4208-a832-00eae6b23683","system_id":"levelo_inurba_marseille","lat":43.30303,"lon":5.39215,"is_reserved":false,"is_disabled":false,"rental_uris":{"android":"levelo://app?vid=de65741c-e49f-4208-a832-00eae6b23683","ios":"levelo://app?vid=de65741c-e49f-4208-a832-00eae6b23683"},"vehicle_type_id":"4","last_reported":1760605931,"current_range_meters":14000,"station_id":"ce4bgkh2rcd13ifvqbk0","pricing_plan_id":"cebpf4jnsgd1na2vs0mg"},{"bike_id":"d4eefa09-af9d-4d88-84f8-4893b05982ab","system_id":"levelo_inurba_marseille","lat":43.2737,"lon":5.36259,"is_reserved":false,"is_disabled":false,"rental_uris":{"android":"levelo://app?vid=d4eefa09-af9d-4d88-84f8-4893b05982ab","ios":"levelo://app?vid=d4eefa09-af9d-4d88-84f8-4893b05982ab"},"vehicle_type_id":"4","last_reported":1760605931,"current_range_meters":14000,"station_id":"ce4bhbh2rcd13ifvqeo0","pricing_plan_id":"cebpf4jnsgd1na2vs0mg"},{"bike_id":"f4159b26-72d5-4d42-bbdf-20180a88a524","system_id":"levelo_inurba_marseille","lat":43.27312,"lon":5.39083,"is_reserved":false,"is_disabled":false,"rental_uris":{"android":"levelo://app?vid=f4159b26-72d5-4d42-bbdf-20180a88a524","ios":"levelo://app?vid=f4159b26-72d5-4d42-bbdf-20180a88a524"},"vehicle_type_id":"4","last_reported":1760605931,"current_range_meters":14000,"station_id":"ce4bhgp2rcd13ifvqfe0","pricing_plan_id":"cebpf4jnsgd1na2vs0mg"},{"bike_id":"55c94028-9bc0-4da1-a76b-0cff2d44d6db","system_id":"levelo_inurba_marseille","lat":43.27493,"lon":5.42448,"is_reserved":false,"is_disabled":false,"rental_uris":{"android":"levelo://app?vid=55c94028-9bc0-4da1-a76b-0cff2d44d6db","ios":"levelo://app?vid=55c94028-9bc0-4da1-a76b-0cff2d44d6db"},"vehicle_type_id":"4","last_reported":1760605931,"current_range_meters":14000,"station_id":"ce4bhn92rcd13ifvqgrg","pricing_plan_id":"cebpf4jnsgd1na2vs0mg"},{"bike_id":"6918a742-e604-4ec9-b942-8bff044a719e","system_id":"levelo_inurba_marseille","lat":43.32356,"lon":5.36764,"is_reserved":false,"is_disabled":false,"rental_uris":{"android":"levelo://app?vid=6918a742-e604-4ec9-b942-8bff044a719e","ios":"levelo://app?vid=6918a742-e604-4ec9-b942-8bff044a719e"},"vehicle_type_id":"4","last_reported":1760605931,"current_range_meters":14000,"station_id":"ce4bhsh2rcd13ifvqi2g","pricing_plan_id":"cebpf4jnsgd1na2vs0mg"},{"bike_id":"e257a5c9-b99e-4af1-ac4f-b017f1c8b418","system_id":"levelo_inurba_marseille","lat":43.33759,"lon":5.37438,"is_reserved":false,"is_disabled":false,"rental_uris":{"android":"levelo://app?vid=e257a5c9-b99e-4af1-ac4f-b017f1c8b418","ios":"levelo://app?vid=e257a5c9-b99e-4af1-ac4f-b017f1c8b418"},"vehicle_type_id":"4","last_reported":1760605931,"current_range_meters":14400,"station_id":"","pricing_plan_id":"cebpf4jnsgd1na2vs0mg"},{"bike_id":"f846f329-5896-44d6-83fe-c8b97f1e4c27","system_id":"levelo_inurba_marseille","lat":43.32961,"lon":5.39114,"is_reserved":false,"is_disabled":false,"rental_uris":{"android":"levelo://app?vid=f846f329-5896-44d6-83fe-c8b97f1e4c27","ios":"levelo://app?vid=f846f329-5896-44d6-83fe-c8b97f1e4c27"},"vehicle_type_id":"4","last_reported":1760605931,"current_range_meters":14400,"station_id":"","pricing_plan_id":"cebpf4jnsgd1na2vs0mg"},{"bike_id":"75c10e83-6f6b-418e-afde-8e6bd5b67724","system_id":"levelo_inurba_marseille","lat":43.30315,"lon":5.36906,"is_reserved":false,"is_disabled":false,"rental_uris":{"android":"levelo://app?vid=75c10e83-6f6b-418e-afde-8e6bd5b67724","ios":"levelo://app?vid=75c10e83-6f6b-418e-afde-8e6bd5b67724"},"vehicle_type_id":"4","last_reported":1760605931,"current_range_meters":14400,"station_id":"ce4bgqh2rcd13ifvqc5g","pricing_plan_id":"cebpf4jnsgd1na2vs0mg"},{"bike_id":"21c3a9fe-adfc-4375-8283-33ee1b7e74f0","system_id":"levelo_inurba_marseille","lat":43.31331,"lon":5.36756,"is_reserved":false,"is_disabled":false,"rental_uris":{"android":"levelo://app?vid=21c3a9fe-adfc-4375-8283-33ee1b7e74f0","ios":"levelo://app?vid=21c3a9fe-adfc-4375-8283-33ee1b7e74f0"},"vehicle_type_id":"4","last_reported":1760605931,"current_range_meters":14400,"station_id":"ce4bgr92rcd13ifvqc6g","pricing_plan_id":"cebpf4jnsgd1na2vs0mg"},{"bike_id":"e9f5cf93-be71-4bc8-9e82-947756c4decc","system_id":"levelo_inurba_marseille","lat":43.26685,"lon":5.38264,"is_reserved":false,"is_disabled":false,"rental_uris":{"android":"levelo://app?vid=e9f5cf93-be71-4bc8-9e82-947756c4decc","ios":"levelo://app?vid=e9f5cf93-be71-4bc8-9e82-947756c4decc"},"vehicle_type_id":"4","last_reported":1760605931,"current_range_meters":14400,"station_id":"ce4bhg92rcd13ifvqf90","pricing_plan_id":"cebpf4jnsgd1na2vs0mg"},{"bike_id":"891b72c5-9fa0-4786-a84f-49af752153e7","system_id":"levelo_inurba_marseille","lat":43.23956,"lon":5.36657,"is_reserved":false,"is_disabled":false,"rental_uris":{"android":"levelo://app?vid=891b72c5-9fa0-4786-a84f-49af752153e7","ios":"levelo://app?vid=891b72c5-9fa0-4786-a84f-49af752153e7"},"vehicle_type_id":"4","last_reported":1760605931,"current_range_meters":14400,"station_id":"ce4bhi12rcd13ifvqfp0","pricing_plan_id":"cebpf4jnsgd1na2vs0mg"},{"bike_id":"7ef24fa0-1894-4de5-b44a-7b66743e1eda","system_id":"levelo_inurba_marseille","lat":43.25935,"lon":5.40882,"is_reserved":false,"is_disabled":false,"rental_uris":{"android":"levelo://app?vid=7ef24fa0-1894-4de5-b44a-7b66743e1eda","ios":"levelo://app?vid=7ef24fa0-1894-4de5-b44a-7b66743e1eda"},"vehicle_type_id":"4","last_reported":1760605931,"current_range_meters":14400,"station_id":"ce4bhm92rcd13ifvqglg","pricing_plan_id":"cebpf4jnsgd1na2vs0mg"},{"bike_id":"bc71feef-2554-47a6-9fd6-282c5776bacc","system_id":"levelo_inurba_marseille","lat":43.24075,"lon":5.37758,"is_reserved":false,"is_disabled":false,"rental_uris":{"android":"levelo://app?vid=bc71feef-2554-47a6-9fd6-282c5776bacc","ios":"levelo://app?vid=bc71feef-2554-47a6-9fd6-282c5776bacc"},"vehicle_type_id":"4","last_reported":1760605931,"current_range_meters":14400,"station_id":"ce4bhnp2rcd13ifvqgvg","pricing_plan_id":"cebpf4jnsgd1na2vs0mg"},{"bike_id":"4d30771e-9482-47d7-89c8-c0acaf4c5eea","system_id":"levelo_inurba_marseille","lat":43.33658,"lon":5.41,"is_reserved":false,"is_disabled":false,"rental_uris":{"android":"levelo://app?vid=4d30771e-9482-47d7-89c8-c0acaf4c5eea","ios":"levelo://app?vid=4d30771e-9482-47d7-89c8-c0acaf4c5eea"},"vehicle_type_id":"4","last_reported":1760605931,"current_range_meters":14400,"station_id":"ce4bhqh2rcd13ifvqhmg","pricing_plan_id":"cebpf4jnsgd1na2vs0mg"},{"bike_id":"6dadc5c6-61ac-48c9-b5e9-17768e7cd162","system_id":"levelo_inurba_marseille","lat":43.323514,"lon":5.367613,"is_reserved":false,"is_disabled":false,"rental_uris":{"android":"levelo://app?vid=6dadc5c6-61ac-48c9-b5e9-17768e7cd162","ios":"levelo://app?vid=6dadc5c6-61ac-48c9-b5e9-17768e7cd162"},"vehicle_type_id":"4","last_reported":1760605931,"current_range_meters":14400,"station_id":"ce4bhsh2rcd13ifvqi2g","pricing_plan_id":"cebpf4jnsgd1na2vs0mg"},{"bike_id":"64b6e032-64b1-44f9-bf5b-5626b6800d05","system_id":"levelo_inurba_marseille","lat":43.23142,"lon":5.43726,"is_reserved":false,"is_disabled":false,"rental_uris":{"android":"levelo://app?vid=64b6e032-64b1-44f9-bf5b-5626b6800d05","ios":"levelo://app?vid=64b6e032-64b1-44f9-bf5b-5626b6800d05"},"vehicle_type_id":"4","last_reported":1760605931,"current_range_meters":14800,"station_id":"ce4bhmp2rcd13ifvqgog","pricing_plan_id":"cebpf4jnsgd1na2vs0mg"},{"bike_id":"2a5498ee-d604-476f-a7c3-7260eebaa7f3","system_id":"levelo_inurba_marseille","lat":43.29571,"lon":5.37426,"is_reserved":false,"is_disabled":false,"rental_uris":{"android":"levelo://app?vid=2a5498ee-d604-476f-a7c3-7260eebaa7f3","ios":"levelo://app?vid=2a5498ee-d604-476f-a7c3-7260eebaa7f3"},"vehicle_type_id":"4","last_reported":1760605931,"current_range_meters":15200,"station_id":"","pricing_plan_id":"cebpf4jnsgd1na2vs0mg"},{"bike_id":"2935fa5a-befe-4d3d-aa8a-64f80dc3a048","system_id":"levelo_inurba_marseille","lat":43.274521,"lon":5.407283,"is_reserved":false,"is_disabled":false,"rental_uris":{"android":"levelo://app?vid=2935fa5a-befe-4d3d-aa8a-64f80dc3a048","ios":"levelo://app?vid=2935fa5a-befe-4d3d-aa8a-64f80dc3a048"},"vehicle_type_id":"4","last_reported":1760605931,"current_range_meters":15200,"station_id":"","pricing_plan_id":"cebpf4jnsgd1na2vs0mg"},{"bike_id":"178d96b0-5d5c-4ffa-b43e-5f3afa50557a","system_id":"levelo_inurba_marseille","lat":43.30907,"lon":5.36844,"is_reserved":false,"is_disabled":false,"rental_uris":{"android":"levelo://app?vid=178d96b0-5d5c-4ffa-b43e-5f3afa50557a","ios":"levelo://app?vid=178d96b0-5d5c-4ffa-b43e-5f3afa50557a"},"vehicle_type_id":"4","last_reported":1760605931,"current_range_meters":15200,"station_id":"ce4bgn92rcd13ifvqbvg","pricing_plan_id":"cebpf4jnsgd1na2vs0mg"},{"bike_id":"d04a8279-bd2a-49fe-9acd-5f293d5135e1","system_id":"levelo_inurba_marseille","lat":43.30306,"lon":5.36896,"is_reserved":false,"is_disabled":false,"rental_uris":{"android":"levelo://app?vid=d04a8279-bd2a-49fe-9acd-5f293d5135e1","ios":"levelo://app?vid=d04a8279-bd2a-49fe-9acd-5f293d5135e1"},"vehicle_type_id":"4","last_reported":1760605931,"current_range_meters":15200,"station_id":"ce4bgqh2rcd13ifvqc5g","pricing_plan_id":"cebpf4jnsgd1na2vs0mg"},{"bike_id":"570cda2b-9db2-4f10-ae20-26d0c304824e","system_id":"levelo_inurba_marseille","lat":43.30543,"lon":5.36707,"is_reserved":false,"is_disabled":false,"rental_uris":{"android":"levelo://app?vid=570cda2b-9db2-4f10-ae20-26d0c304824e","ios":"levelo://app?vid=570cda2b-9db2-4f10-ae20-26d0c304824e"},"vehicle_type_id":"4","last_reported":1760605931,"current_range_meters":15200,"station_id":"ce4bgrp2rcd13ifvqc9g","pricing_plan_id":"cebpf4jnsgd1na2vs0mg"},{"bike_id":"fc37aa56-10b6-4194-8937-b4ef43f7cd27","system_id":"levelo_inurba_marseille","lat":43.24803,"lon":5.3745,"is_reserved":false,"is_disabled":false,"rental_uris":{"android":"levelo://app?vid=fc37aa56-10b6-4194-8937-b4ef43f7cd27","ios":"levelo://app?vid=fc37aa56-10b6-4194-8937-b4ef43f7cd27"},"vehicle_type_id":"4","last_reported":1760605931,"current_range_meters":15200,"station_id":"ce4bhgh2rcd13ifvqfb0","pricing_plan_id":"cebpf4jnsgd1na2vs0mg"},{"bike_id":"44828835-2276-44f7-a486-2748b1c35ae9","system_id":"levelo_inurba_marseille","lat":43.25578,"lon":5.38244,"is_reserved":false,"is_disabled":false,"rental_uris":{"android":"levelo://app?vid=44828835-2276-44f7-a486-2748b1c35ae9","ios":"levelo://app?vid=44828835-2276-44f7-a486-2748b1c35ae9"},"vehicle_type_id":"4","last_reported":1760605931,"current_range_meters":15200,"station_id":"ce4bhih2rcd13ifvqfs0","pricing_plan_id":"cebpf4jnsgd1na2vs0mg"},{"bike_id":"851eb1ff-0750-44db-a9d6-fbe7bd432f71","system_id":"levelo_inurba_marseille","lat":43.31523,"lon":5.3803,"is_reserved":false,"is_disabled":false,"rental_uris":{"android":"levelo://app?vid=851eb1ff-0750-44db-a9d6-fbe7bd432f71","ios":"levelo://app?vid=851eb1ff-0750-44db-a9d6-fbe7bd432f71"},"vehicle_type_id":"4","last_reported":1760605931,"current_range_meters":15200,"station_id":"ce4bhsp2rcd13ifvqi50","pricing_plan_id":"cebpf4jnsgd1na2vs0mg"},{"bike_id":"c49d56b4-7fb0-40b0-9ddd-26687c012cad","system_id":"levelo_inurba_marseille","lat":43.2415,"lon":5.36417,"is_reserved":false,"is_disabled":false,"rental_uris":{"android":"levelo://app?vid=c49d56b4-7fb0-40b0-9ddd-26687c012cad","ios":"levelo://app?vid=c49d56b4-7fb0-40b0-9ddd-26687c012cad"},"vehicle_type_id":"4","last_reported":1760605931,"current_range_meters":15200,"station_id":"cpo36qri1sfpv3e86is0","pricing_plan_id":"cebpf4jnsgd1na2vs0mg"},{"bike_id":"24d82d64-1145-442f-a9f5-19238b0b39ef","system_id":"levelo_inurba_marseille","lat":43.272133,"lon":5.391866,"is_reserved":false,"is_disabled":false,"rental_uris":{"android":"levelo://app?vid=24d82d64-1145-442f-a9f5-19238b0b39ef","ios":"levelo://app?vid=24d82d64-1145-442f-a9f5-19238b0b39ef"},"vehicle_type_id":"4","last_reported":1760605931,"current_range_meters":16000,"station_id":"","pricing_plan_id":"cebpf4jnsgd1na2vs0mg"},{"bike_id":"4cf60c0b-3c6b-4525-bef8-04e77d16c649","system_id":"levelo_inurba_marseille","lat":43.30914,"lon":5.36852,"is_reserved":false,"is_disabled":false,"rental_uris":{"android":"levelo://app?vid=4cf60c0b-3c6b-4525-bef8-04e77d16c649","ios":"levelo://app?vid=4cf60c0b-3c6b-4525-bef8-04e77d16c649"},"vehicle_type_id":"4","last_reported":1760605931,"current_range_meters":16000,"station_id":"ce4bgn92rcd13ifvqbvg","pricing_plan_id":"cebpf4jnsgd1na2vs0mg"},{"bike_id":"497f26d6-474e-4866-89f9-43e23e4bc8da","system_id":"levelo_inurba_marseille","lat":43.25569,"lon":5.38239,"is_reserved":false,"is_disabled":false,"rental_uris":{"android":"levelo://app?vid=497f26d6-474e-4866-89f9-43e23e4bc8da","ios":"levelo://app?vid=497f26d6-474e-4866-89f9-43e23e4bc8da"},"vehicle_type_id":"4","last_reported":1760605931,"current_range_meters":16000,"station_id":"ce4bhih2rcd13ifvqfs0","pricing_plan_id":"cebpf4jnsgd1na2vs0mg"},{"bike_id":"c86a2a61-c698-4b0e-9c84-3647c6c1777b","system_id":"levelo_inurba_marseille","lat":43.24066,"lon":5.37761,"is_reserved":false,"is_disabled":false,"rental_uris":{"android":"levelo://app?vid=c86a2a61-c698-4b0e-9c84-3647c6c1777b","ios":"levelo://app?vid=c86a2a61-c698-4b0e-9c84-3647c6c1777b"},"vehicle_type_id":"4","last_reported":1760605931,"current_range_meters":16000,"station_id":"ce4bhnp2rcd13ifvqgvg","pricing_plan_id":"cebpf4jnsgd1na2vs0mg"},{"bike_id":"8bf7353c-2f46-4205-8152-363735351897","system_id":"levelo_inurba_marseille","lat":43.31443,"lon":5.36791,"is_reserved":false,"is_disabled":false,"rental_uris":{"android":"levelo://app?vid=8bf7353c-2f46-4205-8152-363735351897","ios":"levelo://app?vid=8bf7353c-2f46-4205-8152-363735351897"},"vehicle_type_id":"4","last_reported":1760605931,"current_range_meters":16400,"station_id":"","pricing_plan_id":"cebpf4jnsgd1na2vs0mg"},{"bike_id":"7bf0e85f-53a8-4724-a21b-f5b43bbed018","system_id":"levelo_inurba_marseille","lat":43.29529,"lon":5.38531,"is_reserved":false,"is_disabled":false,"rental_uris":{"android":"levelo://app?vid=7bf0e85f-53a8-4724-a21b-f5b43bbed018","ios":"levelo://app?vid=7bf0e85f-53a8-4724-a21b-f5b43bbed018"},"vehicle_type_id":"4","last_reported":1760605931,"current_range_meters":16400,"station_id":"ce4bgih2rcd13ifvqba0","pricing_plan_id":"cebpf4jnsgd1na2vs0mg"},{"bike_id":"5ef4fd12-cbd5-465e-a6f7-ba195fa2631a","system_id":"levelo_inurba_marseille","lat":43.24063,"lon":5.37749,"is_reserved":false,"is_disabled":false,"rental_uris":{"android":"levelo://app?vid=5ef4fd12-cbd5-465e-a6f7-ba195fa2631a","ios":"levelo://app?vid=5ef4fd12-cbd5-465e-a6f7-ba195fa2631a"},"vehicle_type_id":"4","last_reported":1760605931,"current_range_meters":16400,"station_id":"ce4bhnp2rcd13ifvqgvg","pricing_plan_id":"cebpf4jnsgd1na2vs0mg"},{"bike_id":"416f580b-31c7-4ade-8604-dbd86eb8155f","system_id":"levelo_inurba_marseille","lat":43.28134,"lon":5.42116,"is_reserved":false,"is_disabled":false,"rental_uris":{"android":"levelo://app?vid=416f580b-31c7-4ade-8604-dbd86eb8155f","ios":"levelo://app?vid=416f580b-31c7-4ade-8604-dbd86eb8155f"},"vehicle_type_id":"4","last_reported":1760605931,"current_range_meters":16800,"station_id":"","pricing_plan_id":"cebpf4jnsgd1na2vs0mg"},{"bike_id":"66fedced-c81a-40f8-bedb-90d7ed4de2ab","system_id":"levelo_inurba_marseille","lat":43.29973,"lon":5.37174,"is_reserved":false,"is_disabled":false,"rental_uris":{"android":"levelo://app?vid=66fedced-c81a-40f8-bedb-90d7ed4de2ab","ios":"levelo://app?vid=66fedced-c81a-40f8-bedb-90d7ed4de2ab"},"vehicle_type_id":"4","last_reported":1760605931,"current_range_meters":16800,"station_id":"ce4bgr92rcd13ifvqc7g","pricing_plan_id":"cebpf4jnsgd1na2vs0mg"},{"bike_id":"c1c0e50b-f65d-46a7-b426-9cd4af393104","system_id":"levelo_inurba_marseille","lat":43.30518,"lon":5.36561,"is_reserved":false,"is_disabled":false,"rental_uris":{"android":"levelo://app?vid=c1c0e50b-f65d-46a7-b426-9cd4af393104","ios":"levelo://app?vid=c1c0e50b-f65d-46a7-b426-9cd4af393104"},"vehicle_type_id":"4","last_reported":1760605931,"current_range_meters":16800,"station_id":"ce4bgs12rcd13ifvqcag","pricing_plan_id":"cebpf4jnsgd1na2vs0mg"},{"bike_id":"20bd5b3f-94a5-49c2-9117-0a5c47535f8a","system_id":"levelo_inurba_marseille","lat":43.30127,"lon":5.37453,"is_reserved":false,"is_disabled":false,"rental_uris":{"android":"levelo://app?vid=20bd5b3f-94a5-49c2-9117-0a5c47535f8a","ios":"levelo://app?vid=20bd5b3f-94a5-49c2-9117-0a5c47535f8a"},"vehicle_type_id":"4","last_reported":1760605931,"current_range_meters":16800,"station_id":"ce4bgs92rcd13ifvqcc0","pricing_plan_id":"cebpf4jnsgd1na2vs0mg"},{"bike_id":"e26e4b6e-6ade-42e4-8c3c-edbd043c2e3d","system_id":"levelo_inurba_marseille","lat":43.30276,"lon":5.37695,"is_reserved":false,"is_disabled":false,"rental_uris":{"android":"levelo://app?vid=e26e4b6e-6ade-42e4-8c3c-edbd043c2e3d","ios":"levelo://app?vid=e26e4b6e-6ade-42e4-8c3c-edbd043c2e3d"},"vehicle_type_id":"4","last_reported":1760605931,"current_range_meters":16800,"station_id":"ce4bguh2rcd13ifvqcj0","pricing_plan_id":"cebpf4jnsgd1na2vs0mg"},{"bike_id":"3bd1f2e3-5f70-4e1b-981d-afd687388bda","system_id":"levelo_inurba_marseille","lat":43.303652,"lon":5.378838,"is_reserved":false,"is_disabled":false,"rental_uris":{"android":"levelo://app?vid=3bd1f2e3-5f70-4e1b-981d-afd687388bda","ios":"levelo://app?vid=3bd1f2e3-5f70-4e1b-981d-afd687388bda"},"vehicle_type_id":"4","last_reported":1760605931,"current_range_meters":16800,"station_id":"ce4bgup2rcd13ifvqcn0","pricing_plan_id":"cebpf4jnsgd1na2vs0mg"},{"bike_id":"5164c41f-6a30-41f1-9542-8badc5c7da90","system_id":"levelo_inurba_marseille","lat":43.29273,"lon":5.3843,"is_reserved":false,"is_disabled":false,"rental_uris":{"android":"levelo://app?vid=5164c41f-6a30-41f1-9542-8badc5c7da90","ios":"levelo://app?vid=5164c41f-6a30-41f1-9542-8badc5c7da90"},"vehicle_type_id":"4","last_reported":1760605931,"current_range_meters":16800,"station_id":"ce4bh692rcd13ifvqea0","pricing_plan_id":"cebpf4jnsgd1na2vs0mg"},{"bike_id":"b5f02c00-a5b4-4ed0-8372-430c4ec0a05f","system_id":"levelo_inurba_marseille","lat":43.28035,"lon":5.36942,"is_reserved":false,"is_disabled":false,"rental_uris":{"android":"levelo://app?vid=b5f02c00-a5b4-4ed0-8372-430c4ec0a05f","ios":"levelo://app?vid=b5f02c00-a5b4-4ed0-8372-430c4ec0a05f"},"vehicle_type_id":"4","last_reported":1760605931,"current_range_meters":16800,"station_id":"ce4bha12rcd13ifvqef0","pricing_plan_id":"cebpf4jnsgd1na2vs0mg"},{"bike_id":"dcbca945-c928-416d-a3d4-184a2a39f203","system_id":"levelo_inurba_marseille","lat":43.23152,"lon":5.437097,"is_reserved":false,"is_disabled":false,"rental_uris":{"android":"levelo://app?vid=dcbca945-c928-416d-a3d4-184a2a39f203","ios":"levelo://app?vid=dcbca945-c928-416d-a3d4-184a2a39f203"},"vehicle_type_id":"4","last_reported":1760605931,"current_range_meters":16800,"station_id":"ce4bhmp2rcd13ifvqgog","pricing_plan_id":"cebpf4jnsgd1na2vs0mg"},{"bike_id":"7cc02410-c0e1-4b8b-921f-bd42aabdbf6d","system_id":"levelo_inurba_marseille","lat":43.30383,"lon":5.42502,"is_reserved":false,"is_disabled":false,"rental_uris":{"android":"levelo://app?vid=7cc02410-c0e1-4b8b-921f-bd42aabdbf6d","ios":"levelo://app?vid=7cc02410-c0e1-4b8b-921f-bd42aabdbf6d"},"vehicle_type_id":"4","last_reported":1760605931,"current_range_meters":16800,"station_id":"ce4bhoh2rcd13ifvqh6g","pricing_plan_id":"cebpf4jnsgd1na2vs0mg"},{"bike_id":"19c4b376-4a33-457b-806f-be31273b18b7","system_id":"levelo_inurba_marseille","lat":43.23202,"lon":5.35547,"is_reserved":false,"is_disabled":false,"rental_uris":{"android":"levelo://app?vid=19c4b376-4a33-457b-806f-be31273b18b7","ios":"levelo://app?vid=19c4b376-4a33-457b-806f-be31273b18b7"},"vehicle_type_id":"4","last_reported":1760605931,"current_range_meters":16800,"station_id":"ce4bhu92rcd13ifvqi70","pricing_plan_id":"cebpf4jnsgd1na2vs0mg"},{"bike_id":"bef9144e-84ec-4a6a-bcf0-146e7ec5e658","system_id":"levelo_inurba_marseille","lat":43.337444,"lon":5.374475,"is_reserved":false,"is_disabled":false,"rental_uris":{"android":"levelo://app?vid=bef9144e-84ec-4a6a-bcf0-146e7ec5e658","ios":"levelo://app?vid=bef9144e-84ec-4a6a-bcf0-146e7ec5e658"},"vehicle_type_id":"4","last_reported":1760605931,"current_range_meters":16800,"station_id":"cpo3342slgdg3j2ifvpg","pricing_plan_id":"cebpf4jnsgd1na2vs0mg"},{"bike_id":"b9e70176-89b1-4e8b-b6d4-2c37a2faa603","system_id":"levelo_inurba_marseille","lat":43.230586,"lon":5.354886,"is_reserved":false,"is_disabled":false,"rental_uris":{"android":"levelo://app?vid=b9e70176-89b1-4e8b-b6d4-2c37a2faa603","ios":"levelo://app?vid=b9e70176-89b1-4e8b-b6d4-2c37a2faa603"},"vehicle_type_id":"4","last_reported":1760605931,"current_range_meters":16800,"station_id":"cpo3342slgdg3j2ifvpg","pricing_plan_id":"cebpf4jnsgd1na2vs0mg"},{"bike_id":"5fe6e873-dba1-40dd-bc65-77de126f2710","system_id":"levelo_inurba_marseille","lat":43.332893,"lon":5.395256,"is_reserved":false,"is_disabled":false,"rental_uris":{"android":"levelo://app?vid=5fe6e873-dba1-40dd-bc65-77de126f2710","ios":"levelo://app?vid=5fe6e873-dba1-40dd-bc65-77de126f2710"},"vehicle_type_id":"4","last_reported":1760605931,"current_range_meters":17200,"station_id":"","pricing_plan_id":"cebpf4jnsgd1na2vs0mg"},{"bike_id":"0dbaf7e9-eb1a-4839-99db-61bf5e464315","system_id":"levelo_inurba_marseille","lat":43.29046,"lon":5.35921,"is_reserved":false,"is_disabled":false,"rental_uris":{"android":"levelo://app?vid=0dbaf7e9-eb1a-4839-99db-61bf5e464315","ios":"levelo://app?vid=0dbaf7e9-eb1a-4839-99db-61bf5e464315"},"vehicle_type_id":"4","last_reported":1760605931,"current_range_meters":17200,"station_id":"ce4bha92rcd13ifvqeg0","pricing_plan_id":"cebpf4jnsgd1na2vs0mg"},{"bike_id":"c1d36e69-ad27-420c-952f-2a4ac66ec73b","system_id":"levelo_inurba_marseille","lat":43.27395,"lon":5.390876,"is_reserved":false,"is_disabled":false,"rental_uris":{"android":"levelo://app?vid=c1d36e69-ad27-420c-952f-2a4ac66ec73b","ios":"levelo://app?vid=c1d36e69-ad27-420c-952f-2a4ac66ec73b"},"vehicle_type_id":"4","last_reported":1760605931,"current_range_meters":17600,"station_id":"","pricing_plan_id":"cebpf4jnsgd1na2vs0mg"},{"bike_id":"eff63beb-67c8-4150-9310-8213259ab4af","system_id":"levelo_inurba_marseille","lat":43.30549,"lon":5.36725,"is_reserved":false,"is_disabled":false,"rental_uris":{"android":"levelo://app?vid=eff63beb-67c8-4150-9310-8213259ab4af","ios":"levelo://app?vid=eff63beb-67c8-4150-9310-8213259ab4af"},"vehicle_type_id":"4","last_reported":1760605931,"current_range_meters":17600,"station_id":"ce4bgrp2rcd13ifvqc9g","pricing_plan_id":"cebpf4jnsgd1na2vs0mg"},{"bike_id":"a85975f9-49ce-45b1-8bc2-627d0d782c7c","system_id":"levelo_inurba_marseille","lat":43.25014,"lon":5.3892,"is_reserved":false,"is_disabled":false,"rental_uris":{"android":"levelo://app?vid=a85975f9-49ce-45b1-8bc2-627d0d782c7c","ios":"levelo://app?vid=a85975f9-49ce-45b1-8bc2-627d0d782c7c"},"vehicle_type_id":"4","last_reported":1760605931,"current_range_meters":17600,"station_id":"ce4bhgp2rcd13ifvqfd0","pricing_plan_id":"cebpf4jnsgd1na2vs0mg"},{"bike_id":"c770fdeb-53d1-4e91-a3e6-ecaeae0ef7ea","system_id":"levelo_inurba_marseille","lat":43.25494,"lon":5.37654,"is_reserved":false,"is_disabled":false,"rental_uris":{"android":"levelo://app?vid=c770fdeb-53d1-4e91-a3e6-ecaeae0ef7ea","ios":"levelo://app?vid=c770fdeb-53d1-4e91-a3e6-ecaeae0ef7ea"},"vehicle_type_id":"4","last_reported":1760605931,"current_range_meters":17600,"station_id":"ce4bhh12rcd13ifvqff0","pricing_plan_id":"cebpf4jnsgd1na2vs0mg"},{"bike_id":"74f627d1-4201-49e7-88b0-a80c014c37df","system_id":"levelo_inurba_marseille","lat":43.24074,"lon":5.37757,"is_reserved":false,"is_disabled":false,"rental_uris":{"android":"levelo://app?vid=74f627d1-4201-49e7-88b0-a80c014c37df","ios":"levelo://app?vid=74f627d1-4201-49e7-88b0-a80c014c37df"},"vehicle_type_id":"4","last_reported":1760605931,"current_range_meters":17600,"station_id":"ce4bhnp2rcd13ifvqgvg","pricing_plan_id":"cebpf4jnsgd1na2vs0mg"},{"bike_id":"cfc5e846-2323-4c01-b223-3e93f803536c","system_id":"levelo_inurba_marseille","lat":43.33606,"lon":5.41022,"is_reserved":false,"is_disabled":false,"rental_uris":{"android":"levelo://app?vid=cfc5e846-2323-4c01-b223-3e93f803536c","ios":"levelo://app?vid=cfc5e846-2323-4c01-b223-3e93f803536c"},"vehicle_type_id":"4","last_reported":1760605931,"current_range_meters":17600,"station_id":"ce4bhqh2rcd13ifvqhmg","pricing_plan_id":"cebpf4jnsgd1na2vs0mg"},{"bike_id":"f6fd5406-9f55-4abd-98cc-c7543c7dd5b5","system_id":"levelo_inurba_marseille","lat":43.32354,"lon":5.36745,"is_reserved":false,"is_disabled":false,"rental_uris":{"android":"levelo://app?vid=f6fd5406-9f55-4abd-98cc-c7543c7dd5b5","ios":"levelo://app?vid=f6fd5406-9f55-4abd-98cc-c7543c7dd5b5"},"vehicle_type_id":"4","last_reported":1760605931,"current_range_meters":17600,"station_id":"ce4bhsh2rcd13ifvqi2g","pricing_plan_id":"cebpf4jnsgd1na2vs0mg"},{"bike_id":"9c8c09bc-c7c8-42f3-a58c-f9b511bacd18","system_id":"levelo_inurba_marseille","lat":43.28857,"lon":5.42515,"is_reserved":false,"is_disabled":false,"rental_uris":{"android":"levelo://app?vid=9c8c09bc-c7c8-42f3-a58c-f9b511bacd18","ios":"levelo://app?vid=9c8c09bc-c7c8-42f3-a58c-f9b511bacd18"},"vehicle_type_id":"4","last_reported":1760605931,"current_range_meters":17600,"station_id":"st_d3b462108ojc7389ooeg","pricing_plan_id":"cebpf4jnsgd1na2vs0mg"},{"bike_id":"94f60e57-4ea5-4506-9b0b-d49e351bbd01","system_id":"levelo_inurba_marseille","lat":43.29362,"lon":5.38366,"is_reserved":false,"is_disabled":false,"rental_uris":{"android":"levelo://app?vid=94f60e57-4ea5-4506-9b0b-d49e351bbd01","ios":"levelo://app?vid=94f60e57-4ea5-4506-9b0b-d49e351bbd01"},"vehicle_type_id":"4","last_reported":1760605931,"current_range_meters":18000,"station_id":"","pricing_plan_id":"cebpf4jnsgd1na2vs0mg"},{"bike_id":"db85061e-7a71-43a8-8491-62df3992484d","system_id":"levelo_inurba_marseille","lat":43.26457,"lon":5.39334,"is_reserved":false,"is_disabled":false,"rental_uris":{"android":"levelo://app?vid=db85061e-7a71-43a8-8491-62df3992484d","ios":"levelo://app?vid=db85061e-7a71-43a8-8491-62df3992484d"},"vehicle_type_id":"4","last_reported":1760605931,"current_range_meters":18000,"station_id":"","pricing_plan_id":"cebpf4jnsgd1na2vs0mg"},{"bike_id":"3d4bffe5-e2fd-4485-95ab-132c6efe3f26","system_id":"levelo_inurba_marseille","lat":43.2962,"lon":5.37724,"is_reserved":false,"is_disabled":false,"rental_uris":{"android":"levelo://app?vid=3d4bffe5-e2fd-4485-95ab-132c6efe3f26","ios":"levelo://app?vid=3d4bffe5-e2fd-4485-95ab-132c6efe3f26"},"vehicle_type_id":"4","last_reported":1760605931,"current_range_meters":18000,"station_id":"ce4bgi92rcd13ifvqb90","pricing_plan_id":"cebpf4jnsgd1na2vs0mg"},{"bike_id":"be097747-7e72-47c4-a686-c09408cd20b3","system_id":"levelo_inurba_marseille","lat":43.29589,"lon":5.38094,"is_reserved":false,"is_disabled":false,"rental_uris":{"android":"levelo://app?vid=be097747-7e72-47c4-a686-c09408cd20b3","ios":"levelo://app?vid=be097747-7e72-47c4-a686-c09408cd20b3"},"vehicle_type_id":"4","last_reported":1760605931,"current_range_meters":18000,"station_id":"ce4bgl12rcd13ifvqbo0","pricing_plan_id":"cebpf4jnsgd1na2vs0mg"},{"bike_id":"9cda7637-439c-4a5d-b8f2-565711b06844","system_id":"levelo_inurba_marseille","lat":43.29585,"lon":5.36735,"is_reserved":false,"is_disabled":false,"rental_uris":{"android":"levelo://app?vid=9cda7637-439c-4a5d-b8f2-565711b06844","ios":"levelo://app?vid=9cda7637-439c-4a5d-b8f2-565711b06844"},"vehicle_type_id":"4","last_reported":1760605931,"current_range_meters":18000,"station_id":"ce4bgph2rcd13ifvqc2g","pricing_plan_id":"cebpf4jnsgd1na2vs0mg"},{"bike_id":"14ed3bf9-9f9e-4fe2-8ffe-ea8ba0c6c21d","system_id":"levelo_inurba_marseille","lat":43.30894,"lon":5.37193,"is_reserved":false,"is_disabled":false,"rental_uris":{"android":"levelo://app?vid=14ed3bf9-9f9e-4fe2-8ffe-ea8ba0c6c21d","ios":"levelo://app?vid=14ed3bf9-9f9e-4fe2-8ffe-ea8ba0c6c21d"},"vehicle_type_id":"4","last_reported":1760605931,"current_range_meters":18000,"station_id":"ce4bguh2rcd13ifvqckg","pricing_plan_id":"cebpf4jnsgd1na2vs0mg"},{"bike_id":"75e91a31-a1d7-420d-aed9-2331f7a8f191","system_id":"levelo_inurba_marseille","lat":43.28718,"lon":5.37933,"is_reserved":false,"is_disabled":false,"rental_uris":{"android":"levelo://app?vid=75e91a31-a1d7-420d-aed9-2331f7a8f191","ios":"levelo://app?vid=75e91a31-a1d7-420d-aed9-2331f7a8f191"},"vehicle_type_id":"4","last_reported":1760605931,"current_range_meters":18000,"station_id":"ce4bh9p2rcd13ifvqec0","pricing_plan_id":"cebpf4jnsgd1na2vs0mg"},{"bike_id":"277a8ce3-e511-4ac3-9b8c-f868b42505fa","system_id":"levelo_inurba_marseille","lat":43.27208,"lon":5.39182,"is_reserved":false,"is_disabled":false,"rental_uris":{"android":"levelo://app?vid=277a8ce3-e511-4ac3-9b8c-f868b42505fa","ios":"levelo://app?vid=277a8ce3-e511-4ac3-9b8c-f868b42505fa"},"vehicle_type_id":"4","last_reported":1760605931,"current_range_meters":18000,"station_id":"ce4bhhp2rcd13ifvqfm0","pricing_plan_id":"cebpf4jnsgd1na2vs0mg"},{"bike_id":"939cd55c-d317-437d-862c-54cd6b079a94","system_id":"levelo_inurba_marseille","lat":43.25931,"lon":5.40904,"is_reserved":false,"is_disabled":false,"rental_uris":{"android":"levelo://app?vid=939cd55c-d317-437d-862c-54cd6b079a94","ios":"levelo://app?vid=939cd55c-d317-437d-862c-54cd6b079a94"},"vehicle_type_id":"4","last_reported":1760605931,"current_range_meters":18000,"station_id":"ce4bhm92rcd13ifvqglg","pricing_plan_id":"cebpf4jnsgd1na2vs0mg"},{"bike_id":"ce8cb95b-4a71-4403-95ec-e293ae4be259","system_id":"levelo_inurba_marseille","lat":43.32123,"lon":5.36767,"is_reserved":false,"is_disabled":false,"rental_uris":{"android":"levelo://app?vid=ce8cb95b-4a71-4403-95ec-e293ae4be259","ios":"levelo://app?vid=ce8cb95b-4a71-4403-95ec-e293ae4be259"},"vehicle_type_id":"4","last_reported":1760605931,"current_range_meters":18000,"station_id":"ce4bhrh2rcd13ifvqhug","pricing_plan_id":"cebpf4jnsgd1na2vs0mg"},{"bike_id":"27757e1d-5700-4389-9001-aa12dff96a92","system_id":"levelo_inurba_marseille","lat":43.26029,"lon":5.37552,"is_reserved":false,"is_disabled":false,"rental_uris":{"android":"levelo://app?vid=27757e1d-5700-4389-9001-aa12dff96a92","ios":"levelo://app?vid=27757e1d-5700-4389-9001-aa12dff96a92"},"vehicle_type_id":"4","last_reported":1760605931,"current_range_meters":18800,"station_id":"","pricing_plan_id":"cebpf4jnsgd1na2vs0mg"},{"bike_id":"390343b1-badf-4d8d-8ef3-d4d305ed82ba","system_id":"levelo_inurba_marseille","lat":43.28972,"lon":5.37825,"is_reserved":false,"is_disabled":false,"rental_uris":{"android":"levelo://app?vid=390343b1-badf-4d8d-8ef3-d4d305ed82ba","ios":"levelo://app?vid=390343b1-badf-4d8d-8ef3-d4d305ed82ba"},"vehicle_type_id":"4","last_reported":1760605931,"current_range_meters":18800,"station_id":"ce4bh9p2rcd13ifvqed0","pricing_plan_id":"cebpf4jnsgd1na2vs0mg"},{"bike_id":"19526fef-f61f-44e0-b029-99e6711d9053","system_id":"levelo_inurba_marseille","lat":43.25937,"lon":5.40894,"is_reserved":false,"is_disabled":false,"rental_uris":{"android":"levelo://app?vid=19526fef-f61f-44e0-b029-99e6711d9053","ios":"levelo://app?vid=19526fef-f61f-44e0-b029-99e6711d9053"},"vehicle_type_id":"4","last_reported":1760605931,"current_range_meters":18800,"station_id":"ce4bhm92rcd13ifvqglg","pricing_plan_id":"cebpf4jnsgd1na2vs0mg"},{"bike_id":"2476723a-5d91-4b4a-90fe-b71038579e01","system_id":"levelo_inurba_marseille","lat":43.281554,"lon":5.426398,"is_reserved":false,"is_disabled":false,"rental_uris":{"android":"levelo://app?vid=2476723a-5d91-4b4a-90fe-b71038579e01","ios":"levelo://app?vid=2476723a-5d91-4b4a-90fe-b71038579e01"},"vehicle_type_id":"4","last_reported":1760605931,"current_range_meters":18800,"station_id":"ce4bhnh2rcd13ifvqgug","pricing_plan_id":"cebpf4jnsgd1na2vs0mg"},{"bike_id":"1d3ab4d5-2901-402a-ae78-c1bd4b87f1bc","system_id":"levelo_inurba_marseille","lat":43.231951,"lon":5.355534,"is_reserved":false,"is_disabled":false,"rental_uris":{"android":"levelo://app?vid=1d3ab4d5-2901-402a-ae78-c1bd4b87f1bc","ios":"levelo://app?vid=1d3ab4d5-2901-402a-ae78-c1bd4b87f1bc"},"vehicle_type_id":"4","last_reported":1760605931,"current_range_meters":18800,"station_id":"ce4bhu92rcd13ifvqi70","pricing_plan_id":"cebpf4jnsgd1na2vs0mg"},{"bike_id":"42bc3f62-34df-4095-87cc-aeefd3ee2f7a","system_id":"levelo_inurba_marseille","lat":43.2416,"lon":5.36423,"is_reserved":false,"is_disabled":false,"rental_uris":{"android":"levelo://app?vid=42bc3f62-34df-4095-87cc-aeefd3ee2f7a","ios":"levelo://app?vid=42bc3f62-34df-4095-87cc-aeefd3ee2f7a"},"vehicle_type_id":"4","last_reported":1760605931,"current_range_meters":18800,"station_id":"cpo36qri1sfpv3e86is0","pricing_plan_id":"cebpf4jnsgd1na2vs0mg"},{"bike_id":"c972ea9e-75a7-4406-a585-e899ae940d8e","system_id":"levelo_inurba_marseille","lat":43.313435,"lon":5.367146,"is_reserved":false,"is_disabled":false,"rental_uris":{"android":"levelo://app?vid=c972ea9e-75a7-4406-a585-e899ae940d8e","ios":"levelo://app?vid=c972ea9e-75a7-4406-a585-e899ae940d8e"},"vehicle_type_id":"4","last_reported":1760605931,"current_range_meters":19200,"station_id":"","pricing_plan_id":"cebpf4jnsgd1na2vs0mg"},{"bike_id":"7f36d46c-e578-459b-a380-f7da4496235d","system_id":"levelo_inurba_marseille","lat":43.30603,"lon":5.37214,"is_reserved":false,"is_disabled":false,"rental_uris":{"android":"levelo://app?vid=7f36d46c-e578-459b-a380-f7da4496235d","ios":"levelo://app?vid=7f36d46c-e578-459b-a380-f7da4496235d"},"vehicle_type_id":"4","last_reported":1760605931,"current_range_meters":19200,"station_id":"ce4bgqh2rcd13ifvqc4g","pricing_plan_id":"cebpf4jnsgd1na2vs0mg"},{"bike_id":"46b0927d-b9cc-4352-8c5b-bfe21f7e9310","system_id":"levelo_inurba_marseille","lat":43.27315,"lon":5.39083,"is_reserved":false,"is_disabled":false,"rental_uris":{"android":"levelo://app?vid=46b0927d-b9cc-4352-8c5b-bfe21f7e9310","ios":"levelo://app?vid=46b0927d-b9cc-4352-8c5b-bfe21f7e9310"},"vehicle_type_id":"4","last_reported":1760605931,"current_range_meters":19200,"station_id":"ce4bhgp2rcd13ifvqfe0","pricing_plan_id":"cebpf4jnsgd1na2vs0mg"},{"bike_id":"a2c4cc9d-924e-4804-8d66-160e0fd9a984","system_id":"levelo_inurba_marseille","lat":43.26946,"lon":5.38641,"is_reserved":false,"is_disabled":false,"rental_uris":{"android":"levelo://app?vid=a2c4cc9d-924e-4804-8d66-160e0fd9a984","ios":"levelo://app?vid=a2c4cc9d-924e-4804-8d66-160e0fd9a984"},"vehicle_type_id":"4","last_reported":1760605931,"current_range_meters":19200,"station_id":"ce4bhh92rcd13ifvqfh0","pricing_plan_id":"cebpf4jnsgd1na2vs0mg"},{"bike_id":"686a7c6c-3489-4d11-bc85-7379d0c8c057","system_id":"levelo_inurba_marseille","lat":43.27083,"lon":5.40253,"is_reserved":false,"is_disabled":false,"rental_uris":{"android":"levelo://app?vid=686a7c6c-3489-4d11-bc85-7379d0c8c057","ios":"levelo://app?vid=686a7c6c-3489-4d11-bc85-7379d0c8c057"},"vehicle_type_id":"4","last_reported":1760605931,"current_range_meters":19200,"station_id":"ce4bhk92rcd13ifvqgc0","pricing_plan_id":"cebpf4jnsgd1na2vs0mg"},{"bike_id":"a611cef0-a315-4d28-afc0-942d29477ef6","system_id":"levelo_inurba_marseille","lat":43.25086,"lon":5.39524,"is_reserved":false,"is_disabled":false,"rental_uris":{"android":"levelo://app?vid=a611cef0-a315-4d28-afc0-942d29477ef6","ios":"levelo://app?vid=a611cef0-a315-4d28-afc0-942d29477ef6"},"vehicle_type_id":"4","last_reported":1760605931,"current_range_meters":19200,"station_id":"ce4bhm12rcd13ifvqgkg","pricing_plan_id":"cebpf4jnsgd1na2vs0mg"},{"bike_id":"d6e33a0f-af3e-45ae-a5c9-68401d39b4b3","system_id":"levelo_inurba_marseille","lat":43.32353,"lon":5.36733,"is_reserved":false,"is_disabled":false,"rental_uris":{"android":"levelo://app?vid=d6e33a0f-af3e-45ae-a5c9-68401d39b4b3","ios":"levelo://app?vid=d6e33a0f-af3e-45ae-a5c9-68401d39b4b3"},"vehicle_type_id":"4","last_reported":1760605931,"current_range_meters":19200,"station_id":"ce4bhsh2rcd13ifvqi2g","pricing_plan_id":"cebpf4jnsgd1na2vs0mg"},{"bike_id":"a618d75f-c056-4d7b-8ccd-3fcd16a7d304","system_id":"levelo_inurba_marseille","lat":43.34146,"lon":5.409077,"is_reserved":false,"is_disabled":false,"rental_uris":{"android":"levelo://app?vid=a618d75f-c056-4d7b-8ccd-3fcd16a7d304","ios":"levelo://app?vid=a618d75f-c056-4d7b-8ccd-3fcd16a7d304"},"vehicle_type_id":"4","last_reported":1760605931,"current_range_meters":19200,"station_id":"cki0cbj6b192h4jlfktg","pricing_plan_id":"cebpf4jnsgd1na2vs0mg"},{"bike_id":"a095629d-ba7f-4291-8374-d95ebd0267c9","system_id":"levelo_inurba_marseille","lat":43.241648,"lon":5.363889,"is_reserved":false,"is_disabled":false,"rental_uris":{"android":"levelo://app?vid=a095629d-ba7f-4291-8374-d95ebd0267c9","ios":"levelo://app?vid=a095629d-ba7f-4291-8374-d95ebd0267c9"},"vehicle_type_id":"4","last_reported":1760605931,"current_range_meters":19200,"station_id":"cpo36qri1sfpv3e86is0","pricing_plan_id":"cebpf4jnsgd1na2vs0mg"},{"bike_id":"924c5c39-3257-4045-8848-ef2f70ab8850","system_id":"levelo_inurba_marseille","lat":43.2983,"lon":5.36368,"is_reserved":false,"is_disabled":false,"rental_uris":{"android":"levelo://app?vid=924c5c39-3257-4045-8848-ef2f70ab8850","ios":"levelo://app?vid=924c5c39-3257-4045-8848-ef2f70ab8850"},