{"last_updated":1706310443,"ttl":30,"version":"2.2","data":{"bikes":[{"bike_id":"91b3116b-72ba-4358-ac81-3805fe3b1440","system_id":"levelo_inurba_marseille","lat":43.312239,"lon":5.368562,"is_reserved":false,"is_disabled":false,"rental_uris":{"android":"levelo://app?vid=91b3116b-72ba-4358-ac81-3805fe3b1440","ios":"levelo://app?vid=91b3116b-72ba-4358-ac81-3805fe3b1440"},"vehicle_type_id":"4","last_reported":1706310443,"current_range_meters":27200,"station_id":"ce4bgl92rcd13ifvqbq0","pricing_plan_id":"free"},{"bike_id":"a886b9fb-7b46-496e-8161-66ac5ab02d92","system_id":"levelo_inurba_marseille","lat":43.312239,"lon":5.368562,"is_reserved":false,"is_disabled":false,"rental_uris":{"android":"levelo://app?vid=a886b9fb-7b46-496e-8161-66ac5ab02d92","ios":"levelo://app?vid=a886b9fb-7b46-496e-8161-66ac5ab02d92"},"vehicle_type_id":"4","last_reported":1706310443,"current_range_meters":10000,"station_id":"ce4bgl92rcd13ifvqbq0","pricing_plan_id":"free"},{"bike_id":"f49e7c9b-97ea-4da2-99f0-7fe248cd220a","system_id":"levelo_inurba_marseille","lat":43.312239,"lon":5.368562,"is_reserved":false,"is_disabled":false,"rental_uris":{"android":"levelo://app?vid=f49e7c9b-97ea-4da2-99f0-7fe248cd220a","ios":"levelo://app?vid=f49e7c9b-97ea-4da2-99f0-7fe248cd220a"},"vehicle_type_id":"4","last_reported":1706310443,"current_range_meters":6000,"station_id":"ce4bgl92rcd13ifvqbq0","pricing_plan_id":"free"},{"bike_id":"8eb2a562-e7e3-45a3-9cf9-094753a1edff","system_id":"levelo_inurba_marseille","lat":43.314811,"lon":5.373104,"is_reserved":false,"is_disabled":false,"rental_uris":{"android":"levelo://app?vid=8eb2a562-e7e3-45a3-9cf9-094753a1edff","ios":"levelo://app?vid=8eb2a562-e7e3-45a3-9cf9-094753a1edff"},"vehicle_type_id":"4","last_reported":1706310443,"current_range_meters":24000,"station_id":"ce4bgt12rcd13ifvqcd0","pricing_plan_id":"free"},{"bike_id":"36f05c4a-2cce-4216-9458-b1be5b40d404","system_id":"levelo_inurba_marseille","lat":43.314811,"lon":5.373103,"is_reserved":false,"is_disabled":false,"rental_uris":{"android":"levelo://app?vid=36f05c4a-2cce-4216-9458-b1be5b40d404","ios":"levelo://app?vid=36f05c4a-2cce-4216-9458-b1be5b40d404"},"vehicle_type_id":"4","last_reported":1706310443,"current_range_meters":6000,"station_id":"ce4bgt12rcd13ifvqcd0","pricing_plan_id":"free"},{"bike_id":"43f2e9a3-4e4c-4d41-8a34-9514a3e6c5d3","system_id":"levelo_inurba_marseille","lat":43.316037,"lon":5.373053,"is_reserved":false,"is_disabled":false,"rental_uris":{"android":"levelo://app?vid=43f2e9a3-4e4c-4d41-8a34-9514a3e6c5d3","ios":"levelo://app?vid=43f2e9a3-4e4c-4d41-8a34-9514a3e6c5d3"},"vehicle_type_id":"4","last_reported":1706310443,"current_range_meters":7600,"station_id":"","pricing_plan_id":"free"},{"bike_id":"9443e511-2e2d-41e7-a2cd-4c95bf03992f","system_id":"levelo_inurba_marseille","lat":43.31356,"lon":5.37622,"is_reserved":false,"is_disabled":false,"rental_uris":{"android":"levelo://app?vid=9443e511-2e2d-41e7-a2cd-4c95bf03992f","ios":"levelo://app?vid=9443e511-2e2d-41e7-a2cd-4c95bf03992f"},"vehicle_type_id":"4","last_reported":1706310443,"current_range_meters":9600,"station_id":"","pricing_plan_id":"free"},{"bike_id":"7312ef00-b7a5-49e5-ac0b-8c899fa10d18","system_id":"levelo_inurba_marseille","lat":43.305714,"lon":5.365633,"is_reserved":false,"is_disabled":false,"rental_uris":{"android":"levelo://app?vid=7312ef00-b7a5-49e5-ac0b-8c899fa10d18","ios":"levelo://app?vid=7312ef00-b7a5-49e5-ac0b-8c899fa10d18"},"vehicle_type_id":"4","last_reported":1706310443,"current_range_meters":12800,"station_id":"ce4bgs12rcd13ifvqcag","pricing_plan_id":"free"},{"bike_id":"fe603482-f7ed-4ce9-80d9-6af8d8e67238","system_id":"levelo_inurba_marseille","lat":43.305368,"lon":5.367343,"is_reserved":false,"is_disabled":false,"rental_uris":{"android":"levelo://app?vid=fe603482-f7ed-4ce9-80d9-6af8d8e67238","ios":"levelo://app?vid=fe603482-f7ed-4ce9-80d9-6af8d8e67238"},"vehicle_type_id":"4","last_reported":1706310443,"current_range_meters":9200,"station_id":"ce4bgrp2rcd13ifvqc9g","pricing_plan_id":"free"},{"bike_id":"f775adf8-82bf-45c6-b264-2c7a95aae9d7","system_id":"levelo_inurba_marseille","lat":43.305706,"lon":5.365654,"is_reserved":false,"is_disabled":false,"rental_uris":{"android":"levelo://app?vid=f775adf8-82bf-45c6-b264-2c7a95aae9d7","ios":"levelo://app?vid=f775adf8-82bf-45c6-b264-2c7a95aae9d7"},"vehicle_type_id":"4","last_reported":1706310443,"current_range_meters":22800,"station_id":"ce4bgs12rcd13ifvqcag","pricing_plan_id":"free"},{"bike_id":"7912ef14-46e0-4fa3-8b27-205683eaa5c7","system_id":"levelo_inurba_marseille","lat":43.311239,"lon":5.377549,"is_reserved":false,"is_disabled":false,"rental_uris":{"android":"levelo://app?vid=7912ef14-46e0-4fa3-8b27-205683eaa5c7","ios":"levelo://app?vid=7912ef14-46e0-4fa3-8b27-205683eaa5c7"},"vehicle_type_id":"4","last_reported":1706310443,"current_range_meters":0,"station_id":"ce4bgt92rcd13ifvqcg0","pricing_plan_id":"free"},{"bike_id":"39b4bc65-8564-495f-8bf4-ad2d0396fdb9","system_id":"levelo_inurba_marseille","lat":43.305989,"lon":5.37225,"is_reserved":false,"is_disabled":false,"rental_uris":{"android":"levelo://app?vid=39b4bc65-8564-495f-8bf4-ad2d0396fdb9","ios":"levelo://app?vid=39b4bc65-8564-495f-8bf4-ad2d0396fdb9"},"vehicle_type_id":"4","last_reported":1706310443,"current_range_meters":5200,"station_id":"ce4bgqh2rcd13ifvqc4g","pricing_plan_id":"free"},{"bike_id":"1c0d4dc0-325c-4866-8541-798517ba7f78","system_id":"levelo_inurba_marseille","lat":43.311214,"lon":5.377601,"is_reserved":false,"is_disabled":false,"rental_uris":{"android":"levelo://app?vid=1c0d4dc0-325c-4866-8541-798517ba7f78","ios":"levelo://app?vid=1c0d4dc0-325c-4866-8541-798517ba7f78"},"vehicle_type_id":"4","last_reported":1706310443,"current_range_meters":8000,"station_id":"ce4bgt92rcd13ifvqcg0","pricing_plan_id":"free"},{"bike_id":"f908880e-b233-4e54-9e91-657533675421","system_id":"levelo_inurba_marseille","lat":43.311226,"lon":5.37762,"is_reserved":false,"is_disabled":false,"rental_uris":{"android":"levelo://app?vid=f908880e-b233-4e54-9e91-657533675421","ios":"levelo://app?vid=f908880e-b233-4e54-9e91-657533675421"},"vehicle_type_id":"4","last_reported":1706310443,"current_range_meters":11200,"station_id":"ce4bgt92rcd13ifvqcg0","pricing_plan_id":"free"},{"bike_id":"d52aaad5-fe4b-4a40-9cb0-97e5e7f7f598","system_id":"levelo_inurba_marseille","lat":43.3112,"lon":5.37766,"is_reserved":false,"is_disabled":false,"rental_uris":{"android":"levelo://app?vid=d52aaad5-fe4b-4a40-9cb0-97e5e7f7f598","ios":"levelo://app?vid=d52aaad5-fe4b-4a40-9cb0-97e5e7f7f598"},"vehicle_type_id":"4","last_reported":1706310443,"current_range_meters":26800,"station_id":"ce4bgt92rcd13ifvqcg0","pricing_plan_id":"free"},{"bike_id":"fd1a8f69-9c15-4cdb-97b1-96db5e1e66d5","system_id":"levelo_inurba_marseille","lat":43.31123,"lon":5.37768,"is_reserved":false,"is_disabled":false,"rental_uris":{"android":"levelo://app?vid=fd1a8f69-9c15-4cdb-97b1-96db5e1e66d5","ios":"levelo://app?vid=fd1a8f69-9c15-4cdb-97b1-96db5e1e66d5"},"vehicle_type_id":"4","last_reported":1706310443,"current_range_meters":8000,"station_id":"ce4bgt92rcd13ifvqcg0","pricing_plan_id":"free"},{"bike_id":"51a104c6-3aa3-4d51-812e-275f8993f1e1","system_id":"levelo_inurba_marseille","lat":43.31129,"lon":5.377727,"is_reserved":false,"is_disabled":false,"rental_uris":{"android":"levelo://app?vid=51a104c6-3aa3-4d51-812e-275f8993f1e1","ios":"levelo://app?vid=51a104c6-3aa3-4d51-812e-275f8993f1e1"},"vehicle_type_id":"4","last_reported":1706310443,"current_range_meters":0,"station_id":"ce4bgt92rcd13ifvqcg0","pricing_plan_id":"free"},{"bike_id":"7516ddfa-16b8-44a5-9f2c-5e661d910fd3","system_id":"levelo_inurba_marseille","lat":43.307945,"lon":5.376487,"is_reserved":false,"is_disabled":false,"rental_uris":{"android":"levelo://app?vid=7516ddfa-16b8-44a5-9f2c-5e661d910fd3","ios":"levelo://app?vid=7516ddfa-16b8-44a5-9f2c-5e661d910fd3"},"vehicle_type_id":"4","last_reported":1706310443,"current_range_meters":20800,"station_id":"ce4bgv92rcd13ifvqcq0","pricing_plan_id":"free"},{"bike_id":"0091602b-f30e-47cb-9a32-a511cb5dd04e","system_id":"levelo_inurba_marseille","lat":43.307945,"lon":5.376487,"is_reserved":false,"is_disabled":false,"rental_uris":{"android":"levelo://app?vid=0091602b-f30e-47cb-9a32-a511cb5dd04e","ios":"levelo://app?vid=0091602b-f30e-47cb-9a32-a511cb5dd04e"},"vehicle_type_id":"4","last_reported":1706310443,"current_range_meters":1200,"station_id":"ce4bgv92rcd13ifvqcq0","pricing_plan_id":"free"},{"bike_id":"0e11932e-17b7-4146-8e63-2f6f24b1e8ce","system_id":"levelo_inurba_marseille","lat":43.30784,"lon":5.376446,"is_reserved":false,"is_disabled":false,"rental_uris":{"android":"levelo://app?vid=0e11932e-17b7-4146-8e63-2f6f24b1e8ce","ios":"levelo://app?vid=0e11932e-17b7-4146-8e63-2f6f24b1e8ce"},"vehicle_type_id":"4","last_reported":1706310443,"current_range_meters":0,"station_id":"ce4bgv92rcd13ifvqcq0","pricing_plan_id":"free"},{"bike_id":"8e94f265-5043-44b3-8de4-968fa1620d0f","system_id":"levelo_inurba_marseille","lat":43.307945,"lon":5.376487,"is_reserved":false,"is_disabled":false,"rental_uris":{"android":"levelo://app?vid=8e94f265-5043-44b3-8de4-968fa1620d0f","ios":"levelo://app?vid=8e94f265-5043-44b3-8de4-968fa1620d0f"},"vehicle_type_id":"4","last_reported":1706310443,"current_range_meters":26800,"station_id":"ce4bgv92rcd13ifvqcq0","pricing_plan_id":"free"},{"bike_id":"61278a04-a662-4d67-951b-adfc53387f8d","system_id":"levelo_inurba_marseille","lat":43.311125,"lon":5.377624,"is_reserved":false,"is_disabled":false,"rental_uris":{"android":"levelo://app?vid=61278a04-a662-4d67-951b-adfc53387f8d","ios":"levelo://app?vid=61278a04-a662-4d67-951b-adfc53387f8d"},"vehicle_type_id":"4","last_reported":1706310443,"current_range_meters":14000,"station_id":"ce4bgt92rcd13ifvqcg0","pricing_plan_id":"free"},{"bike_id":"e455e920-4733-43cd-a5f1-8f042cd9061a","system_id":"levelo_inurba_marseille","lat":43.317075,"lon":5.377367,"is_reserved":false,"is_disabled":false,"rental_uris":{"android":"levelo://app?vid=e455e920-4733-43cd-a5f1-8f042cd9061a","ios":"levelo://app?vid=e455e920-4733-43cd-a5f1-8f042cd9061a"},"vehicle_type_id":"4","last_reported":1706310443,"current_range_meters":29200,"station_id":"ce4bgth2rcd13ifvqch0","pricing_plan_id":"free"},{"bike_id":"5b0a56ae-3d70-40f6-ad3f-78c604f89c73","system_id":"levelo_inurba_marseille","lat":43.31245,"lon":5.379849,"is_reserved":false,"is_disabled":false,"rental_uris":{"android":"levelo://app?vid=5b0a56ae-3d70-40f6-ad3f-78c604f89c73","ios":"levelo://app?vid=5b0a56ae-3d70-40f6-ad3f-78c604f89c73"},"vehicle_type_id":"4","last_reported":1706310443,"current_range_meters":15200,"station_id":"","pricing_plan_id":"free"},{"bike_id":"b83daeb9-a39c-4884-86e2-16a37c651f7f","system_id":"levelo_inurba_marseille","lat":43.32007,"lon":5.3761,"is_reserved":false,"is_disabled":false,"rental_uris":{"android":"levelo://app?vid=b83daeb9-a39c-4884-86e2-16a37c651f7f","ios":"levelo://app?vid=b83daeb9-a39c-4884-86e2-16a37c651f7f"},"vehicle_type_id":"4","last_reported":1706310443,"current_range_meters":13200,"station_id":"","pricing_plan_id":"free"},{"bike_id":"d773b757-8180-4e59-8522-fbd9c783a0db","system_id":"levelo_inurba_marseille","lat":43.301939,"lon":5.366286,"is_reserved":false,"is_disabled":false,"rental_uris":{"android":"levelo://app?vid=d773b757-8180-4e59-8522-fbd9c783a0db","ios":"levelo://app?vid=d773b757-8180-4e59-8522-fbd9c783a0db"},"vehicle_type_id":"4","last_reported":1706310443,"current_range_meters":9600,"station_id":"ce4bgrh2rcd13ifvqc8g","pricing_plan_id":"free"},{"bike_id":"ecbad685-147d-4c97-9bf4-264f6a89b47b","system_id":"levelo_inurba_marseille","lat":43.30803,"lon":5.381467,"is_reserved":false,"is_disabled":false,"rental_uris":{"android":"levelo://app?vid=ecbad685-147d-4c97-9bf4-264f6a89b47b","ios":"levelo://app?vid=ecbad685-147d-4c97-9bf4-264f6a89b47b"},"vehicle_type_id":"4","last_reported":1706310443,"current_range_meters":0,"station_id":"ce4bgt12rcd13ifvqce0","pricing_plan_id":"free"},{"bike_id":"54f58f4f-9f1a-461d-bf0f-583c132184d8","system_id":"levelo_inurba_marseille","lat":43.308012,"lon":5.381511,"is_reserved":false,"is_disabled":false,"rental_uris":{"android":"levelo://app?vid=54f58f4f-9f1a-461d-bf0f-583c132184d8","ios":"levelo://app?vid=54f58f4f-9f1a-461d-bf0f-583c132184d8"},"vehicle_type_id":"4","last_reported":1706310443,"current_range_meters":7200,"station_id":"ce4bgt12rcd13ifvqce0","pricing_plan_id":"free"},{"bike_id":"947b09a6-99c6-4c35-9379-2361c8422e72","system_id":"levelo_inurba_marseille","lat":43.30459,"lon":5.37902,"is_reserved":false,"is_disabled":false,"rental_uris":{"android":"levelo://app?vid=947b09a6-99c6-4c35-9379-2361c8422e72","ios":"levelo://app?vid=947b09a6-99c6-4c35-9379-2361c8422e72"},"vehicle_type_id":"4","last_reported":1706310443,"current_range_meters":4000,"station_id":"ce4bgup2rcd13ifvqcn0","pricing_plan_id":"free"},{"bike_id":"e3cfa974-2663-4965-a96a-f55f3013619c","system_id":"levelo_inurba_marseille","lat":43.324771,"lon":5.36557,"is_reserved":false,"is_disabled":false,"rental_uris":{"android":"levelo://app?vid=e3cfa974-2663-4965-a96a-f55f3013619c","ios":"levelo://app?vid=e3cfa974-2663-4965-a96a-f55f3013619c"},"vehicle_type_id":"4","last_reported":1706310443,"current_range_meters":6800,"station_id":"ce4bhs12rcd13ifvqhvg","pricing_plan_id":"free"},{"bike_id":"d20eb7e9-cf29-463d-9e73-0bc301e970b5","system_id":"levelo_inurba_marseille","lat":43.324771,"lon":5.36557,"is_reserved":false,"is_disabled":false,"rental_uris":{"android":"levelo://app?vid=d20eb7e9-cf29-463d-9e73-0bc301e970b5","ios":"levelo://app?vid=d20eb7e9-cf29-463d-9e73-0bc301e970b5"},"vehicle_type_id":"4","last_reported":1706310443,"current_range_meters":23600,"station_id":"ce4bhs12rcd13ifvqhvg","pricing_plan_id":"free"},{"bike_id":"ec40115e-0430-4944-8ece-51306c67ea7e","system_id":"levelo_inurba_marseille","lat":43.324771,"lon":5.36557,"is_reserved":false,"is_disabled":false,"rental_uris":{"android":"levelo://app?vid=ec40115e-0430-4944-8ece-51306c67ea7e","ios":"levelo://app?vid=ec40115e-0430-4944-8ece-51306c67ea7e"},"vehicle_type_id":"4","last_reported":1706310443,"current_range_meters":18000,"station_id":"ce4bhs12rcd13ifvqhvg","pricing_plan_id":"free"},{"bike_id":"bad431fd-0d71-417d-8027-dea0abde6beb","system_id":"levelo_inurba_marseille","lat":43.324771,"lon":5.36557,"is_reserved":false,"is_disabled":false,"rental_uris":{"android":"levelo://app?vid=bad431fd-0d71-417d-8027-dea0abde6beb","ios":"levelo://app?vid=bad431fd-0d71-417d-8027-dea0abde6beb"},"vehicle_type_id":"4","last_reported":1706310443,"current_range_meters":8400,"station_id":"ce4bhs12rcd13ifvqhvg","pricing_plan_id":"free"},{"bike_id":"848ae957-72ee-4810-a9c3-a97d1fd5f547","system_id":"levelo_inurba_marseille","lat":43.301429,"lon":5.37413,"is_reserved":false,"is_disabled":false,"rental_uris":{"android":"levelo://app?vid=848ae957-72ee-4810-a9c3-a97d1fd5f547","ios":"levelo://app?vid=848ae957-72ee-4810-a9c3-a97d1fd5f547"},"vehicle_type_id":"4","last_reported":1706310443,"current_range_meters":20400,"station_id":"ce4bgs92rcd13ifvqcc0","pricing_plan_id":"free"},{"bike_id":"fc51b747-b33f-40c9-9c2c-bd6f886bc3e2","system_id":"levelo_inurba_marseille","lat":43.319887,"lon":5.381431,"is_reserved":false,"is_disabled":false,"rental_uris":{"android":"levelo://app?vid=fc51b747-b33f-40c9-9c2c-bd6f886bc3e2","ios":"levelo://app?vid=fc51b747-b33f-40c9-9c2c-bd6f886bc3e2"},"vehicle_type_id":"4","last_reported":1706310443,"current_range_meters":12800,"station_id":"ce4bhr12rcd13ifvqhpg","pricing_plan_id":"free"},{"bike_id":"fbd1c7c8-59f4-40f3-bd13-92a41198f404","system_id":"levelo_inurba_marseille","lat":43.319935,"lon":5.381699,"is_reserved":false,"is_disabled":false,"rental_uris":{"android":"levelo://app?vid=fbd1c7c8-59f4-40f3-bd13-92a41198f404","ios":"levelo://app?vid=fbd1c7c8-59f4-40f3-bd13-92a41198f404"},"vehicle_type_id":"4","last_reported":1706310443,"current_range_meters":18800,"station_id":"ce4bhr12rcd13ifvqhpg","pricing_plan_id":"free"},{"bike_id":"5f7ec9ca-defa-4048-96f4-b62ebd1a927a","system_id":"levelo_inurba_marseille","lat":43.319935,"lon":5.381699,"is_reserved":false,"is_disabled":false,"rental_uris":{"android":"levelo://app?vid=5f7ec9ca-defa-4048-96f4-b62ebd1a927a","ios":"levelo://app?vid=5f7ec9ca-defa-4048-96f4-b62ebd1a927a"},"vehicle_type_id":"4","last_reported":1706310443,"current_range_meters":21600,"station_id":"ce4bhr12rcd13ifvqhpg","pricing_plan_id":"free"},{"bike_id":"01533f59-2c23-4279-b5fa-c0608335cf09","system_id":"levelo_inurba_marseille","lat":43.319992,"lon":5.381499,"is_reserved":false,"is_disabled":false,"rental_uris":{"android":"levelo://app?vid=01533f59-2c23-4279-b5fa-c0608335cf09","ios":"levelo://app?vid=01533f59-2c23-4279-b5fa-c0608335cf09"},"vehicle_type_id":"4","last_reported":1706310443,"current_range_meters":400,"station_id":"ce4bhr12rcd13ifvqhpg","pricing_plan_id":"free"},{"bike_id":"d11a1f3a-d548-483b-8bfb-a3d43524c954","system_id":"levelo_inurba_marseille","lat":43.319935,"lon":5.381699,"is_reserved":false,"is_disabled":false,"rental_uris":{"android":"levelo://app?vid=d11a1f3a-d548-483b-8bfb-a3d43524c954","ios":"levelo://app?vid=d11a1f3a-d548-483b-8bfb-a3d43524c954"},"vehicle_type_id":"4","last_reported":1706310443,"current_range_meters":2800,"station_id":"ce4bhr12rcd13ifvqhpg","pricing_plan_id":"free"},{"bike_id":"ae7ab608-8fac-4c0d-9f43-8ffacb07a49d","system_id":"levelo_inurba_marseille","lat":43.319935,"lon":5.381699,"is_reserved":false,"is_disabled":false,"rental_uris":{"android":"levelo://app?vid=ae7ab608-8fac-4c0d-9f43-8ffacb07a49d","ios":"levelo://app?vid=ae7ab608-8fac-4c0d-9f43-8ffacb07a49d"},"vehicle_type_id":"4","last_reported":1706310443,"current_range_meters":9200,"station_id":"ce4bhr12rcd13ifvqhpg","pricing_plan_id":"free"},{"bike_id":"fd388e30-6c90-4fbf-abdf-dd15ef425659","system_id":"levelo_inurba_marseille","lat":43.319967,"lon":5.381565,"is_reserved":false,"is_disabled":false,"rental_uris":{"android":"levelo://app?vid=fd388e30-6c90-4fbf-abdf-dd15ef425659","ios":"levelo://app?vid=fd388e30-6c90-4fbf-abdf-dd15ef425659"},"vehicle_type_id":"4","last_reported":1706310443,"current_range_meters":8800,"station_id":"ce4bhr12rcd13ifvqhpg","pricing_plan_id":"free"},{"bike_id":"d8d04777-40d0-4693-ab18-0c08b137c5e6","system_id":"levelo_inurba_marseille","lat":43.313618,"lon":5.38483,"is_reserved":false,"is_disabled":false,"rental_uris":{"android":"levelo://app?vid=d8d04777-40d0-4693-ab18-0c08b137c5e6","ios":"levelo://app?vid=d8d04777-40d0-4693-ab18-0c08b137c5e6"},"vehicle_type_id":"4","last_reported":1706310443,"current_range_meters":22000,"station_id":"ce4bgt92rcd13ifvqcf0","pricing_plan_id":"free"},{"bike_id":"8b046161-6dc9-460f-b134-2023dde79010","system_id":"levelo_inurba_marseille","lat":43.300007,"lon":5.371537,"is_reserved":false,"is_disabled":false,"rental_uris":{"android":"levelo://app?vid=8b046161-6dc9-460f-b134-2023dde79010","ios":"levelo://app?vid=8b046161-6dc9-460f-b134-2023dde79010"},"vehicle_type_id":"4","last_reported":1706310443,"current_range_meters":16000,"station_id":"ce4bgr92rcd13ifvqc7g","pricing_plan_id":"free"},{"bike_id":"db4e8b71-181c-45f4-aced-cfb648ed808b","system_id":"levelo_inurba_marseille","lat":43.299724,"lon":5.371829,"is_reserved":false,"is_disabled":false,"rental_uris":{"android":"levelo://app?vid=db4e8b71-181c-45f4-aced-cfb648ed808b","ios":"levelo://app?vid=db4e8b71-181c-45f4-aced-cfb648ed808b"},"vehicle_type_id":"4","last_reported":1706310443,"current_range_meters":0,"station_id":"ce4bgr92rcd13ifvqc7g","pricing_plan_id":"free"},{"bike_id":"667af64d-1884-48bd-a133-399c1c053d8b","system_id":"levelo_inurba_marseille","lat":43.299222,"lon":5.365554,"is_reserved":false,"is_disabled":false,"rental_uris":{"android":"levelo://app?vid=667af64d-1884-48bd-a133-399c1c053d8b","ios":"levelo://app?vid=667af64d-1884-48bd-a133-399c1c053d8b"},"vehicle_type_id":"4","last_reported":1706310443,"current_range_meters":11200,"station_id":"ce4bgm92rcd13ifvqbr0","pricing_plan_id":"free"},{"bike_id":"e090a7fa-1bbf-44d5-b992-c2b577b050c9","system_id":"levelo_inurba_marseille","lat":43.299724,"lon":5.371829,"is_reserved":false,"is_disabled":false,"rental_uris":{"android":"levelo://app?vid=e090a7fa-1bbf-44d5-b992-c2b577b050c9","ios":"levelo://app?vid=e090a7fa-1bbf-44d5-b992-c2b577b050c9"},"vehicle_type_id":"4","last_reported":1706310443,"current_range_meters":16800,"station_id":"ce4bgr92rcd13ifvqc7g","pricing_plan_id":"free"},{"bike_id":"68a4b1bf-29e7-445d-b981-73c9de827bd1","system_id":"levelo_inurba_marseille","lat":43.299724,"lon":5.371829,"is_reserved":false,"is_disabled":false,"rental_uris":{"android":"levelo://app?vid=68a4b1bf-29e7-445d-b981-73c9de827bd1","ios":"levelo://app?vid=68a4b1bf-29e7-445d-b981-73c9de827bd1"},"vehicle_type_id":"4","last_reported":1706310443,"current_range_meters":0,"station_id":"ce4bgr92rcd13ifvqc7g","pricing_plan_id":"free"},{"bike_id":"b2c50230-cc4d-4dad-92cb-6de6eaacfbb6","system_id":"levelo_inurba_marseille","lat":43.299222,"lon":5.365554,"is_reserved":false,"is_disabled":false,"rental_uris":{"android":"levelo://app?vid=b2c50230-cc4d-4dad-92cb-6de6eaacfbb6","ios":"levelo://app?vid=b2c50230-cc4d-4dad-92cb-6de6eaacfbb6"},"vehicle_type_id":"4","last_reported":1706310443,"current_range_meters":11600,"station_id":"ce4bgm92rcd13ifvqbr0","pricing_plan_id":"free"},{"bike_id":"33cf7739-8575-4eb8-8a2f-71af7c96d9fc","system_id":"levelo_inurba_marseille","lat":43.299724,"lon":5.371829,"is_reserved":false,"is_disabled":false,"rental_uris":{"android":"levelo://app?vid=33cf7739-8575-4eb8-8a2f-71af7c96d9fc","ios":"levelo://app?vid=33cf7739-8575-4eb8-8a2f-71af7c96d9fc"},"vehicle_type_id":"4","last_reported":1706310443,"current_range_meters":9200,"station_id":"ce4bgr92rcd13ifvqc7g","pricing_plan_id":"free"},{"bike_id":"a1622f78-7429-4629-ba66-59e0b8659521","system_id":"levelo_inurba_marseille","lat":43.299724,"lon":5.371829,"is_reserved":false,"is_disabled":false,"rental_uris":{"android":"levelo://app?vid=a1622f78-7429-4629-ba66-59e0b8659521","ios":"levelo://app?vid=a1622f78-7429-4629-ba66-59e0b8659521"},"vehicle_type_id":"4","last_reported":1706310443,"current_range_meters":18800,"station_id":"ce4bgr92rcd13ifvqc7g","pricing_plan_id":"free"},{"bike_id":"ce01c9ac-c495-498e-b746-48901a2604e8","system_id":"levelo_inurba_marseille","lat":43.299222,"lon":5.365554,"is_reserved":false,"is_disabled":false,"rental_uris":{"android":"levelo://app?vid=ce01c9ac-c495-498e-b746-48901a2604e8","ios":"levelo://app?vid=ce01c9ac-c495-498e-b746-48901a2604e8"},"vehicle_type_id":"4","last_reported":1706310443,"current_range_meters":4800,"station_id":"ce4bgm92rcd13ifvqbr0","pricing_plan_id":"free"},{"bike_id":"86ca605a-48b3-433c-9666-07c3c5ac4379","system_id":"levelo_inurba_marseille","lat":43.318451,"lon":5.384252,"is_reserved":false,"is_disabled":false,"rental_uris":{"android":"levelo://app?vid=86ca605a-48b3-433c-9666-07c3c5ac4379","ios":"levelo://app?vid=86ca605a-48b3-433c-9666-07c3c5ac4379"},"vehicle_type_id":"4","last_reported":1706310443,"current_range_meters":0,"station_id":"","pricing_plan_id":"free"},{"bike_id":"fec4b285-d202-4368-b24a-6d8377bb2319","system_id":"levelo_inurba_marseille","lat":43.298433,"lon":5.362774,"is_reserved":false,"is_disabled":false,"rental_uris":{"android":"levelo://app?vid=fec4b285-d202-4368-b24a-6d8377bb2319","ios":"levelo://app?vid=fec4b285-d202-4368-b24a-6d8377bb2319"},"vehicle_type_id":"4","last_reported":1706310443,"current_range_meters":23600,"station_id":"ce4bgpp2rcd13ifvqc3g","pricing_plan_id":"free"},{"bike_id":"0ed08762-4714-4cec-9df0-a5c4a109ab09","system_id":"levelo_inurba_marseille","lat":43.298433,"lon":5.362774,"is_reserved":false,"is_disabled":false,"rental_uris":{"android":"levelo://app?vid=0ed08762-4714-4cec-9df0-a5c4a109ab09","ios":"levelo://app?vid=0ed08762-4714-4cec-9df0-a5c4a109ab09"},"vehicle_type_id":"4","last_reported":1706310443,"current_range_meters":17200,"station_id":"ce4bgpp2rcd13ifvqc3g","pricing_plan_id":"free"},{"bike_id":"329bdc04-14d0-4d54-9f12-d313678577f1","system_id":"levelo_inurba_marseille","lat":43.299243,"lon":5.374807,"is_reserved":false,"is_disabled":false,"rental_uris":{"android":"levelo://app?vid=329bdc04-14d0-4d54-9f12-d313678577f1","ios":"levelo://app?vid=329bdc04-14d0-4d54-9f12-d313678577f1"},"vehicle_type_id":"4","last_reported":1706310443,"current_range_meters":14400,"station_id":"ce4bgjh2rcd13ifvqbg0","pricing_plan_id":"free"},{"bike_id":"62a87c8f-6e62-4308-bae9-3929b709c371","system_id":"levelo_inurba_marseille","lat":43.311722,"lon":5.387247,"is_reserved":false,"is_disabled":false,"rental_uris":{"android":"levelo://app?vid=62a87c8f-6e62-4308-bae9-3929b709c371","ios":"levelo://app?vid=62a87c8f-6e62-4308-bae9-3929b709c371"},"vehicle_type_id":"4","last_reported":1706310443,"current_range_meters":17200,"station_id":"ce4bgv12rcd13ifvqcp0","pricing_plan_id":"free"},{"bike_id":"94d0ccd4-7d90-4e96-b1d6-b2d54d7db676","system_id":"levelo_inurba_marseille","lat":43.303837,"lon":5.418724,"is_reserved":false,"is_disabled":false,"rental_uris":{"android":"levelo://app?vid=94d0ccd4-7d90-4e96-b1d6-b2d54d7db676","ios":"levelo://app?vid=94d0ccd4-7d90-4e96-b1d6-b2d54d7db676"},"vehicle_type_id":"4","last_reported":1706310443,"current_range_meters":30000,"station_id":"ce4bhop2rcd13ifvqh7g","pricing_plan_id":"free"},{"bike_id":"d3bc91d1-160b-4b67-b3f8-fa5232ed1e6c","system_id":"levelo_inurba_marseille","lat":43.297794,"lon":5.370888,"is_reserved":false,"is_disabled":false,"rental_uris":{"android":"levelo://app?vid=d3bc91d1-160b-4b67-b3f8-fa5232ed1e6c","ios":"levelo://app?vid=d3bc91d1-160b-4b67-b3f8-fa5232ed1e6c"},"vehicle_type_id":"4","last_reported":1706310443,"current_range_meters":8000,"station_id":"ce4bgop2rcd13ifvqc1g","pricing_plan_id":"free"},{"bike_id":"f9342270-9d95-47b7-87dd-a57a4dd4e0cf","system_id":"levelo_inurba_marseille","lat":43.297794,"lon":5.370888,"is_reserved":false,"is_disabled":false,"rental_uris":{"android":"levelo://app?vid=f9342270-9d95-47b7-87dd-a57a4dd4e0cf","ios":"levelo://app?vid=f9342270-9d95-47b7-87dd-a57a4dd4e0cf"},"vehicle_type_id":"4","last_reported":1706310443,"current_range_meters":20400,"station_id":"ce4bgop2rcd13ifvqc1g","pricing_plan_id":"free"},{"bike_id":"954978ec-5c69-45bc-8603-a76c94a9ea2f","system_id":"levelo_inurba_marseille","lat":43.322872,"lon":5.382756,"is_reserved":false,"is_disabled":false,"rental_uris":{"android":"levelo://app?vid=954978ec-5c69-45bc-8603-a76c94a9ea2f","ios":"levelo://app?vid=954978ec-5c69-45bc-8603-a76c94a9ea2f"},"vehicle_type_id":"4","last_reported":1706310443,"current_range_meters":26800,"station_id":"ce4bhr12rcd13ifvqhqg","pricing_plan_id":"free"},{"bike_id":"8889a62b-f08d-43d6-bbc3-74d3cb3d445f","system_id":"levelo_inurba_marseille","lat":43.322872,"lon":5.382756,"is_reserved":false,"is_disabled":false,"rental_uris":{"android":"levelo://app?vid=8889a62b-f08d-43d6-bbc3-74d3cb3d445f","ios":"levelo://app?vid=8889a62b-f08d-43d6-bbc3-74d3cb3d445f"},"vehicle_type_id":"4","last_reported":1706310443,"current_range_meters":31200,"station_id":"ce4bhr12rcd13ifvqhqg","pricing_plan_id":"free"},{"bike_id":"bb5cc78f-0a25-43e2-927a-9d5a0eeb06b6","system_id":"levelo_inurba_marseille","lat":43.32292,"lon":5.38268,"is_reserved":false,"is_disabled":false,"rental_uris":{"android":"levelo://app?vid=bb5cc78f-0a25-43e2-927a-9d5a0eeb06b6","ios":"levelo://app?vid=bb5cc78f-0a25-43e2-927a-9d5a0eeb06b6"},"vehicle_type_id":"4","last_reported":1706310443,"current_range_meters":19200,"station_id":"ce4bhr12rcd13ifvqhqg","pricing_plan_id":"free"},{"bike_id":"ef5c6378-e000-405f-ab30-38f17e98c38f","system_id":"levelo_inurba_marseille","lat":43.322872,"lon":5.382756,"is_reserved":false,"is_disabled":false,"rental_uris":{"android":"levelo://app?vid=ef5c6378-e000-405f-ab30-38f17e98c38f","ios":"levelo://app?vid=ef5c6378-e000-405f-ab30-38f17e98c38f"},"vehicle_type_id":"4","last_reported":1706310443,"current_range_meters":20400,"station_id":"ce4bhr12rcd13ifvqhqg","pricing_plan_id":"free"},{"bike_id":"853d60b3-3466-4fdf-a0f1-6ec744748db4","system_id":"levelo_inurba_marseille","lat":43.297163,"lon":5.365866,"is_reserved":false,"is_disabled":false,"rental_uris":{"android":"levelo://app?vid=853d60b3-3466-4fdf-a0f1-6ec744748db4","ios":"levelo://app?vid=853d60b3-3466-4fdf-a0f1-6ec744748db4"},"vehicle_type_id":"4","last_reported":1706310443,"current_range_meters":17600,"station_id":"ce4bgn12rcd13ifvqbt0","pricing_plan_id":"free"},{"bike_id":"335ba0f2-703e-4760-8c97-19ddb643fdcb","system_id":"levelo_inurba_marseille","lat":43.2968,"lon":5.37291,"is_reserved":false,"is_disabled":false,"rental_uris":{"android":"levelo://app?vid=335ba0f2-703e-4760-8c97-19ddb643fdcb","ios":"levelo://app?vid=335ba0f2-703e-4760-8c97-19ddb643fdcb"},"vehicle_type_id":"4","last_reported":1706310443,"current_range_meters":23600,"station_id":"ce4bgk12rcd13ifvqbj0","pricing_plan_id":"free"},{"bike_id":"6fe3a748-b306-4a70-bd02-36b597307af6","system_id":"levelo_inurba_marseille","lat":43.295978,"lon":5.367893,"is_reserved":false,"is_disabled":false,"rental_uris":{"android":"levelo://app?vid=6fe3a748-b306-4a70-bd02-36b597307af6","ios":"levelo://app?vid=6fe3a748-b306-4a70-bd02-36b597307af6"},"vehicle_type_id":"4","last_reported":1706310443,"current_range_meters":18800,"station_id":"","pricing_plan_id":"free"},{"bike_id":"d71d14df-8390-498a-ae9d-a076561804c7","system_id":"levelo_inurba_marseille","lat":43.296131,"lon":5.370773,"is_reserved":false,"is_disabled":false,"rental_uris":{"android":"levelo://app?vid=d71d14df-8390-498a-ae9d-a076561804c7","ios":"levelo://app?vid=d71d14df-8390-498a-ae9d-a076561804c7"},"vehicle_type_id":"4","last_reported":1706310443,"current_range_meters":0,"station_id":"ce4bgnh2rcd13ifvqc0g","pricing_plan_id":"free"},{"bike_id":"1eeaec41-0905-4083-8157-15dd9f3754d7","system_id":"levelo_inurba_marseille","lat":43.309589,"lon":5.390258,"is_reserved":false,"is_disabled":false,"rental_uris":{"android":"levelo://app?vid=1eeaec41-0905-4083-8157-15dd9f3754d7","ios":"levelo://app?vid=1eeaec41-0905-4083-8157-15dd9f3754d7"},"vehicle_type_id":"4","last_reported":1706310443,"current_range_meters":11200,"station_id":"ce4bgup2rcd13ifvqco0","pricing_plan_id":"free"},{"bike_id":"8bad8b8a-9d3f-4dbf-801d-bdeb1a14987a","system_id":"levelo_inurba_marseille","lat":43.29896,"lon":5.381473,"is_reserved":false,"is_disabled":false,"rental_uris":{"android":"levelo://app?vid=8bad8b8a-9d3f-4dbf-801d-bdeb1a14987a","ios":"levelo://app?vid=8bad8b8a-9d3f-4dbf-801d-bdeb1a14987a"},"vehicle_type_id":"4","last_reported":1706310443,"current_range_meters":0,"station_id":"ce4bgj12rcd13ifvqbc0","pricing_plan_id":"free"},{"bike_id":"39475547-4374-426a-84c3-16554e0c49d2","system_id":"levelo_inurba_marseille","lat":43.317557,"lon":5.390173,"is_reserved":false,"is_disabled":false,"rental_uris":{"android":"levelo://app?vid=39475547-4374-426a-84c3-16554e0c49d2","ios":"levelo://app?vid=39475547-4374-426a-84c3-16554e0c49d2"},"vehicle_type_id":"4","last_reported":1706310443,"current_range_meters":3600,"station_id":"ce4bhqp2rcd13ifvqhng","pricing_plan_id":"free"},{"bike_id":"110504c4-9181-4917-abad-9a87ed972aeb","system_id":"levelo_inurba_marseille","lat":43.317557,"lon":5.390173,"is_reserved":false,"is_disabled":false,"rental_uris":{"android":"levelo://app?vid=110504c4-9181-4917-abad-9a87ed972aeb","ios":"levelo://app?vid=110504c4-9181-4917-abad-9a87ed972aeb"},"vehicle_type_id":"4","last_reported":1706310443,"current_range_meters":5200,"station_id":"ce4bhqp2rcd13ifvqhng","pricing_plan_id":"free"},{"bike_id":"af9f98fc-1b38-483c-9bb8-cf5dbd0ec1e8","system_id":"levelo_inurba_marseille","lat":43.317557,"lon":5.390173,"is_reserved":false,"is_disabled":false,"rental_uris":{"android":"levelo://app?vid=af9f98fc-1b38-483c-9bb8-cf5dbd0ec1e8","ios":"levelo://app?vid=af9f98fc-1b38-483c-9bb8-cf5dbd0ec1e8"},"vehicle_type_id":"4","last_reported":1706310443,"current_range_meters":31200,"station_id":"ce4bhqp2rcd13ifvqhng","pricing_plan_id":"free"},{"bike_id":"0f595ef8-b51a-4472-959d-bab2e4ed27f5","system_id":"levelo_inurba_marseille","lat":43.317557,"lon":5.390173,"is_reserved":false,"is_disabled":false,"rental_uris":{"android":"levelo://app?vid=0f595ef8-b51a-4472-959d-bab2e4ed27f5","ios":"levelo://app?vid=0f595ef8-b51a-4472-959d-bab2e4ed27f5"},"vehicle_type_id":"4","last_reported":1706310443,"current_range_meters":6400,"station_id":"ce4bhqp2rcd13ifvqhng","pricing_plan_id":"free"},{"bike_id":"5849c8f1-de07-480c-ab10-c023b55280ba","system_id":"levelo_inurba_marseille","lat":43.32253,"lon":5.38746,"is_reserved":false,"is_disabled":false,"rental_uris":{"android":"levelo://app?vid=5849c8f1-de07-480c-ab10-c023b55280ba","ios":"levelo://app?vid=5849c8f1-de07-480c-ab10-c023b55280ba"},"vehicle_type_id":"4","last_reported":1706310443,"current_range_meters":4800,"station_id":"","pricing_plan_id":"free"},{"bike_id":"48bd6dd4-c622-4b05-829b-84f4cd7f8ef7","system_id":"levelo_inurba_marseille","lat":43.298057,"lon":5.38095,"is_reserved":false,"is_disabled":false,"rental_uris":{"android":"levelo://app?vid=48bd6dd4-c622-4b05-829b-84f4cd7f8ef7","ios":"levelo://app?vid=48bd6dd4-c622-4b05-829b-84f4cd7f8ef7"},"vehicle_type_id":"4","last_reported":1706310443,"current_range_meters":0,"station_id":"ce4bgip2rcd13ifvqbb0","pricing_plan_id":"free"},{"bike_id":"265590fe-cc72-4d9c-96ce-47298202305f","system_id":"levelo_inurba_marseille","lat":43.295815,"lon":5.375185,"is_reserved":false,"is_disabled":false,"rental_uris":{"android":"levelo://app?vid=265590fe-cc72-4d9c-96ce-47298202305f","ios":"levelo://app?vid=265590fe-cc72-4d9c-96ce-47298202305f"},"vehicle_type_id":"4","last_reported":1706310443,"current_range_meters":14800,"station_id":"ce4bgjh2rcd13ifvqbg0","pricing_plan_id":"free"},{"bike_id":"4ba2a579-ad7d-4e90-88ae-94251dd8f6d0","system_id":"levelo_inurba_marseille","lat":43.298037,"lon":5.381066,"is_reserved":false,"is_disabled":false,"rental_uris":{"android":"levelo://app?vid=4ba2a579-ad7d-4e90-88ae-94251dd8f6d0","ios":"levelo://app?vid=4ba2a579-ad7d-4e90-88ae-94251dd8f6d0"},"vehicle_type_id":"4","last_reported":1706310443,"current_range_meters":24400,"station_id":"ce4bgip2rcd13ifvqbb0","pricing_plan_id":"free"},{"bike_id":"542830c1-e594-4f99-84f4-ba4bac96891f","system_id":"levelo_inurba_marseille","lat":43.30431,"lon":5.38877,"is_reserved":false,"is_disabled":false,"rental_uris":{"android":"levelo://app?vid=542830c1-e594-4f99-84f4-ba4bac96891f","ios":"levelo://app?vid=542830c1-e594-4f99-84f4-ba4bac96891f"},"vehicle_type_id":"4","last_reported":1706310443,"current_range_meters":24000,"station_id":"ce4bgk12rcd13ifvqbi0","pricing_plan_id":"free"},{"bike_id":"ed9fe7a8-fc8f-456b-be50-3b5faab27c6b","system_id":"levelo_inurba_marseille","lat":43.30428,"lon":5.38875,"is_reserved":false,"is_disabled":false,"rental_uris":{"android":"levelo://app?vid=ed9fe7a8-fc8f-456b-be50-3b5faab27c6b","ios":"levelo://app?vid=ed9fe7a8-fc8f-456b-be50-3b5faab27c6b"},"vehicle_type_id":"4","last_reported":1706310443,"current_range_meters":10400,"station_id":"ce4bgk12rcd13ifvqbi0","pricing_plan_id":"free"},{"bike_id":"6c72e281-9938-473a-bacd-fb8ec4bacee6","system_id":"levelo_inurba_marseille","lat":43.304381,"lon":5.388837,"is_reserved":false,"is_disabled":false,"rental_uris":{"android":"levelo://app?vid=6c72e281-9938-473a-bacd-fb8ec4bacee6","ios":"levelo://app?vid=6c72e281-9938-473a-bacd-fb8ec4bacee6"},"vehicle_type_id":"4","last_reported":1706310443,"current_range_meters":18800,"station_id":"ce4bgk12rcd13ifvqbi0","pricing_plan_id":"free"},{"bike_id":"c522c9be-be8b-4be3-b46c-6427d33f0163","system_id":"levelo_inurba_marseille","lat":43.304412,"lon":5.38886,"is_reserved":false,"is_disabled":false,"rental_uris":{"android":"levelo://app?vid=c522c9be-be8b-4be3-b46c-6427d33f0163","ios":"levelo://app?vid=c522c9be-be8b-4be3-b46c-6427d33f0163"},"vehicle_type_id":"4","last_reported":1706310443,"current_range_meters":17600,"station_id":"ce4bgk12rcd13ifvqbi0","pricing_plan_id":"free"},{"bike_id":"871f8211-935c-4759-ad48-ca7d5e569cbd","system_id":"levelo_inurba_marseille","lat":43.30439,"lon":5.38891,"is_reserved":false,"is_disabled":false,"rental_uris":{"android":"levelo://app?vid=871f8211-935c-4759-ad48-ca7d5e569cbd","ios":"levelo://app?vid=871f8211-935c-4759-ad48-ca7d5e569cbd"},"vehicle_type_id":"4","last_reported":1706310443,"current_range_meters":26800,"station_id":"ce4bgk12rcd13ifvqbi0","pricing_plan_id":"free"},{"bike_id":"d0d649d9-e926-4ac6-bae2-bd8a3c98cb25","system_id":"levelo_inurba_marseille","lat":43.304278,"lon":5.388868,"is_reserved":false,"is_disabled":false,"rental_uris":{"android":"levelo://app?vid=d0d649d9-e926-4ac6-bae2-bd8a3c98cb25","ios":"levelo://app?vid=d0d649d9-e926-4ac6-bae2-bd8a3c98cb25"},"vehicle_type_id":"4","last_reported":1706310443,"current_range_meters":400,"station_id":"ce4bgk12rcd13ifvqbi0","pricing_plan_id":"free"},{"bike_id":"5aaf6aff-1bfd-4043-bc5a-c5a1b6083666","system_id":"levelo_inurba_marseille","lat":43.30433,"lon":5.388894,"is_reserved":false,"is_disabled":false,"rental_uris":{"android":"levelo://app?vid=5aaf6aff-1bfd-4043-bc5a-c5a1b6083666","ios":"levelo://app?vid=5aaf6aff-1bfd-4043-bc5a-c5a1b6083666"},"vehicle_type_id":"4","last_reported":1706310443,"current_range_meters":0,"station_id":"ce4bgk12rcd13ifvqbi0","pricing_plan_id":"free"},{"bike_id":"1d445979-55dc-4513-9b28-63127c047262","system_id":"levelo_inurba_marseille","lat":43.304278,"lon":5.388868,"is_reserved":false,"is_disabled":false,"rental_uris":{"android":"levelo://app?vid=1d445979-55dc-4513-9b28-63127c047262","ios":"levelo://app?vid=1d445979-55dc-4513-9b28-63127c047262"},"vehicle_type_id":"4","last_reported":1706310443,"current_range_meters":26400,"station_id":"ce4bgk12rcd13ifvqbi0","pricing_plan_id":"free"},{"bike_id":"8611a59b-ffa7-483c-b22e-93550e44cdbc","system_id":"levelo_inurba_marseille","lat":43.304342,"lon":5.388966,"is_reserved":false,"is_disabled":false,"rental_uris":{"android":"levelo://app?vid=8611a59b-ffa7-483c-b22e-93550e44cdbc","ios":"levelo://app?vid=8611a59b-ffa7-483c-b22e-93550e44cdbc"},"vehicle_type_id":"4","last_reported":1706310443,"current_range_meters":4400,"station_id":"","pricing_plan_id":"free"},{"bike_id":"40996b4a-fac6-4cc2-a8e8-9a9ba72f10c9","system_id":"levelo_inurba_marseille","lat":43.298614,"lon":5.383962,"is_reserved":false,"is_disabled":false,"rental_uris":{"android":"levelo://app?vid=40996b4a-fac6-4cc2-a8e8-9a9ba72f10c9","ios":"levelo://app?vid=40996b4a-fac6-4cc2-a8e8-9a9ba72f10c9"},"vehicle_type_id":"4","last_reported":1706310443,"current_range_meters":11200,"station_id":"","pricing_plan_id":"free"},{"bike_id":"0ea3fd81-3f73-43eb-a24e-cc7fa2617f9d","system_id":"levelo_inurba_marseille","lat":43.32367,"lon":5.388836,"is_reserved":false,"is_disabled":false,"rental_uris":{"android":"levelo://app?vid=0ea3fd81-3f73-43eb-a24e-cc7fa2617f9d","ios":"levelo://app?vid=0ea3fd81-3f73-43eb-a24e-cc7fa2617f9d"},"vehicle_type_id":"4","last_reported":1706310443,"current_range_meters":7200,"station_id":"ce4bhqp2rcd13ifvqhog","pricing_plan_id":"free"},{"bike_id":"110e294d-4ae1-4d3c-9a1c-3e70b490847b","system_id":"levelo_inurba_marseille","lat":43.32367,"lon":5.388836,"is_reserved":false,"is_disabled":false,"rental_uris":{"android":"levelo://app?vid=110e294d-4ae1-4d3c-9a1c-3e70b490847b","ios":"levelo://app?vid=110e294d-4ae1-4d3c-9a1c-3e70b490847b"},"vehicle_type_id":"4","last_reported":1706310443,"current_range_meters":10000,"station_id":"ce4bhqp2rcd13ifvqhog","pricing_plan_id":"free"},{"bike_id":"d7803bed-fb47-4ba6-b32d-728fc496b369","system_id":"levelo_inurba_marseille","lat":43.32367,"lon":5.388836,"is_reserved":false,"is_disabled":false,"rental_uris":{"android":"levelo://app?vid=d7803bed-fb47-4ba6-b32d-728fc496b369","ios":"levelo://app?vid=d7803bed-fb47-4ba6-b32d-728fc496b369"},"vehicle_type_id":"4","last_reported":1706310443,"current_range_meters":16000,"station_id":"ce4bhqp2rcd13ifvqhog","pricing_plan_id":"free"},{"bike_id":"cec4ad59-07b9-4fac-98fd-7e0e4d5c0fc2","system_id":"levelo_inurba_marseille","lat":43.32367,"lon":5.388836,"is_reserved":false,"is_disabled":false,"rental_uris":{"android":"levelo://app?vid=cec4ad59-07b9-4fac-98fd-7e0e4d5c0fc2","ios":"levelo://app?vid=cec4ad59-07b9-4fac-98fd-7e0e4d5c0fc2"},"vehicle_type_id":"4","last_reported":1706310443,"current_range_meters":12400,"station_id":"ce4bhqp2rcd13ifvqhog","pricing_plan_id":"free"},{"bike_id":"def703ed-e78e-4412-a809-c10b7fb945a5","system_id":"levelo_inurba_marseille","lat":43.323695,"lon":5.388844,"is_reserved":false,"is_disabled":false,"rental_uris":{"android":"levelo://app?vid=def703ed-e78e-4412-a809-c10b7fb945a5","ios":"levelo://app?vid=def703ed-e78e-4412-a809-c10b7fb945a5"},"vehicle_type_id":"4","last_reported":1706310443,"current_range_meters":26800,"station_id":"ce4bhqp2rcd13ifvqhog","pricing_plan_id":"free"},{"bike_id":"439458f2-c468-43ac-8531-4372a5b8883a","system_id":"levelo_inurba_marseille","lat":43.32367,"lon":5.388836,"is_reserved":false,"is_disabled":false,"rental_uris":{"android":"levelo://app?vid=439458f2-c468-43ac-8531-4372a5b8883a","ios":"levelo://app?vid=439458f2-c468-43ac-8531-4372a5b8883a"},"vehicle_type_id":"4","last_reported":1706310443,"current_range_meters":20800,"station_id":"ce4bhqp2rcd13ifvqhog","pricing_plan_id":"free"},{"bike_id":"6d4e98a9-3b8c-4251-9bc4-f50fadfe25a7","system_id":"levelo_inurba_marseille","lat":43.32364,"lon":5.38891,"is_reserved":false,"is_disabled":false,"rental_uris":{"android":"levelo://app?vid=6d4e98a9-3b8c-4251-9bc4-f50fadfe25a7","ios":"levelo://app?vid=6d4e98a9-3b8c-4251-9bc4-f50fadfe25a7"},"vehicle_type_id":"4","last_reported":1706310443,"current_range_meters":23200,"station_id":"ce4bhqp2rcd13ifvqhog","pricing_plan_id":"free"},{"bike_id":"f2b67a43-589d-40a9-a9bc-8cff0aa79aa0","system_id":"levelo_inurba_marseille","lat":43.293259,"lon":5.371586,"is_reserved":false,"is_disabled":false,"rental_uris":{"android":"levelo://app?vid=f2b67a43-589d-40a9-a9bc-8cff0aa79aa0","ios":"levelo://app?vid=f2b67a43-589d-40a9-a9bc-8cff0aa79aa0"},"vehicle_type_id":"4","last_reported":1706310443,"current_range_meters":14800,"station_id":"ce4bgh92rcd13ifvqb40","pricing_plan_id":"free"},{"bike_id":"23baab31-4b5d-448c-8e9f-d78a22067c55","system_id":"levelo_inurba_marseille","lat":43.292749,"lon":5.368402,"is_reserved":false,"is_disabled":false,"rental_uris":{"android":"levelo://app?vid=23baab31-4b5d-448c-8e9f-d78a22067c55","ios":"levelo://app?vid=23baab31-4b5d-448c-8e9f-d78a22067c55"},"vehicle_type_id":"4","last_reported":1706310443,"current_range_meters":0,"station_id":"ce4bhbp2rcd13ifvqesg","pricing_plan_id":"free"},{"bike_id":"9ad7e9a9-9036-476e-85db-36b4d8aba7e5","system_id":"levelo_inurba_marseille","lat":43.29274,"lon":5.368463,"is_reserved":false,"is_disabled":false,"rental_uris":{"android":"levelo://app?vid=9ad7e9a9-9036-476e-85db-36b4d8aba7e5","ios":"levelo://app?vid=9ad7e9a9-9036-476e-85db-36b4d8aba7e5"},"vehicle_type_id":"4","last_reported":1706310443,"current_range_meters":0,"station_id":"ce4bhbp2rcd13ifvqesg","pricing_plan_id":"free"},{"bike_id":"63cdf5cc-6292-451b-bb97-603568c9ce6f","system_id":"levelo_inurba_marseille","lat":43.297323,"lon":5.38477,"is_reserved":false,"is_disabled":false,"rental_uris":{"android":"levelo://app?vid=63cdf5cc-6292-451b-bb97-603568c9ce6f","ios":"levelo://app?vid=63cdf5cc-6292-451b-bb97-603568c9ce6f"},"vehicle_type_id":"4","last_reported":1706310443,"current_range_meters":0,"station_id":"","pricing_plan_id":"free"},{"bike_id":"a5d6381b-e2ee-4d4a-b1f8-8a2ae7953abc","system_id":"levelo_inurba_marseille","lat":43.29303,"lon":5.3744,"is_reserved":false,"is_disabled":false,"rental_uris":{"android":"levelo://app?vid=a5d6381b-e2ee-4d4a-b1f8-8a2ae7953abc","ios":"levelo://app?vid=a5d6381b-e2ee-4d4a-b1f8-8a2ae7953abc"},"vehicle_type_id":"4","last_reported":1706310443,"current_range_meters":0,"station_id":"ce4bgi12rcd13ifvqb70","pricing_plan_id":"free"},{"bike_id":"f9ea4f56-9d25-4226-bac3-0356c4955494","system_id":"levelo_inurba_marseille","lat":43.29301,"lon":5.37463,"is_reserved":false,"is_disabled":false,"rental_uris":{"android":"levelo://app?vid=f9ea4f56-9d25-4226-bac3-0356c4955494","ios":"levelo://app?vid=f9ea4f56-9d25-4226-bac3-0356c4955494"},"vehicle_type_id":"4","last_reported":1706310443,"current_range_meters":0,"station_id":"ce4bgi12rcd13ifvqb70","pricing_plan_id":"free"},{"bike_id":"39968bd9-63c6-40c5-9d1f-bfa83877af4b","system_id":"levelo_inurba_marseille","lat":43.305994,"lon":5.393687,"is_reserved":false,"is_disabled":false,"rental_uris":{"android":"levelo://app?vid=39968bd9-63c6-40c5-9d1f-bfa83877af4b","ios":"levelo://app?vid=39968bd9-63c6-40c5-9d1f-bfa83877af4b"},"vehicle_type_id":"4","last_reported":1706310443,"current_range_meters":2000,"station_id":"ce4bh0p2rcd13ifvqd80","pricing_plan_id":"free"},{"bike_id":"c9b91fd4-3447-4426-a0e1-4ee62518eac5","system_id":"levelo_inurba_marseille","lat":43.305994,"lon":5.393687,"is_reserved":false,"is_disabled":false,"rental_uris":{"android":"levelo://app?vid=c9b91fd4-3447-4426-a0e1-4ee62518eac5","ios":"levelo://app?vid=c9b91fd4-3447-4426-a0e1-4ee62518eac5"},"vehicle_type_id":"4","last_reported":1706310443,"current_range_meters":25600,"station_id":"ce4bh0p2rcd13ifvqd80","pricing_plan_id":"free"},{"bike_id":"a6c952b6-5ce4-40c6-9357-80b93b37619d","system_id":"levelo_inurba_marseille","lat":43.296263,"lon":5.377094,"is_reserved":false,"is_disabled":false,"rental_uris":{"android":"levelo://app?vid=a6c952b6-5ce4-40c6-9357-80b93b37619d","ios":"levelo://app?vid=a6c952b6-5ce4-40c6-9357-80b93b37619d"},"vehicle_type_id":"4","last_reported":1706310443,"current_range_meters":17200,"station_id":"ce4bgi92rcd13ifvqb90","pricing_plan_id":"free"},{"bike_id":"9c75026f-c802-4f10-b01f-da139cf5b711","system_id":"levelo_inurba_marseille","lat":43.30096,"lon":5.39089,"is_reserved":false,"is_disabled":false,"rental_uris":{"android":"levelo://app?vid=9c75026f-c802-4f10-b01f-da139cf5b711","ios":"levelo://app?vid=9c75026f-c802-4f10-b01f-da139cf5b711"},"vehicle_type_id":"4","last_reported":1706310443,"current_range_meters":0,"station_id":"ce4bh192rcd13ifvqdb0","pricing_plan_id":"free"},{"bike_id":"f43bc4b9-69b4-4c2e-a7f1-390317b11d36","system_id":"levelo_inurba_marseille","lat":43.292723,"lon":5.376239,"is_reserved":false,"is_disabled":false,"rental_uris":{"android":"levelo://app?vid=f43bc4b9-69b4-4c2e-a7f1-390317b11d36","ios":"levelo://app?vid=f43bc4b9-69b4-4c2e-a7f1-390317b11d36"},"vehicle_type_id":"4","last_reported":1706310443,"current_range_meters":19600,"station_id":"ce4bgi12rcd13ifvqb70","pricing_plan_id":"free"},{"bike_id":"12b4420f-99c7-42aa-a028-49e11ede3605","system_id":"levelo_inurba_marseille","lat":43.291671,"lon":5.371575,"is_reserved":false,"is_disabled":false,"rental_uris":{"android":"levelo://app?vid=12b4420f-99c7-42aa-a028-49e11ede3605","ios":"levelo://app?vid=12b4420f-99c7-42aa-a028-49e11ede3605"},"vehicle_type_id":"4","last_reported":1706310443,"current_range_meters":1200,"station_id":"ce4bha92rcd13ifvqeh0","pricing_plan_id":"free"},{"bike_id":"935fba4d-5362-449e-927f-252edfcefc93","system_id":"levelo_inurba_marseille","lat":43.291675,"lon":5.371583,"is_reserved":false,"is_disabled":false,"rental_uris":{"android":"levelo://app?vid=935fba4d-5362-449e-927f-252edfcefc93","ios":"levelo://app?vid=935fba4d-5362-449e-927f-252edfcefc93"},"vehicle_type_id":"4","last_reported":1706310443,"current_range_meters":12800,"station_id":"ce4bha92rcd13ifvqeh0","pricing_plan_id":"free"},{"bike_id":"2cdd5039-e8ec-441b-9bd5-4c34b690b828","system_id":"levelo_inurba_marseille","lat":43.304959,"lon":5.394259,"is_reserved":false,"is_disabled":false,"rental_uris":{"android":"levelo://app?vid=2cdd5039-e8ec-441b-9bd5-4c34b690b828","ios":"levelo://app?vid=2cdd5039-e8ec-441b-9bd5-4c34b690b828"},"vehicle_type_id":"4","last_reported":1706310443,"current_range_meters":22800,"station_id":"","pricing_plan_id":"free"},{"bike_id":"f22ea6b4-dd47-4f9a-8afb-1db7640deca3","system_id":"levelo_inurba_marseille","lat":43.31328,"lon":5.39685,"is_reserved":false,"is_disabled":false,"rental_uris":{"android":"levelo://app?vid=f22ea6b4-dd47-4f9a-8afb-1db7640deca3","ios":"levelo://app?vid=f22ea6b4-dd47-4f9a-8afb-1db7640deca3"},"vehicle_type_id":"4","last_reported":1706310443,"current_range_meters":13200,"station_id":"ce4bgvp2rcd13ifvqcu0","pricing_plan_id":"free"},{"bike_id":"e9c74ae6-80f2-4a03-adf9-07558d395c85","system_id":"levelo_inurba_marseille","lat":43.313291,"lon":5.396838,"is_reserved":false,"is_disabled":false,"rental_uris":{"android":"levelo://app?vid=e9c74ae6-80f2-4a03-adf9-07558d395c85","ios":"levelo://app?vid=e9c74ae6-80f2-4a03-adf9-07558d395c85"},"vehicle_type_id":"4","last_reported":1706310443,"current_range_meters":16800,"station_id":"ce4bgvp2rcd13ifvqcu0","pricing_plan_id":"free"},{"bike_id":"4ceaa5d3-e55f-4fcc-962d-0679a653bea3","system_id":"levelo_inurba_marseille","lat":43.309038,"lon":5.396546,"is_reserved":false,"is_disabled":false,"rental_uris":{"android":"levelo://app?vid=4ceaa5d3-e55f-4fcc-962d-0679a653bea3","ios":"levelo://app?vid=4ceaa5d3-e55f-4fcc-962d-0679a653bea3"},"vehicle_type_id":"4","last_reported":1706310443,"current_range_meters":23200,"station_id":"ce4bh012rcd13ifvqcv0","pricing_plan_id":"free"},{"bike_id":"fd2f2ccf-6ddc-4457-a087-cb5ebeff818e","system_id":"levelo_inurba_marseille","lat":43.309038,"lon":5.396546,"is_reserved":false,"is_disabled":false,"rental_uris":{"android":"levelo://app?vid=fd2f2ccf-6ddc-4457-a087-cb5ebeff818e","ios":"levelo://app?vid=fd2f2ccf-6ddc-4457-a087-cb5ebeff818e"},"vehicle_type_id":"4","last_reported":1706310443,"current_range_meters":31200,"station_id":"ce4bh012rcd13ifvqcv0","pricing_plan_id":"free"},{"bike_id":"f317e23f-77ac-4822-8f04-e730922bc8ed","system_id":"levelo_inurba_marseille","lat":43.313291,"lon":5.396838,"is_reserved":false,"is_disabled":false,"rental_uris":{"android":"levelo://app?vid=f317e23f-77ac-4822-8f04-e730922bc8ed","ios":"levelo://app?vid=f317e23f-77ac-4822-8f04-e730922bc8ed"},"vehicle_type_id":"4","last_reported":1706310443,"current_range_meters":9600,"station_id":"ce4bgvp2rcd13ifvqcu0","pricing_plan_id":"free"},{"bike_id":"d58abf0d-530f-4a05-8a9e-e854f5ba3769","system_id":"levelo_inurba_marseille","lat":43.309038,"lon":5.396546,"is_reserved":false,"is_disabled":false,"rental_uris":{"android":"levelo://app?vid=d58abf0d-530f-4a05-8a9e-e854f5ba3769","ios":"levelo://app?vid=d58abf0d-530f-4a05-8a9e-e854f5ba3769"},"vehicle_type_id":"4","last_reported":1706310443,"current_range_meters":0,"station_id":"ce4bh012rcd13ifvqcv0","pricing_plan_id":"free"},{"bike_id":"4917b6d1-4cf6-45d1-8738-f6d6d91e3443","system_id":"levelo_inurba_marseille","lat":43.309047,"lon":5.396551,"is_reserved":false,"is_disabled":false,"rental_uris":{"android":"levelo://app?vid=4917b6d1-4cf6-45d1-8738-f6d6d91e3443","ios":"levelo://app?vid=4917b6d1-4cf6-45d1-8738-f6d6d91e3443"},"vehicle_type_id":"4","last_reported":1706310443,"current_range_meters":10000,"station_id":"ce4bh012rcd13ifvqcv0","pricing_plan_id":"free"},{"bike_id":"deea0a30-57a7-4a98-a89a-1deae46df5ae","system_id":"levelo_inurba_marseille","lat":43.309038,"lon":5.396546,"is_reserved":false,"is_disabled":false,"rental_uris":{"android":"levelo://app?vid=deea0a30-57a7-4a98-a89a-1deae46df5ae","ios":"levelo://app?vid=deea0a30-57a7-4a98-a89a-1deae46df5ae"},"vehicle_type_id":"4","last_reported":1706310443,"current_range_meters":18400,"station_id":"ce4bh012rcd13ifvqcv0","pricing_plan_id":"free"},{"bike_id":"4f98ee5b-7457-4920-823c-5cae578acb34","system_id":"levelo_inurba_marseille","lat":43.309047,"lon":5.396551,"is_reserved":false,"is_disabled":false,"rental_uris":{"android":"levelo://app?vid=4f98ee5b-7457-4920-823c-5cae578acb34","ios":"levelo://app?vid=4f98ee5b-7457-4920-823c-5cae578acb34"},"vehicle_type_id":"4","last_reported":1706310443,"current_range_meters":4400,"station_id":"ce4bh012rcd13ifvqcv0","pricing_plan_id":"free"},{"bike_id":"cd48283f-4456-4c5d-881d-70ece8b5aaba","system_id":"levelo_inurba_marseille","lat":43.29529,"lon":5.385581,"is_reserved":false,"is_disabled":false,"rental_uris":{"android":"levelo://app?vid=cd48283f-4456-4c5d-881d-70ece8b5aaba","ios":"levelo://app?vid=cd48283f-4456-4c5d-881d-70ece8b5aaba"},"vehicle_type_id":"4","last_reported":1706310443,"current_range_meters":0,"station_id":"ce4bgih2rcd13ifvqba0","pricing_plan_id":"free"},{"bike_id":"83bcae1e-7c95-4147-b856-9c00edab89e6","system_id":"levelo_inurba_marseille","lat":43.29529,"lon":5.385581,"is_reserved":false,"is_disabled":false,"rental_uris":{"android":"levelo://app?vid=83bcae1e-7c95-4147-b856-9c00edab89e6","ios":"levelo://app?vid=83bcae1e-7c95-4147-b856-9c00edab89e6"},"vehicle_type_id":"4","last_reported":1706310443,"current_range_meters":0,"station_id":"ce4bgih2rcd13ifvqba0","pricing_plan_id":"free"},{"bike_id":"f814cdf9-4747-4457-8b44-08c9fb779343","system_id":"levelo_inurba_marseille","lat":43.29529,"lon":5.385581,"is_reserved":false,"is_disabled":false,"rental_uris":{"android":"levelo://app?vid=f814cdf9-4747-4457-8b44-08c9fb779343","ios":"levelo://app?vid=f814cdf9-4747-4457-8b44-08c9fb779343"},"vehicle_type_id":"4","last_reported":1706310443,"current_range_meters":0,"station_id":"ce4bgih2rcd13ifvqba0","pricing_plan_id":"free"},{"bike_id":"fc08f2a2-7fad-40e9-b2da-60d151623b28","system_id":"levelo_inurba_marseille","lat":43.295778,"lon":5.387155,"is_reserved":false,"is_disabled":false,"rental_uris":{"android":"levelo://app?vid=fc08f2a2-7fad-40e9-b2da-60d151623b28","ios":"levelo://app?vid=fc08f2a2-7fad-40e9-b2da-60d151623b28"},"vehicle_type_id":"4","last_reported":1706310443,"current_range_meters":8000,"station_id":"","pricing_plan_id":"free"},{"bike_id":"a1026fbc-553e-44e8-8149-593ae876c19d","system_id":"levelo_inurba_marseille","lat":43.302008,"lon":5.394694,"is_reserved":false,"is_disabled":false,"rental_uris":{"android":"levelo://app?vid=a1026fbc-553e-44e8-8149-593ae876c19d","ios":"levelo://app?vid=a1026fbc-553e-44e8-8149-593ae876c19d"},"vehicle_type_id":"4","last_reported":1706310443,"current_range_meters":12400,"station_id":"ce4bh0p2rcd13ifvqd70","pricing_plan_id":"free"},{"bike_id":"a944e142-1e7d-4c0a-b56d-b585b3a0e090","system_id":"levelo_inurba_marseille","lat":43.302195,"lon":5.394673,"is_reserved":false,"is_disabled":false,"rental_uris":{"android":"levelo://app?vid=a944e142-1e7d-4c0a-b56d-b585b3a0e090","ios":"levelo://app?vid=a944e142-1e7d-4c0a-b56d-b585b3a0e090"},"vehicle_type_id":"4","last_reported":1706310443,"current_range_meters":0,"station_id":"ce4bh0p2rcd13ifvqd70","pricing_plan_id":"free"},{"bike_id":"2f9947b7-a955-4e5a-b62e-a5f8f6e11093","system_id":"levelo_inurba_marseille","lat":43.290624,"lon":5.359245,"is_reserved":false,"is_disabled":false,"rental_uris":{"android":"levelo://app?vid=2f9947b7-a955-4e5a-b62e-a5f8f6e11093","ios":"levelo://app?vid=2f9947b7-a955-4e5a-b62e-a5f8f6e11093"},"vehicle_type_id":"4","last_reported":1706310443,"current_range_meters":20800,"station_id":"ce4bha92rcd13ifvqeg0","pricing_plan_id":"free"},{"bike_id":"0e75580e-2eab-48f4-8307-a428bf5f2f4e","system_id":"levelo_inurba_marseille","lat":43.295155,"lon":5.387455,"is_reserved":false,"is_disabled":false,"rental_uris":{"android":"levelo://app?vid=0e75580e-2eab-48f4-8307-a428bf5f2f4e","ios":"levelo://app?vid=0e75580e-2eab-48f4-8307-a428bf5f2f4e"},"vehicle_type_id":"4","last_reported":1706310443,"current_range_meters":10400,"station_id":"","pricing_plan_id":"free"},{"bike_id":"b31ffe35-6c81-4e75-85a0-ef7fca128918","system_id":"levelo_inurba_marseille","lat":43.290319,"lon":5.375732,"is_reserved":false,"is_disabled":false,"rental_uris":{"android":"levelo://app?vid=b31ffe35-6c81-4e75-85a0-ef7fca128918","ios":"levelo://app?vid=b31ffe35-6c81-4e75-85a0-ef7fca128918"},"vehicle_type_id":"4","last_reported":1706310443,"current_range_meters":21600,"station_id":"ce4bh692rcd13ifvqe90","pricing_plan_id":"free"},{"bike_id":"3a124622-840a-4393-b4d2-9d5194237b05","system_id":"levelo_inurba_marseille","lat":43.29422,"lon":5.38623,"is_reserved":false,"is_disabled":false,"rental_uris":{"android":"levelo://app?vid=3a124622-840a-4393-b4d2-9d5194237b05","ios":"levelo://app?vid=3a124622-840a-4393-b4d2-9d5194237b05"},"vehicle_type_id":"4","last_reported":1706310443,"current_range_meters":0,"station_id":"ce4bh2h2rcd13ifvqdh0","pricing_plan_id":"free"},{"bike_id":"4d208789-705a-4a3a-9bef-b45e33f1bc43","system_id":"levelo_inurba_marseille","lat":43.29421,"lon":5.38626,"is_reserved":false,"is_disabled":false,"rental_uris":{"android":"levelo://app?vid=4d208789-705a-4a3a-9bef-b45e33f1bc43","ios":"levelo://app?vid=4d208789-705a-4a3a-9bef-b45e33f1bc43"},"vehicle_type_id":"4","last_reported":1706310443,"current_range_meters":0,"station_id":"ce4bh2h2rcd13ifvqdh0","pricing_plan_id":"free"},{"bike_id":"e34f0f72-6ee2-46e5-9b20-2b298fb8eb1a","system_id":"levelo_inurba_marseille","lat":43.290319,"lon":5.375732,"is_reserved":false,"is_disabled":false,"rental_uris":{"android":"levelo://app?vid=e34f0f72-6ee2-46e5-9b20-2b298fb8eb1a","ios":"levelo://app?vid=e34f0f72-6ee2-46e5-9b20-2b298fb8eb1a"},"vehicle_type_id":"4","last_reported":1706310443,"current_range_meters":24800,"station_id":"ce4bh692rcd13ifvqe90","pricing_plan_id":"free"},{"bike_id":"fdc25b4e-f10e-4f32-8bee-17016af052a7","system_id":"levelo_inurba_marseille","lat":43.28934,"lon":5.36629,"is_reserved":false,"is_disabled":false,"rental_uris":{"android":"levelo://app?vid=fdc25b4e-f10e-4f32-8bee-17016af052a7","ios":"levelo://app?vid=fdc25b4e-f10e-4f32-8bee-17016af052a7"},"vehicle_type_id":"4","last_reported":1706310443,"current_range_meters":0,"station_id":"ce4bhap2rcd13ifvqek0","pricing_plan_id":"free"},{"bike_id":"5c290fce-8623-43d0-bc0d-031428daede3","system_id":"levelo_inurba_marseille","lat":43.292659,"lon":5.38429,"is_reserved":false,"is_disabled":false,"rental_uris":{"android":"levelo://app?vid=5c290fce-8623-43d0-bc0d-031428daede3","ios":"levelo://app?vid=5c290fce-8623-43d0-bc0d-031428daede3"},"vehicle_type_id":"4","last_reported":1706310443,"current_range_meters":0,"station_id":"ce4bh692rcd13ifvqea0","pricing_plan_id":"free"},{"bike_id":"2d780356-5d3d-4521-9565-eee0bb5f28c8","system_id":"levelo_inurba_marseille","lat":43.29267,"lon":5.384367,"is_reserved":false,"is_disabled":false,"rental_uris":{"android":"levelo://app?vid=2d780356-5d3d-4521-9565-eee0bb5f28c8","ios":"levelo://app?vid=2d780356-5d3d-4521-9565-eee0bb5f28c8"},"vehicle_type_id":"4","last_reported":1706310443,"current_range_meters":0,"station_id":"ce4bh692rcd13ifvqea0","pricing_plan_id":"free"},{"bike_id":"3789b032-2c2f-4a9a-b487-76b0be92acb6","system_id":"levelo_inurba_marseille","lat":43.305994,"lon":5.393687,"is_reserved":false,"is_disabled":false,"rental_uris":{"android":"levelo://app?vid=3789b032-2c2f-4a9a-b487-76b0be92acb6","ios":"levelo://app?vid=3789b032-2c2f-4a9a-b487-76b0be92acb6"},"vehicle_type_id":"4","last_reported":1706310443,"current_range_meters":26000,"station_id":"ce4bh0p2rcd13ifvqd80","pricing_plan_id":"free"},{"bike_id":"8f782ef1-47e7-4430-a2e0-c9c573f313f7","system_id":"levelo_inurba_marseille","lat":43.304274,"lon":5.397513,"is_reserved":false,"is_disabled":false,"rental_uris":{"android":"levelo://app?vid=8f782ef1-47e7-4430-a2e0-c9c573f313f7","ios":"levelo://app?vid=8f782ef1-47e7-4430-a2e0-c9c573f313f7"},"vehicle_type_id":"4","last_reported":1706310443,"current_range_meters":19600,"station_id":"ce4bh092rcd13ifvqd20","pricing_plan_id":"free"},{"bike_id":"3f83bb19-e5b0-40a5-9456-b5a5d787292d","system_id":"levelo_inurba_marseille","lat":43.304296,"lon":5.397513,"is_reserved":false,"is_disabled":false,"rental_uris":{"android":"levelo://app?vid=3f83bb19-e5b0-40a5-9456-b5a5d787292d","ios":"levelo://app?vid=3f83bb19-e5b0-40a5-9456-b5a5d787292d"},"vehicle_type_id":"4","last_reported":1706310443,"current_range_meters":10800,"station_id":"ce4bh092rcd13ifvqd20","pricing_plan_id":"free"},{"bike_id":"740ca010-defd-48ae-a7f1-71154afba5b7","system_id":"levelo_inurba_marseille","lat":43.29262,"lon":5.38433,"is_reserved":false,"is_disabled":false,"rental_uris":{"android":"levelo://app?vid=740ca010-defd-48ae-a7f1-71154afba5b7","ios":"levelo://app?vid=740ca010-defd-48ae-a7f1-71154afba5b7"},"vehicle_type_id":"4","last_reported":1706310443,"current_range_meters":0,"station_id":"ce4bh692rcd13ifvqea0","pricing_plan_id":"free"},{"bike_id":"340b8685-fc15-4a93-bed8-fe506a4249b0","system_id":"levelo_inurba_marseille","lat":43.30428,"lon":5.39749,"is_reserved":false,"is_disabled":false,"rental_uris":{"android":"levelo://app?vid=340b8685-fc15-4a93-bed8-fe506a4249b0","ios":"levelo://app?vid=340b8685-fc15-4a93-bed8-fe506a4249b0"},"vehicle_type_id":"4","last_reported":1706310443,"current_range_meters":19200,"station_id":"ce4bh092rcd13ifvqd20","pricing_plan_id":"free"},{"bike_id":"79a06bed-b6fc-45a1-82f5-4c17f490d569","system_id":"levelo_inurba_marseille","lat":43.30926,"lon":5.3995,"is_reserved":false,"is_disabled":false,"rental_uris":{"android":"levelo://app?vid=79a06bed-b6fc-45a1-82f5-4c17f490d569","ios":"levelo://app?vid=79a06bed-b6fc-45a1-82f5-4c17f490d569"},"vehicle_type_id":"4","last_reported":1706310443,"current_range_meters":24400,"station_id":"","pricing_plan_id":"free"},{"bike_id":"d429f139-b8a2-4ae9-9f5c-d66bc4ee1c87","system_id":"levelo_inurba_marseille","lat":43.290103,"lon":5.356114,"is_reserved":false,"is_disabled":false,"rental_uris":{"android":"levelo://app?vid=d429f139-b8a2-4ae9-9f5c-d66bc4ee1c87","ios":"levelo://app?vid=d429f139-b8a2-4ae9-9f5c-d66bc4ee1c87"},"vehicle_type_id":"4","last_reported":1706310443,"current_range_meters":16000,"station_id":"ce4bhb92rcd13ifvqen0","pricing_plan_id":"free"},{"bike_id":"61eba0b0-6d45-4c01-b8e9-17c676f06c69","system_id":"levelo_inurba_marseille","lat":43.29009,"lon":5.35605,"is_reserved":false,"is_disabled":false,"rental_uris":{"android":"levelo://app?vid=61eba0b0-6d45-4c01-b8e9-17c676f06c69","ios":"levelo://app?vid=61eba0b0-6d45-4c01-b8e9-17c676f06c69"},"vehicle_type_id":"4","last_reported":1706310443,"current_range_meters":0,"station_id":"ce4bhb92rcd13ifvqen0","pricing_plan_id":"free"},{"bike_id":"a4e9e455-1dcc-426e-a0eb-aa3ee4478bb0","system_id":"levelo_inurba_marseille","lat":43.295169,"lon":5.390426,"is_reserved":false,"is_disabled":false,"rental_uris":{"android":"levelo://app?vid=a4e9e455-1dcc-426e-a0eb-aa3ee4478bb0","ios":"levelo://app?vid=a4e9e455-1dcc-426e-a0eb-aa3ee4478bb0"},"vehicle_type_id":"4","last_reported":1706310443,"current_range_meters":5600,"station_id":"ce4bh3p2rcd13ifvqdp0","pricing_plan_id":"free"},{"bike_id":"7c896757-7beb-4ff3-ab2e-4cd63459d285","system_id":"levelo_inurba_marseille","lat":43.29791,"lon":5.39339,"is_reserved":false,"is_disabled":false,"rental_uris":{"android":"levelo://app?vid=7c896757-7beb-4ff3-ab2e-4cd63459d285","ios":"levelo://app?vid=7c896757-7beb-4ff3-ab2e-4cd63459d285"},"vehicle_type_id":"4","last_reported":1706310443,"current_range_meters":10000,"station_id":"chh1huq6cuj3fo74tm60","pricing_plan_id":"free"},{"bike_id":"00f0ce73-62e0-4481-9116-1dfe0ba11879","system_id":"levelo_inurba_marseille","lat":43.297905,"lon":5.393416,"is_reserved":false,"is_disabled":false,"rental_uris":{"android":"levelo://app?vid=00f0ce73-62e0-4481-9116-1dfe0ba11879","ios":"levelo://app?vid=00f0ce73-62e0-4481-9116-1dfe0ba11879"},"vehicle_type_id":"4","last_reported":1706310443,"current_range_meters":0,"station_id":"chh1huq6cuj3fo74tm60","pricing_plan_id":"free"},{"bike_id":"02e686b2-d2cb-4d54-a21e-1a720d7ede2c","system_id":"levelo_inurba_marseille","lat":43.330442,"lon":5.389148,"is_reserved":false,"is_disabled":false,"rental_uris":{"android":"levelo://app?vid=02e686b2-d2cb-4d54-a21e-1a720d7ede2c","ios":"levelo://app?vid=02e686b2-d2cb-4d54-a21e-1a720d7ede2c"},"vehicle_type_id":"4","last_reported":1706310443,"current_range_meters":3200,"station_id":"ce4bhr92rcd13ifvqhrg","pricing_plan_id":"free"},{"bike_id":"0f0fe30d-c5b5-4222-b411-c2636f3bdf30","system_id":"levelo_inurba_marseille","lat":43.2901,"lon":5.381269,"is_reserved":false,"is_disabled":false,"rental_uris":{"android":"levelo://app?vid=0f0fe30d-c5b5-4222-b411-c2636f3bdf30","ios":"levelo://app?vid=0f0fe30d-c5b5-4222-b411-c2636f3bdf30"},"vehicle_type_id":"4","last_reported":1706310443,"current_range_meters":2000,"station_id":"ce4bh4p2rcd13ifvqe1g","pricing_plan_id":"free"},{"bike_id":"5a209069-e45f-4de8-99d4-66756d5da367","system_id":"levelo_inurba_marseille","lat":43.28856,"lon":5.358371,"is_reserved":false,"is_disabled":false,"rental_uris":{"android":"levelo://app?vid=5a209069-e45f-4de8-99d4-66756d5da367","ios":"levelo://app?vid=5a209069-e45f-4de8-99d4-66756d5da367"},"vehicle_type_id":"4","last_reported":1706310443,"current_range_meters":11200,"station_id":"ce4bhb12rcd13ifvqem0","pricing_plan_id":"free"},{"bike_id":"3405e203-a74f-4e2f-afe7-05da97f61a62","system_id":"levelo_inurba_marseille","lat":43.28938,"lon":5.35492,"is_reserved":false,"is_disabled":false,"rental_uris":{"android":"levelo://app?vid=3405e203-a74f-4e2f-afe7-05da97f61a62","ios":"levelo://app?vid=3405e203-a74f-4e2f-afe7-05da97f61a62"},"vehicle_type_id":"4","last_reported":1706310443,"current_range_meters":0,"station_id":"","pricing_plan_id":"free"},{"bike_id":"42fcf06f-5b57-4a1a-9b2a-68a0d02f7fa7","system_id":"levelo_inurba_marseille","lat":43.28856,"lon":5.358371,"is_reserved":false,"is_disabled":false,"rental_uris":{"android":"levelo://app?vid=42fcf06f-5b57-4a1a-9b2a-68a0d02f7fa7","ios":"levelo://app?vid=42fcf06f-5b57-4a1a-9b2a-68a0d02f7fa7"},"vehicle_type_id":"4","last_reported":1706310443,"current_range_meters":0,"station_id":"ce4bhb12rcd13ifvqem0","pricing_plan_id":"free"},{"bike_id":"e0e4a8b6-ab8a-444d-8318-033c5da122d9","system_id":"levelo_inurba_marseille","lat":43.28856,"lon":5.358371,"is_reserved":false,"is_disabled":false,"rental_uris":{"android":"levelo://app?vid=e0e4a8b6-ab8a-444d-8318-033c5da122d9","ios":"levelo://app?vid=e0e4a8b6-ab8a-444d-8318-033c5da122d9"},"vehicle_type_id":"4","last_reported":1706310443,"current_range_meters":4000,"station_id":"ce4bhb12rcd13ifvqem0","pricing_plan_id":"free"},{"bike_id":"55ca7af4-6aca-40bd-afb7-e3ff938a3f8d","system_id":"levelo_inurba_marseille","lat":43.28856,"lon":5.358371,"is_reserved":false,"is_disabled":false,"rental_uris":{"android":"levelo://app?vid=55ca7af4-6aca-40bd-afb7-e3ff938a3f8d","ios":"levelo://app?vid=55ca7af4-6aca-40bd-afb7-e3ff938a3f8d"},"vehicle_type_id":"4","last_reported":1706310443,"current_range_meters":24800,"station_id":"ce4bhb12rcd13ifvqem0","pricing_plan_id":"free"},{"bike_id":"3e8250c4-7892-4712-900c-b50082c9d1ba","system_id":"levelo_inurba_marseille","lat":43.312609,"lon":5.401662,"is_reserved":false,"is_disabled":false,"rental_uris":{"android":"levelo://app?vid=3e8250c4-7892-4712-900c-b50082c9d1ba","ios":"levelo://app?vid=3e8250c4-7892-4712-900c-b50082c9d1ba"},"vehicle_type_id":"4","last_reported":1706310443,"current_range_meters":15200,"station_id":"ce4bh092rcd13ifvqd30","pricing_plan_id":"free"},{"bike_id":"5f4f2e5e-bf27-44ee-9683-c4a626c43b84","system_id":"levelo_inurba_marseille","lat":43.309371,"lon":5.401449,"is_reserved":false,"is_disabled":false,"rental_uris":{"android":"levelo://app?vid=5f4f2e5e-bf27-44ee-9683-c4a626c43b84","ios":"levelo://app?vid=5f4f2e5e-bf27-44ee-9683-c4a626c43b84"},"vehicle_type_id":"4","last_reported":1706310443,"current_range_meters":31200,"station_id":"ce4bgvp2rcd13ifvqct0","pricing_plan_id":"free"},{"bike_id":"6257c317-3a6c-42a3-a774-371510e87d3d","system_id":"levelo_inurba_marseille","lat":43.31276,"lon":5.40173,"is_reserved":false,"is_disabled":false,"rental_uris":{"android":"levelo://app?vid=6257c317-3a6c-42a3-a774-371510e87d3d","ios":"levelo://app?vid=6257c317-3a6c-42a3-a774-371510e87d3d"},"vehicle_type_id":"4","last_reported":1706310443,"current_range_meters":0,"station_id":"ce4bh092rcd13ifvqd30","pricing_plan_id":"free"},{"bike_id":"eb006cec-40ad-4259-bf5d-87751f7ad9c3","system_id":"levelo_inurba_marseille","lat":43.30935,"lon":5.40142,"is_reserved":false,"is_disabled":false,"rental_uris":{"android":"levelo://app?vid=eb006cec-40ad-4259-bf5d-87751f7ad9c3","ios":"levelo://app?vid=eb006cec-40ad-4259-bf5d-87751f7ad9c3"},"vehicle_type_id":"4","last_reported":1706310443,"current_range_meters":20800,"station_id":"ce4bgvp2rcd13ifvqct0","pricing_plan_id":"free"},{"bike_id":"2fd0ab65-d59c-4326-9654-7935f976eaef","system_id":"levelo_inurba_marseille","lat":43.309371,"lon":5.401449,"is_reserved":false,"is_disabled":false,"rental_uris":{"android":"levelo://app?vid=2fd0ab65-d59c-4326-9654-7935f976eaef","ios":"levelo://app?vid=2fd0ab65-d59c-4326-9654-7935f976eaef"},"vehicle_type_id":"4","last_reported":1706310443,"current_range_meters":30000,"station_id":"ce4bgvp2rcd13ifvqct0","pricing_plan_id":"free"},{"bike_id":"395600cb-f622-4088-84c4-ddd4db713a6f","system_id":"levelo_inurba_marseille","lat":43.30931,"lon":5.40145,"is_reserved":false,"is_disabled":false,"rental_uris":{"android":"levelo://app?vid=395600cb-f622-4088-84c4-ddd4db713a6f","ios":"levelo://app?vid=395600cb-f622-4088-84c4-ddd4db713a6f"},"vehicle_type_id":"4","last_reported":1706310443,"current_range_meters":0,"station_id":"ce4bgvp2rcd13ifvqct0","pricing_plan_id":"free"},{"bike_id":"48c1fa8b-ed72-4d16-a653-ad54f91e9dca","system_id":"levelo_inurba_marseille","lat":43.3093,"lon":5.40147,"is_reserved":false,"is_disabled":false,"rental_uris":{"android":"levelo://app?vid=48c1fa8b-ed72-4d16-a653-ad54f91e9dca","ios":"levelo://app?vid=48c1fa8b-ed72-4d16-a653-ad54f91e9dca"},"vehicle_type_id":"4","last_reported":1706310443,"current_range_meters":27600,"station_id":"ce4bgvp2rcd13ifvqct0","pricing_plan_id":"free"},{"bike_id":"a797ffc5-c458-40ba-9bc9-6560dd2a2969","system_id":"levelo_inurba_marseille","lat":43.312609,"lon":5.401662,"is_reserved":false,"is_disabled":false,"rental_uris":{"android":"levelo://app?vid=a797ffc5-c458-40ba-9bc9-6560dd2a2969","ios":"levelo://app?vid=a797ffc5-c458-40ba-9bc9-6560dd2a2969"},"vehicle_type_id":"4","last_reported":1706310443,"current_range_meters":30800,"station_id":"ce4bh092rcd13ifvqd30","pricing_plan_id":"free"},{"bike_id":"a955b3e1-d2f0-4235-a805-c4e33bb52b48","system_id":"levelo_inurba_marseille","lat":43.312609,"lon":5.401662,"is_reserved":false,"is_disabled":false,"rental_uris":{"android":"levelo://app?vid=a955b3e1-d2f0-4235-a805-c4e33bb52b48","ios":"levelo://app?vid=a955b3e1-d2f0-4235-a805-c4e33bb52b48"},"vehicle_type_id":"4","last_reported":1706310443,"current_range_meters":11600,"station_id":"ce4bh092rcd13ifvqd30","pricing_plan_id":"free"},{"bike_id":"b7f12eab-e0a6-499e-87ec-2b4381c4602a","system_id":"levelo_inurba_marseille","lat":43.337538,"lon":5.374772,"is_reserved":false,"is_disabled":false,"rental_uris":{"android":"levelo://app?vid=b7f12eab-e0a6-499e-87ec-2b4381c4602a","ios":"levelo://app?vid=b7f12eab-e0a6-499e-87ec-2b4381c4602a"},"vehicle_type_id":"4","last_reported":1706310443,"current_range_meters":26800,"station_id":"","pricing_plan_id":"free"},{"bike_id":"44290887-7160-43e4-9854-df2239507869","system_id":"levelo_inurba_marseille","lat":43.309371,"lon":5.401449,"is_reserved":false,"is_disabled":false,"rental_uris":{"android":"levelo://app?vid=44290887-7160-43e4-9854-df2239507869","ios":"levelo://app?vid=44290887-7160-43e4-9854-df2239507869"},"vehicle_type_id":"4","last_reported":1706310443,"current_range_meters":4000,"station_id":"ce4bgvp2rcd13ifvqct0","pricing_plan_id":"free"},{"bike_id":"a474cd44-8dc2-4612-9cbc-ff001672523a","system_id":"levelo_inurba_marseille","lat":43.30912,"lon":5.4016,"is_reserved":false,"is_disabled":false,"rental_uris":{"android":"levelo://app?vid=a474cd44-8dc2-4612-9cbc-ff001672523a","ios":"levelo://app?vid=a474cd44-8dc2-4612-9cbc-ff001672523a"},"vehicle_type_id":"4","last_reported":1706310443,"current_range_meters":6400,"station_id":"ce4bgvp2rcd13ifvqct0","pricing_plan_id":"free"},{"bike_id":"e0fab668-8996-4548-9adf-1db91c11dd26","system_id":"levelo_inurba_marseille","lat":43.301117,"lon":5.398795,"is_reserved":false,"is_disabled":false,"rental_uris":{"android":"levelo://app?vid=e0fab668-8996-4548-9adf-1db91c11dd26","ios":"levelo://app?vid=e0fab668-8996-4548-9adf-1db91c11dd26"},"vehicle_type_id":"4","last_reported":1706310443,"current_range_meters":17200,"station_id":"ce4bh0h2rcd13ifvqd40","pricing_plan_id":"free"},{"bike_id":"a3a6dbd7-b6d7-4f13-abc4-10a4362dc4e3","system_id":"levelo_inurba_marseille","lat":43.33768,"lon":5.3748,"is_reserved":false,"is_disabled":false,"rental_uris":{"android":"levelo://app?vid=a3a6dbd7-b6d7-4f13-abc4-10a4362dc4e3","ios":"levelo://app?vid=a3a6dbd7-b6d7-4f13-abc4-10a4362dc4e3"},"vehicle_type_id":"4","last_reported":1706310443,"current_range_meters":28400,"station_id":"","pricing_plan_id":"free"},{"bike_id":"806ab5a7-9fc3-4488-a78a-fa75b5577b8c","system_id":"levelo_inurba_marseille","lat":43.301117,"lon":5.398795,"is_reserved":false,"is_disabled":false,"rental_uris":{"android":"levelo://app?vid=806ab5a7-9fc3-4488-a78a-fa75b5577b8c","ios":"levelo://app?vid=806ab5a7-9fc3-4488-a78a-fa75b5577b8c"},"vehicle_type_id":"4","last_reported":1706310443,"current_range_meters":20400,"station_id":"ce4bh0h2rcd13ifvqd40","pricing_plan_id":"free"},{"bike_id":"d4e3d8ed-eb96-477c-8182-2c54ae787717","system_id":"levelo_inurba_marseille","lat":43.301117,"lon":5.398795,"is_reserved":false,"is_disabled":false,"rental_uris":{"android":"levelo://app?vid=d4e3d8ed-eb96-477c-8182-2c54ae787717","ios":"levelo://app?vid=d4e3d8ed-eb96-477c-8182-2c54ae787717"},"vehicle_type_id":"4","last_reported":1706310443,"current_range_meters":1600,"station_id":"ce4bh0h2rcd13ifvqd40","pricing_plan_id":"free"},{"bike_id":"3ee7b71a-d293-4216-9105-27a5012109c9","system_id":"levelo_inurba_marseille","lat":43.33769,"lon":5.37479,"is_reserved":false,"is_disabled":false,"rental_uris":{"android":"levelo://app?vid=3ee7b71a-d293-4216-9105-27a5012109c9","ios":"levelo://app?vid=3ee7b71a-d293-4216-9105-27a5012109c9"},"vehicle_type_id":"4","last_reported":1706310443,"current_range_meters":31200,"station_id":"","pricing_plan_id":"free"},{"bike_id":"11ac4d0b-81f5-4677-bf28-25bbe565009d","system_id":"levelo_inurba_marseille","lat":43.337694,"lon":5.374796,"is_reserved":false,"is_disabled":false,"rental_uris":{"android":"levelo://app?vid=11ac4d0b-81f5-4677-bf28-25bbe565009d","ios":"levelo://app?vid=11ac4d0b-81f5-4677-bf28-25bbe565009d"},"vehicle_type_id":"4","last_reported":1706310443,"current_range_meters":26000,"station_id":"","pricing_plan_id":"free"},{"bike_id":"b7e6526d-9ef8-4f31-80d3-adf02fd3fcc5","system_id":"levelo_inurba_marseille","lat":43.298681,"lon":5.397225,"is_reserved":false,"is_disabled":false,"rental_uris":{"android":"levelo://app?vid=b7e6526d-9ef8-4f31-80d3-adf02fd3fcc5","ios":"levelo://app?vid=b7e6526d-9ef8-4f31-80d3-adf02fd3fcc5"},"vehicle_type_id":"4","last_reported":1706310443,"current_range_meters":21200,"station_id":"ce4bh0h2rcd13ifvqd50","pricing_plan_id":"free"},{"bike_id":"6e910ce4-9d2f-4cea-a8ba-0eb0646ad194","system_id":"levelo_inurba_marseille","lat":43.28709,"lon":5.37376,"is_reserved":false,"is_disabled":false,"rental_uris":{"android":"levelo://app?vid=6e910ce4-9d2f-4cea-a8ba-0eb0646ad194","ios":"levelo://app?vid=6e910ce4-9d2f-4cea-a8ba-0eb0646ad194"},"vehicle_type_id":"4","last_reported":1706310443,"current_range_meters":23600,"station_id":"ce4bh3p2rcd13ifvqdq0","pricing_plan_id":"free"},{"bike_id":"ea35cf4c-ccc2-4ac2-aa15-25542753c3fd","system_id":"levelo_inurba_marseille","lat":43.286593,"lon":5.363346,"is_reserved":false,"is_disabled":false,"rental_uris":{"android":"levelo://app?vid=ea35cf4c-ccc2-4ac2-aa15-25542753c3fd","ios":"levelo://app?vid=ea35cf4c-ccc2-4ac2-aa15-25542753c3fd"},"vehicle_type_id":"4","last_reported":1706310443,"current_range_meters":5200,"station_id":"ce4bhah2rcd13ifvqej0","pricing_plan_id":"free"},{"bike_id":"4b340d67-8ff3-4e8a-b13b-3f73ffbb53f5","system_id":"levelo_inurba_marseille","lat":43.286593,"lon":5.363346,"is_reserved":false,"is_disabled":false,"rental_uris":{"android":"levelo://app?vid=4b340d67-8ff3-4e8a-b13b-3f73ffbb53f5","ios":"levelo://app?vid=4b340d67-8ff3-4e8a-b13b-3f73ffbb53f5"},"vehicle_type_id":"4","last_reported":1706310443,"current_range_meters":6800,"station_id":"ce4bhah2rcd13ifvqej0","pricing_plan_id":"free"},{"bike_id":"d787af55-3466-48b3-a07a-6c79cf630bd8","system_id":"levelo_inurba_marseille","lat":43.287,"lon":5.3738,"is_reserved":false,"is_disabled":false,"rental_uris":{"android":"levelo://app?vid=d787af55-3466-48b3-a07a-6c79cf630bd8","ios":"levelo://app?vid=d787af55-3466-48b3-a07a-6c79cf630bd8"},"vehicle_type_id":"4","last_reported":1706310443,"current_range_meters":0,"station_id":"ce4bh3p2rcd13ifvqdq0","pricing_plan_id":"free"},{"bike_id":"d2050d4f-99ba-45ca-ba9c-da576a6c7162","system_id":"levelo_inurba_marseille","lat":43.28701,"lon":5.37389,"is_reserved":false,"is_disabled":false,"rental_uris":{"android":"levelo://app?vid=d2050d4f-99ba-45ca-ba9c-da576a6c7162","ios":"levelo://app?vid=d2050d4f-99ba-45ca-ba9c-da576a6c7162"},"vehicle_type_id":"4","last_reported":1706310443,"current_range_meters":17200,"station_id":"ce4bh3p2rcd13ifvqdq0","pricing_plan_id":"free"},{"bike_id":"a3b56923-d44b-4120-9ca2-02703f82944c","system_id":"levelo_inurba_marseille","lat":43.286961,"lon":5.373785,"is_reserved":false,"is_disabled":false,"rental_uris":{"android":"levelo://app?vid=a3b56923-d44b-4120-9ca2-02703f82944c","ios":"levelo://app?vid=a3b56923-d44b-4120-9ca2-02703f82944c"},"vehicle_type_id":"4","last_reported":1706310443,"current_range_meters":0,"station_id":"ce4bh3p2rcd13ifvqdq0","pricing_plan_id":"free"},{"bike_id":"69184def-6e32-4de0-817e-4673a0cca5e1","system_id":"levelo_inurba_marseille","lat":43.286961,"lon":5.373785,"is_reserved":false,"is_disabled":false,"rental_uris":{"android":"levelo://app?vid=69184def-6e32-4de0-817e-4673a0cca5e1","ios":"levelo://app?vid=69184def-6e32-4de0-817e-4673a0cca5e1"},"vehicle_type_id":"4","last_reported":1706310443,"current_range_meters":24000,"station_id":"ce4bh3p2rcd13ifvqdq0","pricing_plan_id":"free"},{"bike_id":"2b7ea1dc-e81e-4b49-b927-3b4af20344d4","system_id":"levelo_inurba_marseille","lat":43.290345,"lon":5.38646,"is_reserved":false,"is_disabled":false,"rental_uris":{"android":"levelo://app?vid=2b7ea1dc-e81e-4b49-b927-3b4af20344d4","ios":"levelo://app?vid=2b7ea1dc-e81e-4b49-b927-3b4af20344d4"},"vehicle_type_id":"4","last_reported":1706310443,"current_range_meters":14800,"station_id":"ce4bh4p2rcd13ifvqe0g","pricing_plan_id":"free"},{"bike_id":"183bb1c1-398f-466c-b05d-327ac4efc436","system_id":"levelo_inurba_marseille","lat":43.302511,"lon":5.400653,"is_reserved":false,"is_disabled":false,"rental_uris":{"android":"levelo://app?vid=183bb1c1-398f-466c-b05d-327ac4efc436","ios":"levelo://app?vid=183bb1c1-398f-466c-b05d-327ac4efc436"},"vehicle_type_id":"4","last_reported":1706310443,"current_range_meters":17200,"station_id":"ce4bgth2rcd13ifvqch0","pricing_plan_id":"free"},{"bike_id":"a7a14f66-bb70-47de-8390-1135926c5007","system_id":"levelo_inurba_marseille","lat":43.290345,"lon":5.38646,"is_reserved":false,"is_disabled":false,"rental_uris":{"android":"levelo://app?vid=a7a14f66-bb70-47de-8390-1135926c5007","ios":"levelo://app?vid=a7a14f66-bb70-47de-8390-1135926c5007"},"vehicle_type_id":"4","last_reported":1706310443,"current_range_meters":0,"station_id":"ce4bh4p2rcd13ifvqe0g","pricing_plan_id":"free"},{"bike_id":"a500043a-5a98-4f66-b316-e3c464c74428","system_id":"levelo_inurba_marseille","lat":43.30251,"lon":5.40068,"is_reserved":false,"is_disabled":false,"rental_uris":{"android":"levelo://app?vid=a500043a-5a98-4f66-b316-e3c464c74428","ios":"levelo://app?vid=a500043a-5a98-4f66-b316-e3c464c74428"},"vehicle_type_id":"4","last_reported":1706310443,"current_range_meters":0,"station_id":"ce4bgvh2rcd13ifvqcs0","pricing_plan_id":"free"},{"bike_id":"bfaa57ee-9660-4850-be2a-a80c4182d40d","system_id":"levelo_inurba_marseille","lat":43.302759,"lon":5.400793,"is_reserved":false,"is_disabled":false,"rental_uris":{"android":"levelo://app?vid=bfaa57ee-9660-4850-be2a-a80c4182d40d","ios":"levelo://app?vid=bfaa57ee-9660-4850-be2a-a80c4182d40d"},"vehicle_type_id":"4","last_reported":1706310443,"current_range_meters":2400,"station_id":"ce4bgvh2rcd13ifvqcs0","pricing_plan_id":"free"},{"bike_id":"cd2e8384-1758-41b7-8b66-e6112be1b4da","system_id":"levelo_inurba_marseille","lat":43.28615,"lon":5.37066,"is_reserved":false,"is_disabled":false,"rental_uris":{"android":"levelo://app?vid=cd2e8384-1758-41b7-8b66-e6112be1b4da","ios":"levelo://app?vid=cd2e8384-1758-41b7-8b66-e6112be1b4da"},"vehicle_type_id":"4","last_reported":1706310443,"current_range_meters":2800,"station_id":"ce4bht12rcd13ifvqi60","pricing_plan_id":"free"},{"bike_id":"a85f399f-9dd2-4e38-a008-66d4a1c87dd5","system_id":"levelo_inurba_marseille","lat":43.287184,"lon":5.37937,"is_reserved":false,"is_disabled":false,"rental_uris":{"android":"levelo://app?vid=a85f399f-9dd2-4e38-a008-66d4a1c87dd5","ios":"levelo://app?vid=a85f399f-9dd2-4e38-a008-66d4a1c87dd5"},"vehicle_type_id":"4","last_reported":1706310443,"current_range_meters":12400,"station_id":"ce4bh9p2rcd13ifvqec0","pricing_plan_id":"free"},{"bike_id":"a393a450-18fb-44b6-90ac-2f74e1e315aa","system_id":"levelo_inurba_marseille","lat":43.287184,"lon":5.37937,"is_reserved":false,"is_disabled":false,"rental_uris":{"android":"levelo://app?vid=a393a450-18fb-44b6-90ac-2f74e1e315aa","ios":"levelo://app?vid=a393a450-18fb-44b6-90ac-2f74e1e315aa"},"vehicle_type_id":"4","last_reported":1706310443,"current_range_meters":22400,"station_id":"ce4bh9p2rcd13ifvqec0","pricing_plan_id":"free"},{"bike_id":"a7c0a6dc-1328-4b04-9722-b7d2ce2eb3b1","system_id":"levelo_inurba_marseille","lat":43.287185,"lon":5.379373,"is_reserved":false,"is_disabled":false,"rental_uris":{"android":"levelo://app?vid=a7c0a6dc-1328-4b04-9722-b7d2ce2eb3b1","ios":"levelo://app?vid=a7c0a6dc-1328-4b04-9722-b7d2ce2eb3b1"},"vehicle_type_id":"4","last_reported":1706310443,"current_range_meters":400,"station_id":"ce4bh9p2rcd13ifvqec0","pricing_plan_id":"free"},{"bike_id":"2251fc59-2828-4aff-966d-0a6777ecbd36","system_id":"levelo_inurba_marseille","lat":43.316828,"lon":5.404723,"is_reserved":false,"is_disabled":false,"rental_uris":{"android":"levelo://app?vid=2251fc59-2828-4aff-966d-0a6777ecbd36","ios":"levelo://app?vid=2251fc59-2828-4aff-966d-0a6777ecbd36"},"vehicle_type_id":"4","last_reported":1706310443,"current_range_meters":9200,"station_id":"ce4bh012rcd13ifvqd00","pricing_plan_id":"free"},{"bike_id":"b332df60-0a81-4841-a021-c7d35a6d7740","system_id":"levelo_inurba_marseille","lat":43.316828,"lon":5.404723,"is_reserved":false,"is_disabled":false,"rental_uris":{"android":"levelo://app?vid=b332df60-0a81-4841-a021-c7d35a6d7740","ios":"levelo://app?vid=b332df60-0a81-4841-a021-c7d35a6d7740"},"vehicle_type_id":"4","last_reported":1706310443,"current_range_meters":12000,"station_id":"ce4bh012rcd13ifvqd00","pricing_plan_id":"free"},{"bike_id":"c011c8ab-84d3-4588-a847-3df4c973ed80","system_id":"levelo_inurba_marseille","lat":43.316828,"lon":5.404723,"is_reserved":false,"is_disabled":false,"rental_uris":{"android":"levelo://app?vid=c011c8ab-84d3-4588-a847-3df4c973ed80","ios":"levelo://app?vid=c011c8ab-84d3-4588-a847-3df4c973ed80"},"vehicle_type_id":"4","last_reported":1706310443,"current_range_meters":15200,"station_id":"ce4bh012rcd13ifvqd00","pricing_plan_id":"free"},{"bike_id":"2e11fc2a-7050-4543-af70-591fcfffec70","system_id":"levelo_inurba_marseille","lat":43.291994,"lon":5.392907,"is_reserved":false,"is_disabled":false,"rental_uris":{"android":"levelo://app?vid=2e11fc2a-7050-4543-af70-591fcfffec70","ios":"levelo://app?vid=2e11fc2a-7050-4543-af70-591fcfffec70"},"vehicle_type_id":"4","last_reported":1706310443,"current_range_meters":21600,"station_id":"ce4bh192rcd13ifvqdd0","pricing_plan_id":"free"},{"bike_id":"008cebab-d340-411f-ae5a-0a00aa4da0fd","system_id":"levelo_inurba_marseille","lat":43.291994,"lon":5.392907,"is_reserved":false,"is_disabled":false,"rental_uris":{"android":"levelo://app?vid=008cebab-d340-411f-ae5a-0a00aa4da0fd","ios":"levelo://app?vid=008cebab-d340-411f-ae5a-0a00aa4da0fd"},"vehicle_type_id":"4","last_reported":1706310443,"current_range_meters":26000,"station_id":"ce4bh192rcd13ifvqdd0","pricing_plan_id":"free"},{"bike_id":"721fcf8d-8fb8-4495-850c-4be494224528","system_id":"levelo_inurba_marseille","lat":43.291994,"lon":5.392907,"is_reserved":false,"is_disabled":false,"rental_uris":{"android":"levelo://app?vid=721fcf8d-8fb8-4495-850c-4be494224528","ios":"levelo://app?vid=721fcf8d-8fb8-4495-850c-4be494224528"},"vehicle_type_id":"4","last_reported":1706310443,"current_range_meters":0,"station_id":"ce4bh192rcd13ifvqdd0","pricing_plan_id":"free"},{"bike_id":"1e750731-f8f1-4c03-aea9-49da9fc70543","system_id":"levelo_inurba_marseille","lat":43.291994,"lon":5.392907,"is_reserved":false,"is_disabled":false,"rental_uris":{"android":"levelo://app?vid=1e750731-f8f1-4c03-aea9-49da9fc70543","ios":"levelo://app?vid=1e750731-f8f1-4c03-aea9-49da9fc70543"},"vehicle_type_id":"4","last_reported":1706310443,"current_range_meters":20400,"station_id":"ce4bh192rcd13ifvqdd0","pricing_plan_id":"free"},{"bike_id":"83a7b252-288e-446c-aa8d-2f2a2319200d","system_id":"levelo_inurba_marseille","lat":43.284655,"lon":5.358994,"is_reserved":false,"is_disabled":false,"rental_uris":{"android":"levelo://app?vid=83a7b252-288e-446c-aa8d-2f2a2319200d","ios":"levelo://app?vid=83a7b252-288e-446c-aa8d-2f2a2319200d"},"vehicle_type_id":"4","last_reported":1706310443,"current_range_meters":0,"station_id":"ce4bhah2rcd13ifvqei0","pricing_plan_id":"free"},{"bike_id":"837e5f9f-d2c9-4cd5-99f1-9b8bb85f3484","system_id":"levelo_inurba_marseille","lat":43.284534,"lon":5.358662,"is_reserved":false,"is_disabled":false,"rental_uris":{"android":"levelo://app?vid=837e5f9f-d2c9-4cd5-99f1-9b8bb85f3484","ios":"levelo://app?vid=837e5f9f-d2c9-4cd5-99f1-9b8bb85f3484"},"vehicle_type_id":"4","last_reported":1706310443,"current_range_meters":15200,"station_id":"ce4bhah2rcd13ifvqei0","pricing_plan_id":"free"},{"bike_id":"7b8610ad-df41-4fc3-8d70-b368302fad68","system_id":"levelo_inurba_marseille","lat":43.28466,"lon":5.358855,"is_reserved":false,"is_disabled":false,"rental_uris":{"android":"levelo://app?vid=7b8610ad-df41-4fc3-8d70-b368302fad68","ios":"levelo://app?vid=7b8610ad-df41-4fc3-8d70-b368302fad68"},"vehicle_type_id":"4","last_reported":1706310443,"current_range_meters":0,"station_id":"ce4bhah2rcd13ifvqei0","pricing_plan_id":"free"},{"bike_id":"0ef5f2e7-4c49-469c-b8c6-0a3c5166f168","system_id":"levelo_inurba_marseille","lat":43.2846,"lon":5.35883,"is_reserved":false,"is_disabled":false,"rental_uris":{"android":"levelo://app?vid=0ef5f2e7-4c49-469c-b8c6-0a3c5166f168","ios":"levelo://app?vid=0ef5f2e7-4c49-469c-b8c6-0a3c5166f168"},"vehicle_type_id":"4","last_reported":1706310443,"current_range_meters":400,"station_id":"ce4bhah2rcd13ifvqei0","pricing_plan_id":"free"},{"bike_id":"33dbf104-7571-456d-b382-a455a90d7bf6","system_id":"levelo_inurba_marseille","lat":43.28458,"lon":5.35891,"is_reserved":false,"is_disabled":false,"rental_uris":{"android":"levelo://app?vid=33dbf104-7571-456d-b382-a455a90d7bf6","ios":"levelo://app?vid=33dbf104-7571-456d-b382-a455a90d7bf6"},"vehicle_type_id":"4","last_reported":1706310443,"current_range_meters":0,"station_id":"ce4bhah2rcd13ifvqei0","pricing_plan_id":"free"},{"bike_id":"b21b77fb-b8a6-46e8-bcbc-5297880eba72","system_id":"levelo_inurba_marseille","lat":43.285856,"lon":5.350771,"is_reserved":false,"is_disabled":false,"rental_uris":{"android":"levelo://app?vid=b21b77fb-b8a6-46e8-bcbc-5297880eba72","ios":"levelo://app?vid=b21b77fb-b8a6-46e8-bcbc-5297880eba72"},"vehicle_type_id":"4","last_reported":1706310443,"current_range_meters":0,"station_id":"ce4bhch2rcd13ifvqeug","pricing_plan_id":"free"},{"bike_id":"264456f1-52ba-4a37-bb78-ec2b25f48f86","system_id":"levelo_inurba_marseille","lat":43.285848,"lon":5.350787,"is_reserved":false,"is_disabled":false,"rental_uris":{"android":"levelo://app?vid=264456f1-52ba-4a37-bb78-ec2b25f48f86","ios":"levelo://app?vid=264456f1-52ba-4a37-bb78-ec2b25f48f86"},"vehicle_type_id":"4","last_reported":1706310443,"current_range_meters":4800,"station_id":"ce4bhch2rcd13ifvqeug","pricing_plan_id":"free"},{"bike_id":"aa52849a-0e37-4363-88c8-fb54e8e8cc59","system_id":"levelo_inurba_marseille","lat":43.28615,"lon":5.35104,"is_reserved":false,"is_disabled":false,"rental_uris":{"android":"levelo://app?vid=aa52849a-0e37-4363-88c8-fb54e8e8cc59","ios":"levelo://app?vid=aa52849a-0e37-4363-88c8-fb54e8e8cc59"},"vehicle_type_id":"4","last_reported":1706310443,"current_range_meters":0,"station_id":"ce4bhch2rcd13ifvqeug","pricing_plan_id":"free"},{"bike_id":"ef32e767-9dd6-4e53-a40d-6dd5c0444794","system_id":"levelo_inurba_marseille","lat":43.285848,"lon":5.350787,"is_reserved":false,"is_disabled":false,"rental_uris":{"android":"levelo://app?vid=ef32e767-9dd6-4e53-a40d-6dd5c0444794","ios":"levelo://app?vid=ef32e767-9dd6-4e53-a40d-6dd5c0444794"},"vehicle_type_id":"4","last_reported":1706310443,"current_range_meters":23600,"station_id":"ce4bhch2rcd13ifvqeug","pricing_plan_id":"free"},{"bike_id":"9085d25f-f856-4331-be72-7cf7b71f57be","system_id":"levelo_inurba_marseille","lat":43.283998,"lon":5.375062,"is_reserved":false,"is_disabled":false,"rental_uris":{"android":"levelo://app?vid=9085d25f-f856-4331-be72-7cf7b71f57be","ios":"levelo://app?vid=9085d25f-f856-4331-be72-7cf7b71f57be"},"vehicle_type_id":"4","last_reported":1706310443,"current_range_meters":5200,"station_id":"ce4bh412rcd13ifvqds0","pricing_plan_id":"free"},{"bike_id":"99c3b37d-0170-488e-b156-2a85bc2f066a","system_id":"levelo_inurba_marseille","lat":43.283998,"lon":5.375062,"is_reserved":false,"is_disabled":false,"rental_uris":{"android":"levelo://app?vid=99c3b37d-0170-488e-b156-2a85bc2f066a","ios":"levelo://app?vid=99c3b37d-0170-488e-b156-2a85bc2f066a"},"vehicle_type_id":"4","last_reported":1706310443,"current_range_meters":23600,"station_id":"ce4bh412rcd13ifvqds0","pricing_plan_id":"free"},{"bike_id":"eccb0f66-d6aa-45e2-ab66-74ef999b9097","system_id":"levelo_inurba_marseille","lat":43.283998,"lon":5.375062,"is_reserved":false,"is_disabled":false,"rental_uris":{"android":"levelo://app?vid=eccb0f66-d6aa-45e2-ab66-74ef999b9097","ios":"levelo://app?vid=eccb0f66-d6aa-45e2-ab66-74ef999b9097"},"vehicle_type_id":"4","last_reported":1706310443,"current_range_meters":1200,"station_id":"ce4bh412rcd13ifvqds0","pricing_plan_id":"free"},{"bike_id":"8419baf8-f56e-4c43-8c67-c573c1603dfd","system_id":"levelo_inurba_marseille","lat":43.295713,"lon":5.399639,"is_reserved":false,"is_disabled":false,"rental_uris":{"android":"levelo://app?vid=8419baf8-f56e-4c43-8c67-c573c1603dfd","ios":"levelo://app?vid=8419baf8-f56e-4c43-8c67-c573c1603dfd"},"vehicle_type_id":"4","last_reported":1706310443,"current_range_meters":16000,"station_id":"ce4bh312rcd13ifvqdj0","pricing_plan_id":"free"},{"bike_id":"d7fc5ddc-e076-4a02-b484-f2617943e475","system_id":"levelo_inurba_marseille","lat":43.283998,"lon":5.375062,"is_reserved":false,"is_disabled":false,"rental_uris":{"android":"levelo://app?vid=d7fc5ddc-e076-4a02-b484-f2617943e475","ios":"levelo://app?vid=d7fc5ddc-e076-4a02-b484-f2617943e475"},"vehicle_type_id":"4","last_reported":1706310443,"current_range_meters":2400,"station_id":"ce4bh412rcd13ifvqds0","pricing_plan_id":"free"},{"bike_id":"e2757653-3c4f-4762-8421-6beb10be1987","system_id":"levelo_inurba_marseille","lat":43.283998,"lon":5.375062,"is_reserved":false,"is_disabled":false,"rental_uris":{"android":"levelo://app?vid=e2757653-3c4f-4762-8421-6beb10be1987","ios":"levelo://app?vid=e2757653-3c4f-4762-8421-6beb10be1987"},"vehicle_type_id":"4","last_reported":1706310443,"current_range_meters":19600,"station_id":"ce4bh412rcd13ifvqds0","pricing_plan_id":"free"},{"bike_id":"17cc1c80-210b-427c-905b-de770be20b02","system_id":"levelo_inurba_marseille","lat":43.283998,"lon":5.375062,"is_reserved":false,"is_disabled":false,"rental_uris":{"android":"levelo://app?vid=17cc1c80-210b-427c-905b-de770be20b02","ios":"levelo://app?vid=17cc1c80-210b-427c-905b-de770be20b02"},"vehicle_type_id":"4","last_reported":1706310443,"current_range_meters":18000,"station_id":"ce4bh412rcd13ifvqds0","pricing_plan_id":"free"},{"bike_id":"f7355dca-d8c2-40c2-a3ca-1593acffc8a4","system_id":"levelo_inurba_marseille","lat":43.283998,"lon":5.375062,"is_reserved":false,"is_disabled":false,"rental_uris":{"android":"levelo://app?vid=f7355dca-d8c2-40c2-a3ca-1593acffc8a4","ios":"levelo://app?vid=f7355dca-d8c2-40c2-a3ca-1593acffc8a4"},"vehicle_type_id":"4","last_reported":1706310443,"current_range_meters":8000,"station_id":"ce4bh412rcd13ifvqds0","pricing_plan_id":"free"},{"bike_id":"0c277101-1b47-4330-96e4-ab482bd5f56c","system_id":"levelo_inurba_marseille","lat":43.283998,"lon":5.375062,"is_reserved":false,"is_disabled":false,"rental_uris":{"android":"levelo://app?vid=0c277101-1b47-4330-96e4-ab482bd5f56c","ios":"levelo://app?vid=0c277101-1b47-4330-96e4-ab482bd5f56c"},"vehicle_type_id":"4","last_reported":1706310443,"current_range_meters":6800,"station_id":"ce4bh412rcd13ifvqds0","pricing_plan_id":"free"},{"bike_id":"42f25f57-1806-48b8-abf7-3dfcd79b81a2","system_id":"levelo_inurba_marseille","lat":43.28401,"lon":5.3751,"is_reserved":false,"is_disabled":false,"rental_uris":{"android":"levelo://app?vid=42f25f57-1806-48b8-abf7-3dfcd79b81a2","ios":"levelo://app?vid=42f25f57-1806-48b8-abf7-3dfcd79b81a2"},"vehicle_type_id":"4","last_reported":1706310443,"current_range_meters":400,"station_id":"ce4bh412rcd13ifvqds0","pricing_plan_id":"free"},{"bike_id":"ac9789ed-8771-4262-b835-500253abf03c","system_id":"levelo_inurba_marseille","lat":43.286595,"lon":5.386795,"is_reserved":false,"is_disabled":false,"rental_uris":{"android":"levelo://app?vid=ac9789ed-8771-4262-b835-500253abf03c","ios":"levelo://app?vid=ac9789ed-8771-4262-b835-500253abf03c"},"vehicle_type_id":"4","last_reported":1706310443,"current_range_meters":27200,"station_id":"ce4bh492rcd13ifvqdug","pricing_plan_id":"free"},{"bike_id":"c0e41574-ed2c-4232-81e9-795b6431d43d","system_id":"levelo_inurba_marseille","lat":43.319179,"lon":5.407725,"is_reserved":false,"is_disabled":false,"rental_uris":{"android":"levelo://app?vid=c0e41574-ed2c-4232-81e9-795b6431d43d","ios":"levelo://app?vid=c0e41574-ed2c-4232-81e9-795b6431d43d"},"vehicle_type_id":"4","last_reported":1706310443,"current_range_meters":0,"station_id":"ce4bhq12rcd13ifvqhig","pricing_plan_id":"free"},{"bike_id":"b4bd1ce7-26ad-41db-a915-a3b476b9e02e","system_id":"levelo_inurba_marseille","lat":43.323464,"lon":5.406297,"is_reserved":false,"is_disabled":false,"rental_uris":{"android":"levelo://app?vid=b4bd1ce7-26ad-41db-a915-a3b476b9e02e","ios":"levelo://app?vid=b4bd1ce7-26ad-41db-a915-a3b476b9e02e"},"vehicle_type_id":"4","last_reported":1706310443,"current_range_meters":31200,"station_id":"ce4bhq92rcd13ifvqhjg","pricing_plan_id":"free"},{"bike_id":"29c971f3-912e-4f79-8c22-d20e1f4b5d74","system_id":"levelo_inurba_marseille","lat":43.337168,"lon":5.391825,"is_reserved":false,"is_disabled":false,"rental_uris":{"android":"levelo://app?vid=29c971f3-912e-4f79-8c22-d20e1f4b5d74","ios":"levelo://app?vid=29c971f3-912e-4f79-8c22-d20e1f4b5d74"},"vehicle_type_id":"4","last_reported":1706310443,"current_range_meters":22800,"station_id":"ce4bhr92rcd13ifvqhsg","pricing_plan_id":"free"},{"bike_id":"e2bae4f3-cbb5-4bbc-a253-154b8ad77f75","system_id":"levelo_inurba_marseille","lat":43.29795,"lon":5.404086,"is_reserved":false,"is_disabled":false,"rental_uris":{"android":"levelo://app?vid=e2bae4f3-cbb5-4bbc-a253-154b8ad77f75","ios":"levelo://app?vid=e2bae4f3-cbb5-4bbc-a253-154b8ad77f75"},"vehicle_type_id":"4","last_reported":1706310443,"current_range_meters":26800,"station_id":"ce4bh112rcd13ifvqd90","pricing_plan_id":"free"},{"bike_id":"cc7052e4-02a7-4fda-83d1-c757449c3198","system_id":"levelo_inurba_marseille","lat":43.28472,"lon":5.38414,"is_reserved":false,"is_disabled":false,"rental_uris":{"android":"levelo://app?vid=cc7052e4-02a7-4fda-83d1-c757449c3198","ios":"levelo://app?vid=cc7052e4-02a7-4fda-83d1-c757449c3198"},"vehicle_type_id":"4","last_reported":1706310443,"current_range_meters":0,"station_id":"ce4bh512rcd13ifvqe3g","pricing_plan_id":"free"},{"bike_id":"716a735d-8147-4285-858b-c9c3974e39f3","system_id":"levelo_inurba_marseille","lat":43.29795,"lon":5.404086,"is_reserved":false,"is_disabled":false,"rental_uris":{"android":"levelo://app?vid=716a735d-8147-4285-858b-c9c3974e39f3","ios":"levelo://app?vid=716a735d-8147-4285-858b-c9c3974e39f3"},"vehicle_type_id":"4","last_reported":1706310443,"current_range_meters":26000,"station_id":"ce4bh112rcd13ifvqd90","pricing_plan_id":"free"},{"bike_id":"195f02d1-c429-4c0c-8cf3-2eb23613e095","system_id":"levelo_inurba_marseille","lat":43.283494,"lon":5.380945,"is_reserved":false,"is_disabled":false,"rental_uris":{"android":"levelo://app?vid=195f02d1-c429-4c0c-8cf3-2eb23613e095","ios":"levelo://app?vid=195f02d1-c429-4c0c-8cf3-2eb23613e095"},"vehicle_type_id":"4","last_reported":1706310443,"current_range_meters":13600,"station_id":"ce4bh412rcd13ifvqdr0","pricing_plan_id":"free"},{"bike_id":"31aee368-476c-40c7-a89f-5de7ee2a5c77","system_id":"levelo_inurba_marseille","lat":43.28847,"lon":5.39314,"is_reserved":false,"is_disabled":false,"rental_uris":{"android":"levelo://app?vid=31aee368-476c-40c7-a89f-5de7ee2a5c77","ios":"levelo://app?vid=31aee368-476c-40c7-a89f-5de7ee2a5c77"},"vehicle_type_id":"4","last_reported":1706310443,"current_range_meters":18400,"station_id":"ce4bh2p2rcd13ifvqdi0","pricing_plan_id":"free"},{"bike_id":"f15036a5-84a9-4015-ac9d-fde5cb593948","system_id":"levelo_inurba_marseille","lat":43.288501,"lon":5.393087,"is_reserved":false,"is_disabled":false,"rental_uris":{"android":"levelo://app?vid=f15036a5-84a9-4015-ac9d-fde5cb593948","ios":"levelo://app?vid=f15036a5-84a9-4015-ac9d-fde5cb593948"},"vehicle_type_id":"4","last_reported":1706310443,"current_range_meters":18000,"station_id":"ce4bh2p2rcd13ifvqdi0","pricing_plan_id":"free"},{"bike_id":"26d99204-f724-4e3a-9c9c-1ce5aa3fa09d","system_id":"levelo_inurba_marseille","lat":43.283494,"lon":5.380945,"is_reserved":false,"is_disabled":false,"rental_uris":{"android":"levelo://app?vid=26d99204-f724-4e3a-9c9c-1ce5aa3fa09d","ios":"levelo://app?vid=26d99204-f724-4e3a-9c9c-1ce5aa3fa09d"},"vehicle_type_id":"4","last_reported":1706310443,"current_range_meters":10000,"station_id":"ce4bh412rcd13ifvqdr0","pricing_plan_id":"free"},{"bike_id":"81a327a3-a882-4a20-93f9-2feab4b9abfd","system_id":"levelo_inurba_marseille","lat":43.283498,"lon":5.380948,"is_reserved":false,"is_disabled":false,"rental_uris":{"android":"levelo://app?vid=81a327a3-a882-4a20-93f9-2feab4b9abfd","ios":"levelo://app?vid=81a327a3-a882-4a20-93f9-2feab4b9abfd"},"vehicle_type_id":"4","last_reported":1706310443,"current_range_meters":29600,"station_id":"ce4bh412rcd13ifvqdr0","pricing_plan_id":"free"},{"bike_id":"1681b3ae-3f36-47de-abe1-377b74d25ecf","system_id":"levelo_inurba_marseille","lat":43.283498,"lon":5.380948,"is_reserved":false,"is_disabled":false,"rental_uris":{"android":"levelo://app?vid=1681b3ae-3f36-47de-abe1-377b74d25ecf","ios":"levelo://app?vid=1681b3ae-3f36-47de-abe1-377b74d25ecf"},"vehicle_type_id":"4","last_reported":1706310443,"current_range_meters":5600,"station_id":"ce4bh412rcd13ifvqdr0","pricing_plan_id":"free"},{"bike_id":"898eeaa3-4723-489a-b2c4-625997b263c1","system_id":"levelo_inurba_marseille","lat":43.284217,"lon":5.349697,"is_reserved":false,"is_disabled":false,"rental_uris":{"android":"levelo://app?vid=898eeaa3-4723-489a-b2c4-625997b263c1","ios":"levelo://app?vid=898eeaa3-4723-489a-b2c4-625997b263c1"},"vehicle_type_id":"4","last_reported":1706310443,"current_range_meters":17200,"station_id":"ce4bhbh2rcd13ifvqepg","pricing_plan_id":"free"},{"bike_id":"d0114db0-d38e-4e30-8ef0-61b4aaaee3c4","system_id":"levelo_inurba_marseille","lat":43.284217,"lon":5.349697,"is_reserved":false,"is_disabled":false,"rental_uris":{"android":"levelo://app?vid=d0114db0-d38e-4e30-8ef0-61b4aaaee3c4","ios":"levelo://app?vid=d0114db0-d38e-4e30-8ef0-61b4aaaee3c4"},"vehicle_type_id":"4","last_reported":1706310443,"current_range_meters":23200,"station_id":"ce4bhbh2rcd13ifvqepg","pricing_plan_id":"free"},{"bike_id":"3240d07b-b100-4ff9-9987-7da84b8e9253","system_id":"levelo_inurba_marseille","lat":43.289363,"lon":5.396322,"is_reserved":false,"is_disabled":false,"rental_uris":{"android":"levelo://app?vid=3240d07b-b100-4ff9-9987-7da84b8e9253","ios":"levelo://app?vid=3240d07b-b100-4ff9-9987-7da84b8e9253"},"vehicle_type_id":"4","last_reported":1706310443,"current_range_meters":9600,"station_id":"ce4bh3h2rcd13ifvqdn0","pricing_plan_id":"free"},