{"last_updated":1690581960,"ttl":30,"version":"2.2","data":{"bikes":[{"bike_id":"7858a41c-c71f-4877-a760-2f9245e3fdbd","system_id":"levelo_inurba_marseille","lat":43.313391,"lon":5.36706,"is_reserved":false,"is_disabled":false,"rental_uris":{"android":"levelo://app?vid=7858a41c-c71f-4877-a760-2f9245e3fdbd","ios":"levelo://app?vid=7858a41c-c71f-4877-a760-2f9245e3fdbd"},"vehicle_type_id":"4","last_reported":1690581961,"current_range_meters":21600,"station_id":"ce4bgr92rcd13ifvqc6g","pricing_plan_id":"free"},{"bike_id":"718fa064-8d6c-48af-a612-02091538370c","system_id":"levelo_inurba_marseille","lat":43.313391,"lon":5.36706,"is_reserved":false,"is_disabled":false,"rental_uris":{"android":"levelo://app?vid=718fa064-8d6c-48af-a612-02091538370c","ios":"levelo://app?vid=718fa064-8d6c-48af-a612-02091538370c"},"vehicle_type_id":"4","last_reported":1690581961,"current_range_meters":17200,"station_id":"ce4bgr92rcd13ifvqc6g","pricing_plan_id":"free"},{"bike_id":"c0e3dc51-77a1-4ee0-905b-2c04e5505357","system_id":"levelo_inurba_marseille","lat":43.313391,"lon":5.36706,"is_reserved":false,"is_disabled":false,"rental_uris":{"android":"levelo://app?vid=c0e3dc51-77a1-4ee0-905b-2c04e5505357","ios":"levelo://app?vid=c0e3dc51-77a1-4ee0-905b-2c04e5505357"},"vehicle_type_id":"4","last_reported":1690581961,"current_range_meters":4800,"station_id":"ce4bgr92rcd13ifvqc6g","pricing_plan_id":"free"},{"bike_id":"a2d367d1-d25a-4beb-b99d-86e2c6327885","system_id":"levelo_inurba_marseille","lat":43.313391,"lon":5.36706,"is_reserved":false,"is_disabled":false,"rental_uris":{"android":"levelo://app?vid=a2d367d1-d25a-4beb-b99d-86e2c6327885","ios":"levelo://app?vid=a2d367d1-d25a-4beb-b99d-86e2c6327885"},"vehicle_type_id":"4","last_reported":1690581961,"current_range_meters":13600,"station_id":"ce4bgr92rcd13ifvqc6g","pricing_plan_id":"free"},{"bike_id":"e416fd41-8e68-461a-86dd-db827a1a199b","system_id":"levelo_inurba_marseille","lat":43.313391,"lon":5.36706,"is_reserved":false,"is_disabled":false,"rental_uris":{"android":"levelo://app?vid=e416fd41-8e68-461a-86dd-db827a1a199b","ios":"levelo://app?vid=e416fd41-8e68-461a-86dd-db827a1a199b"},"vehicle_type_id":"4","last_reported":1690581961,"current_range_meters":27200,"station_id":"ce4bgr92rcd13ifvqc6g","pricing_plan_id":"free"},{"bike_id":"77041a40-64a2-4ab4-b3d7-9c1ad6ce167c","system_id":"levelo_inurba_marseille","lat":43.313391,"lon":5.36706,"is_reserved":false,"is_disabled":false,"rental_uris":{"android":"levelo://app?vid=77041a40-64a2-4ab4-b3d7-9c1ad6ce167c","ios":"levelo://app?vid=77041a40-64a2-4ab4-b3d7-9c1ad6ce167c"},"vehicle_type_id":"4","last_reported":1690581961,"current_range_meters":4800,"station_id":"ce4bgr92rcd13ifvqc6g","pricing_plan_id":"free"},{"bike_id":"10ca4634-653f-48a6-bca0-e27220a79631","system_id":"levelo_inurba_marseille","lat":43.31341,"lon":5.367098,"is_reserved":false,"is_disabled":false,"rental_uris":{"android":"levelo://app?vid=10ca4634-653f-48a6-bca0-e27220a79631","ios":"levelo://app?vid=10ca4634-653f-48a6-bca0-e27220a79631"},"vehicle_type_id":"4","last_reported":1690581961,"current_range_meters":24400,"station_id":"ce4bgr92rcd13ifvqc6g","pricing_plan_id":"free"},{"bike_id":"e526d4e2-849c-44ae-a0d7-5572a62df909","system_id":"levelo_inurba_marseille","lat":43.312239,"lon":5.368562,"is_reserved":false,"is_disabled":false,"rental_uris":{"android":"levelo://app?vid=e526d4e2-849c-44ae-a0d7-5572a62df909","ios":"levelo://app?vid=e526d4e2-849c-44ae-a0d7-5572a62df909"},"vehicle_type_id":"4","last_reported":1690581961,"current_range_meters":30400,"station_id":"ce4bgl92rcd13ifvqbq0","pricing_plan_id":"free"},{"bike_id":"345a3431-7236-454b-ac1e-77476c9ceac4","system_id":"levelo_inurba_marseille","lat":43.312239,"lon":5.368562,"is_reserved":false,"is_disabled":false,"rental_uris":{"android":"levelo://app?vid=345a3431-7236-454b-ac1e-77476c9ceac4","ios":"levelo://app?vid=345a3431-7236-454b-ac1e-77476c9ceac4"},"vehicle_type_id":"4","last_reported":1690581961,"current_range_meters":10000,"station_id":"ce4bgl92rcd13ifvqbq0","pricing_plan_id":"free"},{"bike_id":"10180fb1-c762-4a63-a7e5-94d669c15db5","system_id":"levelo_inurba_marseille","lat":43.312239,"lon":5.368562,"is_reserved":false,"is_disabled":false,"rental_uris":{"android":"levelo://app?vid=10180fb1-c762-4a63-a7e5-94d669c15db5","ios":"levelo://app?vid=10180fb1-c762-4a63-a7e5-94d669c15db5"},"vehicle_type_id":"4","last_reported":1690581961,"current_range_meters":0,"station_id":"ce4bgl92rcd13ifvqbq0","pricing_plan_id":"free"},{"bike_id":"e8460bd5-918b-4851-b614-145c0687b07a","system_id":"levelo_inurba_marseille","lat":43.30908,"lon":5.36856,"is_reserved":false,"is_disabled":false,"rental_uris":{"android":"levelo://app?vid=e8460bd5-918b-4851-b614-145c0687b07a","ios":"levelo://app?vid=e8460bd5-918b-4851-b614-145c0687b07a"},"vehicle_type_id":"4","last_reported":1690581961,"current_range_meters":30000,"station_id":"","pricing_plan_id":"free"},{"bike_id":"058d4f4d-d1a4-4d4f-87ff-9ff523144497","system_id":"levelo_inurba_marseille","lat":43.314811,"lon":5.373103,"is_reserved":false,"is_disabled":false,"rental_uris":{"android":"levelo://app?vid=058d4f4d-d1a4-4d4f-87ff-9ff523144497","ios":"levelo://app?vid=058d4f4d-d1a4-4d4f-87ff-9ff523144497"},"vehicle_type_id":"4","last_reported":1690581961,"current_range_meters":31200,"station_id":"ce4bgt12rcd13ifvqcd0","pricing_plan_id":"free"},{"bike_id":"f688cb07-6a23-4877-8004-8ed1ccb71172","system_id":"levelo_inurba_marseille","lat":43.314811,"lon":5.373103,"is_reserved":false,"is_disabled":false,"rental_uris":{"android":"levelo://app?vid=f688cb07-6a23-4877-8004-8ed1ccb71172","ios":"levelo://app?vid=f688cb07-6a23-4877-8004-8ed1ccb71172"},"vehicle_type_id":"4","last_reported":1690581961,"current_range_meters":31200,"station_id":"ce4bgt12rcd13ifvqcd0","pricing_plan_id":"free"},{"bike_id":"d8047979-31b8-4eeb-b994-2d9b59185500","system_id":"levelo_inurba_marseille","lat":43.314811,"lon":5.373103,"is_reserved":false,"is_disabled":false,"rental_uris":{"android":"levelo://app?vid=d8047979-31b8-4eeb-b994-2d9b59185500","ios":"levelo://app?vid=d8047979-31b8-4eeb-b994-2d9b59185500"},"vehicle_type_id":"4","last_reported":1690581961,"current_range_meters":24800,"station_id":"ce4bgt12rcd13ifvqcd0","pricing_plan_id":"free"},{"bike_id":"34f0b280-9d59-4713-b53b-97b19d5177e2","system_id":"levelo_inurba_marseille","lat":43.314811,"lon":5.373104,"is_reserved":false,"is_disabled":false,"rental_uris":{"android":"levelo://app?vid=34f0b280-9d59-4713-b53b-97b19d5177e2","ios":"levelo://app?vid=34f0b280-9d59-4713-b53b-97b19d5177e2"},"vehicle_type_id":"4","last_reported":1690581961,"current_range_meters":27600,"station_id":"ce4bgt12rcd13ifvqcd0","pricing_plan_id":"free"},{"bike_id":"a87027c4-9fe3-40c1-8d0f-858cc05332d3","system_id":"levelo_inurba_marseille","lat":43.309039,"lon":5.371797,"is_reserved":false,"is_disabled":false,"rental_uris":{"android":"levelo://app?vid=a87027c4-9fe3-40c1-8d0f-858cc05332d3","ios":"levelo://app?vid=a87027c4-9fe3-40c1-8d0f-858cc05332d3"},"vehicle_type_id":"4","last_reported":1690581961,"current_range_meters":10400,"station_id":"ce4bguh2rcd13ifvqckg","pricing_plan_id":"free"},{"bike_id":"bc2010ec-45c6-4187-98b1-40d13ff0a135","system_id":"levelo_inurba_marseille","lat":43.309039,"lon":5.371797,"is_reserved":false,"is_disabled":false,"rental_uris":{"android":"levelo://app?vid=bc2010ec-45c6-4187-98b1-40d13ff0a135","ios":"levelo://app?vid=bc2010ec-45c6-4187-98b1-40d13ff0a135"},"vehicle_type_id":"4","last_reported":1690581961,"current_range_meters":19600,"station_id":"ce4bguh2rcd13ifvqckg","pricing_plan_id":"free"},{"bike_id":"3c167ec6-e064-4507-8d3a-13faaad1d25c","system_id":"levelo_inurba_marseille","lat":43.309039,"lon":5.371797,"is_reserved":false,"is_disabled":false,"rental_uris":{"android":"levelo://app?vid=3c167ec6-e064-4507-8d3a-13faaad1d25c","ios":"levelo://app?vid=3c167ec6-e064-4507-8d3a-13faaad1d25c"},"vehicle_type_id":"4","last_reported":1690581961,"current_range_meters":31200,"station_id":"ce4bguh2rcd13ifvqckg","pricing_plan_id":"free"},{"bike_id":"d121c8ab-4e82-4227-9866-95c8cd47a186","system_id":"levelo_inurba_marseille","lat":43.309039,"lon":5.371797,"is_reserved":false,"is_disabled":false,"rental_uris":{"android":"levelo://app?vid=d121c8ab-4e82-4227-9866-95c8cd47a186","ios":"levelo://app?vid=d121c8ab-4e82-4227-9866-95c8cd47a186"},"vehicle_type_id":"4","last_reported":1690581961,"current_range_meters":26800,"station_id":"ce4bguh2rcd13ifvqckg","pricing_plan_id":"free"},{"bike_id":"b76d2811-55d9-47a0-8034-1e5f394d05bd","system_id":"levelo_inurba_marseille","lat":43.309039,"lon":5.371797,"is_reserved":false,"is_disabled":false,"rental_uris":{"android":"levelo://app?vid=b76d2811-55d9-47a0-8034-1e5f394d05bd","ios":"levelo://app?vid=b76d2811-55d9-47a0-8034-1e5f394d05bd"},"vehicle_type_id":"4","last_reported":1690581961,"current_range_meters":30400,"station_id":"ce4bguh2rcd13ifvqckg","pricing_plan_id":"free"},{"bike_id":"bc3e45b7-660c-49d3-aa2d-b1c0c01bdced","system_id":"levelo_inurba_marseille","lat":43.30535,"lon":5.36715,"is_reserved":false,"is_disabled":false,"rental_uris":{"android":"levelo://app?vid=bc3e45b7-660c-49d3-aa2d-b1c0c01bdced","ios":"levelo://app?vid=bc3e45b7-660c-49d3-aa2d-b1c0c01bdced"},"vehicle_type_id":"4","last_reported":1690581961,"current_range_meters":4400,"station_id":"ce4bgrp2rcd13ifvqc9g","pricing_plan_id":"free"},{"bike_id":"f78d2fdc-a057-487c-8799-8e4fca4dbda1","system_id":"levelo_inurba_marseille","lat":43.305989,"lon":5.37225,"is_reserved":false,"is_disabled":false,"rental_uris":{"android":"levelo://app?vid=f78d2fdc-a057-487c-8799-8e4fca4dbda1","ios":"levelo://app?vid=f78d2fdc-a057-487c-8799-8e4fca4dbda1"},"vehicle_type_id":"4","last_reported":1690581961,"current_range_meters":18800,"station_id":"ce4bgqh2rcd13ifvqc4g","pricing_plan_id":"free"},{"bike_id":"e99631de-3de9-46a6-8056-34408558bb94","system_id":"levelo_inurba_marseille","lat":43.30599,"lon":5.37213,"is_reserved":false,"is_disabled":false,"rental_uris":{"android":"levelo://app?vid=e99631de-3de9-46a6-8056-34408558bb94","ios":"levelo://app?vid=e99631de-3de9-46a6-8056-34408558bb94"},"vehicle_type_id":"4","last_reported":1690581961,"current_range_meters":27200,"station_id":"ce4bgqh2rcd13ifvqc4g","pricing_plan_id":"free"},{"bike_id":"0ac792e2-11b8-4d02-b573-aa32ea8dfceb","system_id":"levelo_inurba_marseille","lat":43.305989,"lon":5.37225,"is_reserved":false,"is_disabled":false,"rental_uris":{"android":"levelo://app?vid=0ac792e2-11b8-4d02-b573-aa32ea8dfceb","ios":"levelo://app?vid=0ac792e2-11b8-4d02-b573-aa32ea8dfceb"},"vehicle_type_id":"4","last_reported":1690581961,"current_range_meters":27200,"station_id":"ce4bgqh2rcd13ifvqc4g","pricing_plan_id":"free"},{"bike_id":"23347e8a-8ee9-4b2b-b045-2f47100129ff","system_id":"levelo_inurba_marseille","lat":43.305989,"lon":5.37225,"is_reserved":false,"is_disabled":false,"rental_uris":{"android":"levelo://app?vid=23347e8a-8ee9-4b2b-b045-2f47100129ff","ios":"levelo://app?vid=23347e8a-8ee9-4b2b-b045-2f47100129ff"},"vehicle_type_id":"4","last_reported":1690581961,"current_range_meters":4800,"station_id":"ce4bgqh2rcd13ifvqc4g","pricing_plan_id":"free"},{"bike_id":"97825c2e-40ae-4d84-8b40-2564ba8f7420","system_id":"levelo_inurba_marseille","lat":43.305989,"lon":5.37225,"is_reserved":false,"is_disabled":false,"rental_uris":{"android":"levelo://app?vid=97825c2e-40ae-4d84-8b40-2564ba8f7420","ios":"levelo://app?vid=97825c2e-40ae-4d84-8b40-2564ba8f7420"},"vehicle_type_id":"4","last_reported":1690581961,"current_range_meters":12000,"station_id":"ce4bgqh2rcd13ifvqc4g","pricing_plan_id":"free"},{"bike_id":"18114cc1-9f5d-42fe-b4db-0bf6a3054889","system_id":"levelo_inurba_marseille","lat":43.305989,"lon":5.37225,"is_reserved":false,"is_disabled":false,"rental_uris":{"android":"levelo://app?vid=18114cc1-9f5d-42fe-b4db-0bf6a3054889","ios":"levelo://app?vid=18114cc1-9f5d-42fe-b4db-0bf6a3054889"},"vehicle_type_id":"4","last_reported":1690581961,"current_range_meters":21600,"station_id":"ce4bgqh2rcd13ifvqc4g","pricing_plan_id":"free"},{"bike_id":"86d9593b-9cf9-484d-9876-6517d76597b4","system_id":"levelo_inurba_marseille","lat":43.305989,"lon":5.37225,"is_reserved":false,"is_disabled":false,"rental_uris":{"android":"levelo://app?vid=86d9593b-9cf9-484d-9876-6517d76597b4","ios":"levelo://app?vid=86d9593b-9cf9-484d-9876-6517d76597b4"},"vehicle_type_id":"4","last_reported":1690581961,"current_range_meters":28800,"station_id":"ce4bgqh2rcd13ifvqc4g","pricing_plan_id":"free"},{"bike_id":"52d4cc8e-c75e-44fb-ade6-d25f92bc85c7","system_id":"levelo_inurba_marseille","lat":43.305989,"lon":5.37225,"is_reserved":false,"is_disabled":false,"rental_uris":{"android":"levelo://app?vid=52d4cc8e-c75e-44fb-ade6-d25f92bc85c7","ios":"levelo://app?vid=52d4cc8e-c75e-44fb-ade6-d25f92bc85c7"},"vehicle_type_id":"4","last_reported":1690581961,"current_range_meters":4800,"station_id":"ce4bgqh2rcd13ifvqc4g","pricing_plan_id":"free"},{"bike_id":"17b370d5-5270-4c39-b8db-e04a712c87ba","system_id":"levelo_inurba_marseille","lat":43.305989,"lon":5.37225,"is_reserved":false,"is_disabled":false,"rental_uris":{"android":"levelo://app?vid=17b370d5-5270-4c39-b8db-e04a712c87ba","ios":"levelo://app?vid=17b370d5-5270-4c39-b8db-e04a712c87ba"},"vehicle_type_id":"4","last_reported":1690581961,"current_range_meters":17600,"station_id":"ce4bgqh2rcd13ifvqc4g","pricing_plan_id":"free"},{"bike_id":"2d327274-7931-473a-b91e-15aa9e84ca0e","system_id":"levelo_inurba_marseille","lat":43.305989,"lon":5.37225,"is_reserved":false,"is_disabled":false,"rental_uris":{"android":"levelo://app?vid=2d327274-7931-473a-b91e-15aa9e84ca0e","ios":"levelo://app?vid=2d327274-7931-473a-b91e-15aa9e84ca0e"},"vehicle_type_id":"4","last_reported":1690581961,"current_range_meters":22400,"station_id":"ce4bgqh2rcd13ifvqc4g","pricing_plan_id":"free"},{"bike_id":"9ad11ebc-9eb7-423a-a354-31f37a5099b7","system_id":"levelo_inurba_marseille","lat":43.305989,"lon":5.37225,"is_reserved":false,"is_disabled":false,"rental_uris":{"android":"levelo://app?vid=9ad11ebc-9eb7-423a-a354-31f37a5099b7","ios":"levelo://app?vid=9ad11ebc-9eb7-423a-a354-31f37a5099b7"},"vehicle_type_id":"4","last_reported":1690581961,"current_range_meters":2000,"station_id":"ce4bgqh2rcd13ifvqc4g","pricing_plan_id":"free"},{"bike_id":"f20ea888-8740-440b-bfeb-8eb2a7c1f652","system_id":"levelo_inurba_marseille","lat":43.305989,"lon":5.37225,"is_reserved":false,"is_disabled":false,"rental_uris":{"android":"levelo://app?vid=f20ea888-8740-440b-bfeb-8eb2a7c1f652","ios":"levelo://app?vid=f20ea888-8740-440b-bfeb-8eb2a7c1f652"},"vehicle_type_id":"4","last_reported":1690581961,"current_range_meters":31200,"station_id":"ce4bgqh2rcd13ifvqc4g","pricing_plan_id":"free"},{"bike_id":"cc2c118d-a149-495d-a311-7cda834006cb","system_id":"levelo_inurba_marseille","lat":43.31123,"lon":5.37763,"is_reserved":false,"is_disabled":false,"rental_uris":{"android":"levelo://app?vid=cc2c118d-a149-495d-a311-7cda834006cb","ios":"levelo://app?vid=cc2c118d-a149-495d-a311-7cda834006cb"},"vehicle_type_id":"4","last_reported":1690581961,"current_range_meters":17600,"station_id":"ce4bgt92rcd13ifvqcg0","pricing_plan_id":"free"},{"bike_id":"aa235ac8-1eaa-4c01-b904-dbe910890da7","system_id":"levelo_inurba_marseille","lat":43.31113,"lon":5.37776,"is_reserved":false,"is_disabled":false,"rental_uris":{"android":"levelo://app?vid=aa235ac8-1eaa-4c01-b904-dbe910890da7","ios":"levelo://app?vid=aa235ac8-1eaa-4c01-b904-dbe910890da7"},"vehicle_type_id":"4","last_reported":1690581961,"current_range_meters":12000,"station_id":"ce4bgt92rcd13ifvqcg0","pricing_plan_id":"free"},{"bike_id":"3b92ebd6-33e4-4e0b-b7c4-ac34570b8bc7","system_id":"levelo_inurba_marseille","lat":43.31126,"lon":5.37781,"is_reserved":false,"is_disabled":false,"rental_uris":{"android":"levelo://app?vid=3b92ebd6-33e4-4e0b-b7c4-ac34570b8bc7","ios":"levelo://app?vid=3b92ebd6-33e4-4e0b-b7c4-ac34570b8bc7"},"vehicle_type_id":"4","last_reported":1690581961,"current_range_meters":23600,"station_id":"ce4bgt92rcd13ifvqcg0","pricing_plan_id":"free"},{"bike_id":"a1cbc942-cea1-4a40-98e1-e0405c9daa03","system_id":"levelo_inurba_marseille","lat":43.31111,"lon":5.37779,"is_reserved":false,"is_disabled":false,"rental_uris":{"android":"levelo://app?vid=a1cbc942-cea1-4a40-98e1-e0405c9daa03","ios":"levelo://app?vid=a1cbc942-cea1-4a40-98e1-e0405c9daa03"},"vehicle_type_id":"4","last_reported":1690581961,"current_range_meters":3200,"station_id":"ce4bgt92rcd13ifvqcg0","pricing_plan_id":"free"},{"bike_id":"e9a460ac-b69f-4e68-9c04-27edecd69e70","system_id":"levelo_inurba_marseille","lat":43.31118,"lon":5.37783,"is_reserved":false,"is_disabled":false,"rental_uris":{"android":"levelo://app?vid=e9a460ac-b69f-4e68-9c04-27edecd69e70","ios":"levelo://app?vid=e9a460ac-b69f-4e68-9c04-27edecd69e70"},"vehicle_type_id":"4","last_reported":1690581961,"current_range_meters":6400,"station_id":"ce4bgt92rcd13ifvqcg0","pricing_plan_id":"free"},{"bike_id":"87083b94-c479-4667-9f04-35e5e2bb04fd","system_id":"levelo_inurba_marseille","lat":43.31117,"lon":5.37786,"is_reserved":false,"is_disabled":false,"rental_uris":{"android":"levelo://app?vid=87083b94-c479-4667-9f04-35e5e2bb04fd","ios":"levelo://app?vid=87083b94-c479-4667-9f04-35e5e2bb04fd"},"vehicle_type_id":"4","last_reported":1690581961,"current_range_meters":21600,"station_id":"ce4bgt92rcd13ifvqcg0","pricing_plan_id":"free"},{"bike_id":"ae6f593c-9299-4159-86e2-8e45cc3bebb6","system_id":"levelo_inurba_marseille","lat":43.31106,"lon":5.37784,"is_reserved":false,"is_disabled":false,"rental_uris":{"android":"levelo://app?vid=ae6f593c-9299-4159-86e2-8e45cc3bebb6","ios":"levelo://app?vid=ae6f593c-9299-4159-86e2-8e45cc3bebb6"},"vehicle_type_id":"4","last_reported":1690581961,"current_range_meters":11200,"station_id":"ce4bgt92rcd13ifvqcg0","pricing_plan_id":"free"},{"bike_id":"458b2ec1-fad9-4a6f-b416-30eee12b0144","system_id":"levelo_inurba_marseille","lat":43.307945,"lon":5.376487,"is_reserved":false,"is_disabled":false,"rental_uris":{"android":"levelo://app?vid=458b2ec1-fad9-4a6f-b416-30eee12b0144","ios":"levelo://app?vid=458b2ec1-fad9-4a6f-b416-30eee12b0144"},"vehicle_type_id":"4","last_reported":1690581961,"current_range_meters":7200,"station_id":"ce4bgv92rcd13ifvqcq0","pricing_plan_id":"free"},{"bike_id":"9e3bea98-3b50-4f47-9aeb-ee1278570c36","system_id":"levelo_inurba_marseille","lat":43.307945,"lon":5.376487,"is_reserved":false,"is_disabled":false,"rental_uris":{"android":"levelo://app?vid=9e3bea98-3b50-4f47-9aeb-ee1278570c36","ios":"levelo://app?vid=9e3bea98-3b50-4f47-9aeb-ee1278570c36"},"vehicle_type_id":"4","last_reported":1690581961,"current_range_meters":16800,"station_id":"ce4bgv92rcd13ifvqcq0","pricing_plan_id":"free"},{"bike_id":"5c45e62f-62eb-4234-8574-16146a3d4e9c","system_id":"levelo_inurba_marseille","lat":43.32125,"lon":5.36437,"is_reserved":false,"is_disabled":false,"rental_uris":{"android":"levelo://app?vid=5c45e62f-62eb-4234-8574-16146a3d4e9c","ios":"levelo://app?vid=5c45e62f-62eb-4234-8574-16146a3d4e9c"},"vehicle_type_id":"4","last_reported":1690581961,"current_range_meters":16400,"station_id":"","pricing_plan_id":"free"},{"bike_id":"50ec68e0-5287-47ee-b964-6511c560b05a","system_id":"levelo_inurba_marseille","lat":43.303046,"lon":5.368981,"is_reserved":false,"is_disabled":false,"rental_uris":{"android":"levelo://app?vid=50ec68e0-5287-47ee-b964-6511c560b05a","ios":"levelo://app?vid=50ec68e0-5287-47ee-b964-6511c560b05a"},"vehicle_type_id":"4","last_reported":1690581961,"current_range_meters":23600,"station_id":"ce4bgqh2rcd13ifvqc5g","pricing_plan_id":"free"},{"bike_id":"77dd4a87-7826-45f5-8732-71b30f3a9833","system_id":"levelo_inurba_marseille","lat":43.303046,"lon":5.368981,"is_reserved":false,"is_disabled":false,"rental_uris":{"android":"levelo://app?vid=77dd4a87-7826-45f5-8732-71b30f3a9833","ios":"levelo://app?vid=77dd4a87-7826-45f5-8732-71b30f3a9833"},"vehicle_type_id":"4","last_reported":1690581961,"current_range_meters":5200,"station_id":"ce4bgqh2rcd13ifvqc5g","pricing_plan_id":"free"},{"bike_id":"c564b821-fb7f-4fe9-9796-703c2b824191","system_id":"levelo_inurba_marseille","lat":43.317075,"lon":5.377367,"is_reserved":false,"is_disabled":false,"rental_uris":{"android":"levelo://app?vid=c564b821-fb7f-4fe9-9796-703c2b824191","ios":"levelo://app?vid=c564b821-fb7f-4fe9-9796-703c2b824191"},"vehicle_type_id":"4","last_reported":1690581961,"current_range_meters":28800,"station_id":"ce4bgth2rcd13ifvqch0","pricing_plan_id":"free"},{"bike_id":"7f7dfe38-a95c-4673-b637-3a337ceb097c","system_id":"levelo_inurba_marseille","lat":43.31535,"lon":5.38031,"is_reserved":false,"is_disabled":false,"rental_uris":{"android":"levelo://app?vid=7f7dfe38-a95c-4673-b637-3a337ceb097c","ios":"levelo://app?vid=7f7dfe38-a95c-4673-b637-3a337ceb097c"},"vehicle_type_id":"4","last_reported":1690581961,"current_range_meters":11200,"station_id":"ce4bhsp2rcd13ifvqi50","pricing_plan_id":"free"},{"bike_id":"66bdd2e0-3a60-44c0-9ad9-5771c55e61a6","system_id":"levelo_inurba_marseille","lat":43.31523,"lon":5.38037,"is_reserved":false,"is_disabled":false,"rental_uris":{"android":"levelo://app?vid=66bdd2e0-3a60-44c0-9ad9-5771c55e61a6","ios":"levelo://app?vid=66bdd2e0-3a60-44c0-9ad9-5771c55e61a6"},"vehicle_type_id":"4","last_reported":1690581961,"current_range_meters":24000,"station_id":"ce4bhsp2rcd13ifvqi50","pricing_plan_id":"free"},{"bike_id":"f8af991c-f618-49c1-8033-4d4be0498946","system_id":"levelo_inurba_marseille","lat":43.301939,"lon":5.366286,"is_reserved":false,"is_disabled":false,"rental_uris":{"android":"levelo://app?vid=f8af991c-f618-49c1-8033-4d4be0498946","ios":"levelo://app?vid=f8af991c-f618-49c1-8033-4d4be0498946"},"vehicle_type_id":"4","last_reported":1690581961,"current_range_meters":27200,"station_id":"ce4bgrh2rcd13ifvqc8g","pricing_plan_id":"free"},{"bike_id":"8fb79697-0334-492d-8c6f-b9af046976a8","system_id":"levelo_inurba_marseille","lat":43.30188,"lon":5.36608,"is_reserved":false,"is_disabled":false,"rental_uris":{"android":"levelo://app?vid=8fb79697-0334-492d-8c6f-b9af046976a8","ios":"levelo://app?vid=8fb79697-0334-492d-8c6f-b9af046976a8"},"vehicle_type_id":"4","last_reported":1690581961,"current_range_meters":6000,"station_id":"ce4bgrh2rcd13ifvqc8g","pricing_plan_id":"free"},{"bike_id":"4e46353f-552a-496a-9778-138a5f5eb090","system_id":"levelo_inurba_marseille","lat":43.301939,"lon":5.366286,"is_reserved":false,"is_disabled":false,"rental_uris":{"android":"levelo://app?vid=4e46353f-552a-496a-9778-138a5f5eb090","ios":"levelo://app?vid=4e46353f-552a-496a-9778-138a5f5eb090"},"vehicle_type_id":"4","last_reported":1690581961,"current_range_meters":22800,"station_id":"ce4bgrh2rcd13ifvqc8g","pricing_plan_id":"free"},{"bike_id":"96900a8e-07ba-4036-8d6d-a763fa77170c","system_id":"levelo_inurba_marseille","lat":43.301939,"lon":5.366286,"is_reserved":false,"is_disabled":false,"rental_uris":{"android":"levelo://app?vid=96900a8e-07ba-4036-8d6d-a763fa77170c","ios":"levelo://app?vid=96900a8e-07ba-4036-8d6d-a763fa77170c"},"vehicle_type_id":"4","last_reported":1690581961,"current_range_meters":18800,"station_id":"ce4bgrh2rcd13ifvqc8g","pricing_plan_id":"free"},{"bike_id":"2f7a0511-9e0d-4c2a-bc05-3d57fd667093","system_id":"levelo_inurba_marseille","lat":43.301939,"lon":5.366286,"is_reserved":false,"is_disabled":false,"rental_uris":{"android":"levelo://app?vid=2f7a0511-9e0d-4c2a-bc05-3d57fd667093","ios":"levelo://app?vid=2f7a0511-9e0d-4c2a-bc05-3d57fd667093"},"vehicle_type_id":"4","last_reported":1690581961,"current_range_meters":23200,"station_id":"ce4bgrh2rcd13ifvqc8g","pricing_plan_id":"free"},{"bike_id":"80ec657a-543e-41ed-8a6f-29b66925281d","system_id":"levelo_inurba_marseille","lat":43.30169,"lon":5.36404,"is_reserved":false,"is_disabled":false,"rental_uris":{"android":"levelo://app?vid=80ec657a-543e-41ed-8a6f-29b66925281d","ios":"levelo://app?vid=80ec657a-543e-41ed-8a6f-29b66925281d"},"vehicle_type_id":"4","last_reported":1690581961,"current_range_meters":6800,"station_id":"","pricing_plan_id":"free"},{"bike_id":"082f2932-fb82-4038-8b6b-ee12da00333d","system_id":"levelo_inurba_marseille","lat":43.30818,"lon":5.3815,"is_reserved":false,"is_disabled":false,"rental_uris":{"android":"levelo://app?vid=082f2932-fb82-4038-8b6b-ee12da00333d","ios":"levelo://app?vid=082f2932-fb82-4038-8b6b-ee12da00333d"},"vehicle_type_id":"4","last_reported":1690581961,"current_range_meters":8800,"station_id":"ce4bgt12rcd13ifvqce0","pricing_plan_id":"free"},{"bike_id":"c9ec9232-aede-42ac-9b95-a46b2f8a54af","system_id":"levelo_inurba_marseille","lat":43.304606,"lon":5.379026,"is_reserved":false,"is_disabled":false,"rental_uris":{"android":"levelo://app?vid=c9ec9232-aede-42ac-9b95-a46b2f8a54af","ios":"levelo://app?vid=c9ec9232-aede-42ac-9b95-a46b2f8a54af"},"vehicle_type_id":"4","last_reported":1690581961,"current_range_meters":6800,"station_id":"ce4bgup2rcd13ifvqcn0","pricing_plan_id":"free"},{"bike_id":"1d791a9d-7eca-4190-8687-d1f7f03f6c18","system_id":"levelo_inurba_marseille","lat":43.304606,"lon":5.379026,"is_reserved":false,"is_disabled":false,"rental_uris":{"android":"levelo://app?vid=1d791a9d-7eca-4190-8687-d1f7f03f6c18","ios":"levelo://app?vid=1d791a9d-7eca-4190-8687-d1f7f03f6c18"},"vehicle_type_id":"4","last_reported":1690581961,"current_range_meters":25600,"station_id":"ce4bgup2rcd13ifvqcn0","pricing_plan_id":"free"},{"bike_id":"4ac4a68d-8f19-46b8-b414-3cb144f24ea1","system_id":"levelo_inurba_marseille","lat":43.302784,"lon":5.377158,"is_reserved":false,"is_disabled":false,"rental_uris":{"android":"levelo://app?vid=4ac4a68d-8f19-46b8-b414-3cb144f24ea1","ios":"levelo://app?vid=4ac4a68d-8f19-46b8-b414-3cb144f24ea1"},"vehicle_type_id":"4","last_reported":1690581961,"current_range_meters":4000,"station_id":"ce4bguh2rcd13ifvqcj0","pricing_plan_id":"free"},{"bike_id":"79cafeb9-3c6d-4b6a-88a8-23eee1aa4e0b","system_id":"levelo_inurba_marseille","lat":43.31999,"lon":5.38149,"is_reserved":false,"is_disabled":false,"rental_uris":{"android":"levelo://app?vid=79cafeb9-3c6d-4b6a-88a8-23eee1aa4e0b","ios":"levelo://app?vid=79cafeb9-3c6d-4b6a-88a8-23eee1aa4e0b"},"vehicle_type_id":"4","last_reported":1690581961,"current_range_meters":4000,"station_id":"ce4bhr12rcd13ifvqhpg","pricing_plan_id":"free"},{"bike_id":"fae40d23-e04d-4593-b69e-7f0abc2824dc","system_id":"levelo_inurba_marseille","lat":43.32003,"lon":5.38157,"is_reserved":false,"is_disabled":false,"rental_uris":{"android":"levelo://app?vid=fae40d23-e04d-4593-b69e-7f0abc2824dc","ios":"levelo://app?vid=fae40d23-e04d-4593-b69e-7f0abc2824dc"},"vehicle_type_id":"4","last_reported":1690581961,"current_range_meters":11200,"station_id":"ce4bhr12rcd13ifvqhpg","pricing_plan_id":"free"},{"bike_id":"4c150211-bb3f-4040-8716-b70cc96bfa06","system_id":"levelo_inurba_marseille","lat":43.313571,"lon":5.384829,"is_reserved":false,"is_disabled":false,"rental_uris":{"android":"levelo://app?vid=4c150211-bb3f-4040-8716-b70cc96bfa06","ios":"levelo://app?vid=4c150211-bb3f-4040-8716-b70cc96bfa06"},"vehicle_type_id":"4","last_reported":1690581961,"current_range_meters":16800,"station_id":"ce4bgt92rcd13ifvqcf0","pricing_plan_id":"free"},{"bike_id":"3279ab13-443a-4cfc-972d-887a0e78a46c","system_id":"levelo_inurba_marseille","lat":43.313571,"lon":5.384829,"is_reserved":false,"is_disabled":false,"rental_uris":{"android":"levelo://app?vid=3279ab13-443a-4cfc-972d-887a0e78a46c","ios":"levelo://app?vid=3279ab13-443a-4cfc-972d-887a0e78a46c"},"vehicle_type_id":"4","last_reported":1690581961,"current_range_meters":800,"station_id":"ce4bgt92rcd13ifvqcf0","pricing_plan_id":"free"},{"bike_id":"3a47b20a-0e97-4bee-8549-afecac75762a","system_id":"levelo_inurba_marseille","lat":43.313571,"lon":5.384829,"is_reserved":false,"is_disabled":false,"rental_uris":{"android":"levelo://app?vid=3a47b20a-0e97-4bee-8549-afecac75762a","ios":"levelo://app?vid=3a47b20a-0e97-4bee-8549-afecac75762a"},"vehicle_type_id":"4","last_reported":1690581961,"current_range_meters":5600,"station_id":"ce4bgt92rcd13ifvqcf0","pricing_plan_id":"free"},{"bike_id":"c7021a71-21cb-4a05-bb20-ea92885b545d","system_id":"levelo_inurba_marseille","lat":43.313571,"lon":5.384829,"is_reserved":false,"is_disabled":false,"rental_uris":{"android":"levelo://app?vid=c7021a71-21cb-4a05-bb20-ea92885b545d","ios":"levelo://app?vid=c7021a71-21cb-4a05-bb20-ea92885b545d"},"vehicle_type_id":"4","last_reported":1690581961,"current_range_meters":23600,"station_id":"ce4bgt92rcd13ifvqcf0","pricing_plan_id":"free"},{"bike_id":"2b49b024-1caa-4be8-9888-55153f91a3e6","system_id":"levelo_inurba_marseille","lat":43.313571,"lon":5.384829,"is_reserved":false,"is_disabled":false,"rental_uris":{"android":"levelo://app?vid=2b49b024-1caa-4be8-9888-55153f91a3e6","ios":"levelo://app?vid=2b49b024-1caa-4be8-9888-55153f91a3e6"},"vehicle_type_id":"4","last_reported":1690581961,"current_range_meters":21200,"station_id":"ce4bgt92rcd13ifvqcf0","pricing_plan_id":"free"},{"bike_id":"2ae9404f-a42f-4fbd-9cc9-36710bde2274","system_id":"levelo_inurba_marseille","lat":43.313571,"lon":5.384829,"is_reserved":false,"is_disabled":false,"rental_uris":{"android":"levelo://app?vid=2ae9404f-a42f-4fbd-9cc9-36710bde2274","ios":"levelo://app?vid=2ae9404f-a42f-4fbd-9cc9-36710bde2274"},"vehicle_type_id":"4","last_reported":1690581961,"current_range_meters":28400,"station_id":"ce4bgt92rcd13ifvqcf0","pricing_plan_id":"free"},{"bike_id":"2066bedc-9987-4b30-b113-584a507617fc","system_id":"levelo_inurba_marseille","lat":43.313571,"lon":5.384829,"is_reserved":false,"is_disabled":false,"rental_uris":{"android":"levelo://app?vid=2066bedc-9987-4b30-b113-584a507617fc","ios":"levelo://app?vid=2066bedc-9987-4b30-b113-584a507617fc"},"vehicle_type_id":"4","last_reported":1690581961,"current_range_meters":2400,"station_id":"ce4bgt92rcd13ifvqcf0","pricing_plan_id":"free"},{"bike_id":"91d454bb-a47f-41e8-a575-b01628cbd398","system_id":"levelo_inurba_marseille","lat":43.31364,"lon":5.38498,"is_reserved":false,"is_disabled":false,"rental_uris":{"android":"levelo://app?vid=91d454bb-a47f-41e8-a575-b01628cbd398","ios":"levelo://app?vid=91d454bb-a47f-41e8-a575-b01628cbd398"},"vehicle_type_id":"4","last_reported":1690581961,"current_range_meters":10000,"station_id":"ce4bgt92rcd13ifvqcf0","pricing_plan_id":"free"},{"bike_id":"b5c53b26-a07d-45e9-902d-4bd9e741c57f","system_id":"levelo_inurba_marseille","lat":43.313571,"lon":5.384829,"is_reserved":false,"is_disabled":false,"rental_uris":{"android":"levelo://app?vid=b5c53b26-a07d-45e9-902d-4bd9e741c57f","ios":"levelo://app?vid=b5c53b26-a07d-45e9-902d-4bd9e741c57f"},"vehicle_type_id":"4","last_reported":1690581961,"current_range_meters":11200,"station_id":"ce4bgt92rcd13ifvqcf0","pricing_plan_id":"free"},{"bike_id":"27e61dca-a5f7-4312-8c21-b2753779d1e8","system_id":"levelo_inurba_marseille","lat":43.313571,"lon":5.384829,"is_reserved":false,"is_disabled":false,"rental_uris":{"android":"levelo://app?vid=27e61dca-a5f7-4312-8c21-b2753779d1e8","ios":"levelo://app?vid=27e61dca-a5f7-4312-8c21-b2753779d1e8"},"vehicle_type_id":"4","last_reported":1690581961,"current_range_meters":9200,"station_id":"ce4bgt92rcd13ifvqcf0","pricing_plan_id":"free"},{"bike_id":"27a17404-a5dc-41a7-924c-1bf974e79103","system_id":"levelo_inurba_marseille","lat":43.313571,"lon":5.384829,"is_reserved":false,"is_disabled":false,"rental_uris":{"android":"levelo://app?vid=27a17404-a5dc-41a7-924c-1bf974e79103","ios":"levelo://app?vid=27a17404-a5dc-41a7-924c-1bf974e79103"},"vehicle_type_id":"4","last_reported":1690581961,"current_range_meters":16800,"station_id":"ce4bgt92rcd13ifvqcf0","pricing_plan_id":"free"},{"bike_id":"dd65be34-29b9-49fe-8710-abce66d61ed1","system_id":"levelo_inurba_marseille","lat":43.313571,"lon":5.384829,"is_reserved":false,"is_disabled":false,"rental_uris":{"android":"levelo://app?vid=dd65be34-29b9-49fe-8710-abce66d61ed1","ios":"levelo://app?vid=dd65be34-29b9-49fe-8710-abce66d61ed1"},"vehicle_type_id":"4","last_reported":1690581961,"current_range_meters":31200,"station_id":"ce4bgt92rcd13ifvqcf0","pricing_plan_id":"free"},{"bike_id":"87367a22-8fb8-4a91-88f3-d883c04b6814","system_id":"levelo_inurba_marseille","lat":43.313571,"lon":5.384829,"is_reserved":false,"is_disabled":false,"rental_uris":{"android":"levelo://app?vid=87367a22-8fb8-4a91-88f3-d883c04b6814","ios":"levelo://app?vid=87367a22-8fb8-4a91-88f3-d883c04b6814"},"vehicle_type_id":"4","last_reported":1690581961,"current_range_meters":14000,"station_id":"ce4bgt92rcd13ifvqcf0","pricing_plan_id":"free"},{"bike_id":"99830ec0-fce1-4390-b1de-f494e255257a","system_id":"levelo_inurba_marseille","lat":43.313571,"lon":5.384829,"is_reserved":false,"is_disabled":false,"rental_uris":{"android":"levelo://app?vid=99830ec0-fce1-4390-b1de-f494e255257a","ios":"levelo://app?vid=99830ec0-fce1-4390-b1de-f494e255257a"},"vehicle_type_id":"4","last_reported":1690581961,"current_range_meters":18400,"station_id":"ce4bgt92rcd13ifvqcf0","pricing_plan_id":"free"},{"bike_id":"e689e3ad-615a-4584-9221-d7cd392cfee0","system_id":"levelo_inurba_marseille","lat":43.29972,"lon":5.37181,"is_reserved":false,"is_disabled":false,"rental_uris":{"android":"levelo://app?vid=e689e3ad-615a-4584-9221-d7cd392cfee0","ios":"levelo://app?vid=e689e3ad-615a-4584-9221-d7cd392cfee0"},"vehicle_type_id":"4","last_reported":1690581961,"current_range_meters":24400,"station_id":"ce4bgr92rcd13ifvqc7g","pricing_plan_id":"free"},{"bike_id":"4c79ca2e-7e3c-4993-bd6c-4c794fa37f9c","system_id":"levelo_inurba_marseille","lat":43.299014,"lon":5.365474,"is_reserved":false,"is_disabled":false,"rental_uris":{"android":"levelo://app?vid=4c79ca2e-7e3c-4993-bd6c-4c794fa37f9c","ios":"levelo://app?vid=4c79ca2e-7e3c-4993-bd6c-4c794fa37f9c"},"vehicle_type_id":"4","last_reported":1690581961,"current_range_meters":10000,"station_id":"ce4bgm92rcd13ifvqbr0","pricing_plan_id":"free"},{"bike_id":"f641de18-664e-4128-a652-65e558904542","system_id":"levelo_inurba_marseille","lat":43.30132,"lon":5.37871,"is_reserved":false,"is_disabled":false,"rental_uris":{"android":"levelo://app?vid=f641de18-664e-4128-a652-65e558904542","ios":"levelo://app?vid=f641de18-664e-4128-a652-65e558904542"},"vehicle_type_id":"4","last_reported":1690581961,"current_range_meters":800,"station_id":"","pricing_plan_id":"free"},{"bike_id":"d8568226-d560-434b-abc4-1910078314a7","system_id":"levelo_inurba_marseille","lat":43.30548,"lon":5.38425,"is_reserved":false,"is_disabled":false,"rental_uris":{"android":"levelo://app?vid=d8568226-d560-434b-abc4-1910078314a7","ios":"levelo://app?vid=d8568226-d560-434b-abc4-1910078314a7"},"vehicle_type_id":"4","last_reported":1690581961,"current_range_meters":31200,"station_id":"ce4bgg92rcd13ifvqb30","pricing_plan_id":"free"},{"bike_id":"d2e93ca8-13f7-4400-914e-f43c64b2f850","system_id":"levelo_inurba_marseille","lat":43.30541,"lon":5.38426,"is_reserved":false,"is_disabled":false,"rental_uris":{"android":"levelo://app?vid=d2e93ca8-13f7-4400-914e-f43c64b2f850","ios":"levelo://app?vid=d2e93ca8-13f7-4400-914e-f43c64b2f850"},"vehicle_type_id":"4","last_reported":1690581961,"current_range_meters":14400,"station_id":"ce4bgg92rcd13ifvqb30","pricing_plan_id":"free"},{"bike_id":"8c74ab5e-75f2-44c4-ab67-13e92154f3bb","system_id":"levelo_inurba_marseille","lat":43.30544,"lon":5.38437,"is_reserved":false,"is_disabled":false,"rental_uris":{"android":"levelo://app?vid=8c74ab5e-75f2-44c4-ab67-13e92154f3bb","ios":"levelo://app?vid=8c74ab5e-75f2-44c4-ab67-13e92154f3bb"},"vehicle_type_id":"4","last_reported":1690581961,"current_range_meters":14800,"station_id":"ce4bgg92rcd13ifvqb30","pricing_plan_id":"free"},{"bike_id":"30537d43-af02-4a10-b928-7b9b8cf633d2","system_id":"levelo_inurba_marseille","lat":43.305364,"lon":5.384119,"is_reserved":false,"is_disabled":false,"rental_uris":{"android":"levelo://app?vid=30537d43-af02-4a10-b928-7b9b8cf633d2","ios":"levelo://app?vid=30537d43-af02-4a10-b928-7b9b8cf633d2"},"vehicle_type_id":"4","last_reported":1690581961,"current_range_meters":29200,"station_id":"ce4bgg92rcd13ifvqb30","pricing_plan_id":"free"},{"bike_id":"09368700-c732-442a-b037-fb0c8c23ab7e","system_id":"levelo_inurba_marseille","lat":43.305364,"lon":5.384119,"is_reserved":false,"is_disabled":false,"rental_uris":{"android":"levelo://app?vid=09368700-c732-442a-b037-fb0c8c23ab7e","ios":"levelo://app?vid=09368700-c732-442a-b037-fb0c8c23ab7e"},"vehicle_type_id":"4","last_reported":1690581961,"current_range_meters":8000,"station_id":"ce4bgg92rcd13ifvqb30","pricing_plan_id":"free"},{"bike_id":"b1fd32a0-526c-4c70-b207-de034c0e7755","system_id":"levelo_inurba_marseille","lat":43.299243,"lon":5.374807,"is_reserved":false,"is_disabled":false,"rental_uris":{"android":"levelo://app?vid=b1fd32a0-526c-4c70-b207-de034c0e7755","ios":"levelo://app?vid=b1fd32a0-526c-4c70-b207-de034c0e7755"},"vehicle_type_id":"4","last_reported":1690581961,"current_range_meters":6400,"station_id":"ce4bgjh2rcd13ifvqbg0","pricing_plan_id":"free"},{"bike_id":"67399532-22d3-4389-ab85-503e176021dc","system_id":"levelo_inurba_marseille","lat":43.299243,"lon":5.37481,"is_reserved":false,"is_disabled":false,"rental_uris":{"android":"levelo://app?vid=67399532-22d3-4389-ab85-503e176021dc","ios":"levelo://app?vid=67399532-22d3-4389-ab85-503e176021dc"},"vehicle_type_id":"4","last_reported":1690581961,"current_range_meters":24400,"station_id":"ce4bgjh2rcd13ifvqbg0","pricing_plan_id":"free"},{"bike_id":"a44cb35e-2275-4a85-8d0d-bab72b678133","system_id":"levelo_inurba_marseille","lat":43.31173,"lon":5.38723,"is_reserved":false,"is_disabled":false,"rental_uris":{"android":"levelo://app?vid=a44cb35e-2275-4a85-8d0d-bab72b678133","ios":"levelo://app?vid=a44cb35e-2275-4a85-8d0d-bab72b678133"},"vehicle_type_id":"4","last_reported":1690581961,"current_range_meters":31200,"station_id":"ce4bgv12rcd13ifvqcp0","pricing_plan_id":"free"},{"bike_id":"f443595d-8e0c-4de7-abea-e049928a0f96","system_id":"levelo_inurba_marseille","lat":43.299243,"lon":5.37481,"is_reserved":false,"is_disabled":false,"rental_uris":{"android":"levelo://app?vid=f443595d-8e0c-4de7-abea-e049928a0f96","ios":"levelo://app?vid=f443595d-8e0c-4de7-abea-e049928a0f96"},"vehicle_type_id":"4","last_reported":1690581961,"current_range_meters":16400,"station_id":"ce4bgjh2rcd13ifvqbg0","pricing_plan_id":"free"},{"bike_id":"abc51e87-b709-4850-8344-87257f33f256","system_id":"levelo_inurba_marseille","lat":43.297774,"lon":5.370875,"is_reserved":false,"is_disabled":false,"rental_uris":{"android":"levelo://app?vid=abc51e87-b709-4850-8344-87257f33f256","ios":"levelo://app?vid=abc51e87-b709-4850-8344-87257f33f256"},"vehicle_type_id":"4","last_reported":1690581961,"current_range_meters":17600,"station_id":"ce4bgop2rcd13ifvqc1g","pricing_plan_id":"free"},{"bike_id":"a196dbb0-0ca2-44b0-8b03-b7d3a734d20c","system_id":"levelo_inurba_marseille","lat":43.32287,"lon":5.38261,"is_reserved":false,"is_disabled":false,"rental_uris":{"android":"levelo://app?vid=a196dbb0-0ca2-44b0-8b03-b7d3a734d20c","ios":"levelo://app?vid=a196dbb0-0ca2-44b0-8b03-b7d3a734d20c"},"vehicle_type_id":"4","last_reported":1690581961,"current_range_meters":31200,"station_id":"ce4bhr12rcd13ifvqhqg","pricing_plan_id":"free"},{"bike_id":"3f6aaf47-fa05-4265-b788-a4ab9140aed0","system_id":"levelo_inurba_marseille","lat":43.297774,"lon":5.370875,"is_reserved":false,"is_disabled":false,"rental_uris":{"android":"levelo://app?vid=3f6aaf47-fa05-4265-b788-a4ab9140aed0","ios":"levelo://app?vid=3f6aaf47-fa05-4265-b788-a4ab9140aed0"},"vehicle_type_id":"4","last_reported":1690581961,"current_range_meters":4400,"station_id":"ce4bgop2rcd13ifvqc1g","pricing_plan_id":"free"},{"bike_id":"79bf6da4-5f08-488b-96b1-6e23f74ec5ec","system_id":"levelo_inurba_marseille","lat":43.32289,"lon":5.38271,"is_reserved":false,"is_disabled":false,"rental_uris":{"android":"levelo://app?vid=79bf6da4-5f08-488b-96b1-6e23f74ec5ec","ios":"levelo://app?vid=79bf6da4-5f08-488b-96b1-6e23f74ec5ec"},"vehicle_type_id":"4","last_reported":1690581961,"current_range_meters":18800,"station_id":"ce4bhr12rcd13ifvqhqg","pricing_plan_id":"free"},{"bike_id":"3641a761-0636-4e0b-b047-72e86565129d","system_id":"levelo_inurba_marseille","lat":43.32289,"lon":5.38271,"is_reserved":false,"is_disabled":false,"rental_uris":{"android":"levelo://app?vid=3641a761-0636-4e0b-b047-72e86565129d","ios":"levelo://app?vid=3641a761-0636-4e0b-b047-72e86565129d"},"vehicle_type_id":"4","last_reported":1690581961,"current_range_meters":31200,"station_id":"ce4bhr12rcd13ifvqhqg","pricing_plan_id":"free"},{"bike_id":"fead3f1e-e9e6-4830-9da4-e98cba309113","system_id":"levelo_inurba_marseille","lat":43.322872,"lon":5.382756,"is_reserved":false,"is_disabled":false,"rental_uris":{"android":"levelo://app?vid=fead3f1e-e9e6-4830-9da4-e98cba309113","ios":"levelo://app?vid=fead3f1e-e9e6-4830-9da4-e98cba309113"},"vehicle_type_id":"4","last_reported":1690581961,"current_range_meters":19600,"station_id":"ce4bhr12rcd13ifvqhqg","pricing_plan_id":"free"},{"bike_id":"82f1e03d-e4c3-4aac-b6f0-c9fc3950fe62","system_id":"levelo_inurba_marseille","lat":43.322948,"lon":5.3827,"is_reserved":false,"is_disabled":false,"rental_uris":{"android":"levelo://app?vid=82f1e03d-e4c3-4aac-b6f0-c9fc3950fe62","ios":"levelo://app?vid=82f1e03d-e4c3-4aac-b6f0-c9fc3950fe62"},"vehicle_type_id":"4","last_reported":1690581961,"current_range_meters":27600,"station_id":"","pricing_plan_id":"free"},{"bike_id":"c49e5aca-8c9b-496f-880e-694096a73453","system_id":"levelo_inurba_marseille","lat":43.32756,"lon":5.36131,"is_reserved":false,"is_disabled":false,"rental_uris":{"android":"levelo://app?vid=c49e5aca-8c9b-496f-880e-694096a73453","ios":"levelo://app?vid=c49e5aca-8c9b-496f-880e-694096a73453"},"vehicle_type_id":"4","last_reported":1690581961,"current_range_meters":29200,"station_id":"","pricing_plan_id":"free"},{"bike_id":"52f9e70d-445e-4f08-aa3a-17c624d8ff3d","system_id":"levelo_inurba_marseille","lat":43.32828,"lon":5.36689,"is_reserved":false,"is_disabled":false,"rental_uris":{"android":"levelo://app?vid=52f9e70d-445e-4f08-aa3a-17c624d8ff3d","ios":"levelo://app?vid=52f9e70d-445e-4f08-aa3a-17c624d8ff3d"},"vehicle_type_id":"4","last_reported":1690581961,"current_range_meters":6000,"station_id":"ce4bhs92rcd13ifvqi0g","pricing_plan_id":"free"},{"bike_id":"9d54f4c4-5c8b-4180-88ec-f26573944976","system_id":"levelo_inurba_marseille","lat":43.32831,"lon":5.36694,"is_reserved":false,"is_disabled":false,"rental_uris":{"android":"levelo://app?vid=9d54f4c4-5c8b-4180-88ec-f26573944976","ios":"levelo://app?vid=9d54f4c4-5c8b-4180-88ec-f26573944976"},"vehicle_type_id":"4","last_reported":1690581961,"current_range_meters":1600,"station_id":"ce4bhs92rcd13ifvqi0g","pricing_plan_id":"free"},{"bike_id":"dd789220-e7b5-42c1-b9dc-dc4243148021","system_id":"levelo_inurba_marseille","lat":43.297163,"lon":5.365866,"is_reserved":false,"is_disabled":false,"rental_uris":{"android":"levelo://app?vid=dd789220-e7b5-42c1-b9dc-dc4243148021","ios":"levelo://app?vid=dd789220-e7b5-42c1-b9dc-dc4243148021"},"vehicle_type_id":"4","last_reported":1690581961,"current_range_meters":31200,"station_id":"ce4bgn12rcd13ifvqbt0","pricing_plan_id":"free"},{"bike_id":"1c284887-4c83-46cd-8360-dc69aa7653a3","system_id":"levelo_inurba_marseille","lat":43.29739,"lon":5.37691,"is_reserved":false,"is_disabled":false,"rental_uris":{"android":"levelo://app?vid=1c284887-4c83-46cd-8360-dc69aa7653a3","ios":"levelo://app?vid=1c284887-4c83-46cd-8360-dc69aa7653a3"},"vehicle_type_id":"4","last_reported":1690581961,"current_range_meters":4000,"station_id":"ce4bgkh2rcd13ifvqbl0","pricing_plan_id":"free"},{"bike_id":"458b936c-c173-485b-ba3a-af72d081da83","system_id":"levelo_inurba_marseille","lat":43.29728,"lon":5.37691,"is_reserved":false,"is_disabled":false,"rental_uris":{"android":"levelo://app?vid=458b936c-c173-485b-ba3a-af72d081da83","ios":"levelo://app?vid=458b936c-c173-485b-ba3a-af72d081da83"},"vehicle_type_id":"4","last_reported":1690581961,"current_range_meters":5600,"station_id":"ce4bgkh2rcd13ifvqbl0","pricing_plan_id":"free"},{"bike_id":"4a3ea0bb-320d-4666-9ad3-e7aca8a0147d","system_id":"levelo_inurba_marseille","lat":43.296921,"lon":5.376579,"is_reserved":false,"is_disabled":false,"rental_uris":{"android":"levelo://app?vid=4a3ea0bb-320d-4666-9ad3-e7aca8a0147d","ios":"levelo://app?vid=4a3ea0bb-320d-4666-9ad3-e7aca8a0147d"},"vehicle_type_id":"4","last_reported":1690581961,"current_range_meters":22400,"station_id":"ce4bgkh2rcd13ifvqbl0","pricing_plan_id":"free"},{"bike_id":"5f6fa139-1f1a-4d87-adf0-b4be162887d3","system_id":"levelo_inurba_marseille","lat":43.29723,"lon":5.37701,"is_reserved":false,"is_disabled":false,"rental_uris":{"android":"levelo://app?vid=5f6fa139-1f1a-4d87-adf0-b4be162887d3","ios":"levelo://app?vid=5f6fa139-1f1a-4d87-adf0-b4be162887d3"},"vehicle_type_id":"4","last_reported":1690581961,"current_range_meters":8800,"station_id":"ce4bgkh2rcd13ifvqbl0","pricing_plan_id":"free"},{"bike_id":"58b9d587-baea-4be8-9a6b-eeddce530289","system_id":"levelo_inurba_marseille","lat":43.29708,"lon":5.37698,"is_reserved":false,"is_disabled":false,"rental_uris":{"android":"levelo://app?vid=58b9d587-baea-4be8-9a6b-eeddce530289","ios":"levelo://app?vid=58b9d587-baea-4be8-9a6b-eeddce530289"},"vehicle_type_id":"4","last_reported":1690581961,"current_range_meters":1600,"station_id":"ce4bgkh2rcd13ifvqbl0","pricing_plan_id":"free"},{"bike_id":"f0b1921d-8fc5-42f6-8214-26455e772ce5","system_id":"levelo_inurba_marseille","lat":43.309589,"lon":5.390258,"is_reserved":false,"is_disabled":false,"rental_uris":{"android":"levelo://app?vid=f0b1921d-8fc5-42f6-8214-26455e772ce5","ios":"levelo://app?vid=f0b1921d-8fc5-42f6-8214-26455e772ce5"},"vehicle_type_id":"4","last_reported":1690581961,"current_range_meters":28000,"station_id":"ce4bgup2rcd13ifvqco0","pricing_plan_id":"free"},{"bike_id":"80996baf-8597-4552-b66a-a0139bedf903","system_id":"levelo_inurba_marseille","lat":43.309502,"lon":5.390365,"is_reserved":false,"is_disabled":false,"rental_uris":{"android":"levelo://app?vid=80996baf-8597-4552-b66a-a0139bedf903","ios":"levelo://app?vid=80996baf-8597-4552-b66a-a0139bedf903"},"vehicle_type_id":"4","last_reported":1690581961,"current_range_meters":4800,"station_id":"","pricing_plan_id":"free"},{"bike_id":"dd3ca477-5f9a-49ee-87d5-4e6b8703e878","system_id":"levelo_inurba_marseille","lat":43.317557,"lon":5.390173,"is_reserved":false,"is_disabled":false,"rental_uris":{"android":"levelo://app?vid=dd3ca477-5f9a-49ee-87d5-4e6b8703e878","ios":"levelo://app?vid=dd3ca477-5f9a-49ee-87d5-4e6b8703e878"},"vehicle_type_id":"4","last_reported":1690581961,"current_range_meters":31200,"station_id":"ce4bhqp2rcd13ifvqhng","pricing_plan_id":"free"},{"bike_id":"f2f3b123-9f45-4126-bd8d-f9f0e8fc2b98","system_id":"levelo_inurba_marseille","lat":43.29804,"lon":5.38091,"is_reserved":false,"is_disabled":false,"rental_uris":{"android":"levelo://app?vid=f2f3b123-9f45-4126-bd8d-f9f0e8fc2b98","ios":"levelo://app?vid=f2f3b123-9f45-4126-bd8d-f9f0e8fc2b98"},"vehicle_type_id":"4","last_reported":1690581961,"current_range_meters":25600,"station_id":"ce4bgip2rcd13ifvqbb0","pricing_plan_id":"free"},{"bike_id":"4fac9f4a-6e02-43ab-9567-d1dd6457426b","system_id":"levelo_inurba_marseille","lat":43.298037,"lon":5.381066,"is_reserved":false,"is_disabled":false,"rental_uris":{"android":"levelo://app?vid=4fac9f4a-6e02-43ab-9567-d1dd6457426b","ios":"levelo://app?vid=4fac9f4a-6e02-43ab-9567-d1dd6457426b"},"vehicle_type_id":"4","last_reported":1690581961,"current_range_meters":26800,"station_id":"ce4bgip2rcd13ifvqbb0","pricing_plan_id":"free"},{"bike_id":"53e5e741-6b99-454d-b8a9-b7f02d7be79a","system_id":"levelo_inurba_marseille","lat":43.304278,"lon":5.388868,"is_reserved":false,"is_disabled":false,"rental_uris":{"android":"levelo://app?vid=53e5e741-6b99-454d-b8a9-b7f02d7be79a","ios":"levelo://app?vid=53e5e741-6b99-454d-b8a9-b7f02d7be79a"},"vehicle_type_id":"4","last_reported":1690581961,"current_range_meters":25600,"station_id":"ce4bgk12rcd13ifvqbi0","pricing_plan_id":"free"},{"bike_id":"13192aea-e25a-48c6-b566-cbfdf271522d","system_id":"levelo_inurba_marseille","lat":43.304278,"lon":5.388868,"is_reserved":false,"is_disabled":false,"rental_uris":{"android":"levelo://app?vid=13192aea-e25a-48c6-b566-cbfdf271522d","ios":"levelo://app?vid=13192aea-e25a-48c6-b566-cbfdf271522d"},"vehicle_type_id":"4","last_reported":1690581961,"current_range_meters":12400,"station_id":"ce4bgk12rcd13ifvqbi0","pricing_plan_id":"free"},{"bike_id":"72606423-fa5c-44a8-bc56-25ab90353d44","system_id":"levelo_inurba_marseille","lat":43.30441,"lon":5.3889,"is_reserved":false,"is_disabled":false,"rental_uris":{"android":"levelo://app?vid=72606423-fa5c-44a8-bc56-25ab90353d44","ios":"levelo://app?vid=72606423-fa5c-44a8-bc56-25ab90353d44"},"vehicle_type_id":"4","last_reported":1690581961,"current_range_meters":8800,"station_id":"ce4bgk12rcd13ifvqbi0","pricing_plan_id":"free"},{"bike_id":"7426956a-654b-4bf8-8fbe-1c64bb9cfe71","system_id":"levelo_inurba_marseille","lat":43.304278,"lon":5.388868,"is_reserved":false,"is_disabled":false,"rental_uris":{"android":"levelo://app?vid=7426956a-654b-4bf8-8fbe-1c64bb9cfe71","ios":"levelo://app?vid=7426956a-654b-4bf8-8fbe-1c64bb9cfe71"},"vehicle_type_id":"4","last_reported":1690581961,"current_range_meters":0,"station_id":"ce4bgk12rcd13ifvqbi0","pricing_plan_id":"free"},{"bike_id":"144d5228-66a2-4152-86da-f9c893555c60","system_id":"levelo_inurba_marseille","lat":43.30431,"lon":5.38891,"is_reserved":false,"is_disabled":false,"rental_uris":{"android":"levelo://app?vid=144d5228-66a2-4152-86da-f9c893555c60","ios":"levelo://app?vid=144d5228-66a2-4152-86da-f9c893555c60"},"vehicle_type_id":"4","last_reported":1690581961,"current_range_meters":12400,"station_id":"ce4bgk12rcd13ifvqbi0","pricing_plan_id":"free"},{"bike_id":"f600f14a-9dec-4b54-9b69-1fd11d816334","system_id":"levelo_inurba_marseille","lat":43.30431,"lon":5.38892,"is_reserved":false,"is_disabled":false,"rental_uris":{"android":"levelo://app?vid=f600f14a-9dec-4b54-9b69-1fd11d816334","ios":"levelo://app?vid=f600f14a-9dec-4b54-9b69-1fd11d816334"},"vehicle_type_id":"4","last_reported":1690581961,"current_range_meters":19200,"station_id":"ce4bgk12rcd13ifvqbi0","pricing_plan_id":"free"},{"bike_id":"e9af5798-bf49-4574-805f-b0a9f44c625e","system_id":"levelo_inurba_marseille","lat":43.30431,"lon":5.38896,"is_reserved":false,"is_disabled":false,"rental_uris":{"android":"levelo://app?vid=e9af5798-bf49-4574-805f-b0a9f44c625e","ios":"levelo://app?vid=e9af5798-bf49-4574-805f-b0a9f44c625e"},"vehicle_type_id":"4","last_reported":1690581961,"current_range_meters":16400,"station_id":"ce4bgk12rcd13ifvqbi0","pricing_plan_id":"free"},{"bike_id":"46480592-c48c-4cda-8add-4be2e6e1540c","system_id":"levelo_inurba_marseille","lat":43.296263,"lon":5.377094,"is_reserved":false,"is_disabled":false,"rental_uris":{"android":"levelo://app?vid=46480592-c48c-4cda-8add-4be2e6e1540c","ios":"levelo://app?vid=46480592-c48c-4cda-8add-4be2e6e1540c"},"vehicle_type_id":"4","last_reported":1690581961,"current_range_meters":6400,"station_id":"ce4bgi92rcd13ifvqb90","pricing_plan_id":"free"},{"bike_id":"b9842c35-0b83-4fa7-a226-abd94560ac46","system_id":"levelo_inurba_marseille","lat":43.296263,"lon":5.377094,"is_reserved":false,"is_disabled":false,"rental_uris":{"android":"levelo://app?vid=b9842c35-0b83-4fa7-a226-abd94560ac46","ios":"levelo://app?vid=b9842c35-0b83-4fa7-a226-abd94560ac46"},"vehicle_type_id":"4","last_reported":1690581961,"current_range_meters":24000,"station_id":"ce4bgi92rcd13ifvqb90","pricing_plan_id":"free"},{"bike_id":"4634e743-7833-4f32-bd96-87789af5d4e9","system_id":"levelo_inurba_marseille","lat":43.32373,"lon":5.38887,"is_reserved":false,"is_disabled":false,"rental_uris":{"android":"levelo://app?vid=4634e743-7833-4f32-bd96-87789af5d4e9","ios":"levelo://app?vid=4634e743-7833-4f32-bd96-87789af5d4e9"},"vehicle_type_id":"4","last_reported":1690581961,"current_range_meters":18400,"station_id":"ce4bhqp2rcd13ifvqhog","pricing_plan_id":"free"},{"bike_id":"1f4eb3d0-3afa-4621-8b05-0d9f59a19f31","system_id":"levelo_inurba_marseille","lat":43.29602,"lon":5.381084,"is_reserved":false,"is_disabled":false,"rental_uris":{"android":"levelo://app?vid=1f4eb3d0-3afa-4621-8b05-0d9f59a19f31","ios":"levelo://app?vid=1f4eb3d0-3afa-4621-8b05-0d9f59a19f31"},"vehicle_type_id":"4","last_reported":1690581961,"current_range_meters":26800,"station_id":"ce4bgl12rcd13ifvqbo0","pricing_plan_id":"free"},{"bike_id":"3264d1ec-61d6-42e9-9daf-7c614729c0c9","system_id":"levelo_inurba_marseille","lat":43.29602,"lon":5.381084,"is_reserved":false,"is_disabled":false,"rental_uris":{"android":"levelo://app?vid=3264d1ec-61d6-42e9-9daf-7c614729c0c9","ios":"levelo://app?vid=3264d1ec-61d6-42e9-9daf-7c614729c0c9"},"vehicle_type_id":"4","last_reported":1690581961,"current_range_meters":1600,"station_id":"ce4bgl12rcd13ifvqbo0","pricing_plan_id":"free"},{"bike_id":"c0c3b30d-6d16-41c7-8e7b-a82d86b23b3b","system_id":"levelo_inurba_marseille","lat":43.29602,"lon":5.381084,"is_reserved":false,"is_disabled":false,"rental_uris":{"android":"levelo://app?vid=c0c3b30d-6d16-41c7-8e7b-a82d86b23b3b","ios":"levelo://app?vid=c0c3b30d-6d16-41c7-8e7b-a82d86b23b3b"},"vehicle_type_id":"4","last_reported":1690581961,"current_range_meters":17200,"station_id":"ce4bgl12rcd13ifvqbo0","pricing_plan_id":"free"},{"bike_id":"80f24292-d7a5-4cff-bbd2-3aad5f555d5e","system_id":"levelo_inurba_marseille","lat":43.29602,"lon":5.381084,"is_reserved":false,"is_disabled":false,"rental_uris":{"android":"levelo://app?vid=80f24292-d7a5-4cff-bbd2-3aad5f555d5e","ios":"levelo://app?vid=80f24292-d7a5-4cff-bbd2-3aad5f555d5e"},"vehicle_type_id":"4","last_reported":1690581961,"current_range_meters":13600,"station_id":"ce4bgl12rcd13ifvqbo0","pricing_plan_id":"free"},{"bike_id":"3e5b29ba-f9aa-48ab-bd27-63063b21ce75","system_id":"levelo_inurba_marseille","lat":43.29602,"lon":5.381084,"is_reserved":false,"is_disabled":false,"rental_uris":{"android":"levelo://app?vid=3e5b29ba-f9aa-48ab-bd27-63063b21ce75","ios":"levelo://app?vid=3e5b29ba-f9aa-48ab-bd27-63063b21ce75"},"vehicle_type_id":"4","last_reported":1690581961,"current_range_meters":22000,"station_id":"ce4bgl12rcd13ifvqbo0","pricing_plan_id":"free"},{"bike_id":"73182c36-4b48-47f9-a2fa-822963b9a359","system_id":"levelo_inurba_marseille","lat":43.29602,"lon":5.381084,"is_reserved":false,"is_disabled":false,"rental_uris":{"android":"levelo://app?vid=73182c36-4b48-47f9-a2fa-822963b9a359","ios":"levelo://app?vid=73182c36-4b48-47f9-a2fa-822963b9a359"},"vehicle_type_id":"4","last_reported":1690581961,"current_range_meters":31200,"station_id":"ce4bgl12rcd13ifvqbo0","pricing_plan_id":"free"},{"bike_id":"3ef0d62b-7780-4648-be1b-ab805575d82d","system_id":"levelo_inurba_marseille","lat":43.29588,"lon":5.38106,"is_reserved":false,"is_disabled":false,"rental_uris":{"android":"levelo://app?vid=3ef0d62b-7780-4648-be1b-ab805575d82d","ios":"levelo://app?vid=3ef0d62b-7780-4648-be1b-ab805575d82d"},"vehicle_type_id":"4","last_reported":1690581961,"current_range_meters":23200,"station_id":"ce4bgl12rcd13ifvqbo0","pricing_plan_id":"free"},{"bike_id":"4abd777f-4827-4c55-85d9-62b3f7cc4dd6","system_id":"levelo_inurba_marseille","lat":43.29357,"lon":5.3761,"is_reserved":false,"is_disabled":false,"rental_uris":{"android":"levelo://app?vid=4abd777f-4827-4c55-85d9-62b3f7cc4dd6","ios":"levelo://app?vid=4abd777f-4827-4c55-85d9-62b3f7cc4dd6"},"vehicle_type_id":"4","last_reported":1690581961,"current_range_meters":20000,"station_id":"","pricing_plan_id":"free"},{"bike_id":"05c95a2a-0246-47c5-a75c-0963cf038c30","system_id":"levelo_inurba_marseille","lat":43.29306,"lon":5.37452,"is_reserved":false,"is_disabled":false,"rental_uris":{"android":"levelo://app?vid=05c95a2a-0246-47c5-a75c-0963cf038c30","ios":"levelo://app?vid=05c95a2a-0246-47c5-a75c-0963cf038c30"},"vehicle_type_id":"4","last_reported":1690581961,"current_range_meters":21200,"station_id":"ce4bgi12rcd13ifvqb70","pricing_plan_id":"free"},{"bike_id":"5fa046e3-eafe-4c4b-9d22-76249e0cea4e","system_id":"levelo_inurba_marseille","lat":43.293009,"lon":5.374584,"is_reserved":false,"is_disabled":false,"rental_uris":{"android":"levelo://app?vid=5fa046e3-eafe-4c4b-9d22-76249e0cea4e","ios":"levelo://app?vid=5fa046e3-eafe-4c4b-9d22-76249e0cea4e"},"vehicle_type_id":"4","last_reported":1690581961,"current_range_meters":4000,"station_id":"ce4bgi12rcd13ifvqb70","pricing_plan_id":"free"},{"bike_id":"109bbe68-9969-44a6-a30e-eb9a53c8380e","system_id":"levelo_inurba_marseille","lat":43.305994,"lon":5.393687,"is_reserved":false,"is_disabled":false,"rental_uris":{"android":"levelo://app?vid=109bbe68-9969-44a6-a30e-eb9a53c8380e","ios":"levelo://app?vid=109bbe68-9969-44a6-a30e-eb9a53c8380e"},"vehicle_type_id":"4","last_reported":1690581961,"current_range_meters":18000,"station_id":"ce4bh0p2rcd13ifvqd80","pricing_plan_id":"free"},{"bike_id":"ee5636bb-6157-4d52-b93a-d020f101ca5a","system_id":"levelo_inurba_marseille","lat":43.30311,"lon":5.39201,"is_reserved":false,"is_disabled":false,"rental_uris":{"android":"levelo://app?vid=ee5636bb-6157-4d52-b93a-d020f101ca5a","ios":"levelo://app?vid=ee5636bb-6157-4d52-b93a-d020f101ca5a"},"vehicle_type_id":"4","last_reported":1690581961,"current_range_meters":23600,"station_id":"ce4bgkh2rcd13ifvqbk0","pricing_plan_id":"free"},{"bike_id":"9833deed-7742-49e5-9559-b4d5b26ad27e","system_id":"levelo_inurba_marseille","lat":43.30307,"lon":5.39207,"is_reserved":false,"is_disabled":false,"rental_uris":{"android":"levelo://app?vid=9833deed-7742-49e5-9559-b4d5b26ad27e","ios":"levelo://app?vid=9833deed-7742-49e5-9559-b4d5b26ad27e"},"vehicle_type_id":"4","last_reported":1690581961,"current_range_meters":0,"station_id":"ce4bgkh2rcd13ifvqbk0","pricing_plan_id":"free"},{"bike_id":"f88ccfa2-6e4d-4d6b-a603-fb0293801cc0","system_id":"levelo_inurba_marseille","lat":43.30306,"lon":5.39214,"is_reserved":false,"is_disabled":false,"rental_uris":{"android":"levelo://app?vid=f88ccfa2-6e4d-4d6b-a603-fb0293801cc0","ios":"levelo://app?vid=f88ccfa2-6e4d-4d6b-a603-fb0293801cc0"},"vehicle_type_id":"4","last_reported":1690581961,"current_range_meters":30800,"station_id":"ce4bgkh2rcd13ifvqbk0","pricing_plan_id":"free"},{"bike_id":"6445e5c0-649b-4f39-a055-35c84591828c","system_id":"levelo_inurba_marseille","lat":43.2936,"lon":5.37835,"is_reserved":false,"is_disabled":false,"rental_uris":{"android":"levelo://app?vid=6445e5c0-649b-4f39-a055-35c84591828c","ios":"levelo://app?vid=6445e5c0-649b-4f39-a055-35c84591828c"},"vehicle_type_id":"4","last_reported":1690581961,"current_range_meters":3600,"station_id":"ce4bgjh2rcd13ifvqbf0","pricing_plan_id":"free"},{"bike_id":"1a572529-e73f-438a-b501-ee85d2bfef41","system_id":"levelo_inurba_marseille","lat":43.300852,"lon":5.390859,"is_reserved":false,"is_disabled":false,"rental_uris":{"android":"levelo://app?vid=1a572529-e73f-438a-b501-ee85d2bfef41","ios":"levelo://app?vid=1a572529-e73f-438a-b501-ee85d2bfef41"},"vehicle_type_id":"4","last_reported":1690581961,"current_range_meters":31200,"station_id":"ce4bh192rcd13ifvqdb0","pricing_plan_id":"free"},{"bike_id":"9f85c849-740a-48e0-be7e-1191463403b8","system_id":"levelo_inurba_marseille","lat":43.300852,"lon":5.390859,"is_reserved":false,"is_disabled":false,"rental_uris":{"android":"levelo://app?vid=9f85c849-740a-48e0-be7e-1191463403b8","ios":"levelo://app?vid=9f85c849-740a-48e0-be7e-1191463403b8"},"vehicle_type_id":"4","last_reported":1690581961,"current_range_meters":30000,"station_id":"ce4bh192rcd13ifvqdb0","pricing_plan_id":"free"},{"bike_id":"4ea33085-77b8-472c-865e-1490fe620ec2","system_id":"levelo_inurba_marseille","lat":43.300852,"lon":5.390859,"is_reserved":false,"is_disabled":false,"rental_uris":{"android":"levelo://app?vid=4ea33085-77b8-472c-865e-1490fe620ec2","ios":"levelo://app?vid=4ea33085-77b8-472c-865e-1490fe620ec2"},"vehicle_type_id":"4","last_reported":1690581961,"current_range_meters":31200,"station_id":"ce4bh192rcd13ifvqdb0","pricing_plan_id":"free"},{"bike_id":"80aafe49-808c-45b6-adb3-7618ac33b986","system_id":"levelo_inurba_marseille","lat":43.30102,"lon":5.3908,"is_reserved":false,"is_disabled":false,"rental_uris":{"android":"levelo://app?vid=80aafe49-808c-45b6-adb3-7618ac33b986","ios":"levelo://app?vid=80aafe49-808c-45b6-adb3-7618ac33b986"},"vehicle_type_id":"4","last_reported":1690581961,"current_range_meters":31200,"station_id":"ce4bh192rcd13ifvqdb0","pricing_plan_id":"free"},{"bike_id":"d4f94131-70c1-4ab5-ab57-a459d6ee200b","system_id":"levelo_inurba_marseille","lat":43.300852,"lon":5.390859,"is_reserved":false,"is_disabled":false,"rental_uris":{"android":"levelo://app?vid=d4f94131-70c1-4ab5-ab57-a459d6ee200b","ios":"levelo://app?vid=d4f94131-70c1-4ab5-ab57-a459d6ee200b"},"vehicle_type_id":"4","last_reported":1690581961,"current_range_meters":28400,"station_id":"ce4bh192rcd13ifvqdb0","pricing_plan_id":"free"},{"bike_id":"3db02525-4c01-4708-b6a2-da871df09c70","system_id":"levelo_inurba_marseille","lat":43.300852,"lon":5.390859,"is_reserved":false,"is_disabled":false,"rental_uris":{"android":"levelo://app?vid=3db02525-4c01-4708-b6a2-da871df09c70","ios":"levelo://app?vid=3db02525-4c01-4708-b6a2-da871df09c70"},"vehicle_type_id":"4","last_reported":1690581961,"current_range_meters":28400,"station_id":"ce4bh192rcd13ifvqdb0","pricing_plan_id":"free"},{"bike_id":"3512e984-19da-4dc8-9a0e-faf5d8e92333","system_id":"levelo_inurba_marseille","lat":43.30098,"lon":5.39085,"is_reserved":false,"is_disabled":false,"rental_uris":{"android":"levelo://app?vid=3512e984-19da-4dc8-9a0e-faf5d8e92333","ios":"levelo://app?vid=3512e984-19da-4dc8-9a0e-faf5d8e92333"},"vehicle_type_id":"4","last_reported":1690581961,"current_range_meters":2000,"station_id":"ce4bh192rcd13ifvqdb0","pricing_plan_id":"free"},{"bike_id":"1a151bac-b8e5-4dae-9172-30c05286d745","system_id":"levelo_inurba_marseille","lat":43.298764,"lon":5.388973,"is_reserved":false,"is_disabled":false,"rental_uris":{"android":"levelo://app?vid=1a151bac-b8e5-4dae-9172-30c05286d745","ios":"levelo://app?vid=1a151bac-b8e5-4dae-9172-30c05286d745"},"vehicle_type_id":"4","last_reported":1690581961,"current_range_meters":14000,"station_id":"ce4bh392rcd13ifvqdl0","pricing_plan_id":"free"},{"bike_id":"1c47d457-cb21-4958-9476-aa4169d22280","system_id":"levelo_inurba_marseille","lat":43.29886,"lon":5.3891,"is_reserved":false,"is_disabled":false,"rental_uris":{"android":"levelo://app?vid=1c47d457-cb21-4958-9476-aa4169d22280","ios":"levelo://app?vid=1c47d457-cb21-4958-9476-aa4169d22280"},"vehicle_type_id":"4","last_reported":1690581961,"current_range_meters":5600,"station_id":"ce4bh392rcd13ifvqdl0","pricing_plan_id":"free"},{"bike_id":"10387156-c262-4c09-b001-479baedfbebd","system_id":"levelo_inurba_marseille","lat":43.29876,"lon":5.38911,"is_reserved":false,"is_disabled":false,"rental_uris":{"android":"levelo://app?vid=10387156-c262-4c09-b001-479baedfbebd","ios":"levelo://app?vid=10387156-c262-4c09-b001-479baedfbebd"},"vehicle_type_id":"4","last_reported":1690581961,"current_range_meters":3600,"station_id":"ce4bh392rcd13ifvqdl0","pricing_plan_id":"free"},{"bike_id":"2d7e1121-03a6-4932-b85f-1ef919f690d0","system_id":"levelo_inurba_marseille","lat":43.30882,"lon":5.39627,"is_reserved":false,"is_disabled":false,"rental_uris":{"android":"levelo://app?vid=2d7e1121-03a6-4932-b85f-1ef919f690d0","ios":"levelo://app?vid=2d7e1121-03a6-4932-b85f-1ef919f690d0"},"vehicle_type_id":"4","last_reported":1690581961,"current_range_meters":31200,"station_id":"ce4bh012rcd13ifvqcv0","pricing_plan_id":"free"},{"bike_id":"f04a8de9-24d1-44d9-9641-0373dc419179","system_id":"levelo_inurba_marseille","lat":43.30884,"lon":5.39633,"is_reserved":false,"is_disabled":false,"rental_uris":{"android":"levelo://app?vid=f04a8de9-24d1-44d9-9641-0373dc419179","ios":"levelo://app?vid=f04a8de9-24d1-44d9-9641-0373dc419179"},"vehicle_type_id":"4","last_reported":1690581961,"current_range_meters":24400,"station_id":"ce4bh012rcd13ifvqcv0","pricing_plan_id":"free"},{"bike_id":"d6a0fed4-cb78-4fef-8536-2b5612ab4427","system_id":"levelo_inurba_marseille","lat":43.31323,"lon":5.39683,"is_reserved":false,"is_disabled":false,"rental_uris":{"android":"levelo://app?vid=d6a0fed4-cb78-4fef-8536-2b5612ab4427","ios":"levelo://app?vid=d6a0fed4-cb78-4fef-8536-2b5612ab4427"},"vehicle_type_id":"4","last_reported":1690581961,"current_range_meters":10400,"station_id":"ce4bgvp2rcd13ifvqcu0","pricing_plan_id":"free"},{"bike_id":"9dcf1ae2-99eb-41c8-a9d6-ccef7a60dd1e","system_id":"levelo_inurba_marseille","lat":43.31325,"lon":5.39683,"is_reserved":false,"is_disabled":false,"rental_uris":{"android":"levelo://app?vid=9dcf1ae2-99eb-41c8-a9d6-ccef7a60dd1e","ios":"levelo://app?vid=9dcf1ae2-99eb-41c8-a9d6-ccef7a60dd1e"},"vehicle_type_id":"4","last_reported":1690581961,"current_range_meters":31200,"station_id":"ce4bgvp2rcd13ifvqcu0","pricing_plan_id":"free"},{"bike_id":"2ce17796-67b5-4ed9-a4db-4937c010929f","system_id":"levelo_inurba_marseille","lat":43.31325,"lon":5.39686,"is_reserved":false,"is_disabled":false,"rental_uris":{"android":"levelo://app?vid=2ce17796-67b5-4ed9-a4db-4937c010929f","ios":"levelo://app?vid=2ce17796-67b5-4ed9-a4db-4937c010929f"},"vehicle_type_id":"4","last_reported":1690581961,"current_range_meters":31200,"station_id":"ce4bgvp2rcd13ifvqcu0","pricing_plan_id":"free"},{"bike_id":"043b32ba-b15b-4c9a-9e51-318e1fc7853a","system_id":"levelo_inurba_marseille","lat":43.31329,"lon":5.39687,"is_reserved":false,"is_disabled":false,"rental_uris":{"android":"levelo://app?vid=043b32ba-b15b-4c9a-9e51-318e1fc7853a","ios":"levelo://app?vid=043b32ba-b15b-4c9a-9e51-318e1fc7853a"},"vehicle_type_id":"4","last_reported":1690581961,"current_range_meters":14400,"station_id":"ce4bgvp2rcd13ifvqcu0","pricing_plan_id":"free"},{"bike_id":"b455357f-bfdc-4fd5-850d-41a27e4d3623","system_id":"levelo_inurba_marseille","lat":43.31325,"lon":5.39692,"is_reserved":false,"is_disabled":false,"rental_uris":{"android":"levelo://app?vid=b455357f-bfdc-4fd5-850d-41a27e4d3623","ios":"levelo://app?vid=b455357f-bfdc-4fd5-850d-41a27e4d3623"},"vehicle_type_id":"4","last_reported":1690581961,"current_range_meters":15200,"station_id":"ce4bgvp2rcd13ifvqcu0","pricing_plan_id":"free"},{"bike_id":"d562ac2f-56df-4c45-92fc-92925810f009","system_id":"levelo_inurba_marseille","lat":43.31326,"lon":5.39692,"is_reserved":false,"is_disabled":false,"rental_uris":{"android":"levelo://app?vid=d562ac2f-56df-4c45-92fc-92925810f009","ios":"levelo://app?vid=d562ac2f-56df-4c45-92fc-92925810f009"},"vehicle_type_id":"4","last_reported":1690581961,"current_range_meters":2400,"station_id":"ce4bgvp2rcd13ifvqcu0","pricing_plan_id":"free"},{"bike_id":"e810061f-daa4-437a-8eb8-8ffdcd32f682","system_id":"levelo_inurba_marseille","lat":43.31333,"lon":5.39694,"is_reserved":false,"is_disabled":false,"rental_uris":{"android":"levelo://app?vid=e810061f-daa4-437a-8eb8-8ffdcd32f682","ios":"levelo://app?vid=e810061f-daa4-437a-8eb8-8ffdcd32f682"},"vehicle_type_id":"4","last_reported":1690581961,"current_range_meters":0,"station_id":"ce4bgvp2rcd13ifvqcu0","pricing_plan_id":"free"},{"bike_id":"d27e0bd8-e5f1-45cd-b93f-c6caab337e48","system_id":"levelo_inurba_marseille","lat":43.313291,"lon":5.396838,"is_reserved":false,"is_disabled":false,"rental_uris":{"android":"levelo://app?vid=d27e0bd8-e5f1-45cd-b93f-c6caab337e48","ios":"levelo://app?vid=d27e0bd8-e5f1-45cd-b93f-c6caab337e48"},"vehicle_type_id":"4","last_reported":1690581961,"current_range_meters":31200,"station_id":"ce4bgvp2rcd13ifvqcu0","pricing_plan_id":"free"},{"bike_id":"7305f0ae-51cf-4ef4-882d-4aa18b9c8dd4","system_id":"levelo_inurba_marseille","lat":43.31328,"lon":5.39696,"is_reserved":false,"is_disabled":false,"rental_uris":{"android":"levelo://app?vid=7305f0ae-51cf-4ef4-882d-4aa18b9c8dd4","ios":"levelo://app?vid=7305f0ae-51cf-4ef4-882d-4aa18b9c8dd4"},"vehicle_type_id":"4","last_reported":1690581961,"current_range_meters":20000,"station_id":"ce4bgvp2rcd13ifvqcu0","pricing_plan_id":"free"},{"bike_id":"3b3f08c0-4017-4788-b549-41717c77417a","system_id":"levelo_inurba_marseille","lat":43.309038,"lon":5.396546,"is_reserved":false,"is_disabled":false,"rental_uris":{"android":"levelo://app?vid=3b3f08c0-4017-4788-b549-41717c77417a","ios":"levelo://app?vid=3b3f08c0-4017-4788-b549-41717c77417a"},"vehicle_type_id":"4","last_reported":1690581961,"current_range_meters":24800,"station_id":"ce4bh012rcd13ifvqcv0","pricing_plan_id":"free"},{"bike_id":"fa47b82b-35c8-496d-9043-0c1bf4c03aa8","system_id":"levelo_inurba_marseille","lat":43.309038,"lon":5.396546,"is_reserved":false,"is_disabled":false,"rental_uris":{"android":"levelo://app?vid=fa47b82b-35c8-496d-9043-0c1bf4c03aa8","ios":"levelo://app?vid=fa47b82b-35c8-496d-9043-0c1bf4c03aa8"},"vehicle_type_id":"4","last_reported":1690581961,"current_range_meters":9600,"station_id":"ce4bh012rcd13ifvqcv0","pricing_plan_id":"free"},{"bike_id":"f1bf4665-7ac2-4c69-9418-af76438cecd3","system_id":"levelo_inurba_marseille","lat":43.31331,"lon":5.39699,"is_reserved":false,"is_disabled":false,"rental_uris":{"android":"levelo://app?vid=f1bf4665-7ac2-4c69-9418-af76438cecd3","ios":"levelo://app?vid=f1bf4665-7ac2-4c69-9418-af76438cecd3"},"vehicle_type_id":"4","last_reported":1690581961,"current_range_meters":25600,"station_id":"ce4bgvp2rcd13ifvqcu0","pricing_plan_id":"free"},{"bike_id":"057edfd5-b706-4429-a756-2198ca6081d8","system_id":"levelo_inurba_marseille","lat":43.31325,"lon":5.397,"is_reserved":false,"is_disabled":false,"rental_uris":{"android":"levelo://app?vid=057edfd5-b706-4429-a756-2198ca6081d8","ios":"levelo://app?vid=057edfd5-b706-4429-a756-2198ca6081d8"},"vehicle_type_id":"4","last_reported":1690581961,"current_range_meters":2800,"station_id":"ce4bgvp2rcd13ifvqcu0","pricing_plan_id":"free"},{"bike_id":"4b9a72fa-673c-4936-a636-1b4cc889f0ae","system_id":"levelo_inurba_marseille","lat":43.29544,"lon":5.38537,"is_reserved":false,"is_disabled":false,"rental_uris":{"android":"levelo://app?vid=4b9a72fa-673c-4936-a636-1b4cc889f0ae","ios":"levelo://app?vid=4b9a72fa-673c-4936-a636-1b4cc889f0ae"},"vehicle_type_id":"4","last_reported":1690581961,"current_range_meters":5200,"station_id":"ce4bgih2rcd13ifvqba0","pricing_plan_id":"free"},{"bike_id":"80135a22-33bf-4ff8-b041-bd8475bb9c72","system_id":"levelo_inurba_marseille","lat":43.308971,"lon":5.396571,"is_reserved":false,"is_disabled":false,"rental_uris":{"android":"levelo://app?vid=80135a22-33bf-4ff8-b041-bd8475bb9c72","ios":"levelo://app?vid=80135a22-33bf-4ff8-b041-bd8475bb9c72"},"vehicle_type_id":"4","last_reported":1690581961,"current_range_meters":31200,"station_id":"ce4bh012rcd13ifvqcv0","pricing_plan_id":"free"},{"bike_id":"b073baed-7acc-4e3b-b0ca-7cf3ff8e4b53","system_id":"levelo_inurba_marseille","lat":43.29545,"lon":5.38542,"is_reserved":false,"is_disabled":false,"rental_uris":{"android":"levelo://app?vid=b073baed-7acc-4e3b-b0ca-7cf3ff8e4b53","ios":"levelo://app?vid=b073baed-7acc-4e3b-b0ca-7cf3ff8e4b53"},"vehicle_type_id":"4","last_reported":1690581961,"current_range_meters":10400,"station_id":"ce4bgih2rcd13ifvqba0","pricing_plan_id":"free"},{"bike_id":"eaab094d-a1df-4e2c-a547-817446eb4510","system_id":"levelo_inurba_marseille","lat":43.309038,"lon":5.396546,"is_reserved":false,"is_disabled":false,"rental_uris":{"android":"levelo://app?vid=eaab094d-a1df-4e2c-a547-817446eb4510","ios":"levelo://app?vid=eaab094d-a1df-4e2c-a547-817446eb4510"},"vehicle_type_id":"4","last_reported":1690581961,"current_range_meters":31200,"station_id":"ce4bh012rcd13ifvqcv0","pricing_plan_id":"free"},{"bike_id":"a3141e0b-b76e-46d8-aef9-76f1e353c4f3","system_id":"levelo_inurba_marseille","lat":43.29529,"lon":5.385581,"is_reserved":false,"is_disabled":false,"rental_uris":{"android":"levelo://app?vid=a3141e0b-b76e-46d8-aef9-76f1e353c4f3","ios":"levelo://app?vid=a3141e0b-b76e-46d8-aef9-76f1e353c4f3"},"vehicle_type_id":"4","last_reported":1690581961,"current_range_meters":30800,"station_id":"ce4bgih2rcd13ifvqba0","pricing_plan_id":"free"},{"bike_id":"25788a73-7e00-423c-a01e-0b7ef06f8893","system_id":"levelo_inurba_marseille","lat":43.29529,"lon":5.385581,"is_reserved":false,"is_disabled":false,"rental_uris":{"android":"levelo://app?vid=25788a73-7e00-423c-a01e-0b7ef06f8893","ios":"levelo://app?vid=25788a73-7e00-423c-a01e-0b7ef06f8893"},"vehicle_type_id":"4","last_reported":1690581961,"current_range_meters":16400,"station_id":"ce4bgih2rcd13ifvqba0","pricing_plan_id":"free"},{"bike_id":"0e590f84-7458-4ad0-872f-a0e6cb4e0305","system_id":"levelo_inurba_marseille","lat":43.29536,"lon":5.38536,"is_reserved":false,"is_disabled":false,"rental_uris":{"android":"levelo://app?vid=0e590f84-7458-4ad0-872f-a0e6cb4e0305","ios":"levelo://app?vid=0e590f84-7458-4ad0-872f-a0e6cb4e0305"},"vehicle_type_id":"4","last_reported":1690581961,"current_range_meters":20400,"station_id":"ce4bgih2rcd13ifvqba0","pricing_plan_id":"free"},{"bike_id":"82325ae5-8ff8-419e-bf61-7e0437e1a3ff","system_id":"levelo_inurba_marseille","lat":43.29537,"lon":5.38538,"is_reserved":false,"is_disabled":false,"rental_uris":{"android":"levelo://app?vid=82325ae5-8ff8-419e-bf61-7e0437e1a3ff","ios":"levelo://app?vid=82325ae5-8ff8-419e-bf61-7e0437e1a3ff"},"vehicle_type_id":"4","last_reported":1690581961,"current_range_meters":7600,"station_id":"ce4bgih2rcd13ifvqba0","pricing_plan_id":"free"},{"bike_id":"0ac7c8a8-44c1-46bf-9b93-a2f3937dae5c","system_id":"levelo_inurba_marseille","lat":43.29529,"lon":5.385581,"is_reserved":false,"is_disabled":false,"rental_uris":{"android":"levelo://app?vid=0ac7c8a8-44c1-46bf-9b93-a2f3937dae5c","ios":"levelo://app?vid=0ac7c8a8-44c1-46bf-9b93-a2f3937dae5c"},"vehicle_type_id":"4","last_reported":1690581961,"current_range_meters":0,"station_id":"ce4bgih2rcd13ifvqba0","pricing_plan_id":"free"},{"bike_id":"ec2755bc-43d9-45cf-994b-92416e877f9c","system_id":"levelo_inurba_marseille","lat":43.29535,"lon":5.38536,"is_reserved":false,"is_disabled":false,"rental_uris":{"android":"levelo://app?vid=ec2755bc-43d9-45cf-994b-92416e877f9c","ios":"levelo://app?vid=ec2755bc-43d9-45cf-994b-92416e877f9c"},"vehicle_type_id":"4","last_reported":1690581961,"current_range_meters":17200,"station_id":"ce4bgih2rcd13ifvqba0","pricing_plan_id":"free"},{"bike_id":"859be63f-4505-42d2-b2e6-603a6f64c9bc","system_id":"levelo_inurba_marseille","lat":43.29538,"lon":5.38543,"is_reserved":false,"is_disabled":false,"rental_uris":{"android":"levelo://app?vid=859be63f-4505-42d2-b2e6-603a6f64c9bc","ios":"levelo://app?vid=859be63f-4505-42d2-b2e6-603a6f64c9bc"},"vehicle_type_id":"4","last_reported":1690581961,"current_range_meters":3600,"station_id":"ce4bgih2rcd13ifvqba0","pricing_plan_id":"free"},{"bike_id":"03ccd69c-6b61-4ada-8622-76d2e82095a3","system_id":"levelo_inurba_marseille","lat":43.29529,"lon":5.385581,"is_reserved":false,"is_disabled":false,"rental_uris":{"android":"levelo://app?vid=03ccd69c-6b61-4ada-8622-76d2e82095a3","ios":"levelo://app?vid=03ccd69c-6b61-4ada-8622-76d2e82095a3"},"vehicle_type_id":"4","last_reported":1690581961,"current_range_meters":0,"station_id":"ce4bgih2rcd13ifvqba0","pricing_plan_id":"free"},{"bike_id":"438cef9f-1a77-437e-be5a-4e2ab2ad239c","system_id":"levelo_inurba_marseille","lat":43.29535,"lon":5.3854,"is_reserved":false,"is_disabled":false,"rental_uris":{"android":"levelo://app?vid=438cef9f-1a77-437e-be5a-4e2ab2ad239c","ios":"levelo://app?vid=438cef9f-1a77-437e-be5a-4e2ab2ad239c"},"vehicle_type_id":"4","last_reported":1690581961,"current_range_meters":800,"station_id":"ce4bgih2rcd13ifvqba0","pricing_plan_id":"free"},{"bike_id":"bd730494-cd54-445a-b346-fbad0e577edb","system_id":"levelo_inurba_marseille","lat":43.29537,"lon":5.38544,"is_reserved":false,"is_disabled":false,"rental_uris":{"android":"levelo://app?vid=bd730494-cd54-445a-b346-fbad0e577edb","ios":"levelo://app?vid=bd730494-cd54-445a-b346-fbad0e577edb"},"vehicle_type_id":"4","last_reported":1690581961,"current_range_meters":12800,"station_id":"ce4bgih2rcd13ifvqba0","pricing_plan_id":"free"},{"bike_id":"c1283aae-a5b2-4b88-b6f5-7d7481de71e2","system_id":"levelo_inurba_marseille","lat":43.29416,"lon":5.38309,"is_reserved":false,"is_disabled":false,"rental_uris":{"android":"levelo://app?vid=c1283aae-a5b2-4b88-b6f5-7d7481de71e2","ios":"levelo://app?vid=c1283aae-a5b2-4b88-b6f5-7d7481de71e2"},"vehicle_type_id":"4","last_reported":1690581961,"current_range_meters":12000,"station_id":"","pricing_plan_id":"free"},{"bike_id":"d6ccc6c9-abb6-4d71-b430-87ba7c5a6d38","system_id":"levelo_inurba_marseille","lat":43.309038,"lon":5.396546,"is_reserved":false,"is_disabled":false,"rental_uris":{"android":"levelo://app?vid=d6ccc6c9-abb6-4d71-b430-87ba7c5a6d38","ios":"levelo://app?vid=d6ccc6c9-abb6-4d71-b430-87ba7c5a6d38"},"vehicle_type_id":"4","last_reported":1690581961,"current_range_meters":19600,"station_id":"ce4bh012rcd13ifvqcv0","pricing_plan_id":"free"},{"bike_id":"9c87e720-676e-4209-99f2-59d7bb112bca","system_id":"levelo_inurba_marseille","lat":43.29539,"lon":5.38551,"is_reserved":false,"is_disabled":false,"rental_uris":{"android":"levelo://app?vid=9c87e720-676e-4209-99f2-59d7bb112bca","ios":"levelo://app?vid=9c87e720-676e-4209-99f2-59d7bb112bca"},"vehicle_type_id":"4","last_reported":1690581961,"current_range_meters":24400,"station_id":"ce4bgih2rcd13ifvqba0","pricing_plan_id":"free"},{"bike_id":"5eda917a-153d-45ca-b138-a8c784006e26","system_id":"levelo_inurba_marseille","lat":43.3088,"lon":5.39667,"is_reserved":false,"is_disabled":false,"rental_uris":{"android":"levelo://app?vid=5eda917a-153d-45ca-b138-a8c784006e26","ios":"levelo://app?vid=5eda917a-153d-45ca-b138-a8c784006e26"},"vehicle_type_id":"4","last_reported":1690581961,"current_range_meters":15600,"station_id":"ce4bh012rcd13ifvqcv0","pricing_plan_id":"free"},{"bike_id":"5a33c68a-7c89-40e0-8a51-3d958548f1c9","system_id":"levelo_inurba_marseille","lat":43.29534,"lon":5.38543,"is_reserved":false,"is_disabled":false,"rental_uris":{"android":"levelo://app?vid=5a33c68a-7c89-40e0-8a51-3d958548f1c9","ios":"levelo://app?vid=5a33c68a-7c89-40e0-8a51-3d958548f1c9"},"vehicle_type_id":"4","last_reported":1690581961,"current_range_meters":6000,"station_id":"ce4bgih2rcd13ifvqba0","pricing_plan_id":"free"},{"bike_id":"a08da57d-06f2-4f69-826f-4169e5ad525d","system_id":"levelo_inurba_marseille","lat":43.29534,"lon":5.385433,"is_reserved":false,"is_disabled":false,"rental_uris":{"android":"levelo://app?vid=a08da57d-06f2-4f69-826f-4169e5ad525d","ios":"levelo://app?vid=a08da57d-06f2-4f69-826f-4169e5ad525d"},"vehicle_type_id":"4","last_reported":1690581961,"current_range_meters":24400,"station_id":"ce4bgih2rcd13ifvqba0","pricing_plan_id":"free"},{"bike_id":"a103c4e6-e5ce-4f46-b703-5300a6154229","system_id":"levelo_inurba_marseille","lat":43.29529,"lon":5.385581,"is_reserved":false,"is_disabled":false,"rental_uris":{"android":"levelo://app?vid=a103c4e6-e5ce-4f46-b703-5300a6154229","ios":"levelo://app?vid=a103c4e6-e5ce-4f46-b703-5300a6154229"},"vehicle_type_id":"4","last_reported":1690581961,"current_range_meters":7200,"station_id":"ce4bgih2rcd13ifvqba0","pricing_plan_id":"free"},{"bike_id":"37d72d6b-b7f8-4349-a05f-dd2e55f29f8e","system_id":"levelo_inurba_marseille","lat":43.29531,"lon":5.38539,"is_reserved":false,"is_disabled":false,"rental_uris":{"android":"levelo://app?vid=37d72d6b-b7f8-4349-a05f-dd2e55f29f8e","ios":"levelo://app?vid=37d72d6b-b7f8-4349-a05f-dd2e55f29f8e"},"vehicle_type_id":"4","last_reported":1690581961,"current_range_meters":19600,"station_id":"ce4bgih2rcd13ifvqba0","pricing_plan_id":"free"},{"bike_id":"145c290d-a823-4686-a34c-b63de41bc9db","system_id":"levelo_inurba_marseille","lat":43.29534,"lon":5.38551,"is_reserved":false,"is_disabled":false,"rental_uris":{"android":"levelo://app?vid=145c290d-a823-4686-a34c-b63de41bc9db","ios":"levelo://app?vid=145c290d-a823-4686-a34c-b63de41bc9db"},"vehicle_type_id":"4","last_reported":1690581961,"current_range_meters":10400,"station_id":"ce4bgih2rcd13ifvqba0","pricing_plan_id":"free"},{"bike_id":"dcc75a47-99dd-4dd2-b7f0-b827cc10d901","system_id":"levelo_inurba_marseille","lat":43.2953,"lon":5.38549,"is_reserved":false,"is_disabled":false,"rental_uris":{"android":"levelo://app?vid=dcc75a47-99dd-4dd2-b7f0-b827cc10d901","ios":"levelo://app?vid=dcc75a47-99dd-4dd2-b7f0-b827cc10d901"},"vehicle_type_id":"4","last_reported":1690581961,"current_range_meters":0,"station_id":"ce4bgih2rcd13ifvqba0","pricing_plan_id":"free"},{"bike_id":"5d30bff0-6d22-46a4-b6e0-02634874de14","system_id":"levelo_inurba_marseille","lat":43.302008,"lon":5.394694,"is_reserved":false,"is_disabled":false,"rental_uris":{"android":"levelo://app?vid=5d30bff0-6d22-46a4-b6e0-02634874de14","ios":"levelo://app?vid=5d30bff0-6d22-46a4-b6e0-02634874de14"},"vehicle_type_id":"4","last_reported":1690581961,"current_range_meters":7600,"station_id":"ce4bh0p2rcd13ifvqd70","pricing_plan_id":"free"},{"bike_id":"0a13f471-35fa-4788-b96d-e26d4fe0ceb9","system_id":"levelo_inurba_marseille","lat":43.290631,"lon":5.359244,"is_reserved":false,"is_disabled":false,"rental_uris":{"android":"levelo://app?vid=0a13f471-35fa-4788-b96d-e26d4fe0ceb9","ios":"levelo://app?vid=0a13f471-35fa-4788-b96d-e26d4fe0ceb9"},"vehicle_type_id":"4","last_reported":1690581961,"current_range_meters":5200,"station_id":"ce4bha92rcd13ifvqeg0","pricing_plan_id":"free"},{"bike_id":"412119d4-d582-4168-a851-ab6cd1a5ce1f","system_id":"levelo_inurba_marseille","lat":43.29426,"lon":5.38617,"is_reserved":false,"is_disabled":false,"rental_uris":{"android":"levelo://app?vid=412119d4-d582-4168-a851-ab6cd1a5ce1f","ios":"levelo://app?vid=412119d4-d582-4168-a851-ab6cd1a5ce1f"},"vehicle_type_id":"4","last_reported":1690581961,"current_range_meters":31200,"station_id":"ce4bh2h2rcd13ifvqdh0","pricing_plan_id":"free"},{"bike_id":"babf4f7c-96a4-436d-9116-c8c4c5240904","system_id":"levelo_inurba_marseille","lat":43.29422,"lon":5.38621,"is_reserved":false,"is_disabled":false,"rental_uris":{"android":"levelo://app?vid=babf4f7c-96a4-436d-9116-c8c4c5240904","ios":"levelo://app?vid=babf4f7c-96a4-436d-9116-c8c4c5240904"},"vehicle_type_id":"4","last_reported":1690581961,"current_range_meters":22400,"station_id":"ce4bh2h2rcd13ifvqdh0","pricing_plan_id":"free"},{"bike_id":"34d2bbc4-7203-40ae-84ac-fbb1f78f9955","system_id":"levelo_inurba_marseille","lat":43.2942,"lon":5.38618,"is_reserved":false,"is_disabled":false,"rental_uris":{"android":"levelo://app?vid=34d2bbc4-7203-40ae-84ac-fbb1f78f9955","ios":"levelo://app?vid=34d2bbc4-7203-40ae-84ac-fbb1f78f9955"},"vehicle_type_id":"4","last_reported":1690581961,"current_range_meters":18400,"station_id":"ce4bh2h2rcd13ifvqdh0","pricing_plan_id":"free"},{"bike_id":"0d329e96-63e6-425a-9f7e-759ac397fe4a","system_id":"levelo_inurba_marseille","lat":43.290327,"lon":5.375711,"is_reserved":false,"is_disabled":false,"rental_uris":{"android":"levelo://app?vid=0d329e96-63e6-425a-9f7e-759ac397fe4a","ios":"levelo://app?vid=0d329e96-63e6-425a-9f7e-759ac397fe4a"},"vehicle_type_id":"4","last_reported":1690581961,"current_range_meters":24800,"station_id":"ce4bh692rcd13ifvqe90","pricing_plan_id":"free"},{"bike_id":"4a52df8a-0e0d-462f-84ce-543dcd3f6da9","system_id":"levelo_inurba_marseille","lat":43.2942,"lon":5.38621,"is_reserved":false,"is_disabled":false,"rental_uris":{"android":"levelo://app?vid=4a52df8a-0e0d-462f-84ce-543dcd3f6da9","ios":"levelo://app?vid=4a52df8a-0e0d-462f-84ce-543dcd3f6da9"},"vehicle_type_id":"4","last_reported":1690581961,"current_range_meters":22000,"station_id":"ce4bh2h2rcd13ifvqdh0","pricing_plan_id":"free"},{"bike_id":"94fb4c4b-45d3-43db-ab16-0526fd076166","system_id":"levelo_inurba_marseille","lat":43.29419,"lon":5.38624,"is_reserved":false,"is_disabled":false,"rental_uris":{"android":"levelo://app?vid=94fb4c4b-45d3-43db-ab16-0526fd076166","ios":"levelo://app?vid=94fb4c4b-45d3-43db-ab16-0526fd076166"},"vehicle_type_id":"4","last_reported":1690581961,"current_range_meters":31200,"station_id":"ce4bh2h2rcd13ifvqdh0","pricing_plan_id":"free"},{"bike_id":"42b3ab20-e90b-4fbd-87e1-8042d70a6141","system_id":"levelo_inurba_marseille","lat":43.29417,"lon":5.38623,"is_reserved":false,"is_disabled":false,"rental_uris":{"android":"levelo://app?vid=42b3ab20-e90b-4fbd-87e1-8042d70a6141","ios":"levelo://app?vid=42b3ab20-e90b-4fbd-87e1-8042d70a6141"},"vehicle_type_id":"4","last_reported":1690581961,"current_range_meters":12400,"station_id":"ce4bh2h2rcd13ifvqdh0","pricing_plan_id":"free"},{"bike_id":"a413a036-60c9-4cb9-9ba5-470ea3eca817","system_id":"levelo_inurba_marseille","lat":43.29419,"lon":5.3863,"is_reserved":false,"is_disabled":false,"rental_uris":{"android":"levelo://app?vid=a413a036-60c9-4cb9-9ba5-470ea3eca817","ios":"levelo://app?vid=a413a036-60c9-4cb9-9ba5-470ea3eca817"},"vehicle_type_id":"4","last_reported":1690581961,"current_range_meters":18800,"station_id":"ce4bh2h2rcd13ifvqdh0","pricing_plan_id":"free"},{"bike_id":"b8f9d19c-dee0-441b-8fde-b91d2cda24af","system_id":"levelo_inurba_marseille","lat":43.29417,"lon":5.38628,"is_reserved":false,"is_disabled":false,"rental_uris":{"android":"levelo://app?vid=b8f9d19c-dee0-441b-8fde-b91d2cda24af","ios":"levelo://app?vid=b8f9d19c-dee0-441b-8fde-b91d2cda24af"},"vehicle_type_id":"4","last_reported":1690581961,"current_range_meters":31200,"station_id":"ce4bh2h2rcd13ifvqdh0","pricing_plan_id":"free"},{"bike_id":"85a4910c-0a6d-4483-b737-27f25f024128","system_id":"levelo_inurba_marseille","lat":43.29413,"lon":5.38622,"is_reserved":false,"is_disabled":false,"rental_uris":{"android":"levelo://app?vid=85a4910c-0a6d-4483-b737-27f25f024128","ios":"levelo://app?vid=85a4910c-0a6d-4483-b737-27f25f024128"},"vehicle_type_id":"4","last_reported":1690581961,"current_range_meters":24800,"station_id":"ce4bh2h2rcd13ifvqdh0","pricing_plan_id":"free"},{"bike_id":"cc4f369f-35e1-4c45-ae75-72a609469db1","system_id":"levelo_inurba_marseille","lat":43.29414,"lon":5.38624,"is_reserved":false,"is_disabled":false,"rental_uris":{"android":"levelo://app?vid=cc4f369f-35e1-4c45-ae75-72a609469db1","ios":"levelo://app?vid=cc4f369f-35e1-4c45-ae75-72a609469db1"},"vehicle_type_id":"4","last_reported":1690581961,"current_range_meters":15600,"station_id":"ce4bh2h2rcd13ifvqdh0","pricing_plan_id":"free"},{"bike_id":"7d3e8ccc-63d6-4724-bfec-900450a250da","system_id":"levelo_inurba_marseille","lat":43.29416,"lon":5.38628,"is_reserved":false,"is_disabled":false,"rental_uris":{"android":"levelo://app?vid=7d3e8ccc-63d6-4724-bfec-900450a250da","ios":"levelo://app?vid=7d3e8ccc-63d6-4724-bfec-900450a250da"},"vehicle_type_id":"4","last_reported":1690581961,"current_range_meters":1600,"station_id":"ce4bh2h2rcd13ifvqdh0","pricing_plan_id":"free"},{"bike_id":"e1fa4322-73bc-453a-a37a-fe3114b4ef4a","system_id":"levelo_inurba_marseille","lat":43.29418,"lon":5.38633,"is_reserved":false,"is_disabled":false,"rental_uris":{"android":"levelo://app?vid=e1fa4322-73bc-453a-a37a-fe3114b4ef4a","ios":"levelo://app?vid=e1fa4322-73bc-453a-a37a-fe3114b4ef4a"},"vehicle_type_id":"4","last_reported":1690581961,"current_range_meters":14000,"station_id":"ce4bh2h2rcd13ifvqdh0","pricing_plan_id":"free"},{"bike_id":"a7796d5b-b7ab-4bc0-afb8-1b449807b766","system_id":"levelo_inurba_marseille","lat":43.29418,"lon":5.38636,"is_reserved":false,"is_disabled":false,"rental_uris":{"android":"levelo://app?vid=a7796d5b-b7ab-4bc0-afb8-1b449807b766","ios":"levelo://app?vid=a7796d5b-b7ab-4bc0-afb8-1b449807b766"},"vehicle_type_id":"4","last_reported":1690581961,"current_range_meters":31200,"station_id":"ce4bh2h2rcd13ifvqdh0","pricing_plan_id":"free"},{"bike_id":"582e13de-6d69-42c1-b74f-40fdf82609e7","system_id":"levelo_inurba_marseille","lat":43.29417,"lon":5.38636,"is_reserved":false,"is_disabled":false,"rental_uris":{"android":"levelo://app?vid=582e13de-6d69-42c1-b74f-40fdf82609e7","ios":"levelo://app?vid=582e13de-6d69-42c1-b74f-40fdf82609e7"},"vehicle_type_id":"4","last_reported":1690581961,"current_range_meters":24400,"station_id":"ce4bh2h2rcd13ifvqdh0","pricing_plan_id":"free"},{"bike_id":"643e5f4a-91e3-4486-9456-a7e87e70a4d7","system_id":"levelo_inurba_marseille","lat":43.29414,"lon":5.38631,"is_reserved":false,"is_disabled":false,"rental_uris":{"android":"levelo://app?vid=643e5f4a-91e3-4486-9456-a7e87e70a4d7","ios":"levelo://app?vid=643e5f4a-91e3-4486-9456-a7e87e70a4d7"},"vehicle_type_id":"4","last_reported":1690581961,"current_range_meters":15200,"station_id":"ce4bh2h2rcd13ifvqdh0","pricing_plan_id":"free"},{"bike_id":"d7b64a9a-f514-4723-ba99-049465db62df","system_id":"levelo_inurba_marseille","lat":43.29413,"lon":5.38631,"is_reserved":false,"is_disabled":false,"rental_uris":{"android":"levelo://app?vid=d7b64a9a-f514-4723-ba99-049465db62df","ios":"levelo://app?vid=d7b64a9a-f514-4723-ba99-049465db62df"},"vehicle_type_id":"4","last_reported":1690581961,"current_range_meters":30000,"station_id":"ce4bh2h2rcd13ifvqdh0","pricing_plan_id":"free"},{"bike_id":"f3f00ae3-498e-472b-8722-349921f34e7b","system_id":"levelo_inurba_marseille","lat":43.29414,"lon":5.38634,"is_reserved":false,"is_disabled":false,"rental_uris":{"android":"levelo://app?vid=f3f00ae3-498e-472b-8722-349921f34e7b","ios":"levelo://app?vid=f3f00ae3-498e-472b-8722-349921f34e7b"},"vehicle_type_id":"4","last_reported":1690581961,"current_range_meters":31200,"station_id":"ce4bh2h2rcd13ifvqdh0","pricing_plan_id":"free"},{"bike_id":"ab28c488-1d57-4c33-aad1-f89482cfb3f3","system_id":"levelo_inurba_marseille","lat":43.29416,"lon":5.3864,"is_reserved":false,"is_disabled":false,"rental_uris":{"android":"levelo://app?vid=ab28c488-1d57-4c33-aad1-f89482cfb3f3","ios":"levelo://app?vid=ab28c488-1d57-4c33-aad1-f89482cfb3f3"},"vehicle_type_id":"4","last_reported":1690581961,"current_range_meters":16400,"station_id":"ce4bh2h2rcd13ifvqdh0","pricing_plan_id":"free"},{"bike_id":"8dc0af34-2fc1-4138-8d3c-c4c25035f5ea","system_id":"levelo_inurba_marseille","lat":43.289468,"lon":5.363719,"is_reserved":false,"is_disabled":false,"rental_uris":{"android":"levelo://app?vid=8dc0af34-2fc1-4138-8d3c-c4c25035f5ea","ios":"levelo://app?vid=8dc0af34-2fc1-4138-8d3c-c4c25035f5ea"},"vehicle_type_id":"4","last_reported":1690581961,"current_range_meters":5600,"station_id":"ce4bhc92rcd13ifvqetg","pricing_plan_id":"free"},{"bike_id":"a3d1bce0-890f-4bcd-a12c-bfea9902af9f","system_id":"levelo_inurba_marseille","lat":43.289468,"lon":5.363719,"is_reserved":false,"is_disabled":false,"rental_uris":{"android":"levelo://app?vid=a3d1bce0-890f-4bcd-a12c-bfea9902af9f","ios":"levelo://app?vid=a3d1bce0-890f-4bcd-a12c-bfea9902af9f"},"vehicle_type_id":"4","last_reported":1690581961,"current_range_meters":24000,"station_id":"ce4bhc92rcd13ifvqetg","pricing_plan_id":"free"},{"bike_id":"b232e831-da3c-41cd-86bf-0298618bd123","system_id":"levelo_inurba_marseille","lat":43.29277,"lon":5.38439,"is_reserved":false,"is_disabled":false,"rental_uris":{"android":"levelo://app?vid=b232e831-da3c-41cd-86bf-0298618bd123","ios":"levelo://app?vid=b232e831-da3c-41cd-86bf-0298618bd123"},"vehicle_type_id":"4","last_reported":1690581961,"current_range_meters":31200,"station_id":"ce4bh692rcd13ifvqea0","pricing_plan_id":"free"},{"bike_id":"d29cf246-f764-4186-b4b4-7b5c81661a4a","system_id":"levelo_inurba_marseille","lat":43.29277,"lon":5.38439,"is_reserved":false,"is_disabled":false,"rental_uris":{"android":"levelo://app?vid=d29cf246-f764-4186-b4b4-7b5c81661a4a","ios":"levelo://app?vid=d29cf246-f764-4186-b4b4-7b5c81661a4a"},"vehicle_type_id":"4","last_reported":1690581961,"current_range_meters":12800,"station_id":"ce4bh692rcd13ifvqea0","pricing_plan_id":"free"},{"bike_id":"8475b491-afe7-4c9f-924a-51d9e0baf780","system_id":"levelo_inurba_marseille","lat":43.29276,"lon":5.38441,"is_reserved":false,"is_disabled":false,"rental_uris":{"android":"levelo://app?vid=8475b491-afe7-4c9f-924a-51d9e0baf780","ios":"levelo://app?vid=8475b491-afe7-4c9f-924a-51d9e0baf780"},"vehicle_type_id":"4","last_reported":1690581961,"current_range_meters":17200,"station_id":"ce4bh692rcd13ifvqea0","pricing_plan_id":"free"},{"bike_id":"100a46fd-2e86-4716-955c-81059df410b1","system_id":"levelo_inurba_marseille","lat":43.29275,"lon":5.38439,"is_reserved":false,"is_disabled":false,"rental_uris":{"android":"levelo://app?vid=100a46fd-2e86-4716-955c-81059df410b1","ios":"levelo://app?vid=100a46fd-2e86-4716-955c-81059df410b1"},"vehicle_type_id":"4","last_reported":1690581961,"current_range_meters":20400,"station_id":"ce4bh692rcd13ifvqea0","pricing_plan_id":"free"},{"bike_id":"1941a5e4-1806-4da4-b37c-d63a61dcac8e","system_id":"levelo_inurba_marseille","lat":43.29275,"lon":5.38444,"is_reserved":false,"is_disabled":false,"rental_uris":{"android":"levelo://app?vid=1941a5e4-1806-4da4-b37c-d63a61dcac8e","ios":"levelo://app?vid=1941a5e4-1806-4da4-b37c-d63a61dcac8e"},"vehicle_type_id":"4","last_reported":1690581961,"current_range_meters":31200,"station_id":"ce4bh692rcd13ifvqea0","pricing_plan_id":"free"},{"bike_id":"ad8844e2-9259-47f7-8f40-fa484d6c5a98","system_id":"levelo_inurba_marseille","lat":43.29272,"lon":5.3844,"is_reserved":false,"is_disabled":false,"rental_uris":{"android":"levelo://app?vid=ad8844e2-9259-47f7-8f40-fa484d6c5a98","ios":"levelo://app?vid=ad8844e2-9259-47f7-8f40-fa484d6c5a98"},"vehicle_type_id":"4","last_reported":1690581961,"current_range_meters":16800,"station_id":"ce4bh692rcd13ifvqea0","pricing_plan_id":"free"},{"bike_id":"a198fc6a-9e76-4fd2-ac25-36eddb569a79","system_id":"levelo_inurba_marseille","lat":43.29271,"lon":5.38438,"is_reserved":false,"is_disabled":false,"rental_uris":{"android":"levelo://app?vid=a198fc6a-9e76-4fd2-ac25-36eddb569a79","ios":"levelo://app?vid=a198fc6a-9e76-4fd2-ac25-36eddb569a79"},"vehicle_type_id":"4","last_reported":1690581961,"current_range_meters":16400,"station_id":"ce4bh692rcd13ifvqea0","pricing_plan_id":"free"},{"bike_id":"60bed48c-d0b2-4ae3-b11d-912784b64cf3","system_id":"levelo_inurba_marseille","lat":43.29273,"lon":5.38444,"is_reserved":false,"is_disabled":false,"rental_uris":{"android":"levelo://app?vid=60bed48c-d0b2-4ae3-b11d-912784b64cf3","ios":"levelo://app?vid=60bed48c-d0b2-4ae3-b11d-912784b64cf3"},"vehicle_type_id":"4","last_reported":1690581961,"current_range_meters":16000,"station_id":"ce4bh692rcd13ifvqea0","pricing_plan_id":"free"},{"bike_id":"f5ba2464-2934-4cd2-bdfb-864c7245cf3e","system_id":"levelo_inurba_marseille","lat":43.29272,"lon":5.38446,"is_reserved":false,"is_disabled":false,"rental_uris":{"android":"levelo://app?vid=f5ba2464-2934-4cd2-bdfb-864c7245cf3e","ios":"levelo://app?vid=f5ba2464-2934-4cd2-bdfb-864c7245cf3e"},"vehicle_type_id":"4","last_reported":1690581961,"current_range_meters":19200,"station_id":"ce4bh692rcd13ifvqea0","pricing_plan_id":"free"},{"bike_id":"0781b141-59ff-498a-bd4e-0746bb0d8f36","system_id":"levelo_inurba_marseille","lat":43.29271,"lon":5.38446,"is_reserved":false,"is_disabled":false,"rental_uris":{"android":"levelo://app?vid=0781b141-59ff-498a-bd4e-0746bb0d8f36","ios":"levelo://app?vid=0781b141-59ff-498a-bd4e-0746bb0d8f36"},"vehicle_type_id":"4","last_reported":1690581961,"current_range_meters":24400,"station_id":"ce4bh692rcd13ifvqea0","pricing_plan_id":"free"},{"bike_id":"4beb12ee-2fc7-4c9f-ad4f-9980de6c9ac5","system_id":"levelo_inurba_marseille","lat":43.292635,"lon":5.384321,"is_reserved":false,"is_disabled":false,"rental_uris":{"android":"levelo://app?vid=4beb12ee-2fc7-4c9f-ad4f-9980de6c9ac5","ios":"levelo://app?vid=4beb12ee-2fc7-4c9f-ad4f-9980de6c9ac5"},"vehicle_type_id":"4","last_reported":1690581961,"current_range_meters":15600,"station_id":"ce4bhgp2rcd13ifvqfe0","pricing_plan_id":"free"},{"bike_id":"e87c3b09-31e3-457f-a6d2-76d039a1d840","system_id":"levelo_inurba_marseille","lat":43.29268,"lon":5.38442,"is_reserved":false,"is_disabled":false,"rental_uris":{"android":"levelo://app?vid=e87c3b09-31e3-457f-a6d2-76d039a1d840","ios":"levelo://app?vid=e87c3b09-31e3-457f-a6d2-76d039a1d840"},"vehicle_type_id":"4","last_reported":1690581961,"current_range_meters":16000,"station_id":"ce4bh692rcd13ifvqea0","pricing_plan_id":"free"},{"bike_id":"b0d75e03-2bde-44f9-88c4-e7b9618a0fa6","system_id":"levelo_inurba_marseille","lat":43.2927,"lon":5.38448,"is_reserved":false,"is_disabled":false,"rental_uris":{"android":"levelo://app?vid=b0d75e03-2bde-44f9-88c4-e7b9618a0fa6","ios":"levelo://app?vid=b0d75e03-2bde-44f9-88c4-e7b9618a0fa6"},"vehicle_type_id":"4","last_reported":1690581961,"current_range_meters":31200,"station_id":"ce4bh692rcd13ifvqea0","pricing_plan_id":"free"},{"bike_id":"1fa4dee0-eb4c-408a-b1f3-e997b2db1d8e","system_id":"levelo_inurba_marseille","lat":43.304274,"lon":5.397513,"is_reserved":false,"is_disabled":false,"rental_uris":{"android":"levelo://app?vid=1fa4dee0-eb4c-408a-b1f3-e997b2db1d8e","ios":"levelo://app?vid=1fa4dee0-eb4c-408a-b1f3-e997b2db1d8e"},"vehicle_type_id":"4","last_reported":1690581961,"current_range_meters":22800,"station_id":"ce4bh092rcd13ifvqd20","pricing_plan_id":"free"},{"bike_id":"cfe8f652-fe8d-4932-9fbf-7e4a5e1de500","system_id":"levelo_inurba_marseille","lat":43.29261,"lon":5.38432,"is_reserved":false,"is_disabled":false,"rental_uris":{"android":"levelo://app?vid=cfe8f652-fe8d-4932-9fbf-7e4a5e1de500","ios":"levelo://app?vid=cfe8f652-fe8d-4932-9fbf-7e4a5e1de500"},"vehicle_type_id":"4","last_reported":1690581961,"current_range_meters":16800,"station_id":"ce4bh692rcd13ifvqea0","pricing_plan_id":"free"},{"bike_id":"e907bde7-77f0-42db-90dd-952dc1e83be9","system_id":"levelo_inurba_marseille","lat":43.29263,"lon":5.38437,"is_reserved":false,"is_disabled":false,"rental_uris":{"android":"levelo://app?vid=e907bde7-77f0-42db-90dd-952dc1e83be9","ios":"levelo://app?vid=e907bde7-77f0-42db-90dd-952dc1e83be9"},"vehicle_type_id":"4","last_reported":1690581961,"current_range_meters":3600,"station_id":"ce4bh692rcd13ifvqea0","pricing_plan_id":"free"},{"bike_id":"3ae35f98-e668-4d7d-8f86-05523f3f04d9","system_id":"levelo_inurba_marseille","lat":43.29265,"lon":5.38443,"is_reserved":false,"is_disabled":false,"rental_uris":{"android":"levelo://app?vid=3ae35f98-e668-4d7d-8f86-05523f3f04d9","ios":"levelo://app?vid=3ae35f98-e668-4d7d-8f86-05523f3f04d9"},"vehicle_type_id":"4","last_reported":1690581961,"current_range_meters":31200,"station_id":"ce4bh692rcd13ifvqea0","pricing_plan_id":"free"},{"bike_id":"4233d35b-945e-400d-abc7-76ce390c7486","system_id":"levelo_inurba_marseille","lat":43.304274,"lon":5.397513,"is_reserved":false,"is_disabled":false,"rental_uris":{"android":"levelo://app?vid=4233d35b-945e-400d-abc7-76ce390c7486","ios":"levelo://app?vid=4233d35b-945e-400d-abc7-76ce390c7486"},"vehicle_type_id":"4","last_reported":1690581961,"current_range_meters":17600,"station_id":"ce4bh092rcd13ifvqd20","pricing_plan_id":"free"},{"bike_id":"e157a7fc-f437-4171-a058-19c2c3bbfa96","system_id":"levelo_inurba_marseille","lat":43.304296,"lon":5.397513,"is_reserved":false,"is_disabled":false,"rental_uris":{"android":"levelo://app?vid=e157a7fc-f437-4171-a058-19c2c3bbfa96","ios":"levelo://app?vid=e157a7fc-f437-4171-a058-19c2c3bbfa96"},"vehicle_type_id":"4","last_reported":1690581961,"current_range_meters":10400,"station_id":"ce4bh092rcd13ifvqd20","pricing_plan_id":"free"},{"bike_id":"e1abaf2d-c31c-4c12-b4ec-5dd51f9510e3","system_id":"levelo_inurba_marseille","lat":43.29263,"lon":5.38446,"is_reserved":false,"is_disabled":false,"rental_uris":{"android":"levelo://app?vid=e1abaf2d-c31c-4c12-b4ec-5dd51f9510e3","ios":"levelo://app?vid=e1abaf2d-c31c-4c12-b4ec-5dd51f9510e3"},"vehicle_type_id":"4","last_reported":1690581961,"current_range_meters":11200,"station_id":"ce4bh692rcd13ifvqea0","pricing_plan_id":"free"},{"bike_id":"fe4009b9-efb1-423f-b864-35656ff3e6df","system_id":"levelo_inurba_marseille","lat":43.304296,"lon":5.397513,"is_reserved":false,"is_disabled":false,"rental_uris":{"android":"levelo://app?vid=fe4009b9-efb1-423f-b864-35656ff3e6df","ios":"levelo://app?vid=fe4009b9-efb1-423f-b864-35656ff3e6df"},"vehicle_type_id":"4","last_reported":1690581961,"current_range_meters":9200,"station_id":"ce4bh092rcd13ifvqd20","pricing_plan_id":"free"},{"bike_id":"fd79cb77-5f58-4c0f-ae71-e7b798d45d62","system_id":"levelo_inurba_marseille","lat":43.33045,"lon":5.38913,"is_reserved":false,"is_disabled":false,"rental_uris":{"android":"levelo://app?vid=fd79cb77-5f58-4c0f-ae71-e7b798d45d62","ios":"levelo://app?vid=fd79cb77-5f58-4c0f-ae71-e7b798d45d62"},"vehicle_type_id":"4","last_reported":1690581961,"current_range_meters":11200,"station_id":"ce4bhr92rcd13ifvqhrg","pricing_plan_id":"free"},{"bike_id":"7831b652-2a43-40c8-8910-bc63c074921f","system_id":"levelo_inurba_marseille","lat":43.330442,"lon":5.389148,"is_reserved":false,"is_disabled":false,"rental_uris":{"android":"levelo://app?vid=7831b652-2a43-40c8-8910-bc63c074921f","ios":"levelo://app?vid=7831b652-2a43-40c8-8910-bc63c074921f"},