{"last_updated":1741126113,"ttl":60,"version":"2.2","data":{"bikes":[{"bike_id":"51cd10ef-cb10-401c-a5d1-98eae4729644","system_id":"levelo_inurba_marseille","lat":43.27936,"lon":5.38723,"is_reserved":false,"is_disabled":true,"rental_uris":{"android":"levelo://app?vid=51cd10ef-cb10-401c-a5d1-98eae4729644","ios":"levelo://app?vid=51cd10ef-cb10-401c-a5d1-98eae4729644"},"vehicle_type_id":"4","last_reported":1741126113,"current_range_meters":2800,"station_id":"ce4bhg12rcd13ifvqf80","pricing_plan_id":"cebpf4jnsgd1na2vs0mg"},{"bike_id":"3b592065-43a4-406e-9fdb-ffe4c42b5c76","system_id":"levelo_inurba_marseille","lat":43.26219,"lon":5.40444,"is_reserved":false,"is_disabled":true,"rental_uris":{"android":"levelo://app?vid=3b592065-43a4-406e-9fdb-ffe4c42b5c76","ios":"levelo://app?vid=3b592065-43a4-406e-9fdb-ffe4c42b5c76"},"vehicle_type_id":"4","last_reported":1741126113,"current_range_meters":2800,"station_id":"ce4bhmh2rcd13ifvqgmg","pricing_plan_id":"cebpf4jnsgd1na2vs0mg"},{"bike_id":"66cd4363-08cc-4826-8a77-b569fa4aa42d","system_id":"levelo_inurba_marseille","lat":43.28698,"lon":5.39983,"is_reserved":false,"is_disabled":false,"rental_uris":{"android":"levelo://app?vid=66cd4363-08cc-4826-8a77-b569fa4aa42d","ios":"levelo://app?vid=66cd4363-08cc-4826-8a77-b569fa4aa42d"},"vehicle_type_id":"4","last_reported":1741126113,"current_range_meters":3200,"station_id":"ce4bho92rcd13ifvqh3g","pricing_plan_id":"cebpf4jnsgd1na2vs0mg"},{"bike_id":"877b21a6-7be2-4070-90d2-f33eb7f2dcef","system_id":"levelo_inurba_marseille","lat":43.2955,"lon":5.42289,"is_reserved":false,"is_disabled":false,"rental_uris":{"android":"levelo://app?vid=877b21a6-7be2-4070-90d2-f33eb7f2dcef","ios":"levelo://app?vid=877b21a6-7be2-4070-90d2-f33eb7f2dcef"},"vehicle_type_id":"4","last_reported":1741126113,"current_range_meters":3200,"station_id":"ce4bhph2rcd13ifvqhdg","pricing_plan_id":"cebpf4jnsgd1na2vs0mg"},{"bike_id":"c5e8cd2d-bc8c-432b-b100-b523341f5479","system_id":"levelo_inurba_marseille","lat":43.308564,"lon":5.385703,"is_reserved":false,"is_disabled":true,"rental_uris":{"android":"levelo://app?vid=c5e8cd2d-bc8c-432b-b100-b523341f5479","ios":"levelo://app?vid=c5e8cd2d-bc8c-432b-b100-b523341f5479"},"vehicle_type_id":"4","last_reported":1741126113,"current_range_meters":3600,"station_id":"","pricing_plan_id":"cebpf4jnsgd1na2vs0mg"},{"bike_id":"e7ec1ac1-2323-47bd-a2b5-7cd3afb282cf","system_id":"levelo_inurba_marseille","lat":43.26953,"lon":5.36672,"is_reserved":false,"is_disabled":false,"rental_uris":{"android":"levelo://app?vid=e7ec1ac1-2323-47bd-a2b5-7cd3afb282cf","ios":"levelo://app?vid=e7ec1ac1-2323-47bd-a2b5-7cd3afb282cf"},"vehicle_type_id":"4","last_reported":1741126113,"current_range_meters":4000,"station_id":"","pricing_plan_id":"cebpf4jnsgd1na2vs0mg"},{"bike_id":"52cd5871-7a5b-4398-91a3-580577120244","system_id":"levelo_inurba_marseille","lat":43.284,"lon":5.3752,"is_reserved":false,"is_disabled":true,"rental_uris":{"android":"levelo://app?vid=52cd5871-7a5b-4398-91a3-580577120244","ios":"levelo://app?vid=52cd5871-7a5b-4398-91a3-580577120244"},"vehicle_type_id":"4","last_reported":1741126113,"current_range_meters":4000,"station_id":"ce4bh412rcd13ifvqds0","pricing_plan_id":"cebpf4jnsgd1na2vs0mg"},{"bike_id":"152d683e-031b-4eee-baa6-18566dd1e3bb","system_id":"levelo_inurba_marseille","lat":43.30882,"lon":5.3957,"is_reserved":false,"is_disabled":false,"rental_uris":{"android":"levelo://app?vid=152d683e-031b-4eee-baa6-18566dd1e3bb","ios":"levelo://app?vid=152d683e-031b-4eee-baa6-18566dd1e3bb"},"vehicle_type_id":"4","last_reported":1741126113,"current_range_meters":4400,"station_id":"ce4bh012rcd13ifvqcv0","pricing_plan_id":"cebpf4jnsgd1na2vs0mg"},{"bike_id":"219d62ce-7b93-4c64-8d23-3e9d98cebec8","system_id":"levelo_inurba_marseille","lat":43.23194,"lon":5.39969,"is_reserved":false,"is_disabled":false,"rental_uris":{"android":"levelo://app?vid=219d62ce-7b93-4c64-8d23-3e9d98cebec8","ios":"levelo://app?vid=219d62ce-7b93-4c64-8d23-3e9d98cebec8"},"vehicle_type_id":"4","last_reported":1741126113,"current_range_meters":4400,"station_id":"ce4bhn12rcd13ifvqgqg","pricing_plan_id":"cebpf4jnsgd1na2vs0mg"},{"bike_id":"e63e5fb2-1553-47f6-9ba9-b9fe49bde62f","system_id":"levelo_inurba_marseille","lat":43.27974,"lon":5.38747,"is_reserved":false,"is_disabled":false,"rental_uris":{"android":"levelo://app?vid=e63e5fb2-1553-47f6-9ba9-b9fe49bde62f","ios":"levelo://app?vid=e63e5fb2-1553-47f6-9ba9-b9fe49bde62f"},"vehicle_type_id":"4","last_reported":1741126113,"current_range_meters":4400,"station_id":"ce4bhg12rcd13ifvqf80","pricing_plan_id":"cebpf4jnsgd1na2vs0mg"},{"bike_id":"3fdc9a7e-2885-4db2-b302-c77e590b4771","system_id":"levelo_inurba_marseille","lat":43.31028,"lon":5.37563,"is_reserved":false,"is_disabled":false,"rental_uris":{"android":"levelo://app?vid=3fdc9a7e-2885-4db2-b302-c77e590b4771","ios":"levelo://app?vid=3fdc9a7e-2885-4db2-b302-c77e590b4771"},"vehicle_type_id":"4","last_reported":1741126113,"current_range_meters":4400,"station_id":"","pricing_plan_id":"cebpf4jnsgd1na2vs0mg"},{"bike_id":"e65082d6-5529-479d-9979-0976e546b0b6","system_id":"levelo_inurba_marseille","lat":43.25601,"lon":5.38215,"is_reserved":false,"is_disabled":false,"rental_uris":{"android":"levelo://app?vid=e65082d6-5529-479d-9979-0976e546b0b6","ios":"levelo://app?vid=e65082d6-5529-479d-9979-0976e546b0b6"},"vehicle_type_id":"4","last_reported":1741126113,"current_range_meters":4800,"station_id":"ce4bhih2rcd13ifvqfs0","pricing_plan_id":"cebpf4jnsgd1na2vs0mg"},{"bike_id":"8bbef58b-16f0-4a65-a671-648d74f284f0","system_id":"levelo_inurba_marseille","lat":43.26514,"lon":5.39551,"is_reserved":false,"is_disabled":false,"rental_uris":{"android":"levelo://app?vid=8bbef58b-16f0-4a65-a671-648d74f284f0","ios":"levelo://app?vid=8bbef58b-16f0-4a65-a671-648d74f284f0"},"vehicle_type_id":"4","last_reported":1741126113,"current_range_meters":4800,"station_id":"ce4bhi12rcd13ifvqfq0","pricing_plan_id":"cebpf4jnsgd1na2vs0mg"},{"bike_id":"905da3b5-ffda-4093-b252-634c59f7dd89","system_id":"levelo_inurba_marseille","lat":43.28613,"lon":5.35097,"is_reserved":false,"is_disabled":false,"rental_uris":{"android":"levelo://app?vid=905da3b5-ffda-4093-b252-634c59f7dd89","ios":"levelo://app?vid=905da3b5-ffda-4093-b252-634c59f7dd89"},"vehicle_type_id":"4","last_reported":1741126113,"current_range_meters":5600,"station_id":"ce4bhch2rcd13ifvqeug","pricing_plan_id":"cebpf4jnsgd1na2vs0mg"},{"bike_id":"bfe26a9a-f533-4fbe-b0b6-95a1e95a5f24","system_id":"levelo_inurba_marseille","lat":43.28076,"lon":5.39666,"is_reserved":false,"is_disabled":true,"rental_uris":{"android":"levelo://app?vid=bfe26a9a-f533-4fbe-b0b6-95a1e95a5f24","ios":"levelo://app?vid=bfe26a9a-f533-4fbe-b0b6-95a1e95a5f24"},"vehicle_type_id":"4","last_reported":1741126113,"current_range_meters":5600,"station_id":"ce4bho12rcd13ifvqh2g","pricing_plan_id":"cebpf4jnsgd1na2vs0mg"},{"bike_id":"1816717f-7f3a-4645-a53a-e691c8067442","system_id":"levelo_inurba_marseille","lat":43.31275,"lon":5.40168,"is_reserved":false,"is_disabled":true,"rental_uris":{"android":"levelo://app?vid=1816717f-7f3a-4645-a53a-e691c8067442","ios":"levelo://app?vid=1816717f-7f3a-4645-a53a-e691c8067442"},"vehicle_type_id":"4","last_reported":1741126113,"current_range_meters":5600,"station_id":"ce4bh092rcd13ifvqd30","pricing_plan_id":"cebpf4jnsgd1na2vs0mg"},{"bike_id":"79687e17-5ece-4f9c-9252-898196d1c2cb","system_id":"levelo_inurba_marseille","lat":43.29892,"lon":5.38506,"is_reserved":false,"is_disabled":false,"rental_uris":{"android":"levelo://app?vid=79687e17-5ece-4f9c-9252-898196d1c2cb","ios":"levelo://app?vid=79687e17-5ece-4f9c-9252-898196d1c2cb"},"vehicle_type_id":"4","last_reported":1741126113,"current_range_meters":5600,"station_id":"","pricing_plan_id":"cebpf4jnsgd1na2vs0mg"},{"bike_id":"3199d0b1-1880-4a09-9b73-b476aef89546","system_id":"levelo_inurba_marseille","lat":43.29975,"lon":5.3717,"is_reserved":false,"is_disabled":true,"rental_uris":{"android":"levelo://app?vid=3199d0b1-1880-4a09-9b73-b476aef89546","ios":"levelo://app?vid=3199d0b1-1880-4a09-9b73-b476aef89546"},"vehicle_type_id":"4","last_reported":1741126113,"current_range_meters":5600,"station_id":"ce4bgr92rcd13ifvqc7g","pricing_plan_id":"cebpf4jnsgd1na2vs0mg"},{"bike_id":"81837559-78cb-4a14-a847-89a84b64c16b","system_id":"levelo_inurba_marseille","lat":43.25011,"lon":5.38901,"is_reserved":false,"is_disabled":false,"rental_uris":{"android":"levelo://app?vid=81837559-78cb-4a14-a847-89a84b64c16b","ios":"levelo://app?vid=81837559-78cb-4a14-a847-89a84b64c16b"},"vehicle_type_id":"4","last_reported":1741126113,"current_range_meters":5600,"station_id":"ce4bhgp2rcd13ifvqfd0","pricing_plan_id":"cebpf4jnsgd1na2vs0mg"},{"bike_id":"09c8dc9f-c3a7-4e22-a7b9-ef2e31aca175","system_id":"levelo_inurba_marseille","lat":43.30945,"lon":5.40133,"is_reserved":false,"is_disabled":false,"rental_uris":{"android":"levelo://app?vid=09c8dc9f-c3a7-4e22-a7b9-ef2e31aca175","ios":"levelo://app?vid=09c8dc9f-c3a7-4e22-a7b9-ef2e31aca175"},"vehicle_type_id":"4","last_reported":1741126113,"current_range_meters":5600,"station_id":"ce4bgvp2rcd13ifvqct0","pricing_plan_id":"cebpf4jnsgd1na2vs0mg"},{"bike_id":"5d6e7723-8748-47b1-a15b-5c719e60614f","system_id":"levelo_inurba_marseille","lat":43.30782,"lon":5.43533,"is_reserved":false,"is_disabled":false,"rental_uris":{"android":"levelo://app?vid=5d6e7723-8748-47b1-a15b-5c719e60614f","ios":"levelo://app?vid=5d6e7723-8748-47b1-a15b-5c719e60614f"},"vehicle_type_id":"4","last_reported":1741126113,"current_range_meters":5600,"station_id":"ce4bhph2rcd13ifvqheg","pricing_plan_id":"cebpf4jnsgd1na2vs0mg"},{"bike_id":"cdfb91ec-7ee7-41b1-b614-7969d8e9230c","system_id":"levelo_inurba_marseille","lat":43.27996,"lon":5.40468,"is_reserved":false,"is_disabled":true,"rental_uris":{"android":"levelo://app?vid=cdfb91ec-7ee7-41b1-b614-7969d8e9230c","ios":"levelo://app?vid=cdfb91ec-7ee7-41b1-b614-7969d8e9230c"},"vehicle_type_id":"4","last_reported":1741126113,"current_range_meters":5600,"station_id":"","pricing_plan_id":"cebpf4jnsgd1na2vs0mg"},{"bike_id":"ce8ef3d2-07e3-4512-8813-bcde53a01429","system_id":"levelo_inurba_marseille","lat":43.24187,"lon":5.36366,"is_reserved":false,"is_disabled":false,"rental_uris":{"android":"levelo://app?vid=ce8ef3d2-07e3-4512-8813-bcde53a01429","ios":"levelo://app?vid=ce8ef3d2-07e3-4512-8813-bcde53a01429"},"vehicle_type_id":"4","last_reported":1741126113,"current_range_meters":6000,"station_id":"cpo36qri1sfpv3e86is0","pricing_plan_id":"cebpf4jnsgd1na2vs0mg"},{"bike_id":"9e6dbc2a-80eb-443b-bb2c-7b14a1ecc330","system_id":"levelo_inurba_marseille","lat":43.26834,"lon":5.40251,"is_reserved":false,"is_disabled":false,"rental_uris":{"android":"levelo://app?vid=9e6dbc2a-80eb-443b-bb2c-7b14a1ecc330","ios":"levelo://app?vid=9e6dbc2a-80eb-443b-bb2c-7b14a1ecc330"},"vehicle_type_id":"4","last_reported":1741126113,"current_range_meters":6000,"station_id":"ce501612rcd8frsf0b60","pricing_plan_id":"cebpf4jnsgd1na2vs0mg"},{"bike_id":"771552a7-ab8d-491e-9bd8-ee533f6ca525","system_id":"levelo_inurba_marseille","lat":43.23148,"lon":5.43716,"is_reserved":false,"is_disabled":false,"rental_uris":{"android":"levelo://app?vid=771552a7-ab8d-491e-9bd8-ee533f6ca525","ios":"levelo://app?vid=771552a7-ab8d-491e-9bd8-ee533f6ca525"},"vehicle_type_id":"4","last_reported":1741126113,"current_range_meters":6000,"station_id":"ce4bhmp2rcd13ifvqgog","pricing_plan_id":"cebpf4jnsgd1na2vs0mg"},{"bike_id":"4a0af5ae-37f5-487c-8467-5f26b3bc48e8","system_id":"levelo_inurba_marseille","lat":43.30705,"lon":5.38082,"is_reserved":false,"is_disabled":false,"rental_uris":{"android":"levelo://app?vid=4a0af5ae-37f5-487c-8467-5f26b3bc48e8","ios":"levelo://app?vid=4a0af5ae-37f5-487c-8467-5f26b3bc48e8"},"vehicle_type_id":"4","last_reported":1741126113,"current_range_meters":6000,"station_id":"","pricing_plan_id":"cebpf4jnsgd1na2vs0mg"},{"bike_id":"ecddc8a7-91af-4ea4-ba05-c8a5c9a398e9","system_id":"levelo_inurba_marseille","lat":43.31722,"lon":5.42408,"is_reserved":false,"is_disabled":false,"rental_uris":{"android":"levelo://app?vid=ecddc8a7-91af-4ea4-ba05-c8a5c9a398e9","ios":"levelo://app?vid=ecddc8a7-91af-4ea4-ba05-c8a5c9a398e9"},"vehicle_type_id":"4","last_reported":1741126113,"current_range_meters":6400,"station_id":"ce4bhp92rcd13ifvqhbg","pricing_plan_id":"cebpf4jnsgd1na2vs0mg"},{"bike_id":"10d61af2-a218-4397-b179-939c5dec9f2f","system_id":"levelo_inurba_marseille","lat":43.26485,"lon":5.39568,"is_reserved":false,"is_disabled":false,"rental_uris":{"android":"levelo://app?vid=10d61af2-a218-4397-b179-939c5dec9f2f","ios":"levelo://app?vid=10d61af2-a218-4397-b179-939c5dec9f2f"},"vehicle_type_id":"4","last_reported":1741126113,"current_range_meters":6400,"station_id":"ce4bhi12rcd13ifvqfq0","pricing_plan_id":"cebpf4jnsgd1na2vs0mg"},{"bike_id":"13c44e5e-5463-4505-ba1b-c0544af7d8ca","system_id":"levelo_inurba_marseille","lat":43.2319,"lon":5.35576,"is_reserved":false,"is_disabled":false,"rental_uris":{"android":"levelo://app?vid=13c44e5e-5463-4505-ba1b-c0544af7d8ca","ios":"levelo://app?vid=13c44e5e-5463-4505-ba1b-c0544af7d8ca"},"vehicle_type_id":"4","last_reported":1741126113,"current_range_meters":6400,"station_id":"ce4bhu92rcd13ifvqi70","pricing_plan_id":"cebpf4jnsgd1na2vs0mg"},{"bike_id":"c1c6d331-bef2-4ec2-b58e-cea42d9b5662","system_id":"levelo_inurba_marseille","lat":43.26786,"lon":5.39456,"is_reserved":false,"is_disabled":true,"rental_uris":{"android":"levelo://app?vid=c1c6d331-bef2-4ec2-b58e-cea42d9b5662","ios":"levelo://app?vid=c1c6d331-bef2-4ec2-b58e-cea42d9b5662"},"vehicle_type_id":"4","last_reported":1741126113,"current_range_meters":6800,"station_id":"ce4bhh12rcd13ifvqfg0","pricing_plan_id":"cebpf4jnsgd1na2vs0mg"},{"bike_id":"83e13657-2b1f-4b00-8276-03c45d12c05c","system_id":"levelo_inurba_marseille","lat":43.2322,"lon":5.40003,"is_reserved":false,"is_disabled":false,"rental_uris":{"android":"levelo://app?vid=83e13657-2b1f-4b00-8276-03c45d12c05c","ios":"levelo://app?vid=83e13657-2b1f-4b00-8276-03c45d12c05c"},"vehicle_type_id":"4","last_reported":1741126113,"current_range_meters":6800,"station_id":"ce4bhn12rcd13ifvqgqg","pricing_plan_id":"cebpf4jnsgd1na2vs0mg"},{"bike_id":"20d1a78d-5f17-41db-b09b-679046e6747a","system_id":"levelo_inurba_marseille","lat":43.29455,"lon":5.3973,"is_reserved":false,"is_disabled":false,"rental_uris":{"android":"levelo://app?vid=20d1a78d-5f17-41db-b09b-679046e6747a","ios":"levelo://app?vid=20d1a78d-5f17-41db-b09b-679046e6747a"},"vehicle_type_id":"4","last_reported":1741126113,"current_range_meters":6800,"station_id":"","pricing_plan_id":"cebpf4jnsgd1na2vs0mg"},{"bike_id":"2b727256-25ff-4594-9b1f-a673836ac7cc","system_id":"levelo_inurba_marseille","lat":43.28667,"lon":5.38658,"is_reserved":false,"is_disabled":false,"rental_uris":{"android":"levelo://app?vid=2b727256-25ff-4594-9b1f-a673836ac7cc","ios":"levelo://app?vid=2b727256-25ff-4594-9b1f-a673836ac7cc"},"vehicle_type_id":"4","last_reported":1741126113,"current_range_meters":6800,"station_id":"ce4bh492rcd13ifvqdug","pricing_plan_id":"cebpf4jnsgd1na2vs0mg"},{"bike_id":"0d96420a-e9fb-4106-a142-1e100df6f8c3","system_id":"levelo_inurba_marseille","lat":43.28718,"lon":5.36082,"is_reserved":false,"is_disabled":false,"rental_uris":{"android":"levelo://app?vid=0d96420a-e9fb-4106-a142-1e100df6f8c3","ios":"levelo://app?vid=0d96420a-e9fb-4106-a142-1e100df6f8c3"},"vehicle_type_id":"4","last_reported":1741126113,"current_range_meters":6800,"station_id":"cki0cbj6b192h4jlfktg","pricing_plan_id":"cebpf4jnsgd1na2vs0mg"},{"bike_id":"4ca12a71-1cf0-4991-b0f9-f8da3b9a9e30","system_id":"levelo_inurba_marseille","lat":43.27968,"lon":5.38734,"is_reserved":false,"is_disabled":false,"rental_uris":{"android":"levelo://app?vid=4ca12a71-1cf0-4991-b0f9-f8da3b9a9e30","ios":"levelo://app?vid=4ca12a71-1cf0-4991-b0f9-f8da3b9a9e30"},"vehicle_type_id":"4","last_reported":1741126113,"current_range_meters":6800,"station_id":"ce4bhg12rcd13ifvqf80","pricing_plan_id":"cebpf4jnsgd1na2vs0mg"},{"bike_id":"0b818497-4d97-451b-b637-cef3d02b5c9d","system_id":"levelo_inurba_marseille","lat":43.31711,"lon":5.43704,"is_reserved":false,"is_disabled":false,"rental_uris":{"android":"levelo://app?vid=0b818497-4d97-451b-b637-cef3d02b5c9d","ios":"levelo://app?vid=0b818497-4d97-451b-b637-cef3d02b5c9d"},"vehicle_type_id":"4","last_reported":1741126113,"current_range_meters":7200,"station_id":"ce4bhp92rcd13ifvqhcg","pricing_plan_id":"cebpf4jnsgd1na2vs0mg"},{"bike_id":"7c56e753-c384-40ec-96b6-b270324269c6","system_id":"levelo_inurba_marseille","lat":43.26216,"lon":5.40446,"is_reserved":false,"is_disabled":false,"rental_uris":{"android":"levelo://app?vid=7c56e753-c384-40ec-96b6-b270324269c6","ios":"levelo://app?vid=7c56e753-c384-40ec-96b6-b270324269c6"},"vehicle_type_id":"4","last_reported":1741126113,"current_range_meters":7200,"station_id":"ce4bhmh2rcd13ifvqgmg","pricing_plan_id":"cebpf4jnsgd1na2vs0mg"},{"bike_id":"64953142-7637-42b4-b0d1-c449e63f1db7","system_id":"levelo_inurba_marseille","lat":43.29633,"lon":5.36013,"is_reserved":false,"is_disabled":false,"rental_uris":{"android":"levelo://app?vid=64953142-7637-42b4-b0d1-c449e63f1db7","ios":"levelo://app?vid=64953142-7637-42b4-b0d1-c449e63f1db7"},"vehicle_type_id":"4","last_reported":1741126113,"current_range_meters":7200,"station_id":"","pricing_plan_id":"cebpf4jnsgd1na2vs0mg"},{"bike_id":"4900e558-d896-4e88-a482-c92483d35a16","system_id":"levelo_inurba_marseille","lat":43.28131,"lon":5.44569,"is_reserved":false,"is_disabled":false,"rental_uris":{"android":"levelo://app?vid=4900e558-d896-4e88-a482-c92483d35a16","ios":"levelo://app?vid=4900e558-d896-4e88-a482-c92483d35a16"},"vehicle_type_id":"4","last_reported":1741126113,"current_range_meters":7200,"station_id":"","pricing_plan_id":"cebpf4jnsgd1na2vs0mg"},{"bike_id":"4953908e-c12d-41ee-881a-cce039598782","system_id":"levelo_inurba_marseille","lat":43.30805,"lon":5.43528,"is_reserved":false,"is_disabled":false,"rental_uris":{"android":"levelo://app?vid=4953908e-c12d-41ee-881a-cce039598782","ios":"levelo://app?vid=4953908e-c12d-41ee-881a-cce039598782"},"vehicle_type_id":"4","last_reported":1741126113,"current_range_meters":7200,"station_id":"ce4bhph2rcd13ifvqheg","pricing_plan_id":"cebpf4jnsgd1na2vs0mg"},{"bike_id":"e7354dad-9663-4e36-86b3-e94320664f74","system_id":"levelo_inurba_marseille","lat":43.28564,"lon":5.39497,"is_reserved":false,"is_disabled":false,"rental_uris":{"android":"levelo://app?vid=e7354dad-9663-4e36-86b3-e94320664f74","ios":"levelo://app?vid=e7354dad-9663-4e36-86b3-e94320664f74"},"vehicle_type_id":"4","last_reported":1741126113,"current_range_meters":7200,"station_id":"ce4bh292rcd13ifvqdg0","pricing_plan_id":"cebpf4jnsgd1na2vs0mg"},{"bike_id":"4d031821-b90c-420c-be9f-756d9af38822","system_id":"levelo_inurba_marseille","lat":43.27708,"lon":5.4073,"is_reserved":false,"is_disabled":false,"rental_uris":{"android":"levelo://app?vid=4d031821-b90c-420c-be9f-756d9af38822","ios":"levelo://app?vid=4d031821-b90c-420c-be9f-756d9af38822"},"vehicle_type_id":"4","last_reported":1741126113,"current_range_meters":8000,"station_id":"","pricing_plan_id":"cebpf4jnsgd1na2vs0mg"},{"bike_id":"a7e4c0d5-f8e4-4c3b-acad-9c7d5ce39506","system_id":"levelo_inurba_marseille","lat":43.31713,"lon":5.43709,"is_reserved":false,"is_disabled":false,"rental_uris":{"android":"levelo://app?vid=a7e4c0d5-f8e4-4c3b-acad-9c7d5ce39506","ios":"levelo://app?vid=a7e4c0d5-f8e4-4c3b-acad-9c7d5ce39506"},"vehicle_type_id":"4","last_reported":1741126113,"current_range_meters":8000,"station_id":"ce4bhp92rcd13ifvqhcg","pricing_plan_id":"cebpf4jnsgd1na2vs0mg"},{"bike_id":"daca5608-d824-4447-a25b-fde22b6fa82e","system_id":"levelo_inurba_marseille","lat":43.287045,"lon":5.373761,"is_reserved":false,"is_disabled":false,"rental_uris":{"android":"levelo://app?vid=daca5608-d824-4447-a25b-fde22b6fa82e","ios":"levelo://app?vid=daca5608-d824-4447-a25b-fde22b6fa82e"},"vehicle_type_id":"4","last_reported":1741126113,"current_range_meters":8000,"station_id":"ce4bh3p2rcd13ifvqdq0","pricing_plan_id":"cebpf4jnsgd1na2vs0mg"},{"bike_id":"5c62e162-d130-42e6-87eb-9d21ce491dff","system_id":"levelo_inurba_marseille","lat":43.29138,"lon":5.40486,"is_reserved":false,"is_disabled":false,"rental_uris":{"android":"levelo://app?vid=5c62e162-d130-42e6-87eb-9d21ce491dff","ios":"levelo://app?vid=5c62e162-d130-42e6-87eb-9d21ce491dff"},"vehicle_type_id":"4","last_reported":1741126113,"current_range_meters":8000,"station_id":"","pricing_plan_id":"cebpf4jnsgd1na2vs0mg"},{"bike_id":"ef586f23-ee4b-465a-84b4-b76ec36bdcf2","system_id":"levelo_inurba_marseille","lat":43.2841,"lon":5.3751,"is_reserved":false,"is_disabled":false,"rental_uris":{"android":"levelo://app?vid=ef586f23-ee4b-465a-84b4-b76ec36bdcf2","ios":"levelo://app?vid=ef586f23-ee4b-465a-84b4-b76ec36bdcf2"},"vehicle_type_id":"4","last_reported":1741126113,"current_range_meters":8000,"station_id":"ce4bh412rcd13ifvqds0","pricing_plan_id":"cebpf4jnsgd1na2vs0mg"},{"bike_id":"51b35190-dd77-4929-ad86-193e8785fcc9","system_id":"levelo_inurba_marseille","lat":43.29247,"lon":5.40911,"is_reserved":false,"is_disabled":false,"rental_uris":{"android":"levelo://app?vid=51b35190-dd77-4929-ad86-193e8785fcc9","ios":"levelo://app?vid=51b35190-dd77-4929-ad86-193e8785fcc9"},"vehicle_type_id":"4","last_reported":1741126113,"current_range_meters":8000,"station_id":"ce4bh192rcd13ifvqdc0","pricing_plan_id":"cebpf4jnsgd1na2vs0mg"},{"bike_id":"a7044ed3-d5ae-409b-9044-aa2ba47e6936","system_id":"levelo_inurba_marseille","lat":43.28264,"lon":5.35084,"is_reserved":false,"is_disabled":false,"rental_uris":{"android":"levelo://app?vid=a7044ed3-d5ae-409b-9044-aa2ba47e6936","ios":"levelo://app?vid=a7044ed3-d5ae-409b-9044-aa2ba47e6936"},"vehicle_type_id":"4","last_reported":1741126113,"current_range_meters":8000,"station_id":"ce4bhbp2rcd13ifvqerg","pricing_plan_id":"cebpf4jnsgd1na2vs0mg"},{"bike_id":"2f2997b2-435b-4046-83a1-e6ed0b0f0bde","system_id":"levelo_inurba_marseille","lat":43.24665,"lon":5.38167,"is_reserved":false,"is_disabled":false,"rental_uris":{"android":"levelo://app?vid=2f2997b2-435b-4046-83a1-e6ed0b0f0bde","ios":"levelo://app?vid=2f2997b2-435b-4046-83a1-e6ed0b0f0bde"},"vehicle_type_id":"4","last_reported":1741126113,"current_range_meters":8400,"station_id":"ce4bhih2rcd13ifvqfr0","pricing_plan_id":"cebpf4jnsgd1na2vs0mg"},{"bike_id":"7cf386a1-f879-4a1b-a7c4-9eebe0c89ca8","system_id":"levelo_inurba_marseille","lat":43.28076,"lon":5.39657,"is_reserved":false,"is_disabled":false,"rental_uris":{"android":"levelo://app?vid=7cf386a1-f879-4a1b-a7c4-9eebe0c89ca8","ios":"levelo://app?vid=7cf386a1-f879-4a1b-a7c4-9eebe0c89ca8"},"vehicle_type_id":"4","last_reported":1741126113,"current_range_meters":8400,"station_id":"ce4bho12rcd13ifvqh2g","pricing_plan_id":"cebpf4jnsgd1na2vs0mg"},{"bike_id":"523797ee-a9f0-494d-a6a9-db807f9343e4","system_id":"levelo_inurba_marseille","lat":43.26554,"lon":5.39059,"is_reserved":false,"is_disabled":false,"rental_uris":{"android":"levelo://app?vid=523797ee-a9f0-494d-a6a9-db807f9343e4","ios":"levelo://app?vid=523797ee-a9f0-494d-a6a9-db807f9343e4"},"vehicle_type_id":"4","last_reported":1741126113,"current_range_meters":8400,"station_id":"ce4bhe12rcd13ifvqf30","pricing_plan_id":"cebpf4jnsgd1na2vs0mg"},{"bike_id":"7f320169-016b-4b3e-a792-d0d62327dc94","system_id":"levelo_inurba_marseille","lat":43.27583,"lon":5.38413,"is_reserved":false,"is_disabled":false,"rental_uris":{"android":"levelo://app?vid=7f320169-016b-4b3e-a792-d0d62327dc94","ios":"levelo://app?vid=7f320169-016b-4b3e-a792-d0d62327dc94"},"vehicle_type_id":"4","last_reported":1741126113,"current_range_meters":8400,"station_id":"ce4bhh92rcd13ifvqfi0","pricing_plan_id":"cebpf4jnsgd1na2vs0mg"},{"bike_id":"32ec58ac-1836-4fb6-ae91-f231fbc95936","system_id":"levelo_inurba_marseille","lat":43.32107,"lon":5.40942,"is_reserved":false,"is_disabled":false,"rental_uris":{"android":"levelo://app?vid=32ec58ac-1836-4fb6-ae91-f231fbc95936","ios":"levelo://app?vid=32ec58ac-1836-4fb6-ae91-f231fbc95936"},"vehicle_type_id":"4","last_reported":1741126113,"current_range_meters":8400,"station_id":"","pricing_plan_id":"cebpf4jnsgd1na2vs0mg"},{"bike_id":"098e1208-3091-42bd-9bb4-612148ea4ada","system_id":"levelo_inurba_marseille","lat":43.23346,"lon":5.36013,"is_reserved":false,"is_disabled":false,"rental_uris":{"android":"levelo://app?vid=098e1208-3091-42bd-9bb4-612148ea4ada","ios":"levelo://app?vid=098e1208-3091-42bd-9bb4-612148ea4ada"},"vehicle_type_id":"4","last_reported":1741126113,"current_range_meters":8400,"station_id":"","pricing_plan_id":"cebpf4jnsgd1na2vs0mg"},{"bike_id":"40592169-4d72-4b69-a512-be614d00ab33","system_id":"levelo_inurba_marseille","lat":43.28075,"lon":5.39642,"is_reserved":false,"is_disabled":false,"rental_uris":{"android":"levelo://app?vid=40592169-4d72-4b69-a512-be614d00ab33","ios":"levelo://app?vid=40592169-4d72-4b69-a512-be614d00ab33"},"vehicle_type_id":"4","last_reported":1741126113,"current_range_meters":8400,"station_id":"ce4bho12rcd13ifvqh2g","pricing_plan_id":"cebpf4jnsgd1na2vs0mg"},{"bike_id":"d4856af7-9b74-4c20-9ef9-3e21a73f2567","system_id":"levelo_inurba_marseille","lat":43.26224,"lon":5.40488,"is_reserved":false,"is_disabled":false,"rental_uris":{"android":"levelo://app?vid=d4856af7-9b74-4c20-9ef9-3e21a73f2567","ios":"levelo://app?vid=d4856af7-9b74-4c20-9ef9-3e21a73f2567"},"vehicle_type_id":"4","last_reported":1741126113,"current_range_meters":8400,"station_id":"ce4bhmh2rcd13ifvqgmg","pricing_plan_id":"cebpf4jnsgd1na2vs0mg"},{"bike_id":"f9e6d230-69c5-4095-84ed-f5e6a773b409","system_id":"levelo_inurba_marseille","lat":43.31152,"lon":5.38739,"is_reserved":false,"is_disabled":false,"rental_uris":{"android":"levelo://app?vid=f9e6d230-69c5-4095-84ed-f5e6a773b409","ios":"levelo://app?vid=f9e6d230-69c5-4095-84ed-f5e6a773b409"},"vehicle_type_id":"4","last_reported":1741126113,"current_range_meters":8800,"station_id":"ce4bgv12rcd13ifvqcp0","pricing_plan_id":"cebpf4jnsgd1na2vs0mg"},{"bike_id":"82cf1890-6fc9-45de-a4c6-a2860b6ad381","system_id":"levelo_inurba_marseille","lat":43.30869,"lon":5.39658,"is_reserved":false,"is_disabled":false,"rental_uris":{"android":"levelo://app?vid=82cf1890-6fc9-45de-a4c6-a2860b6ad381","ios":"levelo://app?vid=82cf1890-6fc9-45de-a4c6-a2860b6ad381"},"vehicle_type_id":"4","last_reported":1741126113,"current_range_meters":8800,"station_id":"ce4bh012rcd13ifvqcv0","pricing_plan_id":"cebpf4jnsgd1na2vs0mg"},{"bike_id":"39fbed77-4b9c-4f8d-bb61-98aaba0b0ee1","system_id":"levelo_inurba_marseille","lat":43.28103,"lon":5.3963,"is_reserved":false,"is_disabled":false,"rental_uris":{"android":"levelo://app?vid=39fbed77-4b9c-4f8d-bb61-98aaba0b0ee1","ios":"levelo://app?vid=39fbed77-4b9c-4f8d-bb61-98aaba0b0ee1"},"vehicle_type_id":"4","last_reported":1741126113,"current_range_meters":8800,"station_id":"ce4bho12rcd13ifvqh2g","pricing_plan_id":"cebpf4jnsgd1na2vs0mg"},{"bike_id":"48d28e38-4ec2-4e1e-b64a-7d4b817a6fea","system_id":"levelo_inurba_marseille","lat":43.23183,"lon":5.39987,"is_reserved":false,"is_disabled":false,"rental_uris":{"android":"levelo://app?vid=48d28e38-4ec2-4e1e-b64a-7d4b817a6fea","ios":"levelo://app?vid=48d28e38-4ec2-4e1e-b64a-7d4b817a6fea"},"vehicle_type_id":"4","last_reported":1741126113,"current_range_meters":8800,"station_id":"ce4bhn12rcd13ifvqgqg","pricing_plan_id":"cebpf4jnsgd1na2vs0mg"},{"bike_id":"c630b2da-f173-40a9-a86e-0e6619e6d9d3","system_id":"levelo_inurba_marseille","lat":43.25586,"lon":5.38231,"is_reserved":false,"is_disabled":false,"rental_uris":{"android":"levelo://app?vid=c630b2da-f173-40a9-a86e-0e6619e6d9d3","ios":"levelo://app?vid=c630b2da-f173-40a9-a86e-0e6619e6d9d3"},"vehicle_type_id":"4","last_reported":1741126113,"current_range_meters":8400,"station_id":"ce4bhih2rcd13ifvqfs0","pricing_plan_id":"cebpf4jnsgd1na2vs0mg"},{"bike_id":"cb694720-36da-474e-8a2b-878e802a7ef1","system_id":"levelo_inurba_marseille","lat":43.31885,"lon":5.40733,"is_reserved":false,"is_disabled":false,"rental_uris":{"android":"levelo://app?vid=cb694720-36da-474e-8a2b-878e802a7ef1","ios":"levelo://app?vid=cb694720-36da-474e-8a2b-878e802a7ef1"},"vehicle_type_id":"4","last_reported":1741126113,"current_range_meters":8800,"station_id":"ce4bhq12rcd13ifvqhig","pricing_plan_id":"cebpf4jnsgd1na2vs0mg"},{"bike_id":"67f170b2-c527-4f82-a5e7-48060deabad3","system_id":"levelo_inurba_marseille","lat":43.28022,"lon":5.36955,"is_reserved":false,"is_disabled":false,"rental_uris":{"android":"levelo://app?vid=67f170b2-c527-4f82-a5e7-48060deabad3","ios":"levelo://app?vid=67f170b2-c527-4f82-a5e7-48060deabad3"},"vehicle_type_id":"4","last_reported":1741126113,"current_range_meters":8800,"station_id":"ce4bha12rcd13ifvqef0","pricing_plan_id":"cebpf4jnsgd1na2vs0mg"},{"bike_id":"0c61fcec-5697-44dc-95c4-6b1e8023ee6a","system_id":"levelo_inurba_marseille","lat":43.30352,"lon":5.4187,"is_reserved":false,"is_disabled":false,"rental_uris":{"android":"levelo://app?vid=0c61fcec-5697-44dc-95c4-6b1e8023ee6a","ios":"levelo://app?vid=0c61fcec-5697-44dc-95c4-6b1e8023ee6a"},"vehicle_type_id":"4","last_reported":1741126113,"current_range_meters":8400,"station_id":"ce4bhop2rcd13ifvqh7g","pricing_plan_id":"cebpf4jnsgd1na2vs0mg"},{"bike_id":"13cc4aae-49e8-44f7-bfab-719bb6820256","system_id":"levelo_inurba_marseille","lat":43.27824,"lon":5.40713,"is_reserved":false,"is_disabled":true,"rental_uris":{"android":"levelo://app?vid=13cc4aae-49e8-44f7-bfab-719bb6820256","ios":"levelo://app?vid=13cc4aae-49e8-44f7-bfab-719bb6820256"},"vehicle_type_id":"4","last_reported":1741126113,"current_range_meters":8800,"station_id":"ce4bhnh2rcd13ifvqgtg","pricing_plan_id":"cebpf4jnsgd1na2vs0mg"},{"bike_id":"4bc22bc8-57d9-4e3e-bbf9-5bb2e57875a0","system_id":"levelo_inurba_marseille","lat":43.27808,"lon":5.40719,"is_reserved":false,"is_disabled":false,"rental_uris":{"android":"levelo://app?vid=4bc22bc8-57d9-4e3e-bbf9-5bb2e57875a0","ios":"levelo://app?vid=4bc22bc8-57d9-4e3e-bbf9-5bb2e57875a0"},"vehicle_type_id":"4","last_reported":1741126113,"current_range_meters":8800,"station_id":"ce4bhnh2rcd13ifvqgtg","pricing_plan_id":"cebpf4jnsgd1na2vs0mg"},{"bike_id":"b8dacfd7-6aa1-4cb2-ac25-dfdf82e53218","system_id":"levelo_inurba_marseille","lat":43.3236,"lon":5.38889,"is_reserved":false,"is_disabled":false,"rental_uris":{"android":"levelo://app?vid=b8dacfd7-6aa1-4cb2-ac25-dfdf82e53218","ios":"levelo://app?vid=b8dacfd7-6aa1-4cb2-ac25-dfdf82e53218"},"vehicle_type_id":"4","last_reported":1741126113,"current_range_meters":8800,"station_id":"ce4bhqp2rcd13ifvqhog","pricing_plan_id":"cebpf4jnsgd1na2vs0mg"},{"bike_id":"af961a62-89ab-48c3-99b4-9e347c6b0fdf","system_id":"levelo_inurba_marseille","lat":43.2808,"lon":5.39656,"is_reserved":false,"is_disabled":false,"rental_uris":{"android":"levelo://app?vid=af961a62-89ab-48c3-99b4-9e347c6b0fdf","ios":"levelo://app?vid=af961a62-89ab-48c3-99b4-9e347c6b0fdf"},"vehicle_type_id":"4","last_reported":1741126113,"current_range_meters":8800,"station_id":"ce4bho12rcd13ifvqh2g","pricing_plan_id":"cebpf4jnsgd1na2vs0mg"},{"bike_id":"119408e4-7624-4320-bf5e-e4f029d82dc4","system_id":"levelo_inurba_marseille","lat":43.28638,"lon":5.40084,"is_reserved":false,"is_disabled":true,"rental_uris":{"android":"levelo://app?vid=119408e4-7624-4320-bf5e-e4f029d82dc4","ios":"levelo://app?vid=119408e4-7624-4320-bf5e-e4f029d82dc4"},"vehicle_type_id":"4","last_reported":1741126113,"current_range_meters":8800,"station_id":"ce4bho92rcd13ifvqh3g","pricing_plan_id":"cebpf4jnsgd1na2vs0mg"},{"bike_id":"673a0145-2d59-42c5-a9c3-2acb956f3a40","system_id":"levelo_inurba_marseille","lat":43.24804,"lon":5.37462,"is_reserved":false,"is_disabled":false,"rental_uris":{"android":"levelo://app?vid=673a0145-2d59-42c5-a9c3-2acb956f3a40","ios":"levelo://app?vid=673a0145-2d59-42c5-a9c3-2acb956f3a40"},"vehicle_type_id":"4","last_reported":1741126113,"current_range_meters":8800,"station_id":"ce4bhgh2rcd13ifvqfb0","pricing_plan_id":"cebpf4jnsgd1na2vs0mg"},{"bike_id":"75d8b1d8-ca8d-400c-bdcf-1a41c663b6a5","system_id":"levelo_inurba_marseille","lat":43.31327,"lon":5.39691,"is_reserved":false,"is_disabled":false,"rental_uris":{"android":"levelo://app?vid=75d8b1d8-ca8d-400c-bdcf-1a41c663b6a5","ios":"levelo://app?vid=75d8b1d8-ca8d-400c-bdcf-1a41c663b6a5"},"vehicle_type_id":"4","last_reported":1741126113,"current_range_meters":8800,"station_id":"ce4bgvp2rcd13ifvqcu0","pricing_plan_id":"cebpf4jnsgd1na2vs0mg"},{"bike_id":"ea6a4a15-a453-498d-be30-f6d5d98c6c99","system_id":"levelo_inurba_marseille","lat":43.26801,"lon":5.40262,"is_reserved":false,"is_disabled":false,"rental_uris":{"android":"levelo://app?vid=ea6a4a15-a453-498d-be30-f6d5d98c6c99","ios":"levelo://app?vid=ea6a4a15-a453-498d-be30-f6d5d98c6c99"},"vehicle_type_id":"4","last_reported":1741126113,"current_range_meters":9200,"station_id":"ce501612rcd8frsf0b60","pricing_plan_id":"cebpf4jnsgd1na2vs0mg"},{"bike_id":"ee1d2ad1-36ca-49dd-a328-f2a9a9994ecb","system_id":"levelo_inurba_marseille","lat":43.310788,"lon":5.381396,"is_reserved":false,"is_disabled":false,"rental_uris":{"android":"levelo://app?vid=ee1d2ad1-36ca-49dd-a328-f2a9a9994ecb","ios":"levelo://app?vid=ee1d2ad1-36ca-49dd-a328-f2a9a9994ecb"},"vehicle_type_id":"4","last_reported":1741126113,"current_range_meters":9200,"station_id":"","pricing_plan_id":"cebpf4jnsgd1na2vs0mg"},{"bike_id":"6178d4a3-6d1b-438c-ac71-a61f5db2dfc0","system_id":"levelo_inurba_marseille","lat":43.27825,"lon":5.40711,"is_reserved":false,"is_disabled":false,"rental_uris":{"android":"levelo://app?vid=6178d4a3-6d1b-438c-ac71-a61f5db2dfc0","ios":"levelo://app?vid=6178d4a3-6d1b-438c-ac71-a61f5db2dfc0"},"vehicle_type_id":"4","last_reported":1741126113,"current_range_meters":9200,"station_id":"ce4bhnh2rcd13ifvqgtg","pricing_plan_id":"cebpf4jnsgd1na2vs0mg"},{"bike_id":"3bbda077-ccb3-4e8b-a9c7-ffc479e5ae60","system_id":"levelo_inurba_marseille","lat":43.29245,"lon":5.4091,"is_reserved":false,"is_disabled":false,"rental_uris":{"android":"levelo://app?vid=3bbda077-ccb3-4e8b-a9c7-ffc479e5ae60","ios":"levelo://app?vid=3bbda077-ccb3-4e8b-a9c7-ffc479e5ae60"},"vehicle_type_id":"4","last_reported":1741126113,"current_range_meters":9200,"station_id":"ce4bh192rcd13ifvqdc0","pricing_plan_id":"cebpf4jnsgd1na2vs0mg"},{"bike_id":"6fdc3974-7268-4a99-9dc8-43eff3472c39","system_id":"levelo_inurba_marseille","lat":43.29385,"lon":5.37843,"is_reserved":false,"is_disabled":false,"rental_uris":{"android":"levelo://app?vid=6fdc3974-7268-4a99-9dc8-43eff3472c39","ios":"levelo://app?vid=6fdc3974-7268-4a99-9dc8-43eff3472c39"},"vehicle_type_id":"4","last_reported":1741126113,"current_range_meters":9200,"station_id":"ce4bgjh2rcd13ifvqbf0","pricing_plan_id":"cebpf4jnsgd1na2vs0mg"},{"bike_id":"fc362ed4-f97d-4509-a177-d63f9ff5896f","system_id":"levelo_inurba_marseille","lat":43.24083,"lon":5.37744,"is_reserved":false,"is_disabled":false,"rental_uris":{"android":"levelo://app?vid=fc362ed4-f97d-4509-a177-d63f9ff5896f","ios":"levelo://app?vid=fc362ed4-f97d-4509-a177-d63f9ff5896f"},"vehicle_type_id":"4","last_reported":1741126113,"current_range_meters":9200,"station_id":"ce4bhnp2rcd13ifvqgvg","pricing_plan_id":"cebpf4jnsgd1na2vs0mg"},{"bike_id":"16422601-b06e-4432-b609-e1ea0e7ea850","system_id":"levelo_inurba_marseille","lat":43.26225,"lon":5.40465,"is_reserved":false,"is_disabled":false,"rental_uris":{"android":"levelo://app?vid=16422601-b06e-4432-b609-e1ea0e7ea850","ios":"levelo://app?vid=16422601-b06e-4432-b609-e1ea0e7ea850"},"vehicle_type_id":"4","last_reported":1741126113,"current_range_meters":9200,"station_id":"ce4bhmh2rcd13ifvqgmg","pricing_plan_id":"cebpf4jnsgd1na2vs0mg"},{"bike_id":"5d3e6fd1-d59d-494a-b7ae-de8150ce0ae7","system_id":"levelo_inurba_marseille","lat":43.28399,"lon":5.3752,"is_reserved":false,"is_disabled":false,"rental_uris":{"android":"levelo://app?vid=5d3e6fd1-d59d-494a-b7ae-de8150ce0ae7","ios":"levelo://app?vid=5d3e6fd1-d59d-494a-b7ae-de8150ce0ae7"},"vehicle_type_id":"4","last_reported":1741126113,"current_range_meters":9200,"station_id":"ce4bh412rcd13ifvqds0","pricing_plan_id":"cebpf4jnsgd1na2vs0mg"},{"bike_id":"7713fc49-6e07-41e6-a17f-a9a87c419919","system_id":"levelo_inurba_marseille","lat":43.31054,"lon":5.3835,"is_reserved":false,"is_disabled":false,"rental_uris":{"android":"levelo://app?vid=7713fc49-6e07-41e6-a17f-a9a87c419919","ios":"levelo://app?vid=7713fc49-6e07-41e6-a17f-a9a87c419919"},"vehicle_type_id":"4","last_reported":1741126113,"current_range_meters":9600,"station_id":"ce4bgv92rcd13ifvqcr0","pricing_plan_id":"cebpf4jnsgd1na2vs0mg"},{"bike_id":"d0ca81a9-e00f-4db3-8736-356c22988b10","system_id":"levelo_inurba_marseille","lat":43.30804,"lon":5.43531,"is_reserved":false,"is_disabled":false,"rental_uris":{"android":"levelo://app?vid=d0ca81a9-e00f-4db3-8736-356c22988b10","ios":"levelo://app?vid=d0ca81a9-e00f-4db3-8736-356c22988b10"},"vehicle_type_id":"4","last_reported":1741126113,"current_range_meters":9600,"station_id":"ce4bhph2rcd13ifvqheg","pricing_plan_id":"cebpf4jnsgd1na2vs0mg"},{"bike_id":"0d40529a-4ceb-4fe5-a173-9a9387273cfa","system_id":"levelo_inurba_marseille","lat":43.2573,"lon":5.41101,"is_reserved":false,"is_disabled":false,"rental_uris":{"android":"levelo://app?vid=0d40529a-4ceb-4fe5-a173-9a9387273cfa","ios":"levelo://app?vid=0d40529a-4ceb-4fe5-a173-9a9387273cfa"},"vehicle_type_id":"4","last_reported":1741126113,"current_range_meters":9600,"station_id":"ce4bhkp2rcd13ifvqgd0","pricing_plan_id":"cebpf4jnsgd1na2vs0mg"},{"bike_id":"bb688706-69e9-4ba8-9806-7df641f3b926","system_id":"levelo_inurba_marseille","lat":43.29287,"lon":5.40118,"is_reserved":false,"is_disabled":false,"rental_uris":{"android":"levelo://app?vid=bb688706-69e9-4ba8-9806-7df641f3b926","ios":"levelo://app?vid=bb688706-69e9-4ba8-9806-7df641f3b926"},"vehicle_type_id":"4","last_reported":1741126113,"current_range_meters":9600,"station_id":"ce4bh312rcd13ifvqdk0","pricing_plan_id":"cebpf4jnsgd1na2vs0mg"},{"bike_id":"a2e9312b-d692-42a0-9823-fe0aab56075b","system_id":"levelo_inurba_marseille","lat":43.23162,"lon":5.43716,"is_reserved":false,"is_disabled":true,"rental_uris":{"android":"levelo://app?vid=a2e9312b-d692-42a0-9823-fe0aab56075b","ios":"levelo://app?vid=a2e9312b-d692-42a0-9823-fe0aab56075b"},"vehicle_type_id":"4","last_reported":1741126113,"current_range_meters":9600,"station_id":"ce4bhmp2rcd13ifvqgog","pricing_plan_id":"cebpf4jnsgd1na2vs0mg"},{"bike_id":"bf284b86-4ac3-4366-b668-6c33ec16b817","system_id":"levelo_inurba_marseille","lat":43.31748,"lon":5.39026,"is_reserved":false,"is_disabled":false,"rental_uris":{"android":"levelo://app?vid=bf284b86-4ac3-4366-b668-6c33ec16b817","ios":"levelo://app?vid=bf284b86-4ac3-4366-b668-6c33ec16b817"},"vehicle_type_id":"4","last_reported":1741126113,"current_range_meters":9600,"station_id":"ce4bhqp2rcd13ifvqhng","pricing_plan_id":"cebpf4jnsgd1na2vs0mg"},{"bike_id":"ebd5a4cc-9448-442e-9931-6c7b22efa41f","system_id":"levelo_inurba_marseille","lat":43.32352,"lon":5.38873,"is_reserved":false,"is_disabled":false,"rental_uris":{"android":"levelo://app?vid=ebd5a4cc-9448-442e-9931-6c7b22efa41f","ios":"levelo://app?vid=ebd5a4cc-9448-442e-9931-6c7b22efa41f"},"vehicle_type_id":"4","last_reported":1741126113,"current_range_meters":9600,"station_id":"ce4bhqp2rcd13ifvqhog","pricing_plan_id":"cebpf4jnsgd1na2vs0mg"},{"bike_id":"ede61442-3229-4ac2-8d72-b654099eef6a","system_id":"levelo_inurba_marseille","lat":43.33021,"lon":5.39033,"is_reserved":false,"is_disabled":false,"rental_uris":{"android":"levelo://app?vid=ede61442-3229-4ac2-8d72-b654099eef6a","ios":"levelo://app?vid=ede61442-3229-4ac2-8d72-b654099eef6a"},"vehicle_type_id":"4","last_reported":1741126113,"current_range_meters":9600,"station_id":"ce4bhr92rcd13ifvqhrg","pricing_plan_id":"cebpf4jnsgd1na2vs0mg"},{"bike_id":"44a7153b-0fd7-4509-836b-676bbf84fb06","system_id":"levelo_inurba_marseille","lat":43.23182,"lon":5.35574,"is_reserved":false,"is_disabled":false,"rental_uris":{"android":"levelo://app?vid=44a7153b-0fd7-4509-836b-676bbf84fb06","ios":"levelo://app?vid=44a7153b-0fd7-4509-836b-676bbf84fb06"},"vehicle_type_id":"4","last_reported":1741126113,"current_range_meters":9600,"station_id":"ce4bhu92rcd13ifvqi70","pricing_plan_id":"cebpf4jnsgd1na2vs0mg"},{"bike_id":"c225e1a0-be98-446e-a697-333af943beb7","system_id":"levelo_inurba_marseille","lat":43.27921,"lon":5.39597,"is_reserved":false,"is_disabled":false,"rental_uris":{"android":"levelo://app?vid=c225e1a0-be98-446e-a697-333af943beb7","ios":"levelo://app?vid=c225e1a0-be98-446e-a697-333af943beb7"},"vehicle_type_id":"4","last_reported":1741126113,"current_range_meters":10000,"station_id":"ce4bhf92rcd13ifvqf40","pricing_plan_id":"cebpf4jnsgd1na2vs0mg"},{"bike_id":"b7922d13-ed36-467a-ad1f-c7d4918b1458","system_id":"levelo_inurba_marseille","lat":43.31274,"lon":5.4017,"is_reserved":false,"is_disabled":false,"rental_uris":{"android":"levelo://app?vid=b7922d13-ed36-467a-ad1f-c7d4918b1458","ios":"levelo://app?vid=b7922d13-ed36-467a-ad1f-c7d4918b1458"},"vehicle_type_id":"4","last_reported":1741126113,"current_range_meters":10000,"station_id":"ce4bh092rcd13ifvqd30","pricing_plan_id":"cebpf4jnsgd1na2vs0mg"},{"bike_id":"4e6eac08-b624-4f71-84f3-0c6188cb583d","system_id":"levelo_inurba_marseille","lat":43.33027,"lon":5.39048,"is_reserved":false,"is_disabled":false,"rental_uris":{"android":"levelo://app?vid=4e6eac08-b624-4f71-84f3-0c6188cb583d","ios":"levelo://app?vid=4e6eac08-b624-4f71-84f3-0c6188cb583d"},"vehicle_type_id":"4","last_reported":1741126113,"current_range_meters":10000,"station_id":"ce4bhr92rcd13ifvqhrg","pricing_plan_id":"cebpf4jnsgd1na2vs0mg"},{"bike_id":"d67742a9-6760-4a59-9b2e-6bf86bea27b8","system_id":"levelo_inurba_marseille","lat":43.29919,"lon":5.37584,"is_reserved":false,"is_disabled":false,"rental_uris":{"android":"levelo://app?vid=d67742a9-6760-4a59-9b2e-6bf86bea27b8","ios":"levelo://app?vid=d67742a9-6760-4a59-9b2e-6bf86bea27b8"},"vehicle_type_id":"4","last_reported":1741126113,"current_range_meters":10000,"station_id":"","pricing_plan_id":"cebpf4jnsgd1na2vs0mg"},{"bike_id":"7da589f8-b66a-4bfc-8aca-6b5bd27db68b","system_id":"levelo_inurba_marseille","lat":43.2407,"lon":5.37762,"is_reserved":false,"is_disabled":false,"rental_uris":{"android":"levelo://app?vid=7da589f8-b66a-4bfc-8aca-6b5bd27db68b","ios":"levelo://app?vid=7da589f8-b66a-4bfc-8aca-6b5bd27db68b"},"vehicle_type_id":"4","last_reported":1741126113,"current_range_meters":9600,"station_id":"ce4bhnp2rcd13ifvqgvg","pricing_plan_id":"cebpf4jnsgd1na2vs0mg"},{"bike_id":"2a8cc652-f2e0-44b6-b4be-8aba943cd557","system_id":"levelo_inurba_marseille","lat":43.29319,"lon":5.37655,"is_reserved":false,"is_disabled":false,"rental_uris":{"android":"levelo://app?vid=2a8cc652-f2e0-44b6-b4be-8aba943cd557","ios":"levelo://app?vid=2a8cc652-f2e0-44b6-b4be-8aba943cd557"},"vehicle_type_id":"4","last_reported":1741126113,"current_range_meters":10000,"station_id":"ce4bgi12rcd13ifvqb80","pricing_plan_id":"cebpf4jnsgd1na2vs0mg"},{"bike_id":"3ded77b2-2546-466b-86c8-ef9cfb4b4e63","system_id":"levelo_inurba_marseille","lat":43.2511,"lon":5.40322,"is_reserved":false,"is_disabled":false,"rental_uris":{"android":"levelo://app?vid=3ded77b2-2546-466b-86c8-ef9cfb4b4e63","ios":"levelo://app?vid=3ded77b2-2546-466b-86c8-ef9cfb4b4e63"},"vehicle_type_id":"4","last_reported":1741126113,"current_range_meters":10000,"station_id":"ce4bhlh2rcd13ifvqgig","pricing_plan_id":"cebpf4jnsgd1na2vs0mg"},{"bike_id":"97d0cc1e-b85b-4315-9149-86ad1aaf4246","system_id":"levelo_inurba_marseille","lat":43.28454,"lon":5.39185,"is_reserved":false,"is_disabled":false,"rental_uris":{"android":"levelo://app?vid=97d0cc1e-b85b-4315-9149-86ad1aaf4246","ios":"levelo://app?vid=97d0cc1e-b85b-4315-9149-86ad1aaf4246"},"vehicle_type_id":"4","last_reported":1741126113,"current_range_meters":10000,"station_id":"ce4bhoh2rcd13ifvqh5g","pricing_plan_id":"cebpf4jnsgd1na2vs0mg"},{"bike_id":"913bb55b-2edb-4434-9d82-fe796f8d08f1","system_id":"levelo_inurba_marseille","lat":43.28622,"lon":5.351,"is_reserved":false,"is_disabled":false,"rental_uris":{"android":"levelo://app?vid=913bb55b-2edb-4434-9d82-fe796f8d08f1","ios":"levelo://app?vid=913bb55b-2edb-4434-9d82-fe796f8d08f1"},"vehicle_type_id":"4","last_reported":1741126113,"current_range_meters":10000,"station_id":"ce4bhch2rcd13ifvqeug","pricing_plan_id":"cebpf4jnsgd1na2vs0mg"},{"bike_id":"3eb72fbf-7948-4624-8ffb-a8d97ab7c9e6","system_id":"levelo_inurba_marseille","lat":43.23969,"lon":5.36633,"is_reserved":false,"is_disabled":false,"rental_uris":{"android":"levelo://app?vid=3eb72fbf-7948-4624-8ffb-a8d97ab7c9e6","ios":"levelo://app?vid=3eb72fbf-7948-4624-8ffb-a8d97ab7c9e6"},"vehicle_type_id":"4","last_reported":1741126113,"current_range_meters":10000,"station_id":"ce4bhi12rcd13ifvqfp0","pricing_plan_id":"cebpf4jnsgd1na2vs0mg"},{"bike_id":"21b19842-9ad9-4db0-bc46-3d2827c0069e","system_id":"levelo_inurba_marseille","lat":43.23202,"lon":5.35555,"is_reserved":false,"is_disabled":false,"rental_uris":{"android":"levelo://app?vid=21b19842-9ad9-4db0-bc46-3d2827c0069e","ios":"levelo://app?vid=21b19842-9ad9-4db0-bc46-3d2827c0069e"},"vehicle_type_id":"4","last_reported":1741126113,"current_range_meters":10000,"station_id":"ce4bhu92rcd13ifvqi70","pricing_plan_id":"cebpf4jnsgd1na2vs0mg"},{"bike_id":"332abda5-2296-4955-8d29-1593f717e1c9","system_id":"levelo_inurba_marseille","lat":43.27961,"lon":5.41587,"is_reserved":false,"is_disabled":false,"rental_uris":{"android":"levelo://app?vid=332abda5-2296-4955-8d29-1593f717e1c9","ios":"levelo://app?vid=332abda5-2296-4955-8d29-1593f717e1c9"},"vehicle_type_id":"4","last_reported":1741126113,"current_range_meters":10800,"station_id":"","pricing_plan_id":"cebpf4jnsgd1na2vs0mg"},{"bike_id":"787aa9aa-557b-4c59-a647-d16fa954c986","system_id":"levelo_inurba_marseille","lat":43.2936,"lon":5.37842,"is_reserved":false,"is_disabled":false,"rental_uris":{"android":"levelo://app?vid=787aa9aa-557b-4c59-a647-d16fa954c986","ios":"levelo://app?vid=787aa9aa-557b-4c59-a647-d16fa954c986"},"vehicle_type_id":"4","last_reported":1741126113,"current_range_meters":10800,"station_id":"ce4bgjh2rcd13ifvqbf0","pricing_plan_id":"cebpf4jnsgd1na2vs0mg"},{"bike_id":"8bd805b7-2f91-4173-bc91-5e5495ab1de9","system_id":"levelo_inurba_marseille","lat":43.29196,"lon":5.39323,"is_reserved":false,"is_disabled":false,"rental_uris":{"android":"levelo://app?vid=8bd805b7-2f91-4173-bc91-5e5495ab1de9","ios":"levelo://app?vid=8bd805b7-2f91-4173-bc91-5e5495ab1de9"},"vehicle_type_id":"4","last_reported":1741126113,"current_range_meters":10800,"station_id":"ce4bh192rcd13ifvqdd0","pricing_plan_id":"cebpf4jnsgd1na2vs0mg"},{"bike_id":"bb5de7ea-83f9-4463-b672-1ca258599166","system_id":"levelo_inurba_marseille","lat":43.31324,"lon":5.39707,"is_reserved":false,"is_disabled":false,"rental_uris":{"android":"levelo://app?vid=bb5de7ea-83f9-4463-b672-1ca258599166","ios":"levelo://app?vid=bb5de7ea-83f9-4463-b672-1ca258599166"},"vehicle_type_id":"4","last_reported":1741126113,"current_range_meters":10800,"station_id":"ce4bgvp2rcd13ifvqcu0","pricing_plan_id":"cebpf4jnsgd1na2vs0mg"},{"bike_id":"c39e2295-e7a5-4c5b-833a-007e71b3658e","system_id":"levelo_inurba_marseille","lat":43.308033,"lon":5.435299,"is_reserved":false,"is_disabled":false,"rental_uris":{"android":"levelo://app?vid=c39e2295-e7a5-4c5b-833a-007e71b3658e","ios":"levelo://app?vid=c39e2295-e7a5-4c5b-833a-007e71b3658e"},"vehicle_type_id":"4","last_reported":1741126113,"current_range_meters":10800,"station_id":"ce4bhph2rcd13ifvqheg","pricing_plan_id":"cebpf4jnsgd1na2vs0mg"},{"bike_id":"0596970d-6eb4-4331-8d1d-96c25a649f4a","system_id":"levelo_inurba_marseille","lat":43.286676,"lon":5.363416,"is_reserved":false,"is_disabled":false,"rental_uris":{"android":"levelo://app?vid=0596970d-6eb4-4331-8d1d-96c25a649f4a","ios":"levelo://app?vid=0596970d-6eb4-4331-8d1d-96c25a649f4a"},"vehicle_type_id":"4","last_reported":1741126113,"current_range_meters":10800,"station_id":"ce4bhah2rcd13ifvqej0","pricing_plan_id":"cebpf4jnsgd1na2vs0mg"},{"bike_id":"3f3c1456-9049-45c0-983e-1e780cd7ac03","system_id":"levelo_inurba_marseille","lat":43.28076,"lon":5.39646,"is_reserved":false,"is_disabled":false,"rental_uris":{"android":"levelo://app?vid=3f3c1456-9049-45c0-983e-1e780cd7ac03","ios":"levelo://app?vid=3f3c1456-9049-45c0-983e-1e780cd7ac03"},"vehicle_type_id":"4","last_reported":1741126113,"current_range_meters":10800,"station_id":"ce4bho12rcd13ifvqh2g","pricing_plan_id":"cebpf4jnsgd1na2vs0mg"},{"bike_id":"ed4c1c10-3fc3-47c0-be84-e8c73611bf7f","system_id":"levelo_inurba_marseille","lat":43.27057,"lon":5.40266,"is_reserved":false,"is_disabled":false,"rental_uris":{"android":"levelo://app?vid=ed4c1c10-3fc3-47c0-be84-e8c73611bf7f","ios":"levelo://app?vid=ed4c1c10-3fc3-47c0-be84-e8c73611bf7f"},"vehicle_type_id":"4","last_reported":1741126113,"current_range_meters":10800,"station_id":"ce4bhk92rcd13ifvqgc0","pricing_plan_id":"cebpf4jnsgd1na2vs0mg"},{"bike_id":"53f986b5-b4ac-4e4d-bde6-b88e844ffa37","system_id":"levelo_inurba_marseille","lat":43.24062,"lon":5.37764,"is_reserved":false,"is_disabled":false,"rental_uris":{"android":"levelo://app?vid=53f986b5-b4ac-4e4d-bde6-b88e844ffa37","ios":"levelo://app?vid=53f986b5-b4ac-4e4d-bde6-b88e844ffa37"},"vehicle_type_id":"4","last_reported":1741126113,"current_range_meters":10800,"station_id":"ce4bhnp2rcd13ifvqgvg","pricing_plan_id":"cebpf4jnsgd1na2vs0mg"},{"bike_id":"c05b2d08-bd31-479b-8742-979b003fe89f","system_id":"levelo_inurba_marseille","lat":43.30252,"lon":5.40066,"is_reserved":false,"is_disabled":false,"rental_uris":{"android":"levelo://app?vid=c05b2d08-bd31-479b-8742-979b003fe89f","ios":"levelo://app?vid=c05b2d08-bd31-479b-8742-979b003fe89f"},"vehicle_type_id":"4","last_reported":1741126113,"current_range_meters":10800,"station_id":"ce4bgvh2rcd13ifvqcs0","pricing_plan_id":"cebpf4jnsgd1na2vs0mg"},{"bike_id":"ceb5978b-80bd-4fc9-97eb-9be5a10aa63d","system_id":"levelo_inurba_marseille","lat":43.28577,"lon":5.39506,"is_reserved":false,"is_disabled":false,"rental_uris":{"android":"levelo://app?vid=ceb5978b-80bd-4fc9-97eb-9be5a10aa63d","ios":"levelo://app?vid=ceb5978b-80bd-4fc9-97eb-9be5a10aa63d"},"vehicle_type_id":"4","last_reported":1741126113,"current_range_meters":11200,"station_id":"ce4bh292rcd13ifvqdg0","pricing_plan_id":"cebpf4jnsgd1na2vs0mg"},{"bike_id":"8d522ede-5066-4cd4-9bdc-d060a70c4510","system_id":"levelo_inurba_marseille","lat":43.250078,"lon":5.389262,"is_reserved":false,"is_disabled":false,"rental_uris":{"android":"levelo://app?vid=8d522ede-5066-4cd4-9bdc-d060a70c4510","ios":"levelo://app?vid=8d522ede-5066-4cd4-9bdc-d060a70c4510"},"vehicle_type_id":"4","last_reported":1741126113,"current_range_meters":11200,"station_id":"ce4bhgp2rcd13ifvqfd0","pricing_plan_id":"cebpf4jnsgd1na2vs0mg"},{"bike_id":"0122c1c3-b417-4093-9107-12ae15086493","system_id":"levelo_inurba_marseille","lat":43.31329,"lon":5.39678,"is_reserved":false,"is_disabled":false,"rental_uris":{"android":"levelo://app?vid=0122c1c3-b417-4093-9107-12ae15086493","ios":"levelo://app?vid=0122c1c3-b417-4093-9107-12ae15086493"},"vehicle_type_id":"4","last_reported":1741126113,"current_range_meters":11200,"station_id":"ce4bgvp2rcd13ifvqcu0","pricing_plan_id":"cebpf4jnsgd1na2vs0mg"},{"bike_id":"d7527d7b-d40c-41ab-aeb5-cac021160e30","system_id":"levelo_inurba_marseille","lat":43.28028,"lon":5.36936,"is_reserved":false,"is_disabled":false,"rental_uris":{"android":"levelo://app?vid=d7527d7b-d40c-41ab-aeb5-cac021160e30","ios":"levelo://app?vid=d7527d7b-d40c-41ab-aeb5-cac021160e30"},"vehicle_type_id":"4","last_reported":1741126113,"current_range_meters":11200,"station_id":"ce4bha12rcd13ifvqef0","pricing_plan_id":"cebpf4jnsgd1na2vs0mg"},{"bike_id":"4c0e314a-87e2-48f0-a7b0-ec6605046de8","system_id":"levelo_inurba_marseille","lat":43.32126,"lon":5.36757,"is_reserved":false,"is_disabled":false,"rental_uris":{"android":"levelo://app?vid=4c0e314a-87e2-48f0-a7b0-ec6605046de8","ios":"levelo://app?vid=4c0e314a-87e2-48f0-a7b0-ec6605046de8"},"vehicle_type_id":"4","last_reported":1741126113,"current_range_meters":11200,"station_id":"ce4bhrh2rcd13ifvqhug","pricing_plan_id":"cebpf4jnsgd1na2vs0mg"},{"bike_id":"ec1930f4-7944-4e1a-8967-bad6e440e5c9","system_id":"levelo_inurba_marseille","lat":43.24683,"lon":5.38156,"is_reserved":false,"is_disabled":false,"rental_uris":{"android":"levelo://app?vid=ec1930f4-7944-4e1a-8967-bad6e440e5c9","ios":"levelo://app?vid=ec1930f4-7944-4e1a-8967-bad6e440e5c9"},"vehicle_type_id":"4","last_reported":1741126113,"current_range_meters":11200,"station_id":"ce4bhih2rcd13ifvqfr0","pricing_plan_id":"cebpf4jnsgd1na2vs0mg"},{"bike_id":"4e8bf42b-5be6-4197-8e33-3320177a3a6b","system_id":"levelo_inurba_marseille","lat":43.30138,"lon":5.38779,"is_reserved":false,"is_disabled":false,"rental_uris":{"android":"levelo://app?vid=4e8bf42b-5be6-4197-8e33-3320177a3a6b","ios":"levelo://app?vid=4e8bf42b-5be6-4197-8e33-3320177a3a6b"},"vehicle_type_id":"4","last_reported":1741126113,"current_range_meters":11200,"station_id":"ce4bghh2rcd13ifvqb60","pricing_plan_id":"cebpf4jnsgd1na2vs0mg"},{"bike_id":"6ea8ab5c-65c2-4db6-8cb6-dfdbe5b30189","system_id":"levelo_inurba_marseille","lat":43.32353,"lon":5.38814,"is_reserved":false,"is_disabled":false,"rental_uris":{"android":"levelo://app?vid=6ea8ab5c-65c2-4db6-8cb6-dfdbe5b30189","ios":"levelo://app?vid=6ea8ab5c-65c2-4db6-8cb6-dfdbe5b30189"},"vehicle_type_id":"4","last_reported":1741126113,"current_range_meters":11600,"station_id":"","pricing_plan_id":"cebpf4jnsgd1na2vs0mg"},{"bike_id":"b4a9a702-0331-42ea-bb32-bcc31fcc55e0","system_id":"levelo_inurba_marseille","lat":43.30197,"lon":5.36625,"is_reserved":false,"is_disabled":false,"rental_uris":{"android":"levelo://app?vid=b4a9a702-0331-42ea-bb32-bcc31fcc55e0","ios":"levelo://app?vid=b4a9a702-0331-42ea-bb32-bcc31fcc55e0"},"vehicle_type_id":"4","last_reported":1741126113,"current_range_meters":11200,"station_id":"ce4bgrh2rcd13ifvqc8g","pricing_plan_id":"cebpf4jnsgd1na2vs0mg"},{"bike_id":"099b73dd-b2cf-4577-a4e7-d09d632e12b6","system_id":"levelo_inurba_marseille","lat":43.29419,"lon":5.38628,"is_reserved":false,"is_disabled":false,"rental_uris":{"android":"levelo://app?vid=099b73dd-b2cf-4577-a4e7-d09d632e12b6","ios":"levelo://app?vid=099b73dd-b2cf-4577-a4e7-d09d632e12b6"},"vehicle_type_id":"4","last_reported":1741126113,"current_range_meters":11600,"station_id":"ce4bh112rcd13ifvqd90","pricing_plan_id":"cebpf4jnsgd1na2vs0mg"},{"bike_id":"51f6f578-8898-487a-9da7-ff3d6d379d1b","system_id":"levelo_inurba_marseille","lat":43.32102,"lon":5.36777,"is_reserved":false,"is_disabled":false,"rental_uris":{"android":"levelo://app?vid=51f6f578-8898-487a-9da7-ff3d6d379d1b","ios":"levelo://app?vid=51f6f578-8898-487a-9da7-ff3d6d379d1b"},"vehicle_type_id":"4","last_reported":1741126113,"current_range_meters":11600,"station_id":"ce4bhrh2rcd13ifvqhug","pricing_plan_id":"cebpf4jnsgd1na2vs0mg"},{"bike_id":"5f696243-25ff-476b-9e33-4c40c23c931f","system_id":"levelo_inurba_marseille","lat":43.28701,"lon":5.37391,"is_reserved":false,"is_disabled":false,"rental_uris":{"android":"levelo://app?vid=5f696243-25ff-476b-9e33-4c40c23c931f","ios":"levelo://app?vid=5f696243-25ff-476b-9e33-4c40c23c931f"},"vehicle_type_id":"4","last_reported":1741126113,"current_range_meters":11600,"station_id":"ce4bh3p2rcd13ifvqdq0","pricing_plan_id":"cebpf4jnsgd1na2vs0mg"},{"bike_id":"4167f6bd-40b7-45c1-950d-68f467926bd6","system_id":"levelo_inurba_marseille","lat":43.28982,"lon":5.37853,"is_reserved":false,"is_disabled":true,"rental_uris":{"android":"levelo://app?vid=4167f6bd-40b7-45c1-950d-68f467926bd6","ios":"levelo://app?vid=4167f6bd-40b7-45c1-950d-68f467926bd6"},"vehicle_type_id":"4","last_reported":1741126113,"current_range_meters":12000,"station_id":"ce4bh9p2rcd13ifvqed0","pricing_plan_id":"cebpf4jnsgd1na2vs0mg"},{"bike_id":"6061c82f-63ed-42ba-870f-42df5f1a263a","system_id":"levelo_inurba_marseille","lat":43.28847,"lon":5.35852,"is_reserved":false,"is_disabled":false,"rental_uris":{"android":"levelo://app?vid=6061c82f-63ed-42ba-870f-42df5f1a263a","ios":"levelo://app?vid=6061c82f-63ed-42ba-870f-42df5f1a263a"},"vehicle_type_id":"4","last_reported":1741126113,"current_range_meters":12000,"station_id":"ce4bhb12rcd13ifvqem0","pricing_plan_id":"cebpf4jnsgd1na2vs0mg"},{"bike_id":"778f1614-81cb-4655-9267-a46581ae8a47","system_id":"levelo_inurba_marseille","lat":43.2791,"lon":5.39581,"is_reserved":false,"is_disabled":false,"rental_uris":{"android":"levelo://app?vid=778f1614-81cb-4655-9267-a46581ae8a47","ios":"levelo://app?vid=778f1614-81cb-4655-9267-a46581ae8a47"},"vehicle_type_id":"4","last_reported":1741126113,"current_range_meters":12000,"station_id":"ce4bhf92rcd13ifvqf40","pricing_plan_id":"cebpf4jnsgd1na2vs0mg"},{"bike_id":"f8b34b05-3ce8-4023-b46a-493d367bd4f6","system_id":"levelo_inurba_marseille","lat":43.27177,"lon":5.40994,"is_reserved":false,"is_disabled":false,"rental_uris":{"android":"levelo://app?vid=f8b34b05-3ce8-4023-b46a-493d367bd4f6","ios":"levelo://app?vid=f8b34b05-3ce8-4023-b46a-493d367bd4f6"},"vehicle_type_id":"4","last_reported":1741126113,"current_range_meters":12000,"station_id":"ce4bhl12rcd13ifvqgf0","pricing_plan_id":"cebpf4jnsgd1na2vs0mg"},{"bike_id":"b84d05cc-d77a-4bbc-8ae9-c939fdac8f3b","system_id":"levelo_inurba_marseille","lat":43.28937,"lon":5.36634,"is_reserved":false,"is_disabled":false,"rental_uris":{"android":"levelo://app?vid=b84d05cc-d77a-4bbc-8ae9-c939fdac8f3b","ios":"levelo://app?vid=b84d05cc-d77a-4bbc-8ae9-c939fdac8f3b"},"vehicle_type_id":"4","last_reported":1741126113,"current_range_meters":12400,"station_id":"ce4bhap2rcd13ifvqek0","pricing_plan_id":"cebpf4jnsgd1na2vs0mg"},{"bike_id":"391744a2-abab-4ab2-a32e-38c6ddee882a","system_id":"levelo_inurba_marseille","lat":43.29971,"lon":5.38455,"is_reserved":false,"is_disabled":true,"rental_uris":{"android":"levelo://app?vid=391744a2-abab-4ab2-a32e-38c6ddee882a","ios":"levelo://app?vid=391744a2-abab-4ab2-a32e-38c6ddee882a"},"vehicle_type_id":"4","last_reported":1741126113,"current_range_meters":12400,"station_id":"ce4bgj92rcd13ifvqbd0","pricing_plan_id":"cebpf4jnsgd1na2vs0mg"},{"bike_id":"c19d2d03-17b5-4949-b7dc-22a7fd555156","system_id":"levelo_inurba_marseille","lat":43.30056,"lon":5.39987,"is_reserved":false,"is_disabled":false,"rental_uris":{"android":"levelo://app?vid=c19d2d03-17b5-4949-b7dc-22a7fd555156","ios":"levelo://app?vid=c19d2d03-17b5-4949-b7dc-22a7fd555156"},"vehicle_type_id":"4","last_reported":1741126113,"current_range_meters":12400,"station_id":"","pricing_plan_id":"cebpf4jnsgd1na2vs0mg"},{"bike_id":"f6968460-496f-4dc8-98f9-fe94f42f985f","system_id":"levelo_inurba_marseille","lat":43.29245,"lon":5.40906,"is_reserved":false,"is_disabled":false,"rental_uris":{"android":"levelo://app?vid=f6968460-496f-4dc8-98f9-fe94f42f985f","ios":"levelo://app?vid=f6968460-496f-4dc8-98f9-fe94f42f985f"},"vehicle_type_id":"4","last_reported":1741126113,"current_range_meters":12400,"station_id":"ce4bh192rcd13ifvqdc0","pricing_plan_id":"cebpf4jnsgd1na2vs0mg"},{"bike_id":"6169a194-4824-4479-86e0-8c45b7e3ac7b","system_id":"levelo_inurba_marseille","lat":43.23151,"lon":5.43719,"is_reserved":false,"is_disabled":false,"rental_uris":{"android":"levelo://app?vid=6169a194-4824-4479-86e0-8c45b7e3ac7b","ios":"levelo://app?vid=6169a194-4824-4479-86e0-8c45b7e3ac7b"},"vehicle_type_id":"4","last_reported":1741126113,"current_range_meters":12400,"station_id":"ce4bhmp2rcd13ifvqgog","pricing_plan_id":"cebpf4jnsgd1na2vs0mg"},{"bike_id":"62abbf65-fdb4-4039-8d17-a6787ca98437","system_id":"levelo_inurba_marseille","lat":43.26488,"lon":5.39553,"is_reserved":false,"is_disabled":true,"rental_uris":{"android":"levelo://app?vid=62abbf65-fdb4-4039-8d17-a6787ca98437","ios":"levelo://app?vid=62abbf65-fdb4-4039-8d17-a6787ca98437"},"vehicle_type_id":"4","last_reported":1741126113,"current_range_meters":12400,"station_id":"ce4bhi12rcd13ifvqfq0","pricing_plan_id":"cebpf4jnsgd1na2vs0mg"},{"bike_id":"0e29acd6-00fd-4cf4-8232-d5715cfd0a6d","system_id":"levelo_inurba_marseille","lat":43.25825,"lon":5.39424,"is_reserved":false,"is_disabled":false,"rental_uris":{"android":"levelo://app?vid=0e29acd6-00fd-4cf4-8232-d5715cfd0a6d","ios":"levelo://app?vid=0e29acd6-00fd-4cf4-8232-d5715cfd0a6d"},"vehicle_type_id":"4","last_reported":1741126113,"current_range_meters":12400,"station_id":"ce4bhip2rcd13ifvqft0","pricing_plan_id":"cebpf4jnsgd1na2vs0mg"},{"bike_id":"a47a13a9-c176-4f2b-bca1-9dd7e5a64881","system_id":"levelo_inurba_marseille","lat":43.30926,"lon":5.40145,"is_reserved":false,"is_disabled":true,"rental_uris":{"android":"levelo://app?vid=a47a13a9-c176-4f2b-bca1-9dd7e5a64881","ios":"levelo://app?vid=a47a13a9-c176-4f2b-bca1-9dd7e5a64881"},"vehicle_type_id":"4","last_reported":1741126113,"current_range_meters":12400,"station_id":"ce4bgvp2rcd13ifvqct0","pricing_plan_id":"cebpf4jnsgd1na2vs0mg"},{"bike_id":"b32a2fa1-b5fb-4c15-89ca-49c22cd0cab8","system_id":"levelo_inurba_marseille","lat":43.25108,"lon":5.4032,"is_reserved":false,"is_disabled":false,"rental_uris":{"android":"levelo://app?vid=b32a2fa1-b5fb-4c15-89ca-49c22cd0cab8","ios":"levelo://app?vid=b32a2fa1-b5fb-4c15-89ca-49c22cd0cab8"},"vehicle_type_id":"4","last_reported":1741126113,"current_range_meters":12400,"station_id":"ce4bhlh2rcd13ifvqgig","pricing_plan_id":"cebpf4jnsgd1na2vs0mg"},{"bike_id":"65454335-2b8f-41a7-9a83-ad755de99323","system_id":"levelo_inurba_marseille","lat":43.248086,"lon":5.374592,"is_reserved":false,"is_disabled":false,"rental_uris":{"android":"levelo://app?vid=65454335-2b8f-41a7-9a83-ad755de99323","ios":"levelo://app?vid=65454335-2b8f-41a7-9a83-ad755de99323"},"vehicle_type_id":"4","last_reported":1741126113,"current_range_meters":12400,"station_id":"ce4bhgh2rcd13ifvqfb0","pricing_plan_id":"cebpf4jnsgd1na2vs0mg"},{"bike_id":"0eb9fef3-83c8-47c8-ad9e-cfe2998c47d1","system_id":"levelo_inurba_marseille","lat":43.310559,"lon":5.375628,"is_reserved":false,"is_disabled":false,"rental_uris":{"android":"levelo://app?vid=0eb9fef3-83c8-47c8-ad9e-cfe2998c47d1","ios":"levelo://app?vid=0eb9fef3-83c8-47c8-ad9e-cfe2998c47d1"},"vehicle_type_id":"4","last_reported":1741126113,"current_range_meters":12800,"station_id":"","pricing_plan_id":"cebpf4jnsgd1na2vs0mg"},{"bike_id":"43dceac1-ef60-48a7-b7c7-838b457fc8ef","system_id":"levelo_inurba_marseille","lat":43.287002,"lon":5.373832,"is_reserved":false,"is_disabled":false,"rental_uris":{"android":"levelo://app?vid=43dceac1-ef60-48a7-b7c7-838b457fc8ef","ios":"levelo://app?vid=43dceac1-ef60-48a7-b7c7-838b457fc8ef"},"vehicle_type_id":"4","last_reported":1741126113,"current_range_meters":12800,"station_id":"ce4bh3p2rcd13ifvqdq0","pricing_plan_id":"cebpf4jnsgd1na2vs0mg"},{"bike_id":"7cd5e07c-ad2a-4af8-99d9-77c41335ce79","system_id":"levelo_inurba_marseille","lat":43.24171,"lon":5.36399,"is_reserved":false,"is_disabled":false,"rental_uris":{"android":"levelo://app?vid=7cd5e07c-ad2a-4af8-99d9-77c41335ce79","ios":"levelo://app?vid=7cd5e07c-ad2a-4af8-99d9-77c41335ce79"},"vehicle_type_id":"4","last_reported":1741126113,"current_range_meters":12800,"station_id":"cpo36qri1sfpv3e86is0","pricing_plan_id":"cebpf4jnsgd1na2vs0mg"},{"bike_id":"6d43b52d-edb7-44c3-8ec8-85fd8093a142","system_id":"levelo_inurba_marseille","lat":43.28093,"lon":5.37855,"is_reserved":false,"is_disabled":false,"rental_uris":{"android":"levelo://app?vid=6d43b52d-edb7-44c3-8ec8-85fd8093a142","ios":"levelo://app?vid=6d43b52d-edb7-44c3-8ec8-85fd8093a142"},"vehicle_type_id":"4","last_reported":1741126113,"current_range_meters":12800,"station_id":"ce4bha12rcd13ifvqee0","pricing_plan_id":"cebpf4jnsgd1na2vs0mg"},{"bike_id":"d571166c-77a4-4a91-b051-9cc34ad31336","system_id":"levelo_inurba_marseille","lat":43.30221,"lon":5.3931,"is_reserved":false,"is_disabled":false,"rental_uris":{"android":"levelo://app?vid=d571166c-77a4-4a91-b051-9cc34ad31336","ios":"levelo://app?vid=d571166c-77a4-4a91-b051-9cc34ad31336"},"vehicle_type_id":"4","last_reported":1741126113,"current_range_meters":12800,"station_id":"","pricing_plan_id":"cebpf4jnsgd1na2vs0mg"},{"bike_id":"7f9a907d-91a1-46a4-ad09-7d892c3aca27","system_id":"levelo_inurba_marseille","lat":43.30934,"lon":5.40135,"is_reserved":false,"is_disabled":false,"rental_uris":{"android":"levelo://app?vid=7f9a907d-91a1-46a4-ad09-7d892c3aca27","ios":"levelo://app?vid=7f9a907d-91a1-46a4-ad09-7d892c3aca27"},"vehicle_type_id":"4","last_reported":1741126113,"current_range_meters":12800,"station_id":"ce4bgvp2rcd13ifvqct0","pricing_plan_id":"cebpf4jnsgd1na2vs0mg"},{"bike_id":"8441514c-4110-42af-a6dc-85606173b4cc","system_id":"levelo_inurba_marseille","lat":43.24672,"lon":5.38149,"is_reserved":false,"is_disabled":false,"rental_uris":{"android":"levelo://app?vid=8441514c-4110-42af-a6dc-85606173b4cc","ios":"levelo://app?vid=8441514c-4110-42af-a6dc-85606173b4cc"},"vehicle_type_id":"4","last_reported":1741126113,"current_range_meters":12800,"station_id":"ce4bhih2rcd13ifvqfr0","pricing_plan_id":"cebpf4jnsgd1na2vs0mg"},{"bike_id":"24aff005-c1bf-4359-9a1e-dfb9b1514a2b","system_id":"levelo_inurba_marseille","lat":43.296326,"lon":5.397894,"is_reserved":false,"is_disabled":false,"rental_uris":{"android":"levelo://app?vid=24aff005-c1bf-4359-9a1e-dfb9b1514a2b","ios":"levelo://app?vid=24aff005-c1bf-4359-9a1e-dfb9b1514a2b"},"vehicle_type_id":"4","last_reported":1741126113,"current_range_meters":12800,"station_id":"ce4bgvh2rcd13ifvqcs0","pricing_plan_id":"cebpf4jnsgd1na2vs0mg"},{"bike_id":"9664280c-ec19-44a4-9913-206ac50d66b9","system_id":"levelo_inurba_marseille","lat":43.26239,"lon":5.40451,"is_reserved":false,"is_disabled":false,"rental_uris":{"android":"levelo://app?vid=9664280c-ec19-44a4-9913-206ac50d66b9","ios":"levelo://app?vid=9664280c-ec19-44a4-9913-206ac50d66b9"},"vehicle_type_id":"4","last_reported":1741126113,"current_range_meters":13600,"station_id":"ce4bhmh2rcd13ifvqgmg","pricing_plan_id":"cebpf4jnsgd1na2vs0mg"},{"bike_id":"3d54dcb6-8343-4a44-8572-7a5389cb2207","system_id":"levelo_inurba_marseille","lat":43.29068,"lon":5.37153,"is_reserved":false,"is_disabled":false,"rental_uris":{"android":"levelo://app?vid=3d54dcb6-8343-4a44-8572-7a5389cb2207","ios":"levelo://app?vid=3d54dcb6-8343-4a44-8572-7a5389cb2207"},"vehicle_type_id":"4","last_reported":1741126113,"current_range_meters":13600,"station_id":"ce4bh5p2rcd13ifvqe4g","pricing_plan_id":"cebpf4jnsgd1na2vs0mg"},{"bike_id":"03d5bd23-db2c-4a3d-9573-a1403447f741","system_id":"levelo_inurba_marseille","lat":43.27836,"lon":5.40694,"is_reserved":false,"is_disabled":false,"rental_uris":{"android":"levelo://app?vid=03d5bd23-db2c-4a3d-9573-a1403447f741","ios":"levelo://app?vid=03d5bd23-db2c-4a3d-9573-a1403447f741"},"vehicle_type_id":"4","last_reported":1741126113,"current_range_meters":13600,"station_id":"ce4bhnh2rcd13ifvqgtg","pricing_plan_id":"cebpf4jnsgd1na2vs0mg"},{"bike_id":"e126cf9b-9912-4c39-ab86-baa13346af6b","system_id":"levelo_inurba_marseille","lat":43.30881,"lon":5.39651,"is_reserved":false,"is_disabled":false,"rental_uris":{"android":"levelo://app?vid=e126cf9b-9912-4c39-ab86-baa13346af6b","ios":"levelo://app?vid=e126cf9b-9912-4c39-ab86-baa13346af6b"},"vehicle_type_id":"4","last_reported":1741126113,"current_range_meters":13600,"station_id":"ce4bh012rcd13ifvqcv0","pricing_plan_id":"cebpf4jnsgd1na2vs0mg"},{"bike_id":"226fc5b5-2dc3-4df3-b484-d227347b3355","system_id":"levelo_inurba_marseille","lat":43.28459,"lon":5.35879,"is_reserved":false,"is_disabled":false,"rental_uris":{"android":"levelo://app?vid=226fc5b5-2dc3-4df3-b484-d227347b3355","ios":"levelo://app?vid=226fc5b5-2dc3-4df3-b484-d227347b3355"},"vehicle_type_id":"4","last_reported":1741126113,"current_range_meters":13600,"station_id":"ce4bhah2rcd13ifvqei0","pricing_plan_id":"cebpf4jnsgd1na2vs0mg"},{"bike_id":"c55557ad-1ed5-4997-aee7-ac92107f14b6","system_id":"levelo_inurba_marseille","lat":43.26522,"lon":5.37492,"is_reserved":false,"is_disabled":false,"rental_uris":{"android":"levelo://app?vid=c55557ad-1ed5-4997-aee7-ac92107f14b6","ios":"levelo://app?vid=c55557ad-1ed5-4997-aee7-ac92107f14b6"},"vehicle_type_id":"4","last_reported":1741126113,"current_range_meters":14000,"station_id":"","pricing_plan_id":"cebpf4jnsgd1na2vs0mg"},{"bike_id":"4b3527e0-2461-4d35-a7b3-3519632fea52","system_id":"levelo_inurba_marseille","lat":43.31317,"lon":5.39701,"is_reserved":false,"is_disabled":false,"rental_uris":{"android":"levelo://app?vid=4b3527e0-2461-4d35-a7b3-3519632fea52","ios":"levelo://app?vid=4b3527e0-2461-4d35-a7b3-3519632fea52"},"vehicle_type_id":"4","last_reported":1741126113,"current_range_meters":14000,"station_id":"ce4bgvp2rcd13ifvqcu0","pricing_plan_id":"cebpf4jnsgd1na2vs0mg"},{"bike_id":"a7e0ecfa-1a12-4f39-bc94-a67e64a13133","system_id":"levelo_inurba_marseille","lat":43.29534,"lon":5.39404,"is_reserved":false,"is_disabled":false,"rental_uris":{"android":"levelo://app?vid=a7e0ecfa-1a12-4f39-bc94-a67e64a13133","ios":"levelo://app?vid=a7e0ecfa-1a12-4f39-bc94-a67e64a13133"},"vehicle_type_id":"4","last_reported":1741126113,"current_range_meters":14000,"station_id":"ce4bh292rcd13ifvqdf0","pricing_plan_id":"cebpf4jnsgd1na2vs0mg"},{"bike_id":"b0bab969-b185-4a3a-91e5-f6829e4cca8e","system_id":"levelo_inurba_marseille","lat":43.30431,"lon":5.39749,"is_reserved":false,"is_disabled":false,"rental_uris":{"android":"levelo://app?vid=b0bab969-b185-4a3a-91e5-f6829e4cca8e","ios":"levelo://app?vid=b0bab969-b185-4a3a-91e5-f6829e4cca8e"},"vehicle_type_id":"4","last_reported":1741126113,"current_range_meters":14000,"station_id":"ce4bh092rcd13ifvqd20","pricing_plan_id":"cebpf4jnsgd1na2vs0mg"},{"bike_id":"28096b7f-96ae-4ea2-8ceb-2396385a6306","system_id":"levelo_inurba_marseille","lat":43.24642,"lon":5.38883,"is_reserved":false,"is_disabled":true,"rental_uris":{"android":"levelo://app?vid=28096b7f-96ae-4ea2-8ceb-2396385a6306","ios":"levelo://app?vid=28096b7f-96ae-4ea2-8ceb-2396385a6306"},"vehicle_type_id":"4","last_reported":1741126113,"current_range_meters":14000,"station_id":"ce4bhg12rcd13ifvqf60","pricing_plan_id":"cebpf4jnsgd1na2vs0mg"},{"bike_id":"e1cdc4f0-509b-415c-9592-9c6eaf597898","system_id":"levelo_inurba_marseille","lat":43.278161,"lon":5.40729,"is_reserved":false,"is_disabled":false,"rental_uris":{"android":"levelo://app?vid=e1cdc4f0-509b-415c-9592-9c6eaf597898","ios":"levelo://app?vid=e1cdc4f0-509b-415c-9592-9c6eaf597898"},"vehicle_type_id":"4","last_reported":1741126113,"current_range_meters":14000,"station_id":"ce4bhnh2rcd13ifvqgtg","pricing_plan_id":"cebpf4jnsgd1na2vs0mg"},{"bike_id":"2456e801-a91a-462b-b8b0-f1d3a84e6dee","system_id":"levelo_inurba_marseille","lat":43.2875,"lon":5.39946,"is_reserved":false,"is_disabled":false,"rental_uris":{"android":"levelo://app?vid=2456e801-a91a-462b-b8b0-f1d3a84e6dee","ios":"levelo://app?vid=2456e801-a91a-462b-b8b0-f1d3a84e6dee"},"vehicle_type_id":"4","last_reported":1741126113,"current_range_meters":14000,"station_id":"","pricing_plan_id":"cebpf4jnsgd1na2vs0mg"},{"bike_id":"15d8cf60-e2c6-4878-b1df-683348cc043e","system_id":"levelo_inurba_marseille","lat":43.24817,"lon":5.37446,"is_reserved":false,"is_disabled":false,"rental_uris":{"android":"levelo://app?vid=15d8cf60-e2c6-4878-b1df-683348cc043e","ios":"levelo://app?vid=15d8cf60-e2c6-4878-b1df-683348cc043e"},"vehicle_type_id":"4","last_reported":1741126113,"current_range_meters":14000,"station_id":"ce4bhgh2rcd13ifvqfb0","pricing_plan_id":"cebpf4jnsgd1na2vs0mg"},{"bike_id":"37a6782e-7ccd-446a-8720-554a897c2739","system_id":"levelo_inurba_marseille","lat":43.25826,"lon":5.39442,"is_reserved":false,"is_disabled":false,"rental_uris":{"android":"levelo://app?vid=37a6782e-7ccd-446a-8720-554a897c2739","ios":"levelo://app?vid=37a6782e-7ccd-446a-8720-554a897c2739"},"vehicle_type_id":"4","last_reported":1741126113,"current_range_meters":14000,"station_id":"ce4bhip2rcd13ifvqft0","pricing_plan_id":"cebpf4jnsgd1na2vs0mg"},{"bike_id":"f5ed205e-04be-4208-b36d-10234d67de53","system_id":"levelo_inurba_marseille","lat":43.30338,"lon":5.36914,"is_reserved":false,"is_disabled":false,"rental_uris":{"android":"levelo://app?vid=f5ed205e-04be-4208-b36d-10234d67de53","ios":"levelo://app?vid=f5ed205e-04be-4208-b36d-10234d67de53"},"vehicle_type_id":"4","last_reported":1741126113,"current_range_meters":14000,"station_id":"ce4bgqh2rcd13ifvqc5g","pricing_plan_id":"cebpf4jnsgd1na2vs0mg"},{"bike_id":"2785ebb9-d7fc-4fc4-8755-553314fe390c","system_id":"levelo_inurba_marseille","lat":43.24996,"lon":5.38928,"is_reserved":false,"is_disabled":false,"rental_uris":{"android":"levelo://app?vid=2785ebb9-d7fc-4fc4-8755-553314fe390c","ios":"levelo://app?vid=2785ebb9-d7fc-4fc4-8755-553314fe390c"},"vehicle_type_id":"4","last_reported":1741126113,"current_range_meters":14400,"station_id":"ce4bhgp2rcd13ifvqfd0","pricing_plan_id":"cebpf4jnsgd1na2vs0mg"},{"bike_id":"59265087-e393-4063-9d20-fa507a2a898c","system_id":"levelo_inurba_marseille","lat":43.27817,"lon":5.40707,"is_reserved":false,"is_disabled":false,"rental_uris":{"android":"levelo://app?vid=59265087-e393-4063-9d20-fa507a2a898c","ios":"levelo://app?vid=59265087-e393-4063-9d20-fa507a2a898c"},"vehicle_type_id":"4","last_reported":1741126113,"current_range_meters":14400,"station_id":"ce4bhnh2rcd13ifvqgtg","pricing_plan_id":"cebpf4jnsgd1na2vs0mg"},{"bike_id":"ba25e91e-e404-4dcb-b6a5-1516b894d25f","system_id":"levelo_inurba_marseille","lat":43.28453,"lon":5.35888,"is_reserved":false,"is_disabled":false,"rental_uris":{"android":"levelo://app?vid=ba25e91e-e404-4dcb-b6a5-1516b894d25f","ios":"levelo://app?vid=ba25e91e-e404-4dcb-b6a5-1516b894d25f"},"vehicle_type_id":"4","last_reported":1741126113,"current_range_meters":14400,"station_id":"ce4bhah2rcd13ifvqei0","pricing_plan_id":"cebpf4jnsgd1na2vs0mg"},{"bike_id":"05668d0c-7324-48c7-b014-c8ea1f0e6533","system_id":"levelo_inurba_marseille","lat":43.29778,"lon":5.37088,"is_reserved":false,"is_disabled":false,"rental_uris":{"android":"levelo://app?vid=05668d0c-7324-48c7-b014-c8ea1f0e6533","ios":"levelo://app?vid=05668d0c-7324-48c7-b014-c8ea1f0e6533"},"vehicle_type_id":"4","last_reported":1741126113,"current_range_meters":14400,"station_id":"ce4bgop2rcd13ifvqc1g","pricing_plan_id":"cebpf4jnsgd1na2vs0mg"},{"bike_id":"e7957d0f-a31a-4207-826c-0ed3efd2ad40","system_id":"levelo_inurba_marseille","lat":43.29014,"lon":5.35617,"is_reserved":false,"is_disabled":false,"rental_uris":{"android":"levelo://app?vid=e7957d0f-a31a-4207-826c-0ed3efd2ad40","ios":"levelo://app?vid=e7957d0f-a31a-4207-826c-0ed3efd2ad40"},"vehicle_type_id":"4","last_reported":1741126113,"current_range_meters":14400,"station_id":"ce4bhb92rcd13ifvqen0","pricing_plan_id":"cebpf4jnsgd1na2vs0mg"},{"bike_id":"4a2da07a-b9ad-4b93-a387-be16767f29cb","system_id":"levelo_inurba_marseille","lat":43.28924,"lon":5.3639,"is_reserved":false,"is_disabled":false,"rental_uris":{"android":"levelo://app?vid=4a2da07a-b9ad-4b93-a387-be16767f29cb","ios":"levelo://app?vid=4a2da07a-b9ad-4b93-a387-be16767f29cb"},"vehicle_type_id":"4","last_reported":1741126113,"current_range_meters":14400,"station_id":"ce4bhc92rcd13ifvqetg","pricing_plan_id":"cebpf4jnsgd1na2vs0mg"},{"bike_id":"892cd4cc-09bf-4c71-bb11-9df83de773e0","system_id":"levelo_inurba_marseille","lat":43.31316,"lon":5.39724,"is_reserved":false,"is_disabled":false,"rental_uris":{"android":"levelo://app?vid=892cd4cc-09bf-4c71-bb11-9df83de773e0","ios":"levelo://app?vid=892cd4cc-09bf-4c71-bb11-9df83de773e0"},"vehicle_type_id":"4","last_reported":1741126113,"current_range_meters":14400,"station_id":"ce4bgvp2rcd13ifvqcu0","pricing_plan_id":"cebpf4jnsgd1na2vs0mg"},{"bike_id":"ad84434d-20fb-4dcc-8def-077a9f6fa45b","system_id":"levelo_inurba_marseille","lat":43.284061,"lon":5.375022,"is_reserved":false,"is_disabled":false,"rental_uris":{"android":"levelo://app?vid=ad84434d-20fb-4dcc-8def-077a9f6fa45b","ios":"levelo://app?vid=ad84434d-20fb-4dcc-8def-077a9f6fa45b"},"vehicle_type_id":"4","last_reported":1741126113,"current_range_meters":14800,"station_id":"","pricing_plan_id":"cebpf4jnsgd1na2vs0mg"},{"bike_id":"cd6daa3a-07f9-42ed-90a2-4f41a2e8d311","system_id":"levelo_inurba_marseille","lat":43.30217,"lon":5.39513,"is_reserved":false,"is_disabled":false,"rental_uris":{"android":"levelo://app?vid=cd6daa3a-07f9-42ed-90a2-4f41a2e8d311","ios":"levelo://app?vid=cd6daa3a-07f9-42ed-90a2-4f41a2e8d311"},"vehicle_type_id":"4","last_reported":1741126113,"current_range_meters":14800,"station_id":"ce4bh0p2rcd13ifvqd70","pricing_plan_id":"cebpf4jnsgd1na2vs0mg"},{"bike_id":"3c0c83c5-ab80-4377-a80d-6db8ea5c21e9","system_id":"levelo_inurba_marseille","lat":43.308563,"lon":5.396624,"is_reserved":false,"is_disabled":false,"rental_uris":{"android":"levelo://app?vid=3c0c83c5-ab80-4377-a80d-6db8ea5c21e9","ios":"levelo://app?vid=3c0c83c5-ab80-4377-a80d-6db8ea5c21e9"},"vehicle_type_id":"4","last_reported":1741126113,"current_range_meters":14800,"station_id":"ce4bh012rcd13ifvqcv0","pricing_plan_id":"cebpf4jnsgd1na2vs0mg"},{"bike_id":"1901498a-ebd7-4475-a783-2e0e0f24884a","system_id":"levelo_inurba_marseille","lat":43.27213,"lon":5.39196,"is_reserved":false,"is_disabled":false,"rental_uris":{"android":"levelo://app?vid=1901498a-ebd7-4475-a783-2e0e0f24884a","ios":"levelo://app?vid=1901498a-ebd7-4475-a783-2e0e0f24884a"},"vehicle_type_id":"4","last_reported":1741126113,"current_range_meters":14800,"station_id":"ce4bhhp2rcd13ifvqfm0","pricing_plan_id":"cebpf4jnsgd1na2vs0mg"},{"bike_id":"4e099002-469e-40dd-a988-90ba29d19792","system_id":"levelo_inurba_marseille","lat":43.24567,"lon":5.39518,"is_reserved":false,"is_disabled":false,"rental_uris":{"android":"levelo://app?vid=4e099002-469e-40dd-a988-90ba29d19792","ios":"levelo://app?vid=4e099002-469e-40dd-a988-90ba29d19792"},"vehicle_type_id":"4","last_reported":1741126113,"current_range_meters":14800,"station_id":"ce4bhlp2rcd13ifvqgjg","pricing_plan_id":"cebpf4jnsgd1na2vs0mg"},{"bike_id":"2227c538-770c-479b-ada4-e4d08befc53c","system_id":"levelo_inurba_marseille","lat":43.27621,"lon":5.36135,"is_reserved":false,"is_disabled":false,"rental_uris":{"android":"levelo://app?vid=2227c538-770c-479b-ada4-e4d08befc53c","ios":"levelo://app?vid=2227c538-770c-479b-ada4-e4d08befc53c"},"vehicle_type_id":"4","last_reported":1741126113,"current_range_meters":14800,"station_id":"ce4bgj92rcd13ifvqbe0","pricing_plan_id":"cebpf4jnsgd1na2vs0mg"},{"bike_id":"4c318e6f-45ad-4827-bf6b-ffb0059697a8","system_id":"levelo_inurba_marseille","lat":43.32287,"lon":5.4063,"is_reserved":false,"is_disabled":false,"rental_uris":{"android":"levelo://app?vid=4c318e6f-45ad-4827-bf6b-ffb0059697a8","ios":"levelo://app?vid=4c318e6f-45ad-4827-bf6b-ffb0059697a8"},"vehicle_type_id":"4","last_reported":1741126113,"current_range_meters":14800,"station_id":"","pricing_plan_id":"cebpf4jnsgd1na2vs0mg"},{"bike_id":"0887995a-7163-48cf-a17f-e3237da9ea00","system_id":"levelo_inurba_marseille","lat":43.2317,"lon":5.40005,"is_reserved":false,"is_disabled":false,"rental_uris":{"android":"levelo://app?vid=0887995a-7163-48cf-a17f-e3237da9ea00","ios":"levelo://app?vid=0887995a-7163-48cf-a17f-e3237da9ea00"},"vehicle_type_id":"4","last_reported":1741126113,"current_range_meters":14800,"station_id":"ce4bhn12rcd13ifvqgqg","pricing_plan_id":"cebpf4jnsgd1na2vs0mg"},{"bike_id":"5c0d7678-af0d-4c07-ba6d-73e21c2b49b7","system_id":"levelo_inurba_marseille","lat":43.28556,"lon":5.39498,"is_reserved":false,"is_disabled":false,"rental_uris":{"android":"levelo://app?vid=5c0d7678-af0d-4c07-ba6d-73e21c2b49b7","ios":"levelo://app?vid=5c0d7678-af0d-4c07-ba6d-73e21c2b49b7"},"vehicle_type_id":"4","last_reported":1741126113,"current_range_meters":14800,"station_id":"ce4bh292rcd13ifvqdg0","pricing_plan_id":"cebpf4jnsgd1na2vs0mg"},{"bike_id":"df324d69-dfb4-4180-81be-4c33c267a97c","system_id":"levelo_inurba_marseille","lat":43.30897,"lon":5.37187,"is_reserved":false,"is_disabled":false,"rental_uris":{"android":"levelo://app?vid=df324d69-dfb4-4180-81be-4c33c267a97c","ios":"levelo://app?vid=df324d69-dfb4-4180-81be-4c33c267a97c"},"vehicle_type_id":"4","last_reported":1741126113,"current_range_meters":15200,"station_id":"ce4bguh2rcd13ifvqckg","pricing_plan_id":"cebpf4jnsgd1na2vs0mg"},{"bike_id":"212a8d26-ed45-436d-a111-49aef60ad47e","system_id":"levelo_inurba_marseille","lat":43.27995,"lon":5.41666,"is_reserved":false,"is_disabled":false,"rental_uris":{"android":"levelo://app?vid=212a8d26-ed45-436d-a111-49aef60ad47e","ios":"levelo://app?vid=212a8d26-ed45-436d-a111-49aef60ad47e"},"vehicle_type_id":"4","last_reported":1741126113,"current_range_meters":14800,"station_id":"ce4bho12rcd13ifvqh1g","pricing_plan_id":"cebpf4jnsgd1na2vs0mg"},{"bike_id":"95af3f61-11f3-48c0-a765-258073df16be","system_id":"levelo_inurba_marseille","lat":43.24803,"lon":5.37453,"is_reserved":false,"is_disabled":false,"rental_uris":{"android":"levelo://app?vid=95af3f61-11f3-48c0-a765-258073df16be","ios":"levelo://app?vid=95af3f61-11f3-48c0-a765-258073df16be"},"vehicle_type_id":"4","last_reported":1741126113,"current_range_meters":15200,"station_id":"ce4bhgh2rcd13ifvqfb0","pricing_plan_id":"cebpf4jnsgd1na2vs0mg"},{"bike_id":"45531899-b171-4b11-9743-5e84d77c8538","system_id":"levelo_inurba_marseille","lat":43.2783,"lon":5.40695,"is_reserved":false,"is_disabled":false,"rental_uris":{"android":"levelo://app?vid=45531899-b171-4b11-9743-5e84d77c8538","ios":"levelo://app?vid=45531899-b171-4b11-9743-5e84d77c8538"},"vehicle_type_id":"4","last_reported":1741126113,"current_range_meters":15200,"station_id":"ce4bhnh2rcd13ifvqgtg","pricing_plan_id":"cebpf4jnsgd1na2vs0mg"},{"bike_id":"d5848d0f-732d-4e48-b448-ee0739486116","system_id":"levelo_inurba_marseille","lat":43.301436,"lon":5.387804,"is_reserved":false,"is_disabled":false,"rental_uris":{"android":"levelo://app?vid=d5848d0f-732d-4e48-b448-ee0739486116","ios":"levelo://app?vid=d5848d0f-732d-4e48-b448-ee0739486116"},"vehicle_type_id":"4","last_reported":1741126113,"current_range_meters":15200,"station_id":"ce4bh112rcd13ifvqd90","pricing_plan_id":"cebpf4jnsgd1na2vs0mg"},{"bike_id":"a3407cb9-7765-4bca-9fe5-3c33ceff5307","system_id":"levelo_inurba_marseille","lat":43.33326,"lon":5.39719,"is_reserved":false,"is_disabled":false,"rental_uris":{"android":"levelo://app?vid=a3407cb9-7765-4bca-9fe5-3c33ceff5307","ios":"levelo://app?vid=a3407cb9-7765-4bca-9fe5-3c33ceff5307"},"vehicle_type_id":"4","last_reported":1741126113,"current_range_meters":15200,"station_id":"ce4bhq92rcd13ifvqhkg","pricing_plan_id":"cebpf4jnsgd1na2vs0mg"},{"bike_id":"0c16575b-2d4e-4cf9-960f-1cac2ff7caaf","system_id":"levelo_inurba_marseille","lat":43.28405,"lon":5.37523,"is_reserved":false,"is_disabled":false,"rental_uris":{"android":"levelo://app?vid=0c16575b-2d4e-4cf9-960f-1cac2ff7caaf","ios":"levelo://app?vid=0c16575b-2d4e-4cf9-960f-1cac2ff7caaf"},"vehicle_type_id":"4","last_reported":1741126113,"current_range_meters":15200,"station_id":"ce4bh412rcd13ifvqds0","pricing_plan_id":"cebpf4jnsgd1na2vs0mg"},{"bike_id":"79ad4526-135b-4b53-9e21-d3b2fe547392","system_id":"levelo_inurba_marseille","lat":43.30887,"lon":5.39635,"is_reserved":false,"is_disabled":false,"rental_uris":{"android":"levelo://app?vid=79ad4526-135b-4b53-9e21-d3b2fe547392","ios":"levelo://app?vid=79ad4526-135b-4b53-9e21-d3b2fe547392"},"vehicle_type_id":"4","last_reported":1741126113,"current_range_meters":16000,"station_id":"ce4bh012rcd13ifvqcv0","pricing_plan_id":"cebpf4jnsgd1na2vs0mg"},{"bike_id":"cba6a766-3158-4fdc-849a-5887af830bdc","system_id":"levelo_inurba_marseille","lat":43.2925,"lon":5.38223,"is_reserved":false,"is_disabled":false,"rental_uris":{"android":"levelo://app?vid=cba6a766-3158-4fdc-849a-5887af830bdc","ios":"levelo://app?vid=cba6a766-3158-4fdc-849a-5887af830bdc"},"vehicle_type_id":"4","last_reported":1741126113,"current_range_meters":16000,"station_id":"","pricing_plan_id":"cebpf4jnsgd1na2vs0mg"},{"bike_id":"56d91efa-2eb7-4e4a-9db2-55b2e1600603","system_id":"levelo_inurba_marseille","lat":43.28846,"lon":5.35859,"is_reserved":false,"is_disabled":false,"rental_uris":{"android":"levelo://app?vid=56d91efa-2eb7-4e4a-9db2-55b2e1600603","ios":"levelo://app?vid=56d91efa-2eb7-4e4a-9db2-55b2e1600603"},"vehicle_type_id":"4","last_reported":1741126113,"current_range_meters":16000,"station_id":"ce4bhb12rcd13ifvqem0","pricing_plan_id":"cebpf4jnsgd1na2vs0mg"},{"bike_id":"25f80c95-2bd6-451e-ad57-c539fe73a3c8","system_id":"levelo_inurba_marseille","lat":43.30134,"lon":5.39865,"is_reserved":false,"is_disabled":false,"rental_uris":{"android":"levelo://app?vid=25f80c95-2bd6-451e-ad57-c539fe73a3c8","ios":"levelo://app?vid=25f80c95-2bd6-451e-ad57-c539fe73a3c8"},"vehicle_type_id":"4","last_reported":1741126113,"current_range_meters":16000,"station_id":"ce4bh0h2rcd13ifvqd40","pricing_plan_id":"cebpf4jnsgd1na2vs0mg"},{"bike_id":"bfaefdd0-de3c-401c-9815-bd6ab825eef1","system_id":"levelo_inurba_marseille","lat":43.31752,"lon":5.39019,"is_reserved":false,"is_disabled":false,"rental_uris":{"android":"levelo://app?vid=bfaefdd0-de3c-401c-9815-bd6ab825eef1","ios":"levelo://app?vid=bfaefdd0-de3c-401c-9815-bd6ab825eef1"},"vehicle_type_id":"4","last_reported":1741126113,"current_range_meters":16000,"station_id":"ce4bhqp2rcd13ifvqhng","pricing_plan_id":"cebpf4jnsgd1na2vs0mg"},{"bike_id":"59dde47a-f49e-477d-b91c-eb1792d32685","system_id":"levelo_inurba_marseille","lat":43.30269,"lon":5.4005,"is_reserved":false,"is_disabled":false,"rental_uris":{"android":"levelo://app?vid=59dde47a-f49e-477d-b91c-eb1792d32685","ios":"levelo://app?vid=59dde47a-f49e-477d-b91c-eb1792d32685"},"vehicle_type_id":"4","last_reported":1741126113,"current_range_meters":16000,"station_id":"ce4bgvh2rcd13ifvqcs0","pricing_plan_id":"cebpf4jnsgd1na2vs0mg"},{"bike_id":"330426bc-0af9-4c3e-8e4c-6ec10833df11","system_id":"levelo_inurba_marseille","lat":43.29908,"lon":5.43675,"is_reserved":false,"is_disabled":false,"rental_uris":{"android":"levelo://app?vid=330426bc-0af9-4c3e-8e4c-6ec10833df11","ios":"levelo://app?vid=330426bc-0af9-4c3e-8e4c-6ec10833df11"},"vehicle_type_id":"4","last_reported":1741126113,"current_range_meters":16000,"station_id":"ce4bhpp2rcd13ifvqhfg","pricing_plan_id":"cebpf4jnsgd1na2vs0mg"},{"bike_id":"253377e6-7164-4811-973b-4d94bddbeffc","system_id":"levelo_inurba_marseille","lat":43.30497,"lon":5.37459,"is_reserved":false,"is_disabled":false,"rental_uris":{"android":"levelo://app?vid=253377e6-7164-4811-973b-4d94bddbeffc","ios":"levelo://app?vid=253377e6-7164-4811-973b-4d94bddbeffc"},"vehicle_type_id":"4","last_reported":1741126113,"current_range_meters":16000,"station_id":"","pricing_plan_id":"cebpf4jnsgd1na2vs0mg"},{"bike_id":"c6762606-6123-4176-98c0-430a38ac0378","system_id":"levelo_inurba_marseille","lat":43.24726,"lon":5.41163,"is_reserved":false,"is_disabled":false,"rental_uris":{"android":"levelo://app?vid=c6762606-6123-4176-98c0-430a38ac0378","ios":"levelo://app?vid=c6762606-6123-4176-98c0-430a38ac0378"},"vehicle_type_id":"4","last_reported":1741126113,"current_range_meters":16000,"station_id":"","pricing_plan_id":"cebpf4jnsgd1na2vs0mg"},{"bike_id":"8e67c6c2-1f86-420e-855b-676e159ed831","system_id":"levelo_inurba_marseille","lat":43.23059,"lon":5.3551,"is_reserved":false,"is_disabled":false,"rental_uris":{"android":"levelo://app?vid=8e67c6c2-1f86-420e-855b-676e159ed831","ios":"levelo://app?vid=8e67c6c2-1f86-420e-855b-676e159ed831"},"vehicle_type_id":"4","last_reported":1741126113,"current_range_meters":16400,"station_id":"cpo3342slgdg3j2ifvpg","pricing_plan_id":"cebpf4jnsgd1na2vs0mg"},{"bike_id":"e8fb3957-55aa-4712-b8af-a6da8b77890f","system_id":"levelo_inurba_marseille","lat":43.30163,"lon":5.38114,"is_reserved":false,"is_disabled":false,"rental_uris":{"android":"levelo://app?vid=e8fb3957-55aa-4712-b8af-a6da8b77890f","ios":"levelo://app?vid=e8fb3957-55aa-4712-b8af-a6da8b77890f"},"vehicle_type_id":"4","last_reported":1741126113,"current_range_meters":16400,"station_id":"ce4bgjp2rcd13ifvqbh0","pricing_plan_id":"cebpf4jnsgd1na2vs0mg"},{"bike_id":"9cbb5914-3ce0-45a9-bfe4-895657d5f46f","system_id":"levelo_inurba_marseille","lat":43.23198,"lon":5.35566,"is_reserved":false,"is_disabled":false,"rental_uris":{"android":"levelo://app?vid=9cbb5914-3ce0-45a9-bfe4-895657d5f46f","ios":"levelo://app?vid=9cbb5914-3ce0-45a9-bfe4-895657d5f46f"},"vehicle_type_id":"4","last_reported":1741126113,"current_range_meters":16400,"station_id":"ce4bhu92rcd13ifvqi70","pricing_plan_id":"cebpf4jnsgd1na2vs0mg"},{"bike_id":"6be2d959-3029-43e5-9ca2-a3dfb9eee01b","system_id":"levelo_inurba_marseille","lat":43.30801,"lon":5.43527,"is_reserved":false,"is_disabled":false,"rental_uris":{"android":"levelo://app?vid=6be2d959-3029-43e5-9ca2-a3dfb9eee01b","ios":"levelo://app?vid=6be2d959-3029-43e5-9ca2-a3dfb9eee01b"},"vehicle_type_id":"4","last_reported":1741126113,"current_range_meters":16400,"station_id":"ce4bhph2rcd13ifvqheg","pricing_plan_id":"cebpf4jnsgd1na2vs0mg"},{"bike_id":"7648a690-e079-4051-81ee-1d89d5d250c8","system_id":"levelo_inurba_marseille","lat":43.27912,"lon":5.39584,"is_reserved":false,"is_disabled":false,"rental_uris":{"android":"levelo://app?vid=7648a690-e079-4051-81ee-1d89d5d250c8","ios":"levelo://app?vid=7648a690-e079-4051-81ee-1d89d5d250c8"},"vehicle_type_id":"4","last_reported":1741126113,"current_range_meters":16400,"station_id":"ce4bhf92rcd13ifvqf40","pricing_plan_id":"cebpf4jnsgd1na2vs0mg"},{"bike_id":"dc3a6b58-5b31-44a7-ac04-275ce482a815","system_id":"levelo_inurba_marseille","lat":43.27917,"lon":5.39579,"is_reserved":false,"is_disabled":false,"rental_uris":{"android":"levelo://app?vid=dc3a6b58-5b31-44a7-ac04-275ce482a815","ios":"levelo://app?vid=dc3a6b58-5b31-44a7-ac04-275ce482a815"},"vehicle_type_id":"4","last_reported":1741126113,"current_range_meters":16400,"station_id":"ce4bhf92rcd13ifvqf40","pricing_plan_id":"cebpf4jnsgd1na2vs0mg"},{"bike_id":"3cc3f133-ea3e-486a-b7c5-8a126045bee8","system_id":"levelo_inurba_marseille","lat":43.31711,"lon":5.37759,"is_reserved":false,"is_disabled":false,"rental_uris":{"android":"levelo://app?vid=3cc3f133-ea3e-486a-b7c5-8a126045bee8","ios":"levelo://app?vid=3cc3f133-ea3e-486a-b7c5-8a126045bee8"},"vehicle_type_id":"4","last_reported":1741126113,"current_range_meters":16400,"station_id":"ce4bgth2rcd13ifvqch0","pricing_plan_id":"cebpf4jnsgd1na2vs0mg"},{"bike_id":"76a3511e-20f3-4939-803e-f5be8b81bae7","system_id":"levelo_inurba_marseille","lat":43.303471,"lon":5.392764,"is_reserved":false,"is_disabled":false,"rental_uris":{"android":"levelo://app?vid=76a3511e-20f3-4939-803e-f5be8b81bae7","ios":"levelo://app?vid=76a3511e-20f3-4939-803e-f5be8b81bae7"},"vehicle_type_id":"4","last_reported":1741126113,"current_range_meters":16400,"station_id":"ce4bhb12rcd13ifvqel0","pricing_plan_id":"cebpf4jnsgd1na2vs0mg"},{"bike_id":"6eb45ebf-101a-453b-bd7e-747f45b86cb8","system_id":"levelo_inurba_marseille","lat":43.286751,"lon":5.373903,"is_reserved":false,"is_disabled":false,"rental_uris":{"android":"levelo://app?vid=6eb45ebf-101a-453b-bd7e-747f45b86cb8","ios":"levelo://app?vid=6eb45ebf-101a-453b-bd7e-747f45b86cb8"},"vehicle_type_id":"4","last_reported":1741126113,"current_range_meters":16800,"station_id":"ce4bh3p2rcd13ifvqdq0","pricing_plan_id":"cebpf4jnsgd1na2vs0mg"},{"bike_id":"8479d310-69c3-461f-820a-fc2b327af55a","system_id":"levelo_inurba_marseille","lat":43.25862,"lon":5.39891,"is_reserved":false,"is_disabled":false,"rental_uris":{"android":"levelo://app?vid=8479d310-69c3-461f-820a-fc2b327af55a","ios":"levelo://app?vid=8479d310-69c3-461f-820a-fc2b327af55a"},"vehicle_type_id":"4","last_reported":1741126113,"current_range_meters":16800,"station_id":"ce4bhl92rcd13ifvqghg","pricing_plan_id":"cebpf4jnsgd1na2vs0mg"},{"bike_id":"a30c2f1a-4194-4284-8ef8-99b824fe9ab4","system_id":"levelo_inurba_marseille","lat":43.280334,"lon":5.369481,"is_reserved":false,"is_disabled":false,"rental_uris":{"android":"levelo://app?vid=a30c2f1a-4194-4284-8ef8-99b824fe9ab4","ios":"levelo://app?vid=a30c2f1a-4194-4284-8ef8-99b824fe9ab4"},"vehicle_type_id":"4","last_reported":1741126113,"current_range_meters":16800,"station_id":"ce4bha12rcd13ifvqef0","pricing_plan_id":"cebpf4jnsgd1na2vs0mg"},{"bike_id":"a490f13d-ff40-47b1-9376-19fb2024ec77","system_id":"levelo_inurba_marseille","lat":43.28554,"lon":5.39513,"is_reserved":false,"is_disabled":true,"rental_uris":{"android":"levelo://app?vid=a490f13d-ff40-47b1-9376-19fb2024ec77","ios":"levelo://app?vid=a490f13d-ff40-47b1-9376-19fb2024ec77"},"vehicle_type_id":"4","last_reported":1741126113,"current_range_meters":16800,"station_id":"ce4bh292rcd13ifvqdg0","pricing_plan_id":"cebpf4jnsgd1na2vs0mg"},{"bike_id":"ee59b3a3-0f87-489f-91b5-15c91569f1b2","system_id":"levelo_inurba_marseille","lat":43.24155,"lon":5.36412,"is_reserved":false,"is_disabled":false,"rental_uris":{"android":"levelo://app?vid=ee59b3a3-0f87-489f-91b5-15c91569f1b2","ios":"levelo://app?vid=ee59b3a3-0f87-489f-91b5-15c91569f1b2"},"vehicle_type_id":"4","last_reported":1741126113,"current_range_meters":16800,"station_id":"cpo36qri1sfpv3e86is0","pricing_plan_id":"cebpf4jnsgd1na2vs0mg"},{"bike_id":"c3a15966-d6db-4a67-a176-541b2fe5f082","system_id":"levelo_inurba_marseille","lat":43.32376,"lon":5.38879,"is_reserved":false,"is_disabled":false,"rental_uris":{"android":"levelo://app?vid=c3a15966-d6db-4a67-a176-541b2fe5f082","ios":"levelo://app?vid=c3a15966-d6db-4a67-a176-541b2fe5f082"},"vehicle_type_id":"4","last_reported":1741126113,"current_range_meters":16800,"station_id":"ce4bhqp2rcd13ifvqhog","pricing_plan_id":"cebpf4jnsgd1na2vs0mg"},{"bike_id":"3a61d3ee-a53c-4aba-987b-55941d57629d","system_id":"levelo_inurba_marseille","lat":43.3025,"lon":5.40046,"is_reserved":false,"is_disabled":false,"rental_uris":{"android":"levelo://app?vid=3a61d3ee-a53c-4aba-987b-55941d57629d","ios":"levelo://app?vid=3a61d3ee-a53c-4aba-987b-55941d57629d"},"vehicle_type_id":"4","last_reported":1741126113,"current_range_meters":16800,"station_id":"ce4bgvh2rcd13ifvqcs0","pricing_plan_id":"cebpf4jnsgd1na2vs0mg"},{"bike_id":"b3fee284-9dee-48bb-bfc4-8260c5aeab91","system_id":"levelo_inurba_marseille","lat":43.32301,"lon":5.38135,"is_reserved":false,"is_disabled":false,"rental_uris":{"android":"levelo://app?vid=b3fee284-9dee-48bb-bfc4-8260c5aeab91","ios":"levelo://app?vid=b3fee284-9dee-48bb-bfc4-8260c5aeab91"},"vehicle_type_id":"4","last_reported":1741126113,"current_range_meters":16800,"station_id":"ce4bhr12rcd13ifvqhqg","pricing_plan_id":"cebpf4jnsgd1na2vs0mg"},{"bike_id":"8d621d60-8cad-491f-b42c-ec6da1227a3d","system_id":"levelo_inurba_marseille","lat":43.2954,"lon":5.38534,"is_reserved":false,"is_disabled":false,"rental_uris":{"android":"levelo://app?vid=8d621d60-8cad-491f-b42c-ec6da1227a3d","ios":"levelo://app?vid=8d621d60-8cad-491f-b42c-ec6da1227a3d"},"vehicle_type_id":"4","last_reported":1741126113,"current_range_meters":17200,"station_id":"ce4bgih2rcd13ifvqba0","pricing_plan_id":"cebpf4jnsgd1na2vs0mg"},{"bike_id":"cb80388b-8041-4c60-a895-a163ef95da6f","system_id":"levelo_inurba_marseille","lat":43.28442,"lon":5.35909,"is_reserved":false,"is_disabled":false,"rental_uris":{"android":"levelo://app?vid=cb80388b-8041-4c60-a895-a163ef95da6f","ios":"levelo://app?vid=cb80388b-8041-4c60-a895-a163ef95da6f"},"vehicle_type_id":"4","last_reported":1741126113,"current_range_meters":17200,"station_id":"ce4bhah2rcd13ifvqei0","pricing_plan_id":"cebpf4jnsgd1na2vs0mg"},{"bike_id":"6cd2c9f3-9c64-4f6f-a748-c71c29ea4e8f","system_id":"levelo_inurba_marseille","lat":43.32368,"lon":5.38899,"is_reserved":false,"is_disabled":false,"rental_uris":{"android":"levelo://app?vid=6cd2c9f3-9c64-4f6f-a748-c71c29ea4e8f","ios":"levelo://app?vid=6cd2c9f3-9c64-4f6f-a748-c71c29ea4e8f"},"vehicle_type_id":"4","last_reported":1741126113,"current_range_meters":17200,"station_id":"ce4bhqp2rcd13ifvqhog","pricing_plan_id":"cebpf4jnsgd1na2vs0mg"},{"bike_id":"a7fdb7b9-1bc1-4687-abde-015d347a9641","system_id":"levelo_inurba_marseille","lat":43.29912,"lon":5.43635,"is_reserved":false,"is_disabled":false,"rental_uris":{"android":"levelo://app?vid=a7fdb7b9-1bc1-4687-abde-015d347a9641","ios":"levelo://app?vid=a7fdb7b9-1bc1-4687-abde-015d347a9641"},"vehicle_type_id":"4","last_reported":1741126113,"current_range_meters":17200,"station_id":"ce4bhpp2rcd13ifvqhfg","pricing_plan_id":"cebpf4jnsgd1na2vs0mg"},{"bike_id":"ddc4e932-3700-46b0-a34f-49ccac99feb1","system_id":"levelo_inurba_marseille","lat":43.28414,"lon":5.3751,"is_reserved":false,"is_disabled":false,"rental_uris":{"android":"levelo://app?vid=ddc4e932-3700-46b0-a34f-49ccac99feb1","ios":"levelo://app?vid=ddc4e932-3700-46b0-a34f-49ccac99feb1"},"vehicle_type_id":"4","last_reported":1741126113,"current_range_meters":17200,"station_id":"ce4bh412rcd13ifvqds0","pricing_plan_id":"cebpf4jnsgd1na2vs0mg"},{"bike_id":"dbc958c9-b359-4140-80d7-1f164ada71f5","system_id":"levelo_inurba_marseille","lat":43.31507,"lon":5.37277,"is_reserved":false,"is_disabled":false,"rental_uris":{"android":"levelo://app?vid=dbc958c9-b359-4140-80d7-1f164ada71f5","ios":"levelo://app?vid=dbc958c9-b359-4140-80d7-1f164ada71f5"},"vehicle_type_id":"4","last_reported":1741126113,"current_range_meters":17200,"station_id":"ce4bgt12rcd13ifvqcd0","pricing_plan_id":"cebpf4jnsgd1na2vs0mg"},{"bike_id":"c9e6218b-e80f-4165-b8e8-df9d45aac696","system_id":"levelo_inurba_marseille","lat":43.31714,"lon":5.43704,"is_reserved":false,"is_disabled":false,"rental_uris":{"android":"levelo://app?vid=c9e6218b-e80f-4165-b8e8-df9d45aac696","ios":"levelo://app?vid=c9e6218b-e80f-4165-b8e8-df9d45aac696"},"vehicle_type_id":"4","last_reported":1741126113,"current_range_meters":17200,"station_id":"ce4bhp92rcd13ifvqhcg","pricing_plan_id":"cebpf4jnsgd1na2vs0mg"},{"bike_id":"21f40bc2-71f2-4511-82ad-bf1469de6469","system_id":"levelo_inurba_marseille","lat":43.30257,"lon":5.40044,"is_reserved":false,"is_disabled":false,"rental_uris":{"android":"levelo://app?vid=21f40bc2-71f2-4511-82ad-bf1469de6469","ios":"levelo://app?vid=21f40bc2-71f2-4511-82ad-bf1469de6469"},"vehicle_type_id":"4","last_reported":1741126113,"current_range_meters":17600,"station_id":"ce4bgvh2rcd13ifvqcs0","pricing_plan_id":"cebpf4jnsgd1na2vs0mg"},{"bike_id":"dfa7f32a-c716-402c-9680-a3f8333c7ce7","system_id":"levelo_inurba_marseille","lat":43.27439,"lon":5.394,"is_reserved":false,"is_disabled":true,"rental_uris":{"android":"levelo://app?vid=dfa7f32a-c716-402c-9680-a3f8333c7ce7","ios":"levelo://app?vid=dfa7f32a-c716-402c-9680-a3f8333c7ce7"},"vehicle_type_id":"4","last_reported":1741126113,"current_range_meters":17600,"station_id":"ce4bhdp2rcd13ifvqf20","pricing_plan_id":"cebpf4jnsgd1na2vs0mg"},{"bike_id":"f82ced27-8e79-4389-b0a0-c023d547ec4d","system_id":"levelo_inurba_marseille","lat":43.24997,"lon":5.38929,"is_reserved":false,"is_disabled":false,"rental_uris":{"android":"levelo://app?vid=f82ced27-8e79-4389-b0a0-c023d547ec4d","ios":"levelo://app?vid=f82ced27-8e79-4389-b0a0-c023d547ec4d"},"vehicle_type_id":"4","last_reported":1741126113,"current_range_meters":17600,"station_id":"ce4bhgp2rcd13ifvqfd0","pricing_plan_id":"cebpf4jnsgd1na2vs0mg"},{"bike_id":"aa2df70d-6382-46d7-b4f4-57998ee8a055","system_id":"levelo_inurba_marseille","lat":43.23194,"lon":5.40006,"is_reserved":false,"is_disabled":false,"rental_uris":{"android":"levelo://app?vid=aa2df70d-6382-46d7-b4f4-57998ee8a055","ios":"levelo://app?vid=aa2df70d-6382-46d7-b4f4-57998ee8a055"},"vehicle_type_id":"4","last_reported":1741126113,"current_range_meters":17600,"station_id":"ce4bhn12rcd13ifvqgqg","pricing_plan_id":"cebpf4jnsgd1na2vs0mg"},{"bike_id":"88e07226-7432-4ddd-89d1-6e5d118ecb82","system_id":"levelo_inurba_marseille","lat":43.29864,"lon":5.38914,"is_reserved":false,"is_disabled":false,"rental_uris":{"android":"levelo://app?vid=88e07226-7432-4ddd-89d1-6e5d118ecb82","ios":"levelo://app?vid=88e07226-7432-4ddd-89d1-6e5d118ecb82"},"vehicle_type_id":"4","last_reported":1741126113,"current_range_meters":17600,"station_id":"ce4bh392rcd13ifvqdl0","pricing_plan_id":"cebpf4jnsgd1na2vs0mg"},{"bike_id":"e393c4f0-9316-491d-8133-59a94bb0f619","system_id":"levelo_inurba_marseille","lat":43.29907,"lon":5.4366,"is_reserved":false,"is_disabled":false,"rental_uris":{"android":"levelo://app?vid=e393c4f0-9316-491d-8133-59a94bb0f619","ios":"levelo://app?vid=e393c4f0-9316-491d-8133-59a94bb0f619"},"vehicle_type_id":"4","last_reported":1741126113,"current_range_meters":18000,"station_id":"ce4bhpp2rcd13ifvqhfg","pricing_plan_id":"cebpf4jnsgd1na2vs0mg"},{"bike_id":"698a5c02-3ef4-4dd3-ae83-c48ad7e32161","system_id":"levelo_inurba_marseille","lat":43.30297,"lon":5.39215,"is_reserved":false,"is_disabled":false,"rental_uris":{"android":"levelo://app?vid=698a5c02-3ef4-4dd3-ae83-c48ad7e32161","ios":"levelo://app?vid=698a5c02-3ef4-4dd3-ae83-c48ad7e32161"},"vehicle_type_id":"4","last_reported":1741126113,"current_range_meters":18000,"station_id":"ce4bgkh2rcd13ifvqbk0","pricing_plan_id":"cebpf4jnsgd1na2vs0mg"},